{"last_updated":1734606445,"ttl":60,"version":"2.2","data":{"bikes":[{"bike_id":"74dc27b5-e2a4-4b1e-9dc3-5894ac4bda0a","system_id":"levelo_inurba_marseille","lat":43.29804,"lon":5.37298,"is_reserved":false,"is_disabled":true,"rental_uris":{"android":"levelo://app?vid=74dc27b5-e2a4-4b1e-9dc3-5894ac4bda0a","ios":"levelo://app?vid=74dc27b5-e2a4-4b1e-9dc3-5894ac4bda0a"},"vehicle_type_id":"4","last_reported":1734606445,"current_range_meters":0,"station_id":"","pricing_plan_id":"cebpf4jnsgd1na2vs0mg"},{"bike_id":"b8829d85-2ac3-47d9-a3f0-e980ddf998e1","system_id":"levelo_inurba_marseille","lat":43.30143,"lon":5.37426,"is_reserved":false,"is_disabled":false,"rental_uris":{"android":"levelo://app?vid=b8829d85-2ac3-47d9-a3f0-e980ddf998e1","ios":"levelo://app?vid=b8829d85-2ac3-47d9-a3f0-e980ddf998e1"},"vehicle_type_id":"4","last_reported":1734606445,"current_range_meters":28000,"station_id":"ce4bgs92rcd13ifvqcc0","pricing_plan_id":"cebpf4jnsgd1na2vs0mg"},{"bike_id":"8f438070-4379-48f1-b4d7-f27398447f3e","system_id":"levelo_inurba_marseille","lat":43.31271,"lon":5.40179,"is_reserved":false,"is_disabled":false,"rental_uris":{"android":"levelo://app?vid=8f438070-4379-48f1-b4d7-f27398447f3e","ios":"levelo://app?vid=8f438070-4379-48f1-b4d7-f27398447f3e"},"vehicle_type_id":"4","last_reported":1734606445,"current_range_meters":16800,"station_id":"ce4bh092rcd13ifvqd30","pricing_plan_id":"cebpf4jnsgd1na2vs0mg"},{"bike_id":"d11baf8e-015c-40b5-a1e6-f2929fc6cc45","system_id":"levelo_inurba_marseille","lat":43.23224,"lon":5.39985,"is_reserved":false,"is_disabled":false,"rental_uris":{"android":"levelo://app?vid=d11baf8e-015c-40b5-a1e6-f2929fc6cc45","ios":"levelo://app?vid=d11baf8e-015c-40b5-a1e6-f2929fc6cc45"},"vehicle_type_id":"4","last_reported":1734606445,"current_range_meters":38000,"station_id":"","pricing_plan_id":"cebpf4jnsgd1na2vs0mg"},{"bike_id":"0b3c962c-40d1-4375-b60d-644d72aaacf1","system_id":"levelo_inurba_marseille","lat":43.28011,"lon":5.40394,"is_reserved":false,"is_disabled":true,"rental_uris":{"android":"levelo://app?vid=0b3c962c-40d1-4375-b60d-644d72aaacf1","ios":"levelo://app?vid=0b3c962c-40d1-4375-b60d-644d72aaacf1"},"vehicle_type_id":"4","last_reported":1734606445,"current_range_meters":0,"station_id":"","pricing_plan_id":"cebpf4jnsgd1na2vs0mg"},{"bike_id":"c2da0e40-f00d-40ec-90e8-674de7bcb5cf","system_id":"levelo_inurba_marseille","lat":43.30795,"lon":5.38158,"is_reserved":false,"is_disabled":false,"rental_uris":{"android":"levelo://app?vid=c2da0e40-f00d-40ec-90e8-674de7bcb5cf","ios":"levelo://app?vid=c2da0e40-f00d-40ec-90e8-674de7bcb5cf"},"vehicle_type_id":"4","last_reported":1734606445,"current_range_meters":34000,"station_id":"ce4bgt12rcd13ifvqce0","pricing_plan_id":"cebpf4jnsgd1na2vs0mg"},{"bike_id":"3b5b02e2-92a0-43fc-8f2d-a81d0fb57fe6","system_id":"levelo_inurba_marseille","lat":43.23172,"lon":5.43757,"is_reserved":false,"is_disabled":false,"rental_uris":{"android":"levelo://app?vid=3b5b02e2-92a0-43fc-8f2d-a81d0fb57fe6","ios":"levelo://app?vid=3b5b02e2-92a0-43fc-8f2d-a81d0fb57fe6"},"vehicle_type_id":"4","last_reported":1734606445,"current_range_meters":39200,"station_id":"ce4bhmp2rcd13ifvqgog","pricing_plan_id":"cebpf4jnsgd1na2vs0mg"},{"bike_id":"1a7a0d30-8421-4437-9d10-cf2397e85b04","system_id":"levelo_inurba_marseille","lat":43.26814,"lon":5.40266,"is_reserved":false,"is_disabled":false,"rental_uris":{"android":"levelo://app?vid=1a7a0d30-8421-4437-9d10-cf2397e85b04","ios":"levelo://app?vid=1a7a0d30-8421-4437-9d10-cf2397e85b04"},"vehicle_type_id":"4","last_reported":1734606445,"current_range_meters":38400,"station_id":"ce501612rcd8frsf0b60","pricing_plan_id":"cebpf4jnsgd1na2vs0mg"},{"bike_id":"03f1bdbc-0385-4309-afe2-78693a87e74d","system_id":"levelo_inurba_marseille","lat":43.30436,"lon":5.38894,"is_reserved":false,"is_disabled":true,"rental_uris":{"android":"levelo://app?vid=03f1bdbc-0385-4309-afe2-78693a87e74d","ios":"levelo://app?vid=03f1bdbc-0385-4309-afe2-78693a87e74d"},"vehicle_type_id":"4","last_reported":1734606445,"current_range_meters":38800,"station_id":"ce4bgk12rcd13ifvqbi0","pricing_plan_id":"cebpf4jnsgd1na2vs0mg"},{"bike_id":"53216bc0-db19-436b-803c-24b87a4c95f3","system_id":"levelo_inurba_marseille","lat":43.32472,"lon":5.36581,"is_reserved":false,"is_disabled":false,"rental_uris":{"android":"levelo://app?vid=53216bc0-db19-436b-803c-24b87a4c95f3","ios":"levelo://app?vid=53216bc0-db19-436b-803c-24b87a4c95f3"},"vehicle_type_id":"4","last_reported":1734606445,"current_range_meters":38800,"station_id":"ce4bhs12rcd13ifvqhvg","pricing_plan_id":"cebpf4jnsgd1na2vs0mg"},{"bike_id":"3418411d-15c7-4033-85fc-d84b23d5d716","system_id":"levelo_inurba_marseille","lat":43.2988,"lon":5.3973,"is_reserved":false,"is_disabled":false,"rental_uris":{"android":"levelo://app?vid=3418411d-15c7-4033-85fc-d84b23d5d716","ios":"levelo://app?vid=3418411d-15c7-4033-85fc-d84b23d5d716"},"vehicle_type_id":"4","last_reported":1734606445,"current_range_meters":9200,"station_id":"ce4bh0h2rcd13ifvqd50","pricing_plan_id":"cebpf4jnsgd1na2vs0mg"},{"bike_id":"3417d897-84a9-44ba-81ef-40200cfed818","system_id":"levelo_inurba_marseille","lat":43.25729,"lon":5.41118,"is_reserved":false,"is_disabled":false,"rental_uris":{"android":"levelo://app?vid=3417d897-84a9-44ba-81ef-40200cfed818","ios":"levelo://app?vid=3417d897-84a9-44ba-81ef-40200cfed818"},"vehicle_type_id":"4","last_reported":1734606445,"current_range_meters":38800,"station_id":"ce4bhkp2rcd13ifvqgd0","pricing_plan_id":"cebpf4jnsgd1na2vs0mg"},{"bike_id":"b3a0a937-593c-426c-a8c8-0efad309623d","system_id":"levelo_inurba_marseille","lat":43.2927,"lon":5.40129,"is_reserved":false,"is_disabled":true,"rental_uris":{"android":"levelo://app?vid=b3a0a937-593c-426c-a8c8-0efad309623d","ios":"levelo://app?vid=b3a0a937-593c-426c-a8c8-0efad309623d"},"vehicle_type_id":"4","last_reported":1734606445,"current_range_meters":29600,"station_id":"ce4bh312rcd13ifvqdk0","pricing_plan_id":"cebpf4jnsgd1na2vs0mg"},{"bike_id":"ba009d8e-0840-435f-99ae-ad353dc413fa","system_id":"levelo_inurba_marseille","lat":43.29629,"lon":5.37749,"is_reserved":false,"is_disabled":true,"rental_uris":{"android":"levelo://app?vid=ba009d8e-0840-435f-99ae-ad353dc413fa","ios":"levelo://app?vid=ba009d8e-0840-435f-99ae-ad353dc413fa"},"vehicle_type_id":"4","last_reported":1734606445,"current_range_meters":39200,"station_id":"ce4bgi92rcd13ifvqb90","pricing_plan_id":"cebpf4jnsgd1na2vs0mg"},{"bike_id":"53c5dd90-208e-4b14-9aec-3133385e99e3","system_id":"levelo_inurba_marseille","lat":43.29559,"lon":5.42282,"is_reserved":false,"is_disabled":false,"rental_uris":{"android":"levelo://app?vid=53c5dd90-208e-4b14-9aec-3133385e99e3","ios":"levelo://app?vid=53c5dd90-208e-4b14-9aec-3133385e99e3"},"vehicle_type_id":"4","last_reported":1734606445,"current_range_meters":8400,"station_id":"ce4bhph2rcd13ifvqhdg","pricing_plan_id":"cebpf4jnsgd1na2vs0mg"},{"bike_id":"bac543e1-e50a-4a1f-bfca-9eb29ba28e1c","system_id":"levelo_inurba_marseille","lat":43.30538,"lon":5.38422,"is_reserved":false,"is_disabled":false,"rental_uris":{"android":"levelo://app?vid=bac543e1-e50a-4a1f-bfca-9eb29ba28e1c","ios":"levelo://app?vid=bac543e1-e50a-4a1f-bfca-9eb29ba28e1c"},"vehicle_type_id":"4","last_reported":1734606445,"current_range_meters":8400,"station_id":"ce4bgg92rcd13ifvqb30","pricing_plan_id":"cebpf4jnsgd1na2vs0mg"},{"bike_id":"62cc5a16-2562-4639-85b3-96bc9a8ba745","system_id":"levelo_inurba_marseille","lat":43.29845,"lon":5.36274,"is_reserved":false,"is_disabled":false,"rental_uris":{"android":"levelo://app?vid=62cc5a16-2562-4639-85b3-96bc9a8ba745","ios":"levelo://app?vid=62cc5a16-2562-4639-85b3-96bc9a8ba745"},"vehicle_type_id":"4","last_reported":1734606445,"current_range_meters":10800,"station_id":"ce4bgpp2rcd13ifvqc3g","pricing_plan_id":"cebpf4jnsgd1na2vs0mg"},{"bike_id":"f631723e-cbe0-4b23-9160-6a6eda9b47f3","system_id":"levelo_inurba_marseille","lat":43.29199,"lon":5.35812,"is_reserved":false,"is_disabled":false,"rental_uris":{"android":"levelo://app?vid=f631723e-cbe0-4b23-9160-6a6eda9b47f3","ios":"levelo://app?vid=f631723e-cbe0-4b23-9160-6a6eda9b47f3"},"vehicle_type_id":"4","last_reported":1734606445,"current_range_meters":32400,"station_id":"ce4bhb12rcd13ifvqel0","pricing_plan_id":"cebpf4jnsgd1na2vs0mg"},{"bike_id":"1ae1ebdf-97d7-464c-a201-4cdfd20bf6dc","system_id":"levelo_inurba_marseille","lat":43.289453,"lon":5.363905,"is_reserved":false,"is_disabled":false,"rental_uris":{"android":"levelo://app?vid=1ae1ebdf-97d7-464c-a201-4cdfd20bf6dc","ios":"levelo://app?vid=1ae1ebdf-97d7-464c-a201-4cdfd20bf6dc"},"vehicle_type_id":"4","last_reported":1734606445,"current_range_meters":23200,"station_id":"ce4bhc92rcd13ifvqetg","pricing_plan_id":"cebpf4jnsgd1na2vs0mg"},{"bike_id":"c2428696-5071-4583-a307-7824b98ac4b0","system_id":"levelo_inurba_marseille","lat":43.32658,"lon":5.40992,"is_reserved":false,"is_disabled":false,"rental_uris":{"android":"levelo://app?vid=c2428696-5071-4583-a307-7824b98ac4b0","ios":"levelo://app?vid=c2428696-5071-4583-a307-7824b98ac4b0"},"vehicle_type_id":"4","last_reported":1734606445,"current_range_meters":19200,"station_id":"ce4bhpp2rcd13ifvqhgg","pricing_plan_id":"cebpf4jnsgd1na2vs0mg"},{"bike_id":"d34bdf4f-71bc-4ae4-b273-f3852ddc692a","system_id":"levelo_inurba_marseille","lat":43.337444,"lon":5.374475,"is_reserved":false,"is_disabled":false,"rental_uris":{"android":"levelo://app?vid=d34bdf4f-71bc-4ae4-b273-f3852ddc692a","ios":"levelo://app?vid=d34bdf4f-71bc-4ae4-b273-f3852ddc692a"},"vehicle_type_id":"4","last_reported":1734606445,"current_range_meters":32000,"station_id":"","pricing_plan_id":"cebpf4jnsgd1na2vs0mg"},{"bike_id":"b1e9075e-a107-4a74-b2de-680e6c9e3fe8","system_id":"levelo_inurba_marseille","lat":43.29622,"lon":5.37733,"is_reserved":false,"is_disabled":false,"rental_uris":{"android":"levelo://app?vid=b1e9075e-a107-4a74-b2de-680e6c9e3fe8","ios":"levelo://app?vid=b1e9075e-a107-4a74-b2de-680e6c9e3fe8"},"vehicle_type_id":"4","last_reported":1734606445,"current_range_meters":20400,"station_id":"ce4bgi92rcd13ifvqb90","pricing_plan_id":"cebpf4jnsgd1na2vs0mg"},{"bike_id":"48e8a4d3-495f-4a31-87a3-01d68c2999f2","system_id":"levelo_inurba_marseille","lat":43.27984,"lon":5.3874,"is_reserved":false,"is_disabled":false,"rental_uris":{"android":"levelo://app?vid=48e8a4d3-495f-4a31-87a3-01d68c2999f2","ios":"levelo://app?vid=48e8a4d3-495f-4a31-87a3-01d68c2999f2"},"vehicle_type_id":"4","last_reported":1734606445,"current_range_meters":28400,"station_id":"ce4bhg12rcd13ifvqf80","pricing_plan_id":"cebpf4jnsgd1na2vs0mg"},{"bike_id":"312f26c3-4c98-4bb4-bda7-ac70380bf225","system_id":"levelo_inurba_marseille","lat":43.29306,"lon":5.37174,"is_reserved":false,"is_disabled":false,"rental_uris":{"android":"levelo://app?vid=312f26c3-4c98-4bb4-bda7-ac70380bf225","ios":"levelo://app?vid=312f26c3-4c98-4bb4-bda7-ac70380bf225"},"vehicle_type_id":"4","last_reported":1734606445,"current_range_meters":38800,"station_id":"ce4bgh92rcd13ifvqb40","pricing_plan_id":"cebpf4jnsgd1na2vs0mg"},{"bike_id":"bec40a7c-d6af-4aad-8945-d38c44edcda9","system_id":"levelo_inurba_marseille","lat":43.29319,"lon":5.37182,"is_reserved":false,"is_disabled":false,"rental_uris":{"android":"levelo://app?vid=bec40a7c-d6af-4aad-8945-d38c44edcda9","ios":"levelo://app?vid=bec40a7c-d6af-4aad-8945-d38c44edcda9"},"vehicle_type_id":"4","last_reported":1734606445,"current_range_meters":38800,"station_id":"ce4bgh92rcd13ifvqb40","pricing_plan_id":"cebpf4jnsgd1na2vs0mg"},{"bike_id":"cece21bd-76d6-4f19-b3ff-0220eec8a48b","system_id":"levelo_inurba_marseille","lat":43.29189,"lon":5.35808,"is_reserved":false,"is_disabled":false,"rental_uris":{"android":"levelo://app?vid=cece21bd-76d6-4f19-b3ff-0220eec8a48b","ios":"levelo://app?vid=cece21bd-76d6-4f19-b3ff-0220eec8a48b"},"vehicle_type_id":"4","last_reported":1734606445,"current_range_meters":38000,"station_id":"ce4bhb12rcd13ifvqel0","pricing_plan_id":"cebpf4jnsgd1na2vs0mg"},{"bike_id":"850009f2-e796-4ba2-8c82-95e9f817270f","system_id":"levelo_inurba_marseille","lat":43.29793,"lon":5.38108,"is_reserved":false,"is_disabled":false,"rental_uris":{"android":"levelo://app?vid=850009f2-e796-4ba2-8c82-95e9f817270f","ios":"levelo://app?vid=850009f2-e796-4ba2-8c82-95e9f817270f"},"vehicle_type_id":"4","last_reported":1734606445,"current_range_meters":37600,"station_id":"ce4bgip2rcd13ifvqbb0","pricing_plan_id":"cebpf4jnsgd1na2vs0mg"},{"bike_id":"8c3bd2a5-ccca-423a-b477-80e682884afa","system_id":"levelo_inurba_marseille","lat":43.29886,"lon":5.38897,"is_reserved":false,"is_disabled":false,"rental_uris":{"android":"levelo://app?vid=8c3bd2a5-ccca-423a-b477-80e682884afa","ios":"levelo://app?vid=8c3bd2a5-ccca-423a-b477-80e682884afa"},"vehicle_type_id":"4","last_reported":1734606445,"current_range_meters":38800,"station_id":"ce4bh392rcd13ifvqdl0","pricing_plan_id":"cebpf4jnsgd1na2vs0mg"},{"bike_id":"714b968a-6ecb-4bfa-a210-b7fbcf0c5de1","system_id":"levelo_inurba_marseille","lat":43.29987,"lon":5.37191,"is_reserved":false,"is_disabled":true,"rental_uris":{"android":"levelo://app?vid=714b968a-6ecb-4bfa-a210-b7fbcf0c5de1","ios":"levelo://app?vid=714b968a-6ecb-4bfa-a210-b7fbcf0c5de1"},"vehicle_type_id":"4","last_reported":1734606445,"current_range_meters":38800,"station_id":"ce4bgr92rcd13ifvqc7g","pricing_plan_id":"cebpf4jnsgd1na2vs0mg"},{"bike_id":"4cb2ad4d-0b7d-497c-b467-6d51f447e8a9","system_id":"levelo_inurba_marseille","lat":43.30145,"lon":5.37425,"is_reserved":false,"is_disabled":false,"rental_uris":{"android":"levelo://app?vid=4cb2ad4d-0b7d-497c-b467-6d51f447e8a9","ios":"levelo://app?vid=4cb2ad4d-0b7d-497c-b467-6d51f447e8a9"},"vehicle_type_id":"4","last_reported":1734606445,"current_range_meters":38800,"station_id":"ce4bgs92rcd13ifvqcc0","pricing_plan_id":"cebpf4jnsgd1na2vs0mg"},{"bike_id":"2491c714-f3f7-493b-9790-9992e16c8fb6","system_id":"levelo_inurba_marseille","lat":43.34151,"lon":5.40898,"is_reserved":false,"is_disabled":false,"rental_uris":{"android":"levelo://app?vid=2491c714-f3f7-493b-9790-9992e16c8fb6","ios":"levelo://app?vid=2491c714-f3f7-493b-9790-9992e16c8fb6"},"vehicle_type_id":"4","last_reported":1734606445,"current_range_meters":39200,"station_id":"ce4bhqh2rcd13ifvqhlg","pricing_plan_id":"cebpf4jnsgd1na2vs0mg"},{"bike_id":"d8f5e76e-f9f7-4677-b4d2-89d449c9f02e","system_id":"levelo_inurba_marseille","lat":43.29903,"lon":5.43693,"is_reserved":false,"is_disabled":false,"rental_uris":{"android":"levelo://app?vid=d8f5e76e-f9f7-4677-b4d2-89d449c9f02e","ios":"levelo://app?vid=d8f5e76e-f9f7-4677-b4d2-89d449c9f02e"},"vehicle_type_id":"4","last_reported":1734606445,"current_range_meters":14000,"station_id":"ce4bhpp2rcd13ifvqhfg","pricing_plan_id":"cebpf4jnsgd1na2vs0mg"},{"bike_id":"ea1ee0a0-f240-4d25-84d9-e6fb6fc7a18c","system_id":"levelo_inurba_marseille","lat":43.33776,"lon":5.42097,"is_reserved":false,"is_disabled":true,"rental_uris":{"android":"levelo://app?vid=ea1ee0a0-f240-4d25-84d9-e6fb6fc7a18c","ios":"levelo://app?vid=ea1ee0a0-f240-4d25-84d9-e6fb6fc7a18c"},"vehicle_type_id":"4","last_reported":1734606445,"current_range_meters":0,"station_id":"","pricing_plan_id":"cebpf4jnsgd1na2vs0mg"},{"bike_id":"f3533e98-0deb-4fca-8fe4-a395b0eb3696","system_id":"levelo_inurba_marseille","lat":43.29612,"lon":5.38112,"is_reserved":false,"is_disabled":false,"rental_uris":{"android":"levelo://app?vid=f3533e98-0deb-4fca-8fe4-a395b0eb3696","ios":"levelo://app?vid=f3533e98-0deb-4fca-8fe4-a395b0eb3696"},"vehicle_type_id":"4","last_reported":1734606445,"current_range_meters":6800,"station_id":"ce4bgl12rcd13ifvqbo0","pricing_plan_id":"cebpf4jnsgd1na2vs0mg"},{"bike_id":"e38c48a5-d8ec-423d-8497-560973e27894","system_id":"levelo_inurba_marseille","lat":43.29578,"lon":5.36745,"is_reserved":false,"is_disabled":false,"rental_uris":{"android":"levelo://app?vid=e38c48a5-d8ec-423d-8497-560973e27894","ios":"levelo://app?vid=e38c48a5-d8ec-423d-8497-560973e27894"},"vehicle_type_id":"4","last_reported":1734606445,"current_range_meters":36000,"station_id":"ce4bgph2rcd13ifvqc2g","pricing_plan_id":"cebpf4jnsgd1na2vs0mg"},{"bike_id":"1dd3e3df-a9f0-4b80-8ae4-214330cb9cec","system_id":"levelo_inurba_marseille","lat":43.30879,"lon":5.39654,"is_reserved":false,"is_disabled":false,"rental_uris":{"android":"levelo://app?vid=1dd3e3df-a9f0-4b80-8ae4-214330cb9cec","ios":"levelo://app?vid=1dd3e3df-a9f0-4b80-8ae4-214330cb9cec"},"vehicle_type_id":"4","last_reported":1734606445,"current_range_meters":28400,"station_id":"ce4bh012rcd13ifvqcv0","pricing_plan_id":"cebpf4jnsgd1na2vs0mg"},{"bike_id":"c1a1fa5f-d29e-4426-91a1-216d47a2aade","system_id":"levelo_inurba_marseille","lat":43.29306,"lon":5.37178,"is_reserved":false,"is_disabled":false,"rental_uris":{"android":"levelo://app?vid=c1a1fa5f-d29e-4426-91a1-216d47a2aade","ios":"levelo://app?vid=c1a1fa5f-d29e-4426-91a1-216d47a2aade"},"vehicle_type_id":"4","last_reported":1734606445,"current_range_meters":21600,"station_id":"ce4bgh92rcd13ifvqb40","pricing_plan_id":"cebpf4jnsgd1na2vs0mg"},{"bike_id":"77592e58-7330-482c-98aa-1362dec7556c","system_id":"levelo_inurba_marseille","lat":43.30527,"lon":5.36546,"is_reserved":false,"is_disabled":false,"rental_uris":{"android":"levelo://app?vid=77592e58-7330-482c-98aa-1362dec7556c","ios":"levelo://app?vid=77592e58-7330-482c-98aa-1362dec7556c"},"vehicle_type_id":"4","last_reported":1734606445,"current_range_meters":39200,"station_id":"ce4bgs12rcd13ifvqcag","pricing_plan_id":"cebpf4jnsgd1na2vs0mg"},{"bike_id":"870b1774-5ba7-4e57-aa62-194fdec367fa","system_id":"levelo_inurba_marseille","lat":43.29924,"lon":5.37471,"is_reserved":false,"is_disabled":false,"rental_uris":{"android":"levelo://app?vid=870b1774-5ba7-4e57-aa62-194fdec367fa","ios":"levelo://app?vid=870b1774-5ba7-4e57-aa62-194fdec367fa"},"vehicle_type_id":"4","last_reported":1734606445,"current_range_meters":35200,"station_id":"ce4bgjh2rcd13ifvqbg0","pricing_plan_id":"cebpf4jnsgd1na2vs0mg"},{"bike_id":"8d433506-395d-4e89-a350-9d51df9efab7","system_id":"levelo_inurba_marseille","lat":43.24648,"lon":5.38893,"is_reserved":false,"is_disabled":false,"rental_uris":{"android":"levelo://app?vid=8d433506-395d-4e89-a350-9d51df9efab7","ios":"levelo://app?vid=8d433506-395d-4e89-a350-9d51df9efab7"},"vehicle_type_id":"4","last_reported":1734606445,"current_range_meters":33200,"station_id":"ce4bhg12rcd13ifvqf60","pricing_plan_id":"cebpf4jnsgd1na2vs0mg"},{"bike_id":"f0d98f58-1fda-491c-bbf0-1855dd7d2a7c","system_id":"levelo_inurba_marseille","lat":43.31488,"lon":5.37307,"is_reserved":false,"is_disabled":false,"rental_uris":{"android":"levelo://app?vid=f0d98f58-1fda-491c-bbf0-1855dd7d2a7c","ios":"levelo://app?vid=f0d98f58-1fda-491c-bbf0-1855dd7d2a7c"},"vehicle_type_id":"4","last_reported":1734606445,"current_range_meters":31200,"station_id":"ce4bgt12rcd13ifvqcd0","pricing_plan_id":"cebpf4jnsgd1na2vs0mg"},{"bike_id":"8cd6cfc8-d894-4850-bf59-7eb31e603e98","system_id":"levelo_inurba_marseille","lat":43.3055,"lon":5.36525,"is_reserved":false,"is_disabled":false,"rental_uris":{"android":"levelo://app?vid=8cd6cfc8-d894-4850-bf59-7eb31e603e98","ios":"levelo://app?vid=8cd6cfc8-d894-4850-bf59-7eb31e603e98"},"vehicle_type_id":"4","last_reported":1734606445,"current_range_meters":28800,"station_id":"ce4bgs12rcd13ifvqcag","pricing_plan_id":"cebpf4jnsgd1na2vs0mg"},{"bike_id":"63cff5eb-1415-48a9-b127-707db35946f5","system_id":"levelo_inurba_marseille","lat":43.27834,"lon":5.39206,"is_reserved":false,"is_disabled":false,"rental_uris":{"android":"levelo://app?vid=63cff5eb-1415-48a9-b127-707db35946f5","ios":"levelo://app?vid=63cff5eb-1415-48a9-b127-707db35946f5"},"vehicle_type_id":"4","last_reported":1734606445,"current_range_meters":38000,"station_id":"ce4bhjp2rcd13ifvqga0","pricing_plan_id":"cebpf4jnsgd1na2vs0mg"},{"bike_id":"04160c74-0c14-43dc-a1ea-014ddd2d56b6","system_id":"levelo_inurba_marseille","lat":43.29555,"lon":5.42237,"is_reserved":false,"is_disabled":false,"rental_uris":{"android":"levelo://app?vid=04160c74-0c14-43dc-a1ea-014ddd2d56b6","ios":"levelo://app?vid=04160c74-0c14-43dc-a1ea-014ddd2d56b6"},"vehicle_type_id":"4","last_reported":1734606445,"current_range_meters":30800,"station_id":"ce4bhph2rcd13ifvqhdg","pricing_plan_id":"cebpf4jnsgd1na2vs0mg"},{"bike_id":"06b03a71-2c60-49ac-ae36-76d0c0c37129","system_id":"levelo_inurba_marseille","lat":43.299138,"lon":5.374753,"is_reserved":false,"is_disabled":false,"rental_uris":{"android":"levelo://app?vid=06b03a71-2c60-49ac-ae36-76d0c0c37129","ios":"levelo://app?vid=06b03a71-2c60-49ac-ae36-76d0c0c37129"},"vehicle_type_id":"4","last_reported":1734606445,"current_range_meters":26000,"station_id":"ce4bgjh2rcd13ifvqbg0","pricing_plan_id":"cebpf4jnsgd1na2vs0mg"},{"bike_id":"d628b83f-ef62-4203-9ebe-94bf937efc3c","system_id":"levelo_inurba_marseille","lat":43.23965,"lon":5.3663,"is_reserved":false,"is_disabled":false,"rental_uris":{"android":"levelo://app?vid=d628b83f-ef62-4203-9ebe-94bf937efc3c","ios":"levelo://app?vid=d628b83f-ef62-4203-9ebe-94bf937efc3c"},"vehicle_type_id":"4","last_reported":1734606445,"current_range_meters":3600,"station_id":"ce4bhi12rcd13ifvqfp0","pricing_plan_id":"cebpf4jnsgd1na2vs0mg"},{"bike_id":"71e806a8-b121-4f5b-a91d-1973653cb90c","system_id":"levelo_inurba_marseille","lat":43.31278,"lon":5.40153,"is_reserved":false,"is_disabled":false,"rental_uris":{"android":"levelo://app?vid=71e806a8-b121-4f5b-a91d-1973653cb90c","ios":"levelo://app?vid=71e806a8-b121-4f5b-a91d-1973653cb90c"},"vehicle_type_id":"4","last_reported":1734606445,"current_range_meters":33200,"station_id":"ce4bh092rcd13ifvqd30","pricing_plan_id":"cebpf4jnsgd1na2vs0mg"},{"bike_id":"0d4cf357-cd32-43d3-8971-89a7a2f06824","system_id":"levelo_inurba_marseille","lat":43.25574,"lon":5.38237,"is_reserved":false,"is_disabled":false,"rental_uris":{"android":"levelo://app?vid=0d4cf357-cd32-43d3-8971-89a7a2f06824","ios":"levelo://app?vid=0d4cf357-cd32-43d3-8971-89a7a2f06824"},"vehicle_type_id":"4","last_reported":1734606445,"current_range_meters":38000,"station_id":"ce4bhih2rcd13ifvqfs0","pricing_plan_id":"cebpf4jnsgd1na2vs0mg"},{"bike_id":"8badfc94-1dea-41ca-829d-0487839d604b","system_id":"levelo_inurba_marseille","lat":43.32538,"lon":5.41468,"is_reserved":false,"is_disabled":false,"rental_uris":{"android":"levelo://app?vid=8badfc94-1dea-41ca-829d-0487839d604b","ios":"levelo://app?vid=8badfc94-1dea-41ca-829d-0487839d604b"},"vehicle_type_id":"4","last_reported":1734606445,"current_range_meters":38800,"station_id":"ce4bhq12rcd13ifvqhhg","pricing_plan_id":"cebpf4jnsgd1na2vs0mg"},{"bike_id":"b11dec3c-37ae-4e5f-a182-7db8571c22d2","system_id":"levelo_inurba_marseille","lat":43.29906,"lon":5.43653,"is_reserved":false,"is_disabled":false,"rental_uris":{"android":"levelo://app?vid=b11dec3c-37ae-4e5f-a182-7db8571c22d2","ios":"levelo://app?vid=b11dec3c-37ae-4e5f-a182-7db8571c22d2"},"vehicle_type_id":"4","last_reported":1734606445,"current_range_meters":36800,"station_id":"ce4bhpp2rcd13ifvqhfg","pricing_plan_id":"cebpf4jnsgd1na2vs0mg"},{"bike_id":"802e8b26-a8c9-4413-9e5a-cd58a6b8ffa6","system_id":"levelo_inurba_marseille","lat":43.292561,"lon":5.384297,"is_reserved":false,"is_disabled":true,"rental_uris":{"android":"levelo://app?vid=802e8b26-a8c9-4413-9e5a-cd58a6b8ffa6","ios":"levelo://app?vid=802e8b26-a8c9-4413-9e5a-cd58a6b8ffa6"},"vehicle_type_id":"4","last_reported":1734606445,"current_range_meters":0,"station_id":"ce4bh692rcd13ifvqea0","pricing_plan_id":"cebpf4jnsgd1na2vs0mg"},{"bike_id":"6e62f14a-e70c-4891-9053-3720563c81cd","system_id":"levelo_inurba_marseille","lat":43.27369,"lon":5.3626,"is_reserved":false,"is_disabled":false,"rental_uris":{"android":"levelo://app?vid=6e62f14a-e70c-4891-9053-3720563c81cd","ios":"levelo://app?vid=6e62f14a-e70c-4891-9053-3720563c81cd"},"vehicle_type_id":"4","last_reported":1734606445,"current_range_meters":6400,"station_id":"ce4bhbh2rcd13ifvqeo0","pricing_plan_id":"cebpf4jnsgd1na2vs0mg"},{"bike_id":"72492ff3-d3e5-4b81-822b-1d3357339451","system_id":"levelo_inurba_marseille","lat":43.29081,"lon":5.39903,"is_reserved":false,"is_disabled":true,"rental_uris":{"android":"levelo://app?vid=72492ff3-d3e5-4b81-822b-1d3357339451","ios":"levelo://app?vid=72492ff3-d3e5-4b81-822b-1d3357339451"},"vehicle_type_id":"4","last_reported":1734606445,"current_range_meters":36400,"station_id":"","pricing_plan_id":"cebpf4jnsgd1na2vs0mg"},{"bike_id":"700554ee-bd44-4e8d-bc99-75529e011aa1","system_id":"levelo_inurba_marseille","lat":43.30811,"lon":5.36901,"is_reserved":false,"is_disabled":false,"rental_uris":{"android":"levelo://app?vid=700554ee-bd44-4e8d-bc99-75529e011aa1","ios":"levelo://app?vid=700554ee-bd44-4e8d-bc99-75529e011aa1"},"vehicle_type_id":"4","last_reported":1734606445,"current_range_meters":38800,"station_id":"","pricing_plan_id":"cebpf4jnsgd1na2vs0mg"},{"bike_id":"781fa021-8a4c-40da-bec4-37eb1f088db9","system_id":"levelo_inurba_marseille","lat":43.2791,"lon":5.39585,"is_reserved":false,"is_disabled":false,"rental_uris":{"android":"levelo://app?vid=781fa021-8a4c-40da-bec4-37eb1f088db9","ios":"levelo://app?vid=781fa021-8a4c-40da-bec4-37eb1f088db9"},"vehicle_type_id":"4","last_reported":1734606445,"current_range_meters":38800,"station_id":"ce4bhf92rcd13ifvqf40","pricing_plan_id":"cebpf4jnsgd1na2vs0mg"},{"bike_id":"29c3fbc5-c0c0-4bab-8f37-f8ceb03d17f0","system_id":"levelo_inurba_marseille","lat":43.28995,"lon":5.35621,"is_reserved":false,"is_disabled":false,"rental_uris":{"android":"levelo://app?vid=29c3fbc5-c0c0-4bab-8f37-f8ceb03d17f0","ios":"levelo://app?vid=29c3fbc5-c0c0-4bab-8f37-f8ceb03d17f0"},"vehicle_type_id":"4","last_reported":1734606445,"current_range_meters":4400,"station_id":"ce4bhb92rcd13ifvqen0","pricing_plan_id":"cebpf4jnsgd1na2vs0mg"},{"bike_id":"f8f8ca28-08a0-4b4f-bf5a-f629e9e9330a","system_id":"levelo_inurba_marseille","lat":43.27058,"lon":5.40256,"is_reserved":false,"is_disabled":false,"rental_uris":{"android":"levelo://app?vid=f8f8ca28-08a0-4b4f-bf5a-f629e9e9330a","ios":"levelo://app?vid=f8f8ca28-08a0-4b4f-bf5a-f629e9e9330a"},"vehicle_type_id":"4","last_reported":1734606445,"current_range_meters":10000,"station_id":"ce4bhk92rcd13ifvqgc0","pricing_plan_id":"cebpf4jnsgd1na2vs0mg"},{"bike_id":"8817d0d5-9eca-431a-a655-80bc815ceaa5","system_id":"levelo_inurba_marseille","lat":43.29553,"lon":5.37519,"is_reserved":false,"is_disabled":false,"rental_uris":{"android":"levelo://app?vid=8817d0d5-9eca-431a-a655-80bc815ceaa5","ios":"levelo://app?vid=8817d0d5-9eca-431a-a655-80bc815ceaa5"},"vehicle_type_id":"4","last_reported":1734606445,"current_range_meters":38800,"station_id":"ce4bgh92rcd13ifvqb50","pricing_plan_id":"cebpf4jnsgd1na2vs0mg"},{"bike_id":"92dbe881-4d12-4807-9474-87af83394dc5","system_id":"levelo_inurba_marseille","lat":43.31357,"lon":5.36733,"is_reserved":false,"is_disabled":false,"rental_uris":{"android":"levelo://app?vid=92dbe881-4d12-4807-9474-87af83394dc5","ios":"levelo://app?vid=92dbe881-4d12-4807-9474-87af83394dc5"},"vehicle_type_id":"4","last_reported":1734606445,"current_range_meters":34000,"station_id":"ce4bgr92rcd13ifvqc6g","pricing_plan_id":"cebpf4jnsgd1na2vs0mg"},{"bike_id":"78471806-92f3-4670-9c4a-cbf55d75e3f8","system_id":"levelo_inurba_marseille","lat":43.32459,"lon":5.36566,"is_reserved":false,"is_disabled":false,"rental_uris":{"android":"levelo://app?vid=78471806-92f3-4670-9c4a-cbf55d75e3f8","ios":"levelo://app?vid=78471806-92f3-4670-9c4a-cbf55d75e3f8"},"vehicle_type_id":"4","last_reported":1734606445,"current_range_meters":39200,"station_id":"ce4bhs12rcd13ifvqhvg","pricing_plan_id":"cebpf4jnsgd1na2vs0mg"},{"bike_id":"c3f48430-88a8-4dc3-a8f8-d2830ffbfb45","system_id":"levelo_inurba_marseille","lat":43.34139,"lon":5.40907,"is_reserved":false,"is_disabled":true,"rental_uris":{"android":"levelo://app?vid=c3f48430-88a8-4dc3-a8f8-d2830ffbfb45","ios":"levelo://app?vid=c3f48430-88a8-4dc3-a8f8-d2830ffbfb45"},"vehicle_type_id":"4","last_reported":1734606445,"current_range_meters":30800,"station_id":"ce4bhqh2rcd13ifvqhlg","pricing_plan_id":"cebpf4jnsgd1na2vs0mg"},{"bike_id":"370b1eb6-4f45-4760-84c5-106172693f5d","system_id":"levelo_inurba_marseille","lat":43.23962,"lon":5.3663,"is_reserved":false,"is_disabled":false,"rental_uris":{"android":"levelo://app?vid=370b1eb6-4f45-4760-84c5-106172693f5d","ios":"levelo://app?vid=370b1eb6-4f45-4760-84c5-106172693f5d"},"vehicle_type_id":"4","last_reported":1734606445,"current_range_meters":28400,"station_id":"ce4bhi12rcd13ifvqfp0","pricing_plan_id":"cebpf4jnsgd1na2vs0mg"},{"bike_id":"3e1d0fc6-d668-4df4-9650-63e151d1989a","system_id":"levelo_inurba_marseille","lat":43.336058,"lon":5.410248,"is_reserved":false,"is_disabled":false,"rental_uris":{"android":"levelo://app?vid=3e1d0fc6-d668-4df4-9650-63e151d1989a","ios":"levelo://app?vid=3e1d0fc6-d668-4df4-9650-63e151d1989a"},"vehicle_type_id":"4","last_reported":1734606445,"current_range_meters":22000,"station_id":"ce4bhqh2rcd13ifvqhmg","pricing_plan_id":"cebpf4jnsgd1na2vs0mg"},{"bike_id":"782bcbf2-b7de-4b04-bebc-aaa0329dd90c","system_id":"levelo_inurba_marseille","lat":43.23198,"lon":5.35553,"is_reserved":false,"is_disabled":false,"rental_uris":{"android":"levelo://app?vid=782bcbf2-b7de-4b04-bebc-aaa0329dd90c","ios":"levelo://app?vid=782bcbf2-b7de-4b04-bebc-aaa0329dd90c"},"vehicle_type_id":"4","last_reported":1734606445,"current_range_meters":38800,"station_id":"ce4bhu92rcd13ifvqi70","pricing_plan_id":"cebpf4jnsgd1na2vs0mg"},{"bike_id":"f5b051f4-e217-4e3b-843c-052a74518124","system_id":"levelo_inurba_marseille","lat":43.29922,"lon":5.37481,"is_reserved":false,"is_disabled":false,"rental_uris":{"android":"levelo://app?vid=f5b051f4-e217-4e3b-843c-052a74518124","ios":"levelo://app?vid=f5b051f4-e217-4e3b-843c-052a74518124"},"vehicle_type_id":"4","last_reported":1734606445,"current_range_meters":23200,"station_id":"ce4bgjh2rcd13ifvqbg0","pricing_plan_id":"cebpf4jnsgd1na2vs0mg"},{"bike_id":"23e7f35f-e507-4a1e-9ddf-45e254a81c52","system_id":"levelo_inurba_marseille","lat":43.33774,"lon":5.37429,"is_reserved":false,"is_disabled":false,"rental_uris":{"android":"levelo://app?vid=23e7f35f-e507-4a1e-9ddf-45e254a81c52","ios":"levelo://app?vid=23e7f35f-e507-4a1e-9ddf-45e254a81c52"},"vehicle_type_id":"4","last_reported":1734606445,"current_range_meters":34800,"station_id":"","pricing_plan_id":"cebpf4jnsgd1na2vs0mg"},{"bike_id":"c95abbb2-4757-4ca2-b592-50d5b82c33d2","system_id":"levelo_inurba_marseille","lat":43.31169,"lon":5.38724,"is_reserved":false,"is_disabled":false,"rental_uris":{"android":"levelo://app?vid=c95abbb2-4757-4ca2-b592-50d5b82c33d2","ios":"levelo://app?vid=c95abbb2-4757-4ca2-b592-50d5b82c33d2"},"vehicle_type_id":"4","last_reported":1734606445,"current_range_meters":28800,"station_id":"ce4bgv12rcd13ifvqcp0","pricing_plan_id":"cebpf4jnsgd1na2vs0mg"},{"bike_id":"96ff88dc-8cf7-4b0f-a345-fa00220da932","system_id":"levelo_inurba_marseille","lat":43.27419,"lon":5.42399,"is_reserved":false,"is_disabled":true,"rental_uris":{"android":"levelo://app?vid=96ff88dc-8cf7-4b0f-a345-fa00220da932","ios":"levelo://app?vid=96ff88dc-8cf7-4b0f-a345-fa00220da932"},"vehicle_type_id":"4","last_reported":1734606445,"current_range_meters":0,"station_id":"","pricing_plan_id":"cebpf4jnsgd1na2vs0mg"},{"bike_id":"d5c0e746-a9fa-4159-b28f-7d6a3cba6cea","system_id":"levelo_inurba_marseille","lat":43.24398,"lon":5.37068,"is_reserved":false,"is_disabled":false,"rental_uris":{"android":"levelo://app?vid=d5c0e746-a9fa-4159-b28f-7d6a3cba6cea","ios":"levelo://app?vid=d5c0e746-a9fa-4159-b28f-7d6a3cba6cea"},"vehicle_type_id":"4","last_reported":1734606445,"current_range_meters":15200,"station_id":"ce4bhhh2rcd13ifvqfk0","pricing_plan_id":"cebpf4jnsgd1na2vs0mg"},{"bike_id":"0f190e22-b19a-4619-b5eb-292e9ab451e7","system_id":"levelo_inurba_marseille","lat":43.28477,"lon":5.3842,"is_reserved":false,"is_disabled":true,"rental_uris":{"android":"levelo://app?vid=0f190e22-b19a-4619-b5eb-292e9ab451e7","ios":"levelo://app?vid=0f190e22-b19a-4619-b5eb-292e9ab451e7"},"vehicle_type_id":"4","last_reported":1734606445,"current_range_meters":0,"station_id":"ce4bh512rcd13ifvqe3g","pricing_plan_id":"cebpf4jnsgd1na2vs0mg"},{"bike_id":"d3cbdaf1-13ec-4077-9ff5-7a5da76596c1","system_id":"levelo_inurba_marseille","lat":43.337444,"lon":5.374475,"is_reserved":false,"is_disabled":false,"rental_uris":{"android":"levelo://app?vid=d3cbdaf1-13ec-4077-9ff5-7a5da76596c1","ios":"levelo://app?vid=d3cbdaf1-13ec-4077-9ff5-7a5da76596c1"},"vehicle_type_id":"4","last_reported":1734606445,"current_range_meters":38000,"station_id":"","pricing_plan_id":"cebpf4jnsgd1na2vs0mg"},{"bike_id":"f6a0097d-208c-4ed5-9b7e-280c6a0f27f2","system_id":"levelo_inurba_marseille","lat":43.31281,"lon":5.40174,"is_reserved":false,"is_disabled":false,"rental_uris":{"android":"levelo://app?vid=f6a0097d-208c-4ed5-9b7e-280c6a0f27f2","ios":"levelo://app?vid=f6a0097d-208c-4ed5-9b7e-280c6a0f27f2"},"vehicle_type_id":"4","last_reported":1734606445,"current_range_meters":8800,"station_id":"ce4bh092rcd13ifvqd30","pricing_plan_id":"cebpf4jnsgd1na2vs0mg"},{"bike_id":"a2a605c8-f45e-4ab0-8cb5-731c77c85b78","system_id":"levelo_inurba_marseille","lat":43.27917,"lon":5.39573,"is_reserved":false,"is_disabled":false,"rental_uris":{"android":"levelo://app?vid=a2a605c8-f45e-4ab0-8cb5-731c77c85b78","ios":"levelo://app?vid=a2a605c8-f45e-4ab0-8cb5-731c77c85b78"},"vehicle_type_id":"4","last_reported":1734606445,"current_range_meters":24800,"station_id":"ce4bhf92rcd13ifvqf40","pricing_plan_id":"cebpf4jnsgd1na2vs0mg"},{"bike_id":"fc357c57-1085-4ed5-86f4-3760d5e4b62a","system_id":"levelo_inurba_marseille","lat":43.29256,"lon":5.40909,"is_reserved":false,"is_disabled":false,"rental_uris":{"android":"levelo://app?vid=fc357c57-1085-4ed5-86f4-3760d5e4b62a","ios":"levelo://app?vid=fc357c57-1085-4ed5-86f4-3760d5e4b62a"},"vehicle_type_id":"4","last_reported":1734606445,"current_range_meters":22400,"station_id":"ce4bh192rcd13ifvqdc0","pricing_plan_id":"cebpf4jnsgd1na2vs0mg"},{"bike_id":"65332c14-8f41-4f1a-b711-08ad210242f2","system_id":"levelo_inurba_marseille","lat":43.29602,"lon":5.38109,"is_reserved":false,"is_disabled":false,"rental_uris":{"android":"levelo://app?vid=65332c14-8f41-4f1a-b711-08ad210242f2","ios":"levelo://app?vid=65332c14-8f41-4f1a-b711-08ad210242f2"},"vehicle_type_id":"4","last_reported":1734606445,"current_range_meters":36400,"station_id":"ce4bgl12rcd13ifvqbo0","pricing_plan_id":"cebpf4jnsgd1na2vs0mg"},{"bike_id":"e0c58e14-0fb2-48ae-ada1-f5faae476746","system_id":"levelo_inurba_marseille","lat":43.29302,"lon":5.37427,"is_reserved":false,"is_disabled":false,"rental_uris":{"android":"levelo://app?vid=e0c58e14-0fb2-48ae-ada1-f5faae476746","ios":"levelo://app?vid=e0c58e14-0fb2-48ae-ada1-f5faae476746"},"vehicle_type_id":"4","last_reported":1734606445,"current_range_meters":39200,"station_id":"ce4bgi12rcd13ifvqb70","pricing_plan_id":"cebpf4jnsgd1na2vs0mg"},{"bike_id":"dabc11e5-2a8c-408a-bea8-b9245b335168","system_id":"levelo_inurba_marseille","lat":43.2408,"lon":5.37753,"is_reserved":false,"is_disabled":true,"rental_uris":{"android":"levelo://app?vid=dabc11e5-2a8c-408a-bea8-b9245b335168","ios":"levelo://app?vid=dabc11e5-2a8c-408a-bea8-b9245b335168"},"vehicle_type_id":"4","last_reported":1734606445,"current_range_meters":0,"station_id":"ce4bhnp2rcd13ifvqgvg","pricing_plan_id":"cebpf4jnsgd1na2vs0mg"},{"bike_id":"7825beb3-7306-4cf7-a0ba-a5cf8667e64d","system_id":"levelo_inurba_marseille","lat":43.3057,"lon":5.3845,"is_reserved":false,"is_disabled":false,"rental_uris":{"android":"levelo://app?vid=7825beb3-7306-4cf7-a0ba-a5cf8667e64d","ios":"levelo://app?vid=7825beb3-7306-4cf7-a0ba-a5cf8667e64d"},"vehicle_type_id":"4","last_reported":1734606445,"current_range_meters":9200,"station_id":"ce4bgg92rcd13ifvqb30","pricing_plan_id":"cebpf4jnsgd1na2vs0mg"},{"bike_id":"44127e4e-8e84-4a38-89f7-8f4efb63f7a5","system_id":"levelo_inurba_marseille","lat":43.31198,"lon":5.36778,"is_reserved":false,"is_disabled":true,"rental_uris":{"android":"levelo://app?vid=44127e4e-8e84-4a38-89f7-8f4efb63f7a5","ios":"levelo://app?vid=44127e4e-8e84-4a38-89f7-8f4efb63f7a5"},"vehicle_type_id":"4","last_reported":1734606445,"current_range_meters":1200,"station_id":"","pricing_plan_id":"cebpf4jnsgd1na2vs0mg"},{"bike_id":"f1856f75-e444-483a-ae81-4b55212a6e52","system_id":"levelo_inurba_marseille","lat":43.27054,"lon":5.40263,"is_reserved":false,"is_disabled":false,"rental_uris":{"android":"levelo://app?vid=f1856f75-e444-483a-ae81-4b55212a6e52","ios":"levelo://app?vid=f1856f75-e444-483a-ae81-4b55212a6e52"},"vehicle_type_id":"4","last_reported":1734606445,"current_range_meters":30000,"station_id":"ce4bhk92rcd13ifvqgc0","pricing_plan_id":"cebpf4jnsgd1na2vs0mg"},{"bike_id":"a1d1a51c-2e0a-4342-ad3a-f20395046610","system_id":"levelo_inurba_marseille","lat":43.267827,"lon":5.394186,"is_reserved":false,"is_disabled":false,"rental_uris":{"android":"levelo://app?vid=a1d1a51c-2e0a-4342-ad3a-f20395046610","ios":"levelo://app?vid=a1d1a51c-2e0a-4342-ad3a-f20395046610"},"vehicle_type_id":"4","last_reported":1734606445,"current_range_meters":36800,"station_id":"ce4bhh12rcd13ifvqfg0","pricing_plan_id":"cebpf4jnsgd1na2vs0mg"},{"bike_id":"4c349833-7eac-4d35-aa56-1dde10c4f076","system_id":"levelo_inurba_marseille","lat":43.24403,"lon":5.37078,"is_reserved":false,"is_disabled":false,"rental_uris":{"android":"levelo://app?vid=4c349833-7eac-4d35-aa56-1dde10c4f076","ios":"levelo://app?vid=4c349833-7eac-4d35-aa56-1dde10c4f076"},"vehicle_type_id":"4","last_reported":1734606445,"current_range_meters":35600,"station_id":"ce4bhhh2rcd13ifvqfk0","pricing_plan_id":"cebpf4jnsgd1na2vs0mg"},{"bike_id":"4d4af739-8097-4cfe-8e51-be11f91f941f","system_id":"levelo_inurba_marseille","lat":43.30581,"lon":5.36574,"is_reserved":false,"is_disabled":false,"rental_uris":{"android":"levelo://app?vid=4d4af739-8097-4cfe-8e51-be11f91f941f","ios":"levelo://app?vid=4d4af739-8097-4cfe-8e51-be11f91f941f"},"vehicle_type_id":"4","last_reported":1734606445,"current_range_meters":24800,"station_id":"ce4bgs12rcd13ifvqcag","pricing_plan_id":"cebpf4jnsgd1na2vs0mg"},{"bike_id":"b0cc90db-8bfe-4345-bba1-d43b064d4d18","system_id":"levelo_inurba_marseille","lat":43.29533,"lon":5.38546,"is_reserved":false,"is_disabled":false,"rental_uris":{"android":"levelo://app?vid=b0cc90db-8bfe-4345-bba1-d43b064d4d18","ios":"levelo://app?vid=b0cc90db-8bfe-4345-bba1-d43b064d4d18"},"vehicle_type_id":"4","last_reported":1734606445,"current_range_meters":13600,"station_id":"ce4bgih2rcd13ifvqba0","pricing_plan_id":"cebpf4jnsgd1na2vs0mg"},{"bike_id":"31ba3e10-63e2-4798-b0fd-435808fd1d00","system_id":"levelo_inurba_marseille","lat":43.29009,"lon":5.38133,"is_reserved":false,"is_disabled":false,"rental_uris":{"android":"levelo://app?vid=31ba3e10-63e2-4798-b0fd-435808fd1d00","ios":"levelo://app?vid=31ba3e10-63e2-4798-b0fd-435808fd1d00"},"vehicle_type_id":"4","last_reported":1734606445,"current_range_meters":15200,"station_id":"ce4bh4p2rcd13ifvqe1g","pricing_plan_id":"cebpf4jnsgd1na2vs0mg"},{"bike_id":"ee39a4ff-b614-4dd2-956c-b384f0742800","system_id":"levelo_inurba_marseille","lat":43.32487,"lon":5.36574,"is_reserved":false,"is_disabled":false,"rental_uris":{"android":"levelo://app?vid=ee39a4ff-b614-4dd2-956c-b384f0742800","ios":"levelo://app?vid=ee39a4ff-b614-4dd2-956c-b384f0742800"},"vehicle_type_id":"4","last_reported":1734606445,"current_range_meters":27200,"station_id":"ce4bhs12rcd13ifvqhvg","pricing_plan_id":"cebpf4jnsgd1na2vs0mg"},{"bike_id":"297324b2-03d9-49fc-89f8-5168ca9c9f68","system_id":"levelo_inurba_marseille","lat":43.31887,"lon":5.40739,"is_reserved":false,"is_disabled":false,"rental_uris":{"android":"levelo://app?vid=297324b2-03d9-49fc-89f8-5168ca9c9f68","ios":"levelo://app?vid=297324b2-03d9-49fc-89f8-5168ca9c9f68"},"vehicle_type_id":"4","last_reported":1734606445,"current_range_meters":38800,"station_id":"ce4bhq12rcd13ifvqhig","pricing_plan_id":"cebpf4jnsgd1na2vs0mg"},{"bike_id":"b3bec2b2-1f55-4aa9-bf02-40acba001163","system_id":"levelo_inurba_marseille","lat":43.29843,"lon":5.36263,"is_reserved":false,"is_disabled":false,"rental_uris":{"android":"levelo://app?vid=b3bec2b2-1f55-4aa9-bf02-40acba001163","ios":"levelo://app?vid=b3bec2b2-1f55-4aa9-bf02-40acba001163"},"vehicle_type_id":"4","last_reported":1734606445,"current_range_meters":39200,"station_id":"ce4bgpp2rcd13ifvqc3g","pricing_plan_id":"cebpf4jnsgd1na2vs0mg"},{"bike_id":"fd9c8e20-c24d-4887-9c18-85c8f750e0cd","system_id":"levelo_inurba_marseille","lat":43.29359,"lon":5.37826,"is_reserved":false,"is_disabled":false,"rental_uris":{"android":"levelo://app?vid=fd9c8e20-c24d-4887-9c18-85c8f750e0cd","ios":"levelo://app?vid=fd9c8e20-c24d-4887-9c18-85c8f750e0cd"},"vehicle_type_id":"4","last_reported":1734606445,"current_range_meters":25200,"station_id":"ce4bgjh2rcd13ifvqbf0","pricing_plan_id":"cebpf4jnsgd1na2vs0mg"},{"bike_id":"df6cd6bf-11c7-4e4d-b19e-d38fb59641a5","system_id":"levelo_inurba_marseille","lat":43.3054,"lon":5.36562,"is_reserved":false,"is_disabled":false,"rental_uris":{"android":"levelo://app?vid=df6cd6bf-11c7-4e4d-b19e-d38fb59641a5","ios":"levelo://app?vid=df6cd6bf-11c7-4e4d-b19e-d38fb59641a5"},"vehicle_type_id":"4","last_reported":1734606445,"current_range_meters":32000,"station_id":"ce4bgs12rcd13ifvqcag","pricing_plan_id":"cebpf4jnsgd1na2vs0mg"},{"bike_id":"e0c2eddf-4ba9-4754-b0b5-efd80badee74","system_id":"levelo_inurba_marseille","lat":43.25883,"lon":5.39439,"is_reserved":false,"is_disabled":true,"rental_uris":{"android":"levelo://app?vid=e0c2eddf-4ba9-4754-b0b5-efd80badee74","ios":"levelo://app?vid=e0c2eddf-4ba9-4754-b0b5-efd80badee74"},"vehicle_type_id":"4","last_reported":1734606445,"current_range_meters":0,"station_id":"","pricing_plan_id":"cebpf4jnsgd1na2vs0mg"},{"bike_id":"171d375c-18ea-47b4-9afc-7b2025b0138d","system_id":"levelo_inurba_marseille","lat":43.27953,"lon":5.41056,"is_reserved":false,"is_disabled":true,"rental_uris":{"android":"levelo://app?vid=171d375c-18ea-47b4-9afc-7b2025b0138d","ios":"levelo://app?vid=171d375c-18ea-47b4-9afc-7b2025b0138d"},"vehicle_type_id":"4","last_reported":1734606445,"current_range_meters":38800,"station_id":"ce4bhnp2rcd13ifvqh0g","pricing_plan_id":"cebpf4jnsgd1na2vs0mg"},{"bike_id":"f3694827-c315-43e2-938b-cca3c1df79cd","system_id":"levelo_inurba_marseille","lat":43.29363,"lon":5.37839,"is_reserved":false,"is_disabled":false,"rental_uris":{"android":"levelo://app?vid=f3694827-c315-43e2-938b-cca3c1df79cd","ios":"levelo://app?vid=f3694827-c315-43e2-938b-cca3c1df79cd"},"vehicle_type_id":"4","last_reported":1734606445,"current_range_meters":8400,"station_id":"ce4bgjh2rcd13ifvqbf0","pricing_plan_id":"cebpf4jnsgd1na2vs0mg"},{"bike_id":"3b31c2da-b8e0-4766-a4e5-a7923c3a12fe","system_id":"levelo_inurba_marseille","lat":43.23155,"lon":5.43716,"is_reserved":false,"is_disabled":false,"rental_uris":{"android":"levelo://app?vid=3b31c2da-b8e0-4766-a4e5-a7923c3a12fe","ios":"levelo://app?vid=3b31c2da-b8e0-4766-a4e5-a7923c3a12fe"},"vehicle_type_id":"4","last_reported":1734606445,"current_range_meters":30000,"station_id":"ce4bhmp2rcd13ifvqgog","pricing_plan_id":"cebpf4jnsgd1na2vs0mg"},{"bike_id":"9648f333-a713-46a6-9578-079fbc835ed8","system_id":"levelo_inurba_marseille","lat":43.27811,"lon":5.40707,"is_reserved":false,"is_disabled":false,"rental_uris":{"android":"levelo://app?vid=9648f333-a713-46a6-9578-079fbc835ed8","ios":"levelo://app?vid=9648f333-a713-46a6-9578-079fbc835ed8"},"vehicle_type_id":"4","last_reported":1734606445,"current_range_meters":29600,"station_id":"ce4bhnh2rcd13ifvqgtg","pricing_plan_id":"cebpf4jnsgd1na2vs0mg"},{"bike_id":"0f62bb31-c5dc-4026-9192-bdd58d140ffc","system_id":"levelo_inurba_marseille","lat":43.337444,"lon":5.374475,"is_reserved":false,"is_disabled":false,"rental_uris":{"android":"levelo://app?vid=0f62bb31-c5dc-4026-9192-bdd58d140ffc","ios":"levelo://app?vid=0f62bb31-c5dc-4026-9192-bdd58d140ffc"},"vehicle_type_id":"4","last_reported":1734606445,"current_range_meters":36400,"station_id":"","pricing_plan_id":"cebpf4jnsgd1na2vs0mg"},{"bike_id":"b628f9d2-2862-4d34-acf0-db2b437dd106","system_id":"levelo_inurba_marseille","lat":43.25009,"lon":5.3893,"is_reserved":false,"is_disabled":false,"rental_uris":{"android":"levelo://app?vid=b628f9d2-2862-4d34-acf0-db2b437dd106","ios":"levelo://app?vid=b628f9d2-2862-4d34-acf0-db2b437dd106"},"vehicle_type_id":"4","last_reported":1734606445,"current_range_meters":6000,"station_id":"ce4bhgp2rcd13ifvqfd0","pricing_plan_id":"cebpf4jnsgd1na2vs0mg"},{"bike_id":"a9245533-f318-4538-96ed-56ac3554f58c","system_id":"levelo_inurba_marseille","lat":43.30471,"lon":5.36695,"is_reserved":false,"is_disabled":false,"rental_uris":{"android":"levelo://app?vid=a9245533-f318-4538-96ed-56ac3554f58c","ios":"levelo://app?vid=a9245533-f318-4538-96ed-56ac3554f58c"},"vehicle_type_id":"4","last_reported":1734606445,"current_range_meters":15200,"station_id":"ce4bgrp2rcd13ifvqc9g","pricing_plan_id":"cebpf4jnsgd1na2vs0mg"},{"bike_id":"fa997edd-e7d3-422d-b85d-b9718cd40887","system_id":"levelo_inurba_marseille","lat":43.29982,"lon":5.38487,"is_reserved":false,"is_disabled":false,"rental_uris":{"android":"levelo://app?vid=fa997edd-e7d3-422d-b85d-b9718cd40887","ios":"levelo://app?vid=fa997edd-e7d3-422d-b85d-b9718cd40887"},"vehicle_type_id":"4","last_reported":1734606445,"current_range_meters":35200,"station_id":"ce4bgj92rcd13ifvqbd0","pricing_plan_id":"cebpf4jnsgd1na2vs0mg"},{"bike_id":"45584145-ad97-47c8-bacc-184906d1a81c","system_id":"levelo_inurba_marseille","lat":43.299045,"lon":5.38162,"is_reserved":false,"is_disabled":false,"rental_uris":{"android":"levelo://app?vid=45584145-ad97-47c8-bacc-184906d1a81c","ios":"levelo://app?vid=45584145-ad97-47c8-bacc-184906d1a81c"},"vehicle_type_id":"4","last_reported":1734606445,"current_range_meters":34800,"station_id":"ce4bgj12rcd13ifvqbc0","pricing_plan_id":"cebpf4jnsgd1na2vs0mg"},{"bike_id":"bb337245-7c41-4671-900b-a4d92ae562c6","system_id":"levelo_inurba_marseille","lat":43.29524,"lon":5.39019,"is_reserved":false,"is_disabled":true,"rental_uris":{"android":"levelo://app?vid=bb337245-7c41-4671-900b-a4d92ae562c6","ios":"levelo://app?vid=bb337245-7c41-4671-900b-a4d92ae562c6"},"vehicle_type_id":"4","last_reported":1734606445,"current_range_meters":0,"station_id":"ce4bh3p2rcd13ifvqdp0","pricing_plan_id":"cebpf4jnsgd1na2vs0mg"},{"bike_id":"230bd479-cac1-4ef3-966a-e2f300527d57","system_id":"levelo_inurba_marseille","lat":43.31217,"lon":5.36886,"is_reserved":false,"is_disabled":false,"rental_uris":{"android":"levelo://app?vid=230bd479-cac1-4ef3-966a-e2f300527d57","ios":"levelo://app?vid=230bd479-cac1-4ef3-966a-e2f300527d57"},"vehicle_type_id":"4","last_reported":1734606445,"current_range_meters":15200,"station_id":"ce4bgl92rcd13ifvqbq0","pricing_plan_id":"cebpf4jnsgd1na2vs0mg"},{"bike_id":"17317f2c-c2e9-4c2f-a167-5ed25c17ca64","system_id":"levelo_inurba_marseille","lat":43.29366,"lon":5.3785,"is_reserved":false,"is_disabled":false,"rental_uris":{"android":"levelo://app?vid=17317f2c-c2e9-4c2f-a167-5ed25c17ca64","ios":"levelo://app?vid=17317f2c-c2e9-4c2f-a167-5ed25c17ca64"},"vehicle_type_id":"4","last_reported":1734606445,"current_range_meters":20400,"station_id":"ce4bgjh2rcd13ifvqbf0","pricing_plan_id":"cebpf4jnsgd1na2vs0mg"},{"bike_id":"4a3adadd-0dd4-4960-ac68-e41574cc9da6","system_id":"levelo_inurba_marseille","lat":43.30546,"lon":5.36558,"is_reserved":false,"is_disabled":false,"rental_uris":{"android":"levelo://app?vid=4a3adadd-0dd4-4960-ac68-e41574cc9da6","ios":"levelo://app?vid=4a3adadd-0dd4-4960-ac68-e41574cc9da6"},"vehicle_type_id":"4","last_reported":1734606445,"current_range_meters":25200,"station_id":"ce4bgs12rcd13ifvqcag","pricing_plan_id":"cebpf4jnsgd1na2vs0mg"},{"bike_id":"30cf218e-0565-4b4d-b831-6b6e7547fc40","system_id":"levelo_inurba_marseille","lat":43.26811,"lon":5.40283,"is_reserved":false,"is_disabled":true,"rental_uris":{"android":"levelo://app?vid=30cf218e-0565-4b4d-b831-6b6e7547fc40","ios":"levelo://app?vid=30cf218e-0565-4b4d-b831-6b6e7547fc40"},"vehicle_type_id":"4","last_reported":1734606445,"current_range_meters":2000,"station_id":"ce501612rcd8frsf0b60","pricing_plan_id":"cebpf4jnsgd1na2vs0mg"},{"bike_id":"44913b5b-bf16-48bb-862f-18c53e704f39","system_id":"levelo_inurba_marseille","lat":43.2937,"lon":5.37853,"is_reserved":false,"is_disabled":false,"rental_uris":{"android":"levelo://app?vid=44913b5b-bf16-48bb-862f-18c53e704f39","ios":"levelo://app?vid=44913b5b-bf16-48bb-862f-18c53e704f39"},"vehicle_type_id":"4","last_reported":1734606445,"current_range_meters":36800,"station_id":"ce4bgjh2rcd13ifvqbf0","pricing_plan_id":"cebpf4jnsgd1na2vs0mg"},{"bike_id":"1d006b90-bc1c-45b1-b8ab-ec4e7d03274a","system_id":"levelo_inurba_marseille","lat":43.27051,"lon":5.40263,"is_reserved":false,"is_disabled":false,"rental_uris":{"android":"levelo://app?vid=1d006b90-bc1c-45b1-b8ab-ec4e7d03274a","ios":"levelo://app?vid=1d006b90-bc1c-45b1-b8ab-ec4e7d03274a"},"vehicle_type_id":"4","last_reported":1734606445,"current_range_meters":18000,"station_id":"ce4bhk92rcd13ifvqgc0","pricing_plan_id":"cebpf4jnsgd1na2vs0mg"},{"bike_id":"38515139-4ec3-4598-bb3e-a321f5a07a74","system_id":"levelo_inurba_marseille","lat":43.27998,"lon":5.41663,"is_reserved":false,"is_disabled":false,"rental_uris":{"android":"levelo://app?vid=38515139-4ec3-4598-bb3e-a321f5a07a74","ios":"levelo://app?vid=38515139-4ec3-4598-bb3e-a321f5a07a74"},"vehicle_type_id":"4","last_reported":1734606445,"current_range_meters":9200,"station_id":"ce4bho12rcd13ifvqh1g","pricing_plan_id":"cebpf4jnsgd1na2vs0mg"},{"bike_id":"3bc7e65e-db25-43f1-84f9-8bb379b5bba6","system_id":"levelo_inurba_marseille","lat":43.28949,"lon":5.36628,"is_reserved":false,"is_disabled":true,"rental_uris":{"android":"levelo://app?vid=3bc7e65e-db25-43f1-84f9-8bb379b5bba6","ios":"levelo://app?vid=3bc7e65e-db25-43f1-84f9-8bb379b5bba6"},"vehicle_type_id":"4","last_reported":1734606445,"current_range_meters":38800,"station_id":"ce4bhap2rcd13ifvqek0","pricing_plan_id":"cebpf4jnsgd1na2vs0mg"},{"bike_id":"ee541765-428a-4bb1-bc90-f1a524fdccf5","system_id":"levelo_inurba_marseille","lat":43.31708,"lon":5.43698,"is_reserved":false,"is_disabled":false,"rental_uris":{"android":"levelo://app?vid=ee541765-428a-4bb1-bc90-f1a524fdccf5","ios":"levelo://app?vid=ee541765-428a-4bb1-bc90-f1a524fdccf5"},"vehicle_type_id":"4","last_reported":1734606445,"current_range_meters":30400,"station_id":"ce4bhp92rcd13ifvqhcg","pricing_plan_id":"cebpf4jnsgd1na2vs0mg"},{"bike_id":"17b2d2b0-9855-46b4-a478-0bd9c7277056","system_id":"levelo_inurba_marseille","lat":43.30915,"lon":5.37842,"is_reserved":false,"is_disabled":true,"rental_uris":{"android":"levelo://app?vid=17b2d2b0-9855-46b4-a478-0bd9c7277056","ios":"levelo://app?vid=17b2d2b0-9855-46b4-a478-0bd9c7277056"},"vehicle_type_id":"4","last_reported":1734606445,"current_range_meters":0,"station_id":"","pricing_plan_id":"cebpf4jnsgd1na2vs0mg"},{"bike_id":"7448830e-8418-4753-ac56-c801b75e9294","system_id":"levelo_inurba_marseille","lat":43.29653,"lon":5.37757,"is_reserved":false,"is_disabled":false,"rental_uris":{"android":"levelo://app?vid=7448830e-8418-4753-ac56-c801b75e9294","ios":"levelo://app?vid=7448830e-8418-4753-ac56-c801b75e9294"},"vehicle_type_id":"4","last_reported":1734606445,"current_range_meters":39200,"station_id":"ce4bgi92rcd13ifvqb90","pricing_plan_id":"cebpf4jnsgd1na2vs0mg"},{"bike_id":"a72b05a0-553d-4606-89ed-559596aa6693","system_id":"levelo_inurba_marseille","lat":43.31486,"lon":5.37306,"is_reserved":false,"is_disabled":false,"rental_uris":{"android":"levelo://app?vid=a72b05a0-553d-4606-89ed-559596aa6693","ios":"levelo://app?vid=a72b05a0-553d-4606-89ed-559596aa6693"},"vehicle_type_id":"4","last_reported":1734606445,"current_range_meters":8800,"station_id":"ce4bgt12rcd13ifvqcd0","pricing_plan_id":"cebpf4jnsgd1na2vs0mg"},{"bike_id":"67e28fa1-5c05-45ba-804f-23ff1db322b7","system_id":"levelo_inurba_marseille","lat":43.29628,"lon":5.3773,"is_reserved":false,"is_disabled":false,"rental_uris":{"android":"levelo://app?vid=67e28fa1-5c05-45ba-804f-23ff1db322b7","ios":"levelo://app?vid=67e28fa1-5c05-45ba-804f-23ff1db322b7"},"vehicle_type_id":"4","last_reported":1734606445,"current_range_meters":33200,"station_id":"ce4bgi92rcd13ifvqb90","pricing_plan_id":"cebpf4jnsgd1na2vs0mg"},{"bike_id":"9f97f512-1b19-443a-b67f-86de027e5577","system_id":"levelo_inurba_marseille","lat":43.34549,"lon":5.37605,"is_reserved":false,"is_disabled":true,"rental_uris":{"android":"levelo://app?vid=9f97f512-1b19-443a-b67f-86de027e5577","ios":"levelo://app?vid=9f97f512-1b19-443a-b67f-86de027e5577"},"vehicle_type_id":"4","last_reported":1734606445,"current_range_meters":22800,"station_id":"","pricing_plan_id":"cebpf4jnsgd1na2vs0mg"},{"bike_id":"da4cc445-7208-423d-bbea-6eed42d18866","system_id":"levelo_inurba_marseille","lat":43.29374,"lon":5.37843,"is_reserved":false,"is_disabled":false,"rental_uris":{"android":"levelo://app?vid=da4cc445-7208-423d-bbea-6eed42d18866","ios":"levelo://app?vid=da4cc445-7208-423d-bbea-6eed42d18866"},"vehicle_type_id":"4","last_reported":1734606445,"current_range_meters":36800,"station_id":"ce4bgjh2rcd13ifvqbf0","pricing_plan_id":"cebpf4jnsgd1na2vs0mg"},{"bike_id":"1ea0d22b-5f69-431d-923f-d3e3d5ed886c","system_id":"levelo_inurba_marseille","lat":43.28083,"lon":5.39616,"is_reserved":false,"is_disabled":false,"rental_uris":{"android":"levelo://app?vid=1ea0d22b-5f69-431d-923f-d3e3d5ed886c","ios":"levelo://app?vid=1ea0d22b-5f69-431d-923f-d3e3d5ed886c"},"vehicle_type_id":"4","last_reported":1734606445,"current_range_meters":38800,"station_id":"ce4bho12rcd13ifvqh2g","pricing_plan_id":"cebpf4jnsgd1na2vs0mg"},{"bike_id":"1aac7302-1eb7-4419-9a04-230bf3f01dec","system_id":"levelo_inurba_marseille","lat":43.28721,"lon":5.37939,"is_reserved":false,"is_disabled":false,"rental_uris":{"android":"levelo://app?vid=1aac7302-1eb7-4419-9a04-230bf3f01dec","ios":"levelo://app?vid=1aac7302-1eb7-4419-9a04-230bf3f01dec"},"vehicle_type_id":"4","last_reported":1734606445,"current_range_meters":30400,"station_id":"ce4bh9p2rcd13ifvqec0","pricing_plan_id":"cebpf4jnsgd1na2vs0mg"},{"bike_id":"6dde3763-bed1-423b-94a8-622a83566291","system_id":"levelo_inurba_marseille","lat":43.25824,"lon":5.39435,"is_reserved":false,"is_disabled":false,"rental_uris":{"android":"levelo://app?vid=6dde3763-bed1-423b-94a8-622a83566291","ios":"levelo://app?vid=6dde3763-bed1-423b-94a8-622a83566291"},"vehicle_type_id":"4","last_reported":1734606445,"current_range_meters":17600,"station_id":"ce4bhip2rcd13ifvqft0","pricing_plan_id":"cebpf4jnsgd1na2vs0mg"},{"bike_id":"8490459f-1db9-4136-ba98-42b0426b2d32","system_id":"levelo_inurba_marseille","lat":43.29536,"lon":5.37504,"is_reserved":false,"is_disabled":false,"rental_uris":{"android":"levelo://app?vid=8490459f-1db9-4136-ba98-42b0426b2d32","ios":"levelo://app?vid=8490459f-1db9-4136-ba98-42b0426b2d32"},"vehicle_type_id":"4","last_reported":1734606445,"current_range_meters":38000,"station_id":"ce4bgkp2rcd13ifvqbmg","pricing_plan_id":"cebpf4jnsgd1na2vs0mg"},{"bike_id":"d58607f0-f3d8-439a-94cd-ef2ffec6c495","system_id":"levelo_inurba_marseille","lat":43.27995,"lon":5.41665,"is_reserved":false,"is_disabled":false,"rental_uris":{"android":"levelo://app?vid=d58607f0-f3d8-439a-94cd-ef2ffec6c495","ios":"levelo://app?vid=d58607f0-f3d8-439a-94cd-ef2ffec6c495"},"vehicle_type_id":"4","last_reported":1734606445,"current_range_meters":35200,"station_id":"ce4bho12rcd13ifvqh1g","pricing_plan_id":"cebpf4jnsgd1na2vs0mg"},{"bike_id":"3a9f2c58-168a-43b6-bf1c-ba85eecd8717","system_id":"levelo_inurba_marseille","lat":43.30133,"lon":5.37409,"is_reserved":false,"is_disabled":false,"rental_uris":{"android":"levelo://app?vid=3a9f2c58-168a-43b6-bf1c-ba85eecd8717","ios":"levelo://app?vid=3a9f2c58-168a-43b6-bf1c-ba85eecd8717"},"vehicle_type_id":"4","last_reported":1734606445,"current_range_meters":20400,"station_id":"ce4bgs92rcd13ifvqcc0","pricing_plan_id":"cebpf4jnsgd1na2vs0mg"},{"bike_id":"d8599810-47ee-48de-8ea7-a4c2a66629c8","system_id":"levelo_inurba_marseille","lat":43.30545,"lon":5.36725,"is_reserved":false,"is_disabled":false,"rental_uris":{"android":"levelo://app?vid=d8599810-47ee-48de-8ea7-a4c2a66629c8","ios":"levelo://app?vid=d8599810-47ee-48de-8ea7-a4c2a66629c8"},"vehicle_type_id":"4","last_reported":1734606445,"current_range_meters":7200,"station_id":"ce4bgrp2rcd13ifvqc9g","pricing_plan_id":"cebpf4jnsgd1na2vs0mg"},{"bike_id":"2cc993ef-c00d-4aca-8eed-82b08f93ed37","system_id":"levelo_inurba_marseille","lat":43.30197,"lon":5.3662,"is_reserved":false,"is_disabled":false,"rental_uris":{"android":"levelo://app?vid=2cc993ef-c00d-4aca-8eed-82b08f93ed37","ios":"levelo://app?vid=2cc993ef-c00d-4aca-8eed-82b08f93ed37"},"vehicle_type_id":"4","last_reported":1734606445,"current_range_meters":38400,"station_id":"ce4bgrh2rcd13ifvqc8g","pricing_plan_id":"cebpf4jnsgd1na2vs0mg"},{"bike_id":"6d90c9d4-0b5c-43bf-b682-e7561e654b2c","system_id":"levelo_inurba_marseille","lat":43.29506,"lon":5.39412,"is_reserved":false,"is_disabled":true,"rental_uris":{"android":"levelo://app?vid=6d90c9d4-0b5c-43bf-b682-e7561e654b2c","ios":"levelo://app?vid=6d90c9d4-0b5c-43bf-b682-e7561e654b2c"},"vehicle_type_id":"4","last_reported":1734606445,"current_range_meters":1600,"station_id":"ce4bh292rcd13ifvqdf0","pricing_plan_id":"cebpf4jnsgd1na2vs0mg"},{"bike_id":"2019d6e2-3ba2-442c-b5d4-0a978112f38d","system_id":"levelo_inurba_marseille","lat":43.306063,"lon":5.393366,"is_reserved":false,"is_disabled":false,"rental_uris":{"android":"levelo://app?vid=2019d6e2-3ba2-442c-b5d4-0a978112f38d","ios":"levelo://app?vid=2019d6e2-3ba2-442c-b5d4-0a978112f38d"},"vehicle_type_id":"4","last_reported":1734606445,"current_range_meters":24800,"station_id":"ce4bgup2rcd13ifvqco0","pricing_plan_id":"cebpf4jnsgd1na2vs0mg"},{"bike_id":"63ac9ec0-94d0-4b1e-8838-1ee7b4295fda","system_id":"levelo_inurba_marseille","lat":43.32112,"lon":5.3678,"is_reserved":false,"is_disabled":false,"rental_uris":{"android":"levelo://app?vid=63ac9ec0-94d0-4b1e-8838-1ee7b4295fda","ios":"levelo://app?vid=63ac9ec0-94d0-4b1e-8838-1ee7b4295fda"},"vehicle_type_id":"4","last_reported":1734606445,"current_range_meters":35600,"station_id":"ce4bhrh2rcd13ifvqhug","pricing_plan_id":"cebpf4jnsgd1na2vs0mg"},{"bike_id":"352972a4-c94f-4e47-92e9-3a3cb91026a4","system_id":"levelo_inurba_marseille","lat":43.2937,"lon":5.37862,"is_reserved":false,"is_disabled":false,"rental_uris":{"android":"levelo://app?vid=352972a4-c94f-4e47-92e9-3a3cb91026a4","ios":"levelo://app?vid=352972a4-c94f-4e47-92e9-3a3cb91026a4"},"vehicle_type_id":"4","last_reported":1734606445,"current_range_meters":9200,"station_id":"ce4bgjh2rcd13ifvqbf0","pricing_plan_id":"cebpf4jnsgd1na2vs0mg"},{"bike_id":"b91bc35b-67b8-42b0-8607-b9bce2a98b92","system_id":"levelo_inurba_marseille","lat":43.29887,"lon":5.38894,"is_reserved":false,"is_disabled":false,"rental_uris":{"android":"levelo://app?vid=b91bc35b-67b8-42b0-8607-b9bce2a98b92","ios":"levelo://app?vid=b91bc35b-67b8-42b0-8607-b9bce2a98b92"},"vehicle_type_id":"4","last_reported":1734606445,"current_range_meters":31200,"station_id":"ce4bh392rcd13ifvqdl0","pricing_plan_id":"cebpf4jnsgd1na2vs0mg"},{"bike_id":"38122019-0049-46a2-8c71-97505d3ac60a","system_id":"levelo_inurba_marseille","lat":43.30424,"lon":5.39763,"is_reserved":false,"is_disabled":false,"rental_uris":{"android":"levelo://app?vid=38122019-0049-46a2-8c71-97505d3ac60a","ios":"levelo://app?vid=38122019-0049-46a2-8c71-97505d3ac60a"},"vehicle_type_id":"4","last_reported":1734606445,"current_range_meters":38800,"station_id":"ce4bh092rcd13ifvqd20","pricing_plan_id":"cebpf4jnsgd1na2vs0mg"},{"bike_id":"bb342c7b-8311-4816-a2fd-c666c8e2c6be","system_id":"levelo_inurba_marseille","lat":43.29871,"lon":5.38902,"is_reserved":false,"is_disabled":false,"rental_uris":{"android":"levelo://app?vid=bb342c7b-8311-4816-a2fd-c666c8e2c6be","ios":"levelo://app?vid=bb342c7b-8311-4816-a2fd-c666c8e2c6be"},"vehicle_type_id":"4","last_reported":1734606445,"current_range_meters":17200,"station_id":"ce4bh392rcd13ifvqdl0","pricing_plan_id":"cebpf4jnsgd1na2vs0mg"},{"bike_id":"8bc50c6c-0739-429c-8ea9-92f9736d81e1","system_id":"levelo_inurba_marseille","lat":43.290728,"lon":5.37176,"is_reserved":false,"is_disabled":false,"rental_uris":{"android":"levelo://app?vid=8bc50c6c-0739-429c-8ea9-92f9736d81e1","ios":"levelo://app?vid=8bc50c6c-0739-429c-8ea9-92f9736d81e1"},"vehicle_type_id":"4","last_reported":1734606445,"current_range_meters":38800,"station_id":"ce4bh5p2rcd13ifvqe4g","pricing_plan_id":"cebpf4jnsgd1na2vs0mg"},{"bike_id":"7e309a17-acba-472d-b7d9-9b39cd54b115","system_id":"levelo_inurba_marseille","lat":43.29102,"lon":5.38136,"is_reserved":false,"is_disabled":true,"rental_uris":{"android":"levelo://app?vid=7e309a17-acba-472d-b7d9-9b39cd54b115","ios":"levelo://app?vid=7e309a17-acba-472d-b7d9-9b39cd54b115"},"vehicle_type_id":"4","last_reported":1734606445,"current_range_meters":17200,"station_id":"ce4bh512rcd13ifvqe2g","pricing_plan_id":"cebpf4jnsgd1na2vs0mg"},{"bike_id":"fdeb4ccc-d850-402e-84ed-8ebecff29977","system_id":"levelo_inurba_marseille","lat":43.29712,"lon":5.377,"is_reserved":false,"is_disabled":false,"rental_uris":{"android":"levelo://app?vid=fdeb4ccc-d850-402e-84ed-8ebecff29977","ios":"levelo://app?vid=fdeb4ccc-d850-402e-84ed-8ebecff29977"},"vehicle_type_id":"4","last_reported":1734606445,"current_range_meters":33600,"station_id":"ce4bgkh2rcd13ifvqbl0","pricing_plan_id":"cebpf4jnsgd1na2vs0mg"},{"bike_id":"6f5955f2-f150-4390-9828-ed9fb50a410b","system_id":"levelo_inurba_marseille","lat":43.2955,"lon":5.42286,"is_reserved":false,"is_disabled":false,"rental_uris":{"android":"levelo://app?vid=6f5955f2-f150-4390-9828-ed9fb50a410b","ios":"levelo://app?vid=6f5955f2-f150-4390-9828-ed9fb50a410b"},"vehicle_type_id":"4","last_reported":1734606445,"current_range_meters":20400,"station_id":"ce4bhph2rcd13ifvqhdg","pricing_plan_id":"cebpf4jnsgd1na2vs0mg"},{"bike_id":"818223ec-bb29-480f-a58a-27b69f29ab09","system_id":"levelo_inurba_marseille","lat":43.30875,"lon":5.39654,"is_reserved":false,"is_disabled":false,"rental_uris":{"android":"levelo://app?vid=818223ec-bb29-480f-a58a-27b69f29ab09","ios":"levelo://app?vid=818223ec-bb29-480f-a58a-27b69f29ab09"},"vehicle_type_id":"4","last_reported":1734606445,"current_range_meters":8400,"station_id":"ce4bh012rcd13ifvqcv0","pricing_plan_id":"cebpf4jnsgd1na2vs0mg"},{"bike_id":"0e228204-fb38-470f-9156-477a9839c956","system_id":"levelo_inurba_marseille","lat":43.27064,"lon":5.40265,"is_reserved":false,"is_disabled":false,"rental_uris":{"android":"levelo://app?vid=0e228204-fb38-470f-9156-477a9839c956","ios":"levelo://app?vid=0e228204-fb38-470f-9156-477a9839c956"},"vehicle_type_id":"4","last_reported":1734606445,"current_range_meters":38800,"station_id":"ce4bhk92rcd13ifvqgc0","pricing_plan_id":"cebpf4jnsgd1na2vs0mg"},{"bike_id":"3481ff2d-0f41-429c-8b12-56b550b4c0a0","system_id":"levelo_inurba_marseille","lat":43.26212,"lon":5.37442,"is_reserved":false,"is_disabled":false,"rental_uris":{"android":"levelo://app?vid=3481ff2d-0f41-429c-8b12-56b550b4c0a0","ios":"levelo://app?vid=3481ff2d-0f41-429c-8b12-56b550b4c0a0"},"vehicle_type_id":"4","last_reported":1734606445,"current_range_meters":38000,"station_id":"ce4bhgp2rcd13ifvqfc0","pricing_plan_id":"cebpf4jnsgd1na2vs0mg"},{"bike_id":"f55a55a9-091b-45cd-bafe-e68f26f7c5a7","system_id":"levelo_inurba_marseille","lat":43.29836,"lon":5.36278,"is_reserved":false,"is_disabled":false,"rental_uris":{"android":"levelo://app?vid=f55a55a9-091b-45cd-bafe-e68f26f7c5a7","ios":"levelo://app?vid=f55a55a9-091b-45cd-bafe-e68f26f7c5a7"},"vehicle_type_id":"4","last_reported":1734606445,"current_range_meters":24400,"station_id":"ce4bgpp2rcd13ifvqc3g","pricing_plan_id":"cebpf4jnsgd1na2vs0mg"},{"bike_id":"79823b18-da4c-4ad6-b63a-98f586566945","system_id":"levelo_inurba_marseille","lat":43.31882,"lon":5.40732,"is_reserved":false,"is_disabled":false,"rental_uris":{"android":"levelo://app?vid=79823b18-da4c-4ad6-b63a-98f586566945","ios":"levelo://app?vid=79823b18-da4c-4ad6-b63a-98f586566945"},"vehicle_type_id":"4","last_reported":1734606445,"current_range_meters":38800,"station_id":"ce4bhq12rcd13ifvqhig","pricing_plan_id":"cebpf4jnsgd1na2vs0mg"},{"bike_id":"f0f98e1e-00ea-404a-8ec2-c3d3f0edd605","system_id":"levelo_inurba_marseille","lat":43.33611,"lon":5.41016,"is_reserved":false,"is_disabled":false,"rental_uris":{"android":"levelo://app?vid=f0f98e1e-00ea-404a-8ec2-c3d3f0edd605","ios":"levelo://app?vid=f0f98e1e-00ea-404a-8ec2-c3d3f0edd605"},"vehicle_type_id":"4","last_reported":1734606445,"current_range_meters":10000,"station_id":"ce4bhqh2rcd13ifvqhmg","pricing_plan_id":"cebpf4jnsgd1na2vs0mg"},{"bike_id":"78b7df46-c560-4e2e-8385-ba939fc7431f","system_id":"levelo_inurba_marseille","lat":43.25108,"lon":5.40325,"is_reserved":false,"is_disabled":false,"rental_uris":{"android":"levelo://app?vid=78b7df46-c560-4e2e-8385-ba939fc7431f","ios":"levelo://app?vid=78b7df46-c560-4e2e-8385-ba939fc7431f"},"vehicle_type_id":"4","last_reported":1734606445,"current_range_meters":21600,"station_id":"ce4bhlh2rcd13ifvqgig","pricing_plan_id":"cebpf4jnsgd1na2vs0mg"},{"bike_id":"4620dcd9-c3a6-4871-8162-c4a28f6d33ca","system_id":"levelo_inurba_marseille","lat":43.31884,"lon":5.40738,"is_reserved":false,"is_disabled":true,"rental_uris":{"android":"levelo://app?vid=4620dcd9-c3a6-4871-8162-c4a28f6d33ca","ios":"levelo://app?vid=4620dcd9-c3a6-4871-8162-c4a28f6d33ca"},"vehicle_type_id":"4","last_reported":1734606445,"current_range_meters":9600,"station_id":"ce4bhq12rcd13ifvqhig","pricing_plan_id":"cebpf4jnsgd1na2vs0mg"},{"bike_id":"a8906884-1592-4559-be8b-f1e3cd20d6b1","system_id":"levelo_inurba_marseille","lat":43.29534,"lon":5.37508,"is_reserved":false,"is_disabled":false,"rental_uris":{"android":"levelo://app?vid=a8906884-1592-4559-be8b-f1e3cd20d6b1","ios":"levelo://app?vid=a8906884-1592-4559-be8b-f1e3cd20d6b1"},"vehicle_type_id":"4","last_reported":1734606445,"current_range_meters":38000,"station_id":"ce4bgkp2rcd13ifvqbmg","pricing_plan_id":"cebpf4jnsgd1na2vs0mg"},{"bike_id":"a6507411-9c66-4600-a27b-20c00afbcb30","system_id":"levelo_inurba_marseille","lat":43.24807,"lon":5.37469,"is_reserved":false,"is_disabled":false,"rental_uris":{"android":"levelo://app?vid=a6507411-9c66-4600-a27b-20c00afbcb30","ios":"levelo://app?vid=a6507411-9c66-4600-a27b-20c00afbcb30"},"vehicle_type_id":"4","last_reported":1734606445,"current_range_meters":38800,"station_id":"ce4bhgh2rcd13ifvqfb0","pricing_plan_id":"cebpf4jnsgd1na2vs0mg"},{"bike_id":"53586763-e6eb-40b6-bde6-7786af1effe6","system_id":"levelo_inurba_marseille","lat":43.31195,"lon":5.36778,"is_reserved":false,"is_disabled":false,"rental_uris":{"android":"levelo://app?vid=53586763-e6eb-40b6-bde6-7786af1effe6","ios":"levelo://app?vid=53586763-e6eb-40b6-bde6-7786af1effe6"},"vehicle_type_id":"4","last_reported":1734606445,"current_range_meters":23200,"station_id":"","pricing_plan_id":"cebpf4jnsgd1na2vs0mg"},{"bike_id":"699be605-c3f4-4276-babe-4ba137c46c01","system_id":"levelo_inurba_marseille","lat":43.26683,"lon":5.38272,"is_reserved":false,"is_disabled":false,"rental_uris":{"android":"levelo://app?vid=699be605-c3f4-4276-babe-4ba137c46c01","ios":"levelo://app?vid=699be605-c3f4-4276-babe-4ba137c46c01"},"vehicle_type_id":"4","last_reported":1734606445,"current_range_meters":24800,"station_id":"ce4bhg92rcd13ifvqf90","pricing_plan_id":"cebpf4jnsgd1na2vs0mg"},{"bike_id":"af958579-cc4d-44df-853f-d995a1a776b5","system_id":"levelo_inurba_marseille","lat":43.29847,"lon":5.36282,"is_reserved":false,"is_disabled":false,"rental_uris":{"android":"levelo://app?vid=af958579-cc4d-44df-853f-d995a1a776b5","ios":"levelo://app?vid=af958579-cc4d-44df-853f-d995a1a776b5"},"vehicle_type_id":"4","last_reported":1734606445,"current_range_meters":25600,"station_id":"ce4bgpp2rcd13ifvqc3g","pricing_plan_id":"cebpf4jnsgd1na2vs0mg"},{"bike_id":"5d229ec1-843c-42dd-b2d5-c6bbdc4852c3","system_id":"levelo_inurba_marseille","lat":43.33594,"lon":5.41029,"is_reserved":false,"is_disabled":true,"rental_uris":{"android":"levelo://app?vid=5d229ec1-843c-42dd-b2d5-c6bbdc4852c3","ios":"levelo://app?vid=5d229ec1-843c-42dd-b2d5-c6bbdc4852c3"},"vehicle_type_id":"4","last_reported":1734606445,"current_range_meters":24800,"station_id":"ce4bhqh2rcd13ifvqhmg","pricing_plan_id":"cebpf4jnsgd1na2vs0mg"},{"bike_id":"65e1c528-95dd-465e-acfd-50d3bef26e16","system_id":"levelo_inurba_marseille","lat":43.29524,"lon":5.39036,"is_reserved":false,"is_disabled":false,"rental_uris":{"android":"levelo://app?vid=65e1c528-95dd-465e-acfd-50d3bef26e16","ios":"levelo://app?vid=65e1c528-95dd-465e-acfd-50d3bef26e16"},"vehicle_type_id":"4","last_reported":1734606445,"current_range_meters":38000,"station_id":"ce4bh3p2rcd13ifvqdp0","pricing_plan_id":"cebpf4jnsgd1na2vs0mg"},{"bike_id":"1f6c8910-0ea0-4154-9c68-3c4db09f57ea","system_id":"levelo_inurba_marseille","lat":43.30282,"lon":5.37706,"is_reserved":false,"is_disabled":false,"rental_uris":{"android":"levelo://app?vid=1f6c8910-0ea0-4154-9c68-3c4db09f57ea","ios":"levelo://app?vid=1f6c8910-0ea0-4154-9c68-3c4db09f57ea"},"vehicle_type_id":"4","last_reported":1734606445,"current_range_meters":24400,"station_id":"ce4bguh2rcd13ifvqcj0","pricing_plan_id":"cebpf4jnsgd1na2vs0mg"},{"bike_id":"9294b7c4-f950-43f8-8e30-fdbb56a51003","system_id":"levelo_inurba_marseille","lat":43.3148,"lon":5.36877,"is_reserved":false,"is_disabled":false,"rental_uris":{"android":"levelo://app?vid=9294b7c4-f950-43f8-8e30-fdbb56a51003","ios":"levelo://app?vid=9294b7c4-f950-43f8-8e30-fdbb56a51003"},"vehicle_type_id":"4","last_reported":1734606445,"current_range_meters":6800,"station_id":"","pricing_plan_id":"cebpf4jnsgd1na2vs0mg"},{"bike_id":"ee1f0246-362c-45a9-bc86-acf61514ac7c","system_id":"levelo_inurba_marseille","lat":43.26781,"lon":5.39415,"is_reserved":false,"is_disabled":false,"rental_uris":{"android":"levelo://app?vid=ee1f0246-362c-45a9-bc86-acf61514ac7c","ios":"levelo://app?vid=ee1f0246-362c-45a9-bc86-acf61514ac7c"},"vehicle_type_id":"4","last_reported":1734606445,"current_range_meters":38800,"station_id":"ce4bhh12rcd13ifvqfg0","pricing_plan_id":"cebpf4jnsgd1na2vs0mg"},{"bike_id":"777d1d73-fb13-4912-a24f-45375b2ad602","system_id":"levelo_inurba_marseille","lat":43.30156,"lon":5.38084,"is_reserved":false,"is_disabled":false,"rental_uris":{"android":"levelo://app?vid=777d1d73-fb13-4912-a24f-45375b2ad602","ios":"levelo://app?vid=777d1d73-fb13-4912-a24f-45375b2ad602"},"vehicle_type_id":"4","last_reported":1734606445,"current_range_meters":31200,"station_id":"ce4bgjp2rcd13ifvqbh0","pricing_plan_id":"cebpf4jnsgd1na2vs0mg"},{"bike_id":"56ad9efe-d698-4bfd-a0a9-f5e7ad71223b","system_id":"levelo_inurba_marseille","lat":43.3377,"lon":5.37427,"is_reserved":false,"is_disabled":false,"rental_uris":{"android":"levelo://app?vid=56ad9efe-d698-4bfd-a0a9-f5e7ad71223b","ios":"levelo://app?vid=56ad9efe-d698-4bfd-a0a9-f5e7ad71223b"},"vehicle_type_id":"4","last_reported":1734606445,"current_range_meters":30800,"station_id":"","pricing_plan_id":"cebpf4jnsgd1na2vs0mg"},{"bike_id":"8d1b5f91-ba60-4d3f-8a8c-fab96de6ed94","system_id":"levelo_inurba_marseille","lat":43.26202,"lon":5.3794,"is_reserved":false,"is_disabled":false,"rental_uris":{"android":"levelo://app?vid=8d1b5f91-ba60-4d3f-8a8c-fab96de6ed94","ios":"levelo://app?vid=8d1b5f91-ba60-4d3f-8a8c-fab96de6ed94"},"vehicle_type_id":"4","last_reported":1734606445,"current_range_meters":38800,"station_id":"ce4bhjp2rcd13ifvqg90","pricing_plan_id":"cebpf4jnsgd1na2vs0mg"},{"bike_id":"a3232108-6d4d-45f4-ac66-cd85d6391bc7","system_id":"levelo_inurba_marseille","lat":43.23055,"lon":5.35494,"is_reserved":false,"is_disabled":false,"rental_uris":{"android":"levelo://app?vid=a3232108-6d4d-45f4-ac66-cd85d6391bc7","ios":"levelo://app?vid=a3232108-6d4d-45f4-ac66-cd85d6391bc7"},"vehicle_type_id":"4","last_reported":1734606445,"current_range_meters":34800,"station_id":"cpo3342slgdg3j2ifvpg","pricing_plan_id":"cebpf4jnsgd1na2vs0mg"},{"bike_id":"8418e734-4fcd-4b94-951b-0d0ce81a5b83","system_id":"levelo_inurba_marseille","lat":43.2969,"lon":5.37292,"is_reserved":false,"is_disabled":false,"rental_uris":{"android":"levelo://app?vid=8418e734-4fcd-4b94-951b-0d0ce81a5b83","ios":"levelo://app?vid=8418e734-4fcd-4b94-951b-0d0ce81a5b83"},"vehicle_type_id":"4","last_reported":1734606445,"current_range_meters":37600,"station_id":"ce4bgk12rcd13ifvqbj0","pricing_plan_id":"cebpf4jnsgd1na2vs0mg"},{"bike_id":"e75d9ad7-5fbb-41ae-b314-b3e4b3ea8736","system_id":"levelo_inurba_marseille","lat":43.30086,"lon":5.39067,"is_reserved":false,"is_disabled":false,"rental_uris":{"android":"levelo://app?vid=e75d9ad7-5fbb-41ae-b314-b3e4b3ea8736","ios":"levelo://app?vid=e75d9ad7-5fbb-41ae-b314-b3e4b3ea8736"},"vehicle_type_id":"4","last_reported":1734606445,"current_range_meters":36400,"station_id":"ce4bh192rcd13ifvqdb0","pricing_plan_id":"cebpf4jnsgd1na2vs0mg"},{"bike_id":"35c55a77-c774-4274-b708-d5d20f3c0c48","system_id":"levelo_inurba_marseille","lat":43.30145,"lon":5.37412,"is_reserved":false,"is_disabled":false,"rental_uris":{"android":"levelo://app?vid=35c55a77-c774-4274-b708-d5d20f3c0c48","ios":"levelo://app?vid=35c55a77-c774-4274-b708-d5d20f3c0c48"},"vehicle_type_id":"4","last_reported":1734606445,"current_range_meters":22800,"station_id":"ce4bgs92rcd13ifvqcc0","pricing_plan_id":"cebpf4jnsgd1na2vs0mg"},{"bike_id":"45f34b4f-33e2-463f-b4f3-e9cdd91ae7c7","system_id":"levelo_inurba_marseille","lat":43.312327,"lon":5.368637,"is_reserved":false,"is_disabled":false,"rental_uris":{"android":"levelo://app?vid=45f34b4f-33e2-463f-b4f3-e9cdd91ae7c7","ios":"levelo://app?vid=45f34b4f-33e2-463f-b4f3-e9cdd91ae7c7"},"vehicle_type_id":"4","last_reported":1734606445,"current_range_meters":36800,"station_id":"ce4bgl92rcd13ifvqbq0","pricing_plan_id":"cebpf4jnsgd1na2vs0mg"},{"bike_id":"55908842-5677-4a26-9838-98b487742c62","system_id":"levelo_inurba_marseille","lat":43.29273,"lon":5.3751,"is_reserved":false,"is_disabled":false,"rental_uris":{"android":"levelo://app?vid=55908842-5677-4a26-9838-98b487742c62","ios":"levelo://app?vid=55908842-5677-4a26-9838-98b487742c62"},"vehicle_type_id":"4","last_reported":1734606445,"current_range_meters":6400,"station_id":"","pricing_plan_id":"cebpf4jnsgd1na2vs0mg"},{"bike_id":"cdefaa24-153e-447f-bc00-cab062b78b2b","system_id":"levelo_inurba_marseille","lat":43.28853,"lon":5.35854,"is_reserved":false,"is_disabled":false,"rental_uris":{"android":"levelo://app?vid=cdefaa24-153e-447f-bc00-cab062b78b2b","ios":"levelo://app?vid=cdefaa24-153e-447f-bc00-cab062b78b2b"},"vehicle_type_id":"4","last_reported":1734606445,"current_range_meters":31200,"station_id":"ce4bhb12rcd13ifvqem0","pricing_plan_id":"cebpf4jnsgd1na2vs0mg"},{"bike_id":"f5c894fa-8ab9-469e-9f79-8e652d96deb0","system_id":"levelo_inurba_marseille","lat":43.26951,"lon":5.38649,"is_reserved":false,"is_disabled":false,"rental_uris":{"android":"levelo://app?vid=f5c894fa-8ab9-469e-9f79-8e652d96deb0","ios":"levelo://app?vid=f5c894fa-8ab9-469e-9f79-8e652d96deb0"},"vehicle_type_id":"4","last_reported":1734606445,"current_range_meters":37600,"station_id":"ce4bhh92rcd13ifvqfh0","pricing_plan_id":"cebpf4jnsgd1na2vs0mg"},{"bike_id":"ffd50738-4963-47aa-ab7d-955fbc933618","system_id":"levelo_inurba_marseille","lat":43.30552,"lon":5.36536,"is_reserved":false,"is_disabled":false,"rental_uris":{"android":"levelo://app?vid=ffd50738-4963-47aa-ab7d-955fbc933618","ios":"levelo://app?vid=ffd50738-4963-47aa-ab7d-955fbc933618"},"vehicle_type_id":"4","last_reported":1734606445,"current_range_meters":38800,"station_id":"ce4bgs12rcd13ifvqcag","pricing_plan_id":"cebpf4jnsgd1na2vs0mg"},{"bike_id":"9d922ea0-81e1-443a-89af-8bd940af6d00","system_id":"levelo_inurba_marseille","lat":43.31275,"lon":5.40184,"is_reserved":false,"is_disabled":false,"rental_uris":{"android":"levelo://app?vid=9d922ea0-81e1-443a-89af-8bd940af6d00","ios":"levelo://app?vid=9d922ea0-81e1-443a-89af-8bd940af6d00"},"vehicle_type_id":"4","last_reported":1734606445,"current_range_meters":36400,"station_id":"ce4bh092rcd13ifvqd30","pricing_plan_id":"cebpf4jnsgd1na2vs0mg"},{"bike_id":"ab3c0af0-d740-4e82-9b41-ef00f1f40b8d","system_id":"levelo_inurba_marseille","lat":43.30554,"lon":5.36522,"is_reserved":false,"is_disabled":false,"rental_uris":{"android":"levelo://app?vid=ab3c0af0-d740-4e82-9b41-ef00f1f40b8d","ios":"levelo://app?vid=ab3c0af0-d740-4e82-9b41-ef00f1f40b8d"},"vehicle_type_id":"4","last_reported":1734606445,"current_range_meters":9200,"station_id":"ce4bgs12rcd13ifvqcag","pricing_plan_id":"cebpf4jnsgd1na2vs0mg"},{"bike_id":"c6fc1f35-949d-4dc4-925e-046f798f5cdb","system_id":"levelo_inurba_marseille","lat":43.30417,"lon":5.4128,"is_reserved":false,"is_disabled":true,"rental_uris":{"android":"levelo://app?vid=c6fc1f35-949d-4dc4-925e-046f798f5cdb","ios":"levelo://app?vid=c6fc1f35-949d-4dc4-925e-046f798f5cdb"},"vehicle_type_id":"4","last_reported":1734606445,"current_range_meters":38800,"station_id":"ce4bhop2rcd13ifvqh8g","pricing_plan_id":"cebpf4jnsgd1na2vs0mg"},{"bike_id":"21d8267c-7ebf-45b3-8ab8-797456f35e60","system_id":"levelo_inurba_marseille","lat":43.24545,"lon":5.39535,"is_reserved":false,"is_disabled":false,"rental_uris":{"android":"levelo://app?vid=21d8267c-7ebf-45b3-8ab8-797456f35e60","ios":"levelo://app?vid=21d8267c-7ebf-45b3-8ab8-797456f35e60"},"vehicle_type_id":"4","last_reported":1734606445,"current_range_meters":38000,"station_id":"ce4bhlp2rcd13ifvqgjg","pricing_plan_id":"cebpf4jnsgd1na2vs0mg"},{"bike_id":"c48c04fc-527b-4f77-85cd-0d99c0b4936d","system_id":"levelo_inurba_marseille","lat":43.272301,"lon":5.391795,"is_reserved":false,"is_disabled":false,"rental_uris":{"android":"levelo://app?vid=c48c04fc-527b-4f77-85cd-0d99c0b4936d","ios":"levelo://app?vid=c48c04fc-527b-4f77-85cd-0d99c0b4936d"},"vehicle_type_id":"4","last_reported":1734606445,"current_range_meters":27200,"station_id":"ce4bhhp2rcd13ifvqfm0","pricing_plan_id":"cebpf4jnsgd1na2vs0mg"},{"bike_id":"4a208263-5683-4c02-b8c0-8842a35d3fff","system_id":"levelo_inurba_marseille","lat":43.30547,"lon":5.36534,"is_reserved":false,"is_disabled":false,"rental_uris":{"android":"levelo://app?vid=4a208263-5683-4c02-b8c0-8842a35d3fff","ios":"levelo://app?vid=4a208263-5683-4c02-b8c0-8842a35d3fff"},"vehicle_type_id":"4","last_reported":1734606445,"current_range_meters":38400,"station_id":"ce4bgs12rcd13ifvqcag","pricing_plan_id":"cebpf4jnsgd1na2vs0mg"},{"bike_id":"0e539fde-1e0e-45bb-9aeb-c829912b7b87","system_id":"levelo_inurba_marseille","lat":43.29571,"lon":5.37525,"is_reserved":false,"is_disabled":false,"rental_uris":{"android":"levelo://app?vid=0e539fde-1e0e-45bb-9aeb-c829912b7b87","ios":"levelo://app?vid=0e539fde-1e0e-45bb-9aeb-c829912b7b87"},"vehicle_type_id":"4","last_reported":1734606445,"current_range_meters":38800,"station_id":"ce4bgh92rcd13ifvqb50","pricing_plan_id":"cebpf4jnsgd1na2vs0mg"},{"bike_id":"0053559e-1a7d-40d9-b30d-c87ff1a67e69","system_id":"levelo_inurba_marseille","lat":43.29001,"lon":5.35614,"is_reserved":false,"is_disabled":false,"rental_uris":{"android":"levelo://app?vid=0053559e-1a7d-40d9-b30d-c87ff1a67e69","ios":"levelo://app?vid=0053559e-1a7d-40d9-b30d-c87ff1a67e69"},"vehicle_type_id":"4","last_reported":1734606445,"current_range_meters":38800,"station_id":"ce4bhb92rcd13ifvqen0","pricing_plan_id":"cebpf4jnsgd1na2vs0mg"},{"bike_id":"149f6e59-92f2-4391-ad8d-a3c211e76bb2","system_id":"levelo_inurba_marseille","lat":43.231996,"lon":5.355472,"is_reserved":false,"is_disabled":false,"rental_uris":{"android":"levelo://app?vid=149f6e59-92f2-4391-ad8d-a3c211e76bb2","ios":"levelo://app?vid=149f6e59-92f2-4391-ad8d-a3c211e76bb2"},"vehicle_type_id":"4","last_reported":1734606445,"current_range_meters":38000,"station_id":"ce4bhu92rcd13ifvqi70","pricing_plan_id":"cebpf4jnsgd1na2vs0mg"},{"bike_id":"b8e93dba-3edc-467e-9eec-d0acf097b01e","system_id":"levelo_inurba_marseille","lat":43.25582,"lon":5.38234,"is_reserved":false,"is_disabled":false,"rental_uris":{"android":"levelo://app?vid=b8e93dba-3edc-467e-9eec-d0acf097b01e","ios":"levelo://app?vid=b8e93dba-3edc-467e-9eec-d0acf097b01e"},"vehicle_type_id":"4","last_reported":1734606445,"current_range_meters":2800,"station_id":"ce4bhih2rcd13ifvqfs0","pricing_plan_id":"cebpf4jnsgd1na2vs0mg"},{"bike_id":"25fbff89-a5d7-4935-bafe-3a7a2f605c5a","system_id":"levelo_inurba_marseille","lat":43.31176,"lon":5.387035,"is_reserved":false,"is_disabled":true,"rental_uris":{"android":"levelo://app?vid=25fbff89-a5d7-4935-bafe-3a7a2f605c5a","ios":"levelo://app?vid=25fbff89-a5d7-4935-bafe-3a7a2f605c5a"},"vehicle_type_id":"4","last_reported":1734606445,"current_range_meters":6000,"station_id":"ce4bgv12rcd13ifvqcp0","pricing_plan_id":"cebpf4jnsgd1na2vs0mg"},{"bike_id":"9d2aefec-f4a3-4a23-a13a-c09b46ffe2e4","system_id":"levelo_inurba_marseille","lat":43.31182,"lon":5.36719,"is_reserved":false,"is_disabled":false,"rental_uris":{"android":"levelo://app?vid=9d2aefec-f4a3-4a23-a13a-c09b46ffe2e4","ios":"levelo://app?vid=9d2aefec-f4a3-4a23-a13a-c09b46ffe2e4"},"vehicle_type_id":"4","last_reported":1734606445,"current_range_meters":31200,"station_id":"","pricing_plan_id":"cebpf4jnsgd1na2vs0mg"},{"bike_id":"fdb00e72-6d85-4d61-9e62-d139d7971bf0","system_id":"levelo_inurba_marseille","lat":43.26942,"lon":5.38631,"is_reserved":false,"is_disabled":false,"rental_uris":{"android":"levelo://app?vid=fdb00e72-6d85-4d61-9e62-d139d7971bf0","ios":"levelo://app?vid=fdb00e72-6d85-4d61-9e62-d139d7971bf0"},"vehicle_type_id":"4","last_reported":1734606445,"current_range_meters":38800,"station_id":"ce4bhh92rcd13ifvqfh0","pricing_plan_id":"cebpf4jnsgd1na2vs0mg"},{"bike_id":"473817a6-8cf9-467a-a508-7c5eb1eea4db","system_id":"levelo_inurba_marseille","lat":43.30119,"lon":5.39851,"is_reserved":false,"is_disabled":false,"rental_uris":{"android":"levelo://app?vid=473817a6-8cf9-467a-a508-7c5eb1eea4db","ios":"levelo://app?vid=473817a6-8cf9-467a-a508-7c5eb1eea4db"},"vehicle_type_id":"4","last_reported":1734606445,"current_range_meters":38800,"station_id":"ce4bh0h2rcd13ifvqd40","pricing_plan_id":"cebpf4jnsgd1na2vs0mg"},{"bike_id":"41360683-0f69-4c62-8b87-4868ce57f8d5","system_id":"levelo_inurba_marseille","lat":43.314894,"lon":5.37308,"is_reserved":false,"is_disabled":false,"rental_uris":{"android":"levelo://app?vid=41360683-0f69-4c62-8b87-4868ce57f8d5","ios":"levelo://app?vid=41360683-0f69-4c62-8b87-4868ce57f8d5"},"vehicle_type_id":"4","last_reported":1734606445,"current_range_meters":38800,"station_id":"ce4bgt12rcd13ifvqcd0","pricing_plan_id":"cebpf4jnsgd1na2vs0mg"},{"bike_id":"a2eba22b-b0ee-4005-9bf3-576bb458d391","system_id":"levelo_inurba_marseille","lat":43.279651,"lon":5.387544,"is_reserved":false,"is_disabled":true,"rental_uris":{"android":"levelo://app?vid=a2eba22b-b0ee-4005-9bf3-576bb458d391","ios":"levelo://app?vid=a2eba22b-b0ee-4005-9bf3-576bb458d391"},"vehicle_type_id":"4","last_reported":1734606445,"current_range_meters":0,"station_id":"","pricing_plan_id":"cebpf4jnsgd1na2vs0mg"},{"bike_id":"c8ff0633-c7c0-4b79-9a35-09b7f45ed4c4","system_id":"levelo_inurba_marseille","lat":43.25582,"lon":5.38243,"is_reserved":false,"is_disabled":false,"rental_uris":{"android":"levelo://app?vid=c8ff0633-c7c0-4b79-9a35-09b7f45ed4c4","ios":"levelo://app?vid=c8ff0633-c7c0-4b79-9a35-09b7f45ed4c4"},"vehicle_type_id":"4","last_reported":1734606445,"current_range_meters":24000,"station_id":"ce4bhih2rcd13ifvqfs0","pricing_plan_id":"cebpf4jnsgd1na2vs0mg"},{"bike_id":"26312ccf-8c7f-4cef-9746-9e32e9db571f","system_id":"levelo_inurba_marseille","lat":43.33589,"lon":5.41045,"is_reserved":false,"is_disabled":false,"rental_uris":{"android":"levelo://app?vid=26312ccf-8c7f-4cef-9746-9e32e9db571f","ios":"levelo://app?vid=26312ccf-8c7f-4cef-9746-9e32e9db571f"},"vehicle_type_id":"4","last_reported":1734606445,"current_range_meters":9200,"station_id":"ce4bhqh2rcd13ifvqhmg","pricing_plan_id":"cebpf4jnsgd1na2vs0mg"},{"bike_id":"54814c62-8dc3-432e-883f-d4f0044ef82b","system_id":"levelo_inurba_marseille","lat":43.29297,"lon":5.37467,"is_reserved":false,"is_disabled":false,"rental_uris":{"android":"levelo://app?vid=54814c62-8dc3-432e-883f-d4f0044ef82b","ios":"levelo://app?vid=54814c62-8dc3-432e-883f-d4f0044ef82b"},"vehicle_type_id":"4","last_reported":1734606445,"current_range_meters":16400,"station_id":"ce4bgi12rcd13ifvqb70","pricing_plan_id":"cebpf4jnsgd1na2vs0mg"},{"bike_id":"f0377741-7cf6-450d-a6fd-153237b93a8a","system_id":"levelo_inurba_marseille","lat":43.25942,"lon":5.40911,"is_reserved":false,"is_disabled":false,"rental_uris":{"android":"levelo://app?vid=f0377741-7cf6-450d-a6fd-153237b93a8a","ios":"levelo://app?vid=f0377741-7cf6-450d-a6fd-153237b93a8a"},"vehicle_type_id":"4","last_reported":1734606445,"current_range_meters":18000,"station_id":"ce4bhm92rcd13ifvqglg","pricing_plan_id":"cebpf4jnsgd1na2vs0mg"},{"bike_id":"40b862ad-c49e-4129-acbb-5e704d7d9dcd","system_id":"levelo_inurba_marseille","lat":43.28975,"lon":5.35602,"is_reserved":false,"is_disabled":false,"rental_uris":{"android":"levelo://app?vid=40b862ad-c49e-4129-acbb-5e704d7d9dcd","ios":"levelo://app?vid=40b862ad-c49e-4129-acbb-5e704d7d9dcd"},"vehicle_type_id":"4","last_reported":1734606445,"current_range_meters":36400,"station_id":"ce4bhb92rcd13ifvqen0","pricing_plan_id":"cebpf4jnsgd1na2vs0mg"},{"bike_id":"c43144b8-701d-4fef-8260-134b7f7dba42","system_id":"levelo_inurba_marseille","lat":43.26203,"lon":5.37929,"is_reserved":false,"is_disabled":false,"rental_uris":{"android":"levelo://app?vid=c43144b8-701d-4fef-8260-134b7f7dba42","ios":"levelo://app?vid=c43144b8-701d-4fef-8260-134b7f7dba42"},"vehicle_type_id":"4","last_reported":1734606445,"current_range_meters":38800,"station_id":"ce4bhjp2rcd13ifvqg90","pricing_plan_id":"cebpf4jnsgd1na2vs0mg"},{"bike_id":"8b61a505-6689-4d59-bdbd-c2bc04b25a7f","system_id":"levelo_inurba_marseille","lat":43.30547,"lon":5.365267,"is_reserved":false,"is_disabled":false,"rental_uris":{"android":"levelo://app?vid=8b61a505-6689-4d59-bdbd-c2bc04b25a7f","ios":"levelo://app?vid=8b61a505-6689-4d59-bdbd-c2bc04b25a7f"},"vehicle_type_id":"4","last_reported":1734606445,"current_range_meters":25600,"station_id":"ce4bgs12rcd13ifvqcag","pricing_plan_id":"cebpf4jnsgd1na2vs0mg"},{"bike_id":"bcba2c13-fd7b-4d65-a255-388b54aedd85","system_id":"levelo_inurba_marseille","lat":43.336065,"lon":5.410066,"is_reserved":false,"is_disabled":false,"rental_uris":{"android":"levelo://app?vid=bcba2c13-fd7b-4d65-a255-388b54aedd85","ios":"levelo://app?vid=bcba2c13-fd7b-4d65-a255-388b54aedd85"},"vehicle_type_id":"4","last_reported":1734606445,"current_range_meters":37600,"station_id":"ce4bhqh2rcd13ifvqhmg","pricing_plan_id":"cebpf4jnsgd1na2vs0mg"},{"bike_id":"ac7c5f56-daad-496c-965f-9103737000e8","system_id":"levelo_inurba_marseille","lat":43.23958,"lon":5.36643,"is_reserved":false,"is_disabled":false,"rental_uris":{"android":"levelo://app?vid=ac7c5f56-daad-496c-965f-9103737000e8","ios":"levelo://app?vid=ac7c5f56-daad-496c-965f-9103737000e8"},"vehicle_type_id":"4","last_reported":1734606445,"current_range_meters":38800,"station_id":"ce4bhi12rcd13ifvqfp0","pricing_plan_id":"cebpf4jnsgd1na2vs0mg"},{"bike_id":"50f3ea1e-8d3a-452b-9061-37af2efe02cc","system_id":"levelo_inurba_marseille","lat":43.31282,"lon":5.40165,"is_reserved":false,"is_disabled":false,"rental_uris":{"android":"levelo://app?vid=50f3ea1e-8d3a-452b-9061-37af2efe02cc","ios":"levelo://app?vid=50f3ea1e-8d3a-452b-9061-37af2efe02cc"},"vehicle_type_id":"4","last_reported":1734606445,"current_range_meters":30000,"station_id":"ce4bh092rcd13ifvqd30","pricing_plan_id":"cebpf4jnsgd1na2vs0mg"},{"bike_id":"4feace51-ad76-46c2-bf1e-a105911eef0c","system_id":"levelo_inurba_marseille","lat":43.27206,"lon":5.39179,"is_reserved":false,"is_disabled":false,"rental_uris":{"android":"levelo://app?vid=4feace51-ad76-46c2-bf1e-a105911eef0c","ios":"levelo://app?vid=4feace51-ad76-46c2-bf1e-a105911eef0c"},"vehicle_type_id":"4","last_reported":1734606445,"current_range_meters":28400,"station_id":"ce4bhhp2rcd13ifvqfm0","pricing_plan_id":"cebpf4jnsgd1na2vs0mg"},{"bike_id":"0cef6d55-09da-4dff-80ee-facea058c7a5","system_id":"levelo_inurba_marseille","lat":43.30055,"lon":5.36969,"is_reserved":false,"is_disabled":false,"rental_uris":{"android":"levelo://app?vid=0cef6d55-09da-4dff-80ee-facea058c7a5","ios":"levelo://app?vid=0cef6d55-09da-4dff-80ee-facea058c7a5"},"vehicle_type_id":"4","last_reported":1734606445,"current_range_meters":33600,"station_id":"","pricing_plan_id":"cebpf4jnsgd1na2vs0mg"},{"bike_id":"3cf0984c-c4ab-4287-8a52-6a5867b6c146","system_id":"levelo_inurba_marseille","lat":43.30643,"lon":5.40104,"is_reserved":false,"is_disabled":false,"rental_uris":{"android":"levelo://app?vid=3cf0984c-c4ab-4287-8a52-6a5867b6c146","ios":"levelo://app?vid=3cf0984c-c4ab-4287-8a52-6a5867b6c146"},"vehicle_type_id":"4","last_reported":1734606445,"current_range_meters":4800,"station_id":"ce4bh112rcd13ifvqda0","pricing_plan_id":"cebpf4jnsgd1na2vs0mg"},{"bike_id":"23a049cd-2a20-411e-a25c-f3e09482729c","system_id":"levelo_inurba_marseille","lat":43.30427,"lon":5.37336,"is_reserved":false,"is_disabled":false,"rental_uris":{"android":"levelo://app?vid=23a049cd-2a20-411e-a25c-f3e09482729c","ios":"levelo://app?vid=23a049cd-2a20-411e-a25c-f3e09482729c"},"vehicle_type_id":"4","last_reported":1734606445,"current_range_meters":34800,"station_id":"","pricing_plan_id":"cebpf4jnsgd1na2vs0mg"},{"bike_id":"e7e7a15d-4c16-401a-ab98-21b19d3aa69c","system_id":"levelo_inurba_marseille","lat":43.30078,"lon":5.39073,"is_reserved":false,"is_disabled":false,"rental_uris":{"android":"levelo://app?vid=e7e7a15d-4c16-401a-ab98-21b19d3aa69c","ios":"levelo://app?vid=e7e7a15d-4c16-401a-ab98-21b19d3aa69c"},"vehicle_type_id":"4","last_reported":1734606445,"current_range_meters":38400,"station_id":"ce4bh192rcd13ifvqdb0","pricing_plan_id":"cebpf4jnsgd1na2vs0mg"},{"bike_id":"b9e0dcf9-3bb4-4708-81c1-daf6a6b0f76c","system_id":"levelo_inurba_marseille","lat":43.32106,"lon":5.36798,"is_reserved":false,"is_disabled":true,"rental_uris":{"android":"levelo://app?vid=b9e0dcf9-3bb4-4708-81c1-daf6a6b0f76c","ios":"levelo://app?vid=b9e0dcf9-3bb4-4708-81c1-daf6a6b0f76c"},"vehicle_type_id":"4","last_reported":1734606445,"current_range_meters":30400,"station_id":"ce4bhrh2rcd13ifvqhug","pricing_plan_id":"cebpf4jnsgd1na2vs0mg"},{"bike_id":"1f4b4904-898b-4a75-a88e-11b4de7cbd92","system_id":"levelo_inurba_marseille","lat":43.29621,"lon":5.37536,"is_reserved":false,"is_disabled":true,"rental_uris":{"android":"levelo://app?vid=1f4b4904-898b-4a75-a88e-11b4de7cbd92","ios":"levelo://app?vid=1f4b4904-898b-4a75-a88e-11b4de7cbd92"},"vehicle_type_id":"4","last_reported":1734606445,"current_range_meters":400,"station_id":"","pricing_plan_id":"cebpf4jnsgd1na2vs0mg"},{"bike_id":"fc9ebb8f-2821-4983-a574-bd2ff1a69b42","system_id":"levelo_inurba_marseille","lat":43.29895,"lon":5.36509,"is_reserved":false,"is_disabled":false,"rental_uris":{"android":"levelo://app?vid=fc9ebb8f-2821-4983-a574-bd2ff1a69b42","ios":"levelo://app?vid=fc9ebb8f-2821-4983-a574-bd2ff1a69b42"},"vehicle_type_id":"4","last_reported":1734606445,"current_range_meters":26000,"station_id":"ce4bgm92rcd13ifvqbr0","pricing_plan_id":"cebpf4jnsgd1na2vs0mg"},{"bike_id":"7b305c6f-361b-46c6-bcc8-6b2d9fd084fa","system_id":"levelo_inurba_marseille","lat":43.28119,"lon":5.4422,"is_reserved":false,"is_disabled":true,"rental_uris":{"android":"levelo://app?vid=7b305c6f-361b-46c6-bcc8-6b2d9fd084fa","ios":"levelo://app?vid=7b305c6f-361b-46c6-bcc8-6b2d9fd084fa"},"vehicle_type_id":"4","last_reported":1734606445,"current_range_meters":0,"station_id":"","pricing_plan_id":"cebpf4jnsgd1na2vs0mg"},{"bike_id":"741ea4b3-763d-4684-9cc9-4d777e722653","system_id":"levelo_inurba_marseille","lat":43.3134,"lon":5.36737,"is_reserved":false,"is_disabled":false,"rental_uris":{"android":"levelo://app?vid=741ea4b3-763d-4684-9cc9-4d777e722653","ios":"levelo://app?vid=741ea4b3-763d-4684-9cc9-4d777e722653"},"vehicle_type_id":"4","last_reported":1734606445,"current_range_meters":35600,"station_id":"ce4bgr92rcd13ifvqc6g","pricing_plan_id":"cebpf4jnsgd1na2vs0mg"},{"bike_id":"87247de9-dc52-4f72-be45-5bc366d8d497","system_id":"levelo_inurba_marseille","lat":43.30148,"lon":5.38094,"is_reserved":false,"is_disabled":false,"rental_uris":{"android":"levelo://app?vid=87247de9-dc52-4f72-be45-5bc366d8d497","ios":"levelo://app?vid=87247de9-dc52-4f72-be45-5bc366d8d497"},"vehicle_type_id":"4","last_reported":1734606445,"current_range_meters":26800,"station_id":"ce4bgjp2rcd13ifvqbh0","pricing_plan_id":"cebpf4jnsgd1na2vs0mg"},{"bike_id":"c81d12c0-b3b4-4b91-a004-bb72046d4aaa","system_id":"levelo_inurba_marseille","lat":43.29939,"lon":5.37525,"is_reserved":false,"is_disabled":false,"rental_uris":{"android":"levelo://app?vid=c81d12c0-b3b4-4b91-a004-bb72046d4aaa","ios":"levelo://app?vid=c81d12c0-b3b4-4b91-a004-bb72046d4aaa"},"vehicle_type_id":"4","last_reported":1734606445,"current_range_meters":24800,"station_id":"ce4bgjh2rcd13ifvqbg0","pricing_plan_id":"cebpf4jnsgd1na2vs0mg"},{"bike_id":"c1b6203c-0b41-4e21-9b9d-984608f33fe2","system_id":"levelo_inurba_marseille","lat":43.29312,"lon":5.37453,"is_reserved":false,"is_disabled":false,"rental_uris":{"android":"levelo://app?vid=c1b6203c-0b41-4e21-9b9d-984608f33fe2","ios":"levelo://app?vid=c1b6203c-0b41-4e21-9b9d-984608f33fe2"},"vehicle_type_id":"4","last_reported":1734606445,"current_range_meters":36000,"station_id":"ce4bgi12rcd13ifvqb70","pricing_plan_id":"cebpf4jnsgd1na2vs0mg"},{"bike_id":"58460439-34c4-4ffd-a810-879458f6621a","system_id":"levelo_inurba_marseille","lat":43.23178,"lon":5.39976,"is_reserved":false,"is_disabled":false,"rental_uris":{"android":"levelo://app?vid=58460439-34c4-4ffd-a810-879458f6621a","ios":"levelo://app?vid=58460439-34c4-4ffd-a810-879458f6621a"},"vehicle_type_id":"4","last_reported":1734606445,"current_range_meters":25200,"station_id":"ce4bhn12rcd13ifvqgqg","pricing_plan_id":"cebpf4jnsgd1na2vs0mg"},{"bike_id":"ee01a507-8893-4440-bbe0-75da356e3a4f","system_id":"levelo_inurba_marseille","lat":43.29907,"lon":5.38137,"is_reserved":false,"is_disabled":true,"rental_uris":{"android":"levelo://app?vid=ee01a507-8893-4440-bbe0-75da356e3a4f","ios":"levelo://app?vid=ee01a507-8893-4440-bbe0-75da356e3a4f"},"vehicle_type_id":"4","last_reported":1734606445,"current_range_meters":0,"station_id":"ce4bgj12rcd13ifvqbc0","pricing_plan_id":"cebpf4jnsgd1na2vs0mg"},{"bike_id":"065296b9-c1b1-4295-be5f-ba6a4ae67e1e","system_id":"levelo_inurba_marseille","lat":43.27368,"lon":5.36255,"is_reserved":false,"is_disabled":false,"rental_uris":{"android":"levelo://app?vid=065296b9-c1b1-4295-be5f-ba6a4ae67e1e","ios":"levelo://app?vid=065296b9-c1b1-4295-be5f-ba6a4ae67e1e"},"vehicle_type_id":"4","last_reported":1734606445,"current_range_meters":36800,"station_id":"ce4bhbh2rcd13ifvqeo0","pricing_plan_id":"cebpf4jnsgd1na2vs0mg"},{"bike_id":"df2bf2aa-dff9-475f-91c3-5688aec4bd4e","system_id":"levelo_inurba_marseille","lat":43.29845,"lon":5.36275,"is_reserved":false,"is_disabled":false,"rental_uris":{"android":"levelo://app?vid=df2bf2aa-dff9-475f-91c3-5688aec4bd4e","ios":"levelo://app?vid=df2bf2aa-dff9-475f-91c3-5688aec4bd4e"},"vehicle_type_id":"4","last_reported":1734606445,"current_range_meters":21600,"station_id":"ce4bgpp2rcd13ifvqc3g","pricing_plan_id":"cebpf4jnsgd1na2vs0mg"},{"bike_id":"73946f2e-ca00-4729-85d8-d60d86703317","system_id":"levelo_inurba_marseille","lat":43.28616,"lon":5.35108,"is_reserved":false,"is_disabled":false,"rental_uris":{"android":"levelo://app?vid=73946f2e-ca00-4729-85d8-d60d86703317","ios":"levelo://app?vid=73946f2e-ca00-4729-85d8-d60d86703317"},"vehicle_type_id":"4","last_reported":1734606445,"current_range_meters":36000,"station_id":"ce4bhch2rcd13ifvqeug","pricing_plan_id":"cebpf4jnsgd1na2vs0mg"},{"bike_id":"527ec629-8c1b-48a8-8d11-c4652f8bd9de","system_id":"levelo_inurba_marseille","lat":43.29031,"lon":5.39963,"is_reserved":false,"is_disabled":false,"rental_uris":{"android":"levelo://app?vid=527ec629-8c1b-48a8-8d11-c4652f8bd9de","ios":"levelo://app?vid=527ec629-8c1b-48a8-8d11-c4652f8bd9de"},"vehicle_type_id":"4","last_reported":1734606445,"current_range_meters":32400,"station_id":"ce4bh392rcd13ifvqdm0","pricing_plan_id":"cebpf4jnsgd1na2vs0mg"},{"bike_id":"76975834-f71a-46ed-b326-a36c82696bf1","system_id":"levelo_inurba_marseille","lat":43.31274,"lon":5.40169,"is_reserved":false,"is_disabled":false,"rental_uris":{"android":"levelo://app?vid=76975834-f71a-46ed-b326-a36c82696bf1","ios":"levelo://app?vid=76975834-f71a-46ed-b326-a36c82696bf1"},"vehicle_type_id":"4","last_reported":1734606445,"current_range_meters":38800,"station_id":"ce4bh092rcd13ifvqd30","pricing_plan_id":"cebpf4jnsgd1na2vs0mg"},{"bike_id":"da6dc8d4-614c-4255-b2b3-a979754bf4d5","system_id":"levelo_inurba_marseille","lat":43.30952,"lon":5.36955,"is_reserved":false,"is_disabled":false,"rental_uris":{"android":"levelo://app?vid=da6dc8d4-614c-4255-b2b3-a979754bf4d5","ios":"levelo://app?vid=da6dc8d4-614c-4255-b2b3-a979754bf4d5"},"vehicle_type_id":"4","last_reported":1734606445,"current_range_meters":38800,"station_id":"","pricing_plan_id":"cebpf4jnsgd1na2vs0mg"},{"bike_id":"ea6c2b5b-3079-4ccc-86bb-94bd560ca717","system_id":"levelo_inurba_marseille","lat":43.31325,"lon":5.39695,"is_reserved":false,"is_disabled":false,"rental_uris":{"android":"levelo://app?vid=ea6c2b5b-3079-4ccc-86bb-94bd560ca717","ios":"levelo://app?vid=ea6c2b5b-3079-4ccc-86bb-94bd560ca717"},"vehicle_type_id":"4","last_reported":1734606445,"current_range_meters":15200,"station_id":"ce4bgvp2rcd13ifvqcu0","pricing_plan_id":"cebpf4jnsgd1na2vs0mg"},{"bike_id":"da0ef275-d926-4f4f-980c-573fc2fc85ca","system_id":"levelo_inurba_marseille","lat":43.30157,"lon":5.38083,"is_reserved":false,"is_disabled":true,"rental_uris":{"android":"levelo://app?vid=da0ef275-d926-4f4f-980c-573fc2fc85ca","ios":"levelo://app?vid=da0ef275-d926-4f4f-980c-573fc2fc85ca"},"vehicle_type_id":"4","last_reported":1734606445,"current_range_meters":2000,"station_id":"ce4bgjp2rcd13ifvqbh0","pricing_plan_id":"cebpf4jnsgd1na2vs0mg"},{"bike_id":"0161916c-248d-4e16-a441-c2a11cfff058","system_id":"levelo_inurba_marseille","lat":43.30149,"lon":5.3809,"is_reserved":false,"is_disabled":false,"rental_uris":{"android":"levelo://app?vid=0161916c-248d-4e16-a441-c2a11cfff058","ios":"levelo://app?vid=0161916c-248d-4e16-a441-c2a11cfff058"},"vehicle_type_id":"4","last_reported":1734606445,"current_range_meters":39200,"station_id":"ce4bgjp2rcd13ifvqbh0","pricing_plan_id":"cebpf4jnsgd1na2vs0mg"},{"bike_id":"131233d9-2859-40bf-b06b-c62970361527","system_id":"levelo_inurba_marseille","lat":43.2962,"lon":5.37716,"is_reserved":false,"is_disabled":false,"rental_uris":{"android":"levelo://app?vid=131233d9-2859-40bf-b06b-c62970361527","ios":"levelo://app?vid=131233d9-2859-40bf-b06b-c62970361527"},"vehicle_type_id":"4","last_reported":1734606445,"current_range_meters":7200,"station_id":"ce4bgi92rcd13ifvqb90","pricing_plan_id":"cebpf4jnsgd1na2vs0mg"},{"bike_id":"04af5192-ac7c-4eb2-9f6d-7984f9672d52","system_id":"levelo_inurba_marseille","lat":43.30552,"lon":5.36535,"is_reserved":false,"is_disabled":false,"rental_uris":{"android":"levelo://app?vid=04af5192-ac7c-4eb2-9f6d-7984f9672d52","ios":"levelo://app?vid=04af5192-ac7c-4eb2-9f6d-7984f9672d52"},"vehicle_type_id":"4","last_reported":1734606445,"current_range_meters":24000,"station_id":"ce4bgs12rcd13ifvqcag","pricing_plan_id":"cebpf4jnsgd1na2vs0mg"},{"bike_id":"17145b4d-8690-41de-ac76-7baee874a2ea","system_id":"levelo_inurba_marseille","lat":43.24807,"lon":5.37457,"is_reserved":false,"is_disabled":false,"rental_uris":{"android":"levelo://app?vid=17145b4d-8690-41de-ac76-7baee874a2ea","ios":"levelo://app?vid=17145b4d-8690-41de-ac76-7baee874a2ea"},"vehicle_type_id":"4","last_reported":1734606445,"current_range_meters":38800,"station_id":"ce4bhgh2rcd13ifvqfb0","pricing_plan_id":"cebpf4jnsgd1na2vs0mg"},{"bike_id":"e3423766-ff70-4b7b-a941-b3f451968318","system_id":"levelo_inurba_marseille","lat":43.29548,"lon":5.42287,"is_reserved":false,"is_disabled":true,"rental_uris":{"android":"levelo://app?vid=e3423766-ff70-4b7b-a941-b3f451968318","ios":"levelo://app?vid=e3423766-ff70-4b7b-a941-b3f451968318"},"vehicle_type_id":"4","last_reported":1734606445,"current_range_meters":38800,"station_id":"ce4bhph2rcd13ifvqhdg","pricing_plan_id":"cebpf4jnsgd1na2vs0mg"},{"bike_id":"402c242b-1aa5-45b2-b878-b241174c59af","system_id":"levelo_inurba_marseille","lat":43.29856,"lon":5.38107,"is_reserved":false,"is_disabled":true,"rental_uris":{"android":"levelo://app?vid=402c242b-1aa5-45b2-b878-b241174c59af","ios":"levelo://app?vid=402c242b-1aa5-45b2-b878-b241174c59af"},"vehicle_type_id":"4","last_reported":1734606445,"current_range_meters":800,"station_id":"ce4bgip2rcd13ifvqbb0","pricing_plan_id":"cebpf4jnsgd1na2vs0mg"},