{"last_updated":1731474561,"ttl":60,"version":"2.2","data":{"bikes":[{"bike_id":"b1e6edba-5efe-429c-b5ea-dce0aeff73b2","system_id":"levelo_inurba_marseille","lat":43.24081,"lon":5.3775,"is_reserved":false,"is_disabled":false,"rental_uris":{"android":"levelo://app?vid=b1e6edba-5efe-429c-b5ea-dce0aeff73b2","ios":"levelo://app?vid=b1e6edba-5efe-429c-b5ea-dce0aeff73b2"},"vehicle_type_id":"4","last_reported":1731474561,"current_range_meters":37600,"station_id":"ce4bhnp2rcd13ifvqgvg","pricing_plan_id":"cebpf4jnsgd1na2vs0mg"},{"bike_id":"a0ca81c5-0af2-44f2-9d41-14df9033ff3a","system_id":"levelo_inurba_marseille","lat":43.27176,"lon":5.41013,"is_reserved":false,"is_disabled":false,"rental_uris":{"android":"levelo://app?vid=a0ca81c5-0af2-44f2-9d41-14df9033ff3a","ios":"levelo://app?vid=a0ca81c5-0af2-44f2-9d41-14df9033ff3a"},"vehicle_type_id":"4","last_reported":1731474561,"current_range_meters":10000,"station_id":"ce4bhl12rcd13ifvqgf0","pricing_plan_id":"cebpf4jnsgd1na2vs0mg"},{"bike_id":"52c3b47c-4ac8-4b12-96e0-93b36678801c","system_id":"levelo_inurba_marseille","lat":43.30554,"lon":5.36521,"is_reserved":false,"is_disabled":false,"rental_uris":{"android":"levelo://app?vid=52c3b47c-4ac8-4b12-96e0-93b36678801c","ios":"levelo://app?vid=52c3b47c-4ac8-4b12-96e0-93b36678801c"},"vehicle_type_id":"4","last_reported":1731474561,"current_range_meters":17600,"station_id":"ce4bgs12rcd13ifvqcag","pricing_plan_id":"cebpf4jnsgd1na2vs0mg"},{"bike_id":"af2886b6-7815-4ee2-b759-f3f8414ca791","system_id":"levelo_inurba_marseille","lat":43.32339,"lon":5.40617,"is_reserved":false,"is_disabled":false,"rental_uris":{"android":"levelo://app?vid=af2886b6-7815-4ee2-b759-f3f8414ca791","ios":"levelo://app?vid=af2886b6-7815-4ee2-b759-f3f8414ca791"},"vehicle_type_id":"4","last_reported":1731474561,"current_range_meters":38800,"station_id":"ce4bhq92rcd13ifvqhjg","pricing_plan_id":"cebpf4jnsgd1na2vs0mg"},{"bike_id":"5a8c6e05-0cab-40b6-b379-3e01a370ab05","system_id":"levelo_inurba_marseille","lat":43.3088,"lon":5.39645,"is_reserved":false,"is_disabled":false,"rental_uris":{"android":"levelo://app?vid=5a8c6e05-0cab-40b6-b379-3e01a370ab05","ios":"levelo://app?vid=5a8c6e05-0cab-40b6-b379-3e01a370ab05"},"vehicle_type_id":"4","last_reported":1731474561,"current_range_meters":8800,"station_id":"ce4bh012rcd13ifvqcv0","pricing_plan_id":"cebpf4jnsgd1na2vs0mg"},{"bike_id":"84807e68-7369-46d0-8e2c-f5c2a95550ff","system_id":"levelo_inurba_marseille","lat":43.29856,"lon":5.36288,"is_reserved":false,"is_disabled":false,"rental_uris":{"android":"levelo://app?vid=84807e68-7369-46d0-8e2c-f5c2a95550ff","ios":"levelo://app?vid=84807e68-7369-46d0-8e2c-f5c2a95550ff"},"vehicle_type_id":"4","last_reported":1731474561,"current_range_meters":38800,"station_id":"ce4bgpp2rcd13ifvqc3g","pricing_plan_id":"cebpf4jnsgd1na2vs0mg"},{"bike_id":"4c0e0318-2347-4063-be0a-0168b5acfc0d","system_id":"levelo_inurba_marseille","lat":43.231921,"lon":5.355539,"is_reserved":false,"is_disabled":false,"rental_uris":{"android":"levelo://app?vid=4c0e0318-2347-4063-be0a-0168b5acfc0d","ios":"levelo://app?vid=4c0e0318-2347-4063-be0a-0168b5acfc0d"},"vehicle_type_id":"4","last_reported":1731474561,"current_range_meters":20800,"station_id":"ce4bhu92rcd13ifvqi70","pricing_plan_id":"cebpf4jnsgd1na2vs0mg"},{"bike_id":"bc370fe7-cb31-4263-ab48-93238a6b9abd","system_id":"levelo_inurba_marseille","lat":43.34134,"lon":5.40895,"is_reserved":false,"is_disabled":false,"rental_uris":{"android":"levelo://app?vid=bc370fe7-cb31-4263-ab48-93238a6b9abd","ios":"levelo://app?vid=bc370fe7-cb31-4263-ab48-93238a6b9abd"},"vehicle_type_id":"4","last_reported":1731474561,"current_range_meters":38800,"station_id":"ce4bhqh2rcd13ifvqhlg","pricing_plan_id":"cebpf4jnsgd1na2vs0mg"},{"bike_id":"d0d50098-7b69-4157-ac9a-8694ae8a776b","system_id":"levelo_inurba_marseille","lat":43.30669,"lon":5.40093,"is_reserved":false,"is_disabled":false,"rental_uris":{"android":"levelo://app?vid=d0d50098-7b69-4157-ac9a-8694ae8a776b","ios":"levelo://app?vid=d0d50098-7b69-4157-ac9a-8694ae8a776b"},"vehicle_type_id":"4","last_reported":1731474561,"current_range_meters":30800,"station_id":"ce4bh112rcd13ifvqda0","pricing_plan_id":"cebpf4jnsgd1na2vs0mg"},{"bike_id":"7ce15127-6a4f-4263-96b9-4776effafc52","system_id":"levelo_inurba_marseille","lat":43.31173,"lon":5.38707,"is_reserved":false,"is_disabled":false,"rental_uris":{"android":"levelo://app?vid=7ce15127-6a4f-4263-96b9-4776effafc52","ios":"levelo://app?vid=7ce15127-6a4f-4263-96b9-4776effafc52"},"vehicle_type_id":"4","last_reported":1731474561,"current_range_meters":38800,"station_id":"ce4bgv12rcd13ifvqcp0","pricing_plan_id":"cebpf4jnsgd1na2vs0mg"},{"bike_id":"5b8de4db-214e-49ae-9ca8-bb6dce773ef5","system_id":"levelo_inurba_marseille","lat":43.25875,"lon":5.39901,"is_reserved":false,"is_disabled":false,"rental_uris":{"android":"levelo://app?vid=5b8de4db-214e-49ae-9ca8-bb6dce773ef5","ios":"levelo://app?vid=5b8de4db-214e-49ae-9ca8-bb6dce773ef5"},"vehicle_type_id":"4","last_reported":1731474561,"current_range_meters":31200,"station_id":"ce4bhl92rcd13ifvqghg","pricing_plan_id":"cebpf4jnsgd1na2vs0mg"},{"bike_id":"5790e070-7e41-49af-bcbb-210bf99f2b8e","system_id":"levelo_inurba_marseille","lat":43.27809,"lon":5.4071,"is_reserved":false,"is_disabled":false,"rental_uris":{"android":"levelo://app?vid=5790e070-7e41-49af-bcbb-210bf99f2b8e","ios":"levelo://app?vid=5790e070-7e41-49af-bcbb-210bf99f2b8e"},"vehicle_type_id":"4","last_reported":1731474561,"current_range_meters":38800,"station_id":"ce4bhnh2rcd13ifvqgtg","pricing_plan_id":"cebpf4jnsgd1na2vs0mg"},{"bike_id":"9e43e17f-cbf6-477e-8900-c56a776215b1","system_id":"levelo_inurba_marseille","lat":43.273834,"lon":5.36249,"is_reserved":false,"is_disabled":false,"rental_uris":{"android":"levelo://app?vid=9e43e17f-cbf6-477e-8900-c56a776215b1","ios":"levelo://app?vid=9e43e17f-cbf6-477e-8900-c56a776215b1"},"vehicle_type_id":"4","last_reported":1731474561,"current_range_meters":27600,"station_id":"ce4bhbh2rcd13ifvqeo0","pricing_plan_id":"cebpf4jnsgd1na2vs0mg"},{"bike_id":"0918c036-7110-4463-a2b7-36b6da1daccb","system_id":"levelo_inurba_marseille","lat":43.23198,"lon":5.35556,"is_reserved":false,"is_disabled":false,"rental_uris":{"android":"levelo://app?vid=0918c036-7110-4463-a2b7-36b6da1daccb","ios":"levelo://app?vid=0918c036-7110-4463-a2b7-36b6da1daccb"},"vehicle_type_id":"4","last_reported":1731474561,"current_range_meters":19600,"station_id":"ce4bhu92rcd13ifvqi70","pricing_plan_id":"cebpf4jnsgd1na2vs0mg"},{"bike_id":"13c96647-010c-4ff4-815b-440d48d8c89a","system_id":"levelo_inurba_marseille","lat":43.279894,"lon":5.416624,"is_reserved":false,"is_disabled":false,"rental_uris":{"android":"levelo://app?vid=13c96647-010c-4ff4-815b-440d48d8c89a","ios":"levelo://app?vid=13c96647-010c-4ff4-815b-440d48d8c89a"},"vehicle_type_id":"4","last_reported":1731474561,"current_range_meters":6400,"station_id":"ce4bho12rcd13ifvqh1g","pricing_plan_id":"cebpf4jnsgd1na2vs0mg"},{"bike_id":"85458871-ebbe-48ac-adb8-f78b4d1f4aa8","system_id":"levelo_inurba_marseille","lat":43.28149,"lon":5.42642,"is_reserved":false,"is_disabled":false,"rental_uris":{"android":"levelo://app?vid=85458871-ebbe-48ac-adb8-f78b4d1f4aa8","ios":"levelo://app?vid=85458871-ebbe-48ac-adb8-f78b4d1f4aa8"},"vehicle_type_id":"4","last_reported":1731474561,"current_range_meters":8400,"station_id":"ce4bhnh2rcd13ifvqgug","pricing_plan_id":"cebpf4jnsgd1na2vs0mg"},{"bike_id":"d3fff5ca-5137-4f45-95e1-d7c138fd31d5","system_id":"levelo_inurba_marseille","lat":43.30412,"lon":5.41288,"is_reserved":false,"is_disabled":false,"rental_uris":{"android":"levelo://app?vid=d3fff5ca-5137-4f45-95e1-d7c138fd31d5","ios":"levelo://app?vid=d3fff5ca-5137-4f45-95e1-d7c138fd31d5"},"vehicle_type_id":"4","last_reported":1731474561,"current_range_meters":38800,"station_id":"ce4bhop2rcd13ifvqh8g","pricing_plan_id":"cebpf4jnsgd1na2vs0mg"},{"bike_id":"b739e764-f9b2-416b-ac90-b10eed820048","system_id":"levelo_inurba_marseille","lat":43.27494,"lon":5.42451,"is_reserved":false,"is_disabled":false,"rental_uris":{"android":"levelo://app?vid=b739e764-f9b2-416b-ac90-b10eed820048","ios":"levelo://app?vid=b739e764-f9b2-416b-ac90-b10eed820048"},"vehicle_type_id":"4","last_reported":1731474561,"current_range_meters":8000,"station_id":"ce4bhn92rcd13ifvqgrg","pricing_plan_id":"cebpf4jnsgd1na2vs0mg"},{"bike_id":"d2818051-0318-42ff-8c74-3d7eeb151af5","system_id":"levelo_inurba_marseille","lat":43.32365,"lon":5.38883,"is_reserved":false,"is_disabled":false,"rental_uris":{"android":"levelo://app?vid=d2818051-0318-42ff-8c74-3d7eeb151af5","ios":"levelo://app?vid=d2818051-0318-42ff-8c74-3d7eeb151af5"},"vehicle_type_id":"4","last_reported":1731474561,"current_range_meters":15200,"station_id":"ce4bhqp2rcd13ifvqhog","pricing_plan_id":"cebpf4jnsgd1na2vs0mg"},{"bike_id":"88f7ac54-e8eb-401c-8b2b-43e5f13bc7cd","system_id":"levelo_inurba_marseille","lat":43.25089,"lon":5.39512,"is_reserved":false,"is_disabled":false,"rental_uris":{"android":"levelo://app?vid=88f7ac54-e8eb-401c-8b2b-43e5f13bc7cd","ios":"levelo://app?vid=88f7ac54-e8eb-401c-8b2b-43e5f13bc7cd"},"vehicle_type_id":"4","last_reported":1731474561,"current_range_meters":16800,"station_id":"ce4bhm12rcd13ifvqgkg","pricing_plan_id":"cebpf4jnsgd1na2vs0mg"},{"bike_id":"5aa4cfe4-b5ef-4974-ab09-c26eec8d9b6d","system_id":"levelo_inurba_marseille","lat":43.311728,"lon":5.387172,"is_reserved":false,"is_disabled":false,"rental_uris":{"android":"levelo://app?vid=5aa4cfe4-b5ef-4974-ab09-c26eec8d9b6d","ios":"levelo://app?vid=5aa4cfe4-b5ef-4974-ab09-c26eec8d9b6d"},"vehicle_type_id":"4","last_reported":1731474561,"current_range_meters":30800,"station_id":"ce4bgv12rcd13ifvqcp0","pricing_plan_id":"cebpf4jnsgd1na2vs0mg"},{"bike_id":"fa4aa306-ea89-43c9-a50e-13fffe45c833","system_id":"levelo_inurba_marseille","lat":43.28072,"lon":5.39647,"is_reserved":false,"is_disabled":false,"rental_uris":{"android":"levelo://app?vid=fa4aa306-ea89-43c9-a50e-13fffe45c833","ios":"levelo://app?vid=fa4aa306-ea89-43c9-a50e-13fffe45c833"},"vehicle_type_id":"4","last_reported":1731474561,"current_range_meters":38400,"station_id":"ce4bho12rcd13ifvqh2g","pricing_plan_id":"cebpf4jnsgd1na2vs0mg"},{"bike_id":"7c2db78d-15c2-4a5b-9094-e4fa2137f5fe","system_id":"levelo_inurba_marseille","lat":43.28465,"lon":5.35897,"is_reserved":false,"is_disabled":false,"rental_uris":{"android":"levelo://app?vid=7c2db78d-15c2-4a5b-9094-e4fa2137f5fe","ios":"levelo://app?vid=7c2db78d-15c2-4a5b-9094-e4fa2137f5fe"},"vehicle_type_id":"4","last_reported":1731474561,"current_range_meters":17600,"station_id":"ce4bhah2rcd13ifvqei0","pricing_plan_id":"cebpf4jnsgd1na2vs0mg"},{"bike_id":"6f38d463-149d-4128-9467-ac290f6ed80d","system_id":"levelo_inurba_marseille","lat":43.24394,"lon":5.37056,"is_reserved":false,"is_disabled":false,"rental_uris":{"android":"levelo://app?vid=6f38d463-149d-4128-9467-ac290f6ed80d","ios":"levelo://app?vid=6f38d463-149d-4128-9467-ac290f6ed80d"},"vehicle_type_id":"4","last_reported":1731474561,"current_range_meters":8800,"station_id":"ce4bhhh2rcd13ifvqfk0","pricing_plan_id":"cebpf4jnsgd1na2vs0mg"},{"bike_id":"4e20a1c0-58ef-4621-8d3e-cd2bd03959f4","system_id":"levelo_inurba_marseille","lat":43.31757,"lon":5.39009,"is_reserved":false,"is_disabled":false,"rental_uris":{"android":"levelo://app?vid=4e20a1c0-58ef-4621-8d3e-cd2bd03959f4","ios":"levelo://app?vid=4e20a1c0-58ef-4621-8d3e-cd2bd03959f4"},"vehicle_type_id":"4","last_reported":1731474561,"current_range_meters":37600,"station_id":"ce4bhqp2rcd13ifvqhng","pricing_plan_id":"cebpf4jnsgd1na2vs0mg"},{"bike_id":"382c34cb-ff0f-4535-a04e-6d9a16e4e9bc","system_id":"levelo_inurba_marseille","lat":43.29225,"lon":5.36059,"is_reserved":false,"is_disabled":false,"rental_uris":{"android":"levelo://app?vid=382c34cb-ff0f-4535-a04e-6d9a16e4e9bc","ios":"levelo://app?vid=382c34cb-ff0f-4535-a04e-6d9a16e4e9bc"},"vehicle_type_id":"4","last_reported":1731474561,"current_range_meters":38800,"station_id":"ce4bhbh2rcd13ifvqeqg","pricing_plan_id":"cebpf4jnsgd1na2vs0mg"},{"bike_id":"a9d83261-135b-4cff-9c0c-eccc7495d1f2","system_id":"levelo_inurba_marseille","lat":43.30143,"lon":5.37417,"is_reserved":false,"is_disabled":false,"rental_uris":{"android":"levelo://app?vid=a9d83261-135b-4cff-9c0c-eccc7495d1f2","ios":"levelo://app?vid=a9d83261-135b-4cff-9c0c-eccc7495d1f2"},"vehicle_type_id":"4","last_reported":1731474561,"current_range_meters":28800,"station_id":"ce4bgs92rcd13ifvqcc0","pricing_plan_id":"cebpf4jnsgd1na2vs0mg"},{"bike_id":"26b359dc-1a82-4ef6-8920-58d19a0ce05a","system_id":"levelo_inurba_marseille","lat":43.27989,"lon":5.41662,"is_reserved":false,"is_disabled":false,"rental_uris":{"android":"levelo://app?vid=26b359dc-1a82-4ef6-8920-58d19a0ce05a","ios":"levelo://app?vid=26b359dc-1a82-4ef6-8920-58d19a0ce05a"},"vehicle_type_id":"4","last_reported":1731474561,"current_range_meters":38800,"station_id":"ce4bho12rcd13ifvqh1g","pricing_plan_id":"cebpf4jnsgd1na2vs0mg"},{"bike_id":"55d2d8b2-0246-4eea-b604-9e80591018f2","system_id":"levelo_inurba_marseille","lat":43.23188,"lon":5.39983,"is_reserved":false,"is_disabled":false,"rental_uris":{"android":"levelo://app?vid=55d2d8b2-0246-4eea-b604-9e80591018f2","ios":"levelo://app?vid=55d2d8b2-0246-4eea-b604-9e80591018f2"},"vehicle_type_id":"4","last_reported":1731474561,"current_range_meters":23200,"station_id":"ce4bhn12rcd13ifvqgqg","pricing_plan_id":"cebpf4jnsgd1na2vs0mg"},{"bike_id":"53a548d0-5154-4ba7-8a85-336c1723a28e","system_id":"levelo_inurba_marseille","lat":43.28852,"lon":5.35859,"is_reserved":false,"is_disabled":false,"rental_uris":{"android":"levelo://app?vid=53a548d0-5154-4ba7-8a85-336c1723a28e","ios":"levelo://app?vid=53a548d0-5154-4ba7-8a85-336c1723a28e"},"vehicle_type_id":"4","last_reported":1731474561,"current_range_meters":28400,"station_id":"ce4bhb12rcd13ifvqem0","pricing_plan_id":"cebpf4jnsgd1na2vs0mg"},{"bike_id":"1064e3ab-6a02-49d4-89e4-b613d0529162","system_id":"levelo_inurba_marseille","lat":43.27175,"lon":5.409876,"is_reserved":false,"is_disabled":false,"rental_uris":{"android":"levelo://app?vid=1064e3ab-6a02-49d4-89e4-b613d0529162","ios":"levelo://app?vid=1064e3ab-6a02-49d4-89e4-b613d0529162"},"vehicle_type_id":"4","last_reported":1731474561,"current_range_meters":38800,"station_id":"ce4bhl12rcd13ifvqgf0","pricing_plan_id":"cebpf4jnsgd1na2vs0mg"},{"bike_id":"1c9fcf99-f6a8-453e-ad4f-d220bbd8ac01","system_id":"levelo_inurba_marseille","lat":43.31995,"lon":5.38151,"is_reserved":false,"is_disabled":false,"rental_uris":{"android":"levelo://app?vid=1c9fcf99-f6a8-453e-ad4f-d220bbd8ac01","ios":"levelo://app?vid=1c9fcf99-f6a8-453e-ad4f-d220bbd8ac01"},"vehicle_type_id":"4","last_reported":1731474561,"current_range_meters":29600,"station_id":"ce4bhr12rcd13ifvqhpg","pricing_plan_id":"cebpf4jnsgd1na2vs0mg"},{"bike_id":"69919084-a160-49fe-80b2-e4eb4ced5bf1","system_id":"levelo_inurba_marseille","lat":43.27995,"lon":5.40013,"is_reserved":false,"is_disabled":false,"rental_uris":{"android":"levelo://app?vid=69919084-a160-49fe-80b2-e4eb4ced5bf1","ios":"levelo://app?vid=69919084-a160-49fe-80b2-e4eb4ced5bf1"},"vehicle_type_id":"4","last_reported":1731474561,"current_range_meters":36000,"station_id":"ce4bho92rcd13ifvqh4g","pricing_plan_id":"cebpf4jnsgd1na2vs0mg"},{"bike_id":"2853d4fe-1d37-444e-b7b2-b5b64d659310","system_id":"levelo_inurba_marseille","lat":43.31173,"lon":5.38711,"is_reserved":false,"is_disabled":false,"rental_uris":{"android":"levelo://app?vid=2853d4fe-1d37-444e-b7b2-b5b64d659310","ios":"levelo://app?vid=2853d4fe-1d37-444e-b7b2-b5b64d659310"},"vehicle_type_id":"4","last_reported":1731474561,"current_range_meters":9200,"station_id":"ce4bgv12rcd13ifvqcp0","pricing_plan_id":"cebpf4jnsgd1na2vs0mg"},{"bike_id":"0d55bebf-6a97-424e-af20-c385d3f185ff","system_id":"levelo_inurba_marseille","lat":43.29008,"lon":5.35614,"is_reserved":false,"is_disabled":false,"rental_uris":{"android":"levelo://app?vid=0d55bebf-6a97-424e-af20-c385d3f185ff","ios":"levelo://app?vid=0d55bebf-6a97-424e-af20-c385d3f185ff"},"vehicle_type_id":"4","last_reported":1731474561,"current_range_meters":38800,"station_id":"ce4bhb92rcd13ifvqen0","pricing_plan_id":"cebpf4jnsgd1na2vs0mg"},{"bike_id":"50cad8e9-ebf4-45b5-b1c7-5f542c82a4bc","system_id":"levelo_inurba_marseille","lat":43.27812,"lon":5.40708,"is_reserved":false,"is_disabled":false,"rental_uris":{"android":"levelo://app?vid=50cad8e9-ebf4-45b5-b1c7-5f542c82a4bc","ios":"levelo://app?vid=50cad8e9-ebf4-45b5-b1c7-5f542c82a4bc"},"vehicle_type_id":"4","last_reported":1731474561,"current_range_meters":30400,"station_id":"ce4bhnh2rcd13ifvqgtg","pricing_plan_id":"cebpf4jnsgd1na2vs0mg"},{"bike_id":"9bf0cb73-9c0c-4bd2-88d6-efcbc916ecc3","system_id":"levelo_inurba_marseille","lat":43.27284,"lon":5.4,"is_reserved":false,"is_disabled":false,"rental_uris":{"android":"levelo://app?vid=9bf0cb73-9c0c-4bd2-88d6-efcbc916ecc3","ios":"levelo://app?vid=9bf0cb73-9c0c-4bd2-88d6-efcbc916ecc3"},"vehicle_type_id":"4","last_reported":1731474561,"current_range_meters":37600,"station_id":"","pricing_plan_id":"cebpf4jnsgd1na2vs0mg"},{"bike_id":"83d5d807-0a89-40e0-8138-6ac7eb0b7f47","system_id":"levelo_inurba_marseille","lat":43.24803,"lon":5.37454,"is_reserved":false,"is_disabled":false,"rental_uris":{"android":"levelo://app?vid=83d5d807-0a89-40e0-8138-6ac7eb0b7f47","ios":"levelo://app?vid=83d5d807-0a89-40e0-8138-6ac7eb0b7f47"},"vehicle_type_id":"4","last_reported":1731474561,"current_range_meters":39200,"station_id":"ce4bhgh2rcd13ifvqfb0","pricing_plan_id":"cebpf4jnsgd1na2vs0mg"},{"bike_id":"0e3d244e-ccd5-4765-b0d4-9ee9e84e9051","system_id":"levelo_inurba_marseille","lat":43.30141,"lon":5.39865,"is_reserved":false,"is_disabled":false,"rental_uris":{"android":"levelo://app?vid=0e3d244e-ccd5-4765-b0d4-9ee9e84e9051","ios":"levelo://app?vid=0e3d244e-ccd5-4765-b0d4-9ee9e84e9051"},"vehicle_type_id":"4","last_reported":1731474561,"current_range_meters":16400,"station_id":"ce4bgs92rcd13ifvqcc0","pricing_plan_id":"cebpf4jnsgd1na2vs0mg"},{"bike_id":"834c336f-5a16-492f-a2a3-20b9ea557446","system_id":"levelo_inurba_marseille","lat":43.31889,"lon":5.40737,"is_reserved":false,"is_disabled":false,"rental_uris":{"android":"levelo://app?vid=834c336f-5a16-492f-a2a3-20b9ea557446","ios":"levelo://app?vid=834c336f-5a16-492f-a2a3-20b9ea557446"},"vehicle_type_id":"4","last_reported":1731474561,"current_range_meters":34000,"station_id":"ce4bhq12rcd13ifvqhig","pricing_plan_id":"cebpf4jnsgd1na2vs0mg"},{"bike_id":"f986382b-96db-48b7-9c96-2aa09c0d26a9","system_id":"levelo_inurba_marseille","lat":43.24805,"lon":5.37453,"is_reserved":false,"is_disabled":false,"rental_uris":{"android":"levelo://app?vid=f986382b-96db-48b7-9c96-2aa09c0d26a9","ios":"levelo://app?vid=f986382b-96db-48b7-9c96-2aa09c0d26a9"},"vehicle_type_id":"4","last_reported":1731474561,"current_range_meters":39200,"station_id":"ce4bhgh2rcd13ifvqfb0","pricing_plan_id":"cebpf4jnsgd1na2vs0mg"},{"bike_id":"8fae5a59-5588-4de9-8650-45d047ccd491","system_id":"levelo_inurba_marseille","lat":43.28454,"lon":5.359,"is_reserved":false,"is_disabled":false,"rental_uris":{"android":"levelo://app?vid=8fae5a59-5588-4de9-8650-45d047ccd491","ios":"levelo://app?vid=8fae5a59-5588-4de9-8650-45d047ccd491"},"vehicle_type_id":"4","last_reported":1731474561,"current_range_meters":26800,"station_id":"ce4bhah2rcd13ifvqei0","pricing_plan_id":"cebpf4jnsgd1na2vs0mg"},{"bike_id":"d776ed15-2d63-4be8-be19-04435607fd9d","system_id":"levelo_inurba_marseille","lat":43.31711,"lon":5.40459,"is_reserved":false,"is_disabled":false,"rental_uris":{"android":"levelo://app?vid=d776ed15-2d63-4be8-be19-04435607fd9d","ios":"levelo://app?vid=d776ed15-2d63-4be8-be19-04435607fd9d"},"vehicle_type_id":"4","last_reported":1731474561,"current_range_meters":19200,"station_id":"ce4bh012rcd13ifvqd00","pricing_plan_id":"cebpf4jnsgd1na2vs0mg"},{"bike_id":"b07b8009-8e7d-4491-9d72-f4a2c7fc663f","system_id":"levelo_inurba_marseille","lat":43.2841,"lon":5.37516,"is_reserved":false,"is_disabled":false,"rental_uris":{"android":"levelo://app?vid=b07b8009-8e7d-4491-9d72-f4a2c7fc663f","ios":"levelo://app?vid=b07b8009-8e7d-4491-9d72-f4a2c7fc663f"},"vehicle_type_id":"4","last_reported":1731474561,"current_range_meters":26000,"station_id":"ce4bh412rcd13ifvqds0","pricing_plan_id":"cebpf4jnsgd1na2vs0mg"},{"bike_id":"484f1d54-1597-4973-8e7e-8a544e91ecf9","system_id":"levelo_inurba_marseille","lat":43.29316,"lon":5.37193,"is_reserved":false,"is_disabled":false,"rental_uris":{"android":"levelo://app?vid=484f1d54-1597-4973-8e7e-8a544e91ecf9","ios":"levelo://app?vid=484f1d54-1597-4973-8e7e-8a544e91ecf9"},"vehicle_type_id":"4","last_reported":1731474561,"current_range_meters":37600,"station_id":"ce4bgh92rcd13ifvqb40","pricing_plan_id":"cebpf4jnsgd1na2vs0mg"},{"bike_id":"9026c387-6c64-4c4b-a319-51b8ef1be95c","system_id":"levelo_inurba_marseille","lat":43.25498,"lon":5.37651,"is_reserved":false,"is_disabled":false,"rental_uris":{"android":"levelo://app?vid=9026c387-6c64-4c4b-a319-51b8ef1be95c","ios":"levelo://app?vid=9026c387-6c64-4c4b-a319-51b8ef1be95c"},"vehicle_type_id":"4","last_reported":1731474561,"current_range_meters":17600,"station_id":"ce4bhh12rcd13ifvqff0","pricing_plan_id":"cebpf4jnsgd1na2vs0mg"},{"bike_id":"55bc79ae-b694-4199-9c0e-49aa446c360a","system_id":"levelo_inurba_marseille","lat":43.27069,"lon":5.42279,"is_reserved":false,"is_disabled":false,"rental_uris":{"android":"levelo://app?vid=55bc79ae-b694-4199-9c0e-49aa446c360a","ios":"levelo://app?vid=55bc79ae-b694-4199-9c0e-49aa446c360a"},"vehicle_type_id":"4","last_reported":1731474561,"current_range_meters":38800,"station_id":"ce4bhk92rcd13ifvqgb0","pricing_plan_id":"cebpf4jnsgd1na2vs0mg"},{"bike_id":"398a6c39-673a-4eb7-a1ab-8c8abde433cc","system_id":"levelo_inurba_marseille","lat":43.311739,"lon":5.387087,"is_reserved":false,"is_disabled":false,"rental_uris":{"android":"levelo://app?vid=398a6c39-673a-4eb7-a1ab-8c8abde433cc","ios":"levelo://app?vid=398a6c39-673a-4eb7-a1ab-8c8abde433cc"},"vehicle_type_id":"4","last_reported":1731474561,"current_range_meters":20800,"station_id":"ce4bgv12rcd13ifvqcp0","pricing_plan_id":"cebpf4jnsgd1na2vs0mg"},{"bike_id":"24cd7f38-8d33-41f3-9a75-b83c8cbdd472","system_id":"levelo_inurba_marseille","lat":43.26555,"lon":5.39007,"is_reserved":false,"is_disabled":false,"rental_uris":{"android":"levelo://app?vid=24cd7f38-8d33-41f3-9a75-b83c8cbdd472","ios":"levelo://app?vid=24cd7f38-8d33-41f3-9a75-b83c8cbdd472"},"vehicle_type_id":"4","last_reported":1731474561,"current_range_meters":12400,"station_id":"ce4bhe12rcd13ifvqf30","pricing_plan_id":"cebpf4jnsgd1na2vs0mg"},{"bike_id":"41ff89e3-1e18-495b-b5e1-08b420470989","system_id":"levelo_inurba_marseille","lat":43.22937,"lon":5.35373,"is_reserved":false,"is_disabled":false,"rental_uris":{"android":"levelo://app?vid=41ff89e3-1e18-495b-b5e1-08b420470989","ios":"levelo://app?vid=41ff89e3-1e18-495b-b5e1-08b420470989"},"vehicle_type_id":"4","last_reported":1731474561,"current_range_meters":20000,"station_id":"cpo3532slgdg3j2ikp40","pricing_plan_id":"cebpf4jnsgd1na2vs0mg"},{"bike_id":"601d2661-ab0f-4848-bd33-7db056b35539","system_id":"levelo_inurba_marseille","lat":43.30656,"lon":5.40066,"is_reserved":false,"is_disabled":false,"rental_uris":{"android":"levelo://app?vid=601d2661-ab0f-4848-bd33-7db056b35539","ios":"levelo://app?vid=601d2661-ab0f-4848-bd33-7db056b35539"},"vehicle_type_id":"4","last_reported":1731474561,"current_range_meters":36800,"station_id":"ce4bh112rcd13ifvqda0","pricing_plan_id":"cebpf4jnsgd1na2vs0mg"},{"bike_id":"38b57927-f07e-4d56-96aa-59de017f0e81","system_id":"levelo_inurba_marseille","lat":43.31369,"lon":5.38495,"is_reserved":false,"is_disabled":false,"rental_uris":{"android":"levelo://app?vid=38b57927-f07e-4d56-96aa-59de017f0e81","ios":"levelo://app?vid=38b57927-f07e-4d56-96aa-59de017f0e81"},"vehicle_type_id":"4","last_reported":1731474561,"current_range_meters":37600,"station_id":"ce4bgt92rcd13ifvqcf0","pricing_plan_id":"cebpf4jnsgd1na2vs0mg"},{"bike_id":"b3792ba4-8de6-41d4-869c-949bfe1adfea","system_id":"levelo_inurba_marseille","lat":43.28456,"lon":5.35891,"is_reserved":false,"is_disabled":false,"rental_uris":{"android":"levelo://app?vid=b3792ba4-8de6-41d4-869c-949bfe1adfea","ios":"levelo://app?vid=b3792ba4-8de6-41d4-869c-949bfe1adfea"},"vehicle_type_id":"4","last_reported":1731474561,"current_range_meters":30000,"station_id":"ce4bhah2rcd13ifvqei0","pricing_plan_id":"cebpf4jnsgd1na2vs0mg"},{"bike_id":"e0e9b339-01fd-4092-859d-e008c8116234","system_id":"levelo_inurba_marseille","lat":43.24806,"lon":5.37454,"is_reserved":false,"is_disabled":false,"rental_uris":{"android":"levelo://app?vid=e0e9b339-01fd-4092-859d-e008c8116234","ios":"levelo://app?vid=e0e9b339-01fd-4092-859d-e008c8116234"},"vehicle_type_id":"4","last_reported":1731474561,"current_range_meters":10800,"station_id":"ce4bhgh2rcd13ifvqfb0","pricing_plan_id":"cebpf4jnsgd1na2vs0mg"},{"bike_id":"07593388-1396-48b8-b53d-f99ad9d41363","system_id":"levelo_inurba_marseille","lat":43.30153,"lon":5.38092,"is_reserved":false,"is_disabled":false,"rental_uris":{"android":"levelo://app?vid=07593388-1396-48b8-b53d-f99ad9d41363","ios":"levelo://app?vid=07593388-1396-48b8-b53d-f99ad9d41363"},"vehicle_type_id":"4","last_reported":1731474561,"current_range_meters":33200,"station_id":"ce4bgjp2rcd13ifvqbh0","pricing_plan_id":"cebpf4jnsgd1na2vs0mg"},{"bike_id":"009b51d1-a3f7-4b09-be01-a7238b4857f4","system_id":"levelo_inurba_marseille","lat":43.31753,"lon":5.39022,"is_reserved":false,"is_disabled":false,"rental_uris":{"android":"levelo://app?vid=009b51d1-a3f7-4b09-be01-a7238b4857f4","ios":"levelo://app?vid=009b51d1-a3f7-4b09-be01-a7238b4857f4"},"vehicle_type_id":"4","last_reported":1731474561,"current_range_meters":33200,"station_id":"ce4bhqp2rcd13ifvqhng","pricing_plan_id":"cebpf4jnsgd1na2vs0mg"},{"bike_id":"48b015c8-b9d8-45db-a9ce-32ad81bb4588","system_id":"levelo_inurba_marseille","lat":43.25089,"lon":5.39515,"is_reserved":false,"is_disabled":false,"rental_uris":{"android":"levelo://app?vid=48b015c8-b9d8-45db-a9ce-32ad81bb4588","ios":"levelo://app?vid=48b015c8-b9d8-45db-a9ce-32ad81bb4588"},"vehicle_type_id":"4","last_reported":1731474561,"current_range_meters":4800,"station_id":"ce4bhm12rcd13ifvqgkg","pricing_plan_id":"cebpf4jnsgd1na2vs0mg"},{"bike_id":"df6d9143-aea4-4a13-bc4e-22db51f6516b","system_id":"levelo_inurba_marseille","lat":43.27994,"lon":5.41658,"is_reserved":false,"is_disabled":false,"rental_uris":{"android":"levelo://app?vid=df6d9143-aea4-4a13-bc4e-22db51f6516b","ios":"levelo://app?vid=df6d9143-aea4-4a13-bc4e-22db51f6516b"},"vehicle_type_id":"4","last_reported":1731474561,"current_range_meters":6400,"station_id":"ce4bho12rcd13ifvqh1g","pricing_plan_id":"cebpf4jnsgd1na2vs0mg"},{"bike_id":"ffd59ff3-9bb3-4ead-b680-63a73f2f12fe","system_id":"levelo_inurba_marseille","lat":43.25864,"lon":5.39904,"is_reserved":false,"is_disabled":false,"rental_uris":{"android":"levelo://app?vid=ffd59ff3-9bb3-4ead-b680-63a73f2f12fe","ios":"levelo://app?vid=ffd59ff3-9bb3-4ead-b680-63a73f2f12fe"},"vehicle_type_id":"4","last_reported":1731474561,"current_range_meters":25200,"station_id":"ce4bhl92rcd13ifvqghg","pricing_plan_id":"cebpf4jnsgd1na2vs0mg"},{"bike_id":"6fe05206-fb07-4154-a289-8b7473b9715b","system_id":"levelo_inurba_marseille","lat":43.24076,"lon":5.37755,"is_reserved":false,"is_disabled":false,"rental_uris":{"android":"levelo://app?vid=6fe05206-fb07-4154-a289-8b7473b9715b","ios":"levelo://app?vid=6fe05206-fb07-4154-a289-8b7473b9715b"},"vehicle_type_id":"4","last_reported":1731474561,"current_range_meters":20800,"station_id":"ce4bhnp2rcd13ifvqgvg","pricing_plan_id":"cebpf4jnsgd1na2vs0mg"},{"bike_id":"f08009ee-102f-410a-80e4-42899e9c517d","system_id":"levelo_inurba_marseille","lat":43.281,"lon":5.37847,"is_reserved":false,"is_disabled":false,"rental_uris":{"android":"levelo://app?vid=f08009ee-102f-410a-80e4-42899e9c517d","ios":"levelo://app?vid=f08009ee-102f-410a-80e4-42899e9c517d"},"vehicle_type_id":"4","last_reported":1731474561,"current_range_meters":39200,"station_id":"ce4bha12rcd13ifvqee0","pricing_plan_id":"cebpf4jnsgd1na2vs0mg"},{"bike_id":"76ebf837-5bd7-45f4-b309-231e4d9381cc","system_id":"levelo_inurba_marseille","lat":43.29709,"lon":5.36611,"is_reserved":false,"is_disabled":false,"rental_uris":{"android":"levelo://app?vid=76ebf837-5bd7-45f4-b309-231e4d9381cc","ios":"levelo://app?vid=76ebf837-5bd7-45f4-b309-231e4d9381cc"},"vehicle_type_id":"4","last_reported":1731474561,"current_range_meters":7200,"station_id":"ce4bgn12rcd13ifvqbt0","pricing_plan_id":"cebpf4jnsgd1na2vs0mg"},{"bike_id":"6eaaf1d0-f083-4298-8ed3-7bcc57f75ee3","system_id":"levelo_inurba_marseille","lat":43.30322,"lon":5.40434,"is_reserved":false,"is_disabled":false,"rental_uris":{"android":"levelo://app?vid=6eaaf1d0-f083-4298-8ed3-7bcc57f75ee3","ios":"levelo://app?vid=6eaaf1d0-f083-4298-8ed3-7bcc57f75ee3"},"vehicle_type_id":"4","last_reported":1731474561,"current_range_meters":38400,"station_id":"ce4bh012rcd13ifvqd10","pricing_plan_id":"cebpf4jnsgd1na2vs0mg"},{"bike_id":"0d70c70f-52b0-40e6-aa1f-a5d39ba6e3cc","system_id":"levelo_inurba_marseille","lat":43.28461,"lon":5.358945,"is_reserved":false,"is_disabled":false,"rental_uris":{"android":"levelo://app?vid=0d70c70f-52b0-40e6-aa1f-a5d39ba6e3cc","ios":"levelo://app?vid=0d70c70f-52b0-40e6-aa1f-a5d39ba6e3cc"},"vehicle_type_id":"4","last_reported":1731474561,"current_range_meters":38800,"station_id":"ce4bhah2rcd13ifvqei0","pricing_plan_id":"cebpf4jnsgd1na2vs0mg"},{"bike_id":"61ccb944-157f-431c-8a99-22de6e5a4194","system_id":"levelo_inurba_marseille","lat":43.26815,"lon":5.37123,"is_reserved":false,"is_disabled":false,"rental_uris":{"android":"levelo://app?vid=61ccb944-157f-431c-8a99-22de6e5a4194","ios":"levelo://app?vid=61ccb944-157f-431c-8a99-22de6e5a4194"},"vehicle_type_id":"4","last_reported":1731474561,"current_range_meters":7200,"station_id":"ce4bhg12rcd13ifvqf70","pricing_plan_id":"cebpf4jnsgd1na2vs0mg"},{"bike_id":"a5ccd1f5-9ea4-4fee-9006-d0367c2fccc9","system_id":"levelo_inurba_marseille","lat":43.31753,"lon":5.39012,"is_reserved":false,"is_disabled":false,"rental_uris":{"android":"levelo://app?vid=a5ccd1f5-9ea4-4fee-9006-d0367c2fccc9","ios":"levelo://app?vid=a5ccd1f5-9ea4-4fee-9006-d0367c2fccc9"},"vehicle_type_id":"4","last_reported":1731474561,"current_range_meters":32400,"station_id":"ce4bhqp2rcd13ifvqhng","pricing_plan_id":"cebpf4jnsgd1na2vs0mg"},{"bike_id":"16e5c45c-89c6-497b-9cf7-7dfdaa8ab5a1","system_id":"levelo_inurba_marseille","lat":43.2872,"lon":5.36088,"is_reserved":false,"is_disabled":false,"rental_uris":{"android":"levelo://app?vid=16e5c45c-89c6-497b-9cf7-7dfdaa8ab5a1","ios":"levelo://app?vid=16e5c45c-89c6-497b-9cf7-7dfdaa8ab5a1"},"vehicle_type_id":"4","last_reported":1731474561,"current_range_meters":38000,"station_id":"cki0cbj6b192h4jlfktg","pricing_plan_id":"cebpf4jnsgd1na2vs0mg"},{"bike_id":"2eedc177-66d3-43ad-8e2d-78e60ce845e8","system_id":"levelo_inurba_marseille","lat":43.22936,"lon":5.35375,"is_reserved":false,"is_disabled":false,"rental_uris":{"android":"levelo://app?vid=2eedc177-66d3-43ad-8e2d-78e60ce845e8","ios":"levelo://app?vid=2eedc177-66d3-43ad-8e2d-78e60ce845e8"},"vehicle_type_id":"4","last_reported":1731474561,"current_range_meters":7200,"station_id":"cpo3532slgdg3j2ikp40","pricing_plan_id":"cebpf4jnsgd1na2vs0mg"},{"bike_id":"4f755369-c43d-4179-b55e-2310a7b1ef80","system_id":"levelo_inurba_marseille","lat":43.27897,"lon":5.39595,"is_reserved":false,"is_disabled":false,"rental_uris":{"android":"levelo://app?vid=4f755369-c43d-4179-b55e-2310a7b1ef80","ios":"levelo://app?vid=4f755369-c43d-4179-b55e-2310a7b1ef80"},"vehicle_type_id":"4","last_reported":1731474561,"current_range_meters":38800,"station_id":"ce4bhf92rcd13ifvqf40","pricing_plan_id":"cebpf4jnsgd1na2vs0mg"},{"bike_id":"4c8ba580-9aab-4ad2-a256-0eb52439ba3f","system_id":"levelo_inurba_marseille","lat":43.3108,"lon":5.3836,"is_reserved":false,"is_disabled":false,"rental_uris":{"android":"levelo://app?vid=4c8ba580-9aab-4ad2-a256-0eb52439ba3f","ios":"levelo://app?vid=4c8ba580-9aab-4ad2-a256-0eb52439ba3f"},"vehicle_type_id":"4","last_reported":1731474561,"current_range_meters":31200,"station_id":"ce4bgv92rcd13ifvqcr0","pricing_plan_id":"cebpf4jnsgd1na2vs0mg"},{"bike_id":"2b701322-ee13-429f-aa3c-0a40c8e087ae","system_id":"levelo_inurba_marseille","lat":43.23181,"lon":5.39977,"is_reserved":false,"is_disabled":false,"rental_uris":{"android":"levelo://app?vid=2b701322-ee13-429f-aa3c-0a40c8e087ae","ios":"levelo://app?vid=2b701322-ee13-429f-aa3c-0a40c8e087ae"},"vehicle_type_id":"4","last_reported":1731474561,"current_range_meters":38800,"station_id":"ce4bhn12rcd13ifvqgqg","pricing_plan_id":"cebpf4jnsgd1na2vs0mg"},{"bike_id":"e2f3539e-1a87-4932-81fb-bdd577fecbd0","system_id":"levelo_inurba_marseille","lat":43.30938,"lon":5.40136,"is_reserved":false,"is_disabled":false,"rental_uris":{"android":"levelo://app?vid=e2f3539e-1a87-4932-81fb-bdd577fecbd0","ios":"levelo://app?vid=e2f3539e-1a87-4932-81fb-bdd577fecbd0"},"vehicle_type_id":"4","last_reported":1731474561,"current_range_meters":36800,"station_id":"ce4bgvp2rcd13ifvqct0","pricing_plan_id":"cebpf4jnsgd1na2vs0mg"},{"bike_id":"732c30dd-43f4-4c31-9a69-d2fe841141d6","system_id":"levelo_inurba_marseille","lat":43.30534,"lon":5.36707,"is_reserved":false,"is_disabled":false,"rental_uris":{"android":"levelo://app?vid=732c30dd-43f4-4c31-9a69-d2fe841141d6","ios":"levelo://app?vid=732c30dd-43f4-4c31-9a69-d2fe841141d6"},"vehicle_type_id":"4","last_reported":1731474561,"current_range_meters":28400,"station_id":"ce4bgrp2rcd13ifvqc9g","pricing_plan_id":"cebpf4jnsgd1na2vs0mg"},{"bike_id":"d2a6a283-229e-4b1d-ba46-0963b3668d89","system_id":"levelo_inurba_marseille","lat":43.30538,"lon":5.36537,"is_reserved":false,"is_disabled":false,"rental_uris":{"android":"levelo://app?vid=d2a6a283-229e-4b1d-ba46-0963b3668d89","ios":"levelo://app?vid=d2a6a283-229e-4b1d-ba46-0963b3668d89"},"vehicle_type_id":"4","last_reported":1731474561,"current_range_meters":38000,"station_id":"ce4bgs12rcd13ifvqcag","pricing_plan_id":"cebpf4jnsgd1na2vs0mg"},{"bike_id":"7a106648-b19d-4689-ac9b-6142b45f222a","system_id":"levelo_inurba_marseille","lat":43.28694,"lon":5.37377,"is_reserved":false,"is_disabled":false,"rental_uris":{"android":"levelo://app?vid=7a106648-b19d-4689-ac9b-6142b45f222a","ios":"levelo://app?vid=7a106648-b19d-4689-ac9b-6142b45f222a"},"vehicle_type_id":"4","last_reported":1731474561,"current_range_meters":38400,"station_id":"ce4bh3p2rcd13ifvqdq0","pricing_plan_id":"cebpf4jnsgd1na2vs0mg"},{"bike_id":"931d6467-fcfe-4767-b28a-554e64d96a01","system_id":"levelo_inurba_marseille","lat":43.31325,"lon":5.39697,"is_reserved":false,"is_disabled":false,"rental_uris":{"android":"levelo://app?vid=931d6467-fcfe-4767-b28a-554e64d96a01","ios":"levelo://app?vid=931d6467-fcfe-4767-b28a-554e64d96a01"},"vehicle_type_id":"4","last_reported":1731474561,"current_range_meters":12800,"station_id":"ce4bgvp2rcd13ifvqcu0","pricing_plan_id":"cebpf4jnsgd1na2vs0mg"},{"bike_id":"85b728ef-7c62-4a7f-a060-7f65da2ca2d6","system_id":"levelo_inurba_marseille","lat":43.336106,"lon":5.410334,"is_reserved":false,"is_disabled":false,"rental_uris":{"android":"levelo://app?vid=85b728ef-7c62-4a7f-a060-7f65da2ca2d6","ios":"levelo://app?vid=85b728ef-7c62-4a7f-a060-7f65da2ca2d6"},"vehicle_type_id":"4","last_reported":1731474561,"current_range_meters":24400,"station_id":"ce4bhqh2rcd13ifvqhmg","pricing_plan_id":"cebpf4jnsgd1na2vs0mg"},{"bike_id":"cb373fc0-ad0f-46b6-bef2-3b25d78cb2c0","system_id":"levelo_inurba_marseille","lat":43.31356,"lon":5.36725,"is_reserved":false,"is_disabled":false,"rental_uris":{"android":"levelo://app?vid=cb373fc0-ad0f-46b6-bef2-3b25d78cb2c0","ios":"levelo://app?vid=cb373fc0-ad0f-46b6-bef2-3b25d78cb2c0"},"vehicle_type_id":"4","last_reported":1731474561,"current_range_meters":38000,"station_id":"ce4bgr92rcd13ifvqc6g","pricing_plan_id":"cebpf4jnsgd1na2vs0mg"},{"bike_id":"99b593b3-5949-4593-9829-b56ee6d0f8f3","system_id":"levelo_inurba_marseille","lat":43.3133,"lon":5.39685,"is_reserved":false,"is_disabled":false,"rental_uris":{"android":"levelo://app?vid=99b593b3-5949-4593-9829-b56ee6d0f8f3","ios":"levelo://app?vid=99b593b3-5949-4593-9829-b56ee6d0f8f3"},"vehicle_type_id":"4","last_reported":1731474561,"current_range_meters":8000,"station_id":"ce4bgvp2rcd13ifvqcu0","pricing_plan_id":"cebpf4jnsgd1na2vs0mg"},{"bike_id":"b5e7fc6d-9fff-43f9-8500-3fca2afd54f4","system_id":"levelo_inurba_marseille","lat":43.2884,"lon":5.35853,"is_reserved":false,"is_disabled":false,"rental_uris":{"android":"levelo://app?vid=b5e7fc6d-9fff-43f9-8500-3fca2afd54f4","ios":"levelo://app?vid=b5e7fc6d-9fff-43f9-8500-3fca2afd54f4"},"vehicle_type_id":"4","last_reported":1731474561,"current_range_meters":38000,"station_id":"ce4bhb12rcd13ifvqem0","pricing_plan_id":"cebpf4jnsgd1na2vs0mg"},{"bike_id":"2d79f8c1-87d0-4ba3-9c46-0fde57c83876","system_id":"levelo_inurba_marseille","lat":43.28146,"lon":5.42641,"is_reserved":false,"is_disabled":false,"rental_uris":{"android":"levelo://app?vid=2d79f8c1-87d0-4ba3-9c46-0fde57c83876","ios":"levelo://app?vid=2d79f8c1-87d0-4ba3-9c46-0fde57c83876"},"vehicle_type_id":"4","last_reported":1731474561,"current_range_meters":22400,"station_id":"ce4bhnh2rcd13ifvqgug","pricing_plan_id":"cebpf4jnsgd1na2vs0mg"},{"bike_id":"8f0a2026-6cfc-4cfe-b398-32b696295dad","system_id":"levelo_inurba_marseille","lat":43.27824,"lon":5.39216,"is_reserved":false,"is_disabled":false,"rental_uris":{"android":"levelo://app?vid=8f0a2026-6cfc-4cfe-b398-32b696295dad","ios":"levelo://app?vid=8f0a2026-6cfc-4cfe-b398-32b696295dad"},"vehicle_type_id":"4","last_reported":1731474561,"current_range_meters":38800,"station_id":"ce4bhjp2rcd13ifvqga0","pricing_plan_id":"cebpf4jnsgd1na2vs0mg"},{"bike_id":"5987886e-1712-4e4c-8f1b-3a1284d69f91","system_id":"levelo_inurba_marseille","lat":43.24177,"lon":5.39733,"is_reserved":false,"is_disabled":false,"rental_uris":{"android":"levelo://app?vid=5987886e-1712-4e4c-8f1b-3a1284d69f91","ios":"levelo://app?vid=5987886e-1712-4e4c-8f1b-3a1284d69f91"},"vehicle_type_id":"4","last_reported":1731474561,"current_range_meters":38000,"station_id":"ce4bhn12rcd13ifvqgpg","pricing_plan_id":"cebpf4jnsgd1na2vs0mg"},{"bike_id":"f2c5e768-35b6-4ee9-9828-181183c1aad4","system_id":"levelo_inurba_marseille","lat":43.31055,"lon":5.40086,"is_reserved":false,"is_disabled":false,"rental_uris":{"android":"levelo://app?vid=f2c5e768-35b6-4ee9-9828-181183c1aad4","ios":"levelo://app?vid=f2c5e768-35b6-4ee9-9828-181183c1aad4"},"vehicle_type_id":"4","last_reported":1731474561,"current_range_meters":14800,"station_id":"","pricing_plan_id":"cebpf4jnsgd1na2vs0mg"},{"bike_id":"4480430f-0e97-4a27-900e-76da8b37d223","system_id":"levelo_inurba_marseille","lat":43.29045,"lon":5.35907,"is_reserved":false,"is_disabled":false,"rental_uris":{"android":"levelo://app?vid=4480430f-0e97-4a27-900e-76da8b37d223","ios":"levelo://app?vid=4480430f-0e97-4a27-900e-76da8b37d223"},"vehicle_type_id":"4","last_reported":1731474561,"current_range_meters":32000,"station_id":"ce4bha92rcd13ifvqeg0","pricing_plan_id":"cebpf4jnsgd1na2vs0mg"},{"bike_id":"f4506ab9-9c31-4d94-b44b-fd8b5467d4c8","system_id":"levelo_inurba_marseille","lat":43.27182,"lon":5.40989,"is_reserved":false,"is_disabled":false,"rental_uris":{"android":"levelo://app?vid=f4506ab9-9c31-4d94-b44b-fd8b5467d4c8","ios":"levelo://app?vid=f4506ab9-9c31-4d94-b44b-fd8b5467d4c8"},"vehicle_type_id":"4","last_reported":1731474561,"current_range_meters":3200,"station_id":"ce4bhl12rcd13ifvqgf0","pricing_plan_id":"cebpf4jnsgd1na2vs0mg"},{"bike_id":"850fded6-682c-4840-bb3b-e76809dcd58a","system_id":"levelo_inurba_marseille","lat":43.2407,"lon":5.37761,"is_reserved":false,"is_disabled":false,"rental_uris":{"android":"levelo://app?vid=850fded6-682c-4840-bb3b-e76809dcd58a","ios":"levelo://app?vid=850fded6-682c-4840-bb3b-e76809dcd58a"},"vehicle_type_id":"4","last_reported":1731474561,"current_range_meters":3200,"station_id":"ce4bhnp2rcd13ifvqgvg","pricing_plan_id":"cebpf4jnsgd1na2vs0mg"},{"bike_id":"22330366-e245-448a-b152-e4700afe40ec","system_id":"levelo_inurba_marseille","lat":43.28102,"lon":5.37836,"is_reserved":false,"is_disabled":false,"rental_uris":{"android":"levelo://app?vid=22330366-e245-448a-b152-e4700afe40ec","ios":"levelo://app?vid=22330366-e245-448a-b152-e4700afe40ec"},"vehicle_type_id":"4","last_reported":1731474561,"current_range_meters":39200,"station_id":"ce4bha12rcd13ifvqee0","pricing_plan_id":"cebpf4jnsgd1na2vs0mg"},{"bike_id":"4947d354-a48b-43f5-899b-622fdcee6d8f","system_id":"levelo_inurba_marseille","lat":43.24075,"lon":5.37754,"is_reserved":false,"is_disabled":false,"rental_uris":{"android":"levelo://app?vid=4947d354-a48b-43f5-899b-622fdcee6d8f","ios":"levelo://app?vid=4947d354-a48b-43f5-899b-622fdcee6d8f"},"vehicle_type_id":"4","last_reported":1731474561,"current_range_meters":34000,"station_id":"ce4bhnp2rcd13ifvqgvg","pricing_plan_id":"cebpf4jnsgd1na2vs0mg"},{"bike_id":"75c931b6-6afd-4220-b118-ff973811b6cd","system_id":"levelo_inurba_marseille","lat":43.285632,"lon":5.395041,"is_reserved":false,"is_disabled":false,"rental_uris":{"android":"levelo://app?vid=75c931b6-6afd-4220-b118-ff973811b6cd","ios":"levelo://app?vid=75c931b6-6afd-4220-b118-ff973811b6cd"},"vehicle_type_id":"4","last_reported":1731474561,"current_range_meters":38800,"station_id":"ce4bh292rcd13ifvqdg0","pricing_plan_id":"cebpf4jnsgd1na2vs0mg"},{"bike_id":"29e15abf-b12a-480d-a085-b334a9ed95c0","system_id":"levelo_inurba_marseille","lat":43.28856,"lon":5.35849,"is_reserved":false,"is_disabled":false,"rental_uris":{"android":"levelo://app?vid=29e15abf-b12a-480d-a085-b334a9ed95c0","ios":"levelo://app?vid=29e15abf-b12a-480d-a085-b334a9ed95c0"},"vehicle_type_id":"4","last_reported":1731474561,"current_range_meters":35200,"station_id":"ce4bhb12rcd13ifvqem0","pricing_plan_id":"cebpf4jnsgd1na2vs0mg"},{"bike_id":"4c2f1ee8-1a9f-4a93-a495-fdf6f5a9cd47","system_id":"levelo_inurba_marseille","lat":43.31527,"lon":5.38029,"is_reserved":false,"is_disabled":false,"rental_uris":{"android":"levelo://app?vid=4c2f1ee8-1a9f-4a93-a495-fdf6f5a9cd47","ios":"levelo://app?vid=4c2f1ee8-1a9f-4a93-a495-fdf6f5a9cd47"},"vehicle_type_id":"4","last_reported":1731474561,"current_range_meters":38800,"station_id":"ce4bhsp2rcd13ifvqi50","pricing_plan_id":"cebpf4jnsgd1na2vs0mg"},{"bike_id":"9224749c-2286-4020-9c59-a1d87ba6705f","system_id":"levelo_inurba_marseille","lat":43.30096,"lon":5.39085,"is_reserved":false,"is_disabled":false,"rental_uris":{"android":"levelo://app?vid=9224749c-2286-4020-9c59-a1d87ba6705f","ios":"levelo://app?vid=9224749c-2286-4020-9c59-a1d87ba6705f"},"vehicle_type_id":"4","last_reported":1731474561,"current_range_meters":20800,"station_id":"ce4bh192rcd13ifvqdb0","pricing_plan_id":"cebpf4jnsgd1na2vs0mg"},{"bike_id":"84df5710-0e6b-477a-8f37-94263fd850e2","system_id":"levelo_inurba_marseille","lat":43.28616,"lon":5.35101,"is_reserved":false,"is_disabled":false,"rental_uris":{"android":"levelo://app?vid=84df5710-0e6b-477a-8f37-94263fd850e2","ios":"levelo://app?vid=84df5710-0e6b-477a-8f37-94263fd850e2"},"vehicle_type_id":"4","last_reported":1731474561,"current_range_meters":38800,"station_id":"ce4bhch2rcd13ifvqeug","pricing_plan_id":"cebpf4jnsgd1na2vs0mg"},{"bike_id":"5ddca7da-d4bd-4b7a-a3fa-22741b01ac30","system_id":"levelo_inurba_marseille","lat":43.289578,"lon":5.357784,"is_reserved":false,"is_disabled":false,"rental_uris":{"android":"levelo://app?vid=5ddca7da-d4bd-4b7a-a3fa-22741b01ac30","ios":"levelo://app?vid=5ddca7da-d4bd-4b7a-a3fa-22741b01ac30"},"vehicle_type_id":"4","last_reported":1731474561,"current_range_meters":27200,"station_id":"","pricing_plan_id":"cebpf4jnsgd1na2vs0mg"},{"bike_id":"e8dc9cb2-5b16-4ac5-a50b-4c128d5e95d5","system_id":"levelo_inurba_marseille","lat":43.27919,"lon":5.39588,"is_reserved":false,"is_disabled":false,"rental_uris":{"android":"levelo://app?vid=e8dc9cb2-5b16-4ac5-a50b-4c128d5e95d5","ios":"levelo://app?vid=e8dc9cb2-5b16-4ac5-a50b-4c128d5e95d5"},"vehicle_type_id":"4","last_reported":1731474561,"current_range_meters":14800,"station_id":"ce4bhf92rcd13ifvqf40","pricing_plan_id":"cebpf4jnsgd1na2vs0mg"},{"bike_id":"44682042-2724-4f1d-a39c-cf14982d689b","system_id":"levelo_inurba_marseille","lat":43.27966,"lon":5.38704,"is_reserved":false,"is_disabled":false,"rental_uris":{"android":"levelo://app?vid=44682042-2724-4f1d-a39c-cf14982d689b","ios":"levelo://app?vid=44682042-2724-4f1d-a39c-cf14982d689b"},"vehicle_type_id":"4","last_reported":1731474561,"current_range_meters":36400,"station_id":"ce4bhg12rcd13ifvqf80","pricing_plan_id":"cebpf4jnsgd1na2vs0mg"},{"bike_id":"b01f14ad-1c18-4774-a114-f5ad20e62224","system_id":"levelo_inurba_marseille","lat":43.32364,"lon":5.38875,"is_reserved":false,"is_disabled":false,"rental_uris":{"android":"levelo://app?vid=b01f14ad-1c18-4774-a114-f5ad20e62224","ios":"levelo://app?vid=b01f14ad-1c18-4774-a114-f5ad20e62224"},"vehicle_type_id":"4","last_reported":1731474561,"current_range_meters":33600,"station_id":"ce4bhqp2rcd13ifvqhog","pricing_plan_id":"cebpf4jnsgd1na2vs0mg"},{"bike_id":"7b3c27eb-f609-4995-afd3-a1ce7a9845fc","system_id":"levelo_inurba_marseille","lat":43.28154,"lon":5.42636,"is_reserved":false,"is_disabled":false,"rental_uris":{"android":"levelo://app?vid=7b3c27eb-f609-4995-afd3-a1ce7a9845fc","ios":"levelo://app?vid=7b3c27eb-f609-4995-afd3-a1ce7a9845fc"},"vehicle_type_id":"4","last_reported":1731474561,"current_range_meters":35600,"station_id":"ce4bhnh2rcd13ifvqgug","pricing_plan_id":"cebpf4jnsgd1na2vs0mg"},{"bike_id":"7e0fe3c7-4237-4e56-9efa-8b9cbf03997c","system_id":"levelo_inurba_marseille","lat":43.2791,"lon":5.39582,"is_reserved":false,"is_disabled":false,"rental_uris":{"android":"levelo://app?vid=7e0fe3c7-4237-4e56-9efa-8b9cbf03997c","ios":"levelo://app?vid=7e0fe3c7-4237-4e56-9efa-8b9cbf03997c"},"vehicle_type_id":"4","last_reported":1731474561,"current_range_meters":17600,"station_id":"ce4bhf92rcd13ifvqf40","pricing_plan_id":"cebpf4jnsgd1na2vs0mg"},{"bike_id":"8bd28578-75ff-4617-952b-4adf5369bcac","system_id":"levelo_inurba_marseille","lat":43.337444,"lon":5.374475,"is_reserved":false,"is_disabled":false,"rental_uris":{"android":"levelo://app?vid=8bd28578-75ff-4617-952b-4adf5369bcac","ios":"levelo://app?vid=8bd28578-75ff-4617-952b-4adf5369bcac"},"vehicle_type_id":"4","last_reported":1731474561,"current_range_meters":34800,"station_id":"","pricing_plan_id":"cebpf4jnsgd1na2vs0mg"},{"bike_id":"47fa2115-a012-42de-8bc1-d009b04a84f8","system_id":"levelo_inurba_marseille","lat":43.32538,"lon":5.41441,"is_reserved":false,"is_disabled":false,"rental_uris":{"android":"levelo://app?vid=47fa2115-a012-42de-8bc1-d009b04a84f8","ios":"levelo://app?vid=47fa2115-a012-42de-8bc1-d009b04a84f8"},"vehicle_type_id":"4","last_reported":1731474561,"current_range_meters":38000,"station_id":"ce4bhq12rcd13ifvqhhg","pricing_plan_id":"cebpf4jnsgd1na2vs0mg"},{"bike_id":"a8b6a11c-b2aa-45d1-aa60-82be96d079d9","system_id":"levelo_inurba_marseille","lat":43.2957,"lon":5.39976,"is_reserved":false,"is_disabled":false,"rental_uris":{"android":"levelo://app?vid=a8b6a11c-b2aa-45d1-aa60-82be96d079d9","ios":"levelo://app?vid=a8b6a11c-b2aa-45d1-aa60-82be96d079d9"},"vehicle_type_id":"4","last_reported":1731474561,"current_range_meters":38800,"station_id":"ce4bh312rcd13ifvqdj0","pricing_plan_id":"cebpf4jnsgd1na2vs0mg"},{"bike_id":"54b6aa73-bc3f-4d65-80d1-8b340912c1a1","system_id":"levelo_inurba_marseille","lat":43.25727,"lon":5.41107,"is_reserved":false,"is_disabled":false,"rental_uris":{"android":"levelo://app?vid=54b6aa73-bc3f-4d65-80d1-8b340912c1a1","ios":"levelo://app?vid=54b6aa73-bc3f-4d65-80d1-8b340912c1a1"},"vehicle_type_id":"4","last_reported":1731474561,"current_range_meters":38000,"station_id":"ce4bhkp2rcd13ifvqgd0","pricing_plan_id":"cebpf4jnsgd1na2vs0mg"},{"bike_id":"6bbbe21f-854d-46d3-8e27-01cc9a32439a","system_id":"levelo_inurba_marseille","lat":43.28846,"lon":5.35858,"is_reserved":false,"is_disabled":false,"rental_uris":{"android":"levelo://app?vid=6bbbe21f-854d-46d3-8e27-01cc9a32439a","ios":"levelo://app?vid=6bbbe21f-854d-46d3-8e27-01cc9a32439a"},"vehicle_type_id":"4","last_reported":1731474561,"current_range_meters":37600,"station_id":"ce4bhb12rcd13ifvqem0","pricing_plan_id":"cebpf4jnsgd1na2vs0mg"},{"bike_id":"08ed9a02-5e90-41c4-91cc-97d679249f17","system_id":"levelo_inurba_marseille","lat":43.30796,"lon":5.38153,"is_reserved":false,"is_disabled":false,"rental_uris":{"android":"levelo://app?vid=08ed9a02-5e90-41c4-91cc-97d679249f17","ios":"levelo://app?vid=08ed9a02-5e90-41c4-91cc-97d679249f17"},"vehicle_type_id":"4","last_reported":1731474561,"current_range_meters":14000,"station_id":"ce4bgt12rcd13ifvqce0","pricing_plan_id":"cebpf4jnsgd1na2vs0mg"},{"bike_id":"5c8a84e2-4fe1-4412-b9ae-8723baa37cb5","system_id":"levelo_inurba_marseille","lat":43.29224,"lon":5.36077,"is_reserved":false,"is_disabled":false,"rental_uris":{"android":"levelo://app?vid=5c8a84e2-4fe1-4412-b9ae-8723baa37cb5","ios":"levelo://app?vid=5c8a84e2-4fe1-4412-b9ae-8723baa37cb5"},"vehicle_type_id":"4","last_reported":1731474561,"current_range_meters":33600,"station_id":"ce4bhbh2rcd13ifvqeqg","pricing_plan_id":"cebpf4jnsgd1na2vs0mg"},{"bike_id":"f3595139-6870-414e-b1cf-e461f29fbbd8","system_id":"levelo_inurba_marseille","lat":43.30233,"lon":5.40032,"is_reserved":false,"is_disabled":false,"rental_uris":{"android":"levelo://app?vid=f3595139-6870-414e-b1cf-e461f29fbbd8","ios":"levelo://app?vid=f3595139-6870-414e-b1cf-e461f29fbbd8"},"vehicle_type_id":"4","last_reported":1731474561,"current_range_meters":4000,"station_id":"","pricing_plan_id":"cebpf4jnsgd1na2vs0mg"},{"bike_id":"a81d010c-c5d8-4e4a-998c-0bdba20b8aa1","system_id":"levelo_inurba_marseille","lat":43.23201,"lon":5.3554,"is_reserved":false,"is_disabled":false,"rental_uris":{"android":"levelo://app?vid=a81d010c-c5d8-4e4a-998c-0bdba20b8aa1","ios":"levelo://app?vid=a81d010c-c5d8-4e4a-998c-0bdba20b8aa1"},"vehicle_type_id":"4","last_reported":1731474561,"current_range_meters":38800,"station_id":"ce4bhu92rcd13ifvqi70","pricing_plan_id":"cebpf4jnsgd1na2vs0mg"},{"bike_id":"1102e559-642f-4f8c-8c18-0f4fe697b5b8","system_id":"levelo_inurba_marseille","lat":43.30362,"lon":5.41881,"is_reserved":false,"is_disabled":false,"rental_uris":{"android":"levelo://app?vid=1102e559-642f-4f8c-8c18-0f4fe697b5b8","ios":"levelo://app?vid=1102e559-642f-4f8c-8c18-0f4fe697b5b8"},"vehicle_type_id":"4","last_reported":1731474561,"current_range_meters":26800,"station_id":"ce4bhop2rcd13ifvqh7g","pricing_plan_id":"cebpf4jnsgd1na2vs0mg"},{"bike_id":"9e206ec4-3bc2-4292-bb12-90ccf987d885","system_id":"levelo_inurba_marseille","lat":43.337444,"lon":5.374475,"is_reserved":false,"is_disabled":false,"rental_uris":{"android":"levelo://app?vid=9e206ec4-3bc2-4292-bb12-90ccf987d885","ios":"levelo://app?vid=9e206ec4-3bc2-4292-bb12-90ccf987d885"},"vehicle_type_id":"4","last_reported":1731474561,"current_range_meters":36400,"station_id":"","pricing_plan_id":"cebpf4jnsgd1na2vs0mg"},{"bike_id":"398b47b3-a042-4cec-b1dd-254773a78263","system_id":"levelo_inurba_marseille","lat":43.27407,"lon":5.38952,"is_reserved":false,"is_disabled":false,"rental_uris":{"android":"levelo://app?vid=398b47b3-a042-4cec-b1dd-254773a78263","ios":"levelo://app?vid=398b47b3-a042-4cec-b1dd-254773a78263"},"vehicle_type_id":"4","last_reported":1731474561,"current_range_meters":10000,"station_id":"","pricing_plan_id":"cebpf4jnsgd1na2vs0mg"},{"bike_id":"a58b0855-e159-4686-925f-90a07c0c114d","system_id":"levelo_inurba_marseille","lat":43.317216,"lon":5.423961,"is_reserved":false,"is_disabled":false,"rental_uris":{"android":"levelo://app?vid=a58b0855-e159-4686-925f-90a07c0c114d","ios":"levelo://app?vid=a58b0855-e159-4686-925f-90a07c0c114d"},"vehicle_type_id":"4","last_reported":1731474561,"current_range_meters":38000,"station_id":"ce4bhp92rcd13ifvqhbg","pricing_plan_id":"cebpf4jnsgd1na2vs0mg"},{"bike_id":"86e379ad-a4e9-41f1-8be1-c7a60b992b40","system_id":"levelo_inurba_marseille","lat":43.29275,"lon":5.38452,"is_reserved":false,"is_disabled":false,"rental_uris":{"android":"levelo://app?vid=86e379ad-a4e9-41f1-8be1-c7a60b992b40","ios":"levelo://app?vid=86e379ad-a4e9-41f1-8be1-c7a60b992b40"},"vehicle_type_id":"4","last_reported":1731474561,"current_range_meters":36000,"station_id":"ce4bh692rcd13ifvqea0","pricing_plan_id":"cebpf4jnsgd1na2vs0mg"},{"bike_id":"9301a81f-94c1-46f0-a76c-136bb641d10c","system_id":"levelo_inurba_marseille","lat":43.30791,"lon":5.38165,"is_reserved":false,"is_disabled":false,"rental_uris":{"android":"levelo://app?vid=9301a81f-94c1-46f0-a76c-136bb641d10c","ios":"levelo://app?vid=9301a81f-94c1-46f0-a76c-136bb641d10c"},"vehicle_type_id":"4","last_reported":1731474561,"current_range_meters":38800,"station_id":"ce4bgt12rcd13ifvqce0","pricing_plan_id":"cebpf4jnsgd1na2vs0mg"},{"bike_id":"a356e06f-7579-40a0-8367-1e61b7961e07","system_id":"levelo_inurba_marseille","lat":43.23961,"lon":5.36676,"is_reserved":false,"is_disabled":false,"rental_uris":{"android":"levelo://app?vid=a356e06f-7579-40a0-8367-1e61b7961e07","ios":"levelo://app?vid=a356e06f-7579-40a0-8367-1e61b7961e07"},"vehicle_type_id":"4","last_reported":1731474561,"current_range_meters":38800,"station_id":"ce4bhi12rcd13ifvqfp0","pricing_plan_id":"cebpf4jnsgd1na2vs0mg"},{"bike_id":"38e6ef45-b6a9-4a81-9c71-ad5e837699e2","system_id":"levelo_inurba_marseille","lat":43.31891,"lon":5.4074,"is_reserved":false,"is_disabled":false,"rental_uris":{"android":"levelo://app?vid=38e6ef45-b6a9-4a81-9c71-ad5e837699e2","ios":"levelo://app?vid=38e6ef45-b6a9-4a81-9c71-ad5e837699e2"},"vehicle_type_id":"4","last_reported":1731474561,"current_range_meters":22000,"station_id":"ce4bhq12rcd13ifvqhig","pricing_plan_id":"cebpf4jnsgd1na2vs0mg"},{"bike_id":"92e3ad17-17c9-4714-a148-ef9436ad6113","system_id":"levelo_inurba_marseille","lat":43.22931,"lon":5.35378,"is_reserved":false,"is_disabled":false,"rental_uris":{"android":"levelo://app?vid=92e3ad17-17c9-4714-a148-ef9436ad6113","ios":"levelo://app?vid=92e3ad17-17c9-4714-a148-ef9436ad6113"},"vehicle_type_id":"4","last_reported":1731474561,"current_range_meters":37600,"station_id":"cpo3532slgdg3j2ikp40","pricing_plan_id":"cebpf4jnsgd1na2vs0mg"},{"bike_id":"9bacccca-49f8-496a-9a7c-c9cd69142eba","system_id":"levelo_inurba_marseille","lat":43.28665,"lon":5.36355,"is_reserved":false,"is_disabled":false,"rental_uris":{"android":"levelo://app?vid=9bacccca-49f8-496a-9a7c-c9cd69142eba","ios":"levelo://app?vid=9bacccca-49f8-496a-9a7c-c9cd69142eba"},"vehicle_type_id":"4","last_reported":1731474561,"current_range_meters":23200,"station_id":"ce4bhah2rcd13ifvqej0","pricing_plan_id":"cebpf4jnsgd1na2vs0mg"},{"bike_id":"6b308b72-25f3-4dd8-b0bc-777a3d29c2d2","system_id":"levelo_inurba_marseille","lat":43.26951,"lon":5.38638,"is_reserved":false,"is_disabled":false,"rental_uris":{"android":"levelo://app?vid=6b308b72-25f3-4dd8-b0bc-777a3d29c2d2","ios":"levelo://app?vid=6b308b72-25f3-4dd8-b0bc-777a3d29c2d2"},"vehicle_type_id":"4","last_reported":1731474561,"current_range_meters":38400,"station_id":"ce4bhh92rcd13ifvqfh0","pricing_plan_id":"cebpf4jnsgd1na2vs0mg"},{"bike_id":"63cbcf04-1e31-4fa2-87d0-69167b5aed62","system_id":"levelo_inurba_marseille","lat":43.25576,"lon":5.38237,"is_reserved":false,"is_disabled":false,"rental_uris":{"android":"levelo://app?vid=63cbcf04-1e31-4fa2-87d0-69167b5aed62","ios":"levelo://app?vid=63cbcf04-1e31-4fa2-87d0-69167b5aed62"},"vehicle_type_id":"4","last_reported":1731474561,"current_range_meters":19200,"station_id":"ce4bhih2rcd13ifvqfs0","pricing_plan_id":"cebpf4jnsgd1na2vs0mg"},{"bike_id":"39a976e9-1c82-4599-8a44-b22c4f429e27","system_id":"levelo_inurba_marseille","lat":43.29901,"lon":5.43658,"is_reserved":false,"is_disabled":false,"rental_uris":{"android":"levelo://app?vid=39a976e9-1c82-4599-8a44-b22c4f429e27","ios":"levelo://app?vid=39a976e9-1c82-4599-8a44-b22c4f429e27"},"vehicle_type_id":"4","last_reported":1731474561,"current_range_meters":20400,"station_id":"ce4bhpp2rcd13ifvqhfg","pricing_plan_id":"cebpf4jnsgd1na2vs0mg"},{"bike_id":"9664b141-6303-4283-9f73-758f74fcbfe1","system_id":"levelo_inurba_marseille","lat":43.25002,"lon":5.38926,"is_reserved":false,"is_disabled":false,"rental_uris":{"android":"levelo://app?vid=9664b141-6303-4283-9f73-758f74fcbfe1","ios":"levelo://app?vid=9664b141-6303-4283-9f73-758f74fcbfe1"},"vehicle_type_id":"4","last_reported":1731474561,"current_range_meters":38800,"station_id":"ce4bhgp2rcd13ifvqfd0","pricing_plan_id":"cebpf4jnsgd1na2vs0mg"},{"bike_id":"19e31ca7-992c-4d7b-84eb-908a3a89072d","system_id":"levelo_inurba_marseille","lat":43.31075,"lon":5.38356,"is_reserved":false,"is_disabled":false,"rental_uris":{"android":"levelo://app?vid=19e31ca7-992c-4d7b-84eb-908a3a89072d","ios":"levelo://app?vid=19e31ca7-992c-4d7b-84eb-908a3a89072d"},"vehicle_type_id":"4","last_reported":1731474561,"current_range_meters":13600,"station_id":"ce4bgv92rcd13ifvqcr0","pricing_plan_id":"cebpf4jnsgd1na2vs0mg"},{"bike_id":"2ab8e388-dda2-4475-bcc9-742a5837870b","system_id":"levelo_inurba_marseille","lat":43.29556,"lon":5.42282,"is_reserved":false,"is_disabled":false,"rental_uris":{"android":"levelo://app?vid=2ab8e388-dda2-4475-bcc9-742a5837870b","ios":"levelo://app?vid=2ab8e388-dda2-4475-bcc9-742a5837870b"},"vehicle_type_id":"4","last_reported":1731474561,"current_range_meters":36400,"station_id":"ce4bhph2rcd13ifvqhdg","pricing_plan_id":"cebpf4jnsgd1na2vs0mg"},{"bike_id":"beb7b9bd-a544-4d0c-b0ee-a6204f3f5108","system_id":"levelo_inurba_marseille","lat":43.291962,"lon":5.385193,"is_reserved":false,"is_disabled":false,"rental_uris":{"android":"levelo://app?vid=beb7b9bd-a544-4d0c-b0ee-a6204f3f5108","ios":"levelo://app?vid=beb7b9bd-a544-4d0c-b0ee-a6204f3f5108"},"vehicle_type_id":"4","last_reported":1731474561,"current_range_meters":30400,"station_id":"","pricing_plan_id":"cebpf4jnsgd1na2vs0mg"},{"bike_id":"d86f647c-15b9-4edb-b84b-59f3332eddb4","system_id":"levelo_inurba_marseille","lat":43.30884,"lon":5.3964,"is_reserved":false,"is_disabled":false,"rental_uris":{"android":"levelo://app?vid=d86f647c-15b9-4edb-b84b-59f3332eddb4","ios":"levelo://app?vid=d86f647c-15b9-4edb-b84b-59f3332eddb4"},"vehicle_type_id":"4","last_reported":1731474561,"current_range_meters":37600,"station_id":"ce4bh012rcd13ifvqcv0","pricing_plan_id":"cebpf4jnsgd1na2vs0mg"},{"bike_id":"73a9d337-2042-4109-86a9-1922caa4694d","system_id":"levelo_inurba_marseille","lat":43.24649,"lon":5.38894,"is_reserved":false,"is_disabled":false,"rental_uris":{"android":"levelo://app?vid=73a9d337-2042-4109-86a9-1922caa4694d","ios":"levelo://app?vid=73a9d337-2042-4109-86a9-1922caa4694d"},"vehicle_type_id":"4","last_reported":1731474561,"current_range_meters":37600,"station_id":"ce4bhg12rcd13ifvqf60","pricing_plan_id":"cebpf4jnsgd1na2vs0mg"},{"bike_id":"208534d2-7af8-4838-b06a-c070d5e193aa","system_id":"levelo_inurba_marseille","lat":43.32032,"lon":5.41564,"is_reserved":false,"is_disabled":false,"rental_uris":{"android":"levelo://app?vid=208534d2-7af8-4838-b06a-c070d5e193aa","ios":"levelo://app?vid=208534d2-7af8-4838-b06a-c070d5e193aa"},"vehicle_type_id":"4","last_reported":1731474561,"current_range_meters":22400,"station_id":"ce4bhq92rcd13ifvqhkg","pricing_plan_id":"cebpf4jnsgd1na2vs0mg"},{"bike_id":"ed605eca-17b3-4c08-b963-25cf9b265c0a","system_id":"levelo_inurba_marseille","lat":43.318998,"lon":5.407314,"is_reserved":false,"is_disabled":false,"rental_uris":{"android":"levelo://app?vid=ed605eca-17b3-4c08-b963-25cf9b265c0a","ios":"levelo://app?vid=ed605eca-17b3-4c08-b963-25cf9b265c0a"},"vehicle_type_id":"4","last_reported":1731474561,"current_range_meters":12800,"station_id":"ce4bhq12rcd13ifvqhig","pricing_plan_id":"cebpf4jnsgd1na2vs0mg"},{"bike_id":"4f918989-fe15-4f0e-882d-67adcc49a7f1","system_id":"levelo_inurba_marseille","lat":43.29896,"lon":5.43658,"is_reserved":false,"is_disabled":false,"rental_uris":{"android":"levelo://app?vid=4f918989-fe15-4f0e-882d-67adcc49a7f1","ios":"levelo://app?vid=4f918989-fe15-4f0e-882d-67adcc49a7f1"},"vehicle_type_id":"4","last_reported":1731474561,"current_range_meters":18000,"station_id":"ce4bhpp2rcd13ifvqhfg","pricing_plan_id":"cebpf4jnsgd1na2vs0mg"},{"bike_id":"b3993e6e-7e11-4ba0-84be-f14a3079fb97","system_id":"levelo_inurba_marseille","lat":43.33604,"lon":5.41017,"is_reserved":false,"is_disabled":false,"rental_uris":{"android":"levelo://app?vid=b3993e6e-7e11-4ba0-84be-f14a3079fb97","ios":"levelo://app?vid=b3993e6e-7e11-4ba0-84be-f14a3079fb97"},"vehicle_type_id":"4","last_reported":1731474561,"current_range_meters":8000,"station_id":"ce4bhqh2rcd13ifvqhmg","pricing_plan_id":"cebpf4jnsgd1na2vs0mg"},{"bike_id":"c3ec8510-9edb-44b1-8bc8-fd71493340d4","system_id":"levelo_inurba_marseille","lat":43.29794,"lon":5.39353,"is_reserved":false,"is_disabled":false,"rental_uris":{"android":"levelo://app?vid=c3ec8510-9edb-44b1-8bc8-fd71493340d4","ios":"levelo://app?vid=c3ec8510-9edb-44b1-8bc8-fd71493340d4"},"vehicle_type_id":"4","last_reported":1731474561,"current_range_meters":22000,"station_id":"chh1huq6cuj3fo74tm60","pricing_plan_id":"cebpf4jnsgd1na2vs0mg"},{"bike_id":"91076ab9-82ea-40b7-801f-5afeb5c55851","system_id":"levelo_inurba_marseille","lat":43.231906,"lon":5.399835,"is_reserved":false,"is_disabled":false,"rental_uris":{"android":"levelo://app?vid=91076ab9-82ea-40b7-801f-5afeb5c55851","ios":"levelo://app?vid=91076ab9-82ea-40b7-801f-5afeb5c55851"},"vehicle_type_id":"4","last_reported":1731474561,"current_range_meters":16800,"station_id":"ce4bhn12rcd13ifvqgqg","pricing_plan_id":"cebpf4jnsgd1na2vs0mg"},{"bike_id":"a5ba3d88-d01f-4248-b1bd-a073983ea683","system_id":"levelo_inurba_marseille","lat":43.31527,"lon":5.38045,"is_reserved":false,"is_disabled":false,"rental_uris":{"android":"levelo://app?vid=a5ba3d88-d01f-4248-b1bd-a073983ea683","ios":"levelo://app?vid=a5ba3d88-d01f-4248-b1bd-a073983ea683"},"vehicle_type_id":"4","last_reported":1731474561,"current_range_meters":29600,"station_id":"ce4bhsp2rcd13ifvqi50","pricing_plan_id":"cebpf4jnsgd1na2vs0mg"},{"bike_id":"a3c778ed-9bf1-45df-9980-34f9168a80df","system_id":"levelo_inurba_marseille","lat":43.25867,"lon":5.39898,"is_reserved":false,"is_disabled":false,"rental_uris":{"android":"levelo://app?vid=a3c778ed-9bf1-45df-9980-34f9168a80df","ios":"levelo://app?vid=a3c778ed-9bf1-45df-9980-34f9168a80df"},"vehicle_type_id":"4","last_reported":1731474561,"current_range_meters":16800,"station_id":"ce4bhl92rcd13ifvqghg","pricing_plan_id":"cebpf4jnsgd1na2vs0mg"},{"bike_id":"c99af160-dabe-44fa-ae12-5817ebbb7bb9","system_id":"levelo_inurba_marseille","lat":43.27068,"lon":5.42269,"is_reserved":false,"is_disabled":false,"rental_uris":{"android":"levelo://app?vid=c99af160-dabe-44fa-ae12-5817ebbb7bb9","ios":"levelo://app?vid=c99af160-dabe-44fa-ae12-5817ebbb7bb9"},"vehicle_type_id":"4","last_reported":1731474561,"current_range_meters":38000,"station_id":"ce4bhk92rcd13ifvqgb0","pricing_plan_id":"cebpf4jnsgd1na2vs0mg"},{"bike_id":"8945f195-b1ca-4299-9d59-a77eaf1a01f4","system_id":"levelo_inurba_marseille","lat":43.30798,"lon":5.43522,"is_reserved":false,"is_disabled":false,"rental_uris":{"android":"levelo://app?vid=8945f195-b1ca-4299-9d59-a77eaf1a01f4","ios":"levelo://app?vid=8945f195-b1ca-4299-9d59-a77eaf1a01f4"},"vehicle_type_id":"4","last_reported":1731474561,"current_range_meters":38400,"station_id":"ce4bhph2rcd13ifvqheg","pricing_plan_id":"cebpf4jnsgd1na2vs0mg"},{"bike_id":"36c8a7d6-d4bd-4f8f-821d-a173e36e09c8","system_id":"levelo_inurba_marseille","lat":43.3065,"lon":5.40079,"is_reserved":false,"is_disabled":false,"rental_uris":{"android":"levelo://app?vid=36c8a7d6-d4bd-4f8f-821d-a173e36e09c8","ios":"levelo://app?vid=36c8a7d6-d4bd-4f8f-821d-a173e36e09c8"},"vehicle_type_id":"4","last_reported":1731474561,"current_range_meters":31200,"station_id":"ce4bh112rcd13ifvqda0","pricing_plan_id":"cebpf4jnsgd1na2vs0mg"},{"bike_id":"4a491d98-8642-4340-b24b-896dba0b8ddc","system_id":"levelo_inurba_marseille","lat":43.286686,"lon":5.363538,"is_reserved":false,"is_disabled":false,"rental_uris":{"android":"levelo://app?vid=4a491d98-8642-4340-b24b-896dba0b8ddc","ios":"levelo://app?vid=4a491d98-8642-4340-b24b-896dba0b8ddc"},"vehicle_type_id":"4","last_reported":1731474561,"current_range_meters":38800,"station_id":"ce4bhah2rcd13ifvqej0","pricing_plan_id":"cebpf4jnsgd1na2vs0mg"},{"bike_id":"e63c1845-336e-4461-ad33-2c3d2a63f56a","system_id":"levelo_inurba_marseille","lat":43.30884,"lon":5.39618,"is_reserved":false,"is_disabled":false,"rental_uris":{"android":"levelo://app?vid=e63c1845-336e-4461-ad33-2c3d2a63f56a","ios":"levelo://app?vid=e63c1845-336e-4461-ad33-2c3d2a63f56a"},"vehicle_type_id":"4","last_reported":1731474561,"current_range_meters":38800,"station_id":"ce4bh012rcd13ifvqcv0","pricing_plan_id":"cebpf4jnsgd1na2vs0mg"},{"bike_id":"512a0761-1528-4064-9759-08f157c14883","system_id":"levelo_inurba_marseille","lat":43.33026,"lon":5.39044,"is_reserved":false,"is_disabled":false,"rental_uris":{"android":"levelo://app?vid=512a0761-1528-4064-9759-08f157c14883","ios":"levelo://app?vid=512a0761-1528-4064-9759-08f157c14883"},"vehicle_type_id":"4","last_reported":1731474561,"current_range_meters":23200,"station_id":"ce4bhr92rcd13ifvqhrg","pricing_plan_id":"cebpf4jnsgd1na2vs0mg"},{"bike_id":"ebad3fe3-45c6-49ab-a9a7-bd5380241ddd","system_id":"levelo_inurba_marseille","lat":43.2707,"lon":5.42277,"is_reserved":false,"is_disabled":false,"rental_uris":{"android":"levelo://app?vid=ebad3fe3-45c6-49ab-a9a7-bd5380241ddd","ios":"levelo://app?vid=ebad3fe3-45c6-49ab-a9a7-bd5380241ddd"},"vehicle_type_id":"4","last_reported":1731474561,"current_range_meters":28000,"station_id":"ce4bhk92rcd13ifvqgb0","pricing_plan_id":"cebpf4jnsgd1na2vs0mg"},{"bike_id":"1bab21ee-41e8-40f5-9a71-6172685d33f9","system_id":"levelo_inurba_marseille","lat":43.25868,"lon":5.39901,"is_reserved":false,"is_disabled":false,"rental_uris":{"android":"levelo://app?vid=1bab21ee-41e8-40f5-9a71-6172685d33f9","ios":"levelo://app?vid=1bab21ee-41e8-40f5-9a71-6172685d33f9"},"vehicle_type_id":"4","last_reported":1731474561,"current_range_meters":29600,"station_id":"ce4bhl92rcd13ifvqghg","pricing_plan_id":"cebpf4jnsgd1na2vs0mg"},{"bike_id":"8f87e43e-06af-433f-b940-bc799e876f21","system_id":"levelo_inurba_marseille","lat":43.32659,"lon":5.40987,"is_reserved":false,"is_disabled":false,"rental_uris":{"android":"levelo://app?vid=8f87e43e-06af-433f-b940-bc799e876f21","ios":"levelo://app?vid=8f87e43e-06af-433f-b940-bc799e876f21"},"vehicle_type_id":"4","last_reported":1731474561,"current_range_meters":22800,"station_id":"ce4bhpp2rcd13ifvqhgg","pricing_plan_id":"cebpf4jnsgd1na2vs0mg"},{"bike_id":"3d8cceee-e8ae-48df-9d20-ed8626b0c570","system_id":"levelo_inurba_marseille","lat":43.33016,"lon":5.39029,"is_reserved":false,"is_disabled":false,"rental_uris":{"android":"levelo://app?vid=3d8cceee-e8ae-48df-9d20-ed8626b0c570","ios":"levelo://app?vid=3d8cceee-e8ae-48df-9d20-ed8626b0c570"},"vehicle_type_id":"4","last_reported":1731474561,"current_range_meters":35600,"station_id":"ce4bhr92rcd13ifvqhrg","pricing_plan_id":"cebpf4jnsgd1na2vs0mg"},{"bike_id":"695c2c09-1089-4d9e-9f97-23def7554acc","system_id":"levelo_inurba_marseille","lat":43.31109,"lon":5.3777,"is_reserved":false,"is_disabled":false,"rental_uris":{"android":"levelo://app?vid=695c2c09-1089-4d9e-9f97-23def7554acc","ios":"levelo://app?vid=695c2c09-1089-4d9e-9f97-23def7554acc"},"vehicle_type_id":"4","last_reported":1731474561,"current_range_meters":30400,"station_id":"ce4bgt92rcd13ifvqcg0","pricing_plan_id":"cebpf4jnsgd1na2vs0mg"},{"bike_id":"8f01e84c-b0a3-44be-9fc9-dd8a5aa4756b","system_id":"levelo_inurba_marseille","lat":43.24808,"lon":5.37453,"is_reserved":false,"is_disabled":false,"rental_uris":{"android":"levelo://app?vid=8f01e84c-b0a3-44be-9fc9-dd8a5aa4756b","ios":"levelo://app?vid=8f01e84c-b0a3-44be-9fc9-dd8a5aa4756b"},"vehicle_type_id":"4","last_reported":1731474561,"current_range_meters":8400,"station_id":"ce4bhgh2rcd13ifvqfb0","pricing_plan_id":"cebpf4jnsgd1na2vs0mg"},{"bike_id":"5d402631-1f85-4d78-9928-f320bbddb677","system_id":"levelo_inurba_marseille","lat":43.23193,"lon":5.39992,"is_reserved":false,"is_disabled":false,"rental_uris":{"android":"levelo://app?vid=5d402631-1f85-4d78-9928-f320bbddb677","ios":"levelo://app?vid=5d402631-1f85-4d78-9928-f320bbddb677"},"vehicle_type_id":"4","last_reported":1731474561,"current_range_meters":25600,"station_id":"ce4bhn12rcd13ifvqgqg","pricing_plan_id":"cebpf4jnsgd1na2vs0mg"},{"bike_id":"114e274c-0f3e-4f8b-96eb-4ad086762899","system_id":"levelo_inurba_marseille","lat":43.28102,"lon":5.37851,"is_reserved":false,"is_disabled":false,"rental_uris":{"android":"levelo://app?vid=114e274c-0f3e-4f8b-96eb-4ad086762899","ios":"levelo://app?vid=114e274c-0f3e-4f8b-96eb-4ad086762899"},"vehicle_type_id":"4","last_reported":1731474561,"current_range_meters":33600,"station_id":"ce4bha12rcd13ifvqee0","pricing_plan_id":"cebpf4jnsgd1na2vs0mg"},{"bike_id":"36367b8e-b3a7-42c5-b8ba-4fe0666a3445","system_id":"levelo_inurba_marseille","lat":43.30936,"lon":5.40138,"is_reserved":false,"is_disabled":false,"rental_uris":{"android":"levelo://app?vid=36367b8e-b3a7-42c5-b8ba-4fe0666a3445","ios":"levelo://app?vid=36367b8e-b3a7-42c5-b8ba-4fe0666a3445"},"vehicle_type_id":"4","last_reported":1731474561,"current_range_meters":38800,"station_id":"ce4bgvp2rcd13ifvqct0","pricing_plan_id":"cebpf4jnsgd1na2vs0mg"},{"bike_id":"77ab44b7-4460-4a96-b6d3-a90ea09f2ced","system_id":"levelo_inurba_marseille","lat":43.2396,"lon":5.36625,"is_reserved":false,"is_disabled":false,"rental_uris":{"android":"levelo://app?vid=77ab44b7-4460-4a96-b6d3-a90ea09f2ced","ios":"levelo://app?vid=77ab44b7-4460-4a96-b6d3-a90ea09f2ced"},"vehicle_type_id":"4","last_reported":1731474561,"current_range_meters":34800,"station_id":"ce4bhi12rcd13ifvqfp0","pricing_plan_id":"cebpf4jnsgd1na2vs0mg"},{"bike_id":"4870928e-44a2-4029-bc24-eeb9973318a6","system_id":"levelo_inurba_marseille","lat":43.2783,"lon":5.39204,"is_reserved":false,"is_disabled":false,"rental_uris":{"android":"levelo://app?vid=4870928e-44a2-4029-bc24-eeb9973318a6","ios":"levelo://app?vid=4870928e-44a2-4029-bc24-eeb9973318a6"},"vehicle_type_id":"4","last_reported":1731474561,"current_range_meters":37600,"station_id":"ce4bhjp2rcd13ifvqga0","pricing_plan_id":"cebpf4jnsgd1na2vs0mg"},{"bike_id":"246f50e6-68e8-4acc-8bb0-0f71a70e703d","system_id":"levelo_inurba_marseille","lat":43.28454,"lon":5.35897,"is_reserved":false,"is_disabled":false,"rental_uris":{"android":"levelo://app?vid=246f50e6-68e8-4acc-8bb0-0f71a70e703d","ios":"levelo://app?vid=246f50e6-68e8-4acc-8bb0-0f71a70e703d"},"vehicle_type_id":"4","last_reported":1731474561,"current_range_meters":34000,"station_id":"ce4bhah2rcd13ifvqei0","pricing_plan_id":"cebpf4jnsgd1na2vs0mg"},{"bike_id":"00f74d2b-6acb-4e23-a81f-f1cb856c5027","system_id":"levelo_inurba_marseille","lat":43.281051,"lon":5.378397,"is_reserved":false,"is_disabled":false,"rental_uris":{"android":"levelo://app?vid=00f74d2b-6acb-4e23-a81f-f1cb856c5027","ios":"levelo://app?vid=00f74d2b-6acb-4e23-a81f-f1cb856c5027"},"vehicle_type_id":"4","last_reported":1731474561,"current_range_meters":39200,"station_id":"ce4bha12rcd13ifvqee0","pricing_plan_id":"cebpf4jnsgd1na2vs0mg"},{"bike_id":"bf2b33f9-2d4f-44b1-b8c3-aa3a48c59551","system_id":"levelo_inurba_marseille","lat":43.33025,"lon":5.39043,"is_reserved":false,"is_disabled":false,"rental_uris":{"android":"levelo://app?vid=bf2b33f9-2d4f-44b1-b8c3-aa3a48c59551","ios":"levelo://app?vid=bf2b33f9-2d4f-44b1-b8c3-aa3a48c59551"},"vehicle_type_id":"4","last_reported":1731474561,"current_range_meters":16000,"station_id":"ce4bhr92rcd13ifvqhrg","pricing_plan_id":"cebpf4jnsgd1na2vs0mg"},{"bike_id":"90518d61-8f8c-4ad2-a083-e74f0f99237a","system_id":"levelo_inurba_marseille","lat":43.279018,"lon":5.380132,"is_reserved":false,"is_disabled":false,"rental_uris":{"android":"levelo://app?vid=90518d61-8f8c-4ad2-a083-e74f0f99237a","ios":"levelo://app?vid=90518d61-8f8c-4ad2-a083-e74f0f99237a"},"vehicle_type_id":"4","last_reported":1731474561,"current_range_meters":38000,"station_id":"ce4bhf92rcd13ifvqf50","pricing_plan_id":"cebpf4jnsgd1na2vs0mg"},{"bike_id":"aa379889-9a08-4540-9e9b-0eb67bd3cc6c","system_id":"levelo_inurba_marseille","lat":43.28404,"lon":5.37523,"is_reserved":false,"is_disabled":false,"rental_uris":{"android":"levelo://app?vid=aa379889-9a08-4540-9e9b-0eb67bd3cc6c","ios":"levelo://app?vid=aa379889-9a08-4540-9e9b-0eb67bd3cc6c"},"vehicle_type_id":"4","last_reported":1731474561,"current_range_meters":28800,"station_id":"ce4bh412rcd13ifvqds0","pricing_plan_id":"cebpf4jnsgd1na2vs0mg"},{"bike_id":"3e3a42bf-b3c6-42bf-b2be-ce56e1540539","system_id":"levelo_inurba_marseille","lat":43.319944,"lon":5.381511,"is_reserved":false,"is_disabled":false,"rental_uris":{"android":"levelo://app?vid=3e3a42bf-b3c6-42bf-b2be-ce56e1540539","ios":"levelo://app?vid=3e3a42bf-b3c6-42bf-b2be-ce56e1540539"},"vehicle_type_id":"4","last_reported":1731474561,"current_range_meters":39200,"station_id":"ce4bhr12rcd13ifvqhpg","pricing_plan_id":"cebpf4jnsgd1na2vs0mg"},{"bike_id":"5e96f609-2d16-41e9-86d3-411db3ae9987","system_id":"levelo_inurba_marseille","lat":43.33608,"lon":5.41033,"is_reserved":false,"is_disabled":false,"rental_uris":{"android":"levelo://app?vid=5e96f609-2d16-41e9-86d3-411db3ae9987","ios":"levelo://app?vid=5e96f609-2d16-41e9-86d3-411db3ae9987"},"vehicle_type_id":"4","last_reported":1731474561,"current_range_meters":8800,"station_id":"ce4bhqh2rcd13ifvqhmg","pricing_plan_id":"cebpf4jnsgd1na2vs0mg"},{"bike_id":"039a8c79-ef7c-4e8f-acbc-e1afdc270b50","system_id":"levelo_inurba_marseille","lat":43.31174,"lon":5.38703,"is_reserved":false,"is_disabled":false,"rental_uris":{"android":"levelo://app?vid=039a8c79-ef7c-4e8f-acbc-e1afdc270b50","ios":"levelo://app?vid=039a8c79-ef7c-4e8f-acbc-e1afdc270b50"},"vehicle_type_id":"4","last_reported":1731474561,"current_range_meters":38800,"station_id":"ce4bgv12rcd13ifvqcp0","pricing_plan_id":"cebpf4jnsgd1na2vs0mg"},{"bike_id":"4c00cd2d-aead-4259-a5d2-aa341dd13836","system_id":"levelo_inurba_marseille","lat":43.26681,"lon":5.38259,"is_reserved":false,"is_disabled":false,"rental_uris":{"android":"levelo://app?vid=4c00cd2d-aead-4259-a5d2-aa341dd13836","ios":"levelo://app?vid=4c00cd2d-aead-4259-a5d2-aa341dd13836"},"vehicle_type_id":"4","last_reported":1731474561,"current_range_meters":38400,"station_id":"ce4bhg92rcd13ifvqf90","pricing_plan_id":"cebpf4jnsgd1na2vs0mg"},{"bike_id":"b21cee28-83ac-4610-925f-3938dbc97231","system_id":"levelo_inurba_marseille","lat":43.30808,"lon":5.38154,"is_reserved":false,"is_disabled":false,"rental_uris":{"android":"levelo://app?vid=b21cee28-83ac-4610-925f-3938dbc97231","ios":"levelo://app?vid=b21cee28-83ac-4610-925f-3938dbc97231"},"vehicle_type_id":"4","last_reported":1731474561,"current_range_meters":38800,"station_id":"ce4bgt12rcd13ifvqce0","pricing_plan_id":"cebpf4jnsgd1na2vs0mg"},{"bike_id":"cffbb29e-4fd3-424f-9cf2-b211bf8998e0","system_id":"levelo_inurba_marseille","lat":43.24666,"lon":5.38153,"is_reserved":false,"is_disabled":false,"rental_uris":{"android":"levelo://app?vid=cffbb29e-4fd3-424f-9cf2-b211bf8998e0","ios":"levelo://app?vid=cffbb29e-4fd3-424f-9cf2-b211bf8998e0"},"vehicle_type_id":"4","last_reported":1731474561,"current_range_meters":22400,"station_id":"ce4bhih2rcd13ifvqfr0","pricing_plan_id":"cebpf4jnsgd1na2vs0mg"},{"bike_id":"50b544d6-676d-4fe2-9fde-f0d1a0bbb65b","system_id":"levelo_inurba_marseille","lat":43.27816,"lon":5.39209,"is_reserved":false,"is_disabled":false,"rental_uris":{"android":"levelo://app?vid=50b544d6-676d-4fe2-9fde-f0d1a0bbb65b","ios":"levelo://app?vid=50b544d6-676d-4fe2-9fde-f0d1a0bbb65b"},"vehicle_type_id":"4","last_reported":1731474561,"current_range_meters":37600,"station_id":"ce4bhjp2rcd13ifvqga0","pricing_plan_id":"cebpf4jnsgd1na2vs0mg"},{"bike_id":"74dd555f-d990-4161-8821-256a7113cb7a","system_id":"levelo_inurba_marseille","lat":43.27813,"lon":5.40712,"is_reserved":false,"is_disabled":false,"rental_uris":{"android":"levelo://app?vid=74dd555f-d990-4161-8821-256a7113cb7a","ios":"levelo://app?vid=74dd555f-d990-4161-8821-256a7113cb7a"},"vehicle_type_id":"4","last_reported":1731474561,"current_range_meters":38000,"station_id":"ce4bhnh2rcd13ifvqgtg","pricing_plan_id":"cebpf4jnsgd1na2vs0mg"},{"bike_id":"c2197f6c-d4b1-4f0b-8f61-c66d936ca104","system_id":"levelo_inurba_marseille","lat":43.27904,"lon":5.39591,"is_reserved":false,"is_disabled":false,"rental_uris":{"android":"levelo://app?vid=c2197f6c-d4b1-4f0b-8f61-c66d936ca104","ios":"levelo://app?vid=c2197f6c-d4b1-4f0b-8f61-c66d936ca104"},"vehicle_type_id":"4","last_reported":1731474561,"current_range_meters":32400,"station_id":"ce4bhf92rcd13ifvqf40","pricing_plan_id":"cebpf4jnsgd1na2vs0mg"},{"bike_id":"1bf67a02-4bcf-4a9b-acae-64c9fe0ff24e","system_id":"levelo_inurba_marseille","lat":43.28424,"lon":5.34988,"is_reserved":false,"is_disabled":false,"rental_uris":{"android":"levelo://app?vid=1bf67a02-4bcf-4a9b-acae-64c9fe0ff24e","ios":"levelo://app?vid=1bf67a02-4bcf-4a9b-acae-64c9fe0ff24e"},"vehicle_type_id":"4","last_reported":1731474561,"current_range_meters":35600,"station_id":"ce4bhbh2rcd13ifvqepg","pricing_plan_id":"cebpf4jnsgd1na2vs0mg"},{"bike_id":"ed074c27-68ed-4b64-ade9-a1c0951544b9","system_id":"levelo_inurba_marseille","lat":43.278125,"lon":5.407069,"is_reserved":false,"is_disabled":false,"rental_uris":{"android":"levelo://app?vid=ed074c27-68ed-4b64-ade9-a1c0951544b9","ios":"levelo://app?vid=ed074c27-68ed-4b64-ade9-a1c0951544b9"},"vehicle_type_id":"4","last_reported":1731474561,"current_range_meters":35600,"station_id":"ce4bhnh2rcd13ifvqgtg","pricing_plan_id":"cebpf4jnsgd1na2vs0mg"},{"bike_id":"c42b3bc2-7ca9-4447-970a-c1840dc44355","system_id":"levelo_inurba_marseille","lat":43.30792,"lon":5.38151,"is_reserved":false,"is_disabled":false,"rental_uris":{"android":"levelo://app?vid=c42b3bc2-7ca9-4447-970a-c1840dc44355","ios":"levelo://app?vid=c42b3bc2-7ca9-4447-970a-c1840dc44355"},"vehicle_type_id":"4","last_reported":1731474561,"current_range_meters":32800,"station_id":"ce4bgt12rcd13ifvqce0","pricing_plan_id":"cebpf4jnsgd1na2vs0mg"},{"bike_id":"cc492924-0ef3-4a0c-b075-c6b795e6469b","system_id":"levelo_inurba_marseille","lat":43.29871,"lon":5.39743,"is_reserved":false,"is_disabled":false,"rental_uris":{"android":"levelo://app?vid=cc492924-0ef3-4a0c-b075-c6b795e6469b","ios":"levelo://app?vid=cc492924-0ef3-4a0c-b075-c6b795e6469b"},"vehicle_type_id":"4","last_reported":1731474561,"current_range_meters":36800,"station_id":"ce4bh0h2rcd13ifvqd50","pricing_plan_id":"cebpf4jnsgd1na2vs0mg"},{"bike_id":"58e12413-d879-4dff-a084-333be006c499","system_id":"levelo_inurba_marseille","lat":43.295552,"lon":5.422782,"is_reserved":false,"is_disabled":false,"rental_uris":{"android":"levelo://app?vid=58e12413-d879-4dff-a084-333be006c499","ios":"levelo://app?vid=58e12413-d879-4dff-a084-333be006c499"},"vehicle_type_id":"4","last_reported":1731474561,"current_range_meters":32000,"station_id":"ce4bhph2rcd13ifvqhdg","pricing_plan_id":"cebpf4jnsgd1na2vs0mg"},{"bike_id":"872e9bd9-2aeb-47c4-bd84-5df74e354438","system_id":"levelo_inurba_marseille","lat":43.30241,"lon":5.40052,"is_reserved":false,"is_disabled":false,"rental_uris":{"android":"levelo://app?vid=872e9bd9-2aeb-47c4-bd84-5df74e354438","ios":"levelo://app?vid=872e9bd9-2aeb-47c4-bd84-5df74e354438"},"vehicle_type_id":"4","last_reported":1731474561,"current_range_meters":38000,"station_id":"ce4bgvh2rcd13ifvqcs0","pricing_plan_id":"cebpf4jnsgd1na2vs0mg"},{"bike_id":"9fe51d15-d9cd-42d5-a70f-2e5cb72527e5","system_id":"levelo_inurba_marseille","lat":43.27837,"lon":5.39211,"is_reserved":false,"is_disabled":false,"rental_uris":{"android":"levelo://app?vid=9fe51d15-d9cd-42d5-a70f-2e5cb72527e5","ios":"levelo://app?vid=9fe51d15-d9cd-42d5-a70f-2e5cb72527e5"},"vehicle_type_id":"4","last_reported":1731474561,"current_range_meters":30000,"station_id":"ce4bhjp2rcd13ifvqga0","pricing_plan_id":"cebpf4jnsgd1na2vs0mg"},{"bike_id":"edf128dc-003a-4d87-8758-b309a9785f35","system_id":"levelo_inurba_marseille","lat":43.30949,"lon":5.39036,"is_reserved":false,"is_disabled":false,"rental_uris":{"android":"levelo://app?vid=edf128dc-003a-4d87-8758-b309a9785f35","ios":"levelo://app?vid=edf128dc-003a-4d87-8758-b309a9785f35"},"vehicle_type_id":"4","last_reported":1731474561,"current_range_meters":38800,"station_id":"ce4bgup2rcd13ifvqco0","pricing_plan_id":"cebpf4jnsgd1na2vs0mg"},{"bike_id":"303f2abc-f744-4dcc-8479-c7f04ef55c28","system_id":"levelo_inurba_marseille","lat":43.22929,"lon":5.35373,"is_reserved":false,"is_disabled":false,"rental_uris":{"android":"levelo://app?vid=303f2abc-f744-4dcc-8479-c7f04ef55c28","ios":"levelo://app?vid=303f2abc-f744-4dcc-8479-c7f04ef55c28"},"vehicle_type_id":"4","last_reported":1731474561,"current_range_meters":29600,"station_id":"cpo3532slgdg3j2ikp40","pricing_plan_id":"cebpf4jnsgd1na2vs0mg"},{"bike_id":"be2f3a50-6a5c-4786-b0da-85b9471246b3","system_id":"levelo_inurba_marseille","lat":43.32095,"lon":5.36792,"is_reserved":false,"is_disabled":false,"rental_uris":{"android":"levelo://app?vid=be2f3a50-6a5c-4786-b0da-85b9471246b3","ios":"levelo://app?vid=be2f3a50-6a5c-4786-b0da-85b9471246b3"},"vehicle_type_id":"4","last_reported":1731474561,"current_range_meters":30400,"station_id":"ce4bhrh2rcd13ifvqhug","pricing_plan_id":"cebpf4jnsgd1na2vs0mg"},{"bike_id":"c602d1ec-c41e-4746-a698-98daccb692c3","system_id":"levelo_inurba_marseille","lat":43.31528,"lon":5.38034,"is_reserved":false,"is_disabled":false,"rental_uris":{"android":"levelo://app?vid=c602d1ec-c41e-4746-a698-98daccb692c3","ios":"levelo://app?vid=c602d1ec-c41e-4746-a698-98daccb692c3"},"vehicle_type_id":"4","last_reported":1731474561,"current_range_meters":38800,"station_id":"ce4bhsp2rcd13ifvqi50","pricing_plan_id":"cebpf4jnsgd1na2vs0mg"},{"bike_id":"d7f54cf3-922c-47e4-8b4b-0a8e62f2a76a","system_id":"levelo_inurba_marseille","lat":43.311712,"lon":5.387184,"is_reserved":false,"is_disabled":false,"rental_uris":{"android":"levelo://app?vid=d7f54cf3-922c-47e4-8b4b-0a8e62f2a76a","ios":"levelo://app?vid=d7f54cf3-922c-47e4-8b4b-0a8e62f2a76a"},"vehicle_type_id":"4","last_reported":1731474561,"current_range_meters":27200,"station_id":"ce4bgv12rcd13ifvqcp0","pricing_plan_id":"cebpf4jnsgd1na2vs0mg"},{"bike_id":"6a74bd13-2f0d-4293-a500-24db67983d5b","system_id":"levelo_inurba_marseille","lat":43.23068,"lon":5.35491,"is_reserved":false,"is_disabled":false,"rental_uris":{"android":"levelo://app?vid=6a74bd13-2f0d-4293-a500-24db67983d5b","ios":"levelo://app?vid=6a74bd13-2f0d-4293-a500-24db67983d5b"},"vehicle_type_id":"4","last_reported":1731474561,"current_range_meters":37600,"station_id":"cpo3342slgdg3j2ifvpg","pricing_plan_id":"cebpf4jnsgd1na2vs0mg"},{"bike_id":"c15ca10a-bf88-46e0-8790-86ecbdd3cd4b","system_id":"levelo_inurba_marseille","lat":43.25826,"lon":5.3943,"is_reserved":false,"is_disabled":false,"rental_uris":{"android":"levelo://app?vid=c15ca10a-bf88-46e0-8790-86ecbdd3cd4b","ios":"levelo://app?vid=c15ca10a-bf88-46e0-8790-86ecbdd3cd4b"},"vehicle_type_id":"4","last_reported":1731474561,"current_range_meters":24000,"station_id":"ce4bhip2rcd13ifvqft0","pricing_plan_id":"cebpf4jnsgd1na2vs0mg"},{"bike_id":"b2cd31f9-8d9e-443d-a20c-8f82c548beaa","system_id":"levelo_inurba_marseille","lat":43.30885,"lon":5.39652,"is_reserved":false,"is_disabled":false,"rental_uris":{"android":"levelo://app?vid=b2cd31f9-8d9e-443d-a20c-8f82c548beaa","ios":"levelo://app?vid=b2cd31f9-8d9e-443d-a20c-8f82c548beaa"},"vehicle_type_id":"4","last_reported":1731474561,"current_range_meters":7200,"station_id":"ce4bh012rcd13ifvqcv0","pricing_plan_id":"cebpf4jnsgd1na2vs0mg"},{"bike_id":"dfcbbd1a-2cc4-4e64-ae53-43a40d827320","system_id":"levelo_inurba_marseille","lat":43.2955,"lon":5.42283,"is_reserved":false,"is_disabled":false,"rental_uris":{"android":"levelo://app?vid=dfcbbd1a-2cc4-4e64-ae53-43a40d827320","ios":"levelo://app?vid=dfcbbd1a-2cc4-4e64-ae53-43a40d827320"},"vehicle_type_id":"4","last_reported":1731474561,"current_range_meters":24800,"station_id":"ce4bhph2rcd13ifvqhdg","pricing_plan_id":"cebpf4jnsgd1na2vs0mg"},{"bike_id":"d787fdbc-2425-4a63-b3d8-df1deadb860c","system_id":"levelo_inurba_marseille","lat":43.30254,"lon":5.40059,"is_reserved":false,"is_disabled":false,"rental_uris":{"android":"levelo://app?vid=d787fdbc-2425-4a63-b3d8-df1deadb860c","ios":"levelo://app?vid=d787fdbc-2425-4a63-b3d8-df1deadb860c"},"vehicle_type_id":"4","last_reported":1731474561,"current_range_meters":26000,"station_id":"ce4bgvh2rcd13ifvqcs0","pricing_plan_id":"cebpf4jnsgd1na2vs0mg"},{"bike_id":"a2a546f0-e8f6-4604-a35c-bdf7b4d3ebe5","system_id":"levelo_inurba_marseille","lat":43.32357,"lon":5.38892,"is_reserved":false,"is_disabled":false,"rental_uris":{"android":"levelo://app?vid=a2a546f0-e8f6-4604-a35c-bdf7b4d3ebe5","ios":"levelo://app?vid=a2a546f0-e8f6-4604-a35c-bdf7b4d3ebe5"},"vehicle_type_id":"4","last_reported":1731474561,"current_range_meters":6800,"station_id":"ce4bhqp2rcd13ifvqhog","pricing_plan_id":"cebpf4jnsgd1na2vs0mg"},{"bike_id":"89e10fd0-973c-4a11-b8a0-7316e818d8d4","system_id":"levelo_inurba_marseille","lat":43.31489,"lon":5.37302,"is_reserved":false,"is_disabled":false,"rental_uris":{"android":"levelo://app?vid=89e10fd0-973c-4a11-b8a0-7316e818d8d4","ios":"levelo://app?vid=89e10fd0-973c-4a11-b8a0-7316e818d8d4"},"vehicle_type_id":"4","last_reported":1731474561,"current_range_meters":38800,"station_id":"ce4bgt12rcd13ifvqcd0","pricing_plan_id":"cebpf4jnsgd1na2vs0mg"},{"bike_id":"dd24b8ab-238a-4626-b288-5e467d65bc0f","system_id":"levelo_inurba_marseille","lat":43.30139,"lon":5.37426,"is_reserved":false,"is_disabled":false,"rental_uris":{"android":"levelo://app?vid=dd24b8ab-238a-4626-b288-5e467d65bc0f","ios":"levelo://app?vid=dd24b8ab-238a-4626-b288-5e467d65bc0f"},"vehicle_type_id":"4","last_reported":1731474561,"current_range_meters":20000,"station_id":"ce4bgs92rcd13ifvqcc0","pricing_plan_id":"cebpf4jnsgd1na2vs0mg"},{"bike_id":"0e89673d-2185-420f-af03-d23a02ac87a5","system_id":"levelo_inurba_marseille","lat":43.32481,"lon":5.36574,"is_reserved":false,"is_disabled":false,"rental_uris":{"android":"levelo://app?vid=0e89673d-2185-420f-af03-d23a02ac87a5","ios":"levelo://app?vid=0e89673d-2185-420f-af03-d23a02ac87a5"},"vehicle_type_id":"4","last_reported":1731474561,"current_range_meters":34000,"station_id":"ce4bhs12rcd13ifvqhvg","pricing_plan_id":"cebpf4jnsgd1na2vs0mg"},{"bike_id":"bd170cfe-2377-4446-a7f1-2b958022472f","system_id":"levelo_inurba_marseille","lat":43.313247,"lon":5.396901,"is_reserved":false,"is_disabled":false,"rental_uris":{"android":"levelo://app?vid=bd170cfe-2377-4446-a7f1-2b958022472f","ios":"levelo://app?vid=bd170cfe-2377-4446-a7f1-2b958022472f"},"vehicle_type_id":"4","last_reported":1731474561,"current_range_meters":28800,"station_id":"ce4bgvp2rcd13ifvqcu0","pricing_plan_id":"cebpf4jnsgd1na2vs0mg"},{"bike_id":"feee828b-d5e6-47c3-ae30-bd0cedebbaf5","system_id":"levelo_inurba_marseille","lat":43.30543,"lon":5.36527,"is_reserved":false,"is_disabled":false,"rental_uris":{"android":"levelo://app?vid=feee828b-d5e6-47c3-ae30-bd0cedebbaf5","ios":"levelo://app?vid=feee828b-d5e6-47c3-ae30-bd0cedebbaf5"},"vehicle_type_id":"4","last_reported":1731474561,"current_range_meters":29600,"station_id":"ce4bgs12rcd13ifvqcag","pricing_plan_id":"cebpf4jnsgd1na2vs0mg"},{"bike_id":"57c243d5-ddfb-407d-8bc4-11d324be3d24","system_id":"levelo_inurba_marseille","lat":43.28657,"lon":5.36344,"is_reserved":false,"is_disabled":false,"rental_uris":{"android":"levelo://app?vid=57c243d5-ddfb-407d-8bc4-11d324be3d24","ios":"levelo://app?vid=57c243d5-ddfb-407d-8bc4-11d324be3d24"},"vehicle_type_id":"4","last_reported":1731474561,"current_range_meters":16000,"station_id":"ce4bhah2rcd13ifvqej0","pricing_plan_id":"cebpf4jnsgd1na2vs0mg"},{"bike_id":"5a8db13b-8780-420e-9213-be4f1e0ce476","system_id":"levelo_inurba_marseille","lat":43.30209,"lon":5.39461,"is_reserved":false,"is_disabled":false,"rental_uris":{"android":"levelo://app?vid=5a8db13b-8780-420e-9213-be4f1e0ce476","ios":"levelo://app?vid=5a8db13b-8780-420e-9213-be4f1e0ce476"},"vehicle_type_id":"4","last_reported":1731474561,"current_range_meters":22400,"station_id":"ce4bh0p2rcd13ifvqd70","pricing_plan_id":"cebpf4jnsgd1na2vs0mg"},{"bike_id":"fbf82c57-5e39-4243-8b53-8a43b16e4430","system_id":"levelo_inurba_marseille","lat":43.27207,"lon":5.39184,"is_reserved":false,"is_disabled":false,"rental_uris":{"android":"levelo://app?vid=fbf82c57-5e39-4243-8b53-8a43b16e4430","ios":"levelo://app?vid=fbf82c57-5e39-4243-8b53-8a43b16e4430"},"vehicle_type_id":"4","last_reported":1731474561,"current_range_meters":37600,"station_id":"ce4bhhp2rcd13ifvqfm0","pricing_plan_id":"cebpf4jnsgd1na2vs0mg"},{"bike_id":"2083ba4a-2c81-46fb-8ab6-900f09c37683","system_id":"levelo_inurba_marseille","lat":43.292587,"lon":5.40905,"is_reserved":false,"is_disabled":false,"rental_uris":{"android":"levelo://app?vid=2083ba4a-2c81-46fb-8ab6-900f09c37683","ios":"levelo://app?vid=2083ba4a-2c81-46fb-8ab6-900f09c37683"},"vehicle_type_id":"4","last_reported":1731474561,"current_range_meters":37600,"station_id":"ce4bh192rcd13ifvqdc0","pricing_plan_id":"cebpf4jnsgd1na2vs0mg"},{"bike_id":"25513ef3-77f0-478c-970e-9287a399a80b","system_id":"levelo_inurba_marseille","lat":43.28028,"lon":5.36959,"is_reserved":false,"is_disabled":false,"rental_uris":{"android":"levelo://app?vid=25513ef3-77f0-478c-970e-9287a399a80b","ios":"levelo://app?vid=25513ef3-77f0-478c-970e-9287a399a80b"},"vehicle_type_id":"4","last_reported":1731474561,"current_range_meters":30400,"station_id":"ce4bha12rcd13ifvqef0","pricing_plan_id":"cebpf4jnsgd1na2vs0mg"},{"bike_id":"aabc434a-40ab-468a-93bd-5bdf97a95f1a","system_id":"levelo_inurba_marseille","lat":43.28085,"lon":5.39645,"is_reserved":false,"is_disabled":false,"rental_uris":{"android":"levelo://app?vid=aabc434a-40ab-468a-93bd-5bdf97a95f1a","ios":"levelo://app?vid=aabc434a-40ab-468a-93bd-5bdf97a95f1a"},"vehicle_type_id":"4","last_reported":1731474561,"current_range_meters":37600,"station_id":"ce4bho12rcd13ifvqh2g","pricing_plan_id":"cebpf4jnsgd1na2vs0mg"},{"bike_id":"265f0810-481f-47de-a6e4-9e2bba481eaa","system_id":"levelo_inurba_marseille","lat":43.31751,"lon":5.39027,"is_reserved":false,"is_disabled":false,"rental_uris":{"android":"levelo://app?vid=265f0810-481f-47de-a6e4-9e2bba481eaa","ios":"levelo://app?vid=265f0810-481f-47de-a6e4-9e2bba481eaa"},"vehicle_type_id":"4","last_reported":1731474561,"current_range_meters":19600,"station_id":"ce4bhqp2rcd13ifvqhng","pricing_plan_id":"cebpf4jnsgd1na2vs0mg"},{"bike_id":"cc6705a6-9d55-4402-9c26-f2ff217ce011","system_id":"levelo_inurba_marseille","lat":43.32285,"lon":5.38263,"is_reserved":false,"is_disabled":false,"rental_uris":{"android":"levelo://app?vid=cc6705a6-9d55-4402-9c26-f2ff217ce011","ios":"levelo://app?vid=cc6705a6-9d55-4402-9c26-f2ff217ce011"},"vehicle_type_id":"4","last_reported":1731474561,"current_range_meters":38400,"station_id":"ce4bhr12rcd13ifvqhqg","pricing_plan_id":"cebpf4jnsgd1na2vs0mg"},{"bike_id":"4fa93206-a2b7-47f7-a139-39b8cdce995a","system_id":"levelo_inurba_marseille","lat":43.25852,"lon":5.39908,"is_reserved":false,"is_disabled":false,"rental_uris":{"android":"levelo://app?vid=4fa93206-a2b7-47f7-a139-39b8cdce995a","ios":"levelo://app?vid=4fa93206-a2b7-47f7-a139-39b8cdce995a"},"vehicle_type_id":"4","last_reported":1731474561,"current_range_meters":35600,"station_id":"ce4bhl92rcd13ifvqghg","pricing_plan_id":"cebpf4jnsgd1na2vs0mg"},{"bike_id":"97da574b-2a4a-4178-adb0-f5311e290448","system_id":"levelo_inurba_marseille","lat":43.29706,"lon":5.36611,"is_reserved":false,"is_disabled":false,"rental_uris":{"android":"levelo://app?vid=97da574b-2a4a-4178-adb0-f5311e290448","ios":"levelo://app?vid=97da574b-2a4a-4178-adb0-f5311e290448"},"vehicle_type_id":"4","last_reported":1731474561,"current_range_meters":28800,"station_id":"ce4bgn12rcd13ifvqbt0","pricing_plan_id":"cebpf4jnsgd1na2vs0mg"},{"bike_id":"ae7cb96a-e6a7-4698-9712-577508d8a7b9","system_id":"levelo_inurba_marseille","lat":43.30158,"lon":5.38066,"is_reserved":false,"is_disabled":false,"rental_uris":{"android":"levelo://app?vid=ae7cb96a-e6a7-4698-9712-577508d8a7b9","ios":"levelo://app?vid=ae7cb96a-e6a7-4698-9712-577508d8a7b9"},"vehicle_type_id":"4","last_reported":1731474561,"current_range_meters":30000,"station_id":"ce4bgjp2rcd13ifvqbh0","pricing_plan_id":"cebpf4jnsgd1na2vs0mg"},{"bike_id":"67e3fce7-e777-4665-9f86-421b59e75879","system_id":"levelo_inurba_marseille","lat":43.27981,"lon":5.38747,"is_reserved":false,"is_disabled":false,"rental_uris":{"android":"levelo://app?vid=67e3fce7-e777-4665-9f86-421b59e75879","ios":"levelo://app?vid=67e3fce7-e777-4665-9f86-421b59e75879"},"vehicle_type_id":"4","last_reported":1731474561,"current_range_meters":37600,"station_id":"ce4bhg12rcd13ifvqf80","pricing_plan_id":"cebpf4jnsgd1na2vs0mg"},{"bike_id":"778849cc-485e-405b-b103-5bafe474b5b1","system_id":"levelo_inurba_marseille","lat":43.287,"lon":5.37393,"is_reserved":false,"is_disabled":false,"rental_uris":{"android":"levelo://app?vid=778849cc-485e-405b-b103-5bafe474b5b1","ios":"levelo://app?vid=778849cc-485e-405b-b103-5bafe474b5b1"},"vehicle_type_id":"4","last_reported":1731474561,"current_range_meters":28800,"station_id":"ce4bh3p2rcd13ifvqdq0","pricing_plan_id":"cebpf4jnsgd1na2vs0mg"},{"bike_id":"38ccd5e4-c2ba-47a9-b539-30feac02eafb","system_id":"levelo_inurba_marseille","lat":43.25084,"lon":5.39506,"is_reserved":false,"is_disabled":false,"rental_uris":{"android":"levelo://app?vid=38ccd5e4-c2ba-47a9-b539-30feac02eafb","ios":"levelo://app?vid=38ccd5e4-c2ba-47a9-b539-30feac02eafb"},"vehicle_type_id":"4","last_reported":1731474561,"current_range_meters":14800,"station_id":"ce4bhm12rcd13ifvqgkg","pricing_plan_id":"cebpf4jnsgd1na2vs0mg"},{"bike_id":"77593c1f-0dd4-4058-8848-a8727c9b8a83","system_id":"levelo_inurba_marseille","lat":43.23195,"lon":5.35554,"is_reserved":false,"is_disabled":false,"rental_uris":{"android":"levelo://app?vid=77593c1f-0dd4-4058-8848-a8727c9b8a83","ios":"levelo://app?vid=77593c1f-0dd4-4058-8848-a8727c9b8a83"},"vehicle_type_id":"4","last_reported":1731474561,"current_range_meters":18800,"station_id":"ce4bhu92rcd13ifvqi70","pricing_plan_id":"cebpf4jnsgd1na2vs0mg"},{"bike_id":"96114a27-af40-4676-9881-ca50fe8b3ec0","system_id":"levelo_inurba_marseille","lat":43.255744,"lon":5.382321,"is_reserved":false,"is_disabled":false,"rental_uris":{"android":"levelo://app?vid=96114a27-af40-4676-9881-ca50fe8b3ec0","ios":"levelo://app?vid=96114a27-af40-4676-9881-ca50fe8b3ec0"},"vehicle_type_id":"4","last_reported":1731474561,"current_range_meters":30000,"station_id":"ce4bhih2rcd13ifvqfs0","pricing_plan_id":"cebpf4jnsgd1na2vs0mg"},{"bike_id":"5c428c36-0601-4576-b480-92c836ef7b23","system_id":"levelo_inurba_marseille","lat":43.30905,"lon":5.36856,"is_reserved":false,"is_disabled":false,"rental_uris":{"android":"levelo://app?vid=5c428c36-0601-4576-b480-92c836ef7b23","ios":"levelo://app?vid=5c428c36-0601-4576-b480-92c836ef7b23"},"vehicle_type_id":"4","last_reported":1731474561,"current_range_meters":38000,"station_id":"ce4bgn92rcd13ifvqbvg","pricing_plan_id":"cebpf4jnsgd1na2vs0mg"},{"bike_id":"255c2e87-3baf-486b-9dbb-f99e200cef59","system_id":"levelo_inurba_marseille","lat":43.284554,"lon":5.358942,"is_reserved":false,"is_disabled":false,"rental_uris":{"android":"levelo://app?vid=255c2e87-3baf-486b-9dbb-f99e200cef59","ios":"levelo://app?vid=255c2e87-3baf-486b-9dbb-f99e200cef59"},"vehicle_type_id":"4","last_reported":1731474561,"current_range_meters":30400,"station_id":"ce4bhah2rcd13ifvqei0","pricing_plan_id":"cebpf4jnsgd1na2vs0mg"},{"bike_id":"862b02b6-940a-456a-b6ad-2c26abb7cad8","system_id":"levelo_inurba_marseille","lat":43.25869,"lon":5.399,"is_reserved":false,"is_disabled":false,"rental_uris":{"android":"levelo://app?vid=862b02b6-940a-456a-b6ad-2c26abb7cad8","ios":"levelo://app?vid=862b02b6-940a-456a-b6ad-2c26abb7cad8"},"vehicle_type_id":"4","last_reported":1731474561,"current_range_meters":17200,"station_id":"ce4bhl92rcd13ifvqghg","pricing_plan_id":"cebpf4jnsgd1na2vs0mg"},{"bike_id":"01361a9c-93a4-41fb-b012-7118c8cde9f1","system_id":"levelo_inurba_marseille","lat":43.28262,"lon":5.35068,"is_reserved":false,"is_disabled":false,"rental_uris":{"android":"levelo://app?vid=01361a9c-93a4-41fb-b012-7118c8cde9f1","ios":"levelo://app?vid=01361a9c-93a4-41fb-b012-7118c8cde9f1"},"vehicle_type_id":"4","last_reported":1731474561,"current_range_meters":38000,"station_id":"ce4bhbp2rcd13ifvqerg","pricing_plan_id":"cebpf4jnsgd1na2vs0mg"},{"bike_id":"9408db83-4b31-423c-957c-85b94f412efa","system_id":"levelo_inurba_marseille","lat":43.27491,"lon":5.42447,"is_reserved":false,"is_disabled":false,"rental_uris":{"android":"levelo://app?vid=9408db83-4b31-423c-957c-85b94f412efa","ios":"levelo://app?vid=9408db83-4b31-423c-957c-85b94f412efa"},"vehicle_type_id":"4","last_reported":1731474561,"current_range_meters":38800,"station_id":"ce4bhn92rcd13ifvqgrg","pricing_plan_id":"cebpf4jnsgd1na2vs0mg"},{"bike_id":"adb6a9d2-1531-44e6-b34f-ba7d874f71d6","system_id":"levelo_inurba_marseille","lat":43.28728,"lon":5.36091,"is_reserved":false,"is_disabled":false,"rental_uris":{"android":"levelo://app?vid=adb6a9d2-1531-44e6-b34f-ba7d874f71d6","ios":"levelo://app?vid=adb6a9d2-1531-44e6-b34f-ba7d874f71d6"},"vehicle_type_id":"4","last_reported":1731474561,"current_range_meters":38800,"station_id":"cki0cbj6b192h4jlfktg","pricing_plan_id":"cebpf4jnsgd1na2vs0mg"},{"bike_id":"c296ccb5-0346-47f8-bbba-2db440b1e310","system_id":"levelo_inurba_marseille","lat":43.26491,"lon":5.39543,"is_reserved":false,"is_disabled":false,"rental_uris":{"android":"levelo://app?vid=c296ccb5-0346-47f8-bbba-2db440b1e310","ios":"levelo://app?vid=c296ccb5-0346-47f8-bbba-2db440b1e310"},"vehicle_type_id":"4","last_reported":1731474561,"current_range_meters":37600,"station_id":"ce4bhi12rcd13ifvqfq0","pricing_plan_id":"cebpf4jnsgd1na2vs0mg"},{"bike_id":"9f5f6d58-c179-4752-b708-378ceef63f47","system_id":"levelo_inurba_marseille","lat":43.30876,"lon":5.37181,"is_reserved":false,"is_disabled":false,"rental_uris":{"android":"levelo://app?vid=9f5f6d58-c179-4752-b708-378ceef63f47","ios":"levelo://app?vid=9f5f6d58-c179-4752-b708-378ceef63f47"},"vehicle_type_id":"4","last_reported":1731474561,"current_range_meters":39200,"station_id":"ce4bguh2rcd13ifvqckg","pricing_plan_id":"cebpf4jnsgd1na2vs0mg"},{"bike_id":"580a3db1-ba3e-43f5-845d-fab86f444bf3","system_id":"levelo_inurba_marseille","lat":43.28842,"lon":5.35842,"is_reserved":false,"is_disabled":false,"rental_uris":{"android":"levelo://app?vid=580a3db1-ba3e-43f5-845d-fab86f444bf3","ios":"levelo://app?vid=580a3db1-ba3e-43f5-845d-fab86f444bf3"},"vehicle_type_id":"4","last_reported":1731474561,"current_range_meters":18800,"station_id":"ce4bhb12rcd13ifvqem0","pricing_plan_id":"cebpf4jnsgd1na2vs0mg"},{"bike_id":"fae9e5ee-dec7-4a3e-a2eb-180aaf4015cc","system_id":"levelo_inurba_marseille","lat":43.288568,"lon":5.358401,"is_reserved":false,"is_disabled":false,"rental_uris":{"android":"levelo://app?vid=fae9e5ee-dec7-4a3e-a2eb-180aaf4015cc","ios":"levelo://app?vid=fae9e5ee-dec7-4a3e-a2eb-180aaf4015cc"},"vehicle_type_id":"4","last_reported":1731474561,"current_range_meters":30400,"station_id":"ce4bhb12rcd13ifvqem0","pricing_plan_id":"cebpf4jnsgd1na2vs0mg"},{"bike_id":"df4359c0-5559-45cc-ae68-10f9fdba83a4","system_id":"levelo_inurba_marseille","lat":43.31171,"lon":5.387,"is_reserved":false,"is_disabled":false,"rental_uris":{"android":"levelo://app?vid=df4359c0-5559-45cc-ae68-10f9fdba83a4","ios":"levelo://app?vid=df4359c0-5559-45cc-ae68-10f9fdba83a4"},"vehicle_type_id":"4","last_reported":1731474561,"current_range_meters":38800,"station_id":"ce4bgv12rcd13ifvqcp0","pricing_plan_id":"cebpf4jnsgd1na2vs0mg"},{"bike_id":"29223dd5-4d7a-44ff-8d46-d529a358c3c8","system_id":"levelo_inurba_marseille","lat":43.28657,"lon":5.3635,"is_reserved":false,"is_disabled":false,"rental_uris":{"android":"levelo://app?vid=29223dd5-4d7a-44ff-8d46-d529a358c3c8","ios":"levelo://app?vid=29223dd5-4d7a-44ff-8d46-d529a358c3c8"},"vehicle_type_id":"4","last_reported":1731474561,"current_range_meters":13600,"station_id":"ce4bhah2rcd13ifvqej0","pricing_plan_id":"cebpf4jnsgd1na2vs0mg"},{"bike_id":"2c3259f6-ceef-45be-96b5-228e6aa038d6","system_id":"levelo_inurba_marseille","lat":43.2782,"lon":5.4072,"is_reserved":false,"is_disabled":false,"rental_uris":{"android":"levelo://app?vid=2c3259f6-ceef-45be-96b5-228e6aa038d6","ios":"levelo://app?vid=2c3259f6-ceef-45be-96b5-228e6aa038d6"},"vehicle_type_id":"4","last_reported":1731474561,"current_range_meters":36000,"station_id":"ce4bhnh2rcd13ifvqgtg","pricing_plan_id":"cebpf4jnsgd1na2vs0mg"},