{"last_updated":1750450348,"ttl":60,"version":"2.2","data":{"bikes":[{"bike_id":"3da29fb8-fc97-44c6-b9ac-31dd456b2fd4","system_id":"levelo_inurba_marseille","lat":43.33771,"lon":5.37424,"is_reserved":false,"is_disabled":true,"rental_uris":{"android":"levelo://app?vid=3da29fb8-fc97-44c6-b9ac-31dd456b2fd4","ios":"levelo://app?vid=3da29fb8-fc97-44c6-b9ac-31dd456b2fd4"},"vehicle_type_id":"4","last_reported":1750450348,"current_range_meters":0,"station_id":"","pricing_plan_id":"cebpf4jnsgd1na2vs0mg"},{"bike_id":"01861ad8-a8d7-4be6-816e-651927c87584","system_id":"levelo_inurba_marseille","lat":43.33751,"lon":5.37456,"is_reserved":false,"is_disabled":true,"rental_uris":{"android":"levelo://app?vid=01861ad8-a8d7-4be6-816e-651927c87584","ios":"levelo://app?vid=01861ad8-a8d7-4be6-816e-651927c87584"},"vehicle_type_id":"4","last_reported":1750450348,"current_range_meters":0,"station_id":"","pricing_plan_id":"cebpf4jnsgd1na2vs0mg"},{"bike_id":"7bcccf35-e344-4f00-9a7f-199c76d3c58d","system_id":"levelo_inurba_marseille","lat":43.29149,"lon":5.41599,"is_reserved":false,"is_disabled":true,"rental_uris":{"android":"levelo://app?vid=7bcccf35-e344-4f00-9a7f-199c76d3c58d","ios":"levelo://app?vid=7bcccf35-e344-4f00-9a7f-199c76d3c58d"},"vehicle_type_id":"4","last_reported":1750450348,"current_range_meters":0,"station_id":"","pricing_plan_id":"cebpf4jnsgd1na2vs0mg"},{"bike_id":"1eea55df-a17e-4fdf-a523-9ad982e8087b","system_id":"levelo_inurba_marseille","lat":43.33163,"lon":5.38178,"is_reserved":false,"is_disabled":true,"rental_uris":{"android":"levelo://app?vid=1eea55df-a17e-4fdf-a523-9ad982e8087b","ios":"levelo://app?vid=1eea55df-a17e-4fdf-a523-9ad982e8087b"},"vehicle_type_id":"4","last_reported":1750450348,"current_range_meters":0,"station_id":"","pricing_plan_id":"cebpf4jnsgd1na2vs0mg"},{"bike_id":"d2bd57c8-6b64-48db-ad24-5398eb3fd9d6","system_id":"levelo_inurba_marseille","lat":43.337444,"lon":5.374475,"is_reserved":false,"is_disabled":true,"rental_uris":{"android":"levelo://app?vid=d2bd57c8-6b64-48db-ad24-5398eb3fd9d6","ios":"levelo://app?vid=d2bd57c8-6b64-48db-ad24-5398eb3fd9d6"},"vehicle_type_id":"4","last_reported":1750450348,"current_range_meters":0,"station_id":"","pricing_plan_id":"cebpf4jnsgd1na2vs0mg"},{"bike_id":"982d89d8-a333-4489-bc32-54551848dace","system_id":"levelo_inurba_marseille","lat":43.28388,"lon":5.38718,"is_reserved":false,"is_disabled":true,"rental_uris":{"android":"levelo://app?vid=982d89d8-a333-4489-bc32-54551848dace","ios":"levelo://app?vid=982d89d8-a333-4489-bc32-54551848dace"},"vehicle_type_id":"4","last_reported":1750450348,"current_range_meters":0,"station_id":"","pricing_plan_id":"cebpf4jnsgd1na2vs0mg"},{"bike_id":"62a493c7-4534-4419-ad43-0582de34a72a","system_id":"levelo_inurba_marseille","lat":43.21366,"lon":5.355183,"is_reserved":false,"is_disabled":true,"rental_uris":{"android":"levelo://app?vid=62a493c7-4534-4419-ad43-0582de34a72a","ios":"levelo://app?vid=62a493c7-4534-4419-ad43-0582de34a72a"},"vehicle_type_id":"4","last_reported":1750450348,"current_range_meters":0,"station_id":"","pricing_plan_id":"cebpf4jnsgd1na2vs0mg"},{"bike_id":"59f88fb1-a6f1-4c57-aa45-7f345d559650","system_id":"levelo_inurba_marseille","lat":43.323376,"lon":5.40625,"is_reserved":false,"is_disabled":true,"rental_uris":{"android":"levelo://app?vid=59f88fb1-a6f1-4c57-aa45-7f345d559650","ios":"levelo://app?vid=59f88fb1-a6f1-4c57-aa45-7f345d559650"},"vehicle_type_id":"4","last_reported":1750450348,"current_range_meters":0,"station_id":"","pricing_plan_id":"cebpf4jnsgd1na2vs0mg"},{"bike_id":"d5a1ae9e-4421-4539-b5ac-98a00695a8d8","system_id":"levelo_inurba_marseille","lat":43.33409,"lon":5.40033,"is_reserved":false,"is_disabled":true,"rental_uris":{"android":"levelo://app?vid=d5a1ae9e-4421-4539-b5ac-98a00695a8d8","ios":"levelo://app?vid=d5a1ae9e-4421-4539-b5ac-98a00695a8d8"},"vehicle_type_id":"4","last_reported":1750450348,"current_range_meters":0,"station_id":"","pricing_plan_id":"cebpf4jnsgd1na2vs0mg"},{"bike_id":"d6609b4f-333b-43c1-9ebe-8726f5e76e88","system_id":"levelo_inurba_marseille","lat":43.337444,"lon":5.374475,"is_reserved":false,"is_disabled":true,"rental_uris":{"android":"levelo://app?vid=d6609b4f-333b-43c1-9ebe-8726f5e76e88","ios":"levelo://app?vid=d6609b4f-333b-43c1-9ebe-8726f5e76e88"},"vehicle_type_id":"4","last_reported":1750450348,"current_range_meters":0,"station_id":"","pricing_plan_id":"cebpf4jnsgd1na2vs0mg"},{"bike_id":"1f2de264-85ed-407b-93bf-467874d3ee82","system_id":"levelo_inurba_marseille","lat":43.30922,"lon":5.40166,"is_reserved":false,"is_disabled":true,"rental_uris":{"android":"levelo://app?vid=1f2de264-85ed-407b-93bf-467874d3ee82","ios":"levelo://app?vid=1f2de264-85ed-407b-93bf-467874d3ee82"},"vehicle_type_id":"4","last_reported":1750450348,"current_range_meters":0,"station_id":"ce4bgvp2rcd13ifvqct0","pricing_plan_id":"cebpf4jnsgd1na2vs0mg"},{"bike_id":"12804118-ac3d-4d97-bbb2-7548e95cb85d","system_id":"levelo_inurba_marseille","lat":43.30924,"lon":5.40141,"is_reserved":false,"is_disabled":true,"rental_uris":{"android":"levelo://app?vid=12804118-ac3d-4d97-bbb2-7548e95cb85d","ios":"levelo://app?vid=12804118-ac3d-4d97-bbb2-7548e95cb85d"},"vehicle_type_id":"4","last_reported":1750450348,"current_range_meters":0,"station_id":"ce4bgvp2rcd13ifvqct0","pricing_plan_id":"cebpf4jnsgd1na2vs0mg"},{"bike_id":"c23955ef-24d4-4813-aaec-27346135c967","system_id":"levelo_inurba_marseille","lat":43.26549,"lon":5.37294,"is_reserved":false,"is_disabled":true,"rental_uris":{"android":"levelo://app?vid=c23955ef-24d4-4813-aaec-27346135c967","ios":"levelo://app?vid=c23955ef-24d4-4813-aaec-27346135c967"},"vehicle_type_id":"4","last_reported":1750450348,"current_range_meters":0,"station_id":"ce4bhg12rcd13ifvqf70","pricing_plan_id":"cebpf4jnsgd1na2vs0mg"},{"bike_id":"2be082ca-4467-48fd-b65c-3c02b405800f","system_id":"levelo_inurba_marseille","lat":43.23148,"lon":5.43702,"is_reserved":false,"is_disabled":true,"rental_uris":{"android":"levelo://app?vid=2be082ca-4467-48fd-b65c-3c02b405800f","ios":"levelo://app?vid=2be082ca-4467-48fd-b65c-3c02b405800f"},"vehicle_type_id":"4","last_reported":1750450348,"current_range_meters":0,"station_id":"ce4bhmp2rcd13ifvqgog","pricing_plan_id":"cebpf4jnsgd1na2vs0mg"},{"bike_id":"bef2d327-e4c0-4baa-91c2-5a11decb3468","system_id":"levelo_inurba_marseille","lat":43.30418,"lon":5.41283,"is_reserved":false,"is_disabled":true,"rental_uris":{"android":"levelo://app?vid=bef2d327-e4c0-4baa-91c2-5a11decb3468","ios":"levelo://app?vid=bef2d327-e4c0-4baa-91c2-5a11decb3468"},"vehicle_type_id":"4","last_reported":1750450348,"current_range_meters":0,"station_id":"ce4bhop2rcd13ifvqh8g","pricing_plan_id":"cebpf4jnsgd1na2vs0mg"},{"bike_id":"0429e4a3-d3bf-40bd-b063-80c29d85ae65","system_id":"levelo_inurba_marseille","lat":43.30802,"lon":5.4351,"is_reserved":false,"is_disabled":true,"rental_uris":{"android":"levelo://app?vid=0429e4a3-d3bf-40bd-b063-80c29d85ae65","ios":"levelo://app?vid=0429e4a3-d3bf-40bd-b063-80c29d85ae65"},"vehicle_type_id":"4","last_reported":1750450348,"current_range_meters":0,"station_id":"ce4bhph2rcd13ifvqheg","pricing_plan_id":"cebpf4jnsgd1na2vs0mg"},{"bike_id":"c25e6075-ec55-4018-ac40-58bf3174224e","system_id":"levelo_inurba_marseille","lat":43.26916,"lon":5.40256,"is_reserved":false,"is_disabled":true,"rental_uris":{"android":"levelo://app?vid=c25e6075-ec55-4018-ac40-58bf3174224e","ios":"levelo://app?vid=c25e6075-ec55-4018-ac40-58bf3174224e"},"vehicle_type_id":"4","last_reported":1750450348,"current_range_meters":0,"station_id":"cjm6bp8fraef2m0cb0m0","pricing_plan_id":"cebpf4jnsgd1na2vs0mg"},{"bike_id":"24466bb8-ea46-418f-a473-cce465177766","system_id":"levelo_inurba_marseille","lat":43.2174,"lon":5.34611,"is_reserved":false,"is_disabled":true,"rental_uris":{"android":"levelo://app?vid=24466bb8-ea46-418f-a473-cce465177766","ios":"levelo://app?vid=24466bb8-ea46-418f-a473-cce465177766"},"vehicle_type_id":"4","last_reported":1750450348,"current_range_meters":0,"station_id":"st_cvj6r9ubvosntc0bgbag","pricing_plan_id":"cebpf4jnsgd1na2vs0mg"},{"bike_id":"19745ddc-eca2-4296-893c-935534e0511f","system_id":"levelo_inurba_marseille","lat":43.31285,"lon":5.37322,"is_reserved":false,"is_disabled":true,"rental_uris":{"android":"levelo://app?vid=19745ddc-eca2-4296-893c-935534e0511f","ios":"levelo://app?vid=19745ddc-eca2-4296-893c-935534e0511f"},"vehicle_type_id":"4","last_reported":1750450348,"current_range_meters":400,"station_id":"","pricing_plan_id":"cebpf4jnsgd1na2vs0mg"},{"bike_id":"3e37ff1a-9541-46b1-b38e-55af51098d2f","system_id":"levelo_inurba_marseille","lat":43.30788,"lon":5.38196,"is_reserved":false,"is_disabled":true,"rental_uris":{"android":"levelo://app?vid=3e37ff1a-9541-46b1-b38e-55af51098d2f","ios":"levelo://app?vid=3e37ff1a-9541-46b1-b38e-55af51098d2f"},"vehicle_type_id":"4","last_reported":1750450348,"current_range_meters":400,"station_id":"ce4bgt12rcd13ifvqce0","pricing_plan_id":"cebpf4jnsgd1na2vs0mg"},{"bike_id":"9931be95-85e7-45fb-bfae-a992121b7d0f","system_id":"levelo_inurba_marseille","lat":43.29783,"lon":5.39332,"is_reserved":false,"is_disabled":true,"rental_uris":{"android":"levelo://app?vid=9931be95-85e7-45fb-bfae-a992121b7d0f","ios":"levelo://app?vid=9931be95-85e7-45fb-bfae-a992121b7d0f"},"vehicle_type_id":"4","last_reported":1750450348,"current_range_meters":400,"station_id":"chh1huq6cuj3fo74tm60","pricing_plan_id":"cebpf4jnsgd1na2vs0mg"},{"bike_id":"9eef838e-3bfd-4a16-83bf-84f9290561f9","system_id":"levelo_inurba_marseille","lat":43.31201,"lon":5.36839,"is_reserved":false,"is_disabled":true,"rental_uris":{"android":"levelo://app?vid=9eef838e-3bfd-4a16-83bf-84f9290561f9","ios":"levelo://app?vid=9eef838e-3bfd-4a16-83bf-84f9290561f9"},"vehicle_type_id":"4","last_reported":1750450348,"current_range_meters":800,"station_id":"ce4bgl92rcd13ifvqbq0","pricing_plan_id":"cebpf4jnsgd1na2vs0mg"},{"bike_id":"eb0528c0-7f78-4247-9eba-1308a4632eb8","system_id":"levelo_inurba_marseille","lat":43.28266,"lon":5.35055,"is_reserved":false,"is_disabled":true,"rental_uris":{"android":"levelo://app?vid=eb0528c0-7f78-4247-9eba-1308a4632eb8","ios":"levelo://app?vid=eb0528c0-7f78-4247-9eba-1308a4632eb8"},"vehicle_type_id":"4","last_reported":1750450348,"current_range_meters":800,"station_id":"ce4bhbp2rcd13ifvqerg","pricing_plan_id":"cebpf4jnsgd1na2vs0mg"},{"bike_id":"091fcb0c-ecce-41ae-9f81-09966ac2ef4a","system_id":"levelo_inurba_marseille","lat":43.30369,"lon":5.4247,"is_reserved":false,"is_disabled":true,"rental_uris":{"android":"levelo://app?vid=091fcb0c-ecce-41ae-9f81-09966ac2ef4a","ios":"levelo://app?vid=091fcb0c-ecce-41ae-9f81-09966ac2ef4a"},"vehicle_type_id":"4","last_reported":1750450348,"current_range_meters":800,"station_id":"ce4bhoh2rcd13ifvqh6g","pricing_plan_id":"cebpf4jnsgd1na2vs0mg"},{"bike_id":"5c774ef9-c951-4ed5-9984-b427ebcaf8f3","system_id":"levelo_inurba_marseille","lat":43.2956,"lon":5.42295,"is_reserved":false,"is_disabled":true,"rental_uris":{"android":"levelo://app?vid=5c774ef9-c951-4ed5-9984-b427ebcaf8f3","ios":"levelo://app?vid=5c774ef9-c951-4ed5-9984-b427ebcaf8f3"},"vehicle_type_id":"4","last_reported":1750450348,"current_range_meters":800,"station_id":"ce4bhph2rcd13ifvqhdg","pricing_plan_id":"cebpf4jnsgd1na2vs0mg"},{"bike_id":"d2f8af12-8931-4d88-bcc5-9f91ab451d4a","system_id":"levelo_inurba_marseille","lat":43.32653,"lon":5.40993,"is_reserved":false,"is_disabled":true,"rental_uris":{"android":"levelo://app?vid=d2f8af12-8931-4d88-bcc5-9f91ab451d4a","ios":"levelo://app?vid=d2f8af12-8931-4d88-bcc5-9f91ab451d4a"},"vehicle_type_id":"4","last_reported":1750450348,"current_range_meters":800,"station_id":"ce4bhpp2rcd13ifvqhgg","pricing_plan_id":"cebpf4jnsgd1na2vs0mg"},{"bike_id":"46262e86-e5b0-47c1-91aa-c28e6dd6fe5e","system_id":"levelo_inurba_marseille","lat":43.241648,"lon":5.363985,"is_reserved":false,"is_disabled":true,"rental_uris":{"android":"levelo://app?vid=46262e86-e5b0-47c1-91aa-c28e6dd6fe5e","ios":"levelo://app?vid=46262e86-e5b0-47c1-91aa-c28e6dd6fe5e"},"vehicle_type_id":"4","last_reported":1750450348,"current_range_meters":800,"station_id":"cpo36qri1sfpv3e86is0","pricing_plan_id":"cebpf4jnsgd1na2vs0mg"},{"bike_id":"9c5b8abb-6b70-4b3d-8ce7-ce0bdff9ed79","system_id":"levelo_inurba_marseille","lat":43.28918,"lon":5.3665,"is_reserved":false,"is_disabled":true,"rental_uris":{"android":"levelo://app?vid=9c5b8abb-6b70-4b3d-8ce7-ce0bdff9ed79","ios":"levelo://app?vid=9c5b8abb-6b70-4b3d-8ce7-ce0bdff9ed79"},"vehicle_type_id":"4","last_reported":1750450348,"current_range_meters":1200,"station_id":"ce4bhap2rcd13ifvqek0","pricing_plan_id":"cebpf4jnsgd1na2vs0mg"},{"bike_id":"6264bffe-992b-4f44-a4b0-9db813b4745c","system_id":"levelo_inurba_marseille","lat":43.24539,"lon":5.39531,"is_reserved":false,"is_disabled":true,"rental_uris":{"android":"levelo://app?vid=6264bffe-992b-4f44-a4b0-9db813b4745c","ios":"levelo://app?vid=6264bffe-992b-4f44-a4b0-9db813b4745c"},"vehicle_type_id":"4","last_reported":1750450348,"current_range_meters":1200,"station_id":"ce4bhlp2rcd13ifvqgjg","pricing_plan_id":"cebpf4jnsgd1na2vs0mg"},{"bike_id":"323aa753-fc1d-41e9-9992-b0402b704672","system_id":"levelo_inurba_marseille","lat":43.331724,"lon":5.381966,"is_reserved":false,"is_disabled":true,"rental_uris":{"android":"levelo://app?vid=323aa753-fc1d-41e9-9992-b0402b704672","ios":"levelo://app?vid=323aa753-fc1d-41e9-9992-b0402b704672"},"vehicle_type_id":"4","last_reported":1750450348,"current_range_meters":1600,"station_id":"","pricing_plan_id":"cebpf4jnsgd1na2vs0mg"},{"bike_id":"5a3cda8a-8a10-4f4f-aa4c-4bfa23334357","system_id":"levelo_inurba_marseille","lat":43.29735,"lon":5.37728,"is_reserved":false,"is_disabled":true,"rental_uris":{"android":"levelo://app?vid=5a3cda8a-8a10-4f4f-aa4c-4bfa23334357","ios":"levelo://app?vid=5a3cda8a-8a10-4f4f-aa4c-4bfa23334357"},"vehicle_type_id":"4","last_reported":1750450348,"current_range_meters":1600,"station_id":"ce4bgkh2rcd13ifvqbl0","pricing_plan_id":"cebpf4jnsgd1na2vs0mg"},{"bike_id":"fe1743ad-555a-484c-9a7b-20f490fcb485","system_id":"levelo_inurba_marseille","lat":43.31711,"lon":5.43708,"is_reserved":false,"is_disabled":true,"rental_uris":{"android":"levelo://app?vid=fe1743ad-555a-484c-9a7b-20f490fcb485","ios":"levelo://app?vid=fe1743ad-555a-484c-9a7b-20f490fcb485"},"vehicle_type_id":"4","last_reported":1750450348,"current_range_meters":1600,"station_id":"ce4bhp92rcd13ifvqhcg","pricing_plan_id":"cebpf4jnsgd1na2vs0mg"},{"bike_id":"0bae73e6-e831-45be-ad06-9a7d061fcf2f","system_id":"levelo_inurba_marseille","lat":43.30801,"lon":5.43523,"is_reserved":false,"is_disabled":true,"rental_uris":{"android":"levelo://app?vid=0bae73e6-e831-45be-ad06-9a7d061fcf2f","ios":"levelo://app?vid=0bae73e6-e831-45be-ad06-9a7d061fcf2f"},"vehicle_type_id":"4","last_reported":1750450348,"current_range_meters":1600,"station_id":"ce4bhph2rcd13ifvqheg","pricing_plan_id":"cebpf4jnsgd1na2vs0mg"},{"bike_id":"6a8e5a80-02ff-4651-8813-4938fa15081b","system_id":"levelo_inurba_marseille","lat":43.27367,"lon":5.36236,"is_reserved":false,"is_disabled":true,"rental_uris":{"android":"levelo://app?vid=6a8e5a80-02ff-4651-8813-4938fa15081b","ios":"levelo://app?vid=6a8e5a80-02ff-4651-8813-4938fa15081b"},"vehicle_type_id":"4","last_reported":1750450348,"current_range_meters":2000,"station_id":"ce4bhbh2rcd13ifvqeo0","pricing_plan_id":"cebpf4jnsgd1na2vs0mg"},{"bike_id":"2462de02-4321-41fc-9263-d19f043438ff","system_id":"levelo_inurba_marseille","lat":43.24543,"lon":5.39514,"is_reserved":false,"is_disabled":true,"rental_uris":{"android":"levelo://app?vid=2462de02-4321-41fc-9263-d19f043438ff","ios":"levelo://app?vid=2462de02-4321-41fc-9263-d19f043438ff"},"vehicle_type_id":"4","last_reported":1750450348,"current_range_meters":2000,"station_id":"ce4bhlp2rcd13ifvqgjg","pricing_plan_id":"cebpf4jnsgd1na2vs0mg"},{"bike_id":"635f773d-b08e-4401-b654-a59cdea688fa","system_id":"levelo_inurba_marseille","lat":43.262172,"lon":5.374229,"is_reserved":false,"is_disabled":true,"rental_uris":{"android":"levelo://app?vid=635f773d-b08e-4401-b654-a59cdea688fa","ios":"levelo://app?vid=635f773d-b08e-4401-b654-a59cdea688fa"},"vehicle_type_id":"4","last_reported":1750450348,"current_range_meters":2000,"station_id":"ce4bhqp2rcd13ifvqhog","pricing_plan_id":"cebpf4jnsgd1na2vs0mg"},{"bike_id":"c443d1fd-b536-43a2-8413-691ac066e9e0","system_id":"levelo_inurba_marseille","lat":43.29522,"lon":5.39401,"is_reserved":false,"is_disabled":false,"rental_uris":{"android":"levelo://app?vid=c443d1fd-b536-43a2-8413-691ac066e9e0","ios":"levelo://app?vid=c443d1fd-b536-43a2-8413-691ac066e9e0"},"vehicle_type_id":"4","last_reported":1750450348,"current_range_meters":3200,"station_id":"ce4bh292rcd13ifvqdf0","pricing_plan_id":"cebpf4jnsgd1na2vs0mg"},{"bike_id":"8c7d4dcb-48ed-4e57-8389-0aefb6b5f31b","system_id":"levelo_inurba_marseille","lat":43.29301,"lon":5.37455,"is_reserved":false,"is_disabled":false,"rental_uris":{"android":"levelo://app?vid=8c7d4dcb-48ed-4e57-8389-0aefb6b5f31b","ios":"levelo://app?vid=8c7d4dcb-48ed-4e57-8389-0aefb6b5f31b"},"vehicle_type_id":"4","last_reported":1750450348,"current_range_meters":3600,"station_id":"ce4bgi12rcd13ifvqb70","pricing_plan_id":"cebpf4jnsgd1na2vs0mg"},{"bike_id":"75e261db-8659-4217-95e1-eb457e128ed2","system_id":"levelo_inurba_marseille","lat":43.27565,"lon":5.38411,"is_reserved":false,"is_disabled":false,"rental_uris":{"android":"levelo://app?vid=75e261db-8659-4217-95e1-eb457e128ed2","ios":"levelo://app?vid=75e261db-8659-4217-95e1-eb457e128ed2"},"vehicle_type_id":"4","last_reported":1750450348,"current_range_meters":3600,"station_id":"ce4bhh92rcd13ifvqfi0","pricing_plan_id":"cebpf4jnsgd1na2vs0mg"},{"bike_id":"5ddf9834-85a9-4261-91f8-2684ab134ddf","system_id":"levelo_inurba_marseille","lat":43.2572,"lon":5.41113,"is_reserved":false,"is_disabled":false,"rental_uris":{"android":"levelo://app?vid=5ddf9834-85a9-4261-91f8-2684ab134ddf","ios":"levelo://app?vid=5ddf9834-85a9-4261-91f8-2684ab134ddf"},"vehicle_type_id":"4","last_reported":1750450348,"current_range_meters":4000,"station_id":"ce4bhkp2rcd13ifvqgd0","pricing_plan_id":"cebpf4jnsgd1na2vs0mg"},{"bike_id":"0dedb6f6-6801-483b-bfb8-9cd4533d158f","system_id":"levelo_inurba_marseille","lat":43.31136,"lon":5.38092,"is_reserved":false,"is_disabled":false,"rental_uris":{"android":"levelo://app?vid=0dedb6f6-6801-483b-bfb8-9cd4533d158f","ios":"levelo://app?vid=0dedb6f6-6801-483b-bfb8-9cd4533d158f"},"vehicle_type_id":"4","last_reported":1750450348,"current_range_meters":4400,"station_id":"","pricing_plan_id":"cebpf4jnsgd1na2vs0mg"},{"bike_id":"3ce13d07-d498-4ce5-ab1c-31c5d315297e","system_id":"levelo_inurba_marseille","lat":43.3108,"lon":5.42439,"is_reserved":false,"is_disabled":false,"rental_uris":{"android":"levelo://app?vid=3ce13d07-d498-4ce5-ab1c-31c5d315297e","ios":"levelo://app?vid=3ce13d07-d498-4ce5-ab1c-31c5d315297e"},"vehicle_type_id":"4","last_reported":1750450348,"current_range_meters":4400,"station_id":"ce4bhp92rcd13ifvqhag","pricing_plan_id":"cebpf4jnsgd1na2vs0mg"},{"bike_id":"8606812e-f131-45b1-818a-eea6ffa75350","system_id":"levelo_inurba_marseille","lat":43.31709,"lon":5.43707,"is_reserved":false,"is_disabled":false,"rental_uris":{"android":"levelo://app?vid=8606812e-f131-45b1-818a-eea6ffa75350","ios":"levelo://app?vid=8606812e-f131-45b1-818a-eea6ffa75350"},"vehicle_type_id":"4","last_reported":1750450348,"current_range_meters":4400,"station_id":"ce4bhp92rcd13ifvqhcg","pricing_plan_id":"cebpf4jnsgd1na2vs0mg"},{"bike_id":"268aafb4-1331-426c-97bc-a7d6564caeb6","system_id":"levelo_inurba_marseille","lat":43.32933,"lon":5.37919,"is_reserved":false,"is_disabled":false,"rental_uris":{"android":"levelo://app?vid=268aafb4-1331-426c-97bc-a7d6564caeb6","ios":"levelo://app?vid=268aafb4-1331-426c-97bc-a7d6564caeb6"},"vehicle_type_id":"4","last_reported":1750450348,"current_range_meters":4800,"station_id":"","pricing_plan_id":"cebpf4jnsgd1na2vs0mg"},{"bike_id":"a71b2ef6-1ff3-4030-a19d-743da72c30d6","system_id":"levelo_inurba_marseille","lat":43.29418,"lon":5.38622,"is_reserved":false,"is_disabled":false,"rental_uris":{"android":"levelo://app?vid=a71b2ef6-1ff3-4030-a19d-743da72c30d6","ios":"levelo://app?vid=a71b2ef6-1ff3-4030-a19d-743da72c30d6"},"vehicle_type_id":"4","last_reported":1750450348,"current_range_meters":4800,"station_id":"ce4bh2h2rcd13ifvqdh0","pricing_plan_id":"cebpf4jnsgd1na2vs0mg"},{"bike_id":"3738ca55-9d2c-400a-a13f-1aca7f93ba32","system_id":"levelo_inurba_marseille","lat":43.273768,"lon":5.362593,"is_reserved":false,"is_disabled":false,"rental_uris":{"android":"levelo://app?vid=3738ca55-9d2c-400a-a13f-1aca7f93ba32","ios":"levelo://app?vid=3738ca55-9d2c-400a-a13f-1aca7f93ba32"},"vehicle_type_id":"4","last_reported":1750450348,"current_range_meters":5600,"station_id":"ce4bhbh2rcd13ifvqeo0","pricing_plan_id":"cebpf4jnsgd1na2vs0mg"},{"bike_id":"e7ea39a0-08e1-4f09-8f3f-e30c119e669a","system_id":"levelo_inurba_marseille","lat":43.30805,"lon":5.43689,"is_reserved":false,"is_disabled":false,"rental_uris":{"android":"levelo://app?vid=e7ea39a0-08e1-4f09-8f3f-e30c119e669a","ios":"levelo://app?vid=e7ea39a0-08e1-4f09-8f3f-e30c119e669a"},"vehicle_type_id":"4","last_reported":1750450348,"current_range_meters":6000,"station_id":"","pricing_plan_id":"cebpf4jnsgd1na2vs0mg"},{"bike_id":"7c761603-6762-435f-a7ca-4e82c4b8673a","system_id":"levelo_inurba_marseille","lat":43.30071,"lon":5.380821,"is_reserved":false,"is_disabled":false,"rental_uris":{"android":"levelo://app?vid=7c761603-6762-435f-a7ca-4e82c4b8673a","ios":"levelo://app?vid=7c761603-6762-435f-a7ca-4e82c4b8673a"},"vehicle_type_id":"4","last_reported":1750450348,"current_range_meters":6000,"station_id":"","pricing_plan_id":"cebpf4jnsgd1na2vs0mg"},{"bike_id":"145a64a6-7ff2-4580-b6de-40a56b32ebd9","system_id":"levelo_inurba_marseille","lat":43.24389,"lon":5.37064,"is_reserved":false,"is_disabled":false,"rental_uris":{"android":"levelo://app?vid=145a64a6-7ff2-4580-b6de-40a56b32ebd9","ios":"levelo://app?vid=145a64a6-7ff2-4580-b6de-40a56b32ebd9"},"vehicle_type_id":"4","last_reported":1750450348,"current_range_meters":6000,"station_id":"ce4bhhh2rcd13ifvqfk0","pricing_plan_id":"cebpf4jnsgd1na2vs0mg"},{"bike_id":"d70a429d-ff72-4c7d-8870-1f2c9a0c4020","system_id":"levelo_inurba_marseille","lat":43.29521,"lon":5.38527,"is_reserved":false,"is_disabled":false,"rental_uris":{"android":"levelo://app?vid=d70a429d-ff72-4c7d-8870-1f2c9a0c4020","ios":"levelo://app?vid=d70a429d-ff72-4c7d-8870-1f2c9a0c4020"},"vehicle_type_id":"4","last_reported":1750450348,"current_range_meters":6400,"station_id":"ce4bgih2rcd13ifvqba0","pricing_plan_id":"cebpf4jnsgd1na2vs0mg"},{"bike_id":"ac7d3aae-a715-4f3e-8d48-c147ea66c853","system_id":"levelo_inurba_marseille","lat":43.28484,"lon":5.38555,"is_reserved":false,"is_disabled":false,"rental_uris":{"android":"levelo://app?vid=ac7d3aae-a715-4f3e-8d48-c147ea66c853","ios":"levelo://app?vid=ac7d3aae-a715-4f3e-8d48-c147ea66c853"},"vehicle_type_id":"4","last_reported":1750450348,"current_range_meters":6400,"station_id":"ce4bh8p2rcd13ifvqeb0","pricing_plan_id":"cebpf4jnsgd1na2vs0mg"},{"bike_id":"fe16bc6e-b43c-4f98-8131-ab9e4929d541","system_id":"levelo_inurba_marseille","lat":43.273739,"lon":5.362603,"is_reserved":false,"is_disabled":false,"rental_uris":{"android":"levelo://app?vid=fe16bc6e-b43c-4f98-8131-ab9e4929d541","ios":"levelo://app?vid=fe16bc6e-b43c-4f98-8131-ab9e4929d541"},"vehicle_type_id":"4","last_reported":1750450348,"current_range_meters":6400,"station_id":"ce4bhbh2rcd13ifvqeo0","pricing_plan_id":"cebpf4jnsgd1na2vs0mg"},{"bike_id":"83737d08-2cf9-4f59-897d-adf2116f46d5","system_id":"levelo_inurba_marseille","lat":43.24067,"lon":5.37743,"is_reserved":false,"is_disabled":false,"rental_uris":{"android":"levelo://app?vid=83737d08-2cf9-4f59-897d-adf2116f46d5","ios":"levelo://app?vid=83737d08-2cf9-4f59-897d-adf2116f46d5"},"vehicle_type_id":"4","last_reported":1750450348,"current_range_meters":6800,"station_id":"ce4bhnp2rcd13ifvqgvg","pricing_plan_id":"cebpf4jnsgd1na2vs0mg"},{"bike_id":"dd45b830-666c-4c76-b06e-9938bffa2cad","system_id":"levelo_inurba_marseille","lat":43.319782,"lon":5.375366,"is_reserved":false,"is_disabled":false,"rental_uris":{"android":"levelo://app?vid=dd45b830-666c-4c76-b06e-9938bffa2cad","ios":"levelo://app?vid=dd45b830-666c-4c76-b06e-9938bffa2cad"},"vehicle_type_id":"4","last_reported":1750450348,"current_range_meters":7200,"station_id":"","pricing_plan_id":"cebpf4jnsgd1na2vs0mg"},{"bike_id":"f025e0b0-8595-426c-b214-cb9b74c5fcfd","system_id":"levelo_inurba_marseille","lat":43.32199,"lon":5.40574,"is_reserved":false,"is_disabled":false,"rental_uris":{"android":"levelo://app?vid=f025e0b0-8595-426c-b214-cb9b74c5fcfd","ios":"levelo://app?vid=f025e0b0-8595-426c-b214-cb9b74c5fcfd"},"vehicle_type_id":"4","last_reported":1750450348,"current_range_meters":7200,"station_id":"","pricing_plan_id":"cebpf4jnsgd1na2vs0mg"},{"bike_id":"8eecaebc-cf1b-47d1-af16-1216a09714af","system_id":"levelo_inurba_marseille","lat":43.31168,"lon":5.38715,"is_reserved":false,"is_disabled":false,"rental_uris":{"android":"levelo://app?vid=8eecaebc-cf1b-47d1-af16-1216a09714af","ios":"levelo://app?vid=8eecaebc-cf1b-47d1-af16-1216a09714af"},"vehicle_type_id":"4","last_reported":1750450348,"current_range_meters":7200,"station_id":"ce4bgv12rcd13ifvqcp0","pricing_plan_id":"cebpf4jnsgd1na2vs0mg"},{"bike_id":"0e2be5c5-a08f-42bd-aec6-343aeda0bc60","system_id":"levelo_inurba_marseille","lat":43.29426,"lon":5.38637,"is_reserved":false,"is_disabled":false,"rental_uris":{"android":"levelo://app?vid=0e2be5c5-a08f-42bd-aec6-343aeda0bc60","ios":"levelo://app?vid=0e2be5c5-a08f-42bd-aec6-343aeda0bc60"},"vehicle_type_id":"4","last_reported":1750450348,"current_range_meters":7200,"station_id":"ce4bh2h2rcd13ifvqdh0","pricing_plan_id":"cebpf4jnsgd1na2vs0mg"},{"bike_id":"a9095211-c3f5-45c2-b2ee-33f07a23a90e","system_id":"levelo_inurba_marseille","lat":43.26231,"lon":5.40449,"is_reserved":false,"is_disabled":false,"rental_uris":{"android":"levelo://app?vid=a9095211-c3f5-45c2-b2ee-33f07a23a90e","ios":"levelo://app?vid=a9095211-c3f5-45c2-b2ee-33f07a23a90e"},"vehicle_type_id":"4","last_reported":1750450348,"current_range_meters":7200,"station_id":"ce4bhmh2rcd13ifvqgmg","pricing_plan_id":"cebpf4jnsgd1na2vs0mg"},{"bike_id":"3b3075b1-87e9-43af-9d88-48c91d4da194","system_id":"levelo_inurba_marseille","lat":43.27801,"lon":5.40668,"is_reserved":false,"is_disabled":false,"rental_uris":{"android":"levelo://app?vid=3b3075b1-87e9-43af-9d88-48c91d4da194","ios":"levelo://app?vid=3b3075b1-87e9-43af-9d88-48c91d4da194"},"vehicle_type_id":"4","last_reported":1750450348,"current_range_meters":7200,"station_id":"ce4bhnh2rcd13ifvqgtg","pricing_plan_id":"cebpf4jnsgd1na2vs0mg"},{"bike_id":"687cba7f-bdca-4db7-bfe5-077b3722cd5b","system_id":"levelo_inurba_marseille","lat":43.31706,"lon":5.43706,"is_reserved":false,"is_disabled":false,"rental_uris":{"android":"levelo://app?vid=687cba7f-bdca-4db7-bfe5-077b3722cd5b","ios":"levelo://app?vid=687cba7f-bdca-4db7-bfe5-077b3722cd5b"},"vehicle_type_id":"4","last_reported":1750450348,"current_range_meters":7200,"station_id":"ce4bhp92rcd13ifvqhcg","pricing_plan_id":"cebpf4jnsgd1na2vs0mg"},{"bike_id":"2ba15014-00a2-44f1-94b9-b5a914d70405","system_id":"levelo_inurba_marseille","lat":43.33604,"lon":5.40982,"is_reserved":false,"is_disabled":false,"rental_uris":{"android":"levelo://app?vid=2ba15014-00a2-44f1-94b9-b5a914d70405","ios":"levelo://app?vid=2ba15014-00a2-44f1-94b9-b5a914d70405"},"vehicle_type_id":"4","last_reported":1750450348,"current_range_meters":7200,"station_id":"ce4bhqh2rcd13ifvqhmg","pricing_plan_id":"cebpf4jnsgd1na2vs0mg"},{"bike_id":"490e922c-04ac-47db-a75f-4ffe68627c40","system_id":"levelo_inurba_marseille","lat":43.33026,"lon":5.39047,"is_reserved":false,"is_disabled":false,"rental_uris":{"android":"levelo://app?vid=490e922c-04ac-47db-a75f-4ffe68627c40","ios":"levelo://app?vid=490e922c-04ac-47db-a75f-4ffe68627c40"},"vehicle_type_id":"4","last_reported":1750450348,"current_range_meters":7200,"station_id":"ce4bhr92rcd13ifvqhrg","pricing_plan_id":"cebpf4jnsgd1na2vs0mg"},{"bike_id":"73521383-be10-4e11-87d9-5858a5a26f0a","system_id":"levelo_inurba_marseille","lat":43.337444,"lon":5.374475,"is_reserved":false,"is_disabled":false,"rental_uris":{"android":"levelo://app?vid=73521383-be10-4e11-87d9-5858a5a26f0a","ios":"levelo://app?vid=73521383-be10-4e11-87d9-5858a5a26f0a"},"vehicle_type_id":"4","last_reported":1750450348,"current_range_meters":8000,"station_id":"","pricing_plan_id":"cebpf4jnsgd1na2vs0mg"},{"bike_id":"df735c88-ae0a-4f8e-9723-d29eb27d80b9","system_id":"levelo_inurba_marseille","lat":43.2992,"lon":5.37634,"is_reserved":false,"is_disabled":false,"rental_uris":{"android":"levelo://app?vid=df735c88-ae0a-4f8e-9723-d29eb27d80b9","ios":"levelo://app?vid=df735c88-ae0a-4f8e-9723-d29eb27d80b9"},"vehicle_type_id":"4","last_reported":1750450348,"current_range_meters":8000,"station_id":"","pricing_plan_id":"cebpf4jnsgd1na2vs0mg"},{"bike_id":"063671b9-3628-4d01-ada9-0bee1bc97444","system_id":"levelo_inurba_marseille","lat":43.307922,"lon":5.381548,"is_reserved":false,"is_disabled":false,"rental_uris":{"android":"levelo://app?vid=063671b9-3628-4d01-ada9-0bee1bc97444","ios":"levelo://app?vid=063671b9-3628-4d01-ada9-0bee1bc97444"},"vehicle_type_id":"4","last_reported":1750450348,"current_range_meters":8000,"station_id":"ce4bgt12rcd13ifvqce0","pricing_plan_id":"cebpf4jnsgd1na2vs0mg"},{"bike_id":"ed15df40-03a9-49f9-8a44-f7e403903464","system_id":"levelo_inurba_marseille","lat":43.24385,"lon":5.37057,"is_reserved":false,"is_disabled":false,"rental_uris":{"android":"levelo://app?vid=ed15df40-03a9-49f9-8a44-f7e403903464","ios":"levelo://app?vid=ed15df40-03a9-49f9-8a44-f7e403903464"},"vehicle_type_id":"4","last_reported":1750450348,"current_range_meters":8000,"station_id":"ce4bhhh2rcd13ifvqfk0","pricing_plan_id":"cebpf4jnsgd1na2vs0mg"},{"bike_id":"c5c75dcc-bac0-4c8b-944d-188489960f20","system_id":"levelo_inurba_marseille","lat":43.30784,"lon":5.39202,"is_reserved":false,"is_disabled":false,"rental_uris":{"android":"levelo://app?vid=c5c75dcc-bac0-4c8b-944d-188489960f20","ios":"levelo://app?vid=c5c75dcc-bac0-4c8b-944d-188489960f20"},"vehicle_type_id":"4","last_reported":1750450348,"current_range_meters":8400,"station_id":"","pricing_plan_id":"cebpf4jnsgd1na2vs0mg"},{"bike_id":"5b1492ef-a127-4b17-86c7-b2e570698e65","system_id":"levelo_inurba_marseille","lat":43.30551,"lon":5.36542,"is_reserved":false,"is_disabled":false,"rental_uris":{"android":"levelo://app?vid=5b1492ef-a127-4b17-86c7-b2e570698e65","ios":"levelo://app?vid=5b1492ef-a127-4b17-86c7-b2e570698e65"},"vehicle_type_id":"4","last_reported":1750450348,"current_range_meters":8400,"station_id":"ce4bgs12rcd13ifvqcag","pricing_plan_id":"cebpf4jnsgd1na2vs0mg"},{"bike_id":"5b5a648f-b20c-4f8f-a699-417c89bb743c","system_id":"levelo_inurba_marseille","lat":43.29573,"lon":5.3997,"is_reserved":false,"is_disabled":false,"rental_uris":{"android":"levelo://app?vid=5b5a648f-b20c-4f8f-a699-417c89bb743c","ios":"levelo://app?vid=5b5a648f-b20c-4f8f-a699-417c89bb743c"},"vehicle_type_id":"4","last_reported":1750450348,"current_range_meters":8400,"station_id":"ce4bh312rcd13ifvqdj0","pricing_plan_id":"cebpf4jnsgd1na2vs0mg"},{"bike_id":"a26150d7-3e15-48c7-9b6f-70db3b8f3c9f","system_id":"levelo_inurba_marseille","lat":43.29279,"lon":5.4012,"is_reserved":false,"is_disabled":false,"rental_uris":{"android":"levelo://app?vid=a26150d7-3e15-48c7-9b6f-70db3b8f3c9f","ios":"levelo://app?vid=a26150d7-3e15-48c7-9b6f-70db3b8f3c9f"},"vehicle_type_id":"4","last_reported":1750450348,"current_range_meters":8400,"station_id":"ce4bh312rcd13ifvqdk0","pricing_plan_id":"cebpf4jnsgd1na2vs0mg"},{"bike_id":"2930bf7b-2372-4ddb-a96e-39fc10a37e17","system_id":"levelo_inurba_marseille","lat":43.32335,"lon":5.40622,"is_reserved":false,"is_disabled":false,"rental_uris":{"android":"levelo://app?vid=2930bf7b-2372-4ddb-a96e-39fc10a37e17","ios":"levelo://app?vid=2930bf7b-2372-4ddb-a96e-39fc10a37e17"},"vehicle_type_id":"4","last_reported":1750450348,"current_range_meters":8400,"station_id":"ce4bhq92rcd13ifvqhjg","pricing_plan_id":"cebpf4jnsgd1na2vs0mg"},{"bike_id":"780312c6-fb3c-420c-aa0a-1b3858289cf1","system_id":"levelo_inurba_marseille","lat":43.26933,"lon":5.40311,"is_reserved":false,"is_disabled":false,"rental_uris":{"android":"levelo://app?vid=780312c6-fb3c-420c-aa0a-1b3858289cf1","ios":"levelo://app?vid=780312c6-fb3c-420c-aa0a-1b3858289cf1"},"vehicle_type_id":"4","last_reported":1750450348,"current_range_meters":8400,"station_id":"cjm6bp8fraef2m0cb0m0","pricing_plan_id":"cebpf4jnsgd1na2vs0mg"},{"bike_id":"f2169430-8ab5-4f68-846f-87f05b34d076","system_id":"levelo_inurba_marseille","lat":43.21205,"lon":5.35051,"is_reserved":false,"is_disabled":false,"rental_uris":{"android":"levelo://app?vid=f2169430-8ab5-4f68-846f-87f05b34d076","ios":"levelo://app?vid=f2169430-8ab5-4f68-846f-87f05b34d076"},"vehicle_type_id":"4","last_reported":1750450348,"current_range_meters":8400,"station_id":"st_cvj6sg6p6f1abm77japg","pricing_plan_id":"cebpf4jnsgd1na2vs0mg"},{"bike_id":"4f840ece-db76-4ddc-94e5-d1aba639fb48","system_id":"levelo_inurba_marseille","lat":43.29408,"lon":5.42853,"is_reserved":false,"is_disabled":false,"rental_uris":{"android":"levelo://app?vid=4f840ece-db76-4ddc-94e5-d1aba639fb48","ios":"levelo://app?vid=4f840ece-db76-4ddc-94e5-d1aba639fb48"},"vehicle_type_id":"4","last_reported":1750450348,"current_range_meters":8800,"station_id":"","pricing_plan_id":"cebpf4jnsgd1na2vs0mg"},{"bike_id":"b2cd42bf-c374-4718-86cd-ce0a1099bcec","system_id":"levelo_inurba_marseille","lat":43.30178,"lon":5.36601,"is_reserved":false,"is_disabled":false,"rental_uris":{"android":"levelo://app?vid=b2cd42bf-c374-4718-86cd-ce0a1099bcec","ios":"levelo://app?vid=b2cd42bf-c374-4718-86cd-ce0a1099bcec"},"vehicle_type_id":"4","last_reported":1750450348,"current_range_meters":8800,"station_id":"ce4bgrh2rcd13ifvqc8g","pricing_plan_id":"cebpf4jnsgd1na2vs0mg"},{"bike_id":"103505e8-f8b2-4fee-8868-2ae49b02df78","system_id":"levelo_inurba_marseille","lat":43.2836,"lon":5.380923,"is_reserved":false,"is_disabled":false,"rental_uris":{"android":"levelo://app?vid=103505e8-f8b2-4fee-8868-2ae49b02df78","ios":"levelo://app?vid=103505e8-f8b2-4fee-8868-2ae49b02df78"},"vehicle_type_id":"4","last_reported":1750450348,"current_range_meters":8800,"station_id":"ce4bh412rcd13ifvqdr0","pricing_plan_id":"cebpf4jnsgd1na2vs0mg"},{"bike_id":"217d6e11-31d7-49a5-a679-d086d46e591f","system_id":"levelo_inurba_marseille","lat":43.2927,"lon":5.38433,"is_reserved":false,"is_disabled":false,"rental_uris":{"android":"levelo://app?vid=217d6e11-31d7-49a5-a679-d086d46e591f","ios":"levelo://app?vid=217d6e11-31d7-49a5-a679-d086d46e591f"},"vehicle_type_id":"4","last_reported":1750450348,"current_range_meters":8800,"station_id":"ce4bh692rcd13ifvqea0","pricing_plan_id":"cebpf4jnsgd1na2vs0mg"},{"bike_id":"8cbbc6ab-eedd-4df2-bef8-61d4fae3044a","system_id":"levelo_inurba_marseille","lat":43.286125,"lon":5.350985,"is_reserved":false,"is_disabled":false,"rental_uris":{"android":"levelo://app?vid=8cbbc6ab-eedd-4df2-bef8-61d4fae3044a","ios":"levelo://app?vid=8cbbc6ab-eedd-4df2-bef8-61d4fae3044a"},"vehicle_type_id":"4","last_reported":1750450348,"current_range_meters":8800,"station_id":"ce4bhch2rcd13ifvqeug","pricing_plan_id":"cebpf4jnsgd1na2vs0mg"},{"bike_id":"336adeeb-85bd-47f5-bc60-7e8ea4af00c1","system_id":"levelo_inurba_marseille","lat":43.279362,"lon":5.410397,"is_reserved":false,"is_disabled":false,"rental_uris":{"android":"levelo://app?vid=336adeeb-85bd-47f5-bc60-7e8ea4af00c1","ios":"levelo://app?vid=336adeeb-85bd-47f5-bc60-7e8ea4af00c1"},"vehicle_type_id":"4","last_reported":1750450348,"current_range_meters":8800,"station_id":"ce4bhnp2rcd13ifvqh0g","pricing_plan_id":"cebpf4jnsgd1na2vs0mg"},{"bike_id":"b462b840-2c50-442c-8c30-4ef8e291c262","system_id":"levelo_inurba_marseille","lat":43.29846,"lon":5.36274,"is_reserved":false,"is_disabled":false,"rental_uris":{"android":"levelo://app?vid=b462b840-2c50-442c-8c30-4ef8e291c262","ios":"levelo://app?vid=b462b840-2c50-442c-8c30-4ef8e291c262"},"vehicle_type_id":"4","last_reported":1750450348,"current_range_meters":9200,"station_id":"ce4bgpp2rcd13ifvqc3g","pricing_plan_id":"cebpf4jnsgd1na2vs0mg"},{"bike_id":"1fe97adf-76a8-4a04-875d-80f0c8800585","system_id":"levelo_inurba_marseille","lat":43.26677,"lon":5.38261,"is_reserved":false,"is_disabled":false,"rental_uris":{"android":"levelo://app?vid=1fe97adf-76a8-4a04-875d-80f0c8800585","ios":"levelo://app?vid=1fe97adf-76a8-4a04-875d-80f0c8800585"},"vehicle_type_id":"4","last_reported":1750450348,"current_range_meters":9200,"station_id":"ce4bhg92rcd13ifvqf90","pricing_plan_id":"cebpf4jnsgd1na2vs0mg"},{"bike_id":"3ab62868-aaed-4fea-9add-b2601faf1970","system_id":"levelo_inurba_marseille","lat":43.2721,"lon":5.39177,"is_reserved":false,"is_disabled":false,"rental_uris":{"android":"levelo://app?vid=3ab62868-aaed-4fea-9add-b2601faf1970","ios":"levelo://app?vid=3ab62868-aaed-4fea-9add-b2601faf1970"},"vehicle_type_id":"4","last_reported":1750450348,"current_range_meters":9200,"station_id":"ce4bhhp2rcd13ifvqfm0","pricing_plan_id":"cebpf4jnsgd1na2vs0mg"},{"bike_id":"e5ace183-eafa-4977-9870-6547326bba36","system_id":"levelo_inurba_marseille","lat":43.30947,"lon":5.39052,"is_reserved":false,"is_disabled":false,"rental_uris":{"android":"levelo://app?vid=e5ace183-eafa-4977-9870-6547326bba36","ios":"levelo://app?vid=e5ace183-eafa-4977-9870-6547326bba36"},"vehicle_type_id":"4","last_reported":1750450348,"current_range_meters":9600,"station_id":"ce4bgup2rcd13ifvqco0","pricing_plan_id":"cebpf4jnsgd1na2vs0mg"},{"bike_id":"2f521d3c-18b1-4ef6-9f64-871cff556324","system_id":"levelo_inurba_marseille","lat":43.2857,"lon":5.39499,"is_reserved":false,"is_disabled":false,"rental_uris":{"android":"levelo://app?vid=2f521d3c-18b1-4ef6-9f64-871cff556324","ios":"levelo://app?vid=2f521d3c-18b1-4ef6-9f64-871cff556324"},"vehicle_type_id":"4","last_reported":1750450348,"current_range_meters":9600,"station_id":"ce4bh292rcd13ifvqdg0","pricing_plan_id":"cebpf4jnsgd1na2vs0mg"},{"bike_id":"8b250626-15e3-4d77-a796-b294f9055d58","system_id":"levelo_inurba_marseille","lat":43.2466,"lon":5.38163,"is_reserved":false,"is_disabled":false,"rental_uris":{"android":"levelo://app?vid=8b250626-15e3-4d77-a796-b294f9055d58","ios":"levelo://app?vid=8b250626-15e3-4d77-a796-b294f9055d58"},"vehicle_type_id":"4","last_reported":1750450348,"current_range_meters":9600,"station_id":"ce4bhih2rcd13ifvqfr0","pricing_plan_id":"cebpf4jnsgd1na2vs0mg"},{"bike_id":"dd9c9196-f4cd-4c02-ba16-2527def80477","system_id":"levelo_inurba_marseille","lat":43.279952,"lon":5.400052,"is_reserved":false,"is_disabled":false,"rental_uris":{"android":"levelo://app?vid=dd9c9196-f4cd-4c02-ba16-2527def80477","ios":"levelo://app?vid=dd9c9196-f4cd-4c02-ba16-2527def80477"},"vehicle_type_id":"4","last_reported":1750450348,"current_range_meters":9600,"station_id":"ce4bho92rcd13ifvqh4g","pricing_plan_id":"cebpf4jnsgd1na2vs0mg"},{"bike_id":"eb86011f-5d60-40ae-8afd-67dd8d54e4c5","system_id":"levelo_inurba_marseille","lat":43.318903,"lon":5.407463,"is_reserved":false,"is_disabled":false,"rental_uris":{"android":"levelo://app?vid=eb86011f-5d60-40ae-8afd-67dd8d54e4c5","ios":"levelo://app?vid=eb86011f-5d60-40ae-8afd-67dd8d54e4c5"},"vehicle_type_id":"4","last_reported":1750450348,"current_range_meters":9600,"station_id":"ce4bhq12rcd13ifvqhig","pricing_plan_id":"cebpf4jnsgd1na2vs0mg"},{"bike_id":"ac22e8d9-22bc-4e4e-8419-90bac20181b1","system_id":"levelo_inurba_marseille","lat":43.29302,"lon":5.37167,"is_reserved":false,"is_disabled":false,"rental_uris":{"android":"levelo://app?vid=ac22e8d9-22bc-4e4e-8419-90bac20181b1","ios":"levelo://app?vid=ac22e8d9-22bc-4e4e-8419-90bac20181b1"},"vehicle_type_id":"4","last_reported":1750450348,"current_range_meters":10000,"station_id":"ce4bgh92rcd13ifvqb40","pricing_plan_id":"cebpf4jnsgd1na2vs0mg"},{"bike_id":"e072a3b0-7903-40be-a0b9-12b46e313af0","system_id":"levelo_inurba_marseille","lat":43.31711,"lon":5.37732,"is_reserved":false,"is_disabled":false,"rental_uris":{"android":"levelo://app?vid=e072a3b0-7903-40be-a0b9-12b46e313af0","ios":"levelo://app?vid=e072a3b0-7903-40be-a0b9-12b46e313af0"},"vehicle_type_id":"4","last_reported":1750450348,"current_range_meters":10000,"station_id":"ce4bgth2rcd13ifvqch0","pricing_plan_id":"cebpf4jnsgd1na2vs0mg"},{"bike_id":"611f2f6b-dfe8-451b-be74-b3029087a03b","system_id":"levelo_inurba_marseille","lat":43.3095,"lon":5.39041,"is_reserved":false,"is_disabled":false,"rental_uris":{"android":"levelo://app?vid=611f2f6b-dfe8-451b-be74-b3029087a03b","ios":"levelo://app?vid=611f2f6b-dfe8-451b-be74-b3029087a03b"},"vehicle_type_id":"4","last_reported":1750450348,"current_range_meters":10000,"station_id":"ce4bgup2rcd13ifvqco0","pricing_plan_id":"cebpf4jnsgd1na2vs0mg"},{"bike_id":"45c74be9-33c5-4626-8dfd-5458fdaf54b3","system_id":"levelo_inurba_marseille","lat":43.31327,"lon":5.39686,"is_reserved":false,"is_disabled":false,"rental_uris":{"android":"levelo://app?vid=45c74be9-33c5-4626-8dfd-5458fdaf54b3","ios":"levelo://app?vid=45c74be9-33c5-4626-8dfd-5458fdaf54b3"},"vehicle_type_id":"4","last_reported":1750450348,"current_range_meters":10000,"station_id":"ce4bgvp2rcd13ifvqcu0","pricing_plan_id":"cebpf4jnsgd1na2vs0mg"},{"bike_id":"52db7309-4826-4f54-a1e7-b7436af2b8b1","system_id":"levelo_inurba_marseille","lat":43.28483,"lon":5.38558,"is_reserved":false,"is_disabled":false,"rental_uris":{"android":"levelo://app?vid=52db7309-4826-4f54-a1e7-b7436af2b8b1","ios":"levelo://app?vid=52db7309-4826-4f54-a1e7-b7436af2b8b1"},"vehicle_type_id":"4","last_reported":1750450348,"current_range_meters":10000,"station_id":"ce4bh8p2rcd13ifvqeb0","pricing_plan_id":"cebpf4jnsgd1na2vs0mg"},{"bike_id":"e5343e84-b474-4476-bf46-a2f5ba154e33","system_id":"levelo_inurba_marseille","lat":43.26557,"lon":5.37286,"is_reserved":false,"is_disabled":false,"rental_uris":{"android":"levelo://app?vid=e5343e84-b474-4476-bf46-a2f5ba154e33","ios":"levelo://app?vid=e5343e84-b474-4476-bf46-a2f5ba154e33"},"vehicle_type_id":"4","last_reported":1750450348,"current_range_meters":10000,"station_id":"ce4bhg12rcd13ifvqf70","pricing_plan_id":"cebpf4jnsgd1na2vs0mg"},{"bike_id":"56a511b9-e638-4f1f-87f5-8df1ee2beb52","system_id":"levelo_inurba_marseille","lat":43.26213,"lon":5.37438,"is_reserved":false,"is_disabled":false,"rental_uris":{"android":"levelo://app?vid=56a511b9-e638-4f1f-87f5-8df1ee2beb52","ios":"levelo://app?vid=56a511b9-e638-4f1f-87f5-8df1ee2beb52"},"vehicle_type_id":"4","last_reported":1750450348,"current_range_meters":10000,"station_id":"ce4bhgp2rcd13ifvqfc0","pricing_plan_id":"cebpf4jnsgd1na2vs0mg"},{"bike_id":"6eec6455-39a4-4283-ab50-3a4961116b52","system_id":"levelo_inurba_marseille","lat":43.28932,"lon":5.38395,"is_reserved":false,"is_disabled":false,"rental_uris":{"android":"levelo://app?vid=6eec6455-39a4-4283-ab50-3a4961116b52","ios":"levelo://app?vid=6eec6455-39a4-4283-ab50-3a4961116b52"},"vehicle_type_id":"4","last_reported":1750450348,"current_range_meters":10800,"station_id":"ce4bh612rcd13ifvqe6g","pricing_plan_id":"cebpf4jnsgd1na2vs0mg"},{"bike_id":"11c6ebec-7372-42db-8d20-c7842d3a5ddd","system_id":"levelo_inurba_marseille","lat":43.24385,"lon":5.3706,"is_reserved":false,"is_disabled":false,"rental_uris":{"android":"levelo://app?vid=11c6ebec-7372-42db-8d20-c7842d3a5ddd","ios":"levelo://app?vid=11c6ebec-7372-42db-8d20-c7842d3a5ddd"},"vehicle_type_id":"4","last_reported":1750450348,"current_range_meters":10800,"station_id":"ce4bhhh2rcd13ifvqfk0","pricing_plan_id":"cebpf4jnsgd1na2vs0mg"},{"bike_id":"226f9053-f467-4aee-bab3-f8d8708a8049","system_id":"levelo_inurba_marseille","lat":43.33023,"lon":5.3902,"is_reserved":false,"is_disabled":false,"rental_uris":{"android":"levelo://app?vid=226f9053-f467-4aee-bab3-f8d8708a8049","ios":"levelo://app?vid=226f9053-f467-4aee-bab3-f8d8708a8049"},"vehicle_type_id":"4","last_reported":1750450348,"current_range_meters":10800,"station_id":"ce4bhr92rcd13ifvqhrg","pricing_plan_id":"cebpf4jnsgd1na2vs0mg"},{"bike_id":"1130ad13-103a-4985-b9eb-a470f985b800","system_id":"levelo_inurba_marseille","lat":43.3374,"lon":5.39184,"is_reserved":false,"is_disabled":false,"rental_uris":{"android":"levelo://app?vid=1130ad13-103a-4985-b9eb-a470f985b800","ios":"levelo://app?vid=1130ad13-103a-4985-b9eb-a470f985b800"},"vehicle_type_id":"4","last_reported":1750450348,"current_range_meters":10800,"station_id":"ce4bhr92rcd13ifvqhsg","pricing_plan_id":"cebpf4jnsgd1na2vs0mg"},{"bike_id":"f30123e7-96d3-442d-9d01-6c98dc61e7c8","system_id":"levelo_inurba_marseille","lat":43.29791,"lon":5.36861,"is_reserved":false,"is_disabled":false,"rental_uris":{"android":"levelo://app?vid=f30123e7-96d3-442d-9d01-6c98dc61e7c8","ios":"levelo://app?vid=f30123e7-96d3-442d-9d01-6c98dc61e7c8"},"vehicle_type_id":"4","last_reported":1750450348,"current_range_meters":11200,"station_id":"","pricing_plan_id":"cebpf4jnsgd1na2vs0mg"},{"bike_id":"735e5162-2d4e-42d5-a525-bb90f78dcd18","system_id":"levelo_inurba_marseille","lat":43.30534,"lon":5.36706,"is_reserved":false,"is_disabled":false,"rental_uris":{"android":"levelo://app?vid=735e5162-2d4e-42d5-a525-bb90f78dcd18","ios":"levelo://app?vid=735e5162-2d4e-42d5-a525-bb90f78dcd18"},"vehicle_type_id":"4","last_reported":1750450348,"current_range_meters":11200,"station_id":"ce4bgrp2rcd13ifvqc9g","pricing_plan_id":"cebpf4jnsgd1na2vs0mg"},{"bike_id":"fab80d2f-00f5-478f-8585-e0cde86f0ec3","system_id":"levelo_inurba_marseille","lat":43.2738,"lon":5.36249,"is_reserved":false,"is_disabled":false,"rental_uris":{"android":"levelo://app?vid=fab80d2f-00f5-478f-8585-e0cde86f0ec3","ios":"levelo://app?vid=fab80d2f-00f5-478f-8585-e0cde86f0ec3"},"vehicle_type_id":"4","last_reported":1750450348,"current_range_meters":11200,"station_id":"ce4bhbh2rcd13ifvqeo0","pricing_plan_id":"cebpf4jnsgd1na2vs0mg"},{"bike_id":"7c607cae-d549-4454-9d8b-baa5d6e88b39","system_id":"levelo_inurba_marseille","lat":43.24804,"lon":5.37455,"is_reserved":false,"is_disabled":false,"rental_uris":{"android":"levelo://app?vid=7c607cae-d549-4454-9d8b-baa5d6e88b39","ios":"levelo://app?vid=7c607cae-d549-4454-9d8b-baa5d6e88b39"},"vehicle_type_id":"4","last_reported":1750450348,"current_range_meters":11200,"station_id":"ce4bhgh2rcd13ifvqfb0","pricing_plan_id":"cebpf4jnsgd1na2vs0mg"},{"bike_id":"98b99e75-0eea-44c1-90a1-c4ed879c09db","system_id":"levelo_inurba_marseille","lat":43.25497,"lon":5.376465,"is_reserved":false,"is_disabled":false,"rental_uris":{"android":"levelo://app?vid=98b99e75-0eea-44c1-90a1-c4ed879c09db","ios":"levelo://app?vid=98b99e75-0eea-44c1-90a1-c4ed879c09db"},"vehicle_type_id":"4","last_reported":1750450348,"current_range_meters":11200,"station_id":"ce4bhh12rcd13ifvqff0","pricing_plan_id":"cebpf4jnsgd1na2vs0mg"},{"bike_id":"199c2831-e081-4bc0-9b94-19503817091d","system_id":"levelo_inurba_marseille","lat":43.249043,"lon":5.406681,"is_reserved":false,"is_disabled":false,"rental_uris":{"android":"levelo://app?vid=199c2831-e081-4bc0-9b94-19503817091d","ios":"levelo://app?vid=199c2831-e081-4bc0-9b94-19503817091d"},"vehicle_type_id":"4","last_reported":1750450348,"current_range_meters":11600,"station_id":"","pricing_plan_id":"cebpf4jnsgd1na2vs0mg"},{"bike_id":"7a76abab-12d1-427c-a57b-19fe1db046ba","system_id":"levelo_inurba_marseille","lat":43.30956,"lon":5.39078,"is_reserved":false,"is_disabled":false,"rental_uris":{"android":"levelo://app?vid=7a76abab-12d1-427c-a57b-19fe1db046ba","ios":"levelo://app?vid=7a76abab-12d1-427c-a57b-19fe1db046ba"},"vehicle_type_id":"4","last_reported":1750450348,"current_range_meters":11600,"station_id":"ce4bgup2rcd13ifvqco0","pricing_plan_id":"cebpf4jnsgd1na2vs0mg"},{"bike_id":"29ebffb9-7367-46df-bb9e-6091196da560","system_id":"levelo_inurba_marseille","lat":43.26192,"lon":5.37442,"is_reserved":false,"is_disabled":false,"rental_uris":{"android":"levelo://app?vid=29ebffb9-7367-46df-bb9e-6091196da560","ios":"levelo://app?vid=29ebffb9-7367-46df-bb9e-6091196da560"},"vehicle_type_id":"4","last_reported":1750450348,"current_range_meters":11600,"station_id":"ce4bhgp2rcd13ifvqfc0","pricing_plan_id":"cebpf4jnsgd1na2vs0mg"},{"bike_id":"1e11989f-e475-4397-9a45-bd9147224a5e","system_id":"levelo_inurba_marseille","lat":43.244035,"lon":5.371085,"is_reserved":false,"is_disabled":false,"rental_uris":{"android":"levelo://app?vid=1e11989f-e475-4397-9a45-bd9147224a5e","ios":"levelo://app?vid=1e11989f-e475-4397-9a45-bd9147224a5e"},"vehicle_type_id":"4","last_reported":1750450348,"current_range_meters":11600,"station_id":"ce4bhhh2rcd13ifvqfk0","pricing_plan_id":"cebpf4jnsgd1na2vs0mg"},{"bike_id":"9d6a1e01-ce98-4415-8253-4044d4656dfe","system_id":"levelo_inurba_marseille","lat":43.32477,"lon":5.36566,"is_reserved":false,"is_disabled":false,"rental_uris":{"android":"levelo://app?vid=9d6a1e01-ce98-4415-8253-4044d4656dfe","ios":"levelo://app?vid=9d6a1e01-ce98-4415-8253-4044d4656dfe"},"vehicle_type_id":"4","last_reported":1750450348,"current_range_meters":11600,"station_id":"ce4bhs12rcd13ifvqhvg","pricing_plan_id":"cebpf4jnsgd1na2vs0mg"},{"bike_id":"8fd94bfe-b0a3-4509-a3c9-0f6e3f8eed78","system_id":"levelo_inurba_marseille","lat":43.24152,"lon":5.36397,"is_reserved":false,"is_disabled":false,"rental_uris":{"android":"levelo://app?vid=8fd94bfe-b0a3-4509-a3c9-0f6e3f8eed78","ios":"levelo://app?vid=8fd94bfe-b0a3-4509-a3c9-0f6e3f8eed78"},"vehicle_type_id":"4","last_reported":1750450348,"current_range_meters":11600,"station_id":"cpo36qri1sfpv3e86is0","pricing_plan_id":"cebpf4jnsgd1na2vs0mg"},{"bike_id":"aa056af6-d130-4b6d-98ed-817c9507eb30","system_id":"levelo_inurba_marseille","lat":43.29575,"lon":5.37499,"is_reserved":false,"is_disabled":false,"rental_uris":{"android":"levelo://app?vid=aa056af6-d130-4b6d-98ed-817c9507eb30","ios":"levelo://app?vid=aa056af6-d130-4b6d-98ed-817c9507eb30"},"vehicle_type_id":"4","last_reported":1750450348,"current_range_meters":12000,"station_id":"ce4bgh92rcd13ifvqb50","pricing_plan_id":"cebpf4jnsgd1na2vs0mg"},{"bike_id":"c4e634d6-e108-427b-b1d7-5d22226e4aed","system_id":"levelo_inurba_marseille","lat":43.27633,"lon":5.36099,"is_reserved":false,"is_disabled":false,"rental_uris":{"android":"levelo://app?vid=c4e634d6-e108-427b-b1d7-5d22226e4aed","ios":"levelo://app?vid=c4e634d6-e108-427b-b1d7-5d22226e4aed"},"vehicle_type_id":"4","last_reported":1750450348,"current_range_meters":12000,"station_id":"ce4bgj92rcd13ifvqbe0","pricing_plan_id":"cebpf4jnsgd1na2vs0mg"},{"bike_id":"8bb70313-1e39-45dc-809c-e95713b49376","system_id":"levelo_inurba_marseille","lat":43.29622,"lon":5.3717,"is_reserved":false,"is_disabled":false,"rental_uris":{"android":"levelo://app?vid=8bb70313-1e39-45dc-809c-e95713b49376","ios":"levelo://app?vid=8bb70313-1e39-45dc-809c-e95713b49376"},"vehicle_type_id":"4","last_reported":1750450348,"current_range_meters":12000,"station_id":"ce4bgnh2rcd13ifvqc0g","pricing_plan_id":"cebpf4jnsgd1na2vs0mg"},{"bike_id":"00e6cf4e-63c3-4b56-9c41-13fe3d998374","system_id":"levelo_inurba_marseille","lat":43.28359,"lon":5.38623,"is_reserved":false,"is_disabled":false,"rental_uris":{"android":"levelo://app?vid=00e6cf4e-63c3-4b56-9c41-13fe3d998374","ios":"levelo://app?vid=00e6cf4e-63c3-4b56-9c41-13fe3d998374"},"vehicle_type_id":"4","last_reported":1750450348,"current_range_meters":12000,"station_id":"ce4bh492rcd13ifvqdvg","pricing_plan_id":"cebpf4jnsgd1na2vs0mg"},{"bike_id":"04694ddd-bf8e-4a04-a095-88283d6986fe","system_id":"levelo_inurba_marseille","lat":43.24663,"lon":5.38163,"is_reserved":false,"is_disabled":false,"rental_uris":{"android":"levelo://app?vid=04694ddd-bf8e-4a04-a095-88283d6986fe","ios":"levelo://app?vid=04694ddd-bf8e-4a04-a095-88283d6986fe"},"vehicle_type_id":"4","last_reported":1750450348,"current_range_meters":12000,"station_id":"ce4bhih2rcd13ifvqfr0","pricing_plan_id":"cebpf4jnsgd1na2vs0mg"},{"bike_id":"8300812b-c3f4-4460-a462-0c10590e5460","system_id":"levelo_inurba_marseille","lat":43.32888,"lon":5.4056,"is_reserved":false,"is_disabled":false,"rental_uris":{"android":"levelo://app?vid=8300812b-c3f4-4460-a462-0c10590e5460","ios":"levelo://app?vid=8300812b-c3f4-4460-a462-0c10590e5460"},"vehicle_type_id":"4","last_reported":1750450348,"current_range_meters":12400,"station_id":"","pricing_plan_id":"cebpf4jnsgd1na2vs0mg"},{"bike_id":"e178a6b4-9956-4554-beea-26209f3ac9db","system_id":"levelo_inurba_marseille","lat":43.29602,"lon":5.38092,"is_reserved":false,"is_disabled":false,"rental_uris":{"android":"levelo://app?vid=e178a6b4-9956-4554-beea-26209f3ac9db","ios":"levelo://app?vid=e178a6b4-9956-4554-beea-26209f3ac9db"},"vehicle_type_id":"4","last_reported":1750450348,"current_range_meters":12400,"station_id":"ce4bgl12rcd13ifvqbo0","pricing_plan_id":"cebpf4jnsgd1na2vs0mg"},{"bike_id":"45491527-88c5-455b-ad6f-f836cb91d07c","system_id":"levelo_inurba_marseille","lat":43.25083,"lon":5.39522,"is_reserved":false,"is_disabled":false,"rental_uris":{"android":"levelo://app?vid=45491527-88c5-455b-ad6f-f836cb91d07c","ios":"levelo://app?vid=45491527-88c5-455b-ad6f-f836cb91d07c"},"vehicle_type_id":"4","last_reported":1750450348,"current_range_meters":12400,"station_id":"ce4bhm12rcd13ifvqgkg","pricing_plan_id":"cebpf4jnsgd1na2vs0mg"},{"bike_id":"1ebeead1-c32b-4049-b7ba-80f517718485","system_id":"levelo_inurba_marseille","lat":43.292648,"lon":5.376354,"is_reserved":false,"is_disabled":false,"rental_uris":{"android":"levelo://app?vid=1ebeead1-c32b-4049-b7ba-80f517718485","ios":"levelo://app?vid=1ebeead1-c32b-4049-b7ba-80f517718485"},"vehicle_type_id":"4","last_reported":1750450348,"current_range_meters":12800,"station_id":"ce4bgj92rcd13ifvqbe0","pricing_plan_id":"cebpf4jnsgd1na2vs0mg"},{"bike_id":"05f69300-23b4-44be-a7e1-398a0efe81a4","system_id":"levelo_inurba_marseille","lat":43.31684,"lon":5.40472,"is_reserved":false,"is_disabled":false,"rental_uris":{"android":"levelo://app?vid=05f69300-23b4-44be-a7e1-398a0efe81a4","ios":"levelo://app?vid=05f69300-23b4-44be-a7e1-398a0efe81a4"},"vehicle_type_id":"4","last_reported":1750450348,"current_range_meters":12800,"station_id":"ce4bh012rcd13ifvqd00","pricing_plan_id":"cebpf4jnsgd1na2vs0mg"},{"bike_id":"cc441163-8ce8-45b1-8943-34a016f946bc","system_id":"levelo_inurba_marseille","lat":43.29026,"lon":5.38637,"is_reserved":false,"is_disabled":false,"rental_uris":{"android":"levelo://app?vid=cc441163-8ce8-45b1-8943-34a016f946bc","ios":"levelo://app?vid=cc441163-8ce8-45b1-8943-34a016f946bc"},"vehicle_type_id":"4","last_reported":1750450348,"current_range_meters":12800,"station_id":"ce4bh4p2rcd13ifvqe0g","pricing_plan_id":"cebpf4jnsgd1na2vs0mg"},{"bike_id":"0eb04758-0b59-4b82-b42b-fbfc24d51078","system_id":"levelo_inurba_marseille","lat":43.27376,"lon":5.36258,"is_reserved":false,"is_disabled":false,"rental_uris":{"android":"levelo://app?vid=0eb04758-0b59-4b82-b42b-fbfc24d51078","ios":"levelo://app?vid=0eb04758-0b59-4b82-b42b-fbfc24d51078"},"vehicle_type_id":"4","last_reported":1750450348,"current_range_meters":12800,"station_id":"ce4bhbh2rcd13ifvqeo0","pricing_plan_id":"cebpf4jnsgd1na2vs0mg"},{"bike_id":"224059cd-6bc7-4a8b-ab39-941ff7cf6385","system_id":"levelo_inurba_marseille","lat":43.26204,"lon":5.37445,"is_reserved":false,"is_disabled":false,"rental_uris":{"android":"levelo://app?vid=224059cd-6bc7-4a8b-ab39-941ff7cf6385","ios":"levelo://app?vid=224059cd-6bc7-4a8b-ab39-941ff7cf6385"},"vehicle_type_id":"4","last_reported":1750450348,"current_range_meters":12800,"station_id":"ce4bhgp2rcd13ifvqfc0","pricing_plan_id":"cebpf4jnsgd1na2vs0mg"},{"bike_id":"6eda8e3f-a810-472a-bfc2-635e223b6df4","system_id":"levelo_inurba_marseille","lat":43.2768,"lon":5.3887,"is_reserved":false,"is_disabled":false,"rental_uris":{"android":"levelo://app?vid=6eda8e3f-a810-472a-bfc2-635e223b6df4","ios":"levelo://app?vid=6eda8e3f-a810-472a-bfc2-635e223b6df4"},"vehicle_type_id":"4","last_reported":1750450348,"current_range_meters":12800,"station_id":"ce4bhi12rcd13ifvqfo0","pricing_plan_id":"cebpf4jnsgd1na2vs0mg"},{"bike_id":"f65505f7-bdc9-40cf-a641-25b38f2e8d77","system_id":"levelo_inurba_marseille","lat":43.2738,"lon":5.36261,"is_reserved":false,"is_disabled":false,"rental_uris":{"android":"levelo://app?vid=f65505f7-bdc9-40cf-a641-25b38f2e8d77","ios":"levelo://app?vid=f65505f7-bdc9-40cf-a641-25b38f2e8d77"},"vehicle_type_id":"4","last_reported":1750450348,"current_range_meters":13600,"station_id":"ce4bhbh2rcd13ifvqeo0","pricing_plan_id":"cebpf4jnsgd1na2vs0mg"},{"bike_id":"a921595b-ddd2-44e8-b22f-e46eb2d96392","system_id":"levelo_inurba_marseille","lat":43.26955,"lon":5.38625,"is_reserved":false,"is_disabled":false,"rental_uris":{"android":"levelo://app?vid=a921595b-ddd2-44e8-b22f-e46eb2d96392","ios":"levelo://app?vid=a921595b-ddd2-44e8-b22f-e46eb2d96392"},"vehicle_type_id":"4","last_reported":1750450348,"current_range_meters":13600,"station_id":"ce4bhh92rcd13ifvqfh0","pricing_plan_id":"cebpf4jnsgd1na2vs0mg"},{"bike_id":"80c758c1-4781-42c0-baad-6067c90c167b","system_id":"levelo_inurba_marseille","lat":43.26209,"lon":5.3792,"is_reserved":false,"is_disabled":false,"rental_uris":{"android":"levelo://app?vid=80c758c1-4781-42c0-baad-6067c90c167b","ios":"levelo://app?vid=80c758c1-4781-42c0-baad-6067c90c167b"},"vehicle_type_id":"4","last_reported":1750450348,"current_range_meters":13600,"station_id":"ce4bhjp2rcd13ifvqg90","pricing_plan_id":"cebpf4jnsgd1na2vs0mg"},{"bike_id":"b0c36570-8a06-4ca8-b90b-1ab5801fe902","system_id":"levelo_inurba_marseille","lat":43.31223,"lon":5.40458,"is_reserved":false,"is_disabled":false,"rental_uris":{"android":"levelo://app?vid=b0c36570-8a06-4ca8-b90b-1ab5801fe902","ios":"levelo://app?vid=b0c36570-8a06-4ca8-b90b-1ab5801fe902"},"vehicle_type_id":"4","last_reported":1750450348,"current_range_meters":14000,"station_id":"","pricing_plan_id":"cebpf4jnsgd1na2vs0mg"},{"bike_id":"f6d13259-8db0-40b4-95b5-0066107be7e6","system_id":"levelo_inurba_marseille","lat":43.28759,"lon":5.36198,"is_reserved":false,"is_disabled":false,"rental_uris":{"android":"levelo://app?vid=f6d13259-8db0-40b4-95b5-0066107be7e6","ios":"levelo://app?vid=f6d13259-8db0-40b4-95b5-0066107be7e6"},"vehicle_type_id":"4","last_reported":1750450348,"current_range_meters":14000,"station_id":"","pricing_plan_id":"cebpf4jnsgd1na2vs0mg"},{"bike_id":"b2fbf416-55dd-439d-a34e-ffa65e1028d3","system_id":"levelo_inurba_marseille","lat":43.29596,"lon":5.38085,"is_reserved":false,"is_disabled":false,"rental_uris":{"android":"levelo://app?vid=b2fbf416-55dd-439d-a34e-ffa65e1028d3","ios":"levelo://app?vid=b2fbf416-55dd-439d-a34e-ffa65e1028d3"},"vehicle_type_id":"4","last_reported":1750450348,"current_range_meters":14000,"station_id":"ce4bgl12rcd13ifvqbo0","pricing_plan_id":"cebpf4jnsgd1na2vs0mg"},{"bike_id":"c60951cc-079a-4b97-a5b1-c825a10c3b82","system_id":"levelo_inurba_marseille","lat":43.29287,"lon":5.40119,"is_reserved":false,"is_disabled":false,"rental_uris":{"android":"levelo://app?vid=c60951cc-079a-4b97-a5b1-c825a10c3b82","ios":"levelo://app?vid=c60951cc-079a-4b97-a5b1-c825a10c3b82"},"vehicle_type_id":"4","last_reported":1750450348,"current_range_meters":14000,"station_id":"ce4bh312rcd13ifvqdk0","pricing_plan_id":"cebpf4jnsgd1na2vs0mg"},{"bike_id":"8e92feac-7d18-4ddd-8b47-3e77cf9b9c34","system_id":"levelo_inurba_marseille","lat":43.231862,"lon":5.35566,"is_reserved":false,"is_disabled":false,"rental_uris":{"android":"levelo://app?vid=8e92feac-7d18-4ddd-8b47-3e77cf9b9c34","ios":"levelo://app?vid=8e92feac-7d18-4ddd-8b47-3e77cf9b9c34"},"vehicle_type_id":"4","last_reported":1750450348,"current_range_meters":14000,"station_id":"ce4bhu92rcd13ifvqi70","pricing_plan_id":"cebpf4jnsgd1na2vs0mg"},{"bike_id":"51e479d8-905f-460f-a482-745878976d9a","system_id":"levelo_inurba_marseille","lat":43.23198,"lon":5.35538,"is_reserved":false,"is_disabled":false,"rental_uris":{"android":"levelo://app?vid=51e479d8-905f-460f-a482-745878976d9a","ios":"levelo://app?vid=51e479d8-905f-460f-a482-745878976d9a"},"vehicle_type_id":"4","last_reported":1750450348,"current_range_meters":14000,"station_id":"ce4bhu92rcd13ifvqi70","pricing_plan_id":"cebpf4jnsgd1na2vs0mg"},{"bike_id":"f89cf492-3e5c-4998-acdc-bc176adaed09","system_id":"levelo_inurba_marseille","lat":43.31169,"lon":5.38708,"is_reserved":false,"is_disabled":false,"rental_uris":{"android":"levelo://app?vid=f89cf492-3e5c-4998-acdc-bc176adaed09","ios":"levelo://app?vid=f89cf492-3e5c-4998-acdc-bc176adaed09"},"vehicle_type_id":"4","last_reported":1750450348,"current_range_meters":14400,"station_id":"ce4bgv12rcd13ifvqcp0","pricing_plan_id":"cebpf4jnsgd1na2vs0mg"},{"bike_id":"989810f8-26af-494c-910d-b659c2fe93ca","system_id":"levelo_inurba_marseille","lat":43.29255,"lon":5.40886,"is_reserved":false,"is_disabled":false,"rental_uris":{"android":"levelo://app?vid=989810f8-26af-494c-910d-b659c2fe93ca","ios":"levelo://app?vid=989810f8-26af-494c-910d-b659c2fe93ca"},"vehicle_type_id":"4","last_reported":1750450348,"current_range_meters":14400,"station_id":"ce4bh192rcd13ifvqdc0","pricing_plan_id":"cebpf4jnsgd1na2vs0mg"},{"bike_id":"7c430270-db93-46fd-964b-56a8a95b4002","system_id":"levelo_inurba_marseille","lat":43.23064,"lon":5.35488,"is_reserved":false,"is_disabled":false,"rental_uris":{"android":"levelo://app?vid=7c430270-db93-46fd-964b-56a8a95b4002","ios":"levelo://app?vid=7c430270-db93-46fd-964b-56a8a95b4002"},"vehicle_type_id":"4","last_reported":1750450348,"current_range_meters":14400,"station_id":"cpo3342slgdg3j2ifvpg","pricing_plan_id":"cebpf4jnsgd1na2vs0mg"},{"bike_id":"dc540ba2-fb63-45eb-b83a-1826fb3d30b7","system_id":"levelo_inurba_marseille","lat":43.24604,"lon":5.39269,"is_reserved":false,"is_disabled":false,"rental_uris":{"android":"levelo://app?vid=dc540ba2-fb63-45eb-b83a-1826fb3d30b7","ios":"levelo://app?vid=dc540ba2-fb63-45eb-b83a-1826fb3d30b7"},"vehicle_type_id":"4","last_reported":1750450348,"current_range_meters":14800,"station_id":"","pricing_plan_id":"cebpf4jnsgd1na2vs0mg"},{"bike_id":"5e9a1d6e-f936-4da6-a521-11afca7549ef","system_id":"levelo_inurba_marseille","lat":43.30793,"lon":5.3815,"is_reserved":false,"is_disabled":false,"rental_uris":{"android":"levelo://app?vid=5e9a1d6e-f936-4da6-a521-11afca7549ef","ios":"levelo://app?vid=5e9a1d6e-f936-4da6-a521-11afca7549ef"},"vehicle_type_id":"4","last_reported":1750450348,"current_range_meters":14800,"station_id":"ce4bgt12rcd13ifvqce0","pricing_plan_id":"cebpf4jnsgd1na2vs0mg"},{"bike_id":"acb142c8-e8d5-42d3-bb67-7b28fd9883f2","system_id":"levelo_inurba_marseille","lat":43.31356,"lon":5.38493,"is_reserved":false,"is_disabled":false,"rental_uris":{"android":"levelo://app?vid=acb142c8-e8d5-42d3-bb67-7b28fd9883f2","ios":"levelo://app?vid=acb142c8-e8d5-42d3-bb67-7b28fd9883f2"},"vehicle_type_id":"4","last_reported":1750450348,"current_range_meters":14800,"station_id":"ce4bgt92rcd13ifvqcf0","pricing_plan_id":"cebpf4jnsgd1na2vs0mg"},{"bike_id":"9df3db82-6560-4660-a5f8-b515cf080ff4","system_id":"levelo_inurba_marseille","lat":43.30942,"lon":5.39033,"is_reserved":false,"is_disabled":false,"rental_uris":{"android":"levelo://app?vid=9df3db82-6560-4660-a5f8-b515cf080ff4","ios":"levelo://app?vid=9df3db82-6560-4660-a5f8-b515cf080ff4"},"vehicle_type_id":"4","last_reported":1750450348,"current_range_meters":14800,"station_id":"ce4bgup2rcd13ifvqco0","pricing_plan_id":"cebpf4jnsgd1na2vs0mg"},{"bike_id":"959f0c62-9761-4a35-9c23-557e23ca2679","system_id":"levelo_inurba_marseille","lat":43.24671,"lon":5.38118,"is_reserved":false,"is_disabled":false,"rental_uris":{"android":"levelo://app?vid=959f0c62-9761-4a35-9c23-557e23ca2679","ios":"levelo://app?vid=959f0c62-9761-4a35-9c23-557e23ca2679"},"vehicle_type_id":"4","last_reported":1750450348,"current_range_meters":14800,"station_id":"ce4bhih2rcd13ifvqfr0","pricing_plan_id":"cebpf4jnsgd1na2vs0mg"},{"bike_id":"bd27fe72-6fbc-453f-8b77-bee10ab3b13c","system_id":"levelo_inurba_marseille","lat":43.29542,"lon":5.42345,"is_reserved":false,"is_disabled":false,"rental_uris":{"android":"levelo://app?vid=bd27fe72-6fbc-453f-8b77-bee10ab3b13c","ios":"levelo://app?vid=bd27fe72-6fbc-453f-8b77-bee10ab3b13c"},"vehicle_type_id":"4","last_reported":1750450348,"current_range_meters":14800,"station_id":"ce4bhph2rcd13ifvqhdg","pricing_plan_id":"cebpf4jnsgd1na2vs0mg"},{"bike_id":"d40af265-11b5-43a6-9bb6-f910f57901ba","system_id":"levelo_inurba_marseille","lat":43.32969,"lon":5.38091,"is_reserved":false,"is_disabled":false,"rental_uris":{"android":"levelo://app?vid=d40af265-11b5-43a6-9bb6-f910f57901ba","ios":"levelo://app?vid=d40af265-11b5-43a6-9bb6-f910f57901ba"},"vehicle_type_id":"4","last_reported":1750450348,"current_range_meters":15200,"station_id":"","pricing_plan_id":"cebpf4jnsgd1na2vs0mg"},{"bike_id":"67b776d8-fe5b-488d-99cb-eefee58fffe0","system_id":"levelo_inurba_marseille","lat":43.29529,"lon":5.3855,"is_reserved":false,"is_disabled":false,"rental_uris":{"android":"levelo://app?vid=67b776d8-fe5b-488d-99cb-eefee58fffe0","ios":"levelo://app?vid=67b776d8-fe5b-488d-99cb-eefee58fffe0"},"vehicle_type_id":"4","last_reported":1750450348,"current_range_meters":15200,"station_id":"ce4bgih2rcd13ifvqba0","pricing_plan_id":"cebpf4jnsgd1na2vs0mg"},{"bike_id":"832d7b27-6565-4ab4-8a23-c2befdc18fbc","system_id":"levelo_inurba_marseille","lat":43.29595,"lon":5.38091,"is_reserved":false,"is_disabled":false,"rental_uris":{"android":"levelo://app?vid=832d7b27-6565-4ab4-8a23-c2befdc18fbc","ios":"levelo://app?vid=832d7b27-6565-4ab4-8a23-c2befdc18fbc"},"vehicle_type_id":"4","last_reported":1750450348,"current_range_meters":15200,"station_id":"ce4bgl12rcd13ifvqbo0","pricing_plan_id":"cebpf4jnsgd1na2vs0mg"},{"bike_id":"8ef11a45-504d-45b0-a2b5-97fef9594218","system_id":"levelo_inurba_marseille","lat":43.29556,"lon":5.38108,"is_reserved":false,"is_disabled":false,"rental_uris":{"android":"levelo://app?vid=8ef11a45-504d-45b0-a2b5-97fef9594218","ios":"levelo://app?vid=8ef11a45-504d-45b0-a2b5-97fef9594218"},"vehicle_type_id":"4","last_reported":1750450348,"current_range_meters":15200,"station_id":"ce4bgl12rcd13ifvqbo0","pricing_plan_id":"cebpf4jnsgd1na2vs0mg"},{"bike_id":"902b6d64-f519-449a-83ff-808a87911a3f","system_id":"levelo_inurba_marseille","lat":43.30529,"lon":5.36511,"is_reserved":false,"is_disabled":false,"rental_uris":{"android":"levelo://app?vid=902b6d64-f519-449a-83ff-808a87911a3f","ios":"levelo://app?vid=902b6d64-f519-449a-83ff-808a87911a3f"},"vehicle_type_id":"4","last_reported":1750450348,"current_range_meters":15200,"station_id":"ce4bgs12rcd13ifvqcag","pricing_plan_id":"cebpf4jnsgd1na2vs0mg"},{"bike_id":"a67658ba-d01c-43ed-a9a9-2126efa96529","system_id":"levelo_inurba_marseille","lat":43.3095,"lon":5.39042,"is_reserved":false,"is_disabled":false,"rental_uris":{"android":"levelo://app?vid=a67658ba-d01c-43ed-a9a9-2126efa96529","ios":"levelo://app?vid=a67658ba-d01c-43ed-a9a9-2126efa96529"},"vehicle_type_id":"4","last_reported":1750450348,"current_range_meters":15200,"station_id":"ce4bgup2rcd13ifvqco0","pricing_plan_id":"cebpf4jnsgd1na2vs0mg"},{"bike_id":"73ca78af-c969-4f07-9a86-35bf9abdcb85","system_id":"levelo_inurba_marseille","lat":43.29019,"lon":5.38637,"is_reserved":false,"is_disabled":false,"rental_uris":{"android":"levelo://app?vid=73ca78af-c969-4f07-9a86-35bf9abdcb85","ios":"levelo://app?vid=73ca78af-c969-4f07-9a86-35bf9abdcb85"},"vehicle_type_id":"4","last_reported":1750450348,"current_range_meters":15200,"station_id":"ce4bh4p2rcd13ifvqe0g","pricing_plan_id":"cebpf4jnsgd1na2vs0mg"},{"bike_id":"97e87152-7cf6-4b25-8e98-65fe72ff073f","system_id":"levelo_inurba_marseille","lat":43.262067,"lon":5.396531,"is_reserved":false,"is_disabled":false,"rental_uris":{"android":"levelo://app?vid=97e87152-7cf6-4b25-8e98-65fe72ff073f","ios":"levelo://app?vid=97e87152-7cf6-4b25-8e98-65fe72ff073f"},"vehicle_type_id":"4","last_reported":1750450348,"current_range_meters":15200,"station_id":"ce4bhe12rcd13ifvqf30","pricing_plan_id":"cebpf4jnsgd1na2vs0mg"},{"bike_id":"26602504-ba55-4e1c-af8d-7fe15c163dd3","system_id":"levelo_inurba_marseille","lat":43.28704,"lon":5.39988,"is_reserved":false,"is_disabled":false,"rental_uris":{"android":"levelo://app?vid=26602504-ba55-4e1c-af8d-7fe15c163dd3","ios":"levelo://app?vid=26602504-ba55-4e1c-af8d-7fe15c163dd3"},"vehicle_type_id":"4","last_reported":1750450348,"current_range_meters":15200,"station_id":"ce4bho92rcd13ifvqh3g","pricing_plan_id":"cebpf4jnsgd1na2vs0mg"},{"bike_id":"1d2a270f-4b2a-4ed0-b40a-afa061941bee","system_id":"levelo_inurba_marseille","lat":43.31756,"lon":5.39014,"is_reserved":false,"is_disabled":false,"rental_uris":{"android":"levelo://app?vid=1d2a270f-4b2a-4ed0-b40a-afa061941bee","ios":"levelo://app?vid=1d2a270f-4b2a-4ed0-b40a-afa061941bee"},"vehicle_type_id":"4","last_reported":1750450348,"current_range_meters":15200,"station_id":"ce4bhqp2rcd13ifvqhng","pricing_plan_id":"cebpf4jnsgd1na2vs0mg"},{"bike_id":"a7a7a4e9-6d7d-4364-8ba8-5262269e76a8","system_id":"levelo_inurba_marseille","lat":43.23193,"lon":5.35553,"is_reserved":false,"is_disabled":false,"rental_uris":{"android":"levelo://app?vid=a7a7a4e9-6d7d-4364-8ba8-5262269e76a8","ios":"levelo://app?vid=a7a7a4e9-6d7d-4364-8ba8-5262269e76a8"},"vehicle_type_id":"4","last_reported":1750450348,"current_range_meters":15200,"station_id":"ce4bhu92rcd13ifvqi70","pricing_plan_id":"cebpf4jnsgd1na2vs0mg"},{"bike_id":"45fd36bd-3b77-4893-ad95-aac06b5d7698","system_id":"levelo_inurba_marseille","lat":43.29603,"lon":5.38099,"is_reserved":false,"is_disabled":false,"rental_uris":{"android":"levelo://app?vid=45fd36bd-3b77-4893-ad95-aac06b5d7698","ios":"levelo://app?vid=45fd36bd-3b77-4893-ad95-aac06b5d7698"},"vehicle_type_id":"4","last_reported":1750450348,"current_range_meters":16000,"station_id":"ce4bgl12rcd13ifvqbo0","pricing_plan_id":"cebpf4jnsgd1na2vs0mg"},{"bike_id":"b128e821-eb31-4de3-9679-a35523274758","system_id":"levelo_inurba_marseille","lat":43.30786,"lon":5.38162,"is_reserved":false,"is_disabled":false,"rental_uris":{"android":"levelo://app?vid=b128e821-eb31-4de3-9679-a35523274758","ios":"levelo://app?vid=b128e821-eb31-4de3-9679-a35523274758"},"vehicle_type_id":"4","last_reported":1750450348,"current_range_meters":16000,"station_id":"ce4bgt12rcd13ifvqce0","pricing_plan_id":"cebpf4jnsgd1na2vs0mg"},{"bike_id":"4f00f824-79a0-4f3b-9741-e0152595fbaf","system_id":"levelo_inurba_marseille","lat":43.27503,"lon":5.42459,"is_reserved":false,"is_disabled":false,"rental_uris":{"android":"levelo://app?vid=4f00f824-79a0-4f3b-9741-e0152595fbaf","ios":"levelo://app?vid=4f00f824-79a0-4f3b-9741-e0152595fbaf"},"vehicle_type_id":"4","last_reported":1750450348,"current_range_meters":16000,"station_id":"ce4bhn92rcd13ifvqgrg","pricing_plan_id":"cebpf4jnsgd1na2vs0mg"},{"bike_id":"4643bc90-1bac-4c4b-98b1-e2d500830573","system_id":"levelo_inurba_marseille","lat":43.31374,"lon":5.37719,"is_reserved":false,"is_disabled":false,"rental_uris":{"android":"levelo://app?vid=4643bc90-1bac-4c4b-98b1-e2d500830573","ios":"levelo://app?vid=4643bc90-1bac-4c4b-98b1-e2d500830573"},"vehicle_type_id":"4","last_reported":1750450348,"current_range_meters":16400,"station_id":"","pricing_plan_id":"cebpf4jnsgd1na2vs0mg"},{"bike_id":"755ae074-1e1c-4323-945c-448ccd2c34ba","system_id":"levelo_inurba_marseille","lat":43.337444,"lon":5.374475,"is_reserved":false,"is_disabled":false,"rental_uris":{"android":"levelo://app?vid=755ae074-1e1c-4323-945c-448ccd2c34ba","ios":"levelo://app?vid=755ae074-1e1c-4323-945c-448ccd2c34ba"},"vehicle_type_id":"4","last_reported":1750450348,"current_range_meters":16400,"station_id":"","pricing_plan_id":"cebpf4jnsgd1na2vs0mg"},{"bike_id":"a22aa312-0025-4f42-88e2-b1e95e79340f","system_id":"levelo_inurba_marseille","lat":43.31698,"lon":5.38381,"is_reserved":false,"is_disabled":false,"rental_uris":{"android":"levelo://app?vid=a22aa312-0025-4f42-88e2-b1e95e79340f","ios":"levelo://app?vid=a22aa312-0025-4f42-88e2-b1e95e79340f"},"vehicle_type_id":"4","last_reported":1750450348,"current_range_meters":16400,"station_id":"","pricing_plan_id":"cebpf4jnsgd1na2vs0mg"},{"bike_id":"90c109b5-5cee-495e-8f11-f318c0f086b6","system_id":"levelo_inurba_marseille","lat":43.32501,"lon":5.43446,"is_reserved":false,"is_disabled":false,"rental_uris":{"android":"levelo://app?vid=90c109b5-5cee-495e-8f11-f318c0f086b6","ios":"levelo://app?vid=90c109b5-5cee-495e-8f11-f318c0f086b6"},"vehicle_type_id":"4","last_reported":1750450348,"current_range_meters":16400,"station_id":"","pricing_plan_id":"cebpf4jnsgd1na2vs0mg"},{"bike_id":"2d271d72-e512-486e-bc8b-dc7b865b13b5","system_id":"levelo_inurba_marseille","lat":43.27617,"lon":5.36107,"is_reserved":false,"is_disabled":false,"rental_uris":{"android":"levelo://app?vid=2d271d72-e512-486e-bc8b-dc7b865b13b5","ios":"levelo://app?vid=2d271d72-e512-486e-bc8b-dc7b865b13b5"},"vehicle_type_id":"4","last_reported":1750450348,"current_range_meters":16400,"station_id":"ce4bgj92rcd13ifvqbe0","pricing_plan_id":"cebpf4jnsgd1na2vs0mg"},{"bike_id":"ad7bc185-3adc-4e5b-841b-d61acf8adb22","system_id":"levelo_inurba_marseille","lat":43.29886,"lon":5.36293,"is_reserved":false,"is_disabled":false,"rental_uris":{"android":"levelo://app?vid=ad7bc185-3adc-4e5b-841b-d61acf8adb22","ios":"levelo://app?vid=ad7bc185-3adc-4e5b-841b-d61acf8adb22"},"vehicle_type_id":"4","last_reported":1750450348,"current_range_meters":16400,"station_id":"ce4bgpp2rcd13ifvqc3g","pricing_plan_id":"cebpf4jnsgd1na2vs0mg"},{"bike_id":"ff0585d1-3da0-48f3-9fda-da5b5d5767f8","system_id":"levelo_inurba_marseille","lat":43.29451,"lon":5.38653,"is_reserved":false,"is_disabled":false,"rental_uris":{"android":"levelo://app?vid=ff0585d1-3da0-48f3-9fda-da5b5d5767f8","ios":"levelo://app?vid=ff0585d1-3da0-48f3-9fda-da5b5d5767f8"},"vehicle_type_id":"4","last_reported":1750450348,"current_range_meters":16400,"station_id":"ce4bh2h2rcd13ifvqdh0","pricing_plan_id":"cebpf4jnsgd1na2vs0mg"},{"bike_id":"833b9aa8-dbc1-4036-870c-2229d9641bf5","system_id":"levelo_inurba_marseille","lat":43.26212,"lon":5.37444,"is_reserved":false,"is_disabled":false,"rental_uris":{"android":"levelo://app?vid=833b9aa8-dbc1-4036-870c-2229d9641bf5","ios":"levelo://app?vid=833b9aa8-dbc1-4036-870c-2229d9641bf5"},"vehicle_type_id":"4","last_reported":1750450348,"current_range_meters":16400,"station_id":"ce4bhgp2rcd13ifvqfc0","pricing_plan_id":"cebpf4jnsgd1na2vs0mg"},{"bike_id":"3dc1a2f8-8b98-4a65-980d-b42a647d0080","system_id":"levelo_inurba_marseille","lat":43.23969,"lon":5.36645,"is_reserved":false,"is_disabled":false,"rental_uris":{"android":"levelo://app?vid=3dc1a2f8-8b98-4a65-980d-b42a647d0080","ios":"levelo://app?vid=3dc1a2f8-8b98-4a65-980d-b42a647d0080"},"vehicle_type_id":"4","last_reported":1750450348,"current_range_meters":16400,"station_id":"ce4bhi12rcd13ifvqfp0","pricing_plan_id":"cebpf4jnsgd1na2vs0mg"},{"bike_id":"da4929bb-ef96-4c2b-b545-a0262d7bb924","system_id":"levelo_inurba_marseille","lat":43.29529,"lon":5.38543,"is_reserved":false,"is_disabled":false,"rental_uris":{"android":"levelo://app?vid=da4929bb-ef96-4c2b-b545-a0262d7bb924","ios":"levelo://app?vid=da4929bb-ef96-4c2b-b545-a0262d7bb924"},"vehicle_type_id":"4","last_reported":1750450348,"current_range_meters":16800,"station_id":"ce4bgih2rcd13ifvqba0","pricing_plan_id":"cebpf4jnsgd1na2vs0mg"},{"bike_id":"36da45b3-aa2c-42f3-94f8-27e51d19027b","system_id":"levelo_inurba_marseille","lat":43.30311,"lon":5.36885,"is_reserved":false,"is_disabled":false,"rental_uris":{"android":"levelo://app?vid=36da45b3-aa2c-42f3-94f8-27e51d19027b","ios":"levelo://app?vid=36da45b3-aa2c-42f3-94f8-27e51d19027b"},"vehicle_type_id":"4","last_reported":1750450348,"current_range_meters":16800,"station_id":"ce4bgqh2rcd13ifvqc5g","pricing_plan_id":"cebpf4jnsgd1na2vs0mg"},{"bike_id":"ed2a80f4-b1f1-465f-93df-cb61e45e74d0","system_id":"levelo_inurba_marseille","lat":43.31166,"lon":5.38712,"is_reserved":false,"is_disabled":false,"rental_uris":{"android":"levelo://app?vid=ed2a80f4-b1f1-465f-93df-cb61e45e74d0","ios":"levelo://app?vid=ed2a80f4-b1f1-465f-93df-cb61e45e74d0"},"vehicle_type_id":"4","last_reported":1750450348,"current_range_meters":16800,"station_id":"ce4bgv12rcd13ifvqcp0","pricing_plan_id":"cebpf4jnsgd1na2vs0mg"},{"bike_id":"6d9934a7-0039-4686-b778-33d629ca300c","system_id":"levelo_inurba_marseille","lat":43.29414,"lon":5.38633,"is_reserved":false,"is_disabled":false,"rental_uris":{"android":"levelo://app?vid=6d9934a7-0039-4686-b778-33d629ca300c","ios":"levelo://app?vid=6d9934a7-0039-4686-b778-33d629ca300c"},"vehicle_type_id":"4","last_reported":1750450348,"current_range_meters":16800,"station_id":"ce4bh2h2rcd13ifvqdh0","pricing_plan_id":"cebpf4jnsgd1na2vs0mg"},{"bike_id":"a27dfe13-84f1-4a5a-95b6-055954b50ba0","system_id":"levelo_inurba_marseille","lat":43.27372,"lon":5.3627,"is_reserved":false,"is_disabled":false,"rental_uris":{"android":"levelo://app?vid=a27dfe13-84f1-4a5a-95b6-055954b50ba0","ios":"levelo://app?vid=a27dfe13-84f1-4a5a-95b6-055954b50ba0"},"vehicle_type_id":"4","last_reported":1750450348,"current_range_meters":16800,"station_id":"ce4bhbh2rcd13ifvqeo0","pricing_plan_id":"cebpf4jnsgd1na2vs0mg"},{"bike_id":"204afd8f-d13a-468d-a59c-e2db9671fff1","system_id":"levelo_inurba_marseille","lat":43.2441,"lon":5.37107,"is_reserved":false,"is_disabled":false,"rental_uris":{"android":"levelo://app?vid=204afd8f-d13a-468d-a59c-e2db9671fff1","ios":"levelo://app?vid=204afd8f-d13a-468d-a59c-e2db9671fff1"},"vehicle_type_id":"4","last_reported":1750450348,"current_range_meters":16800,"station_id":"ce4bhhh2rcd13ifvqfk0","pricing_plan_id":"cebpf4jnsgd1na2vs0mg"},{"bike_id":"e16abdb1-8551-4a90-a8b5-c8591090b24d","system_id":"levelo_inurba_marseille","lat":43.24385,"lon":5.37057,"is_reserved":false,"is_disabled":false,"rental_uris":{"android":"levelo://app?vid=e16abdb1-8551-4a90-a8b5-c8591090b24d","ios":"levelo://app?vid=e16abdb1-8551-4a90-a8b5-c8591090b24d"},"vehicle_type_id":"4","last_reported":1750450348,"current_range_meters":16800,"station_id":"ce4bhhh2rcd13ifvqfk0","pricing_plan_id":"cebpf4jnsgd1na2vs0mg"},{"bike_id":"ed686c0a-f9e4-42f1-b1fc-5eae82e192fb","system_id":"levelo_inurba_marseille","lat":43.2781,"lon":5.40712,"is_reserved":false,"is_disabled":false,"rental_uris":{"android":"levelo://app?vid=ed686c0a-f9e4-42f1-b1fc-5eae82e192fb","ios":"levelo://app?vid=ed686c0a-f9e4-42f1-b1fc-5eae82e192fb"},"vehicle_type_id":"4","last_reported":1750450348,"current_range_meters":16800,"station_id":"ce4bhnh2rcd13ifvqgtg","pricing_plan_id":"cebpf4jnsgd1na2vs0mg"},{"bike_id":"e1c93138-4ec5-4c4e-b567-4e9309b9f79b","system_id":"levelo_inurba_marseille","lat":43.28434,"lon":5.39208,"is_reserved":false,"is_disabled":false,"rental_uris":{"android":"levelo://app?vid=e1c93138-4ec5-4c4e-b567-4e9309b9f79b","ios":"levelo://app?vid=e1c93138-4ec5-4c4e-b567-4e9309b9f79b"},"vehicle_type_id":"4","last_reported":1750450348,"current_range_meters":16800,"station_id":"ce4bhoh2rcd13ifvqh5g","pricing_plan_id":"cebpf4jnsgd1na2vs0mg"},{"bike_id":"01c0ac0f-b40f-4f7c-a9fe-4fc3ed3169fe","system_id":"levelo_inurba_marseille","lat":43.25864,"lon":5.37721,"is_reserved":false,"is_disabled":false,"rental_uris":{"android":"levelo://app?vid=01c0ac0f-b40f-4f7c-a9fe-4fc3ed3169fe","ios":"levelo://app?vid=01c0ac0f-b40f-4f7c-a9fe-4fc3ed3169fe"},"vehicle_type_id":"4","last_reported":1750450348,"current_range_meters":17200,"station_id":"","pricing_plan_id":"cebpf4jnsgd1na2vs0mg"},{"bike_id":"ffbb0c22-3f4e-4cdb-a0e5-79e3b9f3e1a2","system_id":"levelo_inurba_marseille","lat":43.33764,"lon":5.37448,"is_reserved":false,"is_disabled":false,"rental_uris":{"android":"levelo://app?vid=ffbb0c22-3f4e-4cdb-a0e5-79e3b9f3e1a2","ios":"levelo://app?vid=ffbb0c22-3f4e-4cdb-a0e5-79e3b9f3e1a2"},"vehicle_type_id":"4","last_reported":1750450348,"current_range_meters":17200,"station_id":"","pricing_plan_id":"cebpf4jnsgd1na2vs0mg"},{"bike_id":"6cf2649c-3e7e-4332-ab98-4698dcd85030","system_id":"levelo_inurba_marseille","lat":43.25084,"lon":5.39515,"is_reserved":false,"is_disabled":false,"rental_uris":{"android":"levelo://app?vid=6cf2649c-3e7e-4332-ab98-4698dcd85030","ios":"levelo://app?vid=6cf2649c-3e7e-4332-ab98-4698dcd85030"},"vehicle_type_id":"4","last_reported":1750450348,"current_range_meters":17200,"station_id":"ce4bhm12rcd13ifvqgkg","pricing_plan_id":"cebpf4jnsgd1na2vs0mg"},{"bike_id":"5f895bff-0fe4-47f1-91a3-c21cf39f295c","system_id":"levelo_inurba_marseille","lat":43.31996,"lon":5.38156,"is_reserved":false,"is_disabled":false,"rental_uris":{"android":"levelo://app?vid=5f895bff-0fe4-47f1-91a3-c21cf39f295c","ios":"levelo://app?vid=5f895bff-0fe4-47f1-91a3-c21cf39f295c"},"vehicle_type_id":"4","last_reported":1750450348,"current_range_meters":17200,"station_id":"ce4bhr12rcd13ifvqhpg","pricing_plan_id":"cebpf4jnsgd1na2vs0mg"},{"bike_id":"17489b6e-0f3e-4d96-a1aa-2c921679b656","system_id":"levelo_inurba_marseille","lat":43.241397,"lon":5.363746,"is_reserved":false,"is_disabled":false,"rental_uris":{"android":"levelo://app?vid=17489b6e-0f3e-4d96-a1aa-2c921679b656","ios":"levelo://app?vid=17489b6e-0f3e-4d96-a1aa-2c921679b656"},"vehicle_type_id":"4","last_reported":1750450348,"current_range_meters":17600,"station_id":"","pricing_plan_id":"cebpf4jnsgd1na2vs0mg"},{"bike_id":"283243c0-80ca-423a-9528-4d602f0c97d7","system_id":"levelo_inurba_marseille","lat":43.27624,"lon":5.36114,"is_reserved":false,"is_disabled":false,"rental_uris":{"android":"levelo://app?vid=283243c0-80ca-423a-9528-4d602f0c97d7","ios":"levelo://app?vid=283243c0-80ca-423a-9528-4d602f0c97d7"},"vehicle_type_id":"4","last_reported":1750450348,"current_range_meters":17600,"station_id":"ce4bgj92rcd13ifvqbe0","pricing_plan_id":"cebpf4jnsgd1na2vs0mg"},{"bike_id":"429bdb35-fd68-4d1d-af77-005915ed973a","system_id":"levelo_inurba_marseille","lat":43.2903,"lon":5.38656,"is_reserved":false,"is_disabled":false,"rental_uris":{"android":"levelo://app?vid=429bdb35-fd68-4d1d-af77-005915ed973a","ios":"levelo://app?vid=429bdb35-fd68-4d1d-af77-005915ed973a"},"vehicle_type_id":"4","last_reported":1750450348,"current_range_meters":17600,"station_id":"ce4bh4p2rcd13ifvqe0g","pricing_plan_id":"cebpf4jnsgd1na2vs0mg"},{"bike_id":"4bd0ac58-9153-479d-9ca0-f1f9842203b4","system_id":"levelo_inurba_marseille","lat":43.29093,"lon":5.38133,"is_reserved":false,"is_disabled":false,"rental_uris":{"android":"levelo://app?vid=4bd0ac58-9153-479d-9ca0-f1f9842203b4","ios":"levelo://app?vid=4bd0ac58-9153-479d-9ca0-f1f9842203b4"},"vehicle_type_id":"4","last_reported":1750450348,"current_range_meters":17600,"station_id":"ce4bh512rcd13ifvqe2g","pricing_plan_id":"cebpf4jnsgd1na2vs0mg"},{"bike_id":"9436b3f7-e71d-4814-81fe-95d1af5df695","system_id":"levelo_inurba_marseille","lat":43.21199,"lon":5.35055,"is_reserved":false,"is_disabled":false,"rental_uris":{"android":"levelo://app?vid=9436b3f7-e71d-4814-81fe-95d1af5df695","ios":"levelo://app?vid=9436b3f7-e71d-4814-81fe-95d1af5df695"},"vehicle_type_id":"4","last_reported":1750450348,"current_range_meters":17600,"station_id":"st_cvj6sg6p6f1abm77japg","pricing_plan_id":"cebpf4jnsgd1na2vs0mg"},{"bike_id":"7255fa22-1e2d-4b3d-a6b2-844cbee0a581","system_id":"levelo_inurba_marseille","lat":43.3203,"lon":5.40817,"is_reserved":false,"is_disabled":false,"rental_uris":{"android":"levelo://app?vid=7255fa22-1e2d-4b3d-a6b2-844cbee0a581","ios":"levelo://app?vid=7255fa22-1e2d-4b3d-a6b2-844cbee0a581"},"vehicle_type_id":"4","last_reported":1750450348,"current_range_meters":18000,"station_id":"","pricing_plan_id":"cebpf4jnsgd1na2vs0mg"},{"bike_id":"bf9bc2df-026d-4f9d-a027-92047c0ff2fd","system_id":"levelo_inurba_marseille","lat":43.29928,"lon":5.36497,"is_reserved":false,"is_disabled":false,"rental_uris":{"android":"levelo://app?vid=bf9bc2df-026d-4f9d-a027-92047c0ff2fd","ios":"levelo://app?vid=bf9bc2df-026d-4f9d-a027-92047c0ff2fd"},"vehicle_type_id":"4","last_reported":1750450348,"current_range_meters":18000,"station_id":"ce4bgm92rcd13ifvqbr0","pricing_plan_id":"cebpf4jnsgd1na2vs0mg"},{"bike_id":"7059fbd6-3d74-40bd-b2f1-3c098ae53e69","system_id":"levelo_inurba_marseille","lat":43.30947,"lon":5.39032,"is_reserved":false,"is_disabled":false,"rental_uris":{"android":"levelo://app?vid=7059fbd6-3d74-40bd-b2f1-3c098ae53e69","ios":"levelo://app?vid=7059fbd6-3d74-40bd-b2f1-3c098ae53e69"},"vehicle_type_id":"4","last_reported":1750450348,"current_range_meters":18000,"station_id":"ce4bgup2rcd13ifvqco0","pricing_plan_id":"cebpf4jnsgd1na2vs0mg"},{"bike_id":"4fb871b6-35f3-4b40-ae3a-2e27d803a074","system_id":"levelo_inurba_marseille","lat":43.28363,"lon":5.38616,"is_reserved":false,"is_disabled":false,"rental_uris":{"android":"levelo://app?vid=4fb871b6-35f3-4b40-ae3a-2e27d803a074","ios":"levelo://app?vid=4fb871b6-35f3-4b40-ae3a-2e27d803a074"},"vehicle_type_id":"4","last_reported":1750450348,"current_range_meters":18000,"station_id":"ce4bh492rcd13ifvqdvg","pricing_plan_id":"cebpf4jnsgd1na2vs0mg"},{"bike_id":"2cec0bc7-dead-4af8-95ca-e858e0d59839","system_id":"levelo_inurba_marseille","lat":43.289316,"lon":5.366398,"is_reserved":false,"is_disabled":false,"rental_uris":{"android":"levelo://app?vid=2cec0bc7-dead-4af8-95ca-e858e0d59839","ios":"levelo://app?vid=2cec0bc7-dead-4af8-95ca-e858e0d59839"},"vehicle_type_id":"4","last_reported":1750450348,"current_range_meters":18000,"station_id":"ce4bhap2rcd13ifvqek0","pricing_plan_id":"cebpf4jnsgd1na2vs0mg"},{"bike_id":"1910cebb-15a1-4a01-aef5-9810780ba15d","system_id":"levelo_inurba_marseille","lat":43.27375,"lon":5.362606,"is_reserved":false,"is_disabled":false,"rental_uris":{"android":"levelo://app?vid=1910cebb-15a1-4a01-aef5-9810780ba15d","ios":"levelo://app?vid=1910cebb-15a1-4a01-aef5-9810780ba15d"},"vehicle_type_id":"4","last_reported":1750450348,"current_range_meters":18000,"station_id":"ce4bhbh2rcd13ifvqeo0","pricing_plan_id":"cebpf4jnsgd1na2vs0mg"},{"bike_id":"70990f13-c140-4eac-b4da-31c443c7459c","system_id":"levelo_inurba_marseille","lat":43.25503,"lon":5.37657,"is_reserved":false,"is_disabled":false,"rental_uris":{"android":"levelo://app?vid=70990f13-c140-4eac-b4da-31c443c7459c","ios":"levelo://app?vid=70990f13-c140-4eac-b4da-31c443c7459c"},"vehicle_type_id":"4","last_reported":1750450348,"current_range_meters":18000,"station_id":"ce4bhh12rcd13ifvqff0","pricing_plan_id":"cebpf4jnsgd1na2vs0mg"},{"bike_id":"ebb38439-13f7-41b8-bb96-6d10b2f7e5b7","system_id":"levelo_inurba_marseille","lat":43.29781,"lon":5.39339,"is_reserved":false,"is_disabled":false,"rental_uris":{"android":"levelo://app?vid=ebb38439-13f7-41b8-bb96-6d10b2f7e5b7","ios":"levelo://app?vid=ebb38439-13f7-41b8-bb96-6d10b2f7e5b7"},"vehicle_type_id":"4","last_reported":1750450348,"current_range_meters":18000,"station_id":"chh1huq6cuj3fo74tm60","pricing_plan_id":"cebpf4jnsgd1na2vs0mg"},{"bike_id":"65490dbb-fb26-48b3-b1b6-17abf527e385","system_id":"levelo_inurba_marseille","lat":43.24185,"lon":5.36375,"is_reserved":false,"is_disabled":false,"rental_uris":{"android":"levelo://app?vid=65490dbb-fb26-48b3-b1b6-17abf527e385","ios":"levelo://app?vid=65490dbb-fb26-48b3-b1b6-17abf527e385"},"vehicle_type_id":"4","last_reported":1750450348,"current_range_meters":18000,"station_id":"cpo36qri1sfpv3e86is0","pricing_plan_id":"cebpf4jnsgd1na2vs0mg"},{"bike_id":"38b4578b-d322-4ae7-86ef-2a7e9839b4fd","system_id":"levelo_inurba_marseille","lat":43.2119,"lon":5.3508,"is_reserved":false,"is_disabled":false,"rental_uris":{"android":"levelo://app?vid=38b4578b-d322-4ae7-86ef-2a7e9839b4fd","ios":"levelo://app?vid=38b4578b-d322-4ae7-86ef-2a7e9839b4fd"},"vehicle_type_id":"4","last_reported":1750450348,"current_range_meters":18000,"station_id":"st_cvj6sg6p6f1abm77japg","pricing_plan_id":"cebpf4jnsgd1na2vs0mg"},{"bike_id":"a03a949d-876f-42db-9564-0aeae678fff4","system_id":"levelo_inurba_marseille","lat":43.29443,"lon":5.44491,"is_reserved":false,"is_disabled":false,"rental_uris":{"android":"levelo://app?vid=a03a949d-876f-42db-9564-0aeae678fff4","ios":"levelo://app?vid=a03a949d-876f-42db-9564-0aeae678fff4"},"vehicle_type_id":"4","last_reported":1750450348,"current_range_meters":18800,"station_id":"","pricing_plan_id":"cebpf4jnsgd1na2vs0mg"},{"bike_id":"70099c53-f60d-41a6-83a1-870e7567c224","system_id":"levelo_inurba_marseille","lat":43.311785,"lon":5.387233,"is_reserved":false,"is_disabled":false,"rental_uris":{"android":"levelo://app?vid=70099c53-f60d-41a6-83a1-870e7567c224","ios":"levelo://app?vid=70099c53-f60d-41a6-83a1-870e7567c224"},"vehicle_type_id":"4","last_reported":1750450348,"current_range_meters":18800,"station_id":"ce4bgv12rcd13ifvqcp0","pricing_plan_id":"cebpf4jnsgd1na2vs0mg"},{"bike_id":"c6c60c45-e52f-48ec-a435-80eebaaaf309","system_id":"levelo_inurba_marseille","lat":43.29417,"lon":5.3863,"is_reserved":false,"is_disabled":false,"rental_uris":{"android":"levelo://app?vid=c6c60c45-e52f-48ec-a435-80eebaaaf309","ios":"levelo://app?vid=c6c60c45-e52f-48ec-a435-80eebaaaf309"},"vehicle_type_id":"4","last_reported":1750450348,"current_range_meters":18800,"station_id":"ce4bh2h2rcd13ifvqdh0","pricing_plan_id":"cebpf4jnsgd1na2vs0mg"},{"bike_id":"90c5a1b6-730c-413e-bcee-b223ffbd4504","system_id":"levelo_inurba_marseille","lat":43.2416,"lon":5.36404,"is_reserved":false,"is_disabled":false,"rental_uris":{"android":"levelo://app?vid=90c5a1b6-730c-413e-bcee-b223ffbd4504","ios":"levelo://app?vid=90c5a1b6-730c-413e-bcee-b223ffbd4504"},"vehicle_type_id":"4","last_reported":1750450348,"current_range_meters":18800,"station_id":"cpo36qri1sfpv3e86is0","pricing_plan_id":"cebpf4jnsgd1na2vs0mg"},{"bike_id":"ab2c3a11-dd7b-4a7f-8921-6c83297f3270","system_id":"levelo_inurba_marseille","lat":43.28215,"lon":5.40359,"is_reserved":false,"is_disabled":false,"rental_uris":{"android":"levelo://app?vid=ab2c3a11-dd7b-4a7f-8921-6c83297f3270","ios":"levelo://app?vid=ab2c3a11-dd7b-4a7f-8921-6c83297f3270"},"vehicle_type_id":"4","last_reported":1750450348,"current_range_meters":19200,"station_id":"","pricing_plan_id":"cebpf4jnsgd1na2vs0mg"},{"bike_id":"f6069a5d-a2bc-44cc-bc6f-f26f79591d92","system_id":"levelo_inurba_marseille","lat":43.30796,"lon":5.3736,"is_reserved":false,"is_disabled":false,"rental_uris":{"android":"levelo://app?vid=f6069a5d-a2bc-44cc-bc6f-f26f79591d92","ios":"levelo://app?vid=f6069a5d-a2bc-44cc-bc6f-f26f79591d92"},"vehicle_type_id":"4","last_reported":1750450348,"current_range_meters":19200,"station_id":"","pricing_plan_id":"cebpf4jnsgd1na2vs0mg"},{"bike_id":"7f6094d0-5dee-435d-8aac-45ef61c2e21f","system_id":"levelo_inurba_marseille","lat":43.29306,"lon":5.37155,"is_reserved":false,"is_disabled":false,"rental_uris":{"android":"levelo://app?vid=7f6094d0-5dee-435d-8aac-45ef61c2e21f","ios":"levelo://app?vid=7f6094d0-5dee-435d-8aac-45ef61c2e21f"},"vehicle_type_id":"4","last_reported":1750450348,"current_range_meters":19200,"station_id":"ce4bgh92rcd13ifvqb40","pricing_plan_id":"cebpf4jnsgd1na2vs0mg"},{"bike_id":"eb22ffbb-2a25-4e06-9e68-0c6ed66e7c51","system_id":"levelo_inurba_marseille","lat":43.30538,"lon":5.36557,"is_reserved":false,"is_disabled":false,"rental_uris":{"android":"levelo://app?vid=eb22ffbb-2a25-4e06-9e68-0c6ed66e7c51","ios":"levelo://app?vid=eb22ffbb-2a25-4e06-9e68-0c6ed66e7c51"},"vehicle_type_id":"4","last_reported":1750450348,"current_range_meters":19200,"station_id":"ce4bgs12rcd13ifvqcag","pricing_plan_id":"cebpf4jnsgd1na2vs0mg"},{"bike_id":"f1583931-82c8-4337-bafc-64e3cff07cbe","system_id":"levelo_inurba_marseille","lat":43.30636,"lon":5.40098,"is_reserved":false,"is_disabled":false,"rental_uris":{"android":"levelo://app?vid=f1583931-82c8-4337-bafc-64e3cff07cbe","ios":"levelo://app?vid=f1583931-82c8-4337-bafc-64e3cff07cbe"},"vehicle_type_id":"4","last_reported":1750450348,"current_range_meters":19200,"station_id":"ce4bh112rcd13ifvqda0","pricing_plan_id":"cebpf4jnsgd1na2vs0mg"},{"bike_id":"516c9aa9-3a48-433d-a841-8d5f0167a747","system_id":"levelo_inurba_marseille","lat":43.29263,"lon":5.38433,"is_reserved":false,"is_disabled":false,"rental_uris":{"android":"levelo://app?vid=516c9aa9-3a48-433d-a841-8d5f0167a747","ios":"levelo://app?vid=516c9aa9-3a48-433d-a841-8d5f0167a747"},"vehicle_type_id":"4","last_reported":1750450348,"current_range_meters":19200,"station_id":"ce4bh692rcd13ifvqea0","pricing_plan_id":"cebpf4jnsgd1na2vs0mg"},{"bike_id":"f38b43a1-c211-4f98-b88a-283dc020fa32","system_id":"levelo_inurba_marseille","lat":43.273751,"lon":5.36258,"is_reserved":false,"is_disabled":false,"rental_uris":{"android":"levelo://app?vid=f38b43a1-c211-4f98-b88a-283dc020fa32","ios":"levelo://app?vid=f38b43a1-c211-4f98-b88a-283dc020fa32"},"vehicle_type_id":"4","last_reported":1750450348,"current_range_meters":19200,"station_id":"ce4bhbh2rcd13ifvqeo0","pricing_plan_id":"cebpf4jnsgd1na2vs0mg"},{"bike_id":"b7a04b9f-b579-448f-8183-22169ab1145d","system_id":"levelo_inurba_marseille","lat":43.27372,"lon":5.36261,"is_reserved":false,"is_disabled":false,"rental_uris":{"android":"levelo://app?vid=b7a04b9f-b579-448f-8183-22169ab1145d","ios":"levelo://app?vid=b7a04b9f-b579-448f-8183-22169ab1145d"},"vehicle_type_id":"4","last_reported":1750450348,"current_range_meters":19200,"station_id":"ce4bhbh2rcd13ifvqeo0","pricing_plan_id":"cebpf4jnsgd1na2vs0mg"},{"bike_id":"e3e3f500-479f-408a-a7f0-0204a533e0b9","system_id":"levelo_inurba_marseille","lat":43.24544,"lon":5.39525,"is_reserved":false,"is_disabled":false,"rental_uris":{"android":"levelo://app?vid=e3e3f500-479f-408a-a7f0-0204a533e0b9","ios":"levelo://app?vid=e3e3f500-479f-408a-a7f0-0204a533e0b9"},"vehicle_type_id":"4","last_reported":1750450348,"current_range_meters":19200,"station_id":"ce4bhlp2rcd13ifvqgjg","pricing_plan_id":"cebpf4jnsgd1na2vs0mg"},{"bike_id":"34894e1d-f66e-41f7-b520-f7f215a5970f","system_id":"levelo_inurba_marseille","lat":43.29534,"lon":5.38543,"is_reserved":false,"is_disabled":false,"rental_uris":{"android":"levelo://app?vid=34894e1d-f66e-41f7-b520-f7f215a5970f","ios":"levelo://app?vid=34894e1d-f66e-41f7-b520-f7f215a5970f"},"vehicle_type_id":"4","last_reported":1750450348,"current_range_meters":19600,"station_id":"ce4bgih2rcd13ifvqba0","pricing_plan_id":"cebpf4jnsgd1na2vs0mg"},{"bike_id":"60873ee6-8485-416b-932a-610150096c85","system_id":"levelo_inurba_marseille","lat":43.27375,"lon":5.36251,"is_reserved":false,"is_disabled":false,"rental_uris":{"android":"levelo://app?vid=60873ee6-8485-416b-932a-610150096c85","ios":"levelo://app?vid=60873ee6-8485-416b-932a-610150096c85"},"vehicle_type_id":"4","last_reported":1750450348,"current_range_meters":19600,"station_id":"ce4bhbh2rcd13ifvqeo0","pricing_plan_id":"cebpf4jnsgd1na2vs0mg"},{"bike_id":"c97f21c3-a4d5-4c44-8db8-7b4057367130","system_id":"levelo_inurba_marseille","lat":43.27379,"lon":5.36258,"is_reserved":false,"is_disabled":false,"rental_uris":{"android":"levelo://app?vid=c97f21c3-a4d5-4c44-8db8-7b4057367130","ios":"levelo://app?vid=c97f21c3-a4d5-4c44-8db8-7b4057367130"},"vehicle_type_id":"4","last_reported":1750450348,"current_range_meters":19600,"station_id":"ce4bhbh2rcd13ifvqeo0","pricing_plan_id":"cebpf4jnsgd1na2vs0mg"},{"bike_id":"c1f15d3a-4eae-49a2-9af6-79f848a21da3","system_id":"levelo_inurba_marseille","lat":43.24388,"lon":5.37059,"is_reserved":false,"is_disabled":false,"rental_uris":{"android":"levelo://app?vid=c1f15d3a-4eae-49a2-9af6-79f848a21da3","ios":"levelo://app?vid=c1f15d3a-4eae-49a2-9af6-79f848a21da3"},"vehicle_type_id":"4","last_reported":1750450348,"current_range_meters":19600,"station_id":"ce4bhhh2rcd13ifvqfk0","pricing_plan_id":"cebpf4jnsgd1na2vs0mg"},{"bike_id":"970fda5e-f75f-4a21-bb54-8a49e02afa04","system_id":"levelo_inurba_marseille","lat":43.27677,"lon":5.38878,"is_reserved":false,"is_disabled":false,"rental_uris":{"android":"levelo://app?vid=970fda5e-f75f-4a21-bb54-8a49e02afa04","ios":"levelo://app?vid=970fda5e-f75f-4a21-bb54-8a49e02afa04"},"vehicle_type_id":"4","last_reported":1750450348,"current_range_meters":19600,"station_id":"ce4bhi12rcd13ifvqfo0","pricing_plan_id":"cebpf4jnsgd1na2vs0mg"},{"bike_id":"71812cbe-f896-4dad-a9f1-06b2119aae3b","system_id":"levelo_inurba_marseille","lat":43.30408,"lon":5.413,"is_reserved":false,"is_disabled":false,"rental_uris":{"android":"levelo://app?vid=71812cbe-f896-4dad-a9f1-06b2119aae3b","ios":"levelo://app?vid=71812cbe-f896-4dad-a9f1-06b2119aae3b"},"vehicle_type_id":"4","last_reported":1750450348,"current_range_meters":19600,"station_id":"ce4bhop2rcd13ifvqh8g","pricing_plan_id":"cebpf4jnsgd1na2vs0mg"},{"bike_id":"1c6eee43-889f-4cff-bc8c-307447a31830","system_id":"levelo_inurba_marseille","lat":43.30828,"lon":5.43498,"is_reserved":false,"is_disabled":false,"rental_uris":{"android":"levelo://app?vid=1c6eee43-889f-4cff-bc8c-307447a31830","ios":"levelo://app?vid=1c6eee43-889f-4cff-bc8c-307447a31830"},"vehicle_type_id":"4","last_reported":1750450348,"current_range_meters":19600,"station_id":"ce4bhph2rcd13ifvqheg","pricing_plan_id":"cebpf4jnsgd1na2vs0mg"},{"bike_id":"fb4b8eb7-ce5d-413e-a84f-424d24eaeba4","system_id":"levelo_inurba_marseille","lat":43.29788,"lon":5.39343,"is_reserved":false,"is_disabled":false,"rental_uris":{"android":"levelo://app?vid=fb4b8eb7-ce5d-413e-a84f-424d24eaeba4","ios":"levelo://app?vid=fb4b8eb7-ce5d-413e-a84f-424d24eaeba4"},"vehicle_type_id":"4","last_reported":1750450348,"current_range_meters":19600,"station_id":"chh1huq6cuj3fo74tm60","pricing_plan_id":"cebpf4jnsgd1na2vs0mg"},{"bike_id":"04b016b0-78f2-4a40-9df3-2f41fff75a5c","system_id":"levelo_inurba_marseille","lat":43.21191,"lon":5.35071,"is_reserved":false,"is_disabled":false,"rental_uris":{"android":"levelo://app?vid=04b016b0-78f2-4a40-9df3-2f41fff75a5c","ios":"levelo://app?vid=04b016b0-78f2-4a40-9df3-2f41fff75a5c"},"vehicle_type_id":"4","last_reported":1750450348,"current_range_meters":19600,"station_id":"st_cvj6sg6p6f1abm77japg","pricing_plan_id":"cebpf4jnsgd1na2vs0mg"},{"bike_id":"92636463-0a9d-46b1-9cc3-f5c5b6835403","system_id":"levelo_inurba_marseille","lat":43.268,"lon":5.40693,"is_reserved":false,"is_disabled":false,"rental_uris":{"android":"levelo://app?vid=92636463-0a9d-46b1-9cc3-f5c5b6835403","ios":"levelo://app?vid=92636463-0a9d-46b1-9cc3-f5c5b6835403"},"vehicle_type_id":"4","last_reported":1750450348,"current_range_meters":20000,"station_id":"","pricing_plan_id":"cebpf4jnsgd1na2vs0mg"},{"bike_id":"bfa4289d-6333-46cf-84e4-d24f73a14681","system_id":"levelo_inurba_marseille","lat":43.29528,"lon":5.38537,"is_reserved":false,"is_disabled":false,"rental_uris":{"android":"levelo://app?vid=bfa4289d-6333-46cf-84e4-d24f73a14681","ios":"levelo://app?vid=bfa4289d-6333-46cf-84e4-d24f73a14681"},"vehicle_type_id":"4","last_reported":1750450348,"current_range_meters":20000,"station_id":"ce4bgih2rcd13ifvqba0","pricing_plan_id":"cebpf4jnsgd1na2vs0mg"},{"bike_id":"e73743fb-4473-4d9e-b870-527d8be14fb8","system_id":"levelo_inurba_marseille","lat":43.29027,"lon":5.38652,"is_reserved":false,"is_disabled":false,"rental_uris":{"android":"levelo://app?vid=e73743fb-4473-4d9e-b870-527d8be14fb8","ios":"levelo://app?vid=e73743fb-4473-4d9e-b870-527d8be14fb8"},"vehicle_type_id":"4","last_reported":1750450348,"current_range_meters":20000,"station_id":"ce4bh4p2rcd13ifvqe0g","pricing_plan_id":"cebpf4jnsgd1na2vs0mg"},{"bike_id":"da55cc7a-cf10-44ac-9d5f-7d262fb9a6fb","system_id":"levelo_inurba_marseille","lat":43.29269,"lon":5.38432,"is_reserved":false,"is_disabled":false,"rental_uris":{"android":"levelo://app?vid=da55cc7a-cf10-44ac-9d5f-7d262fb9a6fb","ios":"levelo://app?vid=da55cc7a-cf10-44ac-9d5f-7d262fb9a6fb"},"vehicle_type_id":"4","last_reported":1750450348,"current_range_meters":20000,"station_id":"ce4bh692rcd13ifvqea0","pricing_plan_id":"cebpf4jnsgd1na2vs0mg"},{"bike_id":"fd629160-6b29-472c-a64e-967301cf3283","system_id":"levelo_inurba_marseille","lat":43.27681,"lon":5.38867,"is_reserved":false,"is_disabled":false,"rental_uris":{"android":"levelo://app?vid=fd629160-6b29-472c-a64e-967301cf3283","ios":"levelo://app?vid=fd629160-6b29-472c-a64e-967301cf3283"},"vehicle_type_id":"4","last_reported":1750450348,"current_range_meters":20000,"station_id":"ce4bhi12rcd13ifvqfo0","pricing_plan_id":"cebpf4jnsgd1na2vs0mg"},{"bike_id":"940a773f-6115-488f-a1b7-1fd9ccc18b0d","system_id":"levelo_inurba_marseille","lat":43.29314,"lon":5.37031,"is_reserved":false,"is_disabled":false,"rental_uris":{"android":"levelo://app?vid=940a773f-6115-488f-a1b7-1fd9ccc18b0d","ios":"levelo://app?vid=940a773f-6115-488f-a1b7-1fd9ccc18b0d"},"vehicle_type_id":"4","last_reported":1750450348,"current_range_meters":20400,"station_id":"","pricing_plan_id":"cebpf4jnsgd1na2vs0mg"},{"bike_id":"06f79f9b-d01e-43e3-a103-a5935f966dc7","system_id":"levelo_inurba_marseille","lat":43.29365,"lon":5.37829,"is_reserved":false,"is_disabled":false,"rental_uris":{"android":"levelo://app?vid=06f79f9b-d01e-43e3-a103-a5935f966dc7","ios":"levelo://app?vid=06f79f9b-d01e-43e3-a103-a5935f966dc7"},