{"last_updated":1758751740,"ttl":60,"version":"2.2","data":{"bikes":[{"bike_id":"cb6bf7d2-2ed1-47c4-b0a7-9c935f0ebf1a","system_id":"levelo_inurba_marseille","lat":43.26861,"lon":5.40679,"is_reserved":false,"is_disabled":false,"rental_uris":{"android":"levelo://app?vid=cb6bf7d2-2ed1-47c4-b0a7-9c935f0ebf1a","ios":"levelo://app?vid=cb6bf7d2-2ed1-47c4-b0a7-9c935f0ebf1a"},"vehicle_type_id":"4","last_reported":1758751740,"current_range_meters":2800,"station_id":"","pricing_plan_id":"cebpf4jnsgd1na2vs0mg"},{"bike_id":"962b15bf-a341-4469-9450-c0428eb337e2","system_id":"levelo_inurba_marseille","lat":43.23155,"lon":5.43704,"is_reserved":false,"is_disabled":true,"rental_uris":{"android":"levelo://app?vid=962b15bf-a341-4469-9450-c0428eb337e2","ios":"levelo://app?vid=962b15bf-a341-4469-9450-c0428eb337e2"},"vehicle_type_id":"4","last_reported":1758751740,"current_range_meters":3200,"station_id":"ce4bhmp2rcd13ifvqgog","pricing_plan_id":"cebpf4jnsgd1na2vs0mg"},{"bike_id":"cac889cb-42f6-46ba-8604-9a52d251ed42","system_id":"levelo_inurba_marseille","lat":43.32733,"lon":5.3924,"is_reserved":false,"is_disabled":false,"rental_uris":{"android":"levelo://app?vid=cac889cb-42f6-46ba-8604-9a52d251ed42","ios":"levelo://app?vid=cac889cb-42f6-46ba-8604-9a52d251ed42"},"vehicle_type_id":"4","last_reported":1758751740,"current_range_meters":3600,"station_id":"","pricing_plan_id":"cebpf4jnsgd1na2vs0mg"},{"bike_id":"39aedec4-0b0c-47e6-8a4e-7efeec17a1d8","system_id":"levelo_inurba_marseille","lat":43.27948,"lon":5.41043,"is_reserved":false,"is_disabled":false,"rental_uris":{"android":"levelo://app?vid=39aedec4-0b0c-47e6-8a4e-7efeec17a1d8","ios":"levelo://app?vid=39aedec4-0b0c-47e6-8a4e-7efeec17a1d8"},"vehicle_type_id":"4","last_reported":1758751740,"current_range_meters":3600,"station_id":"ce4bhnp2rcd13ifvqh0g","pricing_plan_id":"cebpf4jnsgd1na2vs0mg"},{"bike_id":"1efddf8d-578f-4e4c-8c3f-e3a8bd592ba4","system_id":"levelo_inurba_marseille","lat":43.29965,"lon":5.37397,"is_reserved":false,"is_disabled":false,"rental_uris":{"android":"levelo://app?vid=1efddf8d-578f-4e4c-8c3f-e3a8bd592ba4","ios":"levelo://app?vid=1efddf8d-578f-4e4c-8c3f-e3a8bd592ba4"},"vehicle_type_id":"4","last_reported":1758751740,"current_range_meters":4400,"station_id":"","pricing_plan_id":"cebpf4jnsgd1na2vs0mg"},{"bike_id":"fb8ac4f9-019c-4b90-99c4-e55c2a31c1ac","system_id":"levelo_inurba_marseille","lat":43.250374,"lon":5.396518,"is_reserved":false,"is_disabled":false,"rental_uris":{"android":"levelo://app?vid=fb8ac4f9-019c-4b90-99c4-e55c2a31c1ac","ios":"levelo://app?vid=fb8ac4f9-019c-4b90-99c4-e55c2a31c1ac"},"vehicle_type_id":"4","last_reported":1758751740,"current_range_meters":4400,"station_id":"ce4bhm12rcd13ifvqgkg","pricing_plan_id":"cebpf4jnsgd1na2vs0mg"},{"bike_id":"c95e0c05-dd94-491f-8092-9c7978400114","system_id":"levelo_inurba_marseille","lat":43.33491,"lon":5.36254,"is_reserved":false,"is_disabled":false,"rental_uris":{"android":"levelo://app?vid=c95e0c05-dd94-491f-8092-9c7978400114","ios":"levelo://app?vid=c95e0c05-dd94-491f-8092-9c7978400114"},"vehicle_type_id":"4","last_reported":1758751740,"current_range_meters":4800,"station_id":"ce4bhs12rcd13ifvqhvg","pricing_plan_id":"cebpf4jnsgd1na2vs0mg"},{"bike_id":"1305052d-686f-4c16-960e-74c2af23b883","system_id":"levelo_inurba_marseille","lat":43.299902,"lon":5.384586,"is_reserved":false,"is_disabled":false,"rental_uris":{"android":"levelo://app?vid=1305052d-686f-4c16-960e-74c2af23b883","ios":"levelo://app?vid=1305052d-686f-4c16-960e-74c2af23b883"},"vehicle_type_id":"4","last_reported":1758751740,"current_range_meters":4400,"station_id":"ce4bgj92rcd13ifvqbd0","pricing_plan_id":"cebpf4jnsgd1na2vs0mg"},{"bike_id":"80587073-63fe-4c2f-8fee-539e418013a0","system_id":"levelo_inurba_marseille","lat":43.2872,"lon":5.3608,"is_reserved":false,"is_disabled":false,"rental_uris":{"android":"levelo://app?vid=80587073-63fe-4c2f-8fee-539e418013a0","ios":"levelo://app?vid=80587073-63fe-4c2f-8fee-539e418013a0"},"vehicle_type_id":"4","last_reported":1758751740,"current_range_meters":4800,"station_id":"cki0cbj6b192h4jlfktg","pricing_plan_id":"cebpf4jnsgd1na2vs0mg"},{"bike_id":"56fcfea1-1826-4f26-a1f7-6626852afcc0","system_id":"levelo_inurba_marseille","lat":43.31348,"lon":5.39683,"is_reserved":false,"is_disabled":false,"rental_uris":{"android":"levelo://app?vid=56fcfea1-1826-4f26-a1f7-6626852afcc0","ios":"levelo://app?vid=56fcfea1-1826-4f26-a1f7-6626852afcc0"},"vehicle_type_id":"4","last_reported":1758751740,"current_range_meters":4800,"station_id":"ce4bgvp2rcd13ifvqcu0","pricing_plan_id":"cebpf4jnsgd1na2vs0mg"},{"bike_id":"44b7d628-0941-45c4-9417-eaff0ef62453","system_id":"levelo_inurba_marseille","lat":43.30326,"lon":5.40432,"is_reserved":false,"is_disabled":false,"rental_uris":{"android":"levelo://app?vid=44b7d628-0941-45c4-9417-eaff0ef62453","ios":"levelo://app?vid=44b7d628-0941-45c4-9417-eaff0ef62453"},"vehicle_type_id":"4","last_reported":1758751740,"current_range_meters":4800,"station_id":"ce4bh012rcd13ifvqd10","pricing_plan_id":"cebpf4jnsgd1na2vs0mg"},{"bike_id":"355e741c-878f-4775-9222-3a4d87cf17a7","system_id":"levelo_inurba_marseille","lat":43.24656,"lon":5.38172,"is_reserved":false,"is_disabled":true,"rental_uris":{"android":"levelo://app?vid=355e741c-878f-4775-9222-3a4d87cf17a7","ios":"levelo://app?vid=355e741c-878f-4775-9222-3a4d87cf17a7"},"vehicle_type_id":"4","last_reported":1758751740,"current_range_meters":4800,"station_id":"ce4bhih2rcd13ifvqfr0","pricing_plan_id":"cebpf4jnsgd1na2vs0mg"},{"bike_id":"939538dc-20bd-4d94-8a10-8e1e0a179bc7","system_id":"levelo_inurba_marseille","lat":43.31509,"lon":5.37297,"is_reserved":false,"is_disabled":false,"rental_uris":{"android":"levelo://app?vid=939538dc-20bd-4d94-8a10-8e1e0a179bc7","ios":"levelo://app?vid=939538dc-20bd-4d94-8a10-8e1e0a179bc7"},"vehicle_type_id":"4","last_reported":1758751740,"current_range_meters":5600,"station_id":"ce4bgt12rcd13ifvqcd0","pricing_plan_id":"cebpf4jnsgd1na2vs0mg"},{"bike_id":"997c9d15-7187-4c4d-bf6e-b24f4169cf04","system_id":"levelo_inurba_marseille","lat":43.30789,"lon":5.37649,"is_reserved":false,"is_disabled":false,"rental_uris":{"android":"levelo://app?vid=997c9d15-7187-4c4d-bf6e-b24f4169cf04","ios":"levelo://app?vid=997c9d15-7187-4c4d-bf6e-b24f4169cf04"},"vehicle_type_id":"4","last_reported":1758751740,"current_range_meters":6400,"station_id":"ce4bgv92rcd13ifvqcq0","pricing_plan_id":"cebpf4jnsgd1na2vs0mg"},{"bike_id":"c0e09fcd-6eb3-4487-95c6-c6f132f39de3","system_id":"levelo_inurba_marseille","lat":43.2254,"lon":5.34828,"is_reserved":false,"is_disabled":false,"rental_uris":{"android":"levelo://app?vid=c0e09fcd-6eb3-4487-95c6-c6f132f39de3","ios":"levelo://app?vid=c0e09fcd-6eb3-4487-95c6-c6f132f39de3"},"vehicle_type_id":"4","last_reported":1758751740,"current_range_meters":6400,"station_id":"","pricing_plan_id":"cebpf4jnsgd1na2vs0mg"},{"bike_id":"996c2e87-71fc-44dc-804e-76bfa9be8585","system_id":"levelo_inurba_marseille","lat":43.28458,"lon":5.35878,"is_reserved":false,"is_disabled":false,"rental_uris":{"android":"levelo://app?vid=996c2e87-71fc-44dc-804e-76bfa9be8585","ios":"levelo://app?vid=996c2e87-71fc-44dc-804e-76bfa9be8585"},"vehicle_type_id":"4","last_reported":1758751740,"current_range_meters":6400,"station_id":"ce4bhah2rcd13ifvqei0","pricing_plan_id":"cebpf4jnsgd1na2vs0mg"},{"bike_id":"c33fe7c4-fc8d-43e5-a7c2-875d2c057031","system_id":"levelo_inurba_marseille","lat":43.28682,"lon":5.40007,"is_reserved":false,"is_disabled":false,"rental_uris":{"android":"levelo://app?vid=c33fe7c4-fc8d-43e5-a7c2-875d2c057031","ios":"levelo://app?vid=c33fe7c4-fc8d-43e5-a7c2-875d2c057031"},"vehicle_type_id":"4","last_reported":1758751740,"current_range_meters":6400,"station_id":"ce4bho92rcd13ifvqh3g","pricing_plan_id":"cebpf4jnsgd1na2vs0mg"},{"bike_id":"4f7160de-cdd3-49c4-b948-667f175f37d0","system_id":"levelo_inurba_marseille","lat":43.29789,"lon":5.39358,"is_reserved":false,"is_disabled":false,"rental_uris":{"android":"levelo://app?vid=4f7160de-cdd3-49c4-b948-667f175f37d0","ios":"levelo://app?vid=4f7160de-cdd3-49c4-b948-667f175f37d0"},"vehicle_type_id":"4","last_reported":1758751740,"current_range_meters":6400,"station_id":"chh1huq6cuj3fo74tm60","pricing_plan_id":"cebpf4jnsgd1na2vs0mg"},{"bike_id":"a89d1671-6cac-4c4b-9093-e4733123fee1","system_id":"levelo_inurba_marseille","lat":43.28467,"lon":5.3588,"is_reserved":false,"is_disabled":false,"rental_uris":{"android":"levelo://app?vid=a89d1671-6cac-4c4b-9093-e4733123fee1","ios":"levelo://app?vid=a89d1671-6cac-4c4b-9093-e4733123fee1"},"vehicle_type_id":"4","last_reported":1758751740,"current_range_meters":6800,"station_id":"ce4bhah2rcd13ifvqei0","pricing_plan_id":"cebpf4jnsgd1na2vs0mg"},{"bike_id":"a8b44d7f-cdca-4c4e-8b76-0fa6784367f7","system_id":"levelo_inurba_marseille","lat":43.287,"lon":5.38686,"is_reserved":false,"is_disabled":false,"rental_uris":{"android":"levelo://app?vid=a8b44d7f-cdca-4c4e-8b76-0fa6784367f7","ios":"levelo://app?vid=a8b44d7f-cdca-4c4e-8b76-0fa6784367f7"},"vehicle_type_id":"4","last_reported":1758751740,"current_range_meters":6800,"station_id":"ce4bh492rcd13ifvqdug","pricing_plan_id":"cebpf4jnsgd1na2vs0mg"},{"bike_id":"207f992a-acfe-4c0b-82d1-0f7fcf61aa0c","system_id":"levelo_inurba_marseille","lat":43.24132,"lon":5.39652,"is_reserved":false,"is_disabled":true,"rental_uris":{"android":"levelo://app?vid=207f992a-acfe-4c0b-82d1-0f7fcf61aa0c","ios":"levelo://app?vid=207f992a-acfe-4c0b-82d1-0f7fcf61aa0c"},"vehicle_type_id":"4","last_reported":1758751740,"current_range_meters":6800,"station_id":"ce4bhn12rcd13ifvqgpg","pricing_plan_id":"cebpf4jnsgd1na2vs0mg"},{"bike_id":"fca5734e-07ff-45ce-b3a7-cf438c59e735","system_id":"levelo_inurba_marseille","lat":43.28155,"lon":5.42638,"is_reserved":false,"is_disabled":false,"rental_uris":{"android":"levelo://app?vid=fca5734e-07ff-45ce-b3a7-cf438c59e735","ios":"levelo://app?vid=fca5734e-07ff-45ce-b3a7-cf438c59e735"},"vehicle_type_id":"4","last_reported":1758751740,"current_range_meters":7200,"station_id":"ce4bhnh2rcd13ifvqgug","pricing_plan_id":"cebpf4jnsgd1na2vs0mg"},{"bike_id":"9446425e-0a86-42ae-bc3c-f72ad738e590","system_id":"levelo_inurba_marseille","lat":43.33643,"lon":5.36291,"is_reserved":false,"is_disabled":false,"rental_uris":{"android":"levelo://app?vid=9446425e-0a86-42ae-bc3c-f72ad738e590","ios":"levelo://app?vid=9446425e-0a86-42ae-bc3c-f72ad738e590"},"vehicle_type_id":"4","last_reported":1758751740,"current_range_meters":7200,"station_id":"","pricing_plan_id":"cebpf4jnsgd1na2vs0mg"},{"bike_id":"9615b0cc-320a-4aeb-8906-90f8e0d2d533","system_id":"levelo_inurba_marseille","lat":43.27911,"lon":5.39581,"is_reserved":false,"is_disabled":false,"rental_uris":{"android":"levelo://app?vid=9615b0cc-320a-4aeb-8906-90f8e0d2d533","ios":"levelo://app?vid=9615b0cc-320a-4aeb-8906-90f8e0d2d533"},"vehicle_type_id":"4","last_reported":1758751740,"current_range_meters":7200,"station_id":"ce4bhf92rcd13ifvqf40","pricing_plan_id":"cebpf4jnsgd1na2vs0mg"},{"bike_id":"f2bd1194-ae35-4f7a-9611-f7d70129a0c2","system_id":"levelo_inurba_marseille","lat":43.27986,"lon":5.41657,"is_reserved":false,"is_disabled":false,"rental_uris":{"android":"levelo://app?vid=f2bd1194-ae35-4f7a-9611-f7d70129a0c2","ios":"levelo://app?vid=f2bd1194-ae35-4f7a-9611-f7d70129a0c2"},"vehicle_type_id":"4","last_reported":1758751740,"current_range_meters":7200,"station_id":"ce4bho12rcd13ifvqh1g","pricing_plan_id":"cebpf4jnsgd1na2vs0mg"},{"bike_id":"ea93c4e7-0906-4128-b4fc-1b4c74a5c843","system_id":"levelo_inurba_marseille","lat":43.24816,"lon":5.37457,"is_reserved":false,"is_disabled":true,"rental_uris":{"android":"levelo://app?vid=ea93c4e7-0906-4128-b4fc-1b4c74a5c843","ios":"levelo://app?vid=ea93c4e7-0906-4128-b4fc-1b4c74a5c843"},"vehicle_type_id":"4","last_reported":1758751740,"current_range_meters":8000,"station_id":"ce4bhgh2rcd13ifvqfb0","pricing_plan_id":"cebpf4jnsgd1na2vs0mg"},{"bike_id":"6765fb53-f230-4b9a-9587-f0ec689c6027","system_id":"levelo_inurba_marseille","lat":43.28082,"lon":5.39665,"is_reserved":false,"is_disabled":false,"rental_uris":{"android":"levelo://app?vid=6765fb53-f230-4b9a-9587-f0ec689c6027","ios":"levelo://app?vid=6765fb53-f230-4b9a-9587-f0ec689c6027"},"vehicle_type_id":"4","last_reported":1758751740,"current_range_meters":8000,"station_id":"ce4bho12rcd13ifvqh2g","pricing_plan_id":"cebpf4jnsgd1na2vs0mg"},{"bike_id":"4b00aab8-f089-4d98-a94b-57e9a8415070","system_id":"levelo_inurba_marseille","lat":43.2842,"lon":5.34987,"is_reserved":false,"is_disabled":false,"rental_uris":{"android":"levelo://app?vid=4b00aab8-f089-4d98-a94b-57e9a8415070","ios":"levelo://app?vid=4b00aab8-f089-4d98-a94b-57e9a8415070"},"vehicle_type_id":"4","last_reported":1758751740,"current_range_meters":8000,"station_id":"ce4bhbh2rcd13ifvqepg","pricing_plan_id":"cebpf4jnsgd1na2vs0mg"},{"bike_id":"35e90d38-96e6-456d-9905-265ab413bc56","system_id":"levelo_inurba_marseille","lat":43.26567,"lon":5.40322,"is_reserved":false,"is_disabled":false,"rental_uris":{"android":"levelo://app?vid=35e90d38-96e6-456d-9905-265ab413bc56","ios":"levelo://app?vid=35e90d38-96e6-456d-9905-265ab413bc56"},"vehicle_type_id":"4","last_reported":1758751740,"current_range_meters":8000,"station_id":"ce4bhmp2rcd13ifvqgng","pricing_plan_id":"cebpf4jnsgd1na2vs0mg"},{"bike_id":"9d505302-1cab-4939-a0f5-80e81b9b7a5f","system_id":"levelo_inurba_marseille","lat":43.29271,"lon":5.36845,"is_reserved":false,"is_disabled":false,"rental_uris":{"android":"levelo://app?vid=9d505302-1cab-4939-a0f5-80e81b9b7a5f","ios":"levelo://app?vid=9d505302-1cab-4939-a0f5-80e81b9b7a5f"},"vehicle_type_id":"4","last_reported":1758751740,"current_range_meters":8000,"station_id":"ce4bhbp2rcd13ifvqesg","pricing_plan_id":"cebpf4jnsgd1na2vs0mg"},{"bike_id":"5f7a5080-e77c-4892-a096-c578510b27d0","system_id":"levelo_inurba_marseille","lat":43.2794,"lon":5.41023,"is_reserved":false,"is_disabled":true,"rental_uris":{"android":"levelo://app?vid=5f7a5080-e77c-4892-a096-c578510b27d0","ios":"levelo://app?vid=5f7a5080-e77c-4892-a096-c578510b27d0"},"vehicle_type_id":"4","last_reported":1758751740,"current_range_meters":8400,"station_id":"ce4bhnp2rcd13ifvqh0g","pricing_plan_id":"cebpf4jnsgd1na2vs0mg"},{"bike_id":"a0cd90db-5c5b-42c4-b2a2-3095012efe9b","system_id":"levelo_inurba_marseille","lat":43.28938,"lon":5.36638,"is_reserved":false,"is_disabled":false,"rental_uris":{"android":"levelo://app?vid=a0cd90db-5c5b-42c4-b2a2-3095012efe9b","ios":"levelo://app?vid=a0cd90db-5c5b-42c4-b2a2-3095012efe9b"},"vehicle_type_id":"4","last_reported":1758751740,"current_range_meters":8400,"station_id":"ce4bhap2rcd13ifvqek0","pricing_plan_id":"cebpf4jnsgd1na2vs0mg"},{"bike_id":"7c0482c3-9253-4d1b-b4f3-be55cdb7721d","system_id":"levelo_inurba_marseille","lat":43.33757,"lon":5.37466,"is_reserved":false,"is_disabled":false,"rental_uris":{"android":"levelo://app?vid=7c0482c3-9253-4d1b-b4f3-be55cdb7721d","ios":"levelo://app?vid=7c0482c3-9253-4d1b-b4f3-be55cdb7721d"},"vehicle_type_id":"4","last_reported":1758751740,"current_range_meters":8400,"station_id":"","pricing_plan_id":"cebpf4jnsgd1na2vs0mg"},{"bike_id":"ef25b7f5-39c6-4d67-bbf7-c65cbad0c0d8","system_id":"levelo_inurba_marseille","lat":43.28006,"lon":5.41667,"is_reserved":false,"is_disabled":false,"rental_uris":{"android":"levelo://app?vid=ef25b7f5-39c6-4d67-bbf7-c65cbad0c0d8","ios":"levelo://app?vid=ef25b7f5-39c6-4d67-bbf7-c65cbad0c0d8"},"vehicle_type_id":"4","last_reported":1758751740,"current_range_meters":8400,"station_id":"ce4bho12rcd13ifvqh1g","pricing_plan_id":"cebpf4jnsgd1na2vs0mg"},{"bike_id":"4ce67155-9f15-4130-9400-f86685d8ecda","system_id":"levelo_inurba_marseille","lat":43.29746,"lon":5.36492,"is_reserved":false,"is_disabled":false,"rental_uris":{"android":"levelo://app?vid=4ce67155-9f15-4130-9400-f86685d8ecda","ios":"levelo://app?vid=4ce67155-9f15-4130-9400-f86685d8ecda"},"vehicle_type_id":"4","last_reported":1758751740,"current_range_meters":8400,"station_id":"","pricing_plan_id":"cebpf4jnsgd1na2vs0mg"},{"bike_id":"b7836eac-0655-4f50-aef3-22f4ebb425a1","system_id":"levelo_inurba_marseille","lat":43.27069,"lon":5.4228,"is_reserved":false,"is_disabled":false,"rental_uris":{"android":"levelo://app?vid=b7836eac-0655-4f50-aef3-22f4ebb425a1","ios":"levelo://app?vid=b7836eac-0655-4f50-aef3-22f4ebb425a1"},"vehicle_type_id":"4","last_reported":1758751740,"current_range_meters":8400,"station_id":"ce4bhk92rcd13ifvqgb0","pricing_plan_id":"cebpf4jnsgd1na2vs0mg"},{"bike_id":"9c4a7bdb-c552-4dfd-8efb-40b9e0b0b147","system_id":"levelo_inurba_marseille","lat":43.30953,"lon":5.3675,"is_reserved":false,"is_disabled":false,"rental_uris":{"android":"levelo://app?vid=9c4a7bdb-c552-4dfd-8efb-40b9e0b0b147","ios":"levelo://app?vid=9c4a7bdb-c552-4dfd-8efb-40b9e0b0b147"},"vehicle_type_id":"4","last_reported":1758751740,"current_range_meters":8400,"station_id":"","pricing_plan_id":"cebpf4jnsgd1na2vs0mg"},{"bike_id":"775eef17-75f5-4088-9ebb-23eb3ff8093e","system_id":"levelo_inurba_marseille","lat":43.26552,"lon":5.37295,"is_reserved":false,"is_disabled":false,"rental_uris":{"android":"levelo://app?vid=775eef17-75f5-4088-9ebb-23eb3ff8093e","ios":"levelo://app?vid=775eef17-75f5-4088-9ebb-23eb3ff8093e"},"vehicle_type_id":"4","last_reported":1758751740,"current_range_meters":8400,"station_id":"ce4bhg12rcd13ifvqf70","pricing_plan_id":"cebpf4jnsgd1na2vs0mg"},{"bike_id":"a8cc8e82-39d4-4243-8f8e-eeedeee28d58","system_id":"levelo_inurba_marseille","lat":43.30198,"lon":5.36626,"is_reserved":false,"is_disabled":false,"rental_uris":{"android":"levelo://app?vid=a8cc8e82-39d4-4243-8f8e-eeedeee28d58","ios":"levelo://app?vid=a8cc8e82-39d4-4243-8f8e-eeedeee28d58"},"vehicle_type_id":"4","last_reported":1758751740,"current_range_meters":8000,"station_id":"ce4bgrh2rcd13ifvqc8g","pricing_plan_id":"cebpf4jnsgd1na2vs0mg"},{"bike_id":"43d57fd4-047e-4ac8-97e5-ec9b96239472","system_id":"levelo_inurba_marseille","lat":43.33231,"lon":5.39821,"is_reserved":false,"is_disabled":false,"rental_uris":{"android":"levelo://app?vid=43d57fd4-047e-4ac8-97e5-ec9b96239472","ios":"levelo://app?vid=43d57fd4-047e-4ac8-97e5-ec9b96239472"},"vehicle_type_id":"4","last_reported":1758751740,"current_range_meters":8400,"station_id":"","pricing_plan_id":"cebpf4jnsgd1na2vs0mg"},{"bike_id":"f4c0456a-c976-498e-865c-e8aae0c0f9e0","system_id":"levelo_inurba_marseille","lat":43.28471,"lon":5.35888,"is_reserved":false,"is_disabled":false,"rental_uris":{"android":"levelo://app?vid=f4c0456a-c976-498e-865c-e8aae0c0f9e0","ios":"levelo://app?vid=f4c0456a-c976-498e-865c-e8aae0c0f9e0"},"vehicle_type_id":"4","last_reported":1758751740,"current_range_meters":8800,"station_id":"ce4bhah2rcd13ifvqei0","pricing_plan_id":"cebpf4jnsgd1na2vs0mg"},{"bike_id":"c1dceb1e-ecf3-4ff2-9163-5d898dd5adce","system_id":"levelo_inurba_marseille","lat":43.2795,"lon":5.41039,"is_reserved":false,"is_disabled":false,"rental_uris":{"android":"levelo://app?vid=c1dceb1e-ecf3-4ff2-9163-5d898dd5adce","ios":"levelo://app?vid=c1dceb1e-ecf3-4ff2-9163-5d898dd5adce"},"vehicle_type_id":"4","last_reported":1758751740,"current_range_meters":8800,"station_id":"ce4bhnp2rcd13ifvqh0g","pricing_plan_id":"cebpf4jnsgd1na2vs0mg"},{"bike_id":"1846e412-a89b-48c3-8a86-f911e8ea2c2e","system_id":"levelo_inurba_marseille","lat":43.2119,"lon":5.35077,"is_reserved":false,"is_disabled":false,"rental_uris":{"android":"levelo://app?vid=1846e412-a89b-48c3-8a86-f911e8ea2c2e","ios":"levelo://app?vid=1846e412-a89b-48c3-8a86-f911e8ea2c2e"},"vehicle_type_id":"4","last_reported":1758751740,"current_range_meters":8800,"station_id":"st_cvj6sg6p6f1abm77japg","pricing_plan_id":"cebpf4jnsgd1na2vs0mg"},{"bike_id":"a9bedea1-2f15-43de-b33d-e0f7b6b2b260","system_id":"levelo_inurba_marseille","lat":43.2623,"lon":5.37513,"is_reserved":false,"is_disabled":false,"rental_uris":{"android":"levelo://app?vid=a9bedea1-2f15-43de-b33d-e0f7b6b2b260","ios":"levelo://app?vid=a9bedea1-2f15-43de-b33d-e0f7b6b2b260"},"vehicle_type_id":"4","last_reported":1758751740,"current_range_meters":8800,"station_id":"ce4bhgp2rcd13ifvqfc0","pricing_plan_id":"cebpf4jnsgd1na2vs0mg"},{"bike_id":"111519b1-5081-418d-a9ee-bd101f24a21d","system_id":"levelo_inurba_marseille","lat":43.28844,"lon":5.35845,"is_reserved":false,"is_disabled":false,"rental_uris":{"android":"levelo://app?vid=111519b1-5081-418d-a9ee-bd101f24a21d","ios":"levelo://app?vid=111519b1-5081-418d-a9ee-bd101f24a21d"},"vehicle_type_id":"4","last_reported":1758751740,"current_range_meters":8800,"station_id":"","pricing_plan_id":"cebpf4jnsgd1na2vs0mg"},{"bike_id":"2ef726bc-04bb-4d79-8ce8-abf775bc9f5b","system_id":"levelo_inurba_marseille","lat":43.28934,"lon":5.36634,"is_reserved":false,"is_disabled":false,"rental_uris":{"android":"levelo://app?vid=2ef726bc-04bb-4d79-8ce8-abf775bc9f5b","ios":"levelo://app?vid=2ef726bc-04bb-4d79-8ce8-abf775bc9f5b"},"vehicle_type_id":"4","last_reported":1758751740,"current_range_meters":8800,"station_id":"ce4bhap2rcd13ifvqek0","pricing_plan_id":"cebpf4jnsgd1na2vs0mg"},{"bike_id":"e35dc3d8-0dfe-4bd4-87f7-5d3ca8bee4e5","system_id":"levelo_inurba_marseille","lat":43.250814,"lon":5.425774,"is_reserved":false,"is_disabled":false,"rental_uris":{"android":"levelo://app?vid=e35dc3d8-0dfe-4bd4-87f7-5d3ca8bee4e5","ios":"levelo://app?vid=e35dc3d8-0dfe-4bd4-87f7-5d3ca8bee4e5"},"vehicle_type_id":"4","last_reported":1758751740,"current_range_meters":8800,"station_id":"","pricing_plan_id":"cebpf4jnsgd1na2vs0mg"},{"bike_id":"e40c5577-3291-42b6-8ff5-8c952f16ee31","system_id":"levelo_inurba_marseille","lat":43.31489,"lon":5.37275,"is_reserved":false,"is_disabled":false,"rental_uris":{"android":"levelo://app?vid=e40c5577-3291-42b6-8ff5-8c952f16ee31","ios":"levelo://app?vid=e40c5577-3291-42b6-8ff5-8c952f16ee31"},"vehicle_type_id":"4","last_reported":1758751740,"current_range_meters":8800,"station_id":"ce4bgt12rcd13ifvqcd0","pricing_plan_id":"cebpf4jnsgd1na2vs0mg"},{"bike_id":"010444af-9f75-4a6b-9bc1-150372d09fe2","system_id":"levelo_inurba_marseille","lat":43.28155,"lon":5.42644,"is_reserved":false,"is_disabled":false,"rental_uris":{"android":"levelo://app?vid=010444af-9f75-4a6b-9bc1-150372d09fe2","ios":"levelo://app?vid=010444af-9f75-4a6b-9bc1-150372d09fe2"},"vehicle_type_id":"4","last_reported":1758751740,"current_range_meters":9200,"station_id":"ce4bhnh2rcd13ifvqgug","pricing_plan_id":"cebpf4jnsgd1na2vs0mg"},{"bike_id":"b2a1e5ba-8a76-45db-9a24-e979e6cb0171","system_id":"levelo_inurba_marseille","lat":43.27985,"lon":5.41675,"is_reserved":false,"is_disabled":false,"rental_uris":{"android":"levelo://app?vid=b2a1e5ba-8a76-45db-9a24-e979e6cb0171","ios":"levelo://app?vid=b2a1e5ba-8a76-45db-9a24-e979e6cb0171"},"vehicle_type_id":"4","last_reported":1758751740,"current_range_meters":9200,"station_id":"ce4bho12rcd13ifvqh1g","pricing_plan_id":"cebpf4jnsgd1na2vs0mg"},{"bike_id":"0df75e72-c8b2-4ed4-bb38-339f4f3a1611","system_id":"levelo_inurba_marseille","lat":43.27677,"lon":5.38909,"is_reserved":false,"is_disabled":true,"rental_uris":{"android":"levelo://app?vid=0df75e72-c8b2-4ed4-bb38-339f4f3a1611","ios":"levelo://app?vid=0df75e72-c8b2-4ed4-bb38-339f4f3a1611"},"vehicle_type_id":"4","last_reported":1758751740,"current_range_meters":9200,"station_id":"ce4bhi12rcd13ifvqfo0","pricing_plan_id":"cebpf4jnsgd1na2vs0mg"},{"bike_id":"8b690cb9-57af-44fd-b3bf-d26e7f5ee42a","system_id":"levelo_inurba_marseille","lat":43.283584,"lon":5.38099,"is_reserved":false,"is_disabled":false,"rental_uris":{"android":"levelo://app?vid=8b690cb9-57af-44fd-b3bf-d26e7f5ee42a","ios":"levelo://app?vid=8b690cb9-57af-44fd-b3bf-d26e7f5ee42a"},"vehicle_type_id":"4","last_reported":1758751740,"current_range_meters":9200,"station_id":"ce4bh412rcd13ifvqdr0","pricing_plan_id":"cebpf4jnsgd1na2vs0mg"},{"bike_id":"d8648575-3b9d-4034-b5ca-8262d1c7a89c","system_id":"levelo_inurba_marseille","lat":43.28939,"lon":5.36633,"is_reserved":false,"is_disabled":false,"rental_uris":{"android":"levelo://app?vid=d8648575-3b9d-4034-b5ca-8262d1c7a89c","ios":"levelo://app?vid=d8648575-3b9d-4034-b5ca-8262d1c7a89c"},"vehicle_type_id":"4","last_reported":1758751740,"current_range_meters":9200,"station_id":"ce4bhap2rcd13ifvqek0","pricing_plan_id":"cebpf4jnsgd1na2vs0mg"},{"bike_id":"514b5fdb-f81d-41c3-afe2-e88866964916","system_id":"levelo_inurba_marseille","lat":43.25105,"lon":5.39516,"is_reserved":false,"is_disabled":true,"rental_uris":{"android":"levelo://app?vid=514b5fdb-f81d-41c3-afe2-e88866964916","ios":"levelo://app?vid=514b5fdb-f81d-41c3-afe2-e88866964916"},"vehicle_type_id":"4","last_reported":1758751740,"current_range_meters":9600,"station_id":"ce4bhm12rcd13ifvqgkg","pricing_plan_id":"cebpf4jnsgd1na2vs0mg"},{"bike_id":"f5cbf518-1ed8-4fa8-856e-df76939117cc","system_id":"levelo_inurba_marseille","lat":43.29016,"lon":5.39964,"is_reserved":false,"is_disabled":false,"rental_uris":{"android":"levelo://app?vid=f5cbf518-1ed8-4fa8-856e-df76939117cc","ios":"levelo://app?vid=f5cbf518-1ed8-4fa8-856e-df76939117cc"},"vehicle_type_id":"4","last_reported":1758751740,"current_range_meters":10000,"station_id":"ce4bh392rcd13ifvqdm0","pricing_plan_id":"cebpf4jnsgd1na2vs0mg"},{"bike_id":"e804e8c8-5889-461f-9ee8-4ad1711c5f41","system_id":"levelo_inurba_marseille","lat":43.29607,"lon":5.37714,"is_reserved":false,"is_disabled":true,"rental_uris":{"android":"levelo://app?vid=e804e8c8-5889-461f-9ee8-4ad1711c5f41","ios":"levelo://app?vid=e804e8c8-5889-461f-9ee8-4ad1711c5f41"},"vehicle_type_id":"4","last_reported":1758751740,"current_range_meters":10000,"station_id":"ce4bgi92rcd13ifvqb90","pricing_plan_id":"cebpf4jnsgd1na2vs0mg"},{"bike_id":"54f1c92b-94a0-4513-88e2-cfe0e09ba6ac","system_id":"levelo_inurba_marseille","lat":43.330225,"lon":5.390456,"is_reserved":false,"is_disabled":false,"rental_uris":{"android":"levelo://app?vid=54f1c92b-94a0-4513-88e2-cfe0e09ba6ac","ios":"levelo://app?vid=54f1c92b-94a0-4513-88e2-cfe0e09ba6ac"},"vehicle_type_id":"4","last_reported":1758751740,"current_range_meters":10000,"station_id":"ce4bhr92rcd13ifvqhrg","pricing_plan_id":"cebpf4jnsgd1na2vs0mg"},{"bike_id":"fdcf815f-664f-4c9a-95e4-3f4c39596470","system_id":"levelo_inurba_marseille","lat":43.28461,"lon":5.35874,"is_reserved":false,"is_disabled":false,"rental_uris":{"android":"levelo://app?vid=fdcf815f-664f-4c9a-95e4-3f4c39596470","ios":"levelo://app?vid=fdcf815f-664f-4c9a-95e4-3f4c39596470"},"vehicle_type_id":"4","last_reported":1758751740,"current_range_meters":10800,"station_id":"ce4bhah2rcd13ifvqei0","pricing_plan_id":"cebpf4jnsgd1na2vs0mg"},{"bike_id":"35b29339-dba8-4e1a-a84b-b2cb4cbeab88","system_id":"levelo_inurba_marseille","lat":43.31058,"lon":5.40088,"is_reserved":false,"is_disabled":false,"rental_uris":{"android":"levelo://app?vid=35b29339-dba8-4e1a-a84b-b2cb4cbeab88","ios":"levelo://app?vid=35b29339-dba8-4e1a-a84b-b2cb4cbeab88"},"vehicle_type_id":"4","last_reported":1758751740,"current_range_meters":10800,"station_id":"","pricing_plan_id":"cebpf4jnsgd1na2vs0mg"},{"bike_id":"2b142924-375d-48cb-93a3-16a1b9bf5e94","system_id":"levelo_inurba_marseille","lat":43.28619,"lon":5.35082,"is_reserved":false,"is_disabled":false,"rental_uris":{"android":"levelo://app?vid=2b142924-375d-48cb-93a3-16a1b9bf5e94","ios":"levelo://app?vid=2b142924-375d-48cb-93a3-16a1b9bf5e94"},"vehicle_type_id":"4","last_reported":1758751740,"current_range_meters":10800,"station_id":"ce4bhch2rcd13ifvqeug","pricing_plan_id":"cebpf4jnsgd1na2vs0mg"},{"bike_id":"9feb0e0f-24fa-4463-b0f3-30472830c043","system_id":"levelo_inurba_marseille","lat":43.31757,"lon":5.39002,"is_reserved":false,"is_disabled":true,"rental_uris":{"android":"levelo://app?vid=9feb0e0f-24fa-4463-b0f3-30472830c043","ios":"levelo://app?vid=9feb0e0f-24fa-4463-b0f3-30472830c043"},"vehicle_type_id":"4","last_reported":1758751740,"current_range_meters":11200,"station_id":"ce4bhqp2rcd13ifvqhng","pricing_plan_id":"cebpf4jnsgd1na2vs0mg"},{"bike_id":"7981bd57-1a91-436b-8601-50130d20e8be","system_id":"levelo_inurba_marseille","lat":43.21197,"lon":5.35047,"is_reserved":false,"is_disabled":false,"rental_uris":{"android":"levelo://app?vid=7981bd57-1a91-436b-8601-50130d20e8be","ios":"levelo://app?vid=7981bd57-1a91-436b-8601-50130d20e8be"},"vehicle_type_id":"4","last_reported":1758751740,"current_range_meters":11200,"station_id":"st_cvj6sg6p6f1abm77japg","pricing_plan_id":"cebpf4jnsgd1na2vs0mg"},{"bike_id":"4e737411-53ce-4bdf-9802-c3bc30d9bc94","system_id":"levelo_inurba_marseille","lat":43.29533,"lon":5.40643,"is_reserved":false,"is_disabled":false,"rental_uris":{"android":"levelo://app?vid=4e737411-53ce-4bdf-9802-c3bc30d9bc94","ios":"levelo://app?vid=4e737411-53ce-4bdf-9802-c3bc30d9bc94"},"vehicle_type_id":"4","last_reported":1758751740,"current_range_meters":11200,"station_id":"","pricing_plan_id":"cebpf4jnsgd1na2vs0mg"},{"bike_id":"8c7fb638-aa89-4dc5-b652-77ceb015b905","system_id":"levelo_inurba_marseille","lat":43.24962,"lon":5.40508,"is_reserved":false,"is_disabled":false,"rental_uris":{"android":"levelo://app?vid=8c7fb638-aa89-4dc5-b652-77ceb015b905","ios":"levelo://app?vid=8c7fb638-aa89-4dc5-b652-77ceb015b905"},"vehicle_type_id":"4","last_reported":1758751740,"current_range_meters":11200,"station_id":"st_d2ngiaodas8pm72gd1h0","pricing_plan_id":"cebpf4jnsgd1na2vs0mg"},{"bike_id":"8cfeab9c-a1ad-4cbe-9e1a-4699b1c0eaac","system_id":"levelo_inurba_marseille","lat":43.32333,"lon":5.40619,"is_reserved":false,"is_disabled":false,"rental_uris":{"android":"levelo://app?vid=8cfeab9c-a1ad-4cbe-9e1a-4699b1c0eaac","ios":"levelo://app?vid=8cfeab9c-a1ad-4cbe-9e1a-4699b1c0eaac"},"vehicle_type_id":"4","last_reported":1758751740,"current_range_meters":11200,"station_id":"ce4bhq92rcd13ifvqhjg","pricing_plan_id":"cebpf4jnsgd1na2vs0mg"},{"bike_id":"a755ceb1-4268-42e3-8c1e-500eff179db0","system_id":"levelo_inurba_marseille","lat":43.30781,"lon":5.3765,"is_reserved":false,"is_disabled":false,"rental_uris":{"android":"levelo://app?vid=a755ceb1-4268-42e3-8c1e-500eff179db0","ios":"levelo://app?vid=a755ceb1-4268-42e3-8c1e-500eff179db0"},"vehicle_type_id":"4","last_reported":1758751740,"current_range_meters":11200,"station_id":"ce4bgv92rcd13ifvqcq0","pricing_plan_id":"cebpf4jnsgd1na2vs0mg"},{"bike_id":"c89e96e6-c0b7-49ff-b8e6-77a8927b2a39","system_id":"levelo_inurba_marseille","lat":43.26561,"lon":5.37277,"is_reserved":false,"is_disabled":false,"rental_uris":{"android":"levelo://app?vid=c89e96e6-c0b7-49ff-b8e6-77a8927b2a39","ios":"levelo://app?vid=c89e96e6-c0b7-49ff-b8e6-77a8927b2a39"},"vehicle_type_id":"4","last_reported":1758751740,"current_range_meters":11200,"station_id":"ce4bhg12rcd13ifvqf70","pricing_plan_id":"cebpf4jnsgd1na2vs0mg"},{"bike_id":"b5097eea-9912-4be2-9cf9-14c224c5fab6","system_id":"levelo_inurba_marseille","lat":43.23207,"lon":5.35551,"is_reserved":false,"is_disabled":false,"rental_uris":{"android":"levelo://app?vid=b5097eea-9912-4be2-9cf9-14c224c5fab6","ios":"levelo://app?vid=b5097eea-9912-4be2-9cf9-14c224c5fab6"},"vehicle_type_id":"4","last_reported":1758751740,"current_range_meters":11200,"station_id":"ce4bhu92rcd13ifvqi70","pricing_plan_id":"cebpf4jnsgd1na2vs0mg"},{"bike_id":"06c10839-75c7-457b-804b-f341157fb4f3","system_id":"levelo_inurba_marseille","lat":43.25053,"lon":5.40449,"is_reserved":false,"is_disabled":false,"rental_uris":{"android":"levelo://app?vid=06c10839-75c7-457b-804b-f341157fb4f3","ios":"levelo://app?vid=06c10839-75c7-457b-804b-f341157fb4f3"},"vehicle_type_id":"4","last_reported":1758751740,"current_range_meters":11200,"station_id":"","pricing_plan_id":"cebpf4jnsgd1na2vs0mg"},{"bike_id":"3a319be7-fef3-40df-96fe-6bdc37dc7081","system_id":"levelo_inurba_marseille","lat":43.28122,"lon":5.37862,"is_reserved":false,"is_disabled":false,"rental_uris":{"android":"levelo://app?vid=3a319be7-fef3-40df-96fe-6bdc37dc7081","ios":"levelo://app?vid=3a319be7-fef3-40df-96fe-6bdc37dc7081"},"vehicle_type_id":"4","last_reported":1758751740,"current_range_meters":11200,"station_id":"ce4bha12rcd13ifvqee0","pricing_plan_id":"cebpf4jnsgd1na2vs0mg"},{"bike_id":"438ead59-de14-4fa0-a61d-03a70a4122ae","system_id":"levelo_inurba_marseille","lat":43.97269,"lon":4.89111,"is_reserved":false,"is_disabled":true,"rental_uris":{"android":"levelo://app?vid=438ead59-de14-4fa0-a61d-03a70a4122ae","ios":"levelo://app?vid=438ead59-de14-4fa0-a61d-03a70a4122ae"},"vehicle_type_id":"4","last_reported":1758751740,"current_range_meters":11200,"station_id":"","pricing_plan_id":"cebpf4jnsgd1na2vs0mg"},{"bike_id":"943f4a81-0a8c-43a3-b65e-eb7ef547a72c","system_id":"levelo_inurba_marseille","lat":43.28474,"lon":5.38419,"is_reserved":false,"is_disabled":true,"rental_uris":{"android":"levelo://app?vid=943f4a81-0a8c-43a3-b65e-eb7ef547a72c","ios":"levelo://app?vid=943f4a81-0a8c-43a3-b65e-eb7ef547a72c"},"vehicle_type_id":"4","last_reported":1758751740,"current_range_meters":11200,"station_id":"ce4bh512rcd13ifvqe3g","pricing_plan_id":"cebpf4jnsgd1na2vs0mg"},{"bike_id":"6c387d9c-fb50-41ae-b4f4-22ff8d86fe09","system_id":"levelo_inurba_marseille","lat":43.28479,"lon":5.35901,"is_reserved":false,"is_disabled":false,"rental_uris":{"android":"levelo://app?vid=6c387d9c-fb50-41ae-b4f4-22ff8d86fe09","ios":"levelo://app?vid=6c387d9c-fb50-41ae-b4f4-22ff8d86fe09"},"vehicle_type_id":"4","last_reported":1758751740,"current_range_meters":11600,"station_id":"ce4bhah2rcd13ifvqei0","pricing_plan_id":"cebpf4jnsgd1na2vs0mg"},{"bike_id":"7e1d06ee-3345-46fc-87cc-726e9c93356f","system_id":"levelo_inurba_marseille","lat":43.31108,"lon":5.3777,"is_reserved":false,"is_disabled":false,"rental_uris":{"android":"levelo://app?vid=7e1d06ee-3345-46fc-87cc-726e9c93356f","ios":"levelo://app?vid=7e1d06ee-3345-46fc-87cc-726e9c93356f"},"vehicle_type_id":"4","last_reported":1758751740,"current_range_meters":11600,"station_id":"ce4bgt92rcd13ifvqcg0","pricing_plan_id":"cebpf4jnsgd1na2vs0mg"},{"bike_id":"b047061a-80fe-4f53-a37f-a97017dc2f10","system_id":"levelo_inurba_marseille","lat":43.29258,"lon":5.40903,"is_reserved":false,"is_disabled":true,"rental_uris":{"android":"levelo://app?vid=b047061a-80fe-4f53-a37f-a97017dc2f10","ios":"levelo://app?vid=b047061a-80fe-4f53-a37f-a97017dc2f10"},"vehicle_type_id":"4","last_reported":1758751740,"current_range_meters":11600,"station_id":"ce4bh192rcd13ifvqdc0","pricing_plan_id":"cebpf4jnsgd1na2vs0mg"},{"bike_id":"450844ba-2fc2-47be-9959-8fee61f07fb6","system_id":"levelo_inurba_marseille","lat":43.31741,"lon":5.39024,"is_reserved":false,"is_disabled":false,"rental_uris":{"android":"levelo://app?vid=450844ba-2fc2-47be-9959-8fee61f07fb6","ios":"levelo://app?vid=450844ba-2fc2-47be-9959-8fee61f07fb6"},"vehicle_type_id":"4","last_reported":1758751740,"current_range_meters":12000,"station_id":"ce4bhqp2rcd13ifvqhng","pricing_plan_id":"cebpf4jnsgd1na2vs0mg"},{"bike_id":"1221f52f-da48-4205-afc8-b6dd9d4b3e5e","system_id":"levelo_inurba_marseille","lat":43.25746,"lon":5.41121,"is_reserved":false,"is_disabled":true,"rental_uris":{"android":"levelo://app?vid=1221f52f-da48-4205-afc8-b6dd9d4b3e5e","ios":"levelo://app?vid=1221f52f-da48-4205-afc8-b6dd9d4b3e5e"},"vehicle_type_id":"4","last_reported":1758751740,"current_range_meters":12000,"station_id":"ce4bhkp2rcd13ifvqgd0","pricing_plan_id":"cebpf4jnsgd1na2vs0mg"},{"bike_id":"3691c0cf-36ed-43b8-827f-94c03aaba0ea","system_id":"levelo_inurba_marseille","lat":43.24677,"lon":5.38152,"is_reserved":false,"is_disabled":false,"rental_uris":{"android":"levelo://app?vid=3691c0cf-36ed-43b8-827f-94c03aaba0ea","ios":"levelo://app?vid=3691c0cf-36ed-43b8-827f-94c03aaba0ea"},"vehicle_type_id":"4","last_reported":1758751740,"current_range_meters":12000,"station_id":"ce4bhih2rcd13ifvqfr0","pricing_plan_id":"cebpf4jnsgd1na2vs0mg"},{"bike_id":"65bab4b1-186f-43b7-9c31-2ad52e7a3a17","system_id":"levelo_inurba_marseille","lat":43.28357,"lon":5.38103,"is_reserved":false,"is_disabled":false,"rental_uris":{"android":"levelo://app?vid=65bab4b1-186f-43b7-9c31-2ad52e7a3a17","ios":"levelo://app?vid=65bab4b1-186f-43b7-9c31-2ad52e7a3a17"},"vehicle_type_id":"4","last_reported":1758751740,"current_range_meters":12000,"station_id":"ce4bh412rcd13ifvqdr0","pricing_plan_id":"cebpf4jnsgd1na2vs0mg"},{"bike_id":"a851cae0-b395-441e-9dd1-21300baf3396","system_id":"levelo_inurba_marseille","lat":43.3153,"lon":5.38687,"is_reserved":false,"is_disabled":false,"rental_uris":{"android":"levelo://app?vid=a851cae0-b395-441e-9dd1-21300baf3396","ios":"levelo://app?vid=a851cae0-b395-441e-9dd1-21300baf3396"},"vehicle_type_id":"4","last_reported":1758751740,"current_range_meters":12000,"station_id":"","pricing_plan_id":"cebpf4jnsgd1na2vs0mg"},{"bike_id":"f4d1348a-fb4a-44eb-ba58-21afe18eb431","system_id":"levelo_inurba_marseille","lat":43.2884,"lon":5.3585,"is_reserved":false,"is_disabled":false,"rental_uris":{"android":"levelo://app?vid=f4d1348a-fb4a-44eb-ba58-21afe18eb431","ios":"levelo://app?vid=f4d1348a-fb4a-44eb-ba58-21afe18eb431"},"vehicle_type_id":"4","last_reported":1758751740,"current_range_meters":12000,"station_id":"ce4bhb12rcd13ifvqem0","pricing_plan_id":"cebpf4jnsgd1na2vs0mg"},{"bike_id":"fca2cd76-1e31-47dc-b6ce-18776c40295a","system_id":"levelo_inurba_marseille","lat":43.27368,"lon":5.36256,"is_reserved":false,"is_disabled":false,"rental_uris":{"android":"levelo://app?vid=fca2cd76-1e31-47dc-b6ce-18776c40295a","ios":"levelo://app?vid=fca2cd76-1e31-47dc-b6ce-18776c40295a"},"vehicle_type_id":"4","last_reported":1758751740,"current_range_meters":12000,"station_id":"ce4bhbh2rcd13ifvqeo0","pricing_plan_id":"cebpf4jnsgd1na2vs0mg"},{"bike_id":"67731d75-ff49-4885-87c7-b18191216aed","system_id":"levelo_inurba_marseille","lat":43.24657,"lon":5.38888,"is_reserved":false,"is_disabled":false,"rental_uris":{"android":"levelo://app?vid=67731d75-ff49-4885-87c7-b18191216aed","ios":"levelo://app?vid=67731d75-ff49-4885-87c7-b18191216aed"},"vehicle_type_id":"4","last_reported":1758751740,"current_range_meters":11600,"station_id":"ce4bhg12rcd13ifvqf60","pricing_plan_id":"cebpf4jnsgd1na2vs0mg"},{"bike_id":"5fbe240b-53fb-428d-978a-e46e6a2551ae","system_id":"levelo_inurba_marseille","lat":43.25581,"lon":5.38236,"is_reserved":false,"is_disabled":false,"rental_uris":{"android":"levelo://app?vid=5fbe240b-53fb-428d-978a-e46e6a2551ae","ios":"levelo://app?vid=5fbe240b-53fb-428d-978a-e46e6a2551ae"},"vehicle_type_id":"4","last_reported":1758751740,"current_range_meters":12000,"station_id":"ce4bhih2rcd13ifvqfs0","pricing_plan_id":"cebpf4jnsgd1na2vs0mg"},{"bike_id":"dfc6616d-fac8-446b-b270-4ca8177f4872","system_id":"levelo_inurba_marseille","lat":43.24079,"lon":5.37754,"is_reserved":false,"is_disabled":false,"rental_uris":{"android":"levelo://app?vid=dfc6616d-fac8-446b-b270-4ca8177f4872","ios":"levelo://app?vid=dfc6616d-fac8-446b-b270-4ca8177f4872"},"vehicle_type_id":"4","last_reported":1758751740,"current_range_meters":12400,"station_id":"ce4bhnp2rcd13ifvqgvg","pricing_plan_id":"cebpf4jnsgd1na2vs0mg"},{"bike_id":"ae4d123c-65ee-4c52-8933-f4b14d3f9582","system_id":"levelo_inurba_marseille","lat":43.22564,"lon":5.41624,"is_reserved":false,"is_disabled":false,"rental_uris":{"android":"levelo://app?vid=ae4d123c-65ee-4c52-8933-f4b14d3f9582","ios":"levelo://app?vid=ae4d123c-65ee-4c52-8933-f4b14d3f9582"},"vehicle_type_id":"4","last_reported":1758751740,"current_range_meters":12400,"station_id":"st_d2o4gvlbi1j2169b742g","pricing_plan_id":"cebpf4jnsgd1na2vs0mg"},{"bike_id":"ef00c611-56e3-4d87-83a8-6fad9627913a","system_id":"levelo_inurba_marseille","lat":43.308894,"lon":5.371943,"is_reserved":false,"is_disabled":false,"rental_uris":{"android":"levelo://app?vid=ef00c611-56e3-4d87-83a8-6fad9627913a","ios":"levelo://app?vid=ef00c611-56e3-4d87-83a8-6fad9627913a"},"vehicle_type_id":"4","last_reported":1758751740,"current_range_meters":12400,"station_id":"ce4bguh2rcd13ifvqckg","pricing_plan_id":"cebpf4jnsgd1na2vs0mg"},{"bike_id":"fb1e7de3-cddb-408a-9b04-937333e8e1b1","system_id":"levelo_inurba_marseille","lat":43.258241,"lon":5.39439,"is_reserved":false,"is_disabled":false,"rental_uris":{"android":"levelo://app?vid=fb1e7de3-cddb-408a-9b04-937333e8e1b1","ios":"levelo://app?vid=fb1e7de3-cddb-408a-9b04-937333e8e1b1"},"vehicle_type_id":"4","last_reported":1758751740,"current_range_meters":12400,"station_id":"ce4bhip2rcd13ifvqft0","pricing_plan_id":"cebpf4jnsgd1na2vs0mg"},{"bike_id":"36b070bb-df09-4433-b99c-aab79ada22d5","system_id":"levelo_inurba_marseille","lat":43.29287,"lon":5.3744,"is_reserved":false,"is_disabled":false,"rental_uris":{"android":"levelo://app?vid=36b070bb-df09-4433-b99c-aab79ada22d5","ios":"levelo://app?vid=36b070bb-df09-4433-b99c-aab79ada22d5"},"vehicle_type_id":"4","last_reported":1758751740,"current_range_meters":12400,"station_id":"","pricing_plan_id":"cebpf4jnsgd1na2vs0mg"},{"bike_id":"f9af076b-c426-46f0-97f6-f6a5a530c8e2","system_id":"levelo_inurba_marseille","lat":43.33241,"lon":5.39881,"is_reserved":false,"is_disabled":false,"rental_uris":{"android":"levelo://app?vid=f9af076b-c426-46f0-97f6-f6a5a530c8e2","ios":"levelo://app?vid=f9af076b-c426-46f0-97f6-f6a5a530c8e2"},"vehicle_type_id":"4","last_reported":1758751740,"current_range_meters":12400,"station_id":"","pricing_plan_id":"cebpf4jnsgd1na2vs0mg"},{"bike_id":"1f1e9245-9355-4652-aa9a-8a02bdb086d8","system_id":"levelo_inurba_marseille","lat":43.30736,"lon":5.4244,"is_reserved":false,"is_disabled":false,"rental_uris":{"android":"levelo://app?vid=1f1e9245-9355-4652-aa9a-8a02bdb086d8","ios":"levelo://app?vid=1f1e9245-9355-4652-aa9a-8a02bdb086d8"},"vehicle_type_id":"4","last_reported":1758751740,"current_range_meters":12400,"station_id":"st_cvj6ca6bvosntc0bfgr0","pricing_plan_id":"cebpf4jnsgd1na2vs0mg"},{"bike_id":"bf1244d3-d7e7-45bd-8580-d0cbc34b36e3","system_id":"levelo_inurba_marseille","lat":43.22568,"lon":5.41622,"is_reserved":false,"is_disabled":false,"rental_uris":{"android":"levelo://app?vid=bf1244d3-d7e7-45bd-8580-d0cbc34b36e3","ios":"levelo://app?vid=bf1244d3-d7e7-45bd-8580-d0cbc34b36e3"},"vehicle_type_id":"4","last_reported":1758751740,"current_range_meters":12800,"station_id":"st_d2o4gvlbi1j2169b742g","pricing_plan_id":"cebpf4jnsgd1na2vs0mg"},{"bike_id":"70085e19-c38e-4fef-85e6-f8af2f013d25","system_id":"levelo_inurba_marseille","lat":43.29439,"lon":5.3975,"is_reserved":false,"is_disabled":false,"rental_uris":{"android":"levelo://app?vid=70085e19-c38e-4fef-85e6-f8af2f013d25","ios":"levelo://app?vid=70085e19-c38e-4fef-85e6-f8af2f013d25"},"vehicle_type_id":"4","last_reported":1758751740,"current_range_meters":12800,"station_id":"ce4bh3h2rcd13ifvqdo0","pricing_plan_id":"cebpf4jnsgd1na2vs0mg"},{"bike_id":"3fb5adf5-1c4e-4e94-b48c-06d85cb9bb06","system_id":"levelo_inurba_marseille","lat":43.30138,"lon":5.3878,"is_reserved":false,"is_disabled":false,"rental_uris":{"android":"levelo://app?vid=3fb5adf5-1c4e-4e94-b48c-06d85cb9bb06","ios":"levelo://app?vid=3fb5adf5-1c4e-4e94-b48c-06d85cb9bb06"},"vehicle_type_id":"4","last_reported":1758751740,"current_range_meters":12800,"station_id":"ce4bghh2rcd13ifvqb60","pricing_plan_id":"cebpf4jnsgd1na2vs0mg"},{"bike_id":"cf5d175b-28a2-4b65-9634-f4062a17e9cf","system_id":"levelo_inurba_marseille","lat":43.28223,"lon":5.39069,"is_reserved":false,"is_disabled":false,"rental_uris":{"android":"levelo://app?vid=cf5d175b-28a2-4b65-9634-f4062a17e9cf","ios":"levelo://app?vid=cf5d175b-28a2-4b65-9634-f4062a17e9cf"},"vehicle_type_id":"4","last_reported":1758751740,"current_range_meters":12800,"station_id":"ce4bhn92rcd13ifvqgsg","pricing_plan_id":"cebpf4jnsgd1na2vs0mg"},{"bike_id":"21a23fb5-d051-4ee2-9c58-8985930c04d5","system_id":"levelo_inurba_marseille","lat":43.28439,"lon":5.37517,"is_reserved":false,"is_disabled":false,"rental_uris":{"android":"levelo://app?vid=21a23fb5-d051-4ee2-9c58-8985930c04d5","ios":"levelo://app?vid=21a23fb5-d051-4ee2-9c58-8985930c04d5"},"vehicle_type_id":"4","last_reported":1758751740,"current_range_meters":12800,"station_id":"ce4bh412rcd13ifvqds0","pricing_plan_id":"cebpf4jnsgd1na2vs0mg"},{"bike_id":"8eaa912d-a69f-4530-9d49-510f31637cd8","system_id":"levelo_inurba_marseille","lat":43.29711,"lon":5.36608,"is_reserved":false,"is_disabled":false,"rental_uris":{"android":"levelo://app?vid=8eaa912d-a69f-4530-9d49-510f31637cd8","ios":"levelo://app?vid=8eaa912d-a69f-4530-9d49-510f31637cd8"},"vehicle_type_id":"4","last_reported":1758751740,"current_range_meters":12800,"station_id":"ce4bgn12rcd13ifvqbt0","pricing_plan_id":"cebpf4jnsgd1na2vs0mg"},{"bike_id":"16cee2f9-0604-4f00-85ee-c5690b0410f0","system_id":"levelo_inurba_marseille","lat":43.28625,"lon":5.35089,"is_reserved":false,"is_disabled":false,"rental_uris":{"android":"levelo://app?vid=16cee2f9-0604-4f00-85ee-c5690b0410f0","ios":"levelo://app?vid=16cee2f9-0604-4f00-85ee-c5690b0410f0"},"vehicle_type_id":"4","last_reported":1758751740,"current_range_meters":12800,"station_id":"ce4bhch2rcd13ifvqeug","pricing_plan_id":"cebpf4jnsgd1na2vs0mg"},{"bike_id":"b3e95158-1f24-4a27-a73a-d79e0a465478","system_id":"levelo_inurba_marseille","lat":43.24077,"lon":5.37734,"is_reserved":false,"is_disabled":false,"rental_uris":{"android":"levelo://app?vid=b3e95158-1f24-4a27-a73a-d79e0a465478","ios":"levelo://app?vid=b3e95158-1f24-4a27-a73a-d79e0a465478"},"vehicle_type_id":"4","last_reported":1758751740,"current_range_meters":13600,"station_id":"ce4bhnp2rcd13ifvqgvg","pricing_plan_id":"cebpf4jnsgd1na2vs0mg"},{"bike_id":"57b14c92-2a17-45b3-beb1-cbb460ef441b","system_id":"levelo_inurba_marseille","lat":43.23201,"lon":5.39987,"is_reserved":false,"is_disabled":false,"rental_uris":{"android":"levelo://app?vid=57b14c92-2a17-45b3-beb1-cbb460ef441b","ios":"levelo://app?vid=57b14c92-2a17-45b3-beb1-cbb460ef441b"},"vehicle_type_id":"4","last_reported":1758751740,"current_range_meters":13600,"station_id":"ce4bhn12rcd13ifvqgqg","pricing_plan_id":"cebpf4jnsgd1na2vs0mg"},{"bike_id":"e1f6ea02-3dcd-4760-958d-a4be47a2bc76","system_id":"levelo_inurba_marseille","lat":43.24688,"lon":5.38872,"is_reserved":false,"is_disabled":false,"rental_uris":{"android":"levelo://app?vid=e1f6ea02-3dcd-4760-958d-a4be47a2bc76","ios":"levelo://app?vid=e1f6ea02-3dcd-4760-958d-a4be47a2bc76"},"vehicle_type_id":"4","last_reported":1758751740,"current_range_meters":13600,"station_id":"","pricing_plan_id":"cebpf4jnsgd1na2vs0mg"},{"bike_id":"12ed2972-a6ca-466e-8899-3c913323c726","system_id":"levelo_inurba_marseille","lat":43.3135,"lon":5.39702,"is_reserved":false,"is_disabled":false,"rental_uris":{"android":"levelo://app?vid=12ed2972-a6ca-466e-8899-3c913323c726","ios":"levelo://app?vid=12ed2972-a6ca-466e-8899-3c913323c726"},"vehicle_type_id":"4","last_reported":1758751740,"current_range_meters":13600,"station_id":"ce4bgvp2rcd13ifvqcu0","pricing_plan_id":"cebpf4jnsgd1na2vs0mg"},{"bike_id":"2b0b8fbc-a3da-47ac-b7eb-4f8784dc48ba","system_id":"levelo_inurba_marseille","lat":43.2888,"lon":5.39324,"is_reserved":false,"is_disabled":false,"rental_uris":{"android":"levelo://app?vid=2b0b8fbc-a3da-47ac-b7eb-4f8784dc48ba","ios":"levelo://app?vid=2b0b8fbc-a3da-47ac-b7eb-4f8784dc48ba"},"vehicle_type_id":"4","last_reported":1758751740,"current_range_meters":13600,"station_id":"ce4bh2p2rcd13ifvqdi0","pricing_plan_id":"cebpf4jnsgd1na2vs0mg"},{"bike_id":"e19472f1-87e0-4943-97f3-e785d2a10054","system_id":"levelo_inurba_marseille","lat":43.288575,"lon":5.425282,"is_reserved":false,"is_disabled":false,"rental_uris":{"android":"levelo://app?vid=e19472f1-87e0-4943-97f3-e785d2a10054","ios":"levelo://app?vid=e19472f1-87e0-4943-97f3-e785d2a10054"},"vehicle_type_id":"4","last_reported":1758751740,"current_range_meters":13600,"station_id":"","pricing_plan_id":"cebpf4jnsgd1na2vs0mg"},{"bike_id":"3a83ddcd-ce03-4ed4-a7fa-b273c2464f02","system_id":"levelo_inurba_marseille","lat":43.27941,"lon":5.36315,"is_reserved":false,"is_disabled":false,"rental_uris":{"android":"levelo://app?vid=3a83ddcd-ce03-4ed4-a7fa-b273c2464f02","ios":"levelo://app?vid=3a83ddcd-ce03-4ed4-a7fa-b273c2464f02"},"vehicle_type_id":"4","last_reported":1758751740,"current_range_meters":13600,"station_id":"","pricing_plan_id":"cebpf4jnsgd1na2vs0mg"},{"bike_id":"efbfa37e-bebe-42c2-8f72-4367319e0e91","system_id":"levelo_inurba_marseille","lat":43.3414,"lon":5.40901,"is_reserved":false,"is_disabled":false,"rental_uris":{"android":"levelo://app?vid=efbfa37e-bebe-42c2-8f72-4367319e0e91","ios":"levelo://app?vid=efbfa37e-bebe-42c2-8f72-4367319e0e91"},"vehicle_type_id":"4","last_reported":1758751740,"current_range_meters":12800,"station_id":"ce4bhqh2rcd13ifvqhlg","pricing_plan_id":"cebpf4jnsgd1na2vs0mg"},{"bike_id":"2edaff00-298a-43bb-9b1b-fbee07f158c1","system_id":"levelo_inurba_marseille","lat":43.32104,"lon":5.36785,"is_reserved":false,"is_disabled":false,"rental_uris":{"android":"levelo://app?vid=2edaff00-298a-43bb-9b1b-fbee07f158c1","ios":"levelo://app?vid=2edaff00-298a-43bb-9b1b-fbee07f158c1"},"vehicle_type_id":"4","last_reported":1758751740,"current_range_meters":13600,"station_id":"ce4bhrh2rcd13ifvqhug","pricing_plan_id":"cebpf4jnsgd1na2vs0mg"},{"bike_id":"3cb1dae7-6bcd-41e5-b1b7-c1d25c751a99","system_id":"levelo_inurba_marseille","lat":43.337594,"lon":5.374419,"is_reserved":false,"is_disabled":false,"rental_uris":{"android":"levelo://app?vid=3cb1dae7-6bcd-41e5-b1b7-c1d25c751a99","ios":"levelo://app?vid=3cb1dae7-6bcd-41e5-b1b7-c1d25c751a99"},"vehicle_type_id":"4","last_reported":1758751740,"current_range_meters":14000,"station_id":"","pricing_plan_id":"cebpf4jnsgd1na2vs0mg"},{"bike_id":"6dab74f5-a51f-4792-bde6-c10b4d072be5","system_id":"levelo_inurba_marseille","lat":43.28455,"lon":5.3751,"is_reserved":false,"is_disabled":false,"rental_uris":{"android":"levelo://app?vid=6dab74f5-a51f-4792-bde6-c10b4d072be5","ios":"levelo://app?vid=6dab74f5-a51f-4792-bde6-c10b4d072be5"},"vehicle_type_id":"4","last_reported":1758751740,"current_range_meters":14000,"station_id":"","pricing_plan_id":"cebpf4jnsgd1na2vs0mg"},{"bike_id":"4bf9263f-c878-4811-a813-8bc47b9757ff","system_id":"levelo_inurba_marseille","lat":43.28005,"lon":5.41659,"is_reserved":false,"is_disabled":false,"rental_uris":{"android":"levelo://app?vid=4bf9263f-c878-4811-a813-8bc47b9757ff","ios":"levelo://app?vid=4bf9263f-c878-4811-a813-8bc47b9757ff"},"vehicle_type_id":"4","last_reported":1758751740,"current_range_meters":14000,"station_id":"ce4bho12rcd13ifvqh1g","pricing_plan_id":"cebpf4jnsgd1na2vs0mg"},{"bike_id":"1629c0bb-1458-4ec4-b827-6e11adac4ce4","system_id":"levelo_inurba_marseille","lat":43.29878,"lon":5.39743,"is_reserved":false,"is_disabled":false,"rental_uris":{"android":"levelo://app?vid=1629c0bb-1458-4ec4-b827-6e11adac4ce4","ios":"levelo://app?vid=1629c0bb-1458-4ec4-b827-6e11adac4ce4"},"vehicle_type_id":"4","last_reported":1758751740,"current_range_meters":14000,"station_id":"ce4bh0h2rcd13ifvqd50","pricing_plan_id":"cebpf4jnsgd1na2vs0mg"},{"bike_id":"023ee22e-363d-4688-800c-ab4b215e4623","system_id":"levelo_inurba_marseille","lat":43.2767,"lon":5.3892,"is_reserved":false,"is_disabled":true,"rental_uris":{"android":"levelo://app?vid=023ee22e-363d-4688-800c-ab4b215e4623","ios":"levelo://app?vid=023ee22e-363d-4688-800c-ab4b215e4623"},"vehicle_type_id":"4","last_reported":1758751740,"current_range_meters":14400,"station_id":"ce4bhi12rcd13ifvqfo0","pricing_plan_id":"cebpf4jnsgd1na2vs0mg"},{"bike_id":"8eae954c-dab6-4303-94f5-569e1c483f62","system_id":"levelo_inurba_marseille","lat":43.29445,"lon":5.40734,"is_reserved":false,"is_disabled":false,"rental_uris":{"android":"levelo://app?vid=8eae954c-dab6-4303-94f5-569e1c483f62","ios":"levelo://app?vid=8eae954c-dab6-4303-94f5-569e1c483f62"},"vehicle_type_id":"4","last_reported":1758751740,"current_range_meters":14400,"station_id":"","pricing_plan_id":"cebpf4jnsgd1na2vs0mg"},{"bike_id":"0e9ca394-4351-4bf8-a641-f4e5215baf20","system_id":"levelo_inurba_marseille","lat":43.28246,"lon":5.35109,"is_reserved":false,"is_disabled":false,"rental_uris":{"android":"levelo://app?vid=0e9ca394-4351-4bf8-a641-f4e5215baf20","ios":"levelo://app?vid=0e9ca394-4351-4bf8-a641-f4e5215baf20"},"vehicle_type_id":"4","last_reported":1758751740,"current_range_meters":14400,"station_id":"","pricing_plan_id":"cebpf4jnsgd1na2vs0mg"},{"bike_id":"002673c7-e49b-40c2-82da-6cf2f4393eb8","system_id":"levelo_inurba_marseille","lat":43.304592,"lon":5.378932,"is_reserved":false,"is_disabled":true,"rental_uris":{"android":"levelo://app?vid=002673c7-e49b-40c2-82da-6cf2f4393eb8","ios":"levelo://app?vid=002673c7-e49b-40c2-82da-6cf2f4393eb8"},"vehicle_type_id":"4","last_reported":1758751740,"current_range_meters":14400,"station_id":"ce4bgup2rcd13ifvqcn0","pricing_plan_id":"cebpf4jnsgd1na2vs0mg"},{"bike_id":"50c03ce7-6089-4ca2-9f23-f4c8c568a597","system_id":"levelo_inurba_marseille","lat":43.337722,"lon":5.37429,"is_reserved":false,"is_disabled":false,"rental_uris":{"android":"levelo://app?vid=50c03ce7-6089-4ca2-9f23-f4c8c568a597","ios":"levelo://app?vid=50c03ce7-6089-4ca2-9f23-f4c8c568a597"},"vehicle_type_id":"4","last_reported":1758751740,"current_range_meters":14400,"station_id":"","pricing_plan_id":"cebpf4jnsgd1na2vs0mg"},{"bike_id":"e4ea70ff-e6f8-4d87-afa2-75015ab3fd96","system_id":"levelo_inurba_marseille","lat":43.25867,"lon":5.39904,"is_reserved":false,"is_disabled":false,"rental_uris":{"android":"levelo://app?vid=e4ea70ff-e6f8-4d87-afa2-75015ab3fd96","ios":"levelo://app?vid=e4ea70ff-e6f8-4d87-afa2-75015ab3fd96"},"vehicle_type_id":"4","last_reported":1758751740,"current_range_meters":14400,"station_id":"ce4bhl92rcd13ifvqghg","pricing_plan_id":"cebpf4jnsgd1na2vs0mg"},{"bike_id":"c7f6a08b-c655-4213-b2ba-7d02e7f382fe","system_id":"levelo_inurba_marseille","lat":43.27988,"lon":5.39483,"is_reserved":false,"is_disabled":false,"rental_uris":{"android":"levelo://app?vid=c7f6a08b-c655-4213-b2ba-7d02e7f382fe","ios":"levelo://app?vid=c7f6a08b-c655-4213-b2ba-7d02e7f382fe"},"vehicle_type_id":"4","last_reported":1758751740,"current_range_meters":14400,"station_id":"","pricing_plan_id":"cebpf4jnsgd1na2vs0mg"},{"bike_id":"ce18a3e7-112a-4844-b7b2-263591bca985","system_id":"levelo_inurba_marseille","lat":43.30928,"lon":5.40136,"is_reserved":false,"is_disabled":false,"rental_uris":{"android":"levelo://app?vid=ce18a3e7-112a-4844-b7b2-263591bca985","ios":"levelo://app?vid=ce18a3e7-112a-4844-b7b2-263591bca985"},"vehicle_type_id":"4","last_reported":1758751740,"current_range_meters":14400,"station_id":"ce4bgvp2rcd13ifvqct0","pricing_plan_id":"cebpf4jnsgd1na2vs0mg"},{"bike_id":"c48b68a7-4bb0-4cce-80c1-342b1070ee71","system_id":"levelo_inurba_marseille","lat":43.29576,"lon":5.39963,"is_reserved":false,"is_disabled":false,"rental_uris":{"android":"levelo://app?vid=c48b68a7-4bb0-4cce-80c1-342b1070ee71","ios":"levelo://app?vid=c48b68a7-4bb0-4cce-80c1-342b1070ee71"},"vehicle_type_id":"4","last_reported":1758751740,"current_range_meters":14400,"station_id":"ce4bh312rcd13ifvqdj0","pricing_plan_id":"cebpf4jnsgd1na2vs0mg"},{"bike_id":"8584eb3e-f7b4-4300-97fe-005a37d8d75b","system_id":"levelo_inurba_marseille","lat":43.36791,"lon":5.3631,"is_reserved":false,"is_disabled":false,"rental_uris":{"android":"levelo://app?vid=8584eb3e-f7b4-4300-97fe-005a37d8d75b","ios":"levelo://app?vid=8584eb3e-f7b4-4300-97fe-005a37d8d75b"},"vehicle_type_id":"4","last_reported":1758751740,"current_range_meters":14400,"station_id":"","pricing_plan_id":"cebpf4jnsgd1na2vs0mg"},{"bike_id":"486abade-dd76-4cb8-828f-1a286c8b56d7","system_id":"levelo_inurba_marseille","lat":43.295772,"lon":5.367429,"is_reserved":false,"is_disabled":false,"rental_uris":{"android":"levelo://app?vid=486abade-dd76-4cb8-828f-1a286c8b56d7","ios":"levelo://app?vid=486abade-dd76-4cb8-828f-1a286c8b56d7"},"vehicle_type_id":"4","last_reported":1758751740,"current_range_meters":14800,"station_id":"","pricing_plan_id":"cebpf4jnsgd1na2vs0mg"},{"bike_id":"3bfe53d1-d3c5-4a31-b5ae-9d72f9621960","system_id":"levelo_inurba_marseille","lat":43.28577,"lon":5.39473,"is_reserved":false,"is_disabled":false,"rental_uris":{"android":"levelo://app?vid=3bfe53d1-d3c5-4a31-b5ae-9d72f9621960","ios":"levelo://app?vid=3bfe53d1-d3c5-4a31-b5ae-9d72f9621960"},"vehicle_type_id":"4","last_reported":1758751740,"current_range_meters":14800,"station_id":"ce4bh292rcd13ifvqdg0","pricing_plan_id":"cebpf4jnsgd1na2vs0mg"},{"bike_id":"129f0e54-19ea-4b15-a53f-311c46e962ce","system_id":"levelo_inurba_marseille","lat":43.31358,"lon":5.38487,"is_reserved":false,"is_disabled":false,"rental_uris":{"android":"levelo://app?vid=129f0e54-19ea-4b15-a53f-311c46e962ce","ios":"levelo://app?vid=129f0e54-19ea-4b15-a53f-311c46e962ce"},"vehicle_type_id":"4","last_reported":1758751740,"current_range_meters":14800,"station_id":"ce4bgt92rcd13ifvqcf0","pricing_plan_id":"cebpf4jnsgd1na2vs0mg"},{"bike_id":"ad9a6248-1b43-4fc5-bfba-44f7d3067aab","system_id":"levelo_inurba_marseille","lat":43.21196,"lon":5.35059,"is_reserved":false,"is_disabled":false,"rental_uris":{"android":"levelo://app?vid=ad9a6248-1b43-4fc5-bfba-44f7d3067aab","ios":"levelo://app?vid=ad9a6248-1b43-4fc5-bfba-44f7d3067aab"},"vehicle_type_id":"4","last_reported":1758751740,"current_range_meters":14800,"station_id":"st_cvj6sg6p6f1abm77japg","pricing_plan_id":"cebpf4jnsgd1na2vs0mg"},{"bike_id":"26ba973f-6cf9-4ade-a9b6-f5fb5387a5e3","system_id":"levelo_inurba_marseille","lat":43.25119,"lon":5.40316,"is_reserved":false,"is_disabled":false,"rental_uris":{"android":"levelo://app?vid=26ba973f-6cf9-4ade-a9b6-f5fb5387a5e3","ios":"levelo://app?vid=26ba973f-6cf9-4ade-a9b6-f5fb5387a5e3"},"vehicle_type_id":"4","last_reported":1758751740,"current_range_meters":14400,"station_id":"ce4bhlh2rcd13ifvqgig","pricing_plan_id":"cebpf4jnsgd1na2vs0mg"},{"bike_id":"2c6d67c0-9e69-415a-82cc-58e3a12cc0de","system_id":"levelo_inurba_marseille","lat":43.306136,"lon":5.393549,"is_reserved":false,"is_disabled":false,"rental_uris":{"android":"levelo://app?vid=2c6d67c0-9e69-415a-82cc-58e3a12cc0de","ios":"levelo://app?vid=2c6d67c0-9e69-415a-82cc-58e3a12cc0de"},"vehicle_type_id":"4","last_reported":1758751740,"current_range_meters":15200,"station_id":"ce4bh0p2rcd13ifvqd80","pricing_plan_id":"cebpf4jnsgd1na2vs0mg"},{"bike_id":"0334c664-c853-4f38-a46f-30751b2874a4","system_id":"levelo_inurba_marseille","lat":43.29027,"lon":5.35917,"is_reserved":false,"is_disabled":true,"rental_uris":{"android":"levelo://app?vid=0334c664-c853-4f38-a46f-30751b2874a4","ios":"levelo://app?vid=0334c664-c853-4f38-a46f-30751b2874a4"},"vehicle_type_id":"4","last_reported":1758751740,"current_range_meters":15200,"station_id":"ce4bha92rcd13ifvqeg0","pricing_plan_id":"cebpf4jnsgd1na2vs0mg"},{"bike_id":"6ce97256-6e29-4ee4-b817-ac92bdd5aea1","system_id":"levelo_inurba_marseille","lat":43.22534,"lon":5.34835,"is_reserved":false,"is_disabled":false,"rental_uris":{"android":"levelo://app?vid=6ce97256-6e29-4ee4-b817-ac92bdd5aea1","ios":"levelo://app?vid=6ce97256-6e29-4ee4-b817-ac92bdd5aea1"},"vehicle_type_id":"4","last_reported":1758751740,"current_range_meters":15200,"station_id":"","pricing_plan_id":"cebpf4jnsgd1na2vs0mg"},{"bike_id":"f5c852b2-548c-4ba5-a23e-58341d1949a6","system_id":"levelo_inurba_marseille","lat":43.21752,"lon":5.34599,"is_reserved":false,"is_disabled":false,"rental_uris":{"android":"levelo://app?vid=f5c852b2-548c-4ba5-a23e-58341d1949a6","ios":"levelo://app?vid=f5c852b2-548c-4ba5-a23e-58341d1949a6"},"vehicle_type_id":"4","last_reported":1758751740,"current_range_meters":15200,"station_id":"st_cvj6r9ubvosntc0bgbag","pricing_plan_id":"cebpf4jnsgd1na2vs0mg"},{"bike_id":"129c8450-4cca-4e9f-b9f6-538b0080ad49","system_id":"levelo_inurba_marseille","lat":43.32552,"lon":5.38908,"is_reserved":false,"is_disabled":false,"rental_uris":{"android":"levelo://app?vid=129c8450-4cca-4e9f-b9f6-538b0080ad49","ios":"levelo://app?vid=129c8450-4cca-4e9f-b9f6-538b0080ad49"},"vehicle_type_id":"4","last_reported":1758751740,"current_range_meters":15200,"station_id":"","pricing_plan_id":"cebpf4jnsgd1na2vs0mg"},{"bike_id":"dfcf43be-07e6-48c0-8f2c-e82165ca59a8","system_id":"levelo_inurba_marseille","lat":43.29023,"lon":5.35918,"is_reserved":false,"is_disabled":false,"rental_uris":{"android":"levelo://app?vid=dfcf43be-07e6-48c0-8f2c-e82165ca59a8","ios":"levelo://app?vid=dfcf43be-07e6-48c0-8f2c-e82165ca59a8"},"vehicle_type_id":"4","last_reported":1758751740,"current_range_meters":15200,"station_id":"ce4bha92rcd13ifvqeg0","pricing_plan_id":"cebpf4jnsgd1na2vs0mg"},{"bike_id":"e5b43297-fe27-4140-bf26-2075a1593595","system_id":"levelo_inurba_marseille","lat":43.27367,"lon":5.36254,"is_reserved":false,"is_disabled":false,"rental_uris":{"android":"levelo://app?vid=e5b43297-fe27-4140-bf26-2075a1593595","ios":"levelo://app?vid=e5b43297-fe27-4140-bf26-2075a1593595"},"vehicle_type_id":"4","last_reported":1758751740,"current_range_meters":15200,"station_id":"ce4bhbh2rcd13ifvqeo0","pricing_plan_id":"cebpf4jnsgd1na2vs0mg"},{"bike_id":"f0c5386a-9938-4d6a-81e8-14ec0c5e2580","system_id":"levelo_inurba_marseille","lat":43.3224,"lon":5.38545,"is_reserved":false,"is_disabled":false,"rental_uris":{"android":"levelo://app?vid=f0c5386a-9938-4d6a-81e8-14ec0c5e2580","ios":"levelo://app?vid=f0c5386a-9938-4d6a-81e8-14ec0c5e2580"},"vehicle_type_id":"4","last_reported":1758751740,"current_range_meters":15200,"station_id":"","pricing_plan_id":"cebpf4jnsgd1na2vs0mg"},{"bike_id":"d8d6f31a-c510-424a-9731-839758fd1c1d","system_id":"levelo_inurba_marseille","lat":43.24671,"lon":5.38892,"is_reserved":false,"is_disabled":false,"rental_uris":{"android":"levelo://app?vid=d8d6f31a-c510-424a-9731-839758fd1c1d","ios":"levelo://app?vid=d8d6f31a-c510-424a-9731-839758fd1c1d"},"vehicle_type_id":"4","last_reported":1758751740,"current_range_meters":16000,"station_id":"ce4bhg12rcd13ifvqf60","pricing_plan_id":"cebpf4jnsgd1na2vs0mg"},{"bike_id":"2bd2a176-8590-4e06-8b8c-a96b49b7b36a","system_id":"levelo_inurba_marseille","lat":43.262237,"lon":5.404538,"is_reserved":false,"is_disabled":false,"rental_uris":{"android":"levelo://app?vid=2bd2a176-8590-4e06-8b8c-a96b49b7b36a","ios":"levelo://app?vid=2bd2a176-8590-4e06-8b8c-a96b49b7b36a"},"vehicle_type_id":"4","last_reported":1758751740,"current_range_meters":16000,"station_id":"","pricing_plan_id":"cebpf4jnsgd1na2vs0mg"},{"bike_id":"54ccf239-cc66-4c0e-b76a-bd48f1ad4081","system_id":"levelo_inurba_marseille","lat":43.28461,"lon":5.35872,"is_reserved":false,"is_disabled":false,"rental_uris":{"android":"levelo://app?vid=54ccf239-cc66-4c0e-b76a-bd48f1ad4081","ios":"levelo://app?vid=54ccf239-cc66-4c0e-b76a-bd48f1ad4081"},"vehicle_type_id":"4","last_reported":1758751740,"current_range_meters":16000,"station_id":"ce4bhah2rcd13ifvqei0","pricing_plan_id":"cebpf4jnsgd1na2vs0mg"},{"bike_id":"a6ad0c6c-868d-42f3-ba54-573e1a175a36","system_id":"levelo_inurba_marseille","lat":43.26277,"lon":5.41304,"is_reserved":false,"is_disabled":false,"rental_uris":{"android":"levelo://app?vid=a6ad0c6c-868d-42f3-ba54-573e1a175a36","ios":"levelo://app?vid=a6ad0c6c-868d-42f3-ba54-573e1a175a36"},"vehicle_type_id":"4","last_reported":1758751740,"current_range_meters":16000,"station_id":"","pricing_plan_id":"cebpf4jnsgd1na2vs0mg"},{"bike_id":"8f68b7ad-c96a-48a8-9f6e-33e7e1084763","system_id":"levelo_inurba_marseille","lat":43.260221,"lon":5.417494,"is_reserved":false,"is_disabled":false,"rental_uris":{"android":"levelo://app?vid=8f68b7ad-c96a-48a8-9f6e-33e7e1084763","ios":"levelo://app?vid=8f68b7ad-c96a-48a8-9f6e-33e7e1084763"},"vehicle_type_id":"4","last_reported":1758751740,"current_range_meters":16000,"station_id":"","pricing_plan_id":"cebpf4jnsgd1na2vs0mg"},{"bike_id":"67f7d9d6-622e-481d-a11b-40ae8c5487e4","system_id":"levelo_inurba_marseille","lat":43.28698,"lon":5.39995,"is_reserved":false,"is_disabled":false,"rental_uris":{"android":"levelo://app?vid=67f7d9d6-622e-481d-a11b-40ae8c5487e4","ios":"levelo://app?vid=67f7d9d6-622e-481d-a11b-40ae8c5487e4"},"vehicle_type_id":"4","last_reported":1758751740,"current_range_meters":16000,"station_id":"ce4bho92rcd13ifvqh3g","pricing_plan_id":"cebpf4jnsgd1na2vs0mg"},{"bike_id":"9eb727ae-2cb0-4f4d-86c8-3b9778c4fef7","system_id":"levelo_inurba_marseille","lat":43.26551,"lon":5.37266,"is_reserved":false,"is_disabled":false,"rental_uris":{"android":"levelo://app?vid=9eb727ae-2cb0-4f4d-86c8-3b9778c4fef7","ios":"levelo://app?vid=9eb727ae-2cb0-4f4d-86c8-3b9778c4fef7"},"vehicle_type_id":"4","last_reported":1758751740,"current_range_meters":16000,"station_id":"ce4bhg12rcd13ifvqf70","pricing_plan_id":"cebpf4jnsgd1na2vs0mg"},{"bike_id":"a3383983-1a81-4f66-8f19-2363b98e3729","system_id":"levelo_inurba_marseille","lat":43.26562,"lon":5.38999,"is_reserved":false,"is_disabled":true,"rental_uris":{"android":"levelo://app?vid=a3383983-1a81-4f66-8f19-2363b98e3729","ios":"levelo://app?vid=a3383983-1a81-4f66-8f19-2363b98e3729"},"vehicle_type_id":"4","last_reported":1758751740,"current_range_meters":16000,"station_id":"ce4bhe12rcd13ifvqf30","pricing_plan_id":"cebpf4jnsgd1na2vs0mg"},{"bike_id":"af60c407-5d0d-4124-90bc-f5c672eb5129","system_id":"levelo_inurba_marseille","lat":43.31694,"lon":5.40477,"is_reserved":false,"is_disabled":true,"rental_uris":{"android":"levelo://app?vid=af60c407-5d0d-4124-90bc-f5c672eb5129","ios":"levelo://app?vid=af60c407-5d0d-4124-90bc-f5c672eb5129"},"vehicle_type_id":"4","last_reported":1758751740,"current_range_meters":16400,"station_id":"ce4bh012rcd13ifvqd00","pricing_plan_id":"cebpf4jnsgd1na2vs0mg"},{"bike_id":"003515e8-8117-44bb-979d-5f47e8d50fda","system_id":"levelo_inurba_marseille","lat":43.30643,"lon":5.37562,"is_reserved":false,"is_disabled":false,"rental_uris":{"android":"levelo://app?vid=003515e8-8117-44bb-979d-5f47e8d50fda","ios":"levelo://app?vid=003515e8-8117-44bb-979d-5f47e8d50fda"},"vehicle_type_id":"4","last_reported":1758751740,"current_range_meters":16400,"station_id":"","pricing_plan_id":"cebpf4jnsgd1na2vs0mg"},{"bike_id":"ea8d0177-eedf-42b9-895a-a8a8b2bbc1f2","system_id":"levelo_inurba_marseille","lat":43.32108,"lon":5.36774,"is_reserved":false,"is_disabled":false,"rental_uris":{"android":"levelo://app?vid=ea8d0177-eedf-42b9-895a-a8a8b2bbc1f2","ios":"levelo://app?vid=ea8d0177-eedf-42b9-895a-a8a8b2bbc1f2"},"vehicle_type_id":"4","last_reported":1758751740,"current_range_meters":16400,"station_id":"ce4bhrh2rcd13ifvqhug","pricing_plan_id":"cebpf4jnsgd1na2vs0mg"},{"bike_id":"429b97eb-f7cc-4d35-b219-e8e26e3f47e0","system_id":"levelo_inurba_marseille","lat":43.27378,"lon":5.36241,"is_reserved":false,"is_disabled":false,"rental_uris":{"android":"levelo://app?vid=429b97eb-f7cc-4d35-b219-e8e26e3f47e0","ios":"levelo://app?vid=429b97eb-f7cc-4d35-b219-e8e26e3f47e0"},"vehicle_type_id":"4","last_reported":1758751740,"current_range_meters":16400,"station_id":"ce4bhbh2rcd13ifvqeo0","pricing_plan_id":"cebpf4jnsgd1na2vs0mg"},{"bike_id":"e9740af2-24d7-435f-a517-026daef1c6d1","system_id":"levelo_inurba_marseille","lat":43.27996,"lon":5.41654,"is_reserved":false,"is_disabled":false,"rental_uris":{"android":"levelo://app?vid=e9740af2-24d7-435f-a517-026daef1c6d1","ios":"levelo://app?vid=e9740af2-24d7-435f-a517-026daef1c6d1"},"vehicle_type_id":"4","last_reported":1758751740,"current_range_meters":16400,"station_id":"ce4bho12rcd13ifvqh1g","pricing_plan_id":"cebpf4jnsgd1na2vs0mg"},{"bike_id":"7490d0f9-a3b1-4e32-8e4b-05d367f07d8a","system_id":"levelo_inurba_marseille","lat":43.30133,"lon":5.39889,"is_reserved":false,"is_disabled":true,"rental_uris":{"android":"levelo://app?vid=7490d0f9-a3b1-4e32-8e4b-05d367f07d8a","ios":"levelo://app?vid=7490d0f9-a3b1-4e32-8e4b-05d367f07d8a"},"vehicle_type_id":"4","last_reported":1758751740,"current_range_meters":16400,"station_id":"ce4bh0h2rcd13ifvqd40","pricing_plan_id":"cebpf4jnsgd1na2vs0mg"},{"bike_id":"7f26efef-5bca-4964-9649-a135cb9baf4f","system_id":"levelo_inurba_marseille","lat":43.25112,"lon":5.39506,"is_reserved":false,"is_disabled":false,"rental_uris":{"android":"levelo://app?vid=7f26efef-5bca-4964-9649-a135cb9baf4f","ios":"levelo://app?vid=7f26efef-5bca-4964-9649-a135cb9baf4f"},"vehicle_type_id":"4","last_reported":1758751740,"current_range_meters":16400,"station_id":"ce4bhm12rcd13ifvqgkg","pricing_plan_id":"cebpf4jnsgd1na2vs0mg"},{"bike_id":"d2be082e-bd73-4203-addb-18871b3a9587","system_id":"levelo_inurba_marseille","lat":43.2943,"lon":5.3748,"is_reserved":false,"is_disabled":false,"rental_uris":{"android":"levelo://app?vid=d2be082e-bd73-4203-addb-18871b3a9587","ios":"levelo://app?vid=d2be082e-bd73-4203-addb-18871b3a9587"},"vehicle_type_id":"4","last_reported":1758751740,"current_range_meters":16400,"station_id":"","pricing_plan_id":"cebpf4jnsgd1na2vs0mg"},{"bike_id":"6caa89c6-2658-4ac8-8d83-c6001f5f980c","system_id":"levelo_inurba_marseille","lat":43.25581,"lon":5.38224,"is_reserved":false,"is_disabled":false,"rental_uris":{"android":"levelo://app?vid=6caa89c6-2658-4ac8-8d83-c6001f5f980c","ios":"levelo://app?vid=6caa89c6-2658-4ac8-8d83-c6001f5f980c"},"vehicle_type_id":"4","last_reported":1758751740,"current_range_meters":16400,"station_id":"ce4bhih2rcd13ifvqfs0","pricing_plan_id":"cebpf4jnsgd1na2vs0mg"},{"bike_id":"d6d2b751-767f-4d34-8b88-ebc97e2bbad2","system_id":"levelo_inurba_marseille","lat":43.28869,"lon":5.35844,"is_reserved":false,"is_disabled":false,"rental_uris":{"android":"levelo://app?vid=d6d2b751-767f-4d34-8b88-ebc97e2bbad2","ios":"levelo://app?vid=d6d2b751-767f-4d34-8b88-ebc97e2bbad2"},"vehicle_type_id":"4","last_reported":1758751740,"current_range_meters":16400,"station_id":"ce4bhb12rcd13ifvqem0","pricing_plan_id":"cebpf4jnsgd1na2vs0mg"},{"bike_id":"992fa7c9-ab54-4088-9be4-5184d9429a78","system_id":"levelo_inurba_marseille","lat":43.29631,"lon":5.40598,"is_reserved":false,"is_disabled":false,"rental_uris":{"android":"levelo://app?vid=992fa7c9-ab54-4088-9be4-5184d9429a78","ios":"levelo://app?vid=992fa7c9-ab54-4088-9be4-5184d9429a78"},"vehicle_type_id":"4","last_reported":1758751740,"current_range_meters":16400,"station_id":"ce4bh0h2rcd13ifvqd60","pricing_plan_id":"cebpf4jnsgd1na2vs0mg"},{"bike_id":"29237101-5788-433a-a817-fd7db1732b5b","system_id":"levelo_inurba_marseille","lat":43.28378,"lon":5.37493,"is_reserved":false,"is_disabled":false,"rental_uris":{"android":"levelo://app?vid=29237101-5788-433a-a817-fd7db1732b5b","ios":"levelo://app?vid=29237101-5788-433a-a817-fd7db1732b5b"},"vehicle_type_id":"4","last_reported":1758751740,"current_range_meters":16400,"station_id":"ce4bh412rcd13ifvqds0","pricing_plan_id":"cebpf4jnsgd1na2vs0mg"},{"bike_id":"63b3daeb-cf1c-4aa8-97b1-d5b690f0ac49","system_id":"levelo_inurba_marseille","lat":43.28114,"lon":5.43216,"is_reserved":false,"is_disabled":false,"rental_uris":{"android":"levelo://app?vid=63b3daeb-cf1c-4aa8-97b1-d5b690f0ac49","ios":"levelo://app?vid=63b3daeb-cf1c-4aa8-97b1-d5b690f0ac49"},"vehicle_type_id":"4","last_reported":1758751740,"current_range_meters":16400,"station_id":"","pricing_plan_id":"cebpf4jnsgd1na2vs0mg"},{"bike_id":"46923300-e0d3-40c1-8c76-7dadc761100f","system_id":"levelo_inurba_marseille","lat":43.29014,"lon":5.35605,"is_reserved":false,"is_disabled":false,"rental_uris":{"android":"levelo://app?vid=46923300-e0d3-40c1-8c76-7dadc761100f","ios":"levelo://app?vid=46923300-e0d3-40c1-8c76-7dadc761100f"},"vehicle_type_id":"4","last_reported":1758751740,"current_range_meters":16400,"station_id":"ce4bhb92rcd13ifvqen0","pricing_plan_id":"cebpf4jnsgd1na2vs0mg"},{"bike_id":"d3207f81-01a1-429a-832a-552720f64cb8","system_id":"levelo_inurba_marseille","lat":43.25143,"lon":5.4031,"is_reserved":false,"is_disabled":false,"rental_uris":{"android":"levelo://app?vid=d3207f81-01a1-429a-832a-552720f64cb8","ios":"levelo://app?vid=d3207f81-01a1-429a-832a-552720f64cb8"},"vehicle_type_id":"4","last_reported":1758751740,"current_range_meters":16400,"station_id":"ce4bhlh2rcd13ifvqgig","pricing_plan_id":"cebpf4jnsgd1na2vs0mg"},{"bike_id":"212de2eb-8bbc-413c-b204-9fe1facd76e8","system_id":"levelo_inurba_marseille","lat":43.31765,"lon":5.37567,"is_reserved":false,"is_disabled":false,"rental_uris":{"android":"levelo://app?vid=212de2eb-8bbc-413c-b204-9fe1facd76e8","ios":"levelo://app?vid=212de2eb-8bbc-413c-b204-9fe1facd76e8"},"vehicle_type_id":"4","last_reported":1758751740,"current_range_meters":16400,"station_id":"","pricing_plan_id":"cebpf4jnsgd1na2vs0mg"},{"bike_id":"773120ee-4b20-40c4-a0a2-2f51bab15783","system_id":"levelo_inurba_marseille","lat":43.306,"lon":5.3722,"is_reserved":false,"is_disabled":false,"rental_uris":{"android":"levelo://app?vid=773120ee-4b20-40c4-a0a2-2f51bab15783","ios":"levelo://app?vid=773120ee-4b20-40c4-a0a2-2f51bab15783"},"vehicle_type_id":"4","last_reported":1758751740,"current_range_meters":16800,"station_id":"ce4bgqh2rcd13ifvqc4g","pricing_plan_id":"cebpf4jnsgd1na2vs0mg"},{"bike_id":"0c16ac8a-a536-4d89-a0b4-2803631fd83e","system_id":"levelo_inurba_marseille","lat":43.25002,"lon":5.38931,"is_reserved":false,"is_disabled":false,"rental_uris":{"android":"levelo://app?vid=0c16ac8a-a536-4d89-a0b4-2803631fd83e","ios":"levelo://app?vid=0c16ac8a-a536-4d89-a0b4-2803631fd83e"},"vehicle_type_id":"4","last_reported":1758751740,"current_range_meters":16800,"station_id":"ce4bhgp2rcd13ifvqfd0","pricing_plan_id":"cebpf4jnsgd1na2vs0mg"},{"bike_id":"1ac1636f-9c6f-485c-826f-3384bffce9ca","system_id":"levelo_inurba_marseille","lat":43.30646,"lon":5.40079,"is_reserved":false,"is_disabled":false,"rental_uris":{"android":"levelo://app?vid=1ac1636f-9c6f-485c-826f-3384bffce9ca","ios":"levelo://app?vid=1ac1636f-9c6f-485c-826f-3384bffce9ca"},"vehicle_type_id":"4","last_reported":1758751740,"current_range_meters":16800,"station_id":"ce4bh112rcd13ifvqda0","pricing_plan_id":"cebpf4jnsgd1na2vs0mg"},{"bike_id":"5b4db061-9d56-47f7-91cb-6fac30c33de1","system_id":"levelo_inurba_marseille","lat":43.31328,"lon":5.39692,"is_reserved":false,"is_disabled":false,"rental_uris":{"android":"levelo://app?vid=5b4db061-9d56-47f7-91cb-6fac30c33de1","ios":"levelo://app?vid=5b4db061-9d56-47f7-91cb-6fac30c33de1"},"vehicle_type_id":"4","last_reported":1758751740,"current_range_meters":16800,"station_id":"ce4bgvp2rcd13ifvqcu0","pricing_plan_id":"cebpf4jnsgd1na2vs0mg"},{"bike_id":"7ab01b52-acb1-4c63-963d-8157eea5300e","system_id":"levelo_inurba_marseille","lat":43.30651,"lon":5.40084,"is_reserved":false,"is_disabled":false,"rental_uris":{"android":"levelo://app?vid=7ab01b52-acb1-4c63-963d-8157eea5300e","ios":"levelo://app?vid=7ab01b52-acb1-4c63-963d-8157eea5300e"},"vehicle_type_id":"4","last_reported":1758751740,"current_range_meters":16800,"station_id":"ce4bh112rcd13ifvqda0","pricing_plan_id":"cebpf4jnsgd1na2vs0mg"},{"bike_id":"2ac23a64-1b3f-47a9-9b15-e124400b880c","system_id":"levelo_inurba_marseille","lat":43.291988,"lon":5.391641,"is_reserved":false,"is_disabled":false,"rental_uris":{"android":"levelo://app?vid=2ac23a64-1b3f-47a9-9b15-e124400b880c","ios":"levelo://app?vid=2ac23a64-1b3f-47a9-9b15-e124400b880c"},"vehicle_type_id":"4","last_reported":1758751740,"current_range_meters":17200,"station_id":"","pricing_plan_id":"cebpf4jnsgd1na2vs0mg"},{"bike_id":"327c041e-5c9e-4b0d-a97c-a2dbaab036ae","system_id":"levelo_inurba_marseille","lat":43.32784,"lon":5.41038,"is_reserved":false,"is_disabled":false,"rental_uris":{"android":"levelo://app?vid=327c041e-5c9e-4b0d-a97c-a2dbaab036ae","ios":"levelo://app?vid=327c041e-5c9e-4b0d-a97c-a2dbaab036ae"},"vehicle_type_id":"4","last_reported":1758751740,"current_range_meters":17200,"station_id":"","pricing_plan_id":"cebpf4jnsgd1na2vs0mg"},{"bike_id":"4f3eac28-3960-42b2-9a7f-65e76c3daab8","system_id":"levelo_inurba_marseille","lat":43.24662,"lon":5.38888,"is_reserved":false,"is_disabled":false,"rental_uris":{"android":"levelo://app?vid=4f3eac28-3960-42b2-9a7f-65e76c3daab8","ios":"levelo://app?vid=4f3eac28-3960-42b2-9a7f-65e76c3daab8"},"vehicle_type_id":"4","last_reported":1758751740,"current_range_meters":17200,"station_id":"ce4bhg12rcd13ifvqf60","pricing_plan_id":"cebpf4jnsgd1na2vs0mg"},{"bike_id":"d55f7cff-ce18-4107-992e-8cb8fb12b05f","system_id":"levelo_inurba_marseille","lat":43.2323,"lon":5.35577,"is_reserved":false,"is_disabled":false,"rental_uris":{"android":"levelo://app?vid=d55f7cff-ce18-4107-992e-8cb8fb12b05f","ios":"levelo://app?vid=d55f7cff-ce18-4107-992e-8cb8fb12b05f"},"vehicle_type_id":"4","last_reported":1758751740,"current_range_meters":17200,"station_id":"ce4bhu92rcd13ifvqi70","pricing_plan_id":"cebpf4jnsgd1na2vs0mg"},{"bike_id":"50e50ce9-ae57-4870-80a4-dbb918849641","system_id":"levelo_inurba_marseille","lat":43.280302,"lon":5.369429,"is_reserved":false,"is_disabled":false,"rental_uris":{"android":"levelo://app?vid=50e50ce9-ae57-4870-80a4-dbb918849641","ios":"levelo://app?vid=50e50ce9-ae57-4870-80a4-dbb918849641"},"vehicle_type_id":"4","last_reported":1758751740,"current_range_meters":17200,"station_id":"ce4bha12rcd13ifvqef0","pricing_plan_id":"cebpf4jnsgd1na2vs0mg"},{"bike_id":"725b1ff1-3894-44f1-a38e-91bc39cbab7e","system_id":"levelo_inurba_marseille","lat":43.24667,"lon":5.43137,"is_reserved":false,"is_disabled":false,"rental_uris":{"android":"levelo://app?vid=725b1ff1-3894-44f1-a38e-91bc39cbab7e","ios":"levelo://app?vid=725b1ff1-3894-44f1-a38e-91bc39cbab7e"},"vehicle_type_id":"4","last_reported":1758751740,"current_range_meters":17200,"station_id":"st_d2m6c4gdas8pm72e190g","pricing_plan_id":"cebpf4jnsgd1na2vs0mg"},{"bike_id":"7291f26c-4df3-4b94-863a-36ab55dd7149","system_id":"levelo_inurba_marseille","lat":43.2998,"lon":5.37561,"is_reserved":false,"is_disabled":false,"rental_uris":{"android":"levelo://app?vid=7291f26c-4df3-4b94-863a-36ab55dd7149","ios":"levelo://app?vid=7291f26c-4df3-4b94-863a-36ab55dd7149"},"vehicle_type_id":"4","last_reported":1758751740,"current_range_meters":17200,"station_id":"","pricing_plan_id":"cebpf4jnsgd1na2vs0mg"},{"bike_id":"f9e3643a-9b46-4b1f-bceb-23d120b6b28c","system_id":"levelo_inurba_marseille","lat":43.28611,"lon":5.37062,"is_reserved":false,"is_disabled":false,"rental_uris":{"android":"levelo://app?vid=f9e3643a-9b46-4b1f-bceb-23d120b6b28c","ios":"levelo://app?vid=f9e3643a-9b46-4b1f-bceb-23d120b6b28c"},"vehicle_type_id":"4","last_reported":1758751740,"current_range_meters":17200,"station_id":"ce4bht12rcd13ifvqi60","pricing_plan_id":"cebpf4jnsgd1na2vs0mg"},{"bike_id":"d31d856a-933d-49cf-948f-ce03657dfc74","system_id":"levelo_inurba_marseille","lat":43.28437,"lon":5.34991,"is_reserved":false,"is_disabled":false,"rental_uris":{"android":"levelo://app?vid=d31d856a-933d-49cf-948f-ce03657dfc74","ios":"levelo://app?vid=d31d856a-933d-49cf-948f-ce03657dfc74"},"vehicle_type_id":"4","last_reported":1758751740,"current_range_meters":17200,"station_id":"ce4bhbh2rcd13ifvqepg","pricing_plan_id":"cebpf4jnsgd1na2vs0mg"},{"bike_id":"fd4b0929-5dae-4f92-bfeb-801c6778a0f5","system_id":"levelo_inurba_marseille","lat":43.26558,"lon":5.37281,"is_reserved":false,"is_disabled":true,"rental_uris":{"android":"levelo://app?vid=fd4b0929-5dae-4f92-bfeb-801c6778a0f5","ios":"levelo://app?vid=fd4b0929-5dae-4f92-bfeb-801c6778a0f5"},"vehicle_type_id":"4","last_reported":1758751740,"current_range_meters":17200,"station_id":"ce4bhg12rcd13ifvqf70","pricing_plan_id":"cebpf4jnsgd1na2vs0mg"},{"bike_id":"e5303607-da03-4ac7-b81e-b332ede84cf7","system_id":"levelo_inurba_marseille","lat":43.3115,"lon":5.37862,"is_reserved":false,"is_disabled":false,"rental_uris":{"android":"levelo://app?vid=e5303607-da03-4ac7-b81e-b332ede84cf7","ios":"levelo://app?vid=e5303607-da03-4ac7-b81e-b332ede84cf7"},"vehicle_type_id":"4","last_reported":1758751740,"current_range_meters":17200,"station_id":"","pricing_plan_id":"cebpf4jnsgd1na2vs0mg"},{"bike_id":"3cff57a9-0297-4c38-90c2-c8e480a601b4","system_id":"levelo_inurba_marseille","lat":43.30935,"lon":5.4013,"is_reserved":false,"is_disabled":false,"rental_uris":{"android":"levelo://app?vid=3cff57a9-0297-4c38-90c2-c8e480a601b4","ios":"levelo://app?vid=3cff57a9-0297-4c38-90c2-c8e480a601b4"},"vehicle_type_id":"4","last_reported":1758751740,"current_range_meters":17200,"station_id":"ce4bgvp2rcd13ifvqct0","pricing_plan_id":"cebpf4jnsgd1na2vs0mg"},{"bike_id":"1ec3f682-f068-4472-8329-000c712f0903","system_id":"levelo_inurba_marseille","lat":43.31083,"lon":5.42427,"is_reserved":false,"is_disabled":false,"rental_uris":{"android":"levelo://app?vid=1ec3f682-f068-4472-8329-000c712f0903","ios":"levelo://app?vid=1ec3f682-f068-4472-8329-000c712f0903"},"vehicle_type_id":"4","last_reported":1758751740,"current_range_meters":17200,"station_id":"","pricing_plan_id":"cebpf4jnsgd1na2vs0mg"},{"bike_id":"8b72c9f6-1ee4-4091-a60e-781efd2b21c2","system_id":"levelo_inurba_marseille","lat":43.28712,"lon":5.37385,"is_reserved":false,"is_disabled":false,"rental_uris":{"android":"levelo://app?vid=8b72c9f6-1ee4-4091-a60e-781efd2b21c2","ios":"levelo://app?vid=8b72c9f6-1ee4-4091-a60e-781efd2b21c2"},"vehicle_type_id":"4","last_reported":1758751740,"current_range_meters":17600,"station_id":"ce4bh3p2rcd13ifvqdq0","pricing_plan_id":"cebpf4jnsgd1na2vs0mg"},{"bike_id":"f897d300-643c-4c7a-951b-f56d70ef23ca","system_id":"levelo_inurba_marseille","lat":43.30328,"lon":5.39075,"is_reserved":false,"is_disabled":false,"rental_uris":{"android":"levelo://app?vid=f897d300-643c-4c7a-951b-f56d70ef23ca","ios":"levelo://app?vid=f897d300-643c-4c7a-951b-f56d70ef23ca"},"vehicle_type_id":"4","last_reported":1758751740,"current_range_meters":17600,"station_id":"","pricing_plan_id":"cebpf4jnsgd1na2vs0mg"},{"bike_id":"09246469-7d4f-4c3b-834b-82484362627a","system_id":"levelo_inurba_marseille","lat":43.31328,"lon":5.39671,"is_reserved":false,"is_disabled":false,"rental_uris":{"android":"levelo://app?vid=09246469-7d4f-4c3b-834b-82484362627a","ios":"levelo://app?vid=09246469-7d4f-4c3b-834b-82484362627a"},"vehicle_type_id":"4","last_reported":1758751740,"current_range_meters":17600,"station_id":"ce4bgvp2rcd13ifvqcu0","pricing_plan_id":"cebpf4jnsgd1na2vs0mg"},{"bike_id":"f799cfee-8db6-47d0-9211-1dd04a3e1a27","system_id":"levelo_inurba_marseille","lat":43.24159,"lon":5.39693,"is_reserved":false,"is_disabled":true,"rental_uris":{"android":"levelo://app?vid=f799cfee-8db6-47d0-9211-1dd04a3e1a27","ios":"levelo://app?vid=f799cfee-8db6-47d0-9211-1dd04a3e1a27"},"vehicle_type_id":"4","last_reported":1758751740,"current_range_meters":17600,"station_id":"ce4bhn12rcd13ifvqgpg","pricing_plan_id":"cebpf4jnsgd1na2vs0mg"},{"bike_id":"dc7fa399-fb5d-440b-a32d-44e55286b2f4","system_id":"levelo_inurba_marseille","lat":43.30686,"lon":5.40085,"is_reserved":false,"is_disabled":false,"rental_uris":{"android":"levelo://app?vid=dc7fa399-fb5d-440b-a32d-44e55286b2f4","ios":"levelo://app?vid=dc7fa399-fb5d-440b-a32d-44e55286b2f4"},"vehicle_type_id":"4","last_reported":1758751740,"current_range_meters":17600,"station_id":"","pricing_plan_id":"cebpf4jnsgd1na2vs0mg"},{"bike_id":"e6eabc10-ddc2-40ad-80c7-a8d4edb3430d","system_id":"levelo_inurba_marseille","lat":43.30953,"lon":5.3902,"is_reserved":false,"is_disabled":false,"rental_uris":{"android":"levelo://app?vid=e6eabc10-ddc2-40ad-80c7-a8d4edb3430d","ios":"levelo://app?vid=e6eabc10-ddc2-40ad-80c7-a8d4edb3430d"},"vehicle_type_id":"4","last_reported":1758751740,"current_range_meters":17600,"station_id":"ce4bgup2rcd13ifvqco0","pricing_plan_id":"cebpf4jnsgd1na2vs0mg"},{"bike_id":"f3557076-508d-4f04-8eb6-883d65d6828f","system_id":"levelo_inurba_marseille","lat":43.25101,"lon":5.39538,"is_reserved":false,"is_disabled":false,"rental_uris":{"android":"levelo://app?vid=f3557076-508d-4f04-8eb6-883d65d6828f","ios":"levelo://app?vid=f3557076-508d-4f04-8eb6-883d65d6828f"},"vehicle_type_id":"4","last_reported":1758751740,"current_range_meters":17600,"station_id":"ce4bhm12rcd13ifvqgkg","pricing_plan_id":"cebpf4jnsgd1na2vs0mg"},{"bike_id":"64211e92-ecd5-4428-a86b-6e8946c6a668","system_id":"levelo_inurba_marseille","lat":43.24654,"lon":5.38916,"is_reserved":false,"is_disabled":false,"rental_uris":{"android":"levelo://app?vid=64211e92-ecd5-4428-a86b-6e8946c6a668","ios":"levelo://app?vid=64211e92-ecd5-4428-a86b-6e8946c6a668"},"vehicle_type_id":"4","last_reported":1758751740,"current_range_meters":18000,"station_id":"ce4bhg12rcd13ifvqf60","pricing_plan_id":"cebpf4jnsgd1na2vs0mg"},{"bike_id":"6f0878cd-8389-4a4f-ad23-26b3f7b93b2f","system_id":"levelo_inurba_marseille","lat":43.28105,"lon":5.39651,"is_reserved":false,"is_disabled":false,"rental_uris":{"android":"levelo://app?vid=6f0878cd-8389-4a4f-ad23-26b3f7b93b2f","ios":"levelo://app?vid=6f0878cd-8389-4a4f-ad23-26b3f7b93b2f"},"vehicle_type_id":"4","last_reported":1758751740,"current_range_meters":18000,"station_id":"ce4bho12rcd13ifvqh2g","pricing_plan_id":"cebpf4jnsgd1na2vs0mg"},{"bike_id":"b2d79962-718a-4573-905e-bab87fdfebc3","system_id":"levelo_inurba_marseille","lat":43.28659,"lon":5.36358,"is_reserved":false,"is_disabled":false,"rental_uris":{"android":"levelo://app?vid=b2d79962-718a-4573-905e-bab87fdfebc3","ios":"levelo://app?vid=b2d79962-718a-4573-905e-bab87fdfebc3"},"vehicle_type_id":"4","last_reported":1758751740,"current_range_meters":18000,"station_id":"ce4bhah2rcd13ifvqej0","pricing_plan_id":"cebpf4jnsgd1na2vs0mg"},{"bike_id":"3f965e1f-3be8-47a5-a19e-90317496f7d8","system_id":"levelo_inurba_marseille","lat":43.27175,"lon":5.40989,"is_reserved":false,"is_disabled":false,"rental_uris":{"android":"levelo://app?vid=3f965e1f-3be8-47a5-a19e-90317496f7d8","ios":"levelo://app?vid=3f965e1f-3be8-47a5-a19e-90317496f7d8"},"vehicle_type_id":"4","last_reported":1758751740,"current_range_meters":18000,"station_id":"ce4bhl12rcd13ifvqgf0","pricing_plan_id":"cebpf4jnsgd1na2vs0mg"},{"bike_id":"77c1a294-f1c8-4ee4-8b89-6024e504a421","system_id":"levelo_inurba_marseille","lat":43.30265,"lon":5.4008,"is_reserved":false,"is_disabled":false,"rental_uris":{"android":"levelo://app?vid=77c1a294-f1c8-4ee4-8b89-6024e504a421","ios":"levelo://app?vid=77c1a294-f1c8-4ee4-8b89-6024e504a421"},"vehicle_type_id":"4","last_reported":1758751740,"current_range_meters":18000,"station_id":"ce4bgvh2rcd13ifvqcs0","pricing_plan_id":"cebpf4jnsgd1na2vs0mg"},{"bike_id":"041cd397-24ab-4e04-af23-07b961e161f4","system_id":"levelo_inurba_marseille","lat":43.337444,"lon":5.374475,"is_reserved":false,"is_disabled":false,"rental_uris":{"android":"levelo://app?vid=041cd397-24ab-4e04-af23-07b961e161f4","ios":"levelo://app?vid=041cd397-24ab-4e04-af23-07b961e161f4"},"vehicle_type_id":"4","last_reported":1758751740,"current_range_meters":18000,"station_id":"","pricing_plan_id":"cebpf4jnsgd1na2vs0mg"},{"bike_id":"b6ff3672-4e7c-404c-ab2a-bd902cf95e14","system_id":"levelo_inurba_marseille","lat":43.2685,"lon":5.40686,"is_reserved":false,"is_disabled":false,"rental_uris":{"android":"levelo://app?vid=b6ff3672-4e7c-404c-ab2a-bd902cf95e14","ios":"levelo://app?vid=b6ff3672-4e7c-404c-ab2a-bd902cf95e14"},"vehicle_type_id":"4","last_reported":1758751740,"current_range_meters":18000,"station_id":"","pricing_plan_id":"cebpf4jnsgd1na2vs0mg"},{"bike_id":"4381822b-e4a8-41c2-a189-9d550bf65381","system_id":"levelo_inurba_marseille","lat":43.23166,"lon":5.40008,"is_reserved":false,"is_disabled":false,"rental_uris":{"android":"levelo://app?vid=4381822b-e4a8-41c2-a189-9d550bf65381","ios":"levelo://app?vid=4381822b-e4a8-41c2-a189-9d550bf65381"},"vehicle_type_id":"4","last_reported":1758751740,"current_range_meters":18000,"station_id":"ce4bhn12rcd13ifvqgqg","pricing_plan_id":"cebpf4jnsgd1na2vs0mg"},{"bike_id":"459199d4-a1d0-404f-b542-8737a00444e2","system_id":"levelo_inurba_marseille","lat":43.29572,"lon":5.39943,"is_reserved":false,"is_disabled":false,"rental_uris":{"android":"levelo://app?vid=459199d4-a1d0-404f-b542-8737a00444e2","ios":"levelo://app?vid=459199d4-a1d0-404f-b542-8737a00444e2"},"vehicle_type_id":"4","last_reported":1758751740,"current_range_meters":18000,"station_id":"ce4bh312rcd13ifvqdj0","pricing_plan_id":"cebpf4jnsgd1na2vs0mg"},{"bike_id":"9c9a1c32-4b4c-4d6b-91ea-1cfac7fe296a","system_id":"levelo_inurba_marseille","lat":43.28155,"lon":5.42646,"is_reserved":false,"is_disabled":false,"rental_uris":{"android":"levelo://app?vid=9c9a1c32-4b4c-4d6b-91ea-1cfac7fe296a","ios":"levelo://app?vid=9c9a1c32-4b4c-4d6b-91ea-1cfac7fe296a"},"vehicle_type_id":"4","last_reported":1758751740,"current_range_meters":18000,"station_id":"ce4bhnh2rcd13ifvqgug","pricing_plan_id":"cebpf4jnsgd1na2vs0mg"},{"bike_id":"e272de5d-c37b-4836-8081-748ba206ef88","system_id":"levelo_inurba_marseille","lat":43.28027,"lon":5.41675,"is_reserved":false,"is_disabled":false,"rental_uris":{"android":"levelo://app?vid=e272de5d-c37b-4836-8081-748ba206ef88","ios":"levelo://app?vid=e272de5d-c37b-4836-8081-748ba206ef88"},"vehicle_type_id":"4","last_reported":1758751740,"current_range_meters":18800,"station_id":"ce4bho12rcd13ifvqh1g","pricing_plan_id":"cebpf4jnsgd1na2vs0mg"},{"bike_id":"8a814355-0928-4ff3-a45b-7143d8f6343c","system_id":"levelo_inurba_marseille","lat":43.27908,"lon":5.39593,"is_reserved":false,"is_disabled":false,"rental_uris":{"android":"levelo://app?vid=8a814355-0928-4ff3-a45b-7143d8f6343c","ios":"levelo://app?vid=8a814355-0928-4ff3-a45b-7143d8f6343c"},"vehicle_type_id":"4","last_reported":1758751740,"current_range_meters":18800,"station_id":"ce4bhf92rcd13ifvqf40","pricing_plan_id":"cebpf4jnsgd1na2vs0mg"},{"bike_id":"cf64f5a1-85bb-4012-acd5-309d066b1fe7","system_id":"levelo_inurba_marseille","lat":43.24183,"lon":5.39697,"is_reserved":false,"is_disabled":true,"rental_uris":{"android":"levelo://app?vid=cf64f5a1-85bb-4012-acd5-309d066b1fe7","ios":"levelo://app?vid=cf64f5a1-85bb-4012-acd5-309d066b1fe7"},"vehicle_type_id":"4","last_reported":1758751740,"current_range_meters":18800,"station_id":"ce4bhn12rcd13ifvqgpg","pricing_plan_id":"cebpf4jnsgd1na2vs0mg"},{"bike_id":"dec5e3d0-16cf-4f61-8905-2078866bf757","system_id":"levelo_inurba_marseille","lat":43.250847,"lon":5.395342,"is_reserved":false,"is_disabled":false,"rental_uris":{"android":"levelo://app?vid=dec5e3d0-16cf-4f61-8905-2078866bf757","ios":"levelo://app?vid=dec5e3d0-16cf-4f61-8905-2078866bf757"},"vehicle_type_id":"4","last_reported":1758751740,"current_range_meters":18800,"station_id":"ce4bhm12rcd13ifvqgkg","pricing_plan_id":"cebpf4jnsgd1na2vs0mg"},{"bike_id":"70318c82-7ace-4d55-991f-f6d93948f025","system_id":"levelo_inurba_marseille","lat":43.28727,"lon":5.36083,"is_reserved":false,"is_disabled":false,"rental_uris":{"android":"levelo://app?vid=70318c82-7ace-4d55-991f-f6d93948f025","ios":"levelo://app?vid=70318c82-7ace-4d55-991f-f6d93948f025"},"vehicle_type_id":"4","last_reported":1758751740,"current_range_meters":18800,"station_id":"cki0cbj6b192h4jlfktg","pricing_plan_id":"cebpf4jnsgd1na2vs0mg"},{"bike_id":"bdff1536-f36c-4917-9aef-b9364dd074f4","system_id":"levelo_inurba_marseille","lat":43.258675,"lon":5.398907,"is_reserved":false,"is_disabled":false,"rental_uris":{"android":"levelo://app?vid=bdff1536-f36c-4917-9aef-b9364dd074f4","ios":"levelo://app?vid=bdff1536-f36c-4917-9aef-b9364dd074f4"},"vehicle_type_id":"4","last_reported":1758751740,"current_range_meters":19200,"station_id":"","pricing_plan_id":"cebpf4jnsgd1na2vs0mg"},{"bike_id":"8e4d93ed-d24c-438d-94c2-4e040142fb9b","system_id":"levelo_inurba_marseille","lat":43.24073,"lon":5.37753,"is_reserved":false,"is_disabled":false,"rental_uris":{"android":"levelo://app?vid=8e4d93ed-d24c-438d-94c2-4e040142fb9b","ios":"levelo://app?vid=8e4d93ed-d24c-438d-94c2-4e040142fb9b"},"vehicle_type_id":"4","last_reported":1758751740,"current_range_meters":19200,"station_id":"ce4bhnp2rcd13ifvqgvg","pricing_plan_id":"cebpf4jnsgd1na2vs0mg"},{"bike_id":"fb0ff235-24d6-4191-ac4a-0a0458f72144","system_id":"levelo_inurba_marseille","lat":43.28722,"lon":5.36078,"is_reserved":false,"is_disabled":false,"rental_uris":{"android":"levelo://app?vid=fb0ff235-24d6-4191-ac4a-0a0458f72144","ios":"levelo://app?vid=fb0ff235-24d6-4191-ac4a-0a0458f72144"},"vehicle_type_id":"4","last_reported":1758751740,"current_range_meters":19200,"station_id":"cki0cbj6b192h4jlfktg","pricing_plan_id":"cebpf4jnsgd1na2vs0mg"},{"bike_id":"a00b258b-edcd-4c76-89d0-c26cce99668a","system_id":"levelo_inurba_marseille","lat":43.28848,"lon":5.3586,"is_reserved":false,"is_disabled":false,"rental_uris":{"android":"levelo://app?vid=a00b258b-edcd-4c76-89d0-c26cce99668a","ios":"levelo://app?vid=a00b258b-edcd-4c76-89d0-c26cce99668a"},"vehicle_type_id":"4","last_reported":1758751740,"current_range_meters":19200,"station_id":"ce4bhb12rcd13ifvqem0","pricing_plan_id":"cebpf4jnsgd1na2vs0mg"},{"bike_id":"798e130f-3fa3-4c7f-9d50-1593ee52bcc6","system_id":"levelo_inurba_marseille","lat":43.25336,"lon":5.42166,"is_reserved":false,"is_disabled":false,"rental_uris":{"android":"levelo://app?vid=798e130f-3fa3-4c7f-9d50-1593ee52bcc6","ios":"levelo://app?vid=798e130f-3fa3-4c7f-9d50-1593ee52bcc6"},"vehicle_type_id":"4","last_reported":1758751740,"current_range_meters":19200,"station_id":"st_d2m65c5bi1j21697t3ng","pricing_plan_id":"cebpf4jnsgd1na2vs0mg"},{"bike_id":"0e7b2911-bdcb-4428-81e8-895837a179e9","system_id":"levelo_inurba_marseille","lat":43.24961,"lon":5.40492,"is_reserved":false,"is_disabled":false,"rental_uris":{"android":"levelo://app?vid=0e7b2911-bdcb-4428-81e8-895837a179e9","ios":"levelo://app?vid=0e7b2911-bdcb-4428-81e8-895837a179e9"},"vehicle_type_id":"4","last_reported":1758751740,"current_range_meters":19200,"station_id":"st_d2ngiaodas8pm72gd1h0","pricing_plan_id":"cebpf4jnsgd1na2vs0mg"},{"bike_id":"237d670d-1d71-4e5a-9874-9ef01d2c1669","system_id":"levelo_inurba_marseille","lat":43.230659,"lon":5.354925,"is_reserved":false,"is_disabled":false,"rental_uris":{"android":"levelo://app?vid=237d670d-1d71-4e5a-9874-9ef01d2c1669","ios":"levelo://app?vid=237d670d-1d71-4e5a-9874-9ef01d2c1669"},"vehicle_type_id":"4","last_reported":1758751740,"current_range_meters":19200,"station_id":"cpo3342slgdg3j2ifvpg","pricing_plan_id":"cebpf4jnsgd1na2vs0mg"},{"bike_id":"a8267f76-387b-42c3-9652-9b98fd79cdd6","system_id":"levelo_inurba_marseille","lat":43.31321,"lon":5.39698,"is_reserved":false,"is_disabled":false,"rental_uris":{"android":"levelo://app?vid=a8267f76-387b-42c3-9652-9b98fd79cdd6","ios":"levelo://app?vid=a8267f76-387b-42c3-9652-9b98fd79cdd6"},"vehicle_type_id":"4","last_reported":1758751740,"current_range_meters":19200,"station_id":"ce4bgvp2rcd13ifvqcu0","pricing_plan_id":"cebpf4jnsgd1na2vs0mg"},{"bike_id":"0877b8bf-8071-4476-944b-3b0dbe6fe7fc","system_id":"levelo_inurba_marseille","lat":43.24665,"lon":5.38167,"is_reserved":false,"is_disabled":false,"rental_uris":{"android":"levelo://app?vid=0877b8bf-8071-4476-944b-3b0dbe6fe7fc","ios":"levelo://app?vid=0877b8bf-8071-4476-944b-3b0dbe6fe7fc"},"vehicle_type_id":"4","last_reported":1758751740,"current_range_meters":19600,"station_id":"ce4bhih2rcd13ifvqfr0","pricing_plan_id":"cebpf4jnsgd1na2vs0mg"},{"bike_id":"ddfb472e-a737-4716-a37b-8a211ce071c9","system_id":"levelo_inurba_marseille","lat":43.32338,"lon":5.40621,"is_reserved":false,"is_disabled":false,"rental_uris":{"android":"levelo://app?vid=ddfb472e-a737-4716-a37b-8a211ce071c9","ios":"levelo://app?vid=ddfb472e-a737-4716-a37b-8a211ce071c9"},"vehicle_type_id":"4","last_reported":1758751740,"current_range_meters":19600,"station_id":"ce4bhq92rcd13ifvqhjg","pricing_plan_id":"cebpf4jnsgd1na2vs0mg"},{"bike_id":"a0699dc1-193c-46d4-b5e0-886cf1dbb246","system_id":"levelo_inurba_marseille","lat":43.31115,"lon":5.37779,"is_reserved":false,"is_disabled":false,"rental_uris":{"android":"levelo://app?vid=a0699dc1-193c-46d4-b5e0-886cf1dbb246","ios":"levelo://app?vid=a0699dc1-193c-46d4-b5e0-886cf1dbb246"},"vehicle_type_id":"4","last_reported":1758751740,"current_range_meters":19200,"station_id":"ce4bgt92rcd13ifvqcg0","pricing_plan_id":"cebpf4jnsgd1na2vs0mg"},{"bike_id":"d2c32aa4-eb6d-4037-b4bc-16b296387f88","system_id":"levelo_inurba_marseille","lat":43.246508,"lon":5.388915,"is_reserved":false,"is_disabled":false,"rental_uris":{"android":"levelo://app?vid=d2c32aa4-eb6d-4037-b4bc-16b296387f88","ios":"levelo://app?vid=d2c32aa4-eb6d-4037-b4bc-16b296387f88"},"vehicle_type_id":"4","last_reported":1758751740,"current_range_meters":19600,"station_id":"ce4bhg12rcd13ifvqf60","pricing_plan_id":"cebpf4jnsgd1na2vs0mg"},{"bike_id":"a57b3feb-2354-42fe-87fd-e8fcee3a0260","system_id":"levelo_inurba_marseille","lat":43.26953,"lon":5.40241,"is_reserved":false,"is_disabled":false,"rental_uris":{"android":"levelo://app?vid=a57b3feb-2354-42fe-87fd-e8fcee3a0260","ios":"levelo://app?vid=a57b3feb-2354-42fe-87fd-e8fcee3a0260"},"vehicle_type_id":"4","last_reported":1758751740,"current_range_meters":19600,"station_id":"","pricing_plan_id":"cebpf4jnsgd1na2vs0mg"},{"bike_id":"e6d05c24-6c91-4f71-ad31-476f539b3605","system_id":"levelo_inurba_marseille","lat":43.3015,"lon":5.39862,"is_reserved":false,"is_disabled":false,"rental_uris":{"android":"levelo://app?vid=e6d05c24-6c91-4f71-ad31-476f539b3605","ios":"levelo://app?vid=e6d05c24-6c91-4f71-ad31-476f539b3605"},"vehicle_type_id":"4","last_reported":1758751740,"current_range_meters":20000,"station_id":"ce4bh0h2rcd13ifvqd40","pricing_plan_id":"cebpf4jnsgd1na2vs0mg"},{"bike_id":"0ed5d1af-c0da-4940-9155-76ef8fa3a0ac","system_id":"levelo_inurba_marseille","lat":43.293832,"lon":5.378617,"is_reserved":false,"is_disabled":false,"rental_uris":{"android":"levelo://app?vid=0ed5d1af-c0da-4940-9155-76ef8fa3a0ac","ios":"levelo://app?vid=0ed5d1af-c0da-4940-9155-76ef8fa3a0ac"},"vehicle_type_id":"4","last_reported":1758751740,"current_range_meters":20000,"station_id":"","pricing_plan_id":"cebpf4jnsgd1na2vs0mg"},{"bike_id":"f7b533f2-f11a-4f3c-a205-ee581782b1a1","system_id":"levelo_inurba_marseille","lat":43.30948,"lon":5.40143,"is_reserved":false,"is_disabled":true,"rental_uris":{"android":"levelo://app?vid=f7b533f2-f11a-4f3c-a205-ee581782b1a1","ios":"levelo://app?vid=f7b533f2-f11a-4f3c-a205-ee581782b1a1"},"vehicle_type_id":"4","last_reported":1758751740,"current_range_meters":20000,"station_id":"ce4bgvp2rcd13ifvqct0","pricing_plan_id":"cebpf4jnsgd1na2vs0mg"},{"bike_id":"047cbadf-61f3-4710-bf13-d3db7d81e87a","system_id":"levelo_inurba_marseille","lat":43.30121,"lon":5.38787,"is_reserved":false,"is_disabled":true,"rental_uris":{"android":"levelo://app?vid=047cbadf-61f3-4710-bf13-d3db7d81e87a","ios":"levelo://app?vid=047cbadf-61f3-4710-bf13-d3db7d81e87a"},"vehicle_type_id":"4","last_reported":1758751740,"current_range_meters":20000,"station_id":"ce4bghh2rcd13ifvqb60","pricing_plan_id":"cebpf4jnsgd1na2vs0mg"},{"bike_id":"3a83d373-ca1d-4e8b-b929-b4a1e0868baf","system_id":"levelo_inurba_marseille","lat":43.30091,"lon":5.391,"is_reserved":false,"is_disabled":false,"rental_uris":{"android":"levelo://app?vid=3a83d373-ca1d-4e8b-b929-b4a1e0868baf","ios":"levelo://app?vid=3a83d373-ca1d-4e8b-b929-b4a1e0868baf"},"vehicle_type_id":"4","last_reported":1758751740,"current_range_meters":20000,"station_id":"ce4bh192rcd13ifvqdb0","pricing_plan_id":"cebpf4jnsgd1na2vs0mg"},{"bike_id":"651e2e9b-bd0f-4c36-a9f6-1eed696b508d","system_id":"levelo_inurba_marseille","lat":43.33029,"lon":5.3904,"is_reserved":false,"is_disabled":false,"rental_uris":{"android":"levelo://app?vid=651e2e9b-bd0f-4c36-a9f6-1eed696b508d","ios":"levelo://app?vid=651e2e9b-bd0f-4c36-a9f6-1eed696b508d"},"vehicle_type_id":"4","last_reported":1758751740,"current_range_meters":20000,"station_id":"ce4bhr92rcd13ifvqhrg","pricing_plan_id":"cebpf4jnsgd1na2vs0mg"},{"bike_id":"7b29c2cb-e408-4ca2-aa92-cf2f3baae3b8","system_id":"levelo_inurba_marseille","lat":43.2842,"lon":5.37508,"is_reserved":false,"is_disabled":false,"rental_uris":{"android":"levelo://app?vid=7b29c2cb-e408-4ca2-aa92-cf2f3baae3b8","ios":"levelo://app?vid=7b29c2cb-e408-4ca2-aa92-cf2f3baae3b8"},"vehicle_type_id":"4","last_reported":1758751740,"current_range_meters":20000,"station_id":"ce4bh412rcd13ifvqds0","pricing_plan_id":"cebpf4jnsgd1na2vs0mg"},{"bike_id":"0e4e248c-ae6d-46c7-9044-2ef88edbe488","system_id":"levelo_inurba_marseille","lat":43.26564,"lon":5.38994,"is_reserved":false,"is_disabled":false,"rental_uris":{"android":"levelo://app?vid=0e4e248c-ae6d-46c7-9044-2ef88edbe488","ios":"levelo://app?vid=0e4e248c-ae6d-46c7-9044-2ef88edbe488"},"vehicle_type_id":"4","last_reported":1758751740,"current_range_meters":20000,"station_id":"ce4bhe12rcd13ifvqf30","pricing_plan_id":"cebpf4jnsgd1na2vs0mg"},{"bike_id":"28751563-5360-40ae-b34d-9ad6debb11fd","system_id":"levelo_inurba_marseille","lat":43.31716,"lon":5.37752,"is_reserved":false,"is_disabled":false,"rental_uris":{"android":"levelo://app?vid=28751563-5360-40ae-b34d-9ad6debb11fd","ios":"levelo://app?vid=28751563-5360-40ae-b34d-9ad6debb11fd"},"vehicle_type_id":"4","last_reported":1758751740,"current_range_meters":20000,"station_id":"","pricing_plan_id":"cebpf4jnsgd1na2vs0mg"},{"bike_id":"5dabebdc-209d-4763-8b97-d5f8a04d915d","system_id":"levelo_inurba_marseille","lat":43.30135,"lon":5.38782,"is_reserved":false,"is_disabled":false,"rental_uris":{"android":"levelo://app?vid=5dabebdc-209d-4763-8b97-d5f8a04d915d","ios":"levelo://app?vid=5dabebdc-209d-4763-8b97-d5f8a04d915d"},"vehicle_type_id":"4","last_reported":1758751740,"current_range_meters":20000,"station_id":"ce4bghh2rcd13ifvqb60","pricing_plan_id":"cebpf4jnsgd1na2vs0mg"},