{"last_updated":1741331339,"ttl":60,"version":"2.2","data":{"bikes":[{"bike_id":"fb25d1fa-fbd9-4e45-ad85-54dd28c8ee03","system_id":"levelo_inurba_marseille","lat":43.24999,"lon":5.3894,"is_reserved":false,"is_disabled":false,"rental_uris":{"android":"levelo://app?vid=fb25d1fa-fbd9-4e45-ad85-54dd28c8ee03","ios":"levelo://app?vid=fb25d1fa-fbd9-4e45-ad85-54dd28c8ee03"},"vehicle_type_id":"4","last_reported":1741331339,"current_range_meters":2800,"station_id":"ce4bhgp2rcd13ifvqfd0","pricing_plan_id":"cebpf4jnsgd1na2vs0mg"},{"bike_id":"0402788c-a660-410a-8733-64654856b2ec","system_id":"levelo_inurba_marseille","lat":43.28457,"lon":5.38418,"is_reserved":false,"is_disabled":false,"rental_uris":{"android":"levelo://app?vid=0402788c-a660-410a-8733-64654856b2ec","ios":"levelo://app?vid=0402788c-a660-410a-8733-64654856b2ec"},"vehicle_type_id":"4","last_reported":1741331339,"current_range_meters":2800,"station_id":"ce4bh512rcd13ifvqe3g","pricing_plan_id":"cebpf4jnsgd1na2vs0mg"},{"bike_id":"f732301c-5814-4217-889c-43168a540117","system_id":"levelo_inurba_marseille","lat":43.25563,"lon":5.3827,"is_reserved":false,"is_disabled":false,"rental_uris":{"android":"levelo://app?vid=f732301c-5814-4217-889c-43168a540117","ios":"levelo://app?vid=f732301c-5814-4217-889c-43168a540117"},"vehicle_type_id":"4","last_reported":1741331339,"current_range_meters":2800,"station_id":"ce4bhih2rcd13ifvqfs0","pricing_plan_id":"cebpf4jnsgd1na2vs0mg"},{"bike_id":"b54317ef-a5b5-450f-88ad-57d8c17e4013","system_id":"levelo_inurba_marseille","lat":43.24063,"lon":5.37783,"is_reserved":false,"is_disabled":false,"rental_uris":{"android":"levelo://app?vid=b54317ef-a5b5-450f-88ad-57d8c17e4013","ios":"levelo://app?vid=b54317ef-a5b5-450f-88ad-57d8c17e4013"},"vehicle_type_id":"4","last_reported":1741331339,"current_range_meters":2800,"station_id":"ce4bhnp2rcd13ifvqgvg","pricing_plan_id":"cebpf4jnsgd1na2vs0mg"},{"bike_id":"f55c257b-ef57-4960-8890-497599d807b8","system_id":"levelo_inurba_marseille","lat":43.32372,"lon":5.41537,"is_reserved":false,"is_disabled":false,"rental_uris":{"android":"levelo://app?vid=f55c257b-ef57-4960-8890-497599d807b8","ios":"levelo://app?vid=f55c257b-ef57-4960-8890-497599d807b8"},"vehicle_type_id":"4","last_reported":1741331339,"current_range_meters":2800,"station_id":"","pricing_plan_id":"cebpf4jnsgd1na2vs0mg"},{"bike_id":"c6efdfee-4842-42b0-a53a-6965d2d6795d","system_id":"levelo_inurba_marseille","lat":43.26463,"lon":5.3957,"is_reserved":false,"is_disabled":false,"rental_uris":{"android":"levelo://app?vid=c6efdfee-4842-42b0-a53a-6965d2d6795d","ios":"levelo://app?vid=c6efdfee-4842-42b0-a53a-6965d2d6795d"},"vehicle_type_id":"4","last_reported":1741331339,"current_range_meters":3200,"station_id":"ce4bhi12rcd13ifvqfq0","pricing_plan_id":"cebpf4jnsgd1na2vs0mg"},{"bike_id":"663449dc-73e9-4eb1-a876-ad82e180c88e","system_id":"levelo_inurba_marseille","lat":43.30645,"lon":5.400697,"is_reserved":false,"is_disabled":false,"rental_uris":{"android":"levelo://app?vid=663449dc-73e9-4eb1-a876-ad82e180c88e","ios":"levelo://app?vid=663449dc-73e9-4eb1-a876-ad82e180c88e"},"vehicle_type_id":"4","last_reported":1741331339,"current_range_meters":3600,"station_id":"ce4bh112rcd13ifvqda0","pricing_plan_id":"cebpf4jnsgd1na2vs0mg"},{"bike_id":"09ce9210-4d35-4310-98fa-4de1c26e3db4","system_id":"levelo_inurba_marseille","lat":43.28837,"lon":5.40038,"is_reserved":false,"is_disabled":true,"rental_uris":{"android":"levelo://app?vid=09ce9210-4d35-4310-98fa-4de1c26e3db4","ios":"levelo://app?vid=09ce9210-4d35-4310-98fa-4de1c26e3db4"},"vehicle_type_id":"4","last_reported":1741331339,"current_range_meters":3600,"station_id":"","pricing_plan_id":"cebpf4jnsgd1na2vs0mg"},{"bike_id":"7849afcf-a4a5-4e0a-8687-88635c98f46c","system_id":"levelo_inurba_marseille","lat":43.30539,"lon":5.36561,"is_reserved":false,"is_disabled":false,"rental_uris":{"android":"levelo://app?vid=7849afcf-a4a5-4e0a-8687-88635c98f46c","ios":"levelo://app?vid=7849afcf-a4a5-4e0a-8687-88635c98f46c"},"vehicle_type_id":"4","last_reported":1741331339,"current_range_meters":3600,"station_id":"ce4bgs12rcd13ifvqcag","pricing_plan_id":"cebpf4jnsgd1na2vs0mg"},{"bike_id":"aff272fc-d730-4a33-aa6d-65bf1353e7e0","system_id":"levelo_inurba_marseille","lat":43.29802,"lon":5.38097,"is_reserved":false,"is_disabled":false,"rental_uris":{"android":"levelo://app?vid=aff272fc-d730-4a33-aa6d-65bf1353e7e0","ios":"levelo://app?vid=aff272fc-d730-4a33-aa6d-65bf1353e7e0"},"vehicle_type_id":"4","last_reported":1741331339,"current_range_meters":3600,"station_id":"ce4bgip2rcd13ifvqbb0","pricing_plan_id":"cebpf4jnsgd1na2vs0mg"},{"bike_id":"ae74298a-7c71-4011-9e18-731e9e5bc09e","system_id":"levelo_inurba_marseille","lat":43.26948,"lon":5.38634,"is_reserved":false,"is_disabled":false,"rental_uris":{"android":"levelo://app?vid=ae74298a-7c71-4011-9e18-731e9e5bc09e","ios":"levelo://app?vid=ae74298a-7c71-4011-9e18-731e9e5bc09e"},"vehicle_type_id":"4","last_reported":1741331339,"current_range_meters":3600,"station_id":"ce4bhh92rcd13ifvqfh0","pricing_plan_id":"cebpf4jnsgd1na2vs0mg"},{"bike_id":"54ba78ca-a919-4e92-ba56-59192a7d5158","system_id":"levelo_inurba_marseille","lat":43.29145,"lon":5.40478,"is_reserved":false,"is_disabled":false,"rental_uris":{"android":"levelo://app?vid=54ba78ca-a919-4e92-ba56-59192a7d5158","ios":"levelo://app?vid=54ba78ca-a919-4e92-ba56-59192a7d5158"},"vehicle_type_id":"4","last_reported":1741331339,"current_range_meters":3600,"station_id":"","pricing_plan_id":"cebpf4jnsgd1na2vs0mg"},{"bike_id":"1f8406ce-d719-4998-b775-70effe3a6b9c","system_id":"levelo_inurba_marseille","lat":43.2971,"lon":5.36605,"is_reserved":false,"is_disabled":true,"rental_uris":{"android":"levelo://app?vid=1f8406ce-d719-4998-b775-70effe3a6b9c","ios":"levelo://app?vid=1f8406ce-d719-4998-b775-70effe3a6b9c"},"vehicle_type_id":"4","last_reported":1741331339,"current_range_meters":4000,"station_id":"ce4bgn12rcd13ifvqbt0","pricing_plan_id":"cebpf4jnsgd1na2vs0mg"},{"bike_id":"03c3dc7c-8ee4-444d-b4cb-ba42a05873bd","system_id":"levelo_inurba_marseille","lat":43.22923,"lon":5.35386,"is_reserved":false,"is_disabled":false,"rental_uris":{"android":"levelo://app?vid=03c3dc7c-8ee4-444d-b4cb-ba42a05873bd","ios":"levelo://app?vid=03c3dc7c-8ee4-444d-b4cb-ba42a05873bd"},"vehicle_type_id":"4","last_reported":1741331339,"current_range_meters":4000,"station_id":"cpo3532slgdg3j2ikp40","pricing_plan_id":"cebpf4jnsgd1na2vs0mg"},{"bike_id":"2280039d-4ba2-4f72-bc14-102e9ce04b92","system_id":"levelo_inurba_marseille","lat":43.29593,"lon":5.38127,"is_reserved":false,"is_disabled":false,"rental_uris":{"android":"levelo://app?vid=2280039d-4ba2-4f72-bc14-102e9ce04b92","ios":"levelo://app?vid=2280039d-4ba2-4f72-bc14-102e9ce04b92"},"vehicle_type_id":"4","last_reported":1741331339,"current_range_meters":4000,"station_id":"ce4bgl12rcd13ifvqbo0","pricing_plan_id":"cebpf4jnsgd1na2vs0mg"},{"bike_id":"2f98d369-d024-41fc-b542-2e0830a79d12","system_id":"levelo_inurba_marseille","lat":43.26941,"lon":5.40254,"is_reserved":false,"is_disabled":false,"rental_uris":{"android":"levelo://app?vid=2f98d369-d024-41fc-b542-2e0830a79d12","ios":"levelo://app?vid=2f98d369-d024-41fc-b542-2e0830a79d12"},"vehicle_type_id":"4","last_reported":1741331339,"current_range_meters":3600,"station_id":"cjm6bp8fraef2m0cb0m0","pricing_plan_id":"cebpf4jnsgd1na2vs0mg"},{"bike_id":"fadc5597-2f44-411e-bbc9-b698e9edf980","system_id":"levelo_inurba_marseille","lat":43.27938,"lon":5.41044,"is_reserved":false,"is_disabled":false,"rental_uris":{"android":"levelo://app?vid=fadc5597-2f44-411e-bbc9-b698e9edf980","ios":"levelo://app?vid=fadc5597-2f44-411e-bbc9-b698e9edf980"},"vehicle_type_id":"4","last_reported":1741331339,"current_range_meters":4000,"station_id":"ce4bhnp2rcd13ifvqh0g","pricing_plan_id":"cebpf4jnsgd1na2vs0mg"},{"bike_id":"67f4971a-946e-4f00-96c3-16736e235fa5","system_id":"levelo_inurba_marseille","lat":43.28721,"lon":5.3794,"is_reserved":false,"is_disabled":false,"rental_uris":{"android":"levelo://app?vid=67f4971a-946e-4f00-96c3-16736e235fa5","ios":"levelo://app?vid=67f4971a-946e-4f00-96c3-16736e235fa5"},"vehicle_type_id":"4","last_reported":1741331339,"current_range_meters":4000,"station_id":"ce4bh9p2rcd13ifvqec0","pricing_plan_id":"cebpf4jnsgd1na2vs0mg"},{"bike_id":"b44401da-3a3e-452d-8125-461fdc02404c","system_id":"levelo_inurba_marseille","lat":43.30148,"lon":5.38087,"is_reserved":false,"is_disabled":false,"rental_uris":{"android":"levelo://app?vid=b44401da-3a3e-452d-8125-461fdc02404c","ios":"levelo://app?vid=b44401da-3a3e-452d-8125-461fdc02404c"},"vehicle_type_id":"4","last_reported":1741331339,"current_range_meters":4400,"station_id":"ce4bgjp2rcd13ifvqbh0","pricing_plan_id":"cebpf4jnsgd1na2vs0mg"},{"bike_id":"d34b5910-fa9c-4576-b503-7c12034693b7","system_id":"levelo_inurba_marseille","lat":43.27496,"lon":5.42456,"is_reserved":false,"is_disabled":false,"rental_uris":{"android":"levelo://app?vid=d34b5910-fa9c-4576-b503-7c12034693b7","ios":"levelo://app?vid=d34b5910-fa9c-4576-b503-7c12034693b7"},"vehicle_type_id":"4","last_reported":1741331339,"current_range_meters":5600,"station_id":"","pricing_plan_id":"cebpf4jnsgd1na2vs0mg"},{"bike_id":"570803ed-9b88-4313-ba5d-743ffa0d889d","system_id":"levelo_inurba_marseille","lat":43.30209,"lon":5.39477,"is_reserved":false,"is_disabled":false,"rental_uris":{"android":"levelo://app?vid=570803ed-9b88-4313-ba5d-743ffa0d889d","ios":"levelo://app?vid=570803ed-9b88-4313-ba5d-743ffa0d889d"},"vehicle_type_id":"4","last_reported":1741331339,"current_range_meters":4400,"station_id":"ce4bh0p2rcd13ifvqd70","pricing_plan_id":"cebpf4jnsgd1na2vs0mg"},{"bike_id":"3fffc9cd-f418-41de-9fba-0cc23722d684","system_id":"levelo_inurba_marseille","lat":43.23081,"lon":5.35503,"is_reserved":false,"is_disabled":false,"rental_uris":{"android":"levelo://app?vid=3fffc9cd-f418-41de-9fba-0cc23722d684","ios":"levelo://app?vid=3fffc9cd-f418-41de-9fba-0cc23722d684"},"vehicle_type_id":"4","last_reported":1741331339,"current_range_meters":4400,"station_id":"cpo3342slgdg3j2ifvpg","pricing_plan_id":"cebpf4jnsgd1na2vs0mg"},{"bike_id":"d572b633-d5af-4df0-87b8-0a5b1819b02b","system_id":"levelo_inurba_marseille","lat":43.24179,"lon":5.39731,"is_reserved":false,"is_disabled":false,"rental_uris":{"android":"levelo://app?vid=d572b633-d5af-4df0-87b8-0a5b1819b02b","ios":"levelo://app?vid=d572b633-d5af-4df0-87b8-0a5b1819b02b"},"vehicle_type_id":"4","last_reported":1741331339,"current_range_meters":4800,"station_id":"ce4bhn12rcd13ifvqgpg","pricing_plan_id":"cebpf4jnsgd1na2vs0mg"},{"bike_id":"9067ff8d-612e-407b-bb3f-a9b9f5799cbb","system_id":"levelo_inurba_marseille","lat":43.30438,"lon":5.37735,"is_reserved":false,"is_disabled":false,"rental_uris":{"android":"levelo://app?vid=9067ff8d-612e-407b-bb3f-a9b9f5799cbb","ios":"levelo://app?vid=9067ff8d-612e-407b-bb3f-a9b9f5799cbb"},"vehicle_type_id":"4","last_reported":1741331339,"current_range_meters":4800,"station_id":"ce4bgup2rcd13ifvqcn0","pricing_plan_id":"cebpf4jnsgd1na2vs0mg"},{"bike_id":"4a516282-574d-43c0-b9a6-d7bcc8bc4d21","system_id":"levelo_inurba_marseille","lat":43.24657,"lon":5.38914,"is_reserved":false,"is_disabled":false,"rental_uris":{"android":"levelo://app?vid=4a516282-574d-43c0-b9a6-d7bcc8bc4d21","ios":"levelo://app?vid=4a516282-574d-43c0-b9a6-d7bcc8bc4d21"},"vehicle_type_id":"4","last_reported":1741331339,"current_range_meters":4800,"station_id":"ce4bhg12rcd13ifvqf60","pricing_plan_id":"cebpf4jnsgd1na2vs0mg"},{"bike_id":"d8ebe6ef-7120-442a-8938-758f7c937563","system_id":"levelo_inurba_marseille","lat":43.29726,"lon":5.41083,"is_reserved":false,"is_disabled":false,"rental_uris":{"android":"levelo://app?vid=d8ebe6ef-7120-442a-8938-758f7c937563","ios":"levelo://app?vid=d8ebe6ef-7120-442a-8938-758f7c937563"},"vehicle_type_id":"4","last_reported":1741331339,"current_range_meters":4800,"station_id":"","pricing_plan_id":"cebpf4jnsgd1na2vs0mg"},{"bike_id":"48be3c18-589c-4708-8ab4-90ce9c9983a1","system_id":"levelo_inurba_marseille","lat":43.24073,"lon":5.37752,"is_reserved":false,"is_disabled":false,"rental_uris":{"android":"levelo://app?vid=48be3c18-589c-4708-8ab4-90ce9c9983a1","ios":"levelo://app?vid=48be3c18-589c-4708-8ab4-90ce9c9983a1"},"vehicle_type_id":"4","last_reported":1741331339,"current_range_meters":4800,"station_id":"ce4bhnp2rcd13ifvqgvg","pricing_plan_id":"cebpf4jnsgd1na2vs0mg"},{"bike_id":"1455e746-9d14-4e8b-b477-642b4bb0adf7","system_id":"levelo_inurba_marseille","lat":43.3043,"lon":5.38881,"is_reserved":false,"is_disabled":false,"rental_uris":{"android":"levelo://app?vid=1455e746-9d14-4e8b-b477-642b4bb0adf7","ios":"levelo://app?vid=1455e746-9d14-4e8b-b477-642b4bb0adf7"},"vehicle_type_id":"4","last_reported":1741331339,"current_range_meters":5600,"station_id":"ce4bgk12rcd13ifvqbi0","pricing_plan_id":"cebpf4jnsgd1na2vs0mg"},{"bike_id":"a37c059b-f2fd-43df-9fb0-2a8f656aa28d","system_id":"levelo_inurba_marseille","lat":43.29038,"lon":5.37568,"is_reserved":false,"is_disabled":false,"rental_uris":{"android":"levelo://app?vid=a37c059b-f2fd-43df-9fb0-2a8f656aa28d","ios":"levelo://app?vid=a37c059b-f2fd-43df-9fb0-2a8f656aa28d"},"vehicle_type_id":"4","last_reported":1741331339,"current_range_meters":5600,"station_id":"ce4bh692rcd13ifvqe90","pricing_plan_id":"cebpf4jnsgd1na2vs0mg"},{"bike_id":"de754493-593d-484d-850a-eaba979f3d3f","system_id":"levelo_inurba_marseille","lat":43.27938,"lon":5.4104,"is_reserved":false,"is_disabled":false,"rental_uris":{"android":"levelo://app?vid=de754493-593d-484d-850a-eaba979f3d3f","ios":"levelo://app?vid=de754493-593d-484d-850a-eaba979f3d3f"},"vehicle_type_id":"4","last_reported":1741331339,"current_range_meters":5600,"station_id":"ce4bhnp2rcd13ifvqh0g","pricing_plan_id":"cebpf4jnsgd1na2vs0mg"},{"bike_id":"c10ffbc4-057e-44cc-9327-88161b3e3897","system_id":"levelo_inurba_marseille","lat":43.2656,"lon":5.39037,"is_reserved":false,"is_disabled":false,"rental_uris":{"android":"levelo://app?vid=c10ffbc4-057e-44cc-9327-88161b3e3897","ios":"levelo://app?vid=c10ffbc4-057e-44cc-9327-88161b3e3897"},"vehicle_type_id":"4","last_reported":1741331339,"current_range_meters":5600,"station_id":"ce4bhe12rcd13ifvqf30","pricing_plan_id":"cebpf4jnsgd1na2vs0mg"},{"bike_id":"64e6d7c7-6964-4f42-9f4d-1ffd80e5e48d","system_id":"levelo_inurba_marseille","lat":43.24172,"lon":5.36464,"is_reserved":false,"is_disabled":false,"rental_uris":{"android":"levelo://app?vid=64e6d7c7-6964-4f42-9f4d-1ffd80e5e48d","ios":"levelo://app?vid=64e6d7c7-6964-4f42-9f4d-1ffd80e5e48d"},"vehicle_type_id":"4","last_reported":1741331339,"current_range_meters":5600,"station_id":"cpo36qri1sfpv3e86is0","pricing_plan_id":"cebpf4jnsgd1na2vs0mg"},{"bike_id":"e0e2a062-8721-4fba-b601-7c210babb3a0","system_id":"levelo_inurba_marseille","lat":43.31722,"lon":5.42414,"is_reserved":false,"is_disabled":false,"rental_uris":{"android":"levelo://app?vid=e0e2a062-8721-4fba-b601-7c210babb3a0","ios":"levelo://app?vid=e0e2a062-8721-4fba-b601-7c210babb3a0"},"vehicle_type_id":"4","last_reported":1741331339,"current_range_meters":6000,"station_id":"ce4bhp92rcd13ifvqhbg","pricing_plan_id":"cebpf4jnsgd1na2vs0mg"},{"bike_id":"fdde8103-1f2a-4455-bcfa-e1d74ecb0194","system_id":"levelo_inurba_marseille","lat":43.27816,"lon":5.40717,"is_reserved":false,"is_disabled":false,"rental_uris":{"android":"levelo://app?vid=fdde8103-1f2a-4455-bcfa-e1d74ecb0194","ios":"levelo://app?vid=fdde8103-1f2a-4455-bcfa-e1d74ecb0194"},"vehicle_type_id":"4","last_reported":1741331339,"current_range_meters":6000,"station_id":"ce4bhnh2rcd13ifvqgtg","pricing_plan_id":"cebpf4jnsgd1na2vs0mg"},{"bike_id":"7bdf6528-cded-4e31-bdcd-05e5503236cb","system_id":"levelo_inurba_marseille","lat":43.30803,"lon":5.43522,"is_reserved":false,"is_disabled":false,"rental_uris":{"android":"levelo://app?vid=7bdf6528-cded-4e31-bdcd-05e5503236cb","ios":"levelo://app?vid=7bdf6528-cded-4e31-bdcd-05e5503236cb"},"vehicle_type_id":"4","last_reported":1741331339,"current_range_meters":6000,"station_id":"ce4bhph2rcd13ifvqheg","pricing_plan_id":"cebpf4jnsgd1na2vs0mg"},{"bike_id":"e0c0bec3-454a-410d-a60f-3aed516ec149","system_id":"levelo_inurba_marseille","lat":43.23181,"lon":5.3556,"is_reserved":false,"is_disabled":false,"rental_uris":{"android":"levelo://app?vid=e0c0bec3-454a-410d-a60f-3aed516ec149","ios":"levelo://app?vid=e0c0bec3-454a-410d-a60f-3aed516ec149"},"vehicle_type_id":"4","last_reported":1741331339,"current_range_meters":6400,"station_id":"ce4bhu92rcd13ifvqi70","pricing_plan_id":"cebpf4jnsgd1na2vs0mg"},{"bike_id":"b128a848-1fbe-452d-aa99-802041786fec","system_id":"levelo_inurba_marseille","lat":43.2955,"lon":5.42284,"is_reserved":false,"is_disabled":false,"rental_uris":{"android":"levelo://app?vid=b128a848-1fbe-452d-aa99-802041786fec","ios":"levelo://app?vid=b128a848-1fbe-452d-aa99-802041786fec"},"vehicle_type_id":"4","last_reported":1741331339,"current_range_meters":6400,"station_id":"ce4bhph2rcd13ifvqhdg","pricing_plan_id":"cebpf4jnsgd1na2vs0mg"},{"bike_id":"09b5a791-41f8-48d8-a8af-e40022d24921","system_id":"levelo_inurba_marseille","lat":43.27494,"lon":5.42471,"is_reserved":false,"is_disabled":false,"rental_uris":{"android":"levelo://app?vid=09b5a791-41f8-48d8-a8af-e40022d24921","ios":"levelo://app?vid=09b5a791-41f8-48d8-a8af-e40022d24921"},"vehicle_type_id":"4","last_reported":1741331339,"current_range_meters":6400,"station_id":"ce4bhn92rcd13ifvqgrg","pricing_plan_id":"cebpf4jnsgd1na2vs0mg"},{"bike_id":"e712c361-bb49-4c8d-a824-4a94679c0ae9","system_id":"levelo_inurba_marseille","lat":43.27499,"lon":5.42453,"is_reserved":false,"is_disabled":false,"rental_uris":{"android":"levelo://app?vid=e712c361-bb49-4c8d-a824-4a94679c0ae9","ios":"levelo://app?vid=e712c361-bb49-4c8d-a824-4a94679c0ae9"},"vehicle_type_id":"4","last_reported":1741331339,"current_range_meters":6400,"station_id":"ce4bhn92rcd13ifvqgrg","pricing_plan_id":"cebpf4jnsgd1na2vs0mg"},{"bike_id":"27bf5454-f5cc-40f9-873e-597610f0d7f8","system_id":"levelo_inurba_marseille","lat":43.27612,"lon":5.36105,"is_reserved":false,"is_disabled":false,"rental_uris":{"android":"levelo://app?vid=27bf5454-f5cc-40f9-873e-597610f0d7f8","ios":"levelo://app?vid=27bf5454-f5cc-40f9-873e-597610f0d7f8"},"vehicle_type_id":"4","last_reported":1741331339,"current_range_meters":6400,"station_id":"ce4bgj92rcd13ifvqbe0","pricing_plan_id":"cebpf4jnsgd1na2vs0mg"},{"bike_id":"d2fd960f-0af3-4bf9-bd6a-b0c4aa4544af","system_id":"levelo_inurba_marseille","lat":43.23208,"lon":5.39985,"is_reserved":false,"is_disabled":false,"rental_uris":{"android":"levelo://app?vid=d2fd960f-0af3-4bf9-bd6a-b0c4aa4544af","ios":"levelo://app?vid=d2fd960f-0af3-4bf9-bd6a-b0c4aa4544af"},"vehicle_type_id":"4","last_reported":1741331339,"current_range_meters":6400,"station_id":"ce4bhn12rcd13ifvqgqg","pricing_plan_id":"cebpf4jnsgd1na2vs0mg"},{"bike_id":"29227056-764b-49e3-abde-c348dd16614e","system_id":"levelo_inurba_marseille","lat":43.30148,"lon":5.38078,"is_reserved":false,"is_disabled":false,"rental_uris":{"android":"levelo://app?vid=29227056-764b-49e3-abde-c348dd16614e","ios":"levelo://app?vid=29227056-764b-49e3-abde-c348dd16614e"},"vehicle_type_id":"4","last_reported":1741331339,"current_range_meters":6400,"station_id":"ce4bgjp2rcd13ifvqbh0","pricing_plan_id":"cebpf4jnsgd1na2vs0mg"},{"bike_id":"9bfe4e82-241b-4620-b471-d226beb88b23","system_id":"levelo_inurba_marseille","lat":43.229281,"lon":5.353893,"is_reserved":false,"is_disabled":false,"rental_uris":{"android":"levelo://app?vid=9bfe4e82-241b-4620-b471-d226beb88b23","ios":"levelo://app?vid=9bfe4e82-241b-4620-b471-d226beb88b23"},"vehicle_type_id":"4","last_reported":1741331339,"current_range_meters":6400,"station_id":"cpo3532slgdg3j2ikp40","pricing_plan_id":"cebpf4jnsgd1na2vs0mg"},{"bike_id":"bf342717-63c0-499a-a753-35e922ba7de5","system_id":"levelo_inurba_marseille","lat":43.24999,"lon":5.38933,"is_reserved":false,"is_disabled":false,"rental_uris":{"android":"levelo://app?vid=bf342717-63c0-499a-a753-35e922ba7de5","ios":"levelo://app?vid=bf342717-63c0-499a-a753-35e922ba7de5"},"vehicle_type_id":"4","last_reported":1741331339,"current_range_meters":6400,"station_id":"ce4bhgp2rcd13ifvqfd0","pricing_plan_id":"cebpf4jnsgd1na2vs0mg"},{"bike_id":"7b3dc7b9-ed95-4fac-b8db-fb164e0e0a08","system_id":"levelo_inurba_marseille","lat":43.27483,"lon":5.42469,"is_reserved":false,"is_disabled":true,"rental_uris":{"android":"levelo://app?vid=7b3dc7b9-ed95-4fac-b8db-fb164e0e0a08","ios":"levelo://app?vid=7b3dc7b9-ed95-4fac-b8db-fb164e0e0a08"},"vehicle_type_id":"4","last_reported":1741331339,"current_range_meters":6400,"station_id":"ce4bhn92rcd13ifvqgrg","pricing_plan_id":"cebpf4jnsgd1na2vs0mg"},{"bike_id":"f5f16292-5540-4aae-b9c8-f3d9f389f20c","system_id":"levelo_inurba_marseille","lat":43.27068,"lon":5.423,"is_reserved":false,"is_disabled":false,"rental_uris":{"android":"levelo://app?vid=f5f16292-5540-4aae-b9c8-f3d9f389f20c","ios":"levelo://app?vid=f5f16292-5540-4aae-b9c8-f3d9f389f20c"},"vehicle_type_id":"4","last_reported":1741331339,"current_range_meters":6800,"station_id":"ce4bhk92rcd13ifvqgb0","pricing_plan_id":"cebpf4jnsgd1na2vs0mg"},{"bike_id":"de10dad3-cc48-400a-922c-cca5bf1a3a20","system_id":"levelo_inurba_marseille","lat":43.29938,"lon":5.38831,"is_reserved":false,"is_disabled":true,"rental_uris":{"android":"levelo://app?vid=de10dad3-cc48-400a-922c-cca5bf1a3a20","ios":"levelo://app?vid=de10dad3-cc48-400a-922c-cca5bf1a3a20"},"vehicle_type_id":"4","last_reported":1741331339,"current_range_meters":6800,"station_id":"","pricing_plan_id":"cebpf4jnsgd1na2vs0mg"},{"bike_id":"fd570e3e-777b-4122-9306-c335bf003eb6","system_id":"levelo_inurba_marseille","lat":43.23195,"lon":5.39968,"is_reserved":false,"is_disabled":false,"rental_uris":{"android":"levelo://app?vid=fd570e3e-777b-4122-9306-c335bf003eb6","ios":"levelo://app?vid=fd570e3e-777b-4122-9306-c335bf003eb6"},"vehicle_type_id":"4","last_reported":1741331339,"current_range_meters":6800,"station_id":"ce4bhn12rcd13ifvqgqg","pricing_plan_id":"cebpf4jnsgd1na2vs0mg"},{"bike_id":"524470ee-5afb-4f8a-b4b1-91fa19aa2b60","system_id":"levelo_inurba_marseille","lat":43.245317,"lon":5.395323,"is_reserved":false,"is_disabled":true,"rental_uris":{"android":"levelo://app?vid=524470ee-5afb-4f8a-b4b1-91fa19aa2b60","ios":"levelo://app?vid=524470ee-5afb-4f8a-b4b1-91fa19aa2b60"},"vehicle_type_id":"4","last_reported":1741331339,"current_range_meters":6800,"station_id":"ce4bhlp2rcd13ifvqgjg","pricing_plan_id":"cebpf4jnsgd1na2vs0mg"},{"bike_id":"e32e5309-5cf3-4586-ab57-38cd5f2cf148","system_id":"levelo_inurba_marseille","lat":43.24369,"lon":5.37082,"is_reserved":false,"is_disabled":false,"rental_uris":{"android":"levelo://app?vid=e32e5309-5cf3-4586-ab57-38cd5f2cf148","ios":"levelo://app?vid=e32e5309-5cf3-4586-ab57-38cd5f2cf148"},"vehicle_type_id":"4","last_reported":1741331339,"current_range_meters":6800,"station_id":"ce4bhhh2rcd13ifvqfk0","pricing_plan_id":"cebpf4jnsgd1na2vs0mg"},{"bike_id":"3a6afcf6-0860-481d-9cb0-fb6a67445340","system_id":"levelo_inurba_marseille","lat":43.2511,"lon":5.40331,"is_reserved":false,"is_disabled":false,"rental_uris":{"android":"levelo://app?vid=3a6afcf6-0860-481d-9cb0-fb6a67445340","ios":"levelo://app?vid=3a6afcf6-0860-481d-9cb0-fb6a67445340"},"vehicle_type_id":"4","last_reported":1741331339,"current_range_meters":7200,"station_id":"ce4bhlh2rcd13ifvqgig","pricing_plan_id":"cebpf4jnsgd1na2vs0mg"},{"bike_id":"7f1905bf-da4d-4f13-af14-c5d46804e585","system_id":"levelo_inurba_marseille","lat":43.23182,"lon":5.35571,"is_reserved":false,"is_disabled":false,"rental_uris":{"android":"levelo://app?vid=7f1905bf-da4d-4f13-af14-c5d46804e585","ios":"levelo://app?vid=7f1905bf-da4d-4f13-af14-c5d46804e585"},"vehicle_type_id":"4","last_reported":1741331339,"current_range_meters":7200,"station_id":"ce4bhu92rcd13ifvqi70","pricing_plan_id":"cebpf4jnsgd1na2vs0mg"},{"bike_id":"5a889601-e2ea-42a2-9826-2b0973957a91","system_id":"levelo_inurba_marseille","lat":43.30149,"lon":5.38098,"is_reserved":false,"is_disabled":false,"rental_uris":{"android":"levelo://app?vid=5a889601-e2ea-42a2-9826-2b0973957a91","ios":"levelo://app?vid=5a889601-e2ea-42a2-9826-2b0973957a91"},"vehicle_type_id":"4","last_reported":1741331339,"current_range_meters":7200,"station_id":"ce4bgjp2rcd13ifvqbh0","pricing_plan_id":"cebpf4jnsgd1na2vs0mg"},{"bike_id":"6152b505-bdaa-4154-9904-8e28b1c35e0b","system_id":"levelo_inurba_marseille","lat":43.278145,"lon":5.407136,"is_reserved":false,"is_disabled":false,"rental_uris":{"android":"levelo://app?vid=6152b505-bdaa-4154-9904-8e28b1c35e0b","ios":"levelo://app?vid=6152b505-bdaa-4154-9904-8e28b1c35e0b"},"vehicle_type_id":"4","last_reported":1741331339,"current_range_meters":7200,"station_id":"ce4bhnh2rcd13ifvqgtg","pricing_plan_id":"cebpf4jnsgd1na2vs0mg"},{"bike_id":"e010cecd-4667-4abc-9f99-d441da01aed5","system_id":"levelo_inurba_marseille","lat":43.27826,"lon":5.37934,"is_reserved":false,"is_disabled":false,"rental_uris":{"android":"levelo://app?vid=e010cecd-4667-4abc-9f99-d441da01aed5","ios":"levelo://app?vid=e010cecd-4667-4abc-9f99-d441da01aed5"},"vehicle_type_id":"4","last_reported":1741331339,"current_range_meters":7200,"station_id":"","pricing_plan_id":"cebpf4jnsgd1na2vs0mg"},{"bike_id":"a6a152b5-8aab-4c82-b82d-e07034bbdf6f","system_id":"levelo_inurba_marseille","lat":43.29889,"lon":5.43655,"is_reserved":false,"is_disabled":false,"rental_uris":{"android":"levelo://app?vid=a6a152b5-8aab-4c82-b82d-e07034bbdf6f","ios":"levelo://app?vid=a6a152b5-8aab-4c82-b82d-e07034bbdf6f"},"vehicle_type_id":"4","last_reported":1741331339,"current_range_meters":8000,"station_id":"ce4bhpp2rcd13ifvqhfg","pricing_plan_id":"cebpf4jnsgd1na2vs0mg"},{"bike_id":"68690f51-3d15-41f8-8315-55ad1e9e0ee1","system_id":"levelo_inurba_marseille","lat":43.3414,"lon":5.40911,"is_reserved":false,"is_disabled":false,"rental_uris":{"android":"levelo://app?vid=68690f51-3d15-41f8-8315-55ad1e9e0ee1","ios":"levelo://app?vid=68690f51-3d15-41f8-8315-55ad1e9e0ee1"},"vehicle_type_id":"4","last_reported":1741331339,"current_range_meters":8000,"station_id":"ce4bhqh2rcd13ifvqhlg","pricing_plan_id":"cebpf4jnsgd1na2vs0mg"},{"bike_id":"c262f8cf-6400-4efd-af91-c8aabadab203","system_id":"levelo_inurba_marseille","lat":43.23189,"lon":5.39982,"is_reserved":false,"is_disabled":false,"rental_uris":{"android":"levelo://app?vid=c262f8cf-6400-4efd-af91-c8aabadab203","ios":"levelo://app?vid=c262f8cf-6400-4efd-af91-c8aabadab203"},"vehicle_type_id":"4","last_reported":1741331339,"current_range_meters":8000,"station_id":"ce4bhn12rcd13ifvqgqg","pricing_plan_id":"cebpf4jnsgd1na2vs0mg"},{"bike_id":"f2b6d3da-7378-45c5-9a38-ba6eefa96bac","system_id":"levelo_inurba_marseille","lat":43.32413,"lon":5.41618,"is_reserved":false,"is_disabled":false,"rental_uris":{"android":"levelo://app?vid=f2b6d3da-7378-45c5-9a38-ba6eefa96bac","ios":"levelo://app?vid=f2b6d3da-7378-45c5-9a38-ba6eefa96bac"},"vehicle_type_id":"4","last_reported":1741331339,"current_range_meters":8000,"station_id":"","pricing_plan_id":"cebpf4jnsgd1na2vs0mg"},{"bike_id":"23fed444-bd25-41d0-ba3c-a3f4c45a67f1","system_id":"levelo_inurba_marseille","lat":43.24082,"lon":5.37759,"is_reserved":false,"is_disabled":false,"rental_uris":{"android":"levelo://app?vid=23fed444-bd25-41d0-ba3c-a3f4c45a67f1","ios":"levelo://app?vid=23fed444-bd25-41d0-ba3c-a3f4c45a67f1"},"vehicle_type_id":"4","last_reported":1741331339,"current_range_meters":8000,"station_id":"ce4bhnp2rcd13ifvqgvg","pricing_plan_id":"cebpf4jnsgd1na2vs0mg"},{"bike_id":"3c5e0350-07a6-4d3d-b526-00ffb41b6d3e","system_id":"levelo_inurba_marseille","lat":43.279469,"lon":5.410443,"is_reserved":false,"is_disabled":false,"rental_uris":{"android":"levelo://app?vid=3c5e0350-07a6-4d3d-b526-00ffb41b6d3e","ios":"levelo://app?vid=3c5e0350-07a6-4d3d-b526-00ffb41b6d3e"},"vehicle_type_id":"4","last_reported":1741331339,"current_range_meters":8000,"station_id":"ce4bhnp2rcd13ifvqh0g","pricing_plan_id":"cebpf4jnsgd1na2vs0mg"},{"bike_id":"f927a9c8-5d84-472f-b8fd-88f2fc3bc3e6","system_id":"levelo_inurba_marseille","lat":43.29905,"lon":5.43654,"is_reserved":false,"is_disabled":false,"rental_uris":{"android":"levelo://app?vid=f927a9c8-5d84-472f-b8fd-88f2fc3bc3e6","ios":"levelo://app?vid=f927a9c8-5d84-472f-b8fd-88f2fc3bc3e6"},"vehicle_type_id":"4","last_reported":1741331339,"current_range_meters":8000,"station_id":"ce4bhpp2rcd13ifvqhfg","pricing_plan_id":"cebpf4jnsgd1na2vs0mg"},{"bike_id":"915b7735-4cab-40c5-9411-3076bdbf4c7d","system_id":"levelo_inurba_marseille","lat":43.29891,"lon":5.43666,"is_reserved":false,"is_disabled":false,"rental_uris":{"android":"levelo://app?vid=915b7735-4cab-40c5-9411-3076bdbf4c7d","ios":"levelo://app?vid=915b7735-4cab-40c5-9411-3076bdbf4c7d"},"vehicle_type_id":"4","last_reported":1741331339,"current_range_meters":8000,"station_id":"ce4bhpp2rcd13ifvqhfg","pricing_plan_id":"cebpf4jnsgd1na2vs0mg"},{"bike_id":"651068a3-bff5-4aa4-bafe-de2f2377d643","system_id":"levelo_inurba_marseille","lat":43.27513,"lon":5.42475,"is_reserved":false,"is_disabled":false,"rental_uris":{"android":"levelo://app?vid=651068a3-bff5-4aa4-bafe-de2f2377d643","ios":"levelo://app?vid=651068a3-bff5-4aa4-bafe-de2f2377d643"},"vehicle_type_id":"4","last_reported":1741331339,"current_range_meters":8000,"station_id":"ce4bhn92rcd13ifvqgrg","pricing_plan_id":"cebpf4jnsgd1na2vs0mg"},{"bike_id":"c5d9a748-fb84-4751-9008-dc4467d9ed9a","system_id":"levelo_inurba_marseille","lat":43.231969,"lon":5.355518,"is_reserved":false,"is_disabled":false,"rental_uris":{"android":"levelo://app?vid=c5d9a748-fb84-4751-9008-dc4467d9ed9a","ios":"levelo://app?vid=c5d9a748-fb84-4751-9008-dc4467d9ed9a"},"vehicle_type_id":"4","last_reported":1741331339,"current_range_meters":8000,"station_id":"ce4bhu92rcd13ifvqi70","pricing_plan_id":"cebpf4jnsgd1na2vs0mg"},{"bike_id":"26d2696b-f894-454f-9934-59cabb72aea4","system_id":"levelo_inurba_marseille","lat":43.27368,"lon":5.36249,"is_reserved":false,"is_disabled":false,"rental_uris":{"android":"levelo://app?vid=26d2696b-f894-454f-9934-59cabb72aea4","ios":"levelo://app?vid=26d2696b-f894-454f-9934-59cabb72aea4"},"vehicle_type_id":"4","last_reported":1741331339,"current_range_meters":8000,"station_id":"ce4bhbh2rcd13ifvqeo0","pricing_plan_id":"cebpf4jnsgd1na2vs0mg"},{"bike_id":"173827a9-655b-48dd-9e57-85bdf2cccb6a","system_id":"levelo_inurba_marseille","lat":43.28928,"lon":5.39649,"is_reserved":false,"is_disabled":false,"rental_uris":{"android":"levelo://app?vid=173827a9-655b-48dd-9e57-85bdf2cccb6a","ios":"levelo://app?vid=173827a9-655b-48dd-9e57-85bdf2cccb6a"},"vehicle_type_id":"4","last_reported":1741331339,"current_range_meters":8000,"station_id":"ce4bh3h2rcd13ifvqdn0","pricing_plan_id":"cebpf4jnsgd1na2vs0mg"},{"bike_id":"81220ab9-fb8e-4638-a084-692a6595df85","system_id":"levelo_inurba_marseille","lat":43.26188,"lon":5.42076,"is_reserved":false,"is_disabled":false,"rental_uris":{"android":"levelo://app?vid=81220ab9-fb8e-4638-a084-692a6595df85","ios":"levelo://app?vid=81220ab9-fb8e-4638-a084-692a6595df85"},"vehicle_type_id":"4","last_reported":1741331339,"current_range_meters":8000,"station_id":"","pricing_plan_id":"cebpf4jnsgd1na2vs0mg"},{"bike_id":"42bd2188-fef0-407d-9176-e3a29cddd528","system_id":"levelo_inurba_marseille","lat":43.28342,"lon":5.38112,"is_reserved":false,"is_disabled":false,"rental_uris":{"android":"levelo://app?vid=42bd2188-fef0-407d-9176-e3a29cddd528","ios":"levelo://app?vid=42bd2188-fef0-407d-9176-e3a29cddd528"},"vehicle_type_id":"4","last_reported":1741331339,"current_range_meters":8000,"station_id":"ce4bh412rcd13ifvqdr0","pricing_plan_id":"cebpf4jnsgd1na2vs0mg"},{"bike_id":"32d1f900-0344-4b56-aaa5-564d19ec802c","system_id":"levelo_inurba_marseille","lat":43.27936,"lon":5.41045,"is_reserved":false,"is_disabled":false,"rental_uris":{"android":"levelo://app?vid=32d1f900-0344-4b56-aaa5-564d19ec802c","ios":"levelo://app?vid=32d1f900-0344-4b56-aaa5-564d19ec802c"},"vehicle_type_id":"4","last_reported":1741331339,"current_range_meters":8000,"station_id":"ce4bhnp2rcd13ifvqh0g","pricing_plan_id":"cebpf4jnsgd1na2vs0mg"},{"bike_id":"6e671742-afd1-4259-beac-3a0475cf66cb","system_id":"levelo_inurba_marseille","lat":43.31488,"lon":5.37308,"is_reserved":false,"is_disabled":false,"rental_uris":{"android":"levelo://app?vid=6e671742-afd1-4259-beac-3a0475cf66cb","ios":"levelo://app?vid=6e671742-afd1-4259-beac-3a0475cf66cb"},"vehicle_type_id":"4","last_reported":1741331339,"current_range_meters":8000,"station_id":"ce4bgt12rcd13ifvqcd0","pricing_plan_id":"cebpf4jnsgd1na2vs0mg"},{"bike_id":"12c6fc39-9ff9-460f-95fd-76f0d4d1091c","system_id":"levelo_inurba_marseille","lat":43.29902,"lon":5.43657,"is_reserved":false,"is_disabled":false,"rental_uris":{"android":"levelo://app?vid=12c6fc39-9ff9-460f-95fd-76f0d4d1091c","ios":"levelo://app?vid=12c6fc39-9ff9-460f-95fd-76f0d4d1091c"},"vehicle_type_id":"4","last_reported":1741331339,"current_range_meters":8000,"station_id":"ce4bhpp2rcd13ifvqhfg","pricing_plan_id":"cebpf4jnsgd1na2vs0mg"},{"bike_id":"659b8f60-191a-40fa-a18d-f62ece25e449","system_id":"levelo_inurba_marseille","lat":43.30528,"lon":5.36715,"is_reserved":false,"is_disabled":false,"rental_uris":{"android":"levelo://app?vid=659b8f60-191a-40fa-a18d-f62ece25e449","ios":"levelo://app?vid=659b8f60-191a-40fa-a18d-f62ece25e449"},"vehicle_type_id":"4","last_reported":1741331339,"current_range_meters":8400,"station_id":"ce4bgrp2rcd13ifvqc9g","pricing_plan_id":"cebpf4jnsgd1na2vs0mg"},{"bike_id":"1b34c58c-f011-43f3-baac-47c6cf7523c0","system_id":"levelo_inurba_marseille","lat":43.2989,"lon":5.43642,"is_reserved":false,"is_disabled":false,"rental_uris":{"android":"levelo://app?vid=1b34c58c-f011-43f3-baac-47c6cf7523c0","ios":"levelo://app?vid=1b34c58c-f011-43f3-baac-47c6cf7523c0"},"vehicle_type_id":"4","last_reported":1741331339,"current_range_meters":8400,"station_id":"ce4bhpp2rcd13ifvqhfg","pricing_plan_id":"cebpf4jnsgd1na2vs0mg"},{"bike_id":"6016bdb3-4e9f-416b-88df-1ab71f5d0176","system_id":"levelo_inurba_marseille","lat":43.3132,"lon":5.39727,"is_reserved":false,"is_disabled":false,"rental_uris":{"android":"levelo://app?vid=6016bdb3-4e9f-416b-88df-1ab71f5d0176","ios":"levelo://app?vid=6016bdb3-4e9f-416b-88df-1ab71f5d0176"},"vehicle_type_id":"4","last_reported":1741331339,"current_range_meters":8400,"station_id":"ce4bgvp2rcd13ifvqcu0","pricing_plan_id":"cebpf4jnsgd1na2vs0mg"},{"bike_id":"6f8fdd27-fb47-43bb-be4a-efc849685a6a","system_id":"levelo_inurba_marseille","lat":43.286539,"lon":5.363461,"is_reserved":false,"is_disabled":false,"rental_uris":{"android":"levelo://app?vid=6f8fdd27-fb47-43bb-be4a-efc849685a6a","ios":"levelo://app?vid=6f8fdd27-fb47-43bb-be4a-efc849685a6a"},"vehicle_type_id":"4","last_reported":1741331339,"current_range_meters":8400,"station_id":"ce4bhah2rcd13ifvqej0","pricing_plan_id":"cebpf4jnsgd1na2vs0mg"},{"bike_id":"9e39df28-5898-42f7-ac07-e73389c0d814","system_id":"levelo_inurba_marseille","lat":43.284256,"lon":5.37501,"is_reserved":false,"is_disabled":true,"rental_uris":{"android":"levelo://app?vid=9e39df28-5898-42f7-ac07-e73389c0d814","ios":"levelo://app?vid=9e39df28-5898-42f7-ac07-e73389c0d814"},"vehicle_type_id":"4","last_reported":1741331339,"current_range_meters":8400,"station_id":"ce4bh9p2rcd13ifvqec0","pricing_plan_id":"cebpf4jnsgd1na2vs0mg"},{"bike_id":"62a09798-c343-481e-97e9-c13fbd2c169c","system_id":"levelo_inurba_marseille","lat":43.2557,"lon":5.38257,"is_reserved":false,"is_disabled":false,"rental_uris":{"android":"levelo://app?vid=62a09798-c343-481e-97e9-c13fbd2c169c","ios":"levelo://app?vid=62a09798-c343-481e-97e9-c13fbd2c169c"},"vehicle_type_id":"4","last_reported":1741331339,"current_range_meters":8400,"station_id":"ce4bhih2rcd13ifvqfs0","pricing_plan_id":"cebpf4jnsgd1na2vs0mg"},{"bike_id":"b2c94af5-bdff-4efc-819d-12cc6aa4c843","system_id":"levelo_inurba_marseille","lat":43.24057,"lon":5.37775,"is_reserved":false,"is_disabled":false,"rental_uris":{"android":"levelo://app?vid=b2c94af5-bdff-4efc-819d-12cc6aa4c843","ios":"levelo://app?vid=b2c94af5-bdff-4efc-819d-12cc6aa4c843"},"vehicle_type_id":"4","last_reported":1741331339,"current_range_meters":8800,"station_id":"ce4bhnp2rcd13ifvqgvg","pricing_plan_id":"cebpf4jnsgd1na2vs0mg"},{"bike_id":"d9b4e821-0c42-42c8-b88c-ec7f1d7ab942","system_id":"levelo_inurba_marseille","lat":43.24059,"lon":5.37728,"is_reserved":false,"is_disabled":false,"rental_uris":{"android":"levelo://app?vid=d9b4e821-0c42-42c8-b88c-ec7f1d7ab942","ios":"levelo://app?vid=d9b4e821-0c42-42c8-b88c-ec7f1d7ab942"},"vehicle_type_id":"4","last_reported":1741331339,"current_range_meters":8800,"station_id":"ce4bhnp2rcd13ifvqgvg","pricing_plan_id":"cebpf4jnsgd1na2vs0mg"},{"bike_id":"3305645c-0b40-4a06-8a6b-dacb9f8270da","system_id":"levelo_inurba_marseille","lat":43.28843,"lon":5.39329,"is_reserved":false,"is_disabled":false,"rental_uris":{"android":"levelo://app?vid=3305645c-0b40-4a06-8a6b-dacb9f8270da","ios":"levelo://app?vid=3305645c-0b40-4a06-8a6b-dacb9f8270da"},"vehicle_type_id":"4","last_reported":1741331339,"current_range_meters":8800,"station_id":"ce4bh2p2rcd13ifvqdi0","pricing_plan_id":"cebpf4jnsgd1na2vs0mg"},{"bike_id":"ff3228ef-c722-4531-aa41-dd0456ac2a39","system_id":"levelo_inurba_marseille","lat":43.23181,"lon":5.39976,"is_reserved":false,"is_disabled":false,"rental_uris":{"android":"levelo://app?vid=ff3228ef-c722-4531-aa41-dd0456ac2a39","ios":"levelo://app?vid=ff3228ef-c722-4531-aa41-dd0456ac2a39"},"vehicle_type_id":"4","last_reported":1741331339,"current_range_meters":8800,"station_id":"ce4bhn12rcd13ifvqgqg","pricing_plan_id":"cebpf4jnsgd1na2vs0mg"},{"bike_id":"bae88569-610f-475c-98ca-784f8598b84a","system_id":"levelo_inurba_marseille","lat":43.3026,"lon":5.3774,"is_reserved":false,"is_disabled":false,"rental_uris":{"android":"levelo://app?vid=bae88569-610f-475c-98ca-784f8598b84a","ios":"levelo://app?vid=bae88569-610f-475c-98ca-784f8598b84a"},"vehicle_type_id":"4","last_reported":1741331339,"current_range_meters":8800,"station_id":"ce4bguh2rcd13ifvqcj0","pricing_plan_id":"cebpf4jnsgd1na2vs0mg"},{"bike_id":"357f6b0d-7429-4870-b5b1-c540923d954d","system_id":"levelo_inurba_marseille","lat":43.23058,"lon":5.35512,"is_reserved":false,"is_disabled":false,"rental_uris":{"android":"levelo://app?vid=357f6b0d-7429-4870-b5b1-c540923d954d","ios":"levelo://app?vid=357f6b0d-7429-4870-b5b1-c540923d954d"},"vehicle_type_id":"4","last_reported":1741331339,"current_range_meters":8800,"station_id":"cpo3342slgdg3j2ifvpg","pricing_plan_id":"cebpf4jnsgd1na2vs0mg"},{"bike_id":"04402abc-5447-4644-832a-cb375ba8074a","system_id":"levelo_inurba_marseille","lat":43.3047,"lon":5.3791,"is_reserved":false,"is_disabled":false,"rental_uris":{"android":"levelo://app?vid=04402abc-5447-4644-832a-cb375ba8074a","ios":"levelo://app?vid=04402abc-5447-4644-832a-cb375ba8074a"},"vehicle_type_id":"4","last_reported":1741331339,"current_range_meters":8800,"station_id":"ce4bgup2rcd13ifvqcn0","pricing_plan_id":"cebpf4jnsgd1na2vs0mg"},{"bike_id":"6061b85e-b633-4d1e-82ef-6c69ea042380","system_id":"levelo_inurba_marseille","lat":43.30422,"lon":5.38898,"is_reserved":false,"is_disabled":false,"rental_uris":{"android":"levelo://app?vid=6061b85e-b633-4d1e-82ef-6c69ea042380","ios":"levelo://app?vid=6061b85e-b633-4d1e-82ef-6c69ea042380"},"vehicle_type_id":"4","last_reported":1741331339,"current_range_meters":8800,"station_id":"ce4bgk12rcd13ifvqbi0","pricing_plan_id":"cebpf4jnsgd1na2vs0mg"},{"bike_id":"cad74eb9-7c68-4ac1-939e-6bfa8649e028","system_id":"levelo_inurba_marseille","lat":43.27985,"lon":5.40016,"is_reserved":false,"is_disabled":false,"rental_uris":{"android":"levelo://app?vid=cad74eb9-7c68-4ac1-939e-6bfa8649e028","ios":"levelo://app?vid=cad74eb9-7c68-4ac1-939e-6bfa8649e028"},"vehicle_type_id":"4","last_reported":1741331339,"current_range_meters":8800,"station_id":"ce4bho92rcd13ifvqh4g","pricing_plan_id":"cebpf4jnsgd1na2vs0mg"},{"bike_id":"94bd7a08-7a7c-490f-9ac1-2a2cc4523c6c","system_id":"levelo_inurba_marseille","lat":43.29088,"lon":5.38137,"is_reserved":false,"is_disabled":false,"rental_uris":{"android":"levelo://app?vid=94bd7a08-7a7c-490f-9ac1-2a2cc4523c6c","ios":"levelo://app?vid=94bd7a08-7a7c-490f-9ac1-2a2cc4523c6c"},"vehicle_type_id":"4","last_reported":1741331339,"current_range_meters":9200,"station_id":"ce4bh512rcd13ifvqe2g","pricing_plan_id":"cebpf4jnsgd1na2vs0mg"},{"bike_id":"3ec133be-e4e7-41e1-bd2b-36650a6fd984","system_id":"levelo_inurba_marseille","lat":43.25927,"lon":5.40886,"is_reserved":false,"is_disabled":false,"rental_uris":{"android":"levelo://app?vid=3ec133be-e4e7-41e1-bd2b-36650a6fd984","ios":"levelo://app?vid=3ec133be-e4e7-41e1-bd2b-36650a6fd984"},"vehicle_type_id":"4","last_reported":1741331339,"current_range_meters":9200,"station_id":"ce4bhm92rcd13ifvqglg","pricing_plan_id":"cebpf4jnsgd1na2vs0mg"},{"bike_id":"d0d1b861-fc7b-4e26-bf94-3473241b8993","system_id":"levelo_inurba_marseille","lat":43.23177,"lon":5.39987,"is_reserved":false,"is_disabled":false,"rental_uris":{"android":"levelo://app?vid=d0d1b861-fc7b-4e26-bf94-3473241b8993","ios":"levelo://app?vid=d0d1b861-fc7b-4e26-bf94-3473241b8993"},"vehicle_type_id":"4","last_reported":1741331339,"current_range_meters":9200,"station_id":"ce4bhn12rcd13ifvqgqg","pricing_plan_id":"cebpf4jnsgd1na2vs0mg"},{"bike_id":"450439a7-a862-4524-b173-408943e07d73","system_id":"levelo_inurba_marseille","lat":43.29035,"lon":5.39958,"is_reserved":false,"is_disabled":false,"rental_uris":{"android":"levelo://app?vid=450439a7-a862-4524-b173-408943e07d73","ios":"levelo://app?vid=450439a7-a862-4524-b173-408943e07d73"},"vehicle_type_id":"4","last_reported":1741331339,"current_range_meters":9200,"station_id":"ce4bh392rcd13ifvqdm0","pricing_plan_id":"cebpf4jnsgd1na2vs0mg"},{"bike_id":"4bb8ec19-fa9e-4bc2-9ced-8316005f4173","system_id":"levelo_inurba_marseille","lat":43.27934,"lon":5.39561,"is_reserved":false,"is_disabled":true,"rental_uris":{"android":"levelo://app?vid=4bb8ec19-fa9e-4bc2-9ced-8316005f4173","ios":"levelo://app?vid=4bb8ec19-fa9e-4bc2-9ced-8316005f4173"},"vehicle_type_id":"4","last_reported":1741331339,"current_range_meters":9200,"station_id":"ce4bhf92rcd13ifvqf40","pricing_plan_id":"cebpf4jnsgd1na2vs0mg"},{"bike_id":"2d340159-37c8-41dc-a62f-ca06729e55bc","system_id":"levelo_inurba_marseille","lat":43.32361,"lon":5.36752,"is_reserved":false,"is_disabled":false,"rental_uris":{"android":"levelo://app?vid=2d340159-37c8-41dc-a62f-ca06729e55bc","ios":"levelo://app?vid=2d340159-37c8-41dc-a62f-ca06729e55bc"},"vehicle_type_id":"4","last_reported":1741331339,"current_range_meters":9600,"station_id":"ce4bhsh2rcd13ifvqi2g","pricing_plan_id":"cebpf4jnsgd1na2vs0mg"},{"bike_id":"93bf5a61-b8a8-49cd-8b33-574a28d9bdf3","system_id":"levelo_inurba_marseille","lat":43.24062,"lon":5.37782,"is_reserved":false,"is_disabled":false,"rental_uris":{"android":"levelo://app?vid=93bf5a61-b8a8-49cd-8b33-574a28d9bdf3","ios":"levelo://app?vid=93bf5a61-b8a8-49cd-8b33-574a28d9bdf3"},"vehicle_type_id":"4","last_reported":1741331339,"current_range_meters":9600,"station_id":"ce4bhnp2rcd13ifvqgvg","pricing_plan_id":"cebpf4jnsgd1na2vs0mg"},{"bike_id":"6a2993b2-6605-4fd1-970f-be8a3bf3bfad","system_id":"levelo_inurba_marseille","lat":43.28688,"lon":5.37428,"is_reserved":false,"is_disabled":false,"rental_uris":{"android":"levelo://app?vid=6a2993b2-6605-4fd1-970f-be8a3bf3bfad","ios":"levelo://app?vid=6a2993b2-6605-4fd1-970f-be8a3bf3bfad"},"vehicle_type_id":"4","last_reported":1741331339,"current_range_meters":9600,"station_id":"ce4bh3p2rcd13ifvqdq0","pricing_plan_id":"cebpf4jnsgd1na2vs0mg"},{"bike_id":"549f0e20-712f-455b-8868-0f3f9588d3f7","system_id":"levelo_inurba_marseille","lat":43.2319,"lon":5.39976,"is_reserved":false,"is_disabled":false,"rental_uris":{"android":"levelo://app?vid=549f0e20-712f-455b-8868-0f3f9588d3f7","ios":"levelo://app?vid=549f0e20-712f-455b-8868-0f3f9588d3f7"},"vehicle_type_id":"4","last_reported":1741331339,"current_range_meters":9600,"station_id":"ce4bhn12rcd13ifvqgqg","pricing_plan_id":"cebpf4jnsgd1na2vs0mg"},{"bike_id":"ca12585f-73af-4492-8c7b-b40081c4d639","system_id":"levelo_inurba_marseille","lat":43.30602,"lon":5.37152,"is_reserved":false,"is_disabled":false,"rental_uris":{"android":"levelo://app?vid=ca12585f-73af-4492-8c7b-b40081c4d639","ios":"levelo://app?vid=ca12585f-73af-4492-8c7b-b40081c4d639"},"vehicle_type_id":"4","last_reported":1741331339,"current_range_meters":9600,"station_id":"","pricing_plan_id":"cebpf4jnsgd1na2vs0mg"},{"bike_id":"7582ad68-779a-4296-9bd6-58a679d7fcda","system_id":"levelo_inurba_marseille","lat":43.24072,"lon":5.37779,"is_reserved":false,"is_disabled":false,"rental_uris":{"android":"levelo://app?vid=7582ad68-779a-4296-9bd6-58a679d7fcda","ios":"levelo://app?vid=7582ad68-779a-4296-9bd6-58a679d7fcda"},"vehicle_type_id":"4","last_reported":1741331339,"current_range_meters":9600,"station_id":"ce4bhnp2rcd13ifvqgvg","pricing_plan_id":"cebpf4jnsgd1na2vs0mg"},{"bike_id":"c1ef0e1a-f14a-49dc-9142-24a0f46d9e6e","system_id":"levelo_inurba_marseille","lat":43.28387,"lon":5.34992,"is_reserved":false,"is_disabled":false,"rental_uris":{"android":"levelo://app?vid=c1ef0e1a-f14a-49dc-9142-24a0f46d9e6e","ios":"levelo://app?vid=c1ef0e1a-f14a-49dc-9142-24a0f46d9e6e"},"vehicle_type_id":"4","last_reported":1741331339,"current_range_meters":9600,"station_id":"ce4bhbh2rcd13ifvqepg","pricing_plan_id":"cebpf4jnsgd1na2vs0mg"},{"bike_id":"2b40134f-d4b0-4e4c-b1a8-b3bb652daa9e","system_id":"levelo_inurba_marseille","lat":43.29782,"lon":5.39345,"is_reserved":false,"is_disabled":false,"rental_uris":{"android":"levelo://app?vid=2b40134f-d4b0-4e4c-b1a8-b3bb652daa9e","ios":"levelo://app?vid=2b40134f-d4b0-4e4c-b1a8-b3bb652daa9e"},"vehicle_type_id":"4","last_reported":1741331339,"current_range_meters":9600,"station_id":"chh1huq6cuj3fo74tm60","pricing_plan_id":"cebpf4jnsgd1na2vs0mg"},{"bike_id":"4c4f40ce-b677-4958-a34a-41f58f94190b","system_id":"levelo_inurba_marseille","lat":43.23196,"lon":5.39985,"is_reserved":false,"is_disabled":false,"rental_uris":{"android":"levelo://app?vid=4c4f40ce-b677-4958-a34a-41f58f94190b","ios":"levelo://app?vid=4c4f40ce-b677-4958-a34a-41f58f94190b"},"vehicle_type_id":"4","last_reported":1741331339,"current_range_meters":10000,"station_id":"ce4bhn12rcd13ifvqgqg","pricing_plan_id":"cebpf4jnsgd1na2vs0mg"},{"bike_id":"450fec99-cedd-4c3b-a355-1b95b571f4ec","system_id":"levelo_inurba_marseille","lat":43.27944,"lon":5.410559,"is_reserved":false,"is_disabled":false,"rental_uris":{"android":"levelo://app?vid=450fec99-cedd-4c3b-a355-1b95b571f4ec","ios":"levelo://app?vid=450fec99-cedd-4c3b-a355-1b95b571f4ec"},"vehicle_type_id":"4","last_reported":1741331339,"current_range_meters":10000,"station_id":"ce4bhnp2rcd13ifvqh0g","pricing_plan_id":"cebpf4jnsgd1na2vs0mg"},{"bike_id":"9f0f0224-b72b-4ee3-a38d-b5ba80204629","system_id":"levelo_inurba_marseille","lat":43.23185,"lon":5.35565,"is_reserved":false,"is_disabled":false,"rental_uris":{"android":"levelo://app?vid=9f0f0224-b72b-4ee3-a38d-b5ba80204629","ios":"levelo://app?vid=9f0f0224-b72b-4ee3-a38d-b5ba80204629"},"vehicle_type_id":"4","last_reported":1741331339,"current_range_meters":10000,"station_id":"ce4bhu92rcd13ifvqi70","pricing_plan_id":"cebpf4jnsgd1na2vs0mg"},{"bike_id":"c16ccb51-1ff7-4b93-8e4d-d5c1c6809677","system_id":"levelo_inurba_marseille","lat":43.304153,"lon":5.412811,"is_reserved":false,"is_disabled":false,"rental_uris":{"android":"levelo://app?vid=c16ccb51-1ff7-4b93-8e4d-d5c1c6809677","ios":"levelo://app?vid=c16ccb51-1ff7-4b93-8e4d-d5c1c6809677"},"vehicle_type_id":"4","last_reported":1741331339,"current_range_meters":10000,"station_id":"ce4bhop2rcd13ifvqh8g","pricing_plan_id":"cebpf4jnsgd1na2vs0mg"},{"bike_id":"1ea20267-c047-4d3e-b61f-4c89af5c4965","system_id":"levelo_inurba_marseille","lat":43.26954,"lon":5.38634,"is_reserved":false,"is_disabled":false,"rental_uris":{"android":"levelo://app?vid=1ea20267-c047-4d3e-b61f-4c89af5c4965","ios":"levelo://app?vid=1ea20267-c047-4d3e-b61f-4c89af5c4965"},"vehicle_type_id":"4","last_reported":1741331339,"current_range_meters":10000,"station_id":"ce4bhh92rcd13ifvqfh0","pricing_plan_id":"cebpf4jnsgd1na2vs0mg"},{"bike_id":"7d483360-c35f-4d7f-9a39-8a1e6c8ecd39","system_id":"levelo_inurba_marseille","lat":43.26956,"lon":5.3863,"is_reserved":false,"is_disabled":false,"rental_uris":{"android":"levelo://app?vid=7d483360-c35f-4d7f-9a39-8a1e6c8ecd39","ios":"levelo://app?vid=7d483360-c35f-4d7f-9a39-8a1e6c8ecd39"},"vehicle_type_id":"4","last_reported":1741331339,"current_range_meters":10000,"station_id":"ce4bhh92rcd13ifvqfh0","pricing_plan_id":"cebpf4jnsgd1na2vs0mg"},{"bike_id":"d015e1e7-8b4f-4898-a841-104d62c0d9ad","system_id":"levelo_inurba_marseille","lat":43.23183,"lon":5.39981,"is_reserved":false,"is_disabled":false,"rental_uris":{"android":"levelo://app?vid=d015e1e7-8b4f-4898-a841-104d62c0d9ad","ios":"levelo://app?vid=d015e1e7-8b4f-4898-a841-104d62c0d9ad"},"vehicle_type_id":"4","last_reported":1741331339,"current_range_meters":10000,"station_id":"ce4bhn12rcd13ifvqgqg","pricing_plan_id":"cebpf4jnsgd1na2vs0mg"},{"bike_id":"6e2db17f-4a00-4d9d-ad55-83bb966e90cb","system_id":"levelo_inurba_marseille","lat":43.28109,"lon":5.37848,"is_reserved":false,"is_disabled":false,"rental_uris":{"android":"levelo://app?vid=6e2db17f-4a00-4d9d-ad55-83bb966e90cb","ios":"levelo://app?vid=6e2db17f-4a00-4d9d-ad55-83bb966e90cb"},"vehicle_type_id":"4","last_reported":1741331339,"current_range_meters":10000,"station_id":"ce4bha12rcd13ifvqee0","pricing_plan_id":"cebpf4jnsgd1na2vs0mg"},{"bike_id":"db8f8cad-a228-4245-8436-74fa226872bc","system_id":"levelo_inurba_marseille","lat":43.29004,"lon":5.35619,"is_reserved":false,"is_disabled":false,"rental_uris":{"android":"levelo://app?vid=db8f8cad-a228-4245-8436-74fa226872bc","ios":"levelo://app?vid=db8f8cad-a228-4245-8436-74fa226872bc"},"vehicle_type_id":"4","last_reported":1741331339,"current_range_meters":10000,"station_id":"ce4bhb92rcd13ifvqen0","pricing_plan_id":"cebpf4jnsgd1na2vs0mg"},{"bike_id":"34aa14cc-09e2-478d-a4d8-f2c0b44526ae","system_id":"levelo_inurba_marseille","lat":43.26221,"lon":5.40491,"is_reserved":false,"is_disabled":false,"rental_uris":{"android":"levelo://app?vid=34aa14cc-09e2-478d-a4d8-f2c0b44526ae","ios":"levelo://app?vid=34aa14cc-09e2-478d-a4d8-f2c0b44526ae"},"vehicle_type_id":"4","last_reported":1741331339,"current_range_meters":10800,"station_id":"ce4bhmh2rcd13ifvqgmg","pricing_plan_id":"cebpf4jnsgd1na2vs0mg"},{"bike_id":"9ab1dd5a-24c7-4a6e-9c32-e9ef84a0ea7f","system_id":"levelo_inurba_marseille","lat":43.28851,"lon":5.35852,"is_reserved":false,"is_disabled":false,"rental_uris":{"android":"levelo://app?vid=9ab1dd5a-24c7-4a6e-9c32-e9ef84a0ea7f","ios":"levelo://app?vid=9ab1dd5a-24c7-4a6e-9c32-e9ef84a0ea7f"},"vehicle_type_id":"4","last_reported":1741331339,"current_range_meters":10800,"station_id":"ce4bhb12rcd13ifvqem0","pricing_plan_id":"cebpf4jnsgd1na2vs0mg"},{"bike_id":"2b1de8ba-6297-479a-97e0-c4ffcb43060b","system_id":"levelo_inurba_marseille","lat":43.23188,"lon":5.3998,"is_reserved":false,"is_disabled":false,"rental_uris":{"android":"levelo://app?vid=2b1de8ba-6297-479a-97e0-c4ffcb43060b","ios":"levelo://app?vid=2b1de8ba-6297-479a-97e0-c4ffcb43060b"},"vehicle_type_id":"4","last_reported":1741331339,"current_range_meters":10800,"station_id":"ce4bhn12rcd13ifvqgqg","pricing_plan_id":"cebpf4jnsgd1na2vs0mg"},{"bike_id":"764f3258-213a-4186-b4ff-850e4e5fe869","system_id":"levelo_inurba_marseille","lat":43.30388,"lon":5.41337,"is_reserved":false,"is_disabled":false,"rental_uris":{"android":"levelo://app?vid=764f3258-213a-4186-b4ff-850e4e5fe869","ios":"levelo://app?vid=764f3258-213a-4186-b4ff-850e4e5fe869"},"vehicle_type_id":"4","last_reported":1741331339,"current_range_meters":10800,"station_id":"ce4bhop2rcd13ifvqh8g","pricing_plan_id":"cebpf4jnsgd1na2vs0mg"},{"bike_id":"536ad86e-6b83-41ec-913f-12543b9c953a","system_id":"levelo_inurba_marseille","lat":43.28411,"lon":5.35,"is_reserved":false,"is_disabled":false,"rental_uris":{"android":"levelo://app?vid=536ad86e-6b83-41ec-913f-12543b9c953a","ios":"levelo://app?vid=536ad86e-6b83-41ec-913f-12543b9c953a"},"vehicle_type_id":"4","last_reported":1741331339,"current_range_meters":10800,"station_id":"ce4bhbh2rcd13ifvqepg","pricing_plan_id":"cebpf4jnsgd1na2vs0mg"},{"bike_id":"db8d4487-1207-4c21-b0f0-e45e43461b87","system_id":"levelo_inurba_marseille","lat":43.29033,"lon":5.38646,"is_reserved":false,"is_disabled":false,"rental_uris":{"android":"levelo://app?vid=db8d4487-1207-4c21-b0f0-e45e43461b87","ios":"levelo://app?vid=db8d4487-1207-4c21-b0f0-e45e43461b87"},"vehicle_type_id":"4","last_reported":1741331339,"current_range_meters":10800,"station_id":"ce4bh4p2rcd13ifvqe0g","pricing_plan_id":"cebpf4jnsgd1na2vs0mg"},{"bike_id":"03b2a53b-cd6d-4353-957f-2760b29c52f8","system_id":"levelo_inurba_marseille","lat":43.284219,"lon":5.349934,"is_reserved":false,"is_disabled":false,"rental_uris":{"android":"levelo://app?vid=03b2a53b-cd6d-4353-957f-2760b29c52f8","ios":"levelo://app?vid=03b2a53b-cd6d-4353-957f-2760b29c52f8"},"vehicle_type_id":"4","last_reported":1741331339,"current_range_meters":10800,"station_id":"ce4bhbh2rcd13ifvqepg","pricing_plan_id":"cebpf4jnsgd1na2vs0mg"},{"bike_id":"97ec7852-1a72-4f4d-8bce-6eb24e8fcbf1","system_id":"levelo_inurba_marseille","lat":43.33608,"lon":5.41045,"is_reserved":false,"is_disabled":false,"rental_uris":{"android":"levelo://app?vid=97ec7852-1a72-4f4d-8bce-6eb24e8fcbf1","ios":"levelo://app?vid=97ec7852-1a72-4f4d-8bce-6eb24e8fcbf1"},"vehicle_type_id":"4","last_reported":1741331339,"current_range_meters":11200,"station_id":"ce4bhqh2rcd13ifvqhmg","pricing_plan_id":"cebpf4jnsgd1na2vs0mg"},{"bike_id":"8ea383d4-f425-4f2e-91a3-57cb03091ad5","system_id":"levelo_inurba_marseille","lat":43.24077,"lon":5.37764,"is_reserved":false,"is_disabled":false,"rental_uris":{"android":"levelo://app?vid=8ea383d4-f425-4f2e-91a3-57cb03091ad5","ios":"levelo://app?vid=8ea383d4-f425-4f2e-91a3-57cb03091ad5"},"vehicle_type_id":"4","last_reported":1741331339,"current_range_meters":11200,"station_id":"ce4bhnp2rcd13ifvqgvg","pricing_plan_id":"cebpf4jnsgd1na2vs0mg"},{"bike_id":"1f75ef88-585d-4c6c-bd00-040291b6a393","system_id":"levelo_inurba_marseille","lat":43.30883,"lon":5.39647,"is_reserved":false,"is_disabled":false,"rental_uris":{"android":"levelo://app?vid=1f75ef88-585d-4c6c-bd00-040291b6a393","ios":"levelo://app?vid=1f75ef88-585d-4c6c-bd00-040291b6a393"},"vehicle_type_id":"4","last_reported":1741331339,"current_range_meters":10800,"station_id":"ce4bh012rcd13ifvqcv0","pricing_plan_id":"cebpf4jnsgd1na2vs0mg"},{"bike_id":"51ab2f87-7cc7-4481-922e-e50400cdb771","system_id":"levelo_inurba_marseille","lat":43.295516,"lon":5.422928,"is_reserved":false,"is_disabled":false,"rental_uris":{"android":"levelo://app?vid=51ab2f87-7cc7-4481-922e-e50400cdb771","ios":"levelo://app?vid=51ab2f87-7cc7-4481-922e-e50400cdb771"},"vehicle_type_id":"4","last_reported":1741331339,"current_range_meters":10800,"station_id":"ce4bh012rcd13ifvqd10","pricing_plan_id":"cebpf4jnsgd1na2vs0mg"},{"bike_id":"6ea729a2-3067-45cf-8c3c-0c87ac7b42ca","system_id":"levelo_inurba_marseille","lat":43.24078,"lon":5.37748,"is_reserved":false,"is_disabled":false,"rental_uris":{"android":"levelo://app?vid=6ea729a2-3067-45cf-8c3c-0c87ac7b42ca","ios":"levelo://app?vid=6ea729a2-3067-45cf-8c3c-0c87ac7b42ca"},"vehicle_type_id":"4","last_reported":1741331339,"current_range_meters":11200,"station_id":"ce4bhnp2rcd13ifvqgvg","pricing_plan_id":"cebpf4jnsgd1na2vs0mg"},{"bike_id":"b9a2a557-7185-4420-904d-3b8906c0a079","system_id":"levelo_inurba_marseille","lat":43.27056,"lon":5.40264,"is_reserved":false,"is_disabled":false,"rental_uris":{"android":"levelo://app?vid=b9a2a557-7185-4420-904d-3b8906c0a079","ios":"levelo://app?vid=b9a2a557-7185-4420-904d-3b8906c0a079"},"vehicle_type_id":"4","last_reported":1741331339,"current_range_meters":11200,"station_id":"ce4bhk92rcd13ifvqgc0","pricing_plan_id":"cebpf4jnsgd1na2vs0mg"},{"bike_id":"424763cc-a0bf-4af1-8d08-423b0473b3a9","system_id":"levelo_inurba_marseille","lat":43.295688,"lon":5.375203,"is_reserved":false,"is_disabled":true,"rental_uris":{"android":"levelo://app?vid=424763cc-a0bf-4af1-8d08-423b0473b3a9","ios":"levelo://app?vid=424763cc-a0bf-4af1-8d08-423b0473b3a9"},"vehicle_type_id":"4","last_reported":1741331339,"current_range_meters":11200,"station_id":"ce4bgh92rcd13ifvqb50","pricing_plan_id":"cebpf4jnsgd1na2vs0mg"},{"bike_id":"985324b2-53ea-4df0-8c32-5d6941d2d733","system_id":"levelo_inurba_marseille","lat":43.25564,"lon":5.38243,"is_reserved":false,"is_disabled":false,"rental_uris":{"android":"levelo://app?vid=985324b2-53ea-4df0-8c32-5d6941d2d733","ios":"levelo://app?vid=985324b2-53ea-4df0-8c32-5d6941d2d733"},"vehicle_type_id":"4","last_reported":1741331339,"current_range_meters":11200,"station_id":"ce4bhih2rcd13ifvqfs0","pricing_plan_id":"cebpf4jnsgd1na2vs0mg"},{"bike_id":"c5665c41-e27b-437a-bbb0-30a4e1459d10","system_id":"levelo_inurba_marseille","lat":43.30149,"lon":5.38123,"is_reserved":false,"is_disabled":false,"rental_uris":{"android":"levelo://app?vid=c5665c41-e27b-437a-bbb0-30a4e1459d10","ios":"levelo://app?vid=c5665c41-e27b-437a-bbb0-30a4e1459d10"},"vehicle_type_id":"4","last_reported":1741331339,"current_range_meters":11200,"station_id":"ce4bgjp2rcd13ifvqbh0","pricing_plan_id":"cebpf4jnsgd1na2vs0mg"},{"bike_id":"42323b44-4776-4993-88db-08c90d643018","system_id":"levelo_inurba_marseille","lat":43.300885,"lon":5.376578,"is_reserved":false,"is_disabled":false,"rental_uris":{"android":"levelo://app?vid=42323b44-4776-4993-88db-08c90d643018","ios":"levelo://app?vid=42323b44-4776-4993-88db-08c90d643018"},"vehicle_type_id":"4","last_reported":1741331339,"current_range_meters":11200,"station_id":"","pricing_plan_id":"cebpf4jnsgd1na2vs0mg"},{"bike_id":"79c11b83-e05e-46e4-889b-720cb1fb4be9","system_id":"levelo_inurba_marseille","lat":43.24074,"lon":5.37773,"is_reserved":false,"is_disabled":false,"rental_uris":{"android":"levelo://app?vid=79c11b83-e05e-46e4-889b-720cb1fb4be9","ios":"levelo://app?vid=79c11b83-e05e-46e4-889b-720cb1fb4be9"},"vehicle_type_id":"4","last_reported":1741331339,"current_range_meters":11600,"station_id":"ce4bhnp2rcd13ifvqgvg","pricing_plan_id":"cebpf4jnsgd1na2vs0mg"},{"bike_id":"773b5bb5-136d-4c66-bac9-7348ed7bc4c5","system_id":"levelo_inurba_marseille","lat":43.2872,"lon":5.37933,"is_reserved":false,"is_disabled":false,"rental_uris":{"android":"levelo://app?vid=773b5bb5-136d-4c66-bac9-7348ed7bc4c5","ios":"levelo://app?vid=773b5bb5-136d-4c66-bac9-7348ed7bc4c5"},"vehicle_type_id":"4","last_reported":1741331339,"current_range_meters":11200,"station_id":"ce4bh9p2rcd13ifvqec0","pricing_plan_id":"cebpf4jnsgd1na2vs0mg"},{"bike_id":"5bf2fb3c-30ac-4ff1-beb5-e66f3b7aee41","system_id":"levelo_inurba_marseille","lat":43.3235,"lon":5.38876,"is_reserved":false,"is_disabled":false,"rental_uris":{"android":"levelo://app?vid=5bf2fb3c-30ac-4ff1-beb5-e66f3b7aee41","ios":"levelo://app?vid=5bf2fb3c-30ac-4ff1-beb5-e66f3b7aee41"},"vehicle_type_id":"4","last_reported":1741331339,"current_range_meters":11600,"station_id":"ce4bhqp2rcd13ifvqhog","pricing_plan_id":"cebpf4jnsgd1na2vs0mg"},{"bike_id":"6a1366c1-41ed-4dda-b62f-b12cda709bc4","system_id":"levelo_inurba_marseille","lat":43.323595,"lon":5.388935,"is_reserved":false,"is_disabled":false,"rental_uris":{"android":"levelo://app?vid=6a1366c1-41ed-4dda-b62f-b12cda709bc4","ios":"levelo://app?vid=6a1366c1-41ed-4dda-b62f-b12cda709bc4"},"vehicle_type_id":"4","last_reported":1741331339,"current_range_meters":12000,"station_id":"ce4bhqp2rcd13ifvqhog","pricing_plan_id":"cebpf4jnsgd1na2vs0mg"},{"bike_id":"88cb71c2-f810-492c-9903-50499df632ec","system_id":"levelo_inurba_marseille","lat":43.2903,"lon":5.38663,"is_reserved":false,"is_disabled":false,"rental_uris":{"android":"levelo://app?vid=88cb71c2-f810-492c-9903-50499df632ec","ios":"levelo://app?vid=88cb71c2-f810-492c-9903-50499df632ec"},"vehicle_type_id":"4","last_reported":1741331339,"current_range_meters":11600,"station_id":"ce4bh4p2rcd13ifvqe0g","pricing_plan_id":"cebpf4jnsgd1na2vs0mg"},{"bike_id":"ce0b824b-7f76-40e8-a9e1-18f27192fc1f","system_id":"levelo_inurba_marseille","lat":43.24076,"lon":5.37771,"is_reserved":false,"is_disabled":false,"rental_uris":{"android":"levelo://app?vid=ce0b824b-7f76-40e8-a9e1-18f27192fc1f","ios":"levelo://app?vid=ce0b824b-7f76-40e8-a9e1-18f27192fc1f"},"vehicle_type_id":"4","last_reported":1741331339,"current_range_meters":12000,"station_id":"ce4bhnp2rcd13ifvqgvg","pricing_plan_id":"cebpf4jnsgd1na2vs0mg"},{"bike_id":"6521f9ef-1412-4e58-b22a-4f787c47857d","system_id":"levelo_inurba_marseille","lat":43.28467,"lon":5.35883,"is_reserved":false,"is_disabled":false,"rental_uris":{"android":"levelo://app?vid=6521f9ef-1412-4e58-b22a-4f787c47857d","ios":"levelo://app?vid=6521f9ef-1412-4e58-b22a-4f787c47857d"},"vehicle_type_id":"4","last_reported":1741331339,"current_range_meters":12000,"station_id":"ce4bhah2rcd13ifvqei0","pricing_plan_id":"cebpf4jnsgd1na2vs0mg"},{"bike_id":"c8ddc6ab-493e-48d6-b49c-df6a13f9d385","system_id":"levelo_inurba_marseille","lat":43.27486,"lon":5.42475,"is_reserved":false,"is_disabled":false,"rental_uris":{"android":"levelo://app?vid=c8ddc6ab-493e-48d6-b49c-df6a13f9d385","ios":"levelo://app?vid=c8ddc6ab-493e-48d6-b49c-df6a13f9d385"},"vehicle_type_id":"4","last_reported":1741331339,"current_range_meters":12000,"station_id":"ce4bhn92rcd13ifvqgrg","pricing_plan_id":"cebpf4jnsgd1na2vs0mg"},{"bike_id":"daa48c53-c5de-46aa-94fc-655cbd710c8c","system_id":"levelo_inurba_marseille","lat":43.22941,"lon":5.35376,"is_reserved":false,"is_disabled":false,"rental_uris":{"android":"levelo://app?vid=daa48c53-c5de-46aa-94fc-655cbd710c8c","ios":"levelo://app?vid=daa48c53-c5de-46aa-94fc-655cbd710c8c"},"vehicle_type_id":"4","last_reported":1741331339,"current_range_meters":12000,"station_id":"cpo3532slgdg3j2ikp40","pricing_plan_id":"cebpf4jnsgd1na2vs0mg"},{"bike_id":"693db7cd-c1ad-4554-a554-5ae5efa16a2d","system_id":"levelo_inurba_marseille","lat":43.24171,"lon":5.39739,"is_reserved":false,"is_disabled":false,"rental_uris":{"android":"levelo://app?vid=693db7cd-c1ad-4554-a554-5ae5efa16a2d","ios":"levelo://app?vid=693db7cd-c1ad-4554-a554-5ae5efa16a2d"},"vehicle_type_id":"4","last_reported":1741331339,"current_range_meters":12400,"station_id":"ce4bhn12rcd13ifvqgpg","pricing_plan_id":"cebpf4jnsgd1na2vs0mg"},{"bike_id":"37c795b7-c172-41a1-a38f-2f25494fb3e3","system_id":"levelo_inurba_marseille","lat":43.2594,"lon":5.40909,"is_reserved":false,"is_disabled":false,"rental_uris":{"android":"levelo://app?vid=37c795b7-c172-41a1-a38f-2f25494fb3e3","ios":"levelo://app?vid=37c795b7-c172-41a1-a38f-2f25494fb3e3"},"vehicle_type_id":"4","last_reported":1741331339,"current_range_meters":12400,"station_id":"ce4bhm92rcd13ifvqglg","pricing_plan_id":"cebpf4jnsgd1na2vs0mg"},{"bike_id":"5ba22cb2-6d7a-4a0c-92d4-89adcbc8752e","system_id":"levelo_inurba_marseille","lat":43.25011,"lon":5.38939,"is_reserved":false,"is_disabled":false,"rental_uris":{"android":"levelo://app?vid=5ba22cb2-6d7a-4a0c-92d4-89adcbc8752e","ios":"levelo://app?vid=5ba22cb2-6d7a-4a0c-92d4-89adcbc8752e"},"vehicle_type_id":"4","last_reported":1741331339,"current_range_meters":12400,"station_id":"ce4bhgp2rcd13ifvqfd0","pricing_plan_id":"cebpf4jnsgd1na2vs0mg"},{"bike_id":"d0a9e0b6-7460-48af-b167-fa241d6b44c3","system_id":"levelo_inurba_marseille","lat":43.32083,"lon":5.36804,"is_reserved":false,"is_disabled":false,"rental_uris":{"android":"levelo://app?vid=d0a9e0b6-7460-48af-b167-fa241d6b44c3","ios":"levelo://app?vid=d0a9e0b6-7460-48af-b167-fa241d6b44c3"},"vehicle_type_id":"4","last_reported":1741331339,"current_range_meters":12400,"station_id":"ce4bhrh2rcd13ifvqhug","pricing_plan_id":"cebpf4jnsgd1na2vs0mg"},{"bike_id":"af64aab6-b0ec-4322-8958-8e2433b8de14","system_id":"levelo_inurba_marseille","lat":43.24076,"lon":5.37751,"is_reserved":false,"is_disabled":false,"rental_uris":{"android":"levelo://app?vid=af64aab6-b0ec-4322-8958-8e2433b8de14","ios":"levelo://app?vid=af64aab6-b0ec-4322-8958-8e2433b8de14"},"vehicle_type_id":"4","last_reported":1741331339,"current_range_meters":12400,"station_id":"ce4bhnp2rcd13ifvqgvg","pricing_plan_id":"cebpf4jnsgd1na2vs0mg"},{"bike_id":"e2c9a10f-d165-47fa-bcc3-3b72ae9367ad","system_id":"levelo_inurba_marseille","lat":43.23185,"lon":5.399811,"is_reserved":false,"is_disabled":false,"rental_uris":{"android":"levelo://app?vid=e2c9a10f-d165-47fa-bcc3-3b72ae9367ad","ios":"levelo://app?vid=e2c9a10f-d165-47fa-bcc3-3b72ae9367ad"},"vehicle_type_id":"4","last_reported":1741331339,"current_range_meters":12800,"station_id":"ce4bhn12rcd13ifvqgqg","pricing_plan_id":"cebpf4jnsgd1na2vs0mg"},{"bike_id":"c05e10c0-ab92-4e55-b3d6-0f34ded537e1","system_id":"levelo_inurba_marseille","lat":43.24639,"lon":5.38902,"is_reserved":false,"is_disabled":false,"rental_uris":{"android":"levelo://app?vid=c05e10c0-ab92-4e55-b3d6-0f34ded537e1","ios":"levelo://app?vid=c05e10c0-ab92-4e55-b3d6-0f34ded537e1"},"vehicle_type_id":"4","last_reported":1741331339,"current_range_meters":12800,"station_id":"ce4bhg12rcd13ifvqf60","pricing_plan_id":"cebpf4jnsgd1na2vs0mg"},{"bike_id":"b9e69836-6e64-4faf-a758-56de5772fa43","system_id":"levelo_inurba_marseille","lat":43.30089,"lon":5.39067,"is_reserved":false,"is_disabled":false,"rental_uris":{"android":"levelo://app?vid=b9e69836-6e64-4faf-a758-56de5772fa43","ios":"levelo://app?vid=b9e69836-6e64-4faf-a758-56de5772fa43"},"vehicle_type_id":"4","last_reported":1741331339,"current_range_meters":12400,"station_id":"ce4bh192rcd13ifvqdb0","pricing_plan_id":"cebpf4jnsgd1na2vs0mg"},{"bike_id":"7807362e-06b5-4551-9e38-4b632a5a6c8a","system_id":"levelo_inurba_marseille","lat":43.2937,"lon":5.37821,"is_reserved":false,"is_disabled":false,"rental_uris":{"android":"levelo://app?vid=7807362e-06b5-4551-9e38-4b632a5a6c8a","ios":"levelo://app?vid=7807362e-06b5-4551-9e38-4b632a5a6c8a"},"vehicle_type_id":"4","last_reported":1741331339,"current_range_meters":12400,"station_id":"ce4bgjh2rcd13ifvqbf0","pricing_plan_id":"cebpf4jnsgd1na2vs0mg"},{"bike_id":"7b32d29c-04ab-40cc-89bd-e4d5d1b941a2","system_id":"levelo_inurba_marseille","lat":43.31372,"lon":5.36688,"is_reserved":false,"is_disabled":false,"rental_uris":{"android":"levelo://app?vid=7b32d29c-04ab-40cc-89bd-e4d5d1b941a2","ios":"levelo://app?vid=7b32d29c-04ab-40cc-89bd-e4d5d1b941a2"},"vehicle_type_id":"4","last_reported":1741331339,"current_range_meters":12800,"station_id":"ce4bgr92rcd13ifvqc6g","pricing_plan_id":"cebpf4jnsgd1na2vs0mg"},{"bike_id":"0c20e9a6-6f7b-426e-8a39-be58ccd08fb0","system_id":"levelo_inurba_marseille","lat":43.27505,"lon":5.42455,"is_reserved":false,"is_disabled":false,"rental_uris":{"android":"levelo://app?vid=0c20e9a6-6f7b-426e-8a39-be58ccd08fb0","ios":"levelo://app?vid=0c20e9a6-6f7b-426e-8a39-be58ccd08fb0"},"vehicle_type_id":"4","last_reported":1741331339,"current_range_meters":13600,"station_id":"ce4bhn92rcd13ifvqgrg","pricing_plan_id":"cebpf4jnsgd1na2vs0mg"},{"bike_id":"1fdb59cc-3d90-4dea-8386-134594c7a4e7","system_id":"levelo_inurba_marseille","lat":43.2795,"lon":5.38778,"is_reserved":false,"is_disabled":false,"rental_uris":{"android":"levelo://app?vid=1fdb59cc-3d90-4dea-8386-134594c7a4e7","ios":"levelo://app?vid=1fdb59cc-3d90-4dea-8386-134594c7a4e7"},"vehicle_type_id":"4","last_reported":1741331339,"current_range_meters":13600,"station_id":"ce4bhg12rcd13ifvqf80","pricing_plan_id":"cebpf4jnsgd1na2vs0mg"},{"bike_id":"3949e300-2dbd-4203-aa58-eef0b1b0c774","system_id":"levelo_inurba_marseille","lat":43.33775,"lon":5.37444,"is_reserved":false,"is_disabled":false,"rental_uris":{"android":"levelo://app?vid=3949e300-2dbd-4203-aa58-eef0b1b0c774","ios":"levelo://app?vid=3949e300-2dbd-4203-aa58-eef0b1b0c774"},"vehicle_type_id":"4","last_reported":1741331339,"current_range_meters":13600,"station_id":"","pricing_plan_id":"cebpf4jnsgd1na2vs0mg"},{"bike_id":"213efe1f-609b-43e6-8b3e-e59557fa271f","system_id":"levelo_inurba_marseille","lat":43.30584,"lon":5.39358,"is_reserved":false,"is_disabled":false,"rental_uris":{"android":"levelo://app?vid=213efe1f-609b-43e6-8b3e-e59557fa271f","ios":"levelo://app?vid=213efe1f-609b-43e6-8b3e-e59557fa271f"},"vehicle_type_id":"4","last_reported":1741331339,"current_range_meters":13600,"station_id":"ce4bh0p2rcd13ifvqd80","pricing_plan_id":"cebpf4jnsgd1na2vs0mg"},{"bike_id":"d115ffde-ee6a-4349-8e49-5426881b2823","system_id":"levelo_inurba_marseille","lat":43.29786,"lon":5.38107,"is_reserved":false,"is_disabled":false,"rental_uris":{"android":"levelo://app?vid=d115ffde-ee6a-4349-8e49-5426881b2823","ios":"levelo://app?vid=d115ffde-ee6a-4349-8e49-5426881b2823"},"vehicle_type_id":"4","last_reported":1741331339,"current_range_meters":13600,"station_id":"ce4bgip2rcd13ifvqbb0","pricing_plan_id":"cebpf4jnsgd1na2vs0mg"},{"bike_id":"ca9d1345-391c-4bf2-82f1-c5215f5d8a0c","system_id":"levelo_inurba_marseille","lat":43.29043,"lon":5.39978,"is_reserved":false,"is_disabled":false,"rental_uris":{"android":"levelo://app?vid=ca9d1345-391c-4bf2-82f1-c5215f5d8a0c","ios":"levelo://app?vid=ca9d1345-391c-4bf2-82f1-c5215f5d8a0c"},"vehicle_type_id":"4","last_reported":1741331339,"current_range_meters":14000,"station_id":"ce4bh392rcd13ifvqdm0","pricing_plan_id":"cebpf4jnsgd1na2vs0mg"},{"bike_id":"6d7e0450-89ad-4e81-9f4f-61db2e3e009a","system_id":"levelo_inurba_marseille","lat":43.298978,"lon":5.436578,"is_reserved":false,"is_disabled":false,"rental_uris":{"android":"levelo://app?vid=6d7e0450-89ad-4e81-9f4f-61db2e3e009a","ios":"levelo://app?vid=6d7e0450-89ad-4e81-9f4f-61db2e3e009a"},"vehicle_type_id":"4","last_reported":1741331339,"current_range_meters":14000,"station_id":"ce4bhpp2rcd13ifvqhfg","pricing_plan_id":"cebpf4jnsgd1na2vs0mg"},{"bike_id":"84e678c5-96d2-4175-b607-ab5a9697894a","system_id":"levelo_inurba_marseille","lat":43.31221,"lon":5.36855,"is_reserved":false,"is_disabled":true,"rental_uris":{"android":"levelo://app?vid=84e678c5-96d2-4175-b607-ab5a9697894a","ios":"levelo://app?vid=84e678c5-96d2-4175-b607-ab5a9697894a"},"vehicle_type_id":"4","last_reported":1741331339,"current_range_meters":14000,"station_id":"ce4bgl92rcd13ifvqbq0","pricing_plan_id":"cebpf4jnsgd1na2vs0mg"},{"bike_id":"563c9629-05cf-49ef-8ac6-4e5ef18e4f1d","system_id":"levelo_inurba_marseille","lat":43.25093,"lon":5.39528,"is_reserved":false,"is_disabled":false,"rental_uris":{"android":"levelo://app?vid=563c9629-05cf-49ef-8ac6-4e5ef18e4f1d","ios":"levelo://app?vid=563c9629-05cf-49ef-8ac6-4e5ef18e4f1d"},"vehicle_type_id":"4","last_reported":1741331339,"current_range_meters":14000,"station_id":"ce4bhm12rcd13ifvqgkg","pricing_plan_id":"cebpf4jnsgd1na2vs0mg"},{"bike_id":"9efbff90-6380-4e58-8359-a0c4a1eca8c5","system_id":"levelo_inurba_marseille","lat":43.32373,"lon":5.38895,"is_reserved":false,"is_disabled":false,"rental_uris":{"android":"levelo://app?vid=9efbff90-6380-4e58-8359-a0c4a1eca8c5","ios":"levelo://app?vid=9efbff90-6380-4e58-8359-a0c4a1eca8c5"},"vehicle_type_id":"4","last_reported":1741331339,"current_range_meters":14000,"station_id":"ce4bhqp2rcd13ifvqhog","pricing_plan_id":"cebpf4jnsgd1na2vs0mg"},{"bike_id":"f224b4fd-9d30-4df7-9212-f222a7538fbb","system_id":"levelo_inurba_marseille","lat":43.31331,"lon":5.36723,"is_reserved":false,"is_disabled":false,"rental_uris":{"android":"levelo://app?vid=f224b4fd-9d30-4df7-9212-f222a7538fbb","ios":"levelo://app?vid=f224b4fd-9d30-4df7-9212-f222a7538fbb"},"vehicle_type_id":"4","last_reported":1741331339,"current_range_meters":14000,"station_id":"ce4bgr92rcd13ifvqc6g","pricing_plan_id":"cebpf4jnsgd1na2vs0mg"},{"bike_id":"f7952dd2-c24a-4d7d-a1a7-9cb40fd11b1c","system_id":"levelo_inurba_marseille","lat":43.30889,"lon":5.39649,"is_reserved":false,"is_disabled":false,"rental_uris":{"android":"levelo://app?vid=f7952dd2-c24a-4d7d-a1a7-9cb40fd11b1c","ios":"levelo://app?vid=f7952dd2-c24a-4d7d-a1a7-9cb40fd11b1c"},"vehicle_type_id":"4","last_reported":1741331339,"current_range_meters":14400,"station_id":"ce4bh012rcd13ifvqcv0","pricing_plan_id":"cebpf4jnsgd1na2vs0mg"},{"bike_id":"04b8010c-1d8e-4bbc-a882-fcda2e9bfe6b","system_id":"levelo_inurba_marseille","lat":43.284189,"lon":5.375222,"is_reserved":false,"is_disabled":false,"rental_uris":{"android":"levelo://app?vid=04b8010c-1d8e-4bbc-a882-fcda2e9bfe6b","ios":"levelo://app?vid=04b8010c-1d8e-4bbc-a882-fcda2e9bfe6b"},"vehicle_type_id":"4","last_reported":1741331339,"current_range_meters":14400,"station_id":"ce4bh412rcd13ifvqds0","pricing_plan_id":"cebpf4jnsgd1na2vs0mg"},{"bike_id":"0526cfc7-294a-4c9b-9466-442f591045bc","system_id":"levelo_inurba_marseille","lat":43.2319,"lon":5.3999,"is_reserved":false,"is_disabled":false,"rental_uris":{"android":"levelo://app?vid=0526cfc7-294a-4c9b-9466-442f591045bc","ios":"levelo://app?vid=0526cfc7-294a-4c9b-9466-442f591045bc"},"vehicle_type_id":"4","last_reported":1741331339,"current_range_meters":14400,"station_id":"ce4bhn12rcd13ifvqgqg","pricing_plan_id":"cebpf4jnsgd1na2vs0mg"},{"bike_id":"c67d6675-0538-4597-b725-fbd5f4726d8c","system_id":"levelo_inurba_marseille","lat":43.25113,"lon":5.40324,"is_reserved":false,"is_disabled":false,"rental_uris":{"android":"levelo://app?vid=c67d6675-0538-4597-b725-fbd5f4726d8c","ios":"levelo://app?vid=c67d6675-0538-4597-b725-fbd5f4726d8c"},"vehicle_type_id":"4","last_reported":1741331339,"current_range_meters":14400,"station_id":"ce4bhlh2rcd13ifvqgig","pricing_plan_id":"cebpf4jnsgd1na2vs0mg"},{"bike_id":"77daa35b-57ec-4c1c-a509-a189405cb499","system_id":"levelo_inurba_marseille","lat":43.28943,"lon":5.39635,"is_reserved":false,"is_disabled":false,"rental_uris":{"android":"levelo://app?vid=77daa35b-57ec-4c1c-a509-a189405cb499","ios":"levelo://app?vid=77daa35b-57ec-4c1c-a509-a189405cb499"},"vehicle_type_id":"4","last_reported":1741331339,"current_range_meters":14400,"station_id":"ce4bh3h2rcd13ifvqdn0","pricing_plan_id":"cebpf4jnsgd1na2vs0mg"},{"bike_id":"9f81a8d7-3e2b-4007-9464-c777fd8529ba","system_id":"levelo_inurba_marseille","lat":43.330186,"lon":5.390606,"is_reserved":false,"is_disabled":true,"rental_uris":{"android":"levelo://app?vid=9f81a8d7-3e2b-4007-9464-c777fd8529ba","ios":"levelo://app?vid=9f81a8d7-3e2b-4007-9464-c777fd8529ba"},"vehicle_type_id":"4","last_reported":1741331339,"current_range_meters":14400,"station_id":"ce4bhr92rcd13ifvqhrg","pricing_plan_id":"cebpf4jnsgd1na2vs0mg"},{"bike_id":"5f598be0-e162-4184-948a-4d84c2e78910","system_id":"levelo_inurba_marseille","lat":43.241731,"lon":5.39736,"is_reserved":false,"is_disabled":false,"rental_uris":{"android":"levelo://app?vid=5f598be0-e162-4184-948a-4d84c2e78910","ios":"levelo://app?vid=5f598be0-e162-4184-948a-4d84c2e78910"},"vehicle_type_id":"4","last_reported":1741331339,"current_range_meters":14400,"station_id":"ce4bhn12rcd13ifvqgpg","pricing_plan_id":"cebpf4jnsgd1na2vs0mg"},{"bike_id":"62c4c10f-4cee-4f4d-a248-1e792569408d","system_id":"levelo_inurba_marseille","lat":43.31241,"lon":5.40215,"is_reserved":false,"is_disabled":false,"rental_uris":{"android":"levelo://app?vid=62c4c10f-4cee-4f4d-a248-1e792569408d","ios":"levelo://app?vid=62c4c10f-4cee-4f4d-a248-1e792569408d"},"vehicle_type_id":"4","last_reported":1741331339,"current_range_meters":14400,"station_id":"ce4bh092rcd13ifvqd30","pricing_plan_id":"cebpf4jnsgd1na2vs0mg"},{"bike_id":"e58196a3-c83d-4c16-b7ed-3a1d00c920bb","system_id":"levelo_inurba_marseille","lat":43.30261,"lon":5.39418,"is_reserved":false,"is_disabled":false,"rental_uris":{"android":"levelo://app?vid=e58196a3-c83d-4c16-b7ed-3a1d00c920bb","ios":"levelo://app?vid=e58196a3-c83d-4c16-b7ed-3a1d00c920bb"},"vehicle_type_id":"4","last_reported":1741331339,"current_range_meters":14800,"station_id":"ce4bh0p2rcd13ifvqd70","pricing_plan_id":"cebpf4jnsgd1na2vs0mg"},{"bike_id":"34688b44-97e8-4ade-aad9-fb00f0944501","system_id":"levelo_inurba_marseille","lat":43.27453,"lon":5.43555,"is_reserved":false,"is_disabled":false,"rental_uris":{"android":"levelo://app?vid=34688b44-97e8-4ade-aad9-fb00f0944501","ios":"levelo://app?vid=34688b44-97e8-4ade-aad9-fb00f0944501"},"vehicle_type_id":"4","last_reported":1741331339,"current_range_meters":14800,"station_id":"","pricing_plan_id":"cebpf4jnsgd1na2vs0mg"},{"bike_id":"9aa6086b-fc50-400a-b9e4-74cbdc0982e3","system_id":"levelo_inurba_marseille","lat":43.28939,"lon":5.39627,"is_reserved":false,"is_disabled":false,"rental_uris":{"android":"levelo://app?vid=9aa6086b-fc50-400a-b9e4-74cbdc0982e3","ios":"levelo://app?vid=9aa6086b-fc50-400a-b9e4-74cbdc0982e3"},"vehicle_type_id":"4","last_reported":1741331339,"current_range_meters":14400,"station_id":"ce4bh3h2rcd13ifvqdn0","pricing_plan_id":"cebpf4jnsgd1na2vs0mg"},{"bike_id":"0e674cb4-f37d-4bd5-aaff-7ec953d386c6","system_id":"levelo_inurba_marseille","lat":43.241743,"lon":5.363985,"is_reserved":false,"is_disabled":false,"rental_uris":{"android":"levelo://app?vid=0e674cb4-f37d-4bd5-aaff-7ec953d386c6","ios":"levelo://app?vid=0e674cb4-f37d-4bd5-aaff-7ec953d386c6"},"vehicle_type_id":"4","last_reported":1741331339,"current_range_meters":14800,"station_id":"cpo36qri1sfpv3e86is0","pricing_plan_id":"cebpf4jnsgd1na2vs0mg"},{"bike_id":"05d49363-3170-4671-8932-265ef297710e","system_id":"levelo_inurba_marseille","lat":43.298921,"lon":5.436594,"is_reserved":false,"is_disabled":false,"rental_uris":{"android":"levelo://app?vid=05d49363-3170-4671-8932-265ef297710e","ios":"levelo://app?vid=05d49363-3170-4671-8932-265ef297710e"},"vehicle_type_id":"4","last_reported":1741331339,"current_range_meters":15200,"station_id":"ce4bhpp2rcd13ifvqhfg","pricing_plan_id":"cebpf4jnsgd1na2vs0mg"},{"bike_id":"3c94b931-3649-4c69-bf1c-99f8fd15e284","system_id":"levelo_inurba_marseille","lat":43.32492,"lon":5.36571,"is_reserved":false,"is_disabled":false,"rental_uris":{"android":"levelo://app?vid=3c94b931-3649-4c69-bf1c-99f8fd15e284","ios":"levelo://app?vid=3c94b931-3649-4c69-bf1c-99f8fd15e284"},"vehicle_type_id":"4","last_reported":1741331339,"current_range_meters":15200,"station_id":"ce4bhs12rcd13ifvqhvg","pricing_plan_id":"cebpf4jnsgd1na2vs0mg"},{"bike_id":"6ae77951-a909-4dfa-a933-35324bca41b7","system_id":"levelo_inurba_marseille","lat":43.250114,"lon":5.389109,"is_reserved":false,"is_disabled":false,"rental_uris":{"android":"levelo://app?vid=6ae77951-a909-4dfa-a933-35324bca41b7","ios":"levelo://app?vid=6ae77951-a909-4dfa-a933-35324bca41b7"},"vehicle_type_id":"4","last_reported":1741331339,"current_range_meters":15200,"station_id":"ce4bhgp2rcd13ifvqfd0","pricing_plan_id":"cebpf4jnsgd1na2vs0mg"},{"bike_id":"7372ba19-4949-453e-a20c-490c28817add","system_id":"levelo_inurba_marseille","lat":43.33764,"lon":5.37455,"is_reserved":false,"is_disabled":false,"rental_uris":{"android":"levelo://app?vid=7372ba19-4949-453e-a20c-490c28817add","ios":"levelo://app?vid=7372ba19-4949-453e-a20c-490c28817add"},"vehicle_type_id":"4","last_reported":1741331339,"current_range_meters":16000,"station_id":"","pricing_plan_id":"cebpf4jnsgd1na2vs0mg"},{"bike_id":"c855e5cf-1a15-4771-b935-d4bd4b0c6e81","system_id":"levelo_inurba_marseille","lat":43.296,"lon":5.38143,"is_reserved":false,"is_disabled":false,"rental_uris":{"android":"levelo://app?vid=c855e5cf-1a15-4771-b935-d4bd4b0c6e81","ios":"levelo://app?vid=c855e5cf-1a15-4771-b935-d4bd4b0c6e81"},"vehicle_type_id":"4","last_reported":1741331339,"current_range_meters":16000,"station_id":"ce4bgl12rcd13ifvqbo0","pricing_plan_id":"cebpf4jnsgd1na2vs0mg"},{"bike_id":"e9dd5106-063f-4cb9-843d-a241e6a91681","system_id":"levelo_inurba_marseille","lat":43.31083,"lon":5.42452,"is_reserved":false,"is_disabled":false,"rental_uris":{"android":"levelo://app?vid=e9dd5106-063f-4cb9-843d-a241e6a91681","ios":"levelo://app?vid=e9dd5106-063f-4cb9-843d-a241e6a91681"},"vehicle_type_id":"4","last_reported":1741331339,"current_range_meters":16000,"station_id":"ce4bhp92rcd13ifvqhag","pricing_plan_id":"cebpf4jnsgd1na2vs0mg"},{"bike_id":"60dbdfe4-0290-459f-80b1-32d771207de8","system_id":"levelo_inurba_marseille","lat":43.250068,"lon":5.389312,"is_reserved":false,"is_disabled":false,"rental_uris":{"android":"levelo://app?vid=60dbdfe4-0290-459f-80b1-32d771207de8","ios":"levelo://app?vid=60dbdfe4-0290-459f-80b1-32d771207de8"},"vehicle_type_id":"4","last_reported":1741331339,"current_range_meters":16000,"station_id":"ce4bhgp2rcd13ifvqfd0","pricing_plan_id":"cebpf4jnsgd1na2vs0mg"},{"bike_id":"e524bcef-a391-41b2-bad2-673eae53ea51","system_id":"levelo_inurba_marseille","lat":43.31703,"lon":5.43711,"is_reserved":false,"is_disabled":false,"rental_uris":{"android":"levelo://app?vid=e524bcef-a391-41b2-bad2-673eae53ea51","ios":"levelo://app?vid=e524bcef-a391-41b2-bad2-673eae53ea51"},"vehicle_type_id":"4","last_reported":1741331339,"current_range_meters":16000,"station_id":"ce4bhp92rcd13ifvqhcg","pricing_plan_id":"cebpf4jnsgd1na2vs0mg"},{"bike_id":"2f80fa14-45f3-40fd-8835-a76e0d67388f","system_id":"levelo_inurba_marseille","lat":43.2955,"lon":5.42301,"is_reserved":false,"is_disabled":false,"rental_uris":{"android":"levelo://app?vid=2f80fa14-45f3-40fd-8835-a76e0d67388f","ios":"levelo://app?vid=2f80fa14-45f3-40fd-8835-a76e0d67388f"},"vehicle_type_id":"4","last_reported":1741331339,"current_range_meters":16000,"station_id":"ce4bhph2rcd13ifvqhdg","pricing_plan_id":"cebpf4jnsgd1na2vs0mg"},{"bike_id":"dac09d9e-9ab6-4c54-8fe2-7fcfc9203869","system_id":"levelo_inurba_marseille","lat":43.265518,"lon":5.372963,"is_reserved":false,"is_disabled":true,"rental_uris":{"android":"levelo://app?vid=dac09d9e-9ab6-4c54-8fe2-7fcfc9203869","ios":"levelo://app?vid=dac09d9e-9ab6-4c54-8fe2-7fcfc9203869"},"vehicle_type_id":"4","last_reported":1741331339,"current_range_meters":16000,"station_id":"ce4bhg12rcd13ifvqf70","pricing_plan_id":"cebpf4jnsgd1na2vs0mg"},{"bike_id":"db982742-15c9-486e-b19b-3e788fa1ce2e","system_id":"levelo_inurba_marseille","lat":43.30135,"lon":5.381,"is_reserved":false,"is_disabled":false,"rental_uris":{"android":"levelo://app?vid=db982742-15c9-486e-b19b-3e788fa1ce2e","ios":"levelo://app?vid=db982742-15c9-486e-b19b-3e788fa1ce2e"},"vehicle_type_id":"4","last_reported":1741331339,"current_range_meters":16000,"station_id":"ce4bgjp2rcd13ifvqbh0","pricing_plan_id":"cebpf4jnsgd1na2vs0mg"},{"bike_id":"86e03eb4-e2de-4ef5-a878-5ebd12de3fa7","system_id":"levelo_inurba_marseille","lat":43.23073,"lon":5.35511,"is_reserved":false,"is_disabled":true,"rental_uris":{"android":"levelo://app?vid=86e03eb4-e2de-4ef5-a878-5ebd12de3fa7","ios":"levelo://app?vid=86e03eb4-e2de-4ef5-a878-5ebd12de3fa7"},"vehicle_type_id":"4","last_reported":1741331339,"current_range_meters":16000,"station_id":"cpo3342slgdg3j2ifvpg","pricing_plan_id":"cebpf4jnsgd1na2vs0mg"},{"bike_id":"e3936ecd-bc2f-4535-ae1e-23167a131007","system_id":"levelo_inurba_marseille","lat":43.334165,"lon":5.400626,"is_reserved":false,"is_disabled":false,"rental_uris":{"android":"levelo://app?vid=e3936ecd-bc2f-4535-ae1e-23167a131007","ios":"levelo://app?vid=e3936ecd-bc2f-4535-ae1e-23167a131007"},"vehicle_type_id":"4","last_reported":1741331339,"current_range_meters":16000,"station_id":"","pricing_plan_id":"cebpf4jnsgd1na2vs0mg"},{"bike_id":"21a97c5e-42a1-42dc-8f0b-c09a56ace1b8","system_id":"levelo_inurba_marseille","lat":43.30376,"lon":5.42488,"is_reserved":false,"is_disabled":false,"rental_uris":{"android":"levelo://app?vid=21a97c5e-42a1-42dc-8f0b-c09a56ace1b8","ios":"levelo://app?vid=21a97c5e-42a1-42dc-8f0b-c09a56ace1b8"},"vehicle_type_id":"4","last_reported":1741331339,"current_range_meters":16000,"station_id":"","pricing_plan_id":"cebpf4jnsgd1na2vs0mg"},{"bike_id":"ad9a8406-e1b8-4c43-83e7-6ca47ad1435f","system_id":"levelo_inurba_marseille","lat":43.249995,"lon":5.389326,"is_reserved":false,"is_disabled":false,"rental_uris":{"android":"levelo://app?vid=ad9a8406-e1b8-4c43-83e7-6ca47ad1435f","ios":"levelo://app?vid=ad9a8406-e1b8-4c43-83e7-6ca47ad1435f"},"vehicle_type_id":"4","last_reported":1741331339,"current_range_meters":16000,"station_id":"ce4bhgp2rcd13ifvqfd0","pricing_plan_id":"cebpf4jnsgd1na2vs0mg"},{"bike_id":"701c9b50-7d90-454f-b107-1ba6dcd011a4","system_id":"levelo_inurba_marseille","lat":43.30976,"lon":5.3906,"is_reserved":false,"is_disabled":false,"rental_uris":{"android":"levelo://app?vid=701c9b50-7d90-454f-b107-1ba6dcd011a4","ios":"levelo://app?vid=701c9b50-7d90-454f-b107-1ba6dcd011a4"},"vehicle_type_id":"4","last_reported":1741331339,"current_range_meters":16000,"station_id":"ce4bgup2rcd13ifvqco0","pricing_plan_id":"cebpf4jnsgd1na2vs0mg"},{"bike_id":"cc0cce90-0f7d-43a8-abe9-5fb0f372a06d","system_id":"levelo_inurba_marseille","lat":43.27229,"lon":5.38466,"is_reserved":false,"is_disabled":false,"rental_uris":{"android":"levelo://app?vid=cc0cce90-0f7d-43a8-abe9-5fb0f372a06d","ios":"levelo://app?vid=cc0cce90-0f7d-43a8-abe9-5fb0f372a06d"},"vehicle_type_id":"4","last_reported":1741331339,"current_range_meters":16400,"station_id":"","pricing_plan_id":"cebpf4jnsgd1na2vs0mg"},{"bike_id":"fb9fe5c8-244f-47c3-aa5b-0ac4cf40dbfe","system_id":"levelo_inurba_marseille","lat":43.24078,"lon":5.37756,"is_reserved":false,"is_disabled":false,"rental_uris":{"android":"levelo://app?vid=fb9fe5c8-244f-47c3-aa5b-0ac4cf40dbfe","ios":"levelo://app?vid=fb9fe5c8-244f-47c3-aa5b-0ac4cf40dbfe"},"vehicle_type_id":"4","last_reported":1741331339,"current_range_meters":16400,"station_id":"ce4bhnp2rcd13ifvqgvg","pricing_plan_id":"cebpf4jnsgd1na2vs0mg"},{"bike_id":"64aee591-3971-4972-97c5-3fe3d3278826","system_id":"levelo_inurba_marseille","lat":43.30894,"lon":5.39654,"is_reserved":false,"is_disabled":false,"rental_uris":{"android":"levelo://app?vid=64aee591-3971-4972-97c5-3fe3d3278826","ios":"levelo://app?vid=64aee591-3971-4972-97c5-3fe3d3278826"},"vehicle_type_id":"4","last_reported":1741331339,"current_range_meters":16400,"station_id":"ce4bh012rcd13ifvqcv0","pricing_plan_id":"cebpf4jnsgd1na2vs0mg"},{"bike_id":"42168c6f-35a5-43f2-8ef8-61a75051262d","system_id":"levelo_inurba_marseille","lat":43.28152,"lon":5.42635,"is_reserved":false,"is_disabled":false,"rental_uris":{"android":"levelo://app?vid=42168c6f-35a5-43f2-8ef8-61a75051262d","ios":"levelo://app?vid=42168c6f-35a5-43f2-8ef8-61a75051262d"},"vehicle_type_id":"4","last_reported":1741331339,"current_range_meters":16400,"station_id":"ce4bhnh2rcd13ifvqgug","pricing_plan_id":"cebpf4jnsgd1na2vs0mg"},{"bike_id":"db1c7047-7b9f-4b56-96ef-3b289cb537df","system_id":"levelo_inurba_marseille","lat":43.308224,"lon":5.374007,"is_reserved":false,"is_disabled":false,"rental_uris":{"android":"levelo://app?vid=db1c7047-7b9f-4b56-96ef-3b289cb537df","ios":"levelo://app?vid=db1c7047-7b9f-4b56-96ef-3b289cb537df"},"vehicle_type_id":"4","last_reported":1741331339,"current_range_meters":16400,"station_id":"","pricing_plan_id":"cebpf4jnsgd1na2vs0mg"},{"bike_id":"d43e9dcd-72bd-494d-b96a-21e13e28ab92","system_id":"levelo_inurba_marseille","lat":43.25575,"lon":5.38226,"is_reserved":false,"is_disabled":false,"rental_uris":{"android":"levelo://app?vid=d43e9dcd-72bd-494d-b96a-21e13e28ab92","ios":"levelo://app?vid=d43e9dcd-72bd-494d-b96a-21e13e28ab92"},"vehicle_type_id":"4","last_reported":1741331339,"current_range_meters":16400,"station_id":"ce4bhih2rcd13ifvqfs0","pricing_plan_id":"cebpf4jnsgd1na2vs0mg"},{"bike_id":"414eaea7-f556-4b29-a6d9-9ac09fd4dfeb","system_id":"levelo_inurba_marseille","lat":43.29795,"lon":5.38118,"is_reserved":false,"is_disabled":false,"rental_uris":{"android":"levelo://app?vid=414eaea7-f556-4b29-a6d9-9ac09fd4dfeb","ios":"levelo://app?vid=414eaea7-f556-4b29-a6d9-9ac09fd4dfeb"},"vehicle_type_id":"4","last_reported":1741331339,"current_range_meters":16400,"station_id":"ce4bgip2rcd13ifvqbb0","pricing_plan_id":"cebpf4jnsgd1na2vs0mg"},{"bike_id":"974933a1-2a83-4187-8199-8ca1052782a8","system_id":"levelo_inurba_marseille","lat":43.28936,"lon":5.39626,"is_reserved":false,"is_disabled":false,"rental_uris":{"android":"levelo://app?vid=974933a1-2a83-4187-8199-8ca1052782a8","ios":"levelo://app?vid=974933a1-2a83-4187-8199-8ca1052782a8"},"vehicle_type_id":"4","last_reported":1741331339,"current_range_meters":16400,"station_id":"ce4bh3h2rcd13ifvqdn0","pricing_plan_id":"cebpf4jnsgd1na2vs0mg"},{"bike_id":"b1d03295-5a4c-4b8b-ad8e-3dbefaa793f2","system_id":"levelo_inurba_marseille","lat":43.23198,"lon":5.35561,"is_reserved":false,"is_disabled":false,"rental_uris":{"android":"levelo://app?vid=b1d03295-5a4c-4b8b-ad8e-3dbefaa793f2","ios":"levelo://app?vid=b1d03295-5a4c-4b8b-ad8e-3dbefaa793f2"},"vehicle_type_id":"4","last_reported":1741331339,"current_range_meters":16400,"station_id":"ce4bhu92rcd13ifvqi70","pricing_plan_id":"cebpf4jnsgd1na2vs0mg"},{"bike_id":"3949cc94-1de8-4149-bb7a-c3928fdea281","system_id":"levelo_inurba_marseille","lat":43.29848,"lon":5.36291,"is_reserved":false,"is_disabled":false,"rental_uris":{"android":"levelo://app?vid=3949cc94-1de8-4149-bb7a-c3928fdea281","ios":"levelo://app?vid=3949cc94-1de8-4149-bb7a-c3928fdea281"},"vehicle_type_id":"4","last_reported":1741331339,"current_range_meters":16400,"station_id":"ce4bgpp2rcd13ifvqc3g","pricing_plan_id":"cebpf4jnsgd1na2vs0mg"},{"bike_id":"c322451e-a3ba-4821-954a-6ffcd13f1d78","system_id":"levelo_inurba_marseille","lat":43.28409,"lon":5.34988,"is_reserved":false,"is_disabled":false,"rental_uris":{"android":"levelo://app?vid=c322451e-a3ba-4821-954a-6ffcd13f1d78","ios":"levelo://app?vid=c322451e-a3ba-4821-954a-6ffcd13f1d78"},"vehicle_type_id":"4","last_reported":1741331339,"current_range_meters":16400,"station_id":"ce4bhbh2rcd13ifvqepg","pricing_plan_id":"cebpf4jnsgd1na2vs0mg"},{"bike_id":"d76af421-0970-4dc6-b28f-721015bca4dd","system_id":"levelo_inurba_marseille","lat":43.31496,"lon":5.37306,"is_reserved":false,"is_disabled":false,"rental_uris":{"android":"levelo://app?vid=d76af421-0970-4dc6-b28f-721015bca4dd","ios":"levelo://app?vid=d76af421-0970-4dc6-b28f-721015bca4dd"},"vehicle_type_id":"4","last_reported":1741331339,"current_range_meters":16400,"station_id":"ce4bgt12rcd13ifvqcd0","pricing_plan_id":"cebpf4jnsgd1na2vs0mg"},{"bike_id":"55af3ebd-261e-462a-a5c4-4805dfccf80e","system_id":"levelo_inurba_marseille","lat":43.3058,"lon":5.39371,"is_reserved":false,"is_disabled":false,"rental_uris":{"android":"levelo://app?vid=55af3ebd-261e-462a-a5c4-4805dfccf80e","ios":"levelo://app?vid=55af3ebd-261e-462a-a5c4-4805dfccf80e"},"vehicle_type_id":"4","last_reported":1741331339,"current_range_meters":16400,"station_id":"ce4bh0p2rcd13ifvqd80","pricing_plan_id":"cebpf4jnsgd1na2vs0mg"},{"bike_id":"04fc8c57-cfb8-46a1-b9c4-8e4c2d6072b4","system_id":"levelo_inurba_marseille","lat":43.32479,"lon":5.3657,"is_reserved":false,"is_disabled":false,"rental_uris":{"android":"levelo://app?vid=04fc8c57-cfb8-46a1-b9c4-8e4c2d6072b4","ios":"levelo://app?vid=04fc8c57-cfb8-46a1-b9c4-8e4c2d6072b4"},"vehicle_type_id":"4","last_reported":1741331339,"current_range_meters":16000,"station_id":"ce4bhs12rcd13ifvqhvg","pricing_plan_id":"cebpf4jnsgd1na2vs0mg"},{"bike_id":"f57f3f69-b9c6-4495-8b25-ff020cd0c112","system_id":"levelo_inurba_marseille","lat":43.270678,"lon":5.422908,"is_reserved":false,"is_disabled":false,"rental_uris":{"android":"levelo://app?vid=f57f3f69-b9c6-4495-8b25-ff020cd0c112","ios":"levelo://app?vid=f57f3f69-b9c6-4495-8b25-ff020cd0c112"},"vehicle_type_id":"4","last_reported":1741331339,"current_range_meters":16400,"station_id":"ce4bhk92rcd13ifvqgb0","pricing_plan_id":"cebpf4jnsgd1na2vs0mg"},{"bike_id":"7b28e23c-c48e-471f-bf28-0603135788eb","system_id":"levelo_inurba_marseille","lat":43.306386,"lon":5.400844,"is_reserved":false,"is_disabled":false,"rental_uris":{"android":"levelo://app?vid=7b28e23c-c48e-471f-bf28-0603135788eb","ios":"levelo://app?vid=7b28e23c-c48e-471f-bf28-0603135788eb"},"vehicle_type_id":"4","last_reported":1741331339,"current_range_meters":16400,"station_id":"ce4bh112rcd13ifvqda0","pricing_plan_id":"cebpf4jnsgd1na2vs0mg"},{"bike_id":"975fa86d-1215-4f11-9def-f80adfd3d7ee","system_id":"levelo_inurba_marseille","lat":43.25539,"lon":5.38263,"is_reserved":false,"is_disabled":false,"rental_uris":{"android":"levelo://app?vid=975fa86d-1215-4f11-9def-f80adfd3d7ee","ios":"levelo://app?vid=975fa86d-1215-4f11-9def-f80adfd3d7ee"},"vehicle_type_id":"4","last_reported":1741331339,"current_range_meters":16400,"station_id":"ce4bhih2rcd13ifvqfs0","pricing_plan_id":"cebpf4jnsgd1na2vs0mg"},{"bike_id":"d76f15d6-9c40-42dd-85d4-6e9270bd28b8","system_id":"levelo_inurba_marseille","lat":43.23153,"lon":5.43722,"is_reserved":false,"is_disabled":false,"rental_uris":{"android":"levelo://app?vid=d76f15d6-9c40-42dd-85d4-6e9270bd28b8","ios":"levelo://app?vid=d76f15d6-9c40-42dd-85d4-6e9270bd28b8"},"vehicle_type_id":"4","last_reported":1741331339,"current_range_meters":16800,"station_id":"ce4bhmp2rcd13ifvqgog","pricing_plan_id":"cebpf4jnsgd1na2vs0mg"},{"bike_id":"6129a5fa-1d83-40c2-b24a-412758f89571","system_id":"levelo_inurba_marseille","lat":43.28608,"lon":5.37069,"is_reserved":false,"is_disabled":false,"rental_uris":{"android":"levelo://app?vid=6129a5fa-1d83-40c2-b24a-412758f89571","ios":"levelo://app?vid=6129a5fa-1d83-40c2-b24a-412758f89571"},"vehicle_type_id":"4","last_reported":1741331339,"current_range_meters":16800,"station_id":"ce4bht12rcd13ifvqi60","pricing_plan_id":"cebpf4jnsgd1na2vs0mg"},{"bike_id":"1a1bdaef-d1fc-4f00-bb87-c376a5bfcccc","system_id":"levelo_inurba_marseille","lat":43.30792,"lon":5.3761,"is_reserved":false,"is_disabled":false,"rental_uris":{"android":"levelo://app?vid=1a1bdaef-d1fc-4f00-bb87-c376a5bfcccc","ios":"levelo://app?vid=1a1bdaef-d1fc-4f00-bb87-c376a5bfcccc"},"vehicle_type_id":"4","last_reported":1741331339,"current_range_meters":16800,"station_id":"ce4bgv92rcd13ifvqcq0","pricing_plan_id":"cebpf4jnsgd1na2vs0mg"},{"bike_id":"34fca5e7-8353-4d68-89e6-b1d671353da7","system_id":"levelo_inurba_marseille","lat":43.32369,"lon":5.38879,"is_reserved":false,"is_disabled":false,"rental_uris":{"android":"levelo://app?vid=34fca5e7-8353-4d68-89e6-b1d671353da7","ios":"levelo://app?vid=34fca5e7-8353-4d68-89e6-b1d671353da7"},"vehicle_type_id":"4","last_reported":1741331339,"current_range_meters":16800,"station_id":"ce4bhqp2rcd13ifvqhog","pricing_plan_id":"cebpf4jnsgd1na2vs0mg"},{"bike_id":"76023be1-d2fd-42c0-a616-c011d5636f4f","system_id":"levelo_inurba_marseille","lat":43.24076,"lon":5.37773,"is_reserved":false,"is_disabled":false,"rental_uris":{"android":"levelo://app?vid=76023be1-d2fd-42c0-a616-c011d5636f4f","ios":"levelo://app?vid=76023be1-d2fd-42c0-a616-c011d5636f4f"},"vehicle_type_id":"4","last_reported":1741331339,"current_range_meters":16800,"station_id":"ce4bhnp2rcd13ifvqgvg","pricing_plan_id":"cebpf4jnsgd1na2vs0mg"},{"bike_id":"9b8789be-c150-4679-b8ba-e1d5e4639da2","system_id":"levelo_inurba_marseille","lat":43.27494,"lon":5.42449,"is_reserved":false,"is_disabled":false,"rental_uris":{"android":"levelo://app?vid=9b8789be-c150-4679-b8ba-e1d5e4639da2","ios":"levelo://app?vid=9b8789be-c150-4679-b8ba-e1d5e4639da2"},"vehicle_type_id":"4","last_reported":1741331339,"current_range_meters":16800,"station_id":"ce4bhn92rcd13ifvqgrg","pricing_plan_id":"cebpf4jnsgd1na2vs0mg"},{"bike_id":"fd6296bd-f750-4893-b30b-28489933da7e","system_id":"levelo_inurba_marseille","lat":43.24068,"lon":5.37762,"is_reserved":false,"is_disabled":false,"rental_uris":{"android":"levelo://app?vid=fd6296bd-f750-4893-b30b-28489933da7e","ios":"levelo://app?vid=fd6296bd-f750-4893-b30b-28489933da7e"},"vehicle_type_id":"4","last_reported":1741331339,"current_range_meters":16800,"station_id":"ce4bhnp2rcd13ifvqgvg","pricing_plan_id":"cebpf4jnsgd1na2vs0mg"},{"bike_id":"4a1482b4-8c29-44ce-b095-2495b190330c","system_id":"levelo_inurba_marseille","lat":43.29192,"lon":5.39332,"is_reserved":false,"is_disabled":true,"rental_uris":{"android":"levelo://app?vid=4a1482b4-8c29-44ce-b095-2495b190330c","ios":"levelo://app?vid=4a1482b4-8c29-44ce-b095-2495b190330c"},"vehicle_type_id":"4","last_reported":1741331339,"current_range_meters":16800,"station_id":"ce4bh192rcd13ifvqdd0","pricing_plan_id":"cebpf4jnsgd1na2vs0mg"},{"bike_id":"a2b843fa-9646-442e-9760-cbe7441c3930","system_id":"levelo_inurba_marseille","lat":43.28342,"lon":5.38113,"is_reserved":false,"is_disabled":false,"rental_uris":{"android":"levelo://app?vid=a2b843fa-9646-442e-9760-cbe7441c3930","ios":"levelo://app?vid=a2b843fa-9646-442e-9760-cbe7441c3930"},"vehicle_type_id":"4","last_reported":1741331339,"current_range_meters":16800,"station_id":"ce4bh412rcd13ifvqdr0","pricing_plan_id":"cebpf4jnsgd1na2vs0mg"},{"bike_id":"c6cb12c1-7582-4f12-88eb-121fc940546d","system_id":"levelo_inurba_marseille","lat":43.31715,"lon":5.37747,"is_reserved":false,"is_disabled":false,"rental_uris":{"android":"levelo://app?vid=c6cb12c1-7582-4f12-88eb-121fc940546d","ios":"levelo://app?vid=c6cb12c1-7582-4f12-88eb-121fc940546d"},"vehicle_type_id":"4","last_reported":1741331339,"current_range_meters":17200,"station_id":"ce4bgth2rcd13ifvqch0","pricing_plan_id":"cebpf4jnsgd1na2vs0mg"},{"bike_id":"f91d3e09-76a6-4aa3-b1d3-e4674f980f7e","system_id":"levelo_inurba_marseille","lat":43.29708,"lon":5.36578,"is_reserved":false,"is_disabled":false,"rental_uris":{"android":"levelo://app?vid=f91d3e09-76a6-4aa3-b1d3-e4674f980f7e","ios":"levelo://app?vid=f91d3e09-76a6-4aa3-b1d3-e4674f980f7e"},"vehicle_type_id":"4","last_reported":1741331339,"current_range_meters":17200,"station_id":"ce4bgn12rcd13ifvqbt0","pricing_plan_id":"cebpf4jnsgd1na2vs0mg"},{"bike_id":"3028059a-0247-43e4-a3d9-9e9ece097071","system_id":"levelo_inurba_marseille","lat":43.297902,"lon":5.393444,"is_reserved":false,"is_disabled":false,"rental_uris":{"android":"levelo://app?vid=3028059a-0247-43e4-a3d9-9e9ece097071","ios":"levelo://app?vid=3028059a-0247-43e4-a3d9-9e9ece097071"},"vehicle_type_id":"4","last_reported":1741331339,"current_range_meters":17200,"station_id":"ce4bh4p2rcd13ifvqe0g","pricing_plan_id":"cebpf4jnsgd1na2vs0mg"},{"bike_id":"2523c5af-1ee5-444c-8913-23c03fdfe972","system_id":"levelo_inurba_marseille","lat":43.2873,"lon":5.3608,"is_reserved":false,"is_disabled":false,"rental_uris":{"android":"levelo://app?vid=2523c5af-1ee5-444c-8913-23c03fdfe972","ios":"levelo://app?vid=2523c5af-1ee5-444c-8913-23c03fdfe972"},"vehicle_type_id":"4","last_reported":1741331339,"current_range_meters":17200,"station_id":"cki0cbj6b192h4jlfktg","pricing_plan_id":"cebpf4jnsgd1na2vs0mg"},{"bike_id":"20aceef4-e0f6-43d7-a7f9-f6fd25b5798d","system_id":"levelo_inurba_marseille","lat":43.2795,"lon":5.41028,"is_reserved":false,"is_disabled":false,"rental_uris":{"android":"levelo://app?vid=20aceef4-e0f6-43d7-a7f9-f6fd25b5798d","ios":"levelo://app?vid=20aceef4-e0f6-43d7-a7f9-f6fd25b5798d"},"vehicle_type_id":"4","last_reported":1741331339,"current_range_meters":17200,"station_id":"ce4bhnp2rcd13ifvqh0g","pricing_plan_id":"cebpf4jnsgd1na2vs0mg"},{"bike_id":"a72440ba-0919-4be9-b25e-b81dbe1cdb2b","system_id":"levelo_inurba_marseille","lat":43.32365,"lon":5.38887,"is_reserved":false,"is_disabled":false,"rental_uris":{"android":"levelo://app?vid=a72440ba-0919-4be9-b25e-b81dbe1cdb2b","ios":"levelo://app?vid=a72440ba-0919-4be9-b25e-b81dbe1cdb2b"},"vehicle_type_id":"4","last_reported":1741331339,"current_range_meters":17200,"station_id":"ce4bhqp2rcd13ifvqhog","pricing_plan_id":"cebpf4jnsgd1na2vs0mg"},{"bike_id":"c4c723cb-a07b-4be7-9352-175d996d4f95","system_id":"levelo_inurba_marseille","lat":43.2794,"lon":5.41054,"is_reserved":false,"is_disabled":false,"rental_uris":{"android":"levelo://app?vid=c4c723cb-a07b-4be7-9352-175d996d4f95","ios":"levelo://app?vid=c4c723cb-a07b-4be7-9352-175d996d4f95"},"vehicle_type_id":"4","last_reported":1741331339,"current_range_meters":17200,"station_id":"ce4bhnp2rcd13ifvqh0g","pricing_plan_id":"cebpf4jnsgd1na2vs0mg"},{"bike_id":"40562c40-cbd6-496d-935e-edcd811d60ca","system_id":"levelo_inurba_marseille","lat":43.29979,"lon":5.37175,"is_reserved":false,"is_disabled":true,"rental_uris":{"android":"levelo://app?vid=40562c40-cbd6-496d-935e-edcd811d60ca","ios":"levelo://app?vid=40562c40-cbd6-496d-935e-edcd811d60ca"},"vehicle_type_id":"4","last_reported":1741331339,"current_range_meters":17200,"station_id":"","pricing_plan_id":"cebpf4jnsgd1na2vs0mg"},{"bike_id":"6255bddf-469c-4f80-b881-d6236aedf1ec","system_id":"levelo_inurba_marseille","lat":43.31503,"lon":5.37301,"is_reserved":false,"is_disabled":false,"rental_uris":{"android":"levelo://app?vid=6255bddf-469c-4f80-b881-d6236aedf1ec","ios":"levelo://app?vid=6255bddf-469c-4f80-b881-d6236aedf1ec"},"vehicle_type_id":"4","last_reported":1741331339,"current_range_meters":17200,"station_id":"ce4bgt12rcd13ifvqcd0","pricing_plan_id":"cebpf4jnsgd1na2vs0mg"},{"bike_id":"b2c2514d-58df-4080-9acc-0a3325c87525","system_id":"levelo_inurba_marseille","lat":43.32359,"lon":5.36791,"is_reserved":false,"is_disabled":false,"rental_uris":{"android":"levelo://app?vid=b2c2514d-58df-4080-9acc-0a3325c87525","ios":"levelo://app?vid=b2c2514d-58df-4080-9acc-0a3325c87525"},