{"last_updated":1728320882,"ttl":60,"version":"2.2","data":{"bikes":[{"bike_id":"bac6fa46-9f33-406e-b249-88b4f6de3b07","system_id":"levelo_inurba_marseille","lat":43.25819,"lon":5.3943,"is_reserved":false,"is_disabled":false,"rental_uris":{"android":"levelo://app?vid=bac6fa46-9f33-406e-b249-88b4f6de3b07","ios":"levelo://app?vid=bac6fa46-9f33-406e-b249-88b4f6de3b07"},"vehicle_type_id":"4","last_reported":1728320882,"current_range_meters":39200,"station_id":"ce4bhip2rcd13ifvqft0","pricing_plan_id":"cebpf4jnsgd1na2vs0mg"},{"bike_id":"4a9e3576-daee-48a5-b09d-c25365fc812e","system_id":"levelo_inurba_marseille","lat":43.27554,"lon":5.38441,"is_reserved":false,"is_disabled":false,"rental_uris":{"android":"levelo://app?vid=4a9e3576-daee-48a5-b09d-c25365fc812e","ios":"levelo://app?vid=4a9e3576-daee-48a5-b09d-c25365fc812e"},"vehicle_type_id":"4","last_reported":1728320882,"current_range_meters":26000,"station_id":"ce4bhh92rcd13ifvqfi0","pricing_plan_id":"cebpf4jnsgd1na2vs0mg"},{"bike_id":"0be168e7-a926-47f8-ad72-97de55729edc","system_id":"levelo_inurba_marseille","lat":43.29024,"lon":5.38654,"is_reserved":false,"is_disabled":false,"rental_uris":{"android":"levelo://app?vid=0be168e7-a926-47f8-ad72-97de55729edc","ios":"levelo://app?vid=0be168e7-a926-47f8-ad72-97de55729edc"},"vehicle_type_id":"4","last_reported":1728320882,"current_range_meters":27600,"station_id":"ce4bh4p2rcd13ifvqe0g","pricing_plan_id":"cebpf4jnsgd1na2vs0mg"},{"bike_id":"3edccbad-c604-40df-acb2-6e9d91b67298","system_id":"levelo_inurba_marseille","lat":43.23058,"lon":5.35504,"is_reserved":false,"is_disabled":false,"rental_uris":{"android":"levelo://app?vid=3edccbad-c604-40df-acb2-6e9d91b67298","ios":"levelo://app?vid=3edccbad-c604-40df-acb2-6e9d91b67298"},"vehicle_type_id":"4","last_reported":1728320882,"current_range_meters":20000,"station_id":"cpo3342slgdg3j2ifvpg","pricing_plan_id":"cebpf4jnsgd1na2vs0mg"},{"bike_id":"ce58d1d6-9d31-4d0a-84ba-6ce09f0b7e64","system_id":"levelo_inurba_marseille","lat":43.27996,"lon":5.4001,"is_reserved":false,"is_disabled":false,"rental_uris":{"android":"levelo://app?vid=ce58d1d6-9d31-4d0a-84ba-6ce09f0b7e64","ios":"levelo://app?vid=ce58d1d6-9d31-4d0a-84ba-6ce09f0b7e64"},"vehicle_type_id":"4","last_reported":1728320882,"current_range_meters":32000,"station_id":"ce4bho92rcd13ifvqh4g","pricing_plan_id":"cebpf4jnsgd1na2vs0mg"},{"bike_id":"56d3a2c1-cbab-4447-a367-83dfb2dbdacd","system_id":"levelo_inurba_marseille","lat":43.30874,"lon":5.39641,"is_reserved":false,"is_disabled":false,"rental_uris":{"android":"levelo://app?vid=56d3a2c1-cbab-4447-a367-83dfb2dbdacd","ios":"levelo://app?vid=56d3a2c1-cbab-4447-a367-83dfb2dbdacd"},"vehicle_type_id":"4","last_reported":1728320882,"current_range_meters":9600,"station_id":"ce4bh012rcd13ifvqcv0","pricing_plan_id":"cebpf4jnsgd1na2vs0mg"},{"bike_id":"a1d278cd-c78d-453b-9867-bdeba0125dfb","system_id":"levelo_inurba_marseille","lat":43.24808,"lon":5.3746,"is_reserved":false,"is_disabled":false,"rental_uris":{"android":"levelo://app?vid=a1d278cd-c78d-453b-9867-bdeba0125dfb","ios":"levelo://app?vid=a1d278cd-c78d-453b-9867-bdeba0125dfb"},"vehicle_type_id":"4","last_reported":1728320882,"current_range_meters":8400,"station_id":"ce4bhgh2rcd13ifvqfb0","pricing_plan_id":"cebpf4jnsgd1na2vs0mg"},{"bike_id":"d0403756-3d87-495f-aedb-feb43d36dcb2","system_id":"levelo_inurba_marseille","lat":43.26803,"lon":5.40272,"is_reserved":false,"is_disabled":false,"rental_uris":{"android":"levelo://app?vid=d0403756-3d87-495f-aedb-feb43d36dcb2","ios":"levelo://app?vid=d0403756-3d87-495f-aedb-feb43d36dcb2"},"vehicle_type_id":"4","last_reported":1728320882,"current_range_meters":29600,"station_id":"ce501612rcd8frsf0b60","pricing_plan_id":"cebpf4jnsgd1na2vs0mg"},{"bike_id":"6f8e4b3c-a7a2-4de5-a8c8-c5a834ae46d0","system_id":"levelo_inurba_marseille","lat":43.33023,"lon":5.39041,"is_reserved":false,"is_disabled":false,"rental_uris":{"android":"levelo://app?vid=6f8e4b3c-a7a2-4de5-a8c8-c5a834ae46d0","ios":"levelo://app?vid=6f8e4b3c-a7a2-4de5-a8c8-c5a834ae46d0"},"vehicle_type_id":"4","last_reported":1728320882,"current_range_meters":23200,"station_id":"ce4bhr92rcd13ifvqhrg","pricing_plan_id":"cebpf4jnsgd1na2vs0mg"},{"bike_id":"5cbc9c45-d090-40f0-bf46-98bb0454ae1f","system_id":"levelo_inurba_marseille","lat":43.29188,"lon":5.39326,"is_reserved":false,"is_disabled":false,"rental_uris":{"android":"levelo://app?vid=5cbc9c45-d090-40f0-bf46-98bb0454ae1f","ios":"levelo://app?vid=5cbc9c45-d090-40f0-bf46-98bb0454ae1f"},"vehicle_type_id":"4","last_reported":1728320882,"current_range_meters":38800,"station_id":"ce4bh192rcd13ifvqdd0","pricing_plan_id":"cebpf4jnsgd1na2vs0mg"},{"bike_id":"c7159f54-4b89-435e-ada5-191e3c5111b0","system_id":"levelo_inurba_marseille","lat":43.28572,"lon":5.39494,"is_reserved":false,"is_disabled":false,"rental_uris":{"android":"levelo://app?vid=c7159f54-4b89-435e-ada5-191e3c5111b0","ios":"levelo://app?vid=c7159f54-4b89-435e-ada5-191e3c5111b0"},"vehicle_type_id":"4","last_reported":1728320882,"current_range_meters":4400,"station_id":"ce4bh292rcd13ifvqdg0","pricing_plan_id":"cebpf4jnsgd1na2vs0mg"},{"bike_id":"131400e7-6bbf-44d6-827f-f2c00c80eccb","system_id":"levelo_inurba_marseille","lat":43.29004,"lon":5.35614,"is_reserved":false,"is_disabled":false,"rental_uris":{"android":"levelo://app?vid=131400e7-6bbf-44d6-827f-f2c00c80eccb","ios":"levelo://app?vid=131400e7-6bbf-44d6-827f-f2c00c80eccb"},"vehicle_type_id":"4","last_reported":1728320882,"current_range_meters":30000,"station_id":"ce4bhb92rcd13ifvqen0","pricing_plan_id":"cebpf4jnsgd1na2vs0mg"},{"bike_id":"81b07a05-4c57-4e76-99d6-5f6e3acbb201","system_id":"levelo_inurba_marseille","lat":43.23057,"lon":5.35499,"is_reserved":false,"is_disabled":false,"rental_uris":{"android":"levelo://app?vid=81b07a05-4c57-4e76-99d6-5f6e3acbb201","ios":"levelo://app?vid=81b07a05-4c57-4e76-99d6-5f6e3acbb201"},"vehicle_type_id":"4","last_reported":1728320882,"current_range_meters":11600,"station_id":"cpo3342slgdg3j2ifvpg","pricing_plan_id":"cebpf4jnsgd1na2vs0mg"},{"bike_id":"73069007-47b0-49e8-8378-13dc5f27677b","system_id":"levelo_inurba_marseille","lat":43.29516,"lon":5.37507,"is_reserved":false,"is_disabled":false,"rental_uris":{"android":"levelo://app?vid=73069007-47b0-49e8-8378-13dc5f27677b","ios":"levelo://app?vid=73069007-47b0-49e8-8378-13dc5f27677b"},"vehicle_type_id":"4","last_reported":1728320882,"current_range_meters":14400,"station_id":"ce4bgkp2rcd13ifvqbmg","pricing_plan_id":"cebpf4jnsgd1na2vs0mg"},{"bike_id":"bbdf1e2e-a0bc-4aae-855e-0ac7074a8e25","system_id":"levelo_inurba_marseille","lat":43.286835,"lon":5.400186,"is_reserved":false,"is_disabled":false,"rental_uris":{"android":"levelo://app?vid=bbdf1e2e-a0bc-4aae-855e-0ac7074a8e25","ios":"levelo://app?vid=bbdf1e2e-a0bc-4aae-855e-0ac7074a8e25"},"vehicle_type_id":"4","last_reported":1728320882,"current_range_meters":14400,"station_id":"ce4bgjh2rcd13ifvqbg0","pricing_plan_id":"cebpf4jnsgd1na2vs0mg"},{"bike_id":"e275d16e-2d5d-4a1b-9a00-29e1da89894a","system_id":"levelo_inurba_marseille","lat":43.30251,"lon":5.40062,"is_reserved":false,"is_disabled":false,"rental_uris":{"android":"levelo://app?vid=e275d16e-2d5d-4a1b-9a00-29e1da89894a","ios":"levelo://app?vid=e275d16e-2d5d-4a1b-9a00-29e1da89894a"},"vehicle_type_id":"4","last_reported":1728320882,"current_range_meters":35600,"station_id":"ce4bgvh2rcd13ifvqcs0","pricing_plan_id":"cebpf4jnsgd1na2vs0mg"},{"bike_id":"663d807d-5236-4795-8907-d41427101515","system_id":"levelo_inurba_marseille","lat":43.33028,"lon":5.39042,"is_reserved":false,"is_disabled":false,"rental_uris":{"android":"levelo://app?vid=663d807d-5236-4795-8907-d41427101515","ios":"levelo://app?vid=663d807d-5236-4795-8907-d41427101515"},"vehicle_type_id":"4","last_reported":1728320882,"current_range_meters":20000,"station_id":"ce4bhr92rcd13ifvqhrg","pricing_plan_id":"cebpf4jnsgd1na2vs0mg"},{"bike_id":"91565d06-3804-4669-8f9a-b258014b6771","system_id":"levelo_inurba_marseille","lat":43.30415,"lon":5.41295,"is_reserved":false,"is_disabled":false,"rental_uris":{"android":"levelo://app?vid=91565d06-3804-4669-8f9a-b258014b6771","ios":"levelo://app?vid=91565d06-3804-4669-8f9a-b258014b6771"},"vehicle_type_id":"4","last_reported":1728320882,"current_range_meters":25200,"station_id":"ce4bhop2rcd13ifvqh8g","pricing_plan_id":"cebpf4jnsgd1na2vs0mg"},{"bike_id":"7d69465d-825b-42af-97ed-2a08b741282b","system_id":"levelo_inurba_marseille","lat":43.293051,"lon":5.37182,"is_reserved":false,"is_disabled":false,"rental_uris":{"android":"levelo://app?vid=7d69465d-825b-42af-97ed-2a08b741282b","ios":"levelo://app?vid=7d69465d-825b-42af-97ed-2a08b741282b"},"vehicle_type_id":"4","last_reported":1728320882,"current_range_meters":8800,"station_id":"ce4bgh92rcd13ifvqb40","pricing_plan_id":"cebpf4jnsgd1na2vs0mg"},{"bike_id":"a2672128-463f-4d3e-817c-8c233555ca9d","system_id":"levelo_inurba_marseille","lat":43.27805,"lon":5.40717,"is_reserved":false,"is_disabled":false,"rental_uris":{"android":"levelo://app?vid=a2672128-463f-4d3e-817c-8c233555ca9d","ios":"levelo://app?vid=a2672128-463f-4d3e-817c-8c233555ca9d"},"vehicle_type_id":"4","last_reported":1728320882,"current_range_meters":27600,"station_id":"ce4bhnh2rcd13ifvqgtg","pricing_plan_id":"cebpf4jnsgd1na2vs0mg"},{"bike_id":"042256cb-63ce-4d27-8b16-84b8bbd6b0d5","system_id":"levelo_inurba_marseille","lat":43.29622,"lon":5.37756,"is_reserved":false,"is_disabled":false,"rental_uris":{"android":"levelo://app?vid=042256cb-63ce-4d27-8b16-84b8bbd6b0d5","ios":"levelo://app?vid=042256cb-63ce-4d27-8b16-84b8bbd6b0d5"},"vehicle_type_id":"4","last_reported":1728320882,"current_range_meters":33200,"station_id":"ce4bgi92rcd13ifvqb90","pricing_plan_id":"cebpf4jnsgd1na2vs0mg"},{"bike_id":"35db5aab-a536-4286-87d7-90ec43783f24","system_id":"levelo_inurba_marseille","lat":43.23193,"lon":5.35557,"is_reserved":false,"is_disabled":false,"rental_uris":{"android":"levelo://app?vid=35db5aab-a536-4286-87d7-90ec43783f24","ios":"levelo://app?vid=35db5aab-a536-4286-87d7-90ec43783f24"},"vehicle_type_id":"4","last_reported":1728320882,"current_range_meters":36000,"station_id":"ce4bhu92rcd13ifvqi70","pricing_plan_id":"cebpf4jnsgd1na2vs0mg"},{"bike_id":"62dfd99c-f976-4937-b2d0-5b50f5ae699f","system_id":"levelo_inurba_marseille","lat":43.24175,"lon":5.364,"is_reserved":false,"is_disabled":false,"rental_uris":{"android":"levelo://app?vid=62dfd99c-f976-4937-b2d0-5b50f5ae699f","ios":"levelo://app?vid=62dfd99c-f976-4937-b2d0-5b50f5ae699f"},"vehicle_type_id":"4","last_reported":1728320882,"current_range_meters":9600,"station_id":"cpo36qri1sfpv3e86is0","pricing_plan_id":"cebpf4jnsgd1na2vs0mg"},{"bike_id":"b9cbdb07-3e64-4b5a-a292-23b35074a051","system_id":"levelo_inurba_marseille","lat":43.288762,"lon":5.394485,"is_reserved":false,"is_disabled":false,"rental_uris":{"android":"levelo://app?vid=b9cbdb07-3e64-4b5a-a292-23b35074a051","ios":"levelo://app?vid=b9cbdb07-3e64-4b5a-a292-23b35074a051"},"vehicle_type_id":"4","last_reported":1728320882,"current_range_meters":2000,"station_id":"","pricing_plan_id":"cebpf4jnsgd1na2vs0mg"},{"bike_id":"e6273d95-1d25-4add-a16f-01335b388b10","system_id":"levelo_inurba_marseille","lat":43.27368,"lon":5.36269,"is_reserved":false,"is_disabled":false,"rental_uris":{"android":"levelo://app?vid=e6273d95-1d25-4add-a16f-01335b388b10","ios":"levelo://app?vid=e6273d95-1d25-4add-a16f-01335b388b10"},"vehicle_type_id":"4","last_reported":1728320882,"current_range_meters":23200,"station_id":"ce4bhbh2rcd13ifvqeo0","pricing_plan_id":"cebpf4jnsgd1na2vs0mg"},{"bike_id":"73074e06-0568-4ea7-b231-2df813b2bf71","system_id":"levelo_inurba_marseille","lat":43.29442,"lon":5.39754,"is_reserved":false,"is_disabled":false,"rental_uris":{"android":"levelo://app?vid=73074e06-0568-4ea7-b231-2df813b2bf71","ios":"levelo://app?vid=73074e06-0568-4ea7-b231-2df813b2bf71"},"vehicle_type_id":"4","last_reported":1728320882,"current_range_meters":12400,"station_id":"ce4bh3h2rcd13ifvqdo0","pricing_plan_id":"cebpf4jnsgd1na2vs0mg"},{"bike_id":"e2ccd035-e2f6-4b13-8c3b-407f63e2c6d1","system_id":"levelo_inurba_marseille","lat":43.33022,"lon":5.39039,"is_reserved":false,"is_disabled":false,"rental_uris":{"android":"levelo://app?vid=e2ccd035-e2f6-4b13-8c3b-407f63e2c6d1","ios":"levelo://app?vid=e2ccd035-e2f6-4b13-8c3b-407f63e2c6d1"},"vehicle_type_id":"4","last_reported":1728320882,"current_range_meters":6800,"station_id":"ce4bhr92rcd13ifvqhrg","pricing_plan_id":"cebpf4jnsgd1na2vs0mg"},{"bike_id":"c4e5baae-cdda-4143-a528-aba41ecc4af3","system_id":"levelo_inurba_marseille","lat":43.3044,"lon":5.38887,"is_reserved":false,"is_disabled":false,"rental_uris":{"android":"levelo://app?vid=c4e5baae-cdda-4143-a528-aba41ecc4af3","ios":"levelo://app?vid=c4e5baae-cdda-4143-a528-aba41ecc4af3"},"vehicle_type_id":"4","last_reported":1728320882,"current_range_meters":38400,"station_id":"ce4bgk12rcd13ifvqbi0","pricing_plan_id":"cebpf4jnsgd1na2vs0mg"},{"bike_id":"220c1bb4-3d52-43ec-9475-0b0522ea2899","system_id":"levelo_inurba_marseille","lat":43.30596,"lon":5.37236,"is_reserved":false,"is_disabled":false,"rental_uris":{"android":"levelo://app?vid=220c1bb4-3d52-43ec-9475-0b0522ea2899","ios":"levelo://app?vid=220c1bb4-3d52-43ec-9475-0b0522ea2899"},"vehicle_type_id":"4","last_reported":1728320882,"current_range_meters":12800,"station_id":"ce4bgqh2rcd13ifvqc4g","pricing_plan_id":"cebpf4jnsgd1na2vs0mg"},{"bike_id":"a854f9eb-d697-4507-b33a-9376691b2f9b","system_id":"levelo_inurba_marseille","lat":43.27998,"lon":5.40014,"is_reserved":false,"is_disabled":false,"rental_uris":{"android":"levelo://app?vid=a854f9eb-d697-4507-b33a-9376691b2f9b","ios":"levelo://app?vid=a854f9eb-d697-4507-b33a-9376691b2f9b"},"vehicle_type_id":"4","last_reported":1728320882,"current_range_meters":39200,"station_id":"ce4bho92rcd13ifvqh4g","pricing_plan_id":"cebpf4jnsgd1na2vs0mg"},{"bike_id":"97519c5e-fd79-4e69-af3e-dbda834c900c","system_id":"levelo_inurba_marseille","lat":43.29802,"lon":5.40417,"is_reserved":false,"is_disabled":false,"rental_uris":{"android":"levelo://app?vid=97519c5e-fd79-4e69-af3e-dbda834c900c","ios":"levelo://app?vid=97519c5e-fd79-4e69-af3e-dbda834c900c"},"vehicle_type_id":"4","last_reported":1728320882,"current_range_meters":6400,"station_id":"ce4bh112rcd13ifvqd90","pricing_plan_id":"cebpf4jnsgd1na2vs0mg"},{"bike_id":"4af55307-045f-4c66-a045-a91d88bb4c16","system_id":"levelo_inurba_marseille","lat":43.22933,"lon":5.3538,"is_reserved":false,"is_disabled":false,"rental_uris":{"android":"levelo://app?vid=4af55307-045f-4c66-a045-a91d88bb4c16","ios":"levelo://app?vid=4af55307-045f-4c66-a045-a91d88bb4c16"},"vehicle_type_id":"4","last_reported":1728320882,"current_range_meters":26000,"station_id":"cpo3532slgdg3j2ikp40","pricing_plan_id":"cebpf4jnsgd1na2vs0mg"},{"bike_id":"aa598db1-3c3a-48c0-acd0-1929a2b13407","system_id":"levelo_inurba_marseille","lat":43.31716,"lon":5.43709,"is_reserved":false,"is_disabled":false,"rental_uris":{"android":"levelo://app?vid=aa598db1-3c3a-48c0-acd0-1929a2b13407","ios":"levelo://app?vid=aa598db1-3c3a-48c0-acd0-1929a2b13407"},"vehicle_type_id":"4","last_reported":1728320882,"current_range_meters":39200,"station_id":"ce4bhp92rcd13ifvqhcg","pricing_plan_id":"cebpf4jnsgd1na2vs0mg"},{"bike_id":"47efe985-66e3-4fb1-a00d-60851f779f19","system_id":"levelo_inurba_marseille","lat":43.32543,"lon":5.41435,"is_reserved":false,"is_disabled":false,"rental_uris":{"android":"levelo://app?vid=47efe985-66e3-4fb1-a00d-60851f779f19","ios":"levelo://app?vid=47efe985-66e3-4fb1-a00d-60851f779f19"},"vehicle_type_id":"4","last_reported":1728320882,"current_range_meters":28800,"station_id":"ce4bhq12rcd13ifvqhhg","pricing_plan_id":"cebpf4jnsgd1na2vs0mg"},{"bike_id":"6482b1fb-67cb-4384-a7c9-6c0a7b56e3b4","system_id":"levelo_inurba_marseille","lat":43.28847,"lon":5.43344,"is_reserved":false,"is_disabled":false,"rental_uris":{"android":"levelo://app?vid=6482b1fb-67cb-4384-a7c9-6c0a7b56e3b4","ios":"levelo://app?vid=6482b1fb-67cb-4384-a7c9-6c0a7b56e3b4"},"vehicle_type_id":"4","last_reported":1728320882,"current_range_meters":4800,"station_id":"","pricing_plan_id":"cebpf4jnsgd1na2vs0mg"},{"bike_id":"f7de3090-c07c-4748-9656-af68c828fc67","system_id":"levelo_inurba_marseille","lat":43.28702,"lon":5.37402,"is_reserved":false,"is_disabled":false,"rental_uris":{"android":"levelo://app?vid=f7de3090-c07c-4748-9656-af68c828fc67","ios":"levelo://app?vid=f7de3090-c07c-4748-9656-af68c828fc67"},"vehicle_type_id":"4","last_reported":1728320882,"current_range_meters":14800,"station_id":"ce4bh3p2rcd13ifvqdq0","pricing_plan_id":"cebpf4jnsgd1na2vs0mg"},{"bike_id":"34f59e28-ad02-405c-8fc9-3688e0214b52","system_id":"levelo_inurba_marseille","lat":43.29195,"lon":5.35809,"is_reserved":false,"is_disabled":false,"rental_uris":{"android":"levelo://app?vid=34f59e28-ad02-405c-8fc9-3688e0214b52","ios":"levelo://app?vid=34f59e28-ad02-405c-8fc9-3688e0214b52"},"vehicle_type_id":"4","last_reported":1728320882,"current_range_meters":3200,"station_id":"ce4bhb12rcd13ifvqel0","pricing_plan_id":"cebpf4jnsgd1na2vs0mg"},{"bike_id":"c12c46a4-bd86-493d-803e-5d507cd7924b","system_id":"levelo_inurba_marseille","lat":43.23199,"lon":5.35549,"is_reserved":false,"is_disabled":false,"rental_uris":{"android":"levelo://app?vid=c12c46a4-bd86-493d-803e-5d507cd7924b","ios":"levelo://app?vid=c12c46a4-bd86-493d-803e-5d507cd7924b"},"vehicle_type_id":"4","last_reported":1728320882,"current_range_meters":30800,"station_id":"ce4bhu92rcd13ifvqi70","pricing_plan_id":"cebpf4jnsgd1na2vs0mg"},{"bike_id":"1e22ea5d-d406-4b63-92d6-06a783dc0af8","system_id":"levelo_inurba_marseille","lat":43.23177,"lon":5.40001,"is_reserved":false,"is_disabled":false,"rental_uris":{"android":"levelo://app?vid=1e22ea5d-d406-4b63-92d6-06a783dc0af8","ios":"levelo://app?vid=1e22ea5d-d406-4b63-92d6-06a783dc0af8"},"vehicle_type_id":"4","last_reported":1728320882,"current_range_meters":23200,"station_id":"ce4bhn12rcd13ifvqgqg","pricing_plan_id":"cebpf4jnsgd1na2vs0mg"},{"bike_id":"e0ef52ca-c7fa-41d7-a3ea-c3e5235a2597","system_id":"levelo_inurba_marseille","lat":43.25086,"lon":5.39532,"is_reserved":false,"is_disabled":false,"rental_uris":{"android":"levelo://app?vid=e0ef52ca-c7fa-41d7-a3ea-c3e5235a2597","ios":"levelo://app?vid=e0ef52ca-c7fa-41d7-a3ea-c3e5235a2597"},"vehicle_type_id":"4","last_reported":1728320882,"current_range_meters":30800,"station_id":"ce4bhm12rcd13ifvqgkg","pricing_plan_id":"cebpf4jnsgd1na2vs0mg"},{"bike_id":"9272e771-66be-4b16-95ef-64aedd3f05ea","system_id":"levelo_inurba_marseille","lat":43.2549,"lon":5.37656,"is_reserved":false,"is_disabled":false,"rental_uris":{"android":"levelo://app?vid=9272e771-66be-4b16-95ef-64aedd3f05ea","ios":"levelo://app?vid=9272e771-66be-4b16-95ef-64aedd3f05ea"},"vehicle_type_id":"4","last_reported":1728320882,"current_range_meters":38400,"station_id":"ce4bhh12rcd13ifvqff0","pricing_plan_id":"cebpf4jnsgd1na2vs0mg"},{"bike_id":"85a8b07e-682b-4725-800e-b0749654fba5","system_id":"levelo_inurba_marseille","lat":43.24164,"lon":5.36404,"is_reserved":false,"is_disabled":false,"rental_uris":{"android":"levelo://app?vid=85a8b07e-682b-4725-800e-b0749654fba5","ios":"levelo://app?vid=85a8b07e-682b-4725-800e-b0749654fba5"},"vehicle_type_id":"4","last_reported":1728320882,"current_range_meters":24000,"station_id":"cpo36qri1sfpv3e86is0","pricing_plan_id":"cebpf4jnsgd1na2vs0mg"},{"bike_id":"b6640f17-7ab3-4932-bbd1-5fe22e83845e","system_id":"levelo_inurba_marseille","lat":43.32289,"lon":5.38272,"is_reserved":false,"is_disabled":false,"rental_uris":{"android":"levelo://app?vid=b6640f17-7ab3-4932-bbd1-5fe22e83845e","ios":"levelo://app?vid=b6640f17-7ab3-4932-bbd1-5fe22e83845e"},"vehicle_type_id":"4","last_reported":1728320882,"current_range_meters":24000,"station_id":"ce4bhr12rcd13ifvqhqg","pricing_plan_id":"cebpf4jnsgd1na2vs0mg"},{"bike_id":"f784beed-380c-4c45-83e6-4f429daccf9b","system_id":"levelo_inurba_marseille","lat":43.31706,"lon":5.37737,"is_reserved":false,"is_disabled":false,"rental_uris":{"android":"levelo://app?vid=f784beed-380c-4c45-83e6-4f429daccf9b","ios":"levelo://app?vid=f784beed-380c-4c45-83e6-4f429daccf9b"},"vehicle_type_id":"4","last_reported":1728320882,"current_range_meters":25200,"station_id":"ce4bgth2rcd13ifvqch0","pricing_plan_id":"cebpf4jnsgd1na2vs0mg"},{"bike_id":"cde7dd0a-b636-4e45-8779-15eb2eaaf28a","system_id":"levelo_inurba_marseille","lat":43.28154,"lon":5.42652,"is_reserved":false,"is_disabled":false,"rental_uris":{"android":"levelo://app?vid=cde7dd0a-b636-4e45-8779-15eb2eaaf28a","ios":"levelo://app?vid=cde7dd0a-b636-4e45-8779-15eb2eaaf28a"},"vehicle_type_id":"4","last_reported":1728320882,"current_range_meters":34000,"station_id":"ce4bhnh2rcd13ifvqgug","pricing_plan_id":"cebpf4jnsgd1na2vs0mg"},{"bike_id":"f87c1dd0-d204-4a41-ae92-687c3cddfed1","system_id":"levelo_inurba_marseille","lat":43.2466,"lon":5.3817,"is_reserved":false,"is_disabled":false,"rental_uris":{"android":"levelo://app?vid=f87c1dd0-d204-4a41-ae92-687c3cddfed1","ios":"levelo://app?vid=f87c1dd0-d204-4a41-ae92-687c3cddfed1"},"vehicle_type_id":"4","last_reported":1728320882,"current_range_meters":6000,"station_id":"ce4bhih2rcd13ifvqfr0","pricing_plan_id":"cebpf4jnsgd1na2vs0mg"},{"bike_id":"d00a3477-782a-4de0-b711-15ed9dd434f4","system_id":"levelo_inurba_marseille","lat":43.23052,"lon":5.35497,"is_reserved":false,"is_disabled":false,"rental_uris":{"android":"levelo://app?vid=d00a3477-782a-4de0-b711-15ed9dd434f4","ios":"levelo://app?vid=d00a3477-782a-4de0-b711-15ed9dd434f4"},"vehicle_type_id":"4","last_reported":1728320882,"current_range_meters":8800,"station_id":"cpo3342slgdg3j2ifvpg","pricing_plan_id":"cebpf4jnsgd1na2vs0mg"},{"bike_id":"42381802-a9f6-49fa-830a-dcbb937fe4c3","system_id":"levelo_inurba_marseille","lat":43.28933,"lon":5.36643,"is_reserved":false,"is_disabled":false,"rental_uris":{"android":"levelo://app?vid=42381802-a9f6-49fa-830a-dcbb937fe4c3","ios":"levelo://app?vid=42381802-a9f6-49fa-830a-dcbb937fe4c3"},"vehicle_type_id":"4","last_reported":1728320882,"current_range_meters":4800,"station_id":"ce4bhap2rcd13ifvqek0","pricing_plan_id":"cebpf4jnsgd1na2vs0mg"},{"bike_id":"9c5d863a-5a7e-4174-aa67-2817a0e74f57","system_id":"levelo_inurba_marseille","lat":43.2846,"lon":5.35891,"is_reserved":false,"is_disabled":false,"rental_uris":{"android":"levelo://app?vid=9c5d863a-5a7e-4174-aa67-2817a0e74f57","ios":"levelo://app?vid=9c5d863a-5a7e-4174-aa67-2817a0e74f57"},"vehicle_type_id":"4","last_reported":1728320882,"current_range_meters":12000,"station_id":"ce4bhah2rcd13ifvqei0","pricing_plan_id":"cebpf4jnsgd1na2vs0mg"},{"bike_id":"9f0e133a-18bb-4d91-8d69-52b0b5188287","system_id":"levelo_inurba_marseille","lat":43.2621,"lon":5.37444,"is_reserved":false,"is_disabled":false,"rental_uris":{"android":"levelo://app?vid=9f0e133a-18bb-4d91-8d69-52b0b5188287","ios":"levelo://app?vid=9f0e133a-18bb-4d91-8d69-52b0b5188287"},"vehicle_type_id":"4","last_reported":1728320882,"current_range_meters":26800,"station_id":"ce4bhgp2rcd13ifvqfc0","pricing_plan_id":"cebpf4jnsgd1na2vs0mg"},{"bike_id":"5cb0ffb2-e973-46db-baf3-638dd9c2e71a","system_id":"levelo_inurba_marseille","lat":43.31714,"lon":5.37743,"is_reserved":false,"is_disabled":false,"rental_uris":{"android":"levelo://app?vid=5cb0ffb2-e973-46db-baf3-638dd9c2e71a","ios":"levelo://app?vid=5cb0ffb2-e973-46db-baf3-638dd9c2e71a"},"vehicle_type_id":"4","last_reported":1728320882,"current_range_meters":2800,"station_id":"ce4bgth2rcd13ifvqch0","pricing_plan_id":"cebpf4jnsgd1na2vs0mg"},{"bike_id":"383e6238-5106-499a-8e26-d16b81b00a77","system_id":"levelo_inurba_marseille","lat":43.299626,"lon":5.413329,"is_reserved":false,"is_disabled":false,"rental_uris":{"android":"levelo://app?vid=383e6238-5106-499a-8e26-d16b81b00a77","ios":"levelo://app?vid=383e6238-5106-499a-8e26-d16b81b00a77"},"vehicle_type_id":"4","last_reported":1728320882,"current_range_meters":20800,"station_id":"ce4bhp12rcd13ifvqh9g","pricing_plan_id":"cebpf4jnsgd1na2vs0mg"},{"bike_id":"e8f38f77-6572-42be-9296-0cbe6e7cb972","system_id":"levelo_inurba_marseille","lat":43.23054,"lon":5.35492,"is_reserved":false,"is_disabled":false,"rental_uris":{"android":"levelo://app?vid=e8f38f77-6572-42be-9296-0cbe6e7cb972","ios":"levelo://app?vid=e8f38f77-6572-42be-9296-0cbe6e7cb972"},"vehicle_type_id":"4","last_reported":1728320882,"current_range_meters":36800,"station_id":"cpo3342slgdg3j2ifvpg","pricing_plan_id":"cebpf4jnsgd1na2vs0mg"},{"bike_id":"12db2f57-2fa9-4daa-8f36-af1e2ff058b3","system_id":"levelo_inurba_marseille","lat":43.33028,"lon":5.39043,"is_reserved":false,"is_disabled":false,"rental_uris":{"android":"levelo://app?vid=12db2f57-2fa9-4daa-8f36-af1e2ff058b3","ios":"levelo://app?vid=12db2f57-2fa9-4daa-8f36-af1e2ff058b3"},"vehicle_type_id":"4","last_reported":1728320882,"current_range_meters":11200,"station_id":"ce4bhr92rcd13ifvqhrg","pricing_plan_id":"cebpf4jnsgd1na2vs0mg"},{"bike_id":"6383107e-a90b-48e5-ad67-a00f3da06e6b","system_id":"levelo_inurba_marseille","lat":43.280858,"lon":5.396658,"is_reserved":false,"is_disabled":false,"rental_uris":{"android":"levelo://app?vid=6383107e-a90b-48e5-ad67-a00f3da06e6b","ios":"levelo://app?vid=6383107e-a90b-48e5-ad67-a00f3da06e6b"},"vehicle_type_id":"4","last_reported":1728320882,"current_range_meters":17200,"station_id":"ce4bho12rcd13ifvqh2g","pricing_plan_id":"cebpf4jnsgd1na2vs0mg"},{"bike_id":"ba89ba13-d3ab-416d-a758-ea510c257487","system_id":"levelo_inurba_marseille","lat":43.29025,"lon":5.38643,"is_reserved":false,"is_disabled":false,"rental_uris":{"android":"levelo://app?vid=ba89ba13-d3ab-416d-a758-ea510c257487","ios":"levelo://app?vid=ba89ba13-d3ab-416d-a758-ea510c257487"},"vehicle_type_id":"4","last_reported":1728320882,"current_range_meters":38800,"station_id":"ce4bh4p2rcd13ifvqe0g","pricing_plan_id":"cebpf4jnsgd1na2vs0mg"},{"bike_id":"e985684f-4a04-4fb0-b6c4-d2f7f888b6e7","system_id":"levelo_inurba_marseille","lat":43.27178,"lon":5.40993,"is_reserved":false,"is_disabled":false,"rental_uris":{"android":"levelo://app?vid=e985684f-4a04-4fb0-b6c4-d2f7f888b6e7","ios":"levelo://app?vid=e985684f-4a04-4fb0-b6c4-d2f7f888b6e7"},"vehicle_type_id":"4","last_reported":1728320882,"current_range_meters":8400,"station_id":"ce4bhkp2rcd13ifvqgd0","pricing_plan_id":"cebpf4jnsgd1na2vs0mg"},{"bike_id":"9f72c76a-fefc-4dd0-9191-d7a5fd63a001","system_id":"levelo_inurba_marseille","lat":43.33603,"lon":5.3986,"is_reserved":false,"is_disabled":false,"rental_uris":{"android":"levelo://app?vid=9f72c76a-fefc-4dd0-9191-d7a5fd63a001","ios":"levelo://app?vid=9f72c76a-fefc-4dd0-9191-d7a5fd63a001"},"vehicle_type_id":"4","last_reported":1728320882,"current_range_meters":4000,"station_id":"","pricing_plan_id":"cebpf4jnsgd1na2vs0mg"},{"bike_id":"2fe9a872-9d35-432b-917d-ada3867c3c80","system_id":"levelo_inurba_marseille","lat":43.31525,"lon":5.38038,"is_reserved":false,"is_disabled":false,"rental_uris":{"android":"levelo://app?vid=2fe9a872-9d35-432b-917d-ada3867c3c80","ios":"levelo://app?vid=2fe9a872-9d35-432b-917d-ada3867c3c80"},"vehicle_type_id":"4","last_reported":1728320882,"current_range_meters":29600,"station_id":"ce4bhsp2rcd13ifvqi50","pricing_plan_id":"cebpf4jnsgd1na2vs0mg"},{"bike_id":"ce2037e4-bb30-4793-a6af-b07a6f04330f","system_id":"levelo_inurba_marseille","lat":43.310791,"lon":5.383632,"is_reserved":false,"is_disabled":false,"rental_uris":{"android":"levelo://app?vid=ce2037e4-bb30-4793-a6af-b07a6f04330f","ios":"levelo://app?vid=ce2037e4-bb30-4793-a6af-b07a6f04330f"},"vehicle_type_id":"4","last_reported":1728320882,"current_range_meters":18800,"station_id":"ce4bgv92rcd13ifvqcr0","pricing_plan_id":"cebpf4jnsgd1na2vs0mg"},{"bike_id":"f59e3f34-e775-4f25-9d5b-c03ffebe1ecb","system_id":"levelo_inurba_marseille","lat":43.30146,"lon":5.38774,"is_reserved":false,"is_disabled":false,"rental_uris":{"android":"levelo://app?vid=f59e3f34-e775-4f25-9d5b-c03ffebe1ecb","ios":"levelo://app?vid=f59e3f34-e775-4f25-9d5b-c03ffebe1ecb"},"vehicle_type_id":"4","last_reported":1728320882,"current_range_meters":3200,"station_id":"ce4bghh2rcd13ifvqb60","pricing_plan_id":"cebpf4jnsgd1na2vs0mg"},{"bike_id":"85cf69d8-14ed-4826-adab-0a67eed374a4","system_id":"levelo_inurba_marseille","lat":43.28691,"lon":5.37387,"is_reserved":false,"is_disabled":false,"rental_uris":{"android":"levelo://app?vid=85cf69d8-14ed-4826-adab-0a67eed374a4","ios":"levelo://app?vid=85cf69d8-14ed-4826-adab-0a67eed374a4"},"vehicle_type_id":"4","last_reported":1728320882,"current_range_meters":24800,"station_id":"ce4bh3p2rcd13ifvqdq0","pricing_plan_id":"cebpf4jnsgd1na2vs0mg"},{"bike_id":"6d4525a1-4df9-4bde-8481-acf85ddf64a9","system_id":"levelo_inurba_marseille","lat":43.31724,"lon":5.42393,"is_reserved":false,"is_disabled":false,"rental_uris":{"android":"levelo://app?vid=6d4525a1-4df9-4bde-8481-acf85ddf64a9","ios":"levelo://app?vid=6d4525a1-4df9-4bde-8481-acf85ddf64a9"},"vehicle_type_id":"4","last_reported":1728320882,"current_range_meters":5600,"station_id":"ce4bhp92rcd13ifvqhbg","pricing_plan_id":"cebpf4jnsgd1na2vs0mg"},{"bike_id":"4378a0dd-7ddd-4246-9294-1e2af02e0700","system_id":"levelo_inurba_marseille","lat":43.23198,"lon":5.35554,"is_reserved":false,"is_disabled":false,"rental_uris":{"android":"levelo://app?vid=4378a0dd-7ddd-4246-9294-1e2af02e0700","ios":"levelo://app?vid=4378a0dd-7ddd-4246-9294-1e2af02e0700"},"vehicle_type_id":"4","last_reported":1728320882,"current_range_meters":4000,"station_id":"ce4bhu92rcd13ifvqi70","pricing_plan_id":"cebpf4jnsgd1na2vs0mg"},{"bike_id":"efb4c3cb-ebfb-40a0-8378-3a8d13c37613","system_id":"levelo_inurba_marseille","lat":43.31882,"lon":5.40745,"is_reserved":false,"is_disabled":false,"rental_uris":{"android":"levelo://app?vid=efb4c3cb-ebfb-40a0-8378-3a8d13c37613","ios":"levelo://app?vid=efb4c3cb-ebfb-40a0-8378-3a8d13c37613"},"vehicle_type_id":"4","last_reported":1728320882,"current_range_meters":25600,"station_id":"ce4bhq12rcd13ifvqhig","pricing_plan_id":"cebpf4jnsgd1na2vs0mg"},{"bike_id":"93d45870-2e1c-4ed1-9664-7b219a4ed443","system_id":"levelo_inurba_marseille","lat":43.22931,"lon":5.35382,"is_reserved":false,"is_disabled":false,"rental_uris":{"android":"levelo://app?vid=93d45870-2e1c-4ed1-9664-7b219a4ed443","ios":"levelo://app?vid=93d45870-2e1c-4ed1-9664-7b219a4ed443"},"vehicle_type_id":"4","last_reported":1728320882,"current_range_meters":36400,"station_id":"cpo3532slgdg3j2ikp40","pricing_plan_id":"cebpf4jnsgd1na2vs0mg"},{"bike_id":"d4dfa52e-76b8-410b-b129-46d068df677c","system_id":"levelo_inurba_marseille","lat":43.31529,"lon":5.38043,"is_reserved":false,"is_disabled":false,"rental_uris":{"android":"levelo://app?vid=d4dfa52e-76b8-410b-b129-46d068df677c","ios":"levelo://app?vid=d4dfa52e-76b8-410b-b129-46d068df677c"},"vehicle_type_id":"4","last_reported":1728320882,"current_range_meters":28400,"station_id":"ce4bhsp2rcd13ifvqi50","pricing_plan_id":"cebpf4jnsgd1na2vs0mg"},{"bike_id":"add6097e-e613-4f0a-b97d-690f03169984","system_id":"levelo_inurba_marseille","lat":43.29786,"lon":5.39338,"is_reserved":false,"is_disabled":false,"rental_uris":{"android":"levelo://app?vid=add6097e-e613-4f0a-b97d-690f03169984","ios":"levelo://app?vid=add6097e-e613-4f0a-b97d-690f03169984"},"vehicle_type_id":"4","last_reported":1728320882,"current_range_meters":3200,"station_id":"chh1huq6cuj3fo74tm60","pricing_plan_id":"cebpf4jnsgd1na2vs0mg"},{"bike_id":"6e512044-ef12-457b-bcca-26bd86c5618a","system_id":"levelo_inurba_marseille","lat":43.23061,"lon":5.3549,"is_reserved":false,"is_disabled":false,"rental_uris":{"android":"levelo://app?vid=6e512044-ef12-457b-bcca-26bd86c5618a","ios":"levelo://app?vid=6e512044-ef12-457b-bcca-26bd86c5618a"},"vehicle_type_id":"4","last_reported":1728320882,"current_range_meters":36400,"station_id":"cpo3342slgdg3j2ifvpg","pricing_plan_id":"cebpf4jnsgd1na2vs0mg"},{"bike_id":"8ac7dc23-479b-4537-9571-b3045c5ee708","system_id":"levelo_inurba_marseille","lat":43.26934,"lon":5.40265,"is_reserved":false,"is_disabled":false,"rental_uris":{"android":"levelo://app?vid=8ac7dc23-479b-4537-9571-b3045c5ee708","ios":"levelo://app?vid=8ac7dc23-479b-4537-9571-b3045c5ee708"},"vehicle_type_id":"4","last_reported":1728320882,"current_range_meters":25600,"station_id":"cjm6bp8fraef2m0cb0m0","pricing_plan_id":"cebpf4jnsgd1na2vs0mg"},{"bike_id":"270b90ca-7521-4165-af49-e1c727e5fa34","system_id":"levelo_inurba_marseille","lat":43.24167,"lon":5.36398,"is_reserved":false,"is_disabled":false,"rental_uris":{"android":"levelo://app?vid=270b90ca-7521-4165-af49-e1c727e5fa34","ios":"levelo://app?vid=270b90ca-7521-4165-af49-e1c727e5fa34"},"vehicle_type_id":"4","last_reported":1728320882,"current_range_meters":28400,"station_id":"cpo36qri1sfpv3e86is0","pricing_plan_id":"cebpf4jnsgd1na2vs0mg"},{"bike_id":"1c6c58c3-e803-47d0-aae9-62fa2a62056c","system_id":"levelo_inurba_marseille","lat":43.23069,"lon":5.35492,"is_reserved":false,"is_disabled":false,"rental_uris":{"android":"levelo://app?vid=1c6c58c3-e803-47d0-aae9-62fa2a62056c","ios":"levelo://app?vid=1c6c58c3-e803-47d0-aae9-62fa2a62056c"},"vehicle_type_id":"4","last_reported":1728320882,"current_range_meters":24800,"station_id":"cpo3342slgdg3j2ifvpg","pricing_plan_id":"cebpf4jnsgd1na2vs0mg"},{"bike_id":"50607505-9cd4-42d5-ad01-14fd88451f60","system_id":"levelo_inurba_marseille","lat":43.27622,"lon":5.3611,"is_reserved":false,"is_disabled":false,"rental_uris":{"android":"levelo://app?vid=50607505-9cd4-42d5-ad01-14fd88451f60","ios":"levelo://app?vid=50607505-9cd4-42d5-ad01-14fd88451f60"},"vehicle_type_id":"4","last_reported":1728320882,"current_range_meters":22000,"station_id":"ce4bgj92rcd13ifvqbe0","pricing_plan_id":"cebpf4jnsgd1na2vs0mg"},{"bike_id":"618fe428-68f9-46d7-8f6c-24c66e12d94f","system_id":"levelo_inurba_marseille","lat":43.27615,"lon":5.36127,"is_reserved":false,"is_disabled":false,"rental_uris":{"android":"levelo://app?vid=618fe428-68f9-46d7-8f6c-24c66e12d94f","ios":"levelo://app?vid=618fe428-68f9-46d7-8f6c-24c66e12d94f"},"vehicle_type_id":"4","last_reported":1728320882,"current_range_meters":8000,"station_id":"ce4bgj92rcd13ifvqbe0","pricing_plan_id":"cebpf4jnsgd1na2vs0mg"},{"bike_id":"7f905398-bf13-44d0-b0d2-de1277b5bf2c","system_id":"levelo_inurba_marseille","lat":43.25826,"lon":5.39442,"is_reserved":false,"is_disabled":false,"rental_uris":{"android":"levelo://app?vid=7f905398-bf13-44d0-b0d2-de1277b5bf2c","ios":"levelo://app?vid=7f905398-bf13-44d0-b0d2-de1277b5bf2c"},"vehicle_type_id":"4","last_reported":1728320882,"current_range_meters":39200,"station_id":"ce4bhip2rcd13ifvqft0","pricing_plan_id":"cebpf4jnsgd1na2vs0mg"},{"bike_id":"83e845b9-84ea-4511-b28f-2ee8c3d2ac76","system_id":"levelo_inurba_marseille","lat":43.33005,"lon":5.39042,"is_reserved":false,"is_disabled":false,"rental_uris":{"android":"levelo://app?vid=83e845b9-84ea-4511-b28f-2ee8c3d2ac76","ios":"levelo://app?vid=83e845b9-84ea-4511-b28f-2ee8c3d2ac76"},"vehicle_type_id":"4","last_reported":1728320882,"current_range_meters":20400,"station_id":"ce4bhr92rcd13ifvqhrg","pricing_plan_id":"cebpf4jnsgd1na2vs0mg"},{"bike_id":"e16e8d7e-d7f9-444a-833f-dc9af214c16f","system_id":"levelo_inurba_marseille","lat":43.32113,"lon":5.4105,"is_reserved":false,"is_disabled":false,"rental_uris":{"android":"levelo://app?vid=e16e8d7e-d7f9-444a-833f-dc9af214c16f","ios":"levelo://app?vid=e16e8d7e-d7f9-444a-833f-dc9af214c16f"},"vehicle_type_id":"4","last_reported":1728320882,"current_range_meters":5600,"station_id":"ce4bhqh2rcd13ifvqhmg","pricing_plan_id":"cebpf4jnsgd1na2vs0mg"},{"bike_id":"810c56fc-9d75-48ab-b949-5063e3a536f8","system_id":"levelo_inurba_marseille","lat":43.30794,"lon":5.43533,"is_reserved":false,"is_disabled":false,"rental_uris":{"android":"levelo://app?vid=810c56fc-9d75-48ab-b949-5063e3a536f8","ios":"levelo://app?vid=810c56fc-9d75-48ab-b949-5063e3a536f8"},"vehicle_type_id":"4","last_reported":1728320882,"current_range_meters":40000,"station_id":"ce4bhph2rcd13ifvqheg","pricing_plan_id":"cebpf4jnsgd1na2vs0mg"},{"bike_id":"ab0ef8f6-2d64-477f-ab35-7e54daa51f0f","system_id":"levelo_inurba_marseille","lat":43.31712,"lon":5.4371,"is_reserved":false,"is_disabled":false,"rental_uris":{"android":"levelo://app?vid=ab0ef8f6-2d64-477f-ab35-7e54daa51f0f","ios":"levelo://app?vid=ab0ef8f6-2d64-477f-ab35-7e54daa51f0f"},"vehicle_type_id":"4","last_reported":1728320882,"current_range_meters":25200,"station_id":"ce4bhp92rcd13ifvqhcg","pricing_plan_id":"cebpf4jnsgd1na2vs0mg"},{"bike_id":"c45340a7-5257-408a-897a-01994bd38219","system_id":"levelo_inurba_marseille","lat":43.28463,"lon":5.35894,"is_reserved":false,"is_disabled":false,"rental_uris":{"android":"levelo://app?vid=c45340a7-5257-408a-897a-01994bd38219","ios":"levelo://app?vid=c45340a7-5257-408a-897a-01994bd38219"},"vehicle_type_id":"4","last_reported":1728320882,"current_range_meters":6000,"station_id":"ce4bhah2rcd13ifvqei0","pricing_plan_id":"cebpf4jnsgd1na2vs0mg"},{"bike_id":"75592b7d-c482-4af8-9fdd-dfdc1c88df4d","system_id":"levelo_inurba_marseille","lat":43.28347,"lon":5.3811,"is_reserved":false,"is_disabled":false,"rental_uris":{"android":"levelo://app?vid=75592b7d-c482-4af8-9fdd-dfdc1c88df4d","ios":"levelo://app?vid=75592b7d-c482-4af8-9fdd-dfdc1c88df4d"},"vehicle_type_id":"4","last_reported":1728320882,"current_range_meters":8000,"station_id":"ce4bh412rcd13ifvqdr0","pricing_plan_id":"cebpf4jnsgd1na2vs0mg"},{"bike_id":"b9644df2-b234-4f72-b771-b50713752d5c","system_id":"levelo_inurba_marseille","lat":43.31064,"lon":5.40091,"is_reserved":false,"is_disabled":false,"rental_uris":{"android":"levelo://app?vid=b9644df2-b234-4f72-b771-b50713752d5c","ios":"levelo://app?vid=b9644df2-b234-4f72-b771-b50713752d5c"},"vehicle_type_id":"4","last_reported":1728320882,"current_range_meters":3600,"station_id":"","pricing_plan_id":"cebpf4jnsgd1na2vs0mg"},{"bike_id":"f7612392-4f4b-453b-a64c-499de3c2600f","system_id":"levelo_inurba_marseille","lat":43.24172,"lon":5.36388,"is_reserved":false,"is_disabled":false,"rental_uris":{"android":"levelo://app?vid=f7612392-4f4b-453b-a64c-499de3c2600f","ios":"levelo://app?vid=f7612392-4f4b-453b-a64c-499de3c2600f"},"vehicle_type_id":"4","last_reported":1728320882,"current_range_meters":36000,"station_id":"cpo36qri1sfpv3e86is0","pricing_plan_id":"cebpf4jnsgd1na2vs0mg"},{"bike_id":"b9f7e217-2396-4f17-99e6-316574934f3f","system_id":"levelo_inurba_marseille","lat":43.28464,"lon":5.35882,"is_reserved":false,"is_disabled":false,"rental_uris":{"android":"levelo://app?vid=b9f7e217-2396-4f17-99e6-316574934f3f","ios":"levelo://app?vid=b9f7e217-2396-4f17-99e6-316574934f3f"},"vehicle_type_id":"4","last_reported":1728320882,"current_range_meters":39200,"station_id":"ce4bhah2rcd13ifvqei0","pricing_plan_id":"cebpf4jnsgd1na2vs0mg"},{"bike_id":"9a873b21-4325-4346-9f74-80b6d80ab720","system_id":"levelo_inurba_marseille","lat":43.26949,"lon":5.38634,"is_reserved":false,"is_disabled":false,"rental_uris":{"android":"levelo://app?vid=9a873b21-4325-4346-9f74-80b6d80ab720","ios":"levelo://app?vid=9a873b21-4325-4346-9f74-80b6d80ab720"},"vehicle_type_id":"4","last_reported":1728320882,"current_range_meters":22000,"station_id":"ce4bhh92rcd13ifvqfh0","pricing_plan_id":"cebpf4jnsgd1na2vs0mg"},{"bike_id":"9c225177-fb60-48fa-adfa-0396ef9cdb76","system_id":"levelo_inurba_marseille","lat":43.32046,"lon":5.41547,"is_reserved":false,"is_disabled":false,"rental_uris":{"android":"levelo://app?vid=9c225177-fb60-48fa-adfa-0396ef9cdb76","ios":"levelo://app?vid=9c225177-fb60-48fa-adfa-0396ef9cdb76"},"vehicle_type_id":"4","last_reported":1728320882,"current_range_meters":29600,"station_id":"ce4bhq92rcd13ifvqhkg","pricing_plan_id":"cebpf4jnsgd1na2vs0mg"},{"bike_id":"e592fa8f-aa5a-46f1-b2f4-aa0aa5f30808","system_id":"levelo_inurba_marseille","lat":43.24679,"lon":5.38157,"is_reserved":false,"is_disabled":false,"rental_uris":{"android":"levelo://app?vid=e592fa8f-aa5a-46f1-b2f4-aa0aa5f30808","ios":"levelo://app?vid=e592fa8f-aa5a-46f1-b2f4-aa0aa5f30808"},"vehicle_type_id":"4","last_reported":1728320882,"current_range_meters":32000,"station_id":"ce4bhih2rcd13ifvqfr0","pricing_plan_id":"cebpf4jnsgd1na2vs0mg"},{"bike_id":"09fde903-e870-4ddb-90b8-e0ddfc542f01","system_id":"levelo_inurba_marseille","lat":43.31271,"lon":5.40166,"is_reserved":false,"is_disabled":false,"rental_uris":{"android":"levelo://app?vid=09fde903-e870-4ddb-90b8-e0ddfc542f01","ios":"levelo://app?vid=09fde903-e870-4ddb-90b8-e0ddfc542f01"},"vehicle_type_id":"4","last_reported":1728320882,"current_range_meters":21600,"station_id":"ce4bh092rcd13ifvqd30","pricing_plan_id":"cebpf4jnsgd1na2vs0mg"},{"bike_id":"16f2623b-8d6e-4528-b0c1-3479f17c28a9","system_id":"levelo_inurba_marseille","lat":43.27819,"lon":5.40718,"is_reserved":false,"is_disabled":false,"rental_uris":{"android":"levelo://app?vid=16f2623b-8d6e-4528-b0c1-3479f17c28a9","ios":"levelo://app?vid=16f2623b-8d6e-4528-b0c1-3479f17c28a9"},"vehicle_type_id":"4","last_reported":1728320882,"current_range_meters":22800,"station_id":"ce4bhnh2rcd13ifvqgtg","pricing_plan_id":"cebpf4jnsgd1na2vs0mg"},{"bike_id":"c74d7331-ac9c-4dc5-af43-8e10bdc2046d","system_id":"levelo_inurba_marseille","lat":43.273713,"lon":5.362622,"is_reserved":false,"is_disabled":false,"rental_uris":{"android":"levelo://app?vid=c74d7331-ac9c-4dc5-af43-8e10bdc2046d","ios":"levelo://app?vid=c74d7331-ac9c-4dc5-af43-8e10bdc2046d"},"vehicle_type_id":"4","last_reported":1728320882,"current_range_meters":14800,"station_id":"ce4bhbh2rcd13ifvqeo0","pricing_plan_id":"cebpf4jnsgd1na2vs0mg"},{"bike_id":"d7516ceb-154e-4d0b-bc61-d1eb232c5c17","system_id":"levelo_inurba_marseille","lat":43.27056,"lon":5.40263,"is_reserved":false,"is_disabled":false,"rental_uris":{"android":"levelo://app?vid=d7516ceb-154e-4d0b-bc61-d1eb232c5c17","ios":"levelo://app?vid=d7516ceb-154e-4d0b-bc61-d1eb232c5c17"},"vehicle_type_id":"4","last_reported":1728320882,"current_range_meters":2800,"station_id":"ce4bhk92rcd13ifvqgc0","pricing_plan_id":"cebpf4jnsgd1na2vs0mg"},{"bike_id":"46038e6f-a517-41f6-8b7b-cd5349a8c028","system_id":"levelo_inurba_marseille","lat":43.306074,"lon":5.372406,"is_reserved":false,"is_disabled":false,"rental_uris":{"android":"levelo://app?vid=46038e6f-a517-41f6-8b7b-cd5349a8c028","ios":"levelo://app?vid=46038e6f-a517-41f6-8b7b-cd5349a8c028"},"vehicle_type_id":"4","last_reported":1728320882,"current_range_meters":22800,"station_id":"ce4bgqh2rcd13ifvqc4g","pricing_plan_id":"cebpf4jnsgd1na2vs0mg"},{"bike_id":"081e3fa6-b530-4c6e-aa1a-cc70d51bcf7f","system_id":"levelo_inurba_marseille","lat":43.316875,"lon":5.4048,"is_reserved":false,"is_disabled":false,"rental_uris":{"android":"levelo://app?vid=081e3fa6-b530-4c6e-aa1a-cc70d51bcf7f","ios":"levelo://app?vid=081e3fa6-b530-4c6e-aa1a-cc70d51bcf7f"},"vehicle_type_id":"4","last_reported":1728320882,"current_range_meters":37600,"station_id":"ce4bhq12rcd13ifvqhhg","pricing_plan_id":"cebpf4jnsgd1na2vs0mg"},{"bike_id":"f1292305-2560-4dbc-a23c-d88632f5a9d8","system_id":"levelo_inurba_marseille","lat":43.30423,"lon":5.38897,"is_reserved":false,"is_disabled":false,"rental_uris":{"android":"levelo://app?vid=f1292305-2560-4dbc-a23c-d88632f5a9d8","ios":"levelo://app?vid=f1292305-2560-4dbc-a23c-d88632f5a9d8"},"vehicle_type_id":"4","last_reported":1728320882,"current_range_meters":6800,"station_id":"ce4bgk12rcd13ifvqbi0","pricing_plan_id":"cebpf4jnsgd1na2vs0mg"},{"bike_id":"156938fc-0862-4055-a42a-7cb0dfa831ba","system_id":"levelo_inurba_marseille","lat":43.31079,"lon":5.42436,"is_reserved":false,"is_disabled":false,"rental_uris":{"android":"levelo://app?vid=156938fc-0862-4055-a42a-7cb0dfa831ba","ios":"levelo://app?vid=156938fc-0862-4055-a42a-7cb0dfa831ba"},"vehicle_type_id":"4","last_reported":1728320882,"current_range_meters":16400,"station_id":"ce4bhp92rcd13ifvqhag","pricing_plan_id":"cebpf4jnsgd1na2vs0mg"},{"bike_id":"98c32c5f-ea99-479f-8694-ad5dce11635c","system_id":"levelo_inurba_marseille","lat":43.30355,"lon":5.41879,"is_reserved":false,"is_disabled":false,"rental_uris":{"android":"levelo://app?vid=98c32c5f-ea99-479f-8694-ad5dce11635c","ios":"levelo://app?vid=98c32c5f-ea99-479f-8694-ad5dce11635c"},"vehicle_type_id":"4","last_reported":1728320882,"current_range_meters":8400,"station_id":"ce4bhop2rcd13ifvqh7g","pricing_plan_id":"cebpf4jnsgd1na2vs0mg"},{"bike_id":"5a8d0a41-9d7c-4fee-84f1-7675a9662a2f","system_id":"levelo_inurba_marseille","lat":43.29531,"lon":5.39403,"is_reserved":false,"is_disabled":false,"rental_uris":{"android":"levelo://app?vid=5a8d0a41-9d7c-4fee-84f1-7675a9662a2f","ios":"levelo://app?vid=5a8d0a41-9d7c-4fee-84f1-7675a9662a2f"},"vehicle_type_id":"4","last_reported":1728320882,"current_range_meters":6000,"station_id":"ce4bh292rcd13ifvqdf0","pricing_plan_id":"cebpf4jnsgd1na2vs0mg"},{"bike_id":"83339be4-75a1-4ed9-8b58-3351fcd47122","system_id":"levelo_inurba_marseille","lat":43.29552,"lon":5.42287,"is_reserved":false,"is_disabled":false,"rental_uris":{"android":"levelo://app?vid=83339be4-75a1-4ed9-8b58-3351fcd47122","ios":"levelo://app?vid=83339be4-75a1-4ed9-8b58-3351fcd47122"},"vehicle_type_id":"4","last_reported":1728320882,"current_range_meters":39200,"station_id":"ce4bhph2rcd13ifvqhdg","pricing_plan_id":"cebpf4jnsgd1na2vs0mg"},{"bike_id":"035169f9-3688-40e7-b630-6e0665ca7977","system_id":"levelo_inurba_marseille","lat":43.27817,"lon":5.40724,"is_reserved":false,"is_disabled":false,"rental_uris":{"android":"levelo://app?vid=035169f9-3688-40e7-b630-6e0665ca7977","ios":"levelo://app?vid=035169f9-3688-40e7-b630-6e0665ca7977"},"vehicle_type_id":"4","last_reported":1728320882,"current_range_meters":28800,"station_id":"ce4bhnh2rcd13ifvqgtg","pricing_plan_id":"cebpf4jnsgd1na2vs0mg"},{"bike_id":"b005a7a0-6291-433a-8cd5-43baabc30e39","system_id":"levelo_inurba_marseille","lat":43.24383,"lon":5.3706,"is_reserved":false,"is_disabled":false,"rental_uris":{"android":"levelo://app?vid=b005a7a0-6291-433a-8cd5-43baabc30e39","ios":"levelo://app?vid=b005a7a0-6291-433a-8cd5-43baabc30e39"},"vehicle_type_id":"4","last_reported":1728320882,"current_range_meters":7200,"station_id":"ce4bhhh2rcd13ifvqfk0","pricing_plan_id":"cebpf4jnsgd1na2vs0mg"},{"bike_id":"c3ee62e4-c3f9-4398-8ed7-a96c88652666","system_id":"levelo_inurba_marseille","lat":43.290192,"lon":5.368799,"is_reserved":false,"is_disabled":false,"rental_uris":{"android":"levelo://app?vid=c3ee62e4-c3f9-4398-8ed7-a96c88652666","ios":"levelo://app?vid=c3ee62e4-c3f9-4398-8ed7-a96c88652666"},"vehicle_type_id":"4","last_reported":1728320882,"current_range_meters":23200,"station_id":"ce4bhap2rcd13ifvqek0","pricing_plan_id":"cebpf4jnsgd1na2vs0mg"},{"bike_id":"683eab1a-096e-4721-ab2c-50400ea1424e","system_id":"levelo_inurba_marseille","lat":43.31358,"lon":5.38493,"is_reserved":false,"is_disabled":false,"rental_uris":{"android":"levelo://app?vid=683eab1a-096e-4721-ab2c-50400ea1424e","ios":"levelo://app?vid=683eab1a-096e-4721-ab2c-50400ea1424e"},"vehicle_type_id":"4","last_reported":1728320882,"current_range_meters":37600,"station_id":"ce4bgt92rcd13ifvqcf0","pricing_plan_id":"cebpf4jnsgd1na2vs0mg"},{"bike_id":"e9204f5a-b3f7-47f9-a6a3-89a1830ea3d1","system_id":"levelo_inurba_marseille","lat":43.25002,"lon":5.38927,"is_reserved":false,"is_disabled":false,"rental_uris":{"android":"levelo://app?vid=e9204f5a-b3f7-47f9-a6a3-89a1830ea3d1","ios":"levelo://app?vid=e9204f5a-b3f7-47f9-a6a3-89a1830ea3d1"},"vehicle_type_id":"4","last_reported":1728320882,"current_range_meters":21600,"station_id":"ce4bhgp2rcd13ifvqfd0","pricing_plan_id":"cebpf4jnsgd1na2vs0mg"},{"bike_id":"c1975eeb-029e-4d79-92b5-3c802b1901e0","system_id":"levelo_inurba_marseille","lat":43.28463,"lon":5.35886,"is_reserved":false,"is_disabled":false,"rental_uris":{"android":"levelo://app?vid=c1975eeb-029e-4d79-92b5-3c802b1901e0","ios":"levelo://app?vid=c1975eeb-029e-4d79-92b5-3c802b1901e0"},"vehicle_type_id":"4","last_reported":1728320882,"current_range_meters":34800,"station_id":"ce4bhah2rcd13ifvqei0","pricing_plan_id":"cebpf4jnsgd1na2vs0mg"},{"bike_id":"e5e66d22-db28-4839-a16c-eadaed6abe51","system_id":"levelo_inurba_marseille","lat":43.30133,"lon":5.39871,"is_reserved":false,"is_disabled":false,"rental_uris":{"android":"levelo://app?vid=e5e66d22-db28-4839-a16c-eadaed6abe51","ios":"levelo://app?vid=e5e66d22-db28-4839-a16c-eadaed6abe51"},"vehicle_type_id":"4","last_reported":1728320882,"current_range_meters":6800,"station_id":"ce4bh0h2rcd13ifvqd40","pricing_plan_id":"cebpf4jnsgd1na2vs0mg"},{"bike_id":"4e5946e6-407e-4701-9bc0-7c410a7ddd3b","system_id":"levelo_inurba_marseille","lat":43.33024,"lon":5.39042,"is_reserved":false,"is_disabled":false,"rental_uris":{"android":"levelo://app?vid=4e5946e6-407e-4701-9bc0-7c410a7ddd3b","ios":"levelo://app?vid=4e5946e6-407e-4701-9bc0-7c410a7ddd3b"},"vehicle_type_id":"4","last_reported":1728320882,"current_range_meters":21600,"station_id":"ce4bhr92rcd13ifvqhrg","pricing_plan_id":"cebpf4jnsgd1na2vs0mg"},{"bike_id":"6826c930-8aa2-4db5-96a6-4b67fd5214fe","system_id":"levelo_inurba_marseille","lat":43.2827,"lon":5.35075,"is_reserved":false,"is_disabled":false,"rental_uris":{"android":"levelo://app?vid=6826c930-8aa2-4db5-96a6-4b67fd5214fe","ios":"levelo://app?vid=6826c930-8aa2-4db5-96a6-4b67fd5214fe"},"vehicle_type_id":"4","last_reported":1728320882,"current_range_meters":9600,"station_id":"ce4bhbp2rcd13ifvqerg","pricing_plan_id":"cebpf4jnsgd1na2vs0mg"},{"bike_id":"c7c933ea-453c-4444-a304-2fa069327739","system_id":"levelo_inurba_marseille","lat":43.23066,"lon":5.3549,"is_reserved":false,"is_disabled":false,"rental_uris":{"android":"levelo://app?vid=c7c933ea-453c-4444-a304-2fa069327739","ios":"levelo://app?vid=c7c933ea-453c-4444-a304-2fa069327739"},"vehicle_type_id":"4","last_reported":1728320882,"current_range_meters":10800,"station_id":"cpo3342slgdg3j2ifvpg","pricing_plan_id":"cebpf4jnsgd1na2vs0mg"},{"bike_id":"a6d70310-27ce-49a4-a3c6-5ed786684119","system_id":"levelo_inurba_marseille","lat":43.28455,"lon":5.35893,"is_reserved":false,"is_disabled":false,"rental_uris":{"android":"levelo://app?vid=a6d70310-27ce-49a4-a3c6-5ed786684119","ios":"levelo://app?vid=a6d70310-27ce-49a4-a3c6-5ed786684119"},"vehicle_type_id":"4","last_reported":1728320882,"current_range_meters":12400,"station_id":"ce4bhah2rcd13ifvqei0","pricing_plan_id":"cebpf4jnsgd1na2vs0mg"},{"bike_id":"1e89ff62-86ea-4d9b-83e6-20ce97cfea76","system_id":"levelo_inurba_marseille","lat":43.2846,"lon":5.35878,"is_reserved":false,"is_disabled":false,"rental_uris":{"android":"levelo://app?vid=1e89ff62-86ea-4d9b-83e6-20ce97cfea76","ios":"levelo://app?vid=1e89ff62-86ea-4d9b-83e6-20ce97cfea76"},"vehicle_type_id":"4","last_reported":1728320882,"current_range_meters":39200,"station_id":"ce4bhah2rcd13ifvqei0","pricing_plan_id":"cebpf4jnsgd1na2vs0mg"},{"bike_id":"eafe6040-8a45-4b5a-a697-6d67f5e7ed1c","system_id":"levelo_inurba_marseille","lat":43.29436,"lon":5.39756,"is_reserved":false,"is_disabled":false,"rental_uris":{"android":"levelo://app?vid=eafe6040-8a45-4b5a-a697-6d67f5e7ed1c","ios":"levelo://app?vid=eafe6040-8a45-4b5a-a697-6d67f5e7ed1c"},"vehicle_type_id":"4","last_reported":1728320882,"current_range_meters":28800,"station_id":"ce4bh3h2rcd13ifvqdo0","pricing_plan_id":"cebpf4jnsgd1na2vs0mg"},{"bike_id":"c190b4a1-ea1d-47e2-b2e8-eefa3099f9cc","system_id":"levelo_inurba_marseille","lat":43.23191,"lon":5.35556,"is_reserved":false,"is_disabled":false,"rental_uris":{"android":"levelo://app?vid=c190b4a1-ea1d-47e2-b2e8-eefa3099f9cc","ios":"levelo://app?vid=c190b4a1-ea1d-47e2-b2e8-eefa3099f9cc"},"vehicle_type_id":"4","last_reported":1728320882,"current_range_meters":38800,"station_id":"ce4bhu92rcd13ifvqi70","pricing_plan_id":"cebpf4jnsgd1na2vs0mg"},{"bike_id":"85147ba7-8120-45cd-a9bf-163862fee3b2","system_id":"levelo_inurba_marseille","lat":43.29091,"lon":5.38118,"is_reserved":false,"is_disabled":false,"rental_uris":{"android":"levelo://app?vid=85147ba7-8120-45cd-a9bf-163862fee3b2","ios":"levelo://app?vid=85147ba7-8120-45cd-a9bf-163862fee3b2"},"vehicle_type_id":"4","last_reported":1728320882,"current_range_meters":33200,"station_id":"ce4bh512rcd13ifvqe2g","pricing_plan_id":"cebpf4jnsgd1na2vs0mg"},{"bike_id":"1350fd2c-b9e9-43cd-9325-cd67b9835ac5","system_id":"levelo_inurba_marseille","lat":43.2846,"lon":5.3589,"is_reserved":false,"is_disabled":false,"rental_uris":{"android":"levelo://app?vid=1350fd2c-b9e9-43cd-9325-cd67b9835ac5","ios":"levelo://app?vid=1350fd2c-b9e9-43cd-9325-cd67b9835ac5"},"vehicle_type_id":"4","last_reported":1728320882,"current_range_meters":39200,"station_id":"ce4bhah2rcd13ifvqei0","pricing_plan_id":"cebpf4jnsgd1na2vs0mg"},{"bike_id":"f1a587de-a4d9-42a8-8fe6-d4518f6dd1b0","system_id":"levelo_inurba_marseille","lat":43.23063,"lon":5.35493,"is_reserved":false,"is_disabled":false,"rental_uris":{"android":"levelo://app?vid=f1a587de-a4d9-42a8-8fe6-d4518f6dd1b0","ios":"levelo://app?vid=f1a587de-a4d9-42a8-8fe6-d4518f6dd1b0"},"vehicle_type_id":"4","last_reported":1728320882,"current_range_meters":10800,"station_id":"cpo3342slgdg3j2ifvpg","pricing_plan_id":"cebpf4jnsgd1na2vs0mg"},{"bike_id":"6b4618ac-bf15-42bd-b8ce-f62f3e28352b","system_id":"levelo_inurba_marseille","lat":43.23193,"lon":5.35554,"is_reserved":false,"is_disabled":false,"rental_uris":{"android":"levelo://app?vid=6b4618ac-bf15-42bd-b8ce-f62f3e28352b","ios":"levelo://app?vid=6b4618ac-bf15-42bd-b8ce-f62f3e28352b"},"vehicle_type_id":"4","last_reported":1728320882,"current_range_meters":32400,"station_id":"ce4bhu92rcd13ifvqi70","pricing_plan_id":"cebpf4jnsgd1na2vs0mg"},{"bike_id":"b3c6f752-42f2-4f70-b810-b638dbe3810f","system_id":"levelo_inurba_marseille","lat":43.30976,"lon":5.40092,"is_reserved":false,"is_disabled":false,"rental_uris":{"android":"levelo://app?vid=b3c6f752-42f2-4f70-b810-b638dbe3810f","ios":"levelo://app?vid=b3c6f752-42f2-4f70-b810-b638dbe3810f"},"vehicle_type_id":"4","last_reported":1728320882,"current_range_meters":8000,"station_id":"ce4bh012rcd13ifvqcv0","pricing_plan_id":"cebpf4jnsgd1na2vs0mg"},{"bike_id":"a69fd01b-3806-4b2c-a0dc-9fb7dfe4ac36","system_id":"levelo_inurba_marseille","lat":43.33026,"lon":5.39045,"is_reserved":false,"is_disabled":false,"rental_uris":{"android":"levelo://app?vid=a69fd01b-3806-4b2c-a0dc-9fb7dfe4ac36","ios":"levelo://app?vid=a69fd01b-3806-4b2c-a0dc-9fb7dfe4ac36"},"vehicle_type_id":"4","last_reported":1728320882,"current_range_meters":25600,"station_id":"ce4bhr92rcd13ifvqhrg","pricing_plan_id":"cebpf4jnsgd1na2vs0mg"},{"bike_id":"5cb07fad-9609-46b3-ad52-39ff30f85547","system_id":"levelo_inurba_marseille","lat":43.28722,"lon":5.36088,"is_reserved":false,"is_disabled":false,"rental_uris":{"android":"levelo://app?vid=5cb07fad-9609-46b3-ad52-39ff30f85547","ios":"levelo://app?vid=5cb07fad-9609-46b3-ad52-39ff30f85547"},"vehicle_type_id":"4","last_reported":1728320882,"current_range_meters":9200,"station_id":"cki0cbj6b192h4jlfktg","pricing_plan_id":"cebpf4jnsgd1na2vs0mg"},{"bike_id":"433deafa-d7d3-49df-9aec-653774bf0603","system_id":"levelo_inurba_marseille","lat":43.31974,"lon":5.40409,"is_reserved":false,"is_disabled":false,"rental_uris":{"android":"levelo://app?vid=433deafa-d7d3-49df-9aec-653774bf0603","ios":"levelo://app?vid=433deafa-d7d3-49df-9aec-653774bf0603"},"vehicle_type_id":"4","last_reported":1728320882,"current_range_meters":16400,"station_id":"ce4bhq12rcd13ifvqhig","pricing_plan_id":"cebpf4jnsgd1na2vs0mg"},{"bike_id":"8b9459e4-5c41-443b-a9bc-24b1de99621c","system_id":"levelo_inurba_marseille","lat":43.29898,"lon":5.4367,"is_reserved":false,"is_disabled":false,"rental_uris":{"android":"levelo://app?vid=8b9459e4-5c41-443b-a9bc-24b1de99621c","ios":"levelo://app?vid=8b9459e4-5c41-443b-a9bc-24b1de99621c"},"vehicle_type_id":"4","last_reported":1728320882,"current_range_meters":16400,"station_id":"ce4bhpp2rcd13ifvqhfg","pricing_plan_id":"cebpf4jnsgd1na2vs0mg"},{"bike_id":"f70a52c3-19ed-4a8d-8448-4c95fe9d982a","system_id":"levelo_inurba_marseille","lat":43.24812,"lon":5.37464,"is_reserved":false,"is_disabled":false,"rental_uris":{"android":"levelo://app?vid=f70a52c3-19ed-4a8d-8448-4c95fe9d982a","ios":"levelo://app?vid=f70a52c3-19ed-4a8d-8448-4c95fe9d982a"},"vehicle_type_id":"4","last_reported":1728320882,"current_range_meters":28000,"station_id":"ce4bhgh2rcd13ifvqfb0","pricing_plan_id":"cebpf4jnsgd1na2vs0mg"},{"bike_id":"4dbc9b22-4c46-419e-b5a6-9c9438a9829f","system_id":"levelo_inurba_marseille","lat":43.31359,"lon":5.38494,"is_reserved":false,"is_disabled":false,"rental_uris":{"android":"levelo://app?vid=4dbc9b22-4c46-419e-b5a6-9c9438a9829f","ios":"levelo://app?vid=4dbc9b22-4c46-419e-b5a6-9c9438a9829f"},"vehicle_type_id":"4","last_reported":1728320882,"current_range_meters":37600,"station_id":"ce4bgt92rcd13ifvqcf0","pricing_plan_id":"cebpf4jnsgd1na2vs0mg"},{"bike_id":"d71b92eb-0858-4d72-a4a3-2728f7a27935","system_id":"levelo_inurba_marseille","lat":43.29879,"lon":5.38902,"is_reserved":false,"is_disabled":false,"rental_uris":{"android":"levelo://app?vid=d71b92eb-0858-4d72-a4a3-2728f7a27935","ios":"levelo://app?vid=d71b92eb-0858-4d72-a4a3-2728f7a27935"},"vehicle_type_id":"4","last_reported":1728320882,"current_range_meters":6400,"station_id":"ce4bh392rcd13ifvqdl0","pricing_plan_id":"cebpf4jnsgd1na2vs0mg"},{"bike_id":"926380f0-4ec2-45d5-8c58-de39b75f601e","system_id":"levelo_inurba_marseille","lat":43.2306,"lon":5.35498,"is_reserved":false,"is_disabled":false,"rental_uris":{"android":"levelo://app?vid=926380f0-4ec2-45d5-8c58-de39b75f601e","ios":"levelo://app?vid=926380f0-4ec2-45d5-8c58-de39b75f601e"},"vehicle_type_id":"4","last_reported":1728320882,"current_range_meters":14800,"station_id":"cpo3342slgdg3j2ifvpg","pricing_plan_id":"cebpf4jnsgd1na2vs0mg"},{"bike_id":"d8561ae0-c66f-4a3b-a689-8b0a15de93c0","system_id":"levelo_inurba_marseille","lat":43.29876,"lon":5.39732,"is_reserved":false,"is_disabled":false,"rental_uris":{"android":"levelo://app?vid=d8561ae0-c66f-4a3b-a689-8b0a15de93c0","ios":"levelo://app?vid=d8561ae0-c66f-4a3b-a689-8b0a15de93c0"},"vehicle_type_id":"4","last_reported":1728320882,"current_range_meters":22000,"station_id":"ce4bh0h2rcd13ifvqd50","pricing_plan_id":"cebpf4jnsgd1na2vs0mg"},{"bike_id":"4277e319-3241-4732-b2a4-5298e526517a","system_id":"levelo_inurba_marseille","lat":43.29794,"lon":5.40421,"is_reserved":false,"is_disabled":false,"rental_uris":{"android":"levelo://app?vid=4277e319-3241-4732-b2a4-5298e526517a","ios":"levelo://app?vid=4277e319-3241-4732-b2a4-5298e526517a"},"vehicle_type_id":"4","last_reported":1728320882,"current_range_meters":37600,"station_id":"ce4bh112rcd13ifvqd90","pricing_plan_id":"cebpf4jnsgd1na2vs0mg"},{"bike_id":"404b4697-2249-46d0-afb0-44351c2d122f","system_id":"levelo_inurba_marseille","lat":43.29549,"lon":5.42284,"is_reserved":false,"is_disabled":false,"rental_uris":{"android":"levelo://app?vid=404b4697-2249-46d0-afb0-44351c2d122f","ios":"levelo://app?vid=404b4697-2249-46d0-afb0-44351c2d122f"},"vehicle_type_id":"4","last_reported":1728320882,"current_range_meters":22000,"station_id":"ce4bhph2rcd13ifvqhdg","pricing_plan_id":"cebpf4jnsgd1na2vs0mg"},{"bike_id":"e7fb5936-ea5d-4369-85a4-85843247cdd0","system_id":"levelo_inurba_marseille","lat":43.3121,"lon":5.37567,"is_reserved":false,"is_disabled":false,"rental_uris":{"android":"levelo://app?vid=e7fb5936-ea5d-4369-85a4-85843247cdd0","ios":"levelo://app?vid=e7fb5936-ea5d-4369-85a4-85843247cdd0"},"vehicle_type_id":"4","last_reported":1728320882,"current_range_meters":16000,"station_id":"","pricing_plan_id":"cebpf4jnsgd1na2vs0mg"},{"bike_id":"62c2c883-4a8b-4db6-bf23-ce685ecc4545","system_id":"levelo_inurba_marseille","lat":43.28702,"lon":5.3738,"is_reserved":false,"is_disabled":false,"rental_uris":{"android":"levelo://app?vid=62c2c883-4a8b-4db6-bf23-ce685ecc4545","ios":"levelo://app?vid=62c2c883-4a8b-4db6-bf23-ce685ecc4545"},"vehicle_type_id":"4","last_reported":1728320882,"current_range_meters":8000,"station_id":"ce4bh3p2rcd13ifvqdq0","pricing_plan_id":"cebpf4jnsgd1na2vs0mg"},{"bike_id":"788210f9-af61-4777-bd51-869730ec82fc","system_id":"levelo_inurba_marseille","lat":43.29603,"lon":5.38113,"is_reserved":false,"is_disabled":false,"rental_uris":{"android":"levelo://app?vid=788210f9-af61-4777-bd51-869730ec82fc","ios":"levelo://app?vid=788210f9-af61-4777-bd51-869730ec82fc"},"vehicle_type_id":"4","last_reported":1728320882,"current_range_meters":7200,"station_id":"ce4bgl12rcd13ifvqbo0","pricing_plan_id":"cebpf4jnsgd1na2vs0mg"},{"bike_id":"aea101a8-668c-4872-8684-3251aa1622be","system_id":"levelo_inurba_marseille","lat":43.28847,"lon":5.35842,"is_reserved":false,"is_disabled":false,"rental_uris":{"android":"levelo://app?vid=aea101a8-668c-4872-8684-3251aa1622be","ios":"levelo://app?vid=aea101a8-668c-4872-8684-3251aa1622be"},"vehicle_type_id":"4","last_reported":1728320882,"current_range_meters":2800,"station_id":"ce4bhb12rcd13ifvqem0","pricing_plan_id":"cebpf4jnsgd1na2vs0mg"},{"bike_id":"12e536ef-a7b7-4edf-8607-e8a78220c802","system_id":"levelo_inurba_marseille","lat":43.2791,"lon":5.39587,"is_reserved":false,"is_disabled":false,"rental_uris":{"android":"levelo://app?vid=12e536ef-a7b7-4edf-8607-e8a78220c802","ios":"levelo://app?vid=12e536ef-a7b7-4edf-8607-e8a78220c802"},"vehicle_type_id":"4","last_reported":1728320882,"current_range_meters":22000,"station_id":"ce4bhf92rcd13ifvqf40","pricing_plan_id":"cebpf4jnsgd1na2vs0mg"},{"bike_id":"6ff864a0-bd42-4df0-8484-ddd918068dae","system_id":"levelo_inurba_marseille","lat":43.27666,"lon":5.38888,"is_reserved":false,"is_disabled":false,"rental_uris":{"android":"levelo://app?vid=6ff864a0-bd42-4df0-8484-ddd918068dae","ios":"levelo://app?vid=6ff864a0-bd42-4df0-8484-ddd918068dae"},"vehicle_type_id":"4","last_reported":1728320882,"current_range_meters":10000,"station_id":"ce4bhi12rcd13ifvqfo0","pricing_plan_id":"cebpf4jnsgd1na2vs0mg"},{"bike_id":"af101257-97d8-427d-926c-bfd575a5c827","system_id":"levelo_inurba_marseille","lat":43.23067,"lon":5.35486,"is_reserved":false,"is_disabled":false,"rental_uris":{"android":"levelo://app?vid=af101257-97d8-427d-926c-bfd575a5c827","ios":"levelo://app?vid=af101257-97d8-427d-926c-bfd575a5c827"},"vehicle_type_id":"4","last_reported":1728320882,"current_range_meters":9600,"station_id":"cpo3342slgdg3j2ifvpg","pricing_plan_id":"cebpf4jnsgd1na2vs0mg"},{"bike_id":"79d4ce44-dde0-4856-adfb-9d048612b764","system_id":"levelo_inurba_marseille","lat":43.24167,"lon":5.36406,"is_reserved":false,"is_disabled":false,"rental_uris":{"android":"levelo://app?vid=79d4ce44-dde0-4856-adfb-9d048612b764","ios":"levelo://app?vid=79d4ce44-dde0-4856-adfb-9d048612b764"},"vehicle_type_id":"4","last_reported":1728320882,"current_range_meters":28400,"station_id":"cpo36qri1sfpv3e86is0","pricing_plan_id":"cebpf4jnsgd1na2vs0mg"},{"bike_id":"6814ac1d-7816-4310-8724-4d2ddc8eb597","system_id":"levelo_inurba_marseille","lat":43.24805,"lon":5.37456,"is_reserved":false,"is_disabled":false,"rental_uris":{"android":"levelo://app?vid=6814ac1d-7816-4310-8724-4d2ddc8eb597","ios":"levelo://app?vid=6814ac1d-7816-4310-8724-4d2ddc8eb597"},"vehicle_type_id":"4","last_reported":1728320882,"current_range_meters":37600,"station_id":"ce4bhgh2rcd13ifvqfb0","pricing_plan_id":"cebpf4jnsgd1na2vs0mg"},{"bike_id":"6362dd7e-711b-4b82-af8e-291ea8f6ea1e","system_id":"levelo_inurba_marseille","lat":43.23068,"lon":5.35493,"is_reserved":false,"is_disabled":false,"rental_uris":{"android":"levelo://app?vid=6362dd7e-711b-4b82-af8e-291ea8f6ea1e","ios":"levelo://app?vid=6362dd7e-711b-4b82-af8e-291ea8f6ea1e"},"vehicle_type_id":"4","last_reported":1728320882,"current_range_meters":25600,"station_id":"cpo3342slgdg3j2ifvpg","pricing_plan_id":"cebpf4jnsgd1na2vs0mg"},{"bike_id":"5113d289-e20c-492f-844f-6188ff718d88","system_id":"levelo_inurba_marseille","lat":43.22937,"lon":5.35385,"is_reserved":false,"is_disabled":false,"rental_uris":{"android":"levelo://app?vid=5113d289-e20c-492f-844f-6188ff718d88","ios":"levelo://app?vid=5113d289-e20c-492f-844f-6188ff718d88"},"vehicle_type_id":"4","last_reported":1728320882,"current_range_meters":32000,"station_id":"cpo3532slgdg3j2ikp40","pricing_plan_id":"cebpf4jnsgd1na2vs0mg"},{"bike_id":"c35fd4e7-3879-45a8-bc86-a3496f8feaf4","system_id":"levelo_inurba_marseille","lat":43.265503,"lon":5.372841,"is_reserved":false,"is_disabled":false,"rental_uris":{"android":"levelo://app?vid=c35fd4e7-3879-45a8-bc86-a3496f8feaf4","ios":"levelo://app?vid=c35fd4e7-3879-45a8-bc86-a3496f8feaf4"},"vehicle_type_id":"4","last_reported":1728320882,"current_range_meters":4000,"station_id":"ce4bhg12rcd13ifvqf70","pricing_plan_id":"cebpf4jnsgd1na2vs0mg"},{"bike_id":"3b7cbfd5-4fdb-4de9-9780-ef29697fc598","system_id":"levelo_inurba_marseille","lat":43.24796,"lon":5.3747,"is_reserved":false,"is_disabled":false,"rental_uris":{"android":"levelo://app?vid=3b7cbfd5-4fdb-4de9-9780-ef29697fc598","ios":"levelo://app?vid=3b7cbfd5-4fdb-4de9-9780-ef29697fc598"},"vehicle_type_id":"4","last_reported":1728320882,"current_range_meters":27600,"station_id":"ce4bhgh2rcd13ifvqfb0","pricing_plan_id":"cebpf4jnsgd1na2vs0mg"},{"bike_id":"3e9e9904-4c70-4bf3-b090-7ed631e812d6","system_id":"levelo_inurba_marseille","lat":43.30147,"lon":5.38081,"is_reserved":false,"is_disabled":false,"rental_uris":{"android":"levelo://app?vid=3e9e9904-4c70-4bf3-b090-7ed631e812d6","ios":"levelo://app?vid=3e9e9904-4c70-4bf3-b090-7ed631e812d6"},"vehicle_type_id":"4","last_reported":1728320882,"current_range_meters":16800,"station_id":"ce4bgjp2rcd13ifvqbh0","pricing_plan_id":"cebpf4jnsgd1na2vs0mg"},{"bike_id":"fbab334e-6568-46ac-88f7-b856d9d2d598","system_id":"levelo_inurba_marseille","lat":43.23196,"lon":5.35557,"is_reserved":false,"is_disabled":false,"rental_uris":{"android":"levelo://app?vid=fbab334e-6568-46ac-88f7-b856d9d2d598","ios":"levelo://app?vid=fbab334e-6568-46ac-88f7-b856d9d2d598"},"vehicle_type_id":"4","last_reported":1728320882,"current_range_meters":39200,"station_id":"ce4bhu92rcd13ifvqi70","pricing_plan_id":"cebpf4jnsgd1na2vs0mg"},{"bike_id":"ca06f500-fdb8-4316-9347-00462f47e52b","system_id":"levelo_inurba_marseille","lat":43.25491,"lon":5.37652,"is_reserved":false,"is_disabled":false,"rental_uris":{"android":"levelo://app?vid=ca06f500-fdb8-4316-9347-00462f47e52b","ios":"levelo://app?vid=ca06f500-fdb8-4316-9347-00462f47e52b"},"vehicle_type_id":"4","last_reported":1728320882,"current_range_meters":10800,"station_id":"ce4bhh12rcd13ifvqff0","pricing_plan_id":"cebpf4jnsgd1na2vs0mg"},{"bike_id":"fe8743d4-c651-477d-9617-85e0914f894a","system_id":"levelo_inurba_marseille","lat":43.29444,"lon":5.39753,"is_reserved":false,"is_disabled":false,"rental_uris":{"android":"levelo://app?vid=fe8743d4-c651-477d-9617-85e0914f894a","ios":"levelo://app?vid=fe8743d4-c651-477d-9617-85e0914f894a"},"vehicle_type_id":"4","last_reported":1728320882,"current_range_meters":38000,"station_id":"ce4bh3h2rcd13ifvqdo0","pricing_plan_id":"cebpf4jnsgd1na2vs0mg"},{"bike_id":"f98b07c3-bb25-4f0e-a389-cf684ca8c06f","system_id":"levelo_inurba_marseille","lat":43.28725,"lon":5.36083,"is_reserved":false,"is_disabled":false,"rental_uris":{"android":"levelo://app?vid=f98b07c3-bb25-4f0e-a389-cf684ca8c06f","ios":"levelo://app?vid=f98b07c3-bb25-4f0e-a389-cf684ca8c06f"},"vehicle_type_id":"4","last_reported":1728320882,"current_range_meters":6800,"station_id":"cki0cbj6b192h4jlfktg","pricing_plan_id":"cebpf4jnsgd1na2vs0mg"},{"bike_id":"f3a735ba-5b01-4fb1-8e7b-7722438612a6","system_id":"levelo_inurba_marseille","lat":43.276234,"lon":5.361129,"is_reserved":false,"is_disabled":false,"rental_uris":{"android":"levelo://app?vid=f3a735ba-5b01-4fb1-8e7b-7722438612a6","ios":"levelo://app?vid=f3a735ba-5b01-4fb1-8e7b-7722438612a6"},"vehicle_type_id":"4","last_reported":1728320882,"current_range_meters":8400,"station_id":"ce4bgj92rcd13ifvqbe0","pricing_plan_id":"cebpf4jnsgd1na2vs0mg"},{"bike_id":"096c3c52-ea66-4fc7-aedf-0f68535ced1d","system_id":"levelo_inurba_marseille","lat":43.23884,"lon":5.39532,"is_reserved":false,"is_disabled":false,"rental_uris":{"android":"levelo://app?vid=096c3c52-ea66-4fc7-aedf-0f68535ced1d","ios":"levelo://app?vid=096c3c52-ea66-4fc7-aedf-0f68535ced1d"},"vehicle_type_id":"4","last_reported":1728320882,"current_range_meters":4800,"station_id":"","pricing_plan_id":"cebpf4jnsgd1na2vs0mg"},{"bike_id":"b7eb2601-2f01-471e-8972-72914bcf4e06","system_id":"levelo_inurba_marseille","lat":43.33157,"lon":5.41034,"is_reserved":false,"is_disabled":false,"rental_uris":{"android":"levelo://app?vid=b7eb2601-2f01-471e-8972-72914bcf4e06","ios":"levelo://app?vid=b7eb2601-2f01-471e-8972-72914bcf4e06"},"vehicle_type_id":"4","last_reported":1728320882,"current_range_meters":30400,"station_id":"ce4bhqh2rcd13ifvqhlg","pricing_plan_id":"cebpf4jnsgd1na2vs0mg"},{"bike_id":"ac63b881-53ef-4e4b-b5e6-9f4914bcf168","system_id":"levelo_inurba_marseille","lat":43.23054,"lon":5.35491,"is_reserved":false,"is_disabled":false,"rental_uris":{"android":"levelo://app?vid=ac63b881-53ef-4e4b-b5e6-9f4914bcf168","ios":"levelo://app?vid=ac63b881-53ef-4e4b-b5e6-9f4914bcf168"},"vehicle_type_id":"4","last_reported":1728320882,"current_range_meters":36400,"station_id":"cpo3342slgdg3j2ifvpg","pricing_plan_id":"cebpf4jnsgd1na2vs0mg"},{"bike_id":"b278af6b-c143-4c09-9cfc-50a0f7fe0bac","system_id":"levelo_inurba_marseille","lat":43.31701,"lon":5.3773,"is_reserved":false,"is_disabled":false,"rental_uris":{"android":"levelo://app?vid=b278af6b-c143-4c09-9cfc-50a0f7fe0bac","ios":"levelo://app?vid=b278af6b-c143-4c09-9cfc-50a0f7fe0bac"},"vehicle_type_id":"4","last_reported":1728320882,"current_range_meters":14800,"station_id":"ce4bgth2rcd13ifvqch0","pricing_plan_id":"cebpf4jnsgd1na2vs0mg"},{"bike_id":"6494a627-5f4e-4756-a4c2-5be0a3786442","system_id":"levelo_inurba_marseille","lat":43.27996,"lon":5.40005,"is_reserved":false,"is_disabled":false,"rental_uris":{"android":"levelo://app?vid=6494a627-5f4e-4756-a4c2-5be0a3786442","ios":"levelo://app?vid=6494a627-5f4e-4756-a4c2-5be0a3786442"},"vehicle_type_id":"4","last_reported":1728320882,"current_range_meters":8800,"station_id":"ce4bho92rcd13ifvqh4g","pricing_plan_id":"cebpf4jnsgd1na2vs0mg"},{"bike_id":"71c94fb6-80ff-4ef8-a95b-b06b1532beb2","system_id":"levelo_inurba_marseille","lat":43.28572,"lon":5.395,"is_reserved":false,"is_disabled":false,"rental_uris":{"android":"levelo://app?vid=71c94fb6-80ff-4ef8-a95b-b06b1532beb2","ios":"levelo://app?vid=71c94fb6-80ff-4ef8-a95b-b06b1532beb2"},"vehicle_type_id":"4","last_reported":1728320882,"current_range_meters":16800,"station_id":"ce4bh292rcd13ifvqdg0","pricing_plan_id":"cebpf4jnsgd1na2vs0mg"},{"bike_id":"564e8a6b-8452-41b4-9df7-07f64ee55904","system_id":"levelo_inurba_marseille","lat":43.29197,"lon":5.39319,"is_reserved":false,"is_disabled":false,"rental_uris":{"android":"levelo://app?vid=564e8a6b-8452-41b4-9df7-07f64ee55904","ios":"levelo://app?vid=564e8a6b-8452-41b4-9df7-07f64ee55904"},"vehicle_type_id":"4","last_reported":1728320882,"current_range_meters":18800,"station_id":"ce4bh192rcd13ifvqdd0","pricing_plan_id":"cebpf4jnsgd1na2vs0mg"},{"bike_id":"6da24582-98b8-42d0-b5fc-205637709cbb","system_id":"levelo_inurba_marseille","lat":43.2397,"lon":5.36633,"is_reserved":false,"is_disabled":false,"rental_uris":{"android":"levelo://app?vid=6da24582-98b8-42d0-b5fc-205637709cbb","ios":"levelo://app?vid=6da24582-98b8-42d0-b5fc-205637709cbb"},"vehicle_type_id":"4","last_reported":1728320882,"current_range_meters":11600,"station_id":"ce4bhi12rcd13ifvqfp0","pricing_plan_id":"cebpf4jnsgd1na2vs0mg"},{"bike_id":"9e3fe2e1-eca8-4201-b615-2eaf2b4dc3f2","system_id":"levelo_inurba_marseille","lat":43.23197,"lon":5.35555,"is_reserved":false,"is_disabled":false,"rental_uris":{"android":"levelo://app?vid=9e3fe2e1-eca8-4201-b615-2eaf2b4dc3f2","ios":"levelo://app?vid=9e3fe2e1-eca8-4201-b615-2eaf2b4dc3f2"},"vehicle_type_id":"4","last_reported":1728320882,"current_range_meters":6000,"station_id":"ce4bhu92rcd13ifvqi70","pricing_plan_id":"cebpf4jnsgd1na2vs0mg"},{"bike_id":"5c56a3bd-eee6-46f6-9565-18e2d60b4a2a","system_id":"levelo_inurba_marseille","lat":43.24168,"lon":5.36397,"is_reserved":false,"is_disabled":false,"rental_uris":{"android":"levelo://app?vid=5c56a3bd-eee6-46f6-9565-18e2d60b4a2a","ios":"levelo://app?vid=5c56a3bd-eee6-46f6-9565-18e2d60b4a2a"},"vehicle_type_id":"4","last_reported":1728320882,"current_range_meters":30000,"station_id":"cpo36qri1sfpv3e86is0","pricing_plan_id":"cebpf4jnsgd1na2vs0mg"},{"bike_id":"631b6ba1-3822-44fd-bae8-307075dcdf31","system_id":"levelo_inurba_marseille","lat":43.2991,"lon":5.37468,"is_reserved":false,"is_disabled":false,"rental_uris":{"android":"levelo://app?vid=631b6ba1-3822-44fd-bae8-307075dcdf31","ios":"levelo://app?vid=631b6ba1-3822-44fd-bae8-307075dcdf31"},"vehicle_type_id":"4","last_reported":1728320882,"current_range_meters":3600,"station_id":"ce4bh0p2rcd13ifvqd70","pricing_plan_id":"cebpf4jnsgd1na2vs0mg"},{"bike_id":"31a36db1-6705-4df0-ae04-e3301e20c6c2","system_id":"levelo_inurba_marseille","lat":43.2465,"lon":5.38888,"is_reserved":false,"is_disabled":false,"rental_uris":{"android":"levelo://app?vid=31a36db1-6705-4df0-ae04-e3301e20c6c2","ios":"levelo://app?vid=31a36db1-6705-4df0-ae04-e3301e20c6c2"},"vehicle_type_id":"4","last_reported":1728320882,"current_range_meters":32800,"station_id":"ce4bhg12rcd13ifvqf60","pricing_plan_id":"cebpf4jnsgd1na2vs0mg"},{"bike_id":"9d7e29d0-eabf-4397-8c62-7f4d8dd77ab6","system_id":"levelo_inurba_marseille","lat":43.29582,"lon":5.36742,"is_reserved":false,"is_disabled":false,"rental_uris":{"android":"levelo://app?vid=9d7e29d0-eabf-4397-8c62-7f4d8dd77ab6","ios":"levelo://app?vid=9d7e29d0-eabf-4397-8c62-7f4d8dd77ab6"},"vehicle_type_id":"4","last_reported":1728320882,"current_range_meters":39200,"station_id":"ce4bgph2rcd13ifvqc2g","pricing_plan_id":"cebpf4jnsgd1na2vs0mg"},{"bike_id":"0a36e4e0-ee38-4a7b-9dfd-dcec3b521e5d","system_id":"levelo_inurba_marseille","lat":43.30928,"lon":5.4015,"is_reserved":false,"is_disabled":false,"rental_uris":{"android":"levelo://app?vid=0a36e4e0-ee38-4a7b-9dfd-dcec3b521e5d","ios":"levelo://app?vid=0a36e4e0-ee38-4a7b-9dfd-dcec3b521e5d"},"vehicle_type_id":"4","last_reported":1728320882,"current_range_meters":8800,"station_id":"ce4bgvp2rcd13ifvqct0","pricing_plan_id":"cebpf4jnsgd1na2vs0mg"},{"bike_id":"6726b136-cc6f-40a6-b828-338e38a2a94e","system_id":"levelo_inurba_marseille","lat":43.29887,"lon":5.38904,"is_reserved":false,"is_disabled":false,"rental_uris":{"android":"levelo://app?vid=6726b136-cc6f-40a6-b828-338e38a2a94e","ios":"levelo://app?vid=6726b136-cc6f-40a6-b828-338e38a2a94e"},"vehicle_type_id":"4","last_reported":1728320882,"current_range_meters":18800,"station_id":"ce4bh392rcd13ifvqdl0","pricing_plan_id":"cebpf4jnsgd1na2vs0mg"},{"bike_id":"0e4cc4c5-1304-4b86-b813-61b2b5b15d82","system_id":"levelo_inurba_marseille","lat":43.32288,"lon":5.38278,"is_reserved":false,"is_disabled":false,"rental_uris":{"android":"levelo://app?vid=0e4cc4c5-1304-4b86-b813-61b2b5b15d82","ios":"levelo://app?vid=0e4cc4c5-1304-4b86-b813-61b2b5b15d82"},"vehicle_type_id":"4","last_reported":1728320882,"current_range_meters":28800,"station_id":"ce4bhr12rcd13ifvqhqg","pricing_plan_id":"cebpf4jnsgd1na2vs0mg"},{"bike_id":"1dce8590-f0a7-47e7-be19-f172b05d0d21","system_id":"levelo_inurba_marseille","lat":43.30134,"lon":5.38791,"is_reserved":false,"is_disabled":false,"rental_uris":{"android":"levelo://app?vid=1dce8590-f0a7-47e7-be19-f172b05d0d21","ios":"levelo://app?vid=1dce8590-f0a7-47e7-be19-f172b05d0d21"},"vehicle_type_id":"4","last_reported":1728320882,"current_range_meters":11600,"station_id":"ce4bghh2rcd13ifvqb60","pricing_plan_id":"cebpf4jnsgd1na2vs0mg"},{"bike_id":"5b33161a-ad42-4cb3-9b9d-7cb991fc93e6","system_id":"levelo_inurba_marseille","lat":43.28714,"lon":5.360899,"is_reserved":false,"is_disabled":false,"rental_uris":{"android":"levelo://app?vid=5b33161a-ad42-4cb3-9b9d-7cb991fc93e6","ios":"levelo://app?vid=5b33161a-ad42-4cb3-9b9d-7cb991fc93e6"},"vehicle_type_id":"4","last_reported":1728320882,"current_range_meters":30800,"station_id":"ce4bha92rcd13ifvqeh0","pricing_plan_id":"cebpf4jnsgd1na2vs0mg"},{"bike_id":"8b10cb9f-15d9-4eb9-a18e-896430cdcbda","system_id":"levelo_inurba_marseille","lat":43.320223,"lon":5.408092,"is_reserved":false,"is_disabled":false,"rental_uris":{"android":"levelo://app?vid=8b10cb9f-15d9-4eb9-a18e-896430cdcbda","ios":"levelo://app?vid=8b10cb9f-15d9-4eb9-a18e-896430cdcbda"},"vehicle_type_id":"4","last_reported":1728320882,"current_range_meters":32800,"station_id":"ce4bhq92rcd13ifvqhjg","pricing_plan_id":"cebpf4jnsgd1na2vs0mg"},{"bike_id":"041529c2-1803-4676-841c-5fddfc5c7980","system_id":"levelo_inurba_marseille","lat":43.31712,"lon":5.43708,"is_reserved":false,"is_disabled":false,"rental_uris":{"android":"levelo://app?vid=041529c2-1803-4676-841c-5fddfc5c7980","ios":"levelo://app?vid=041529c2-1803-4676-841c-5fddfc5c7980"},"vehicle_type_id":"4","last_reported":1728320882,"current_range_meters":19200,"station_id":"ce4bhp92rcd13ifvqhcg","pricing_plan_id":"cebpf4jnsgd1na2vs0mg"},{"bike_id":"4bc49598-a9a6-4eb9-b9b1-1cda8d67cb04","system_id":"levelo_inurba_marseille","lat":43.25715,"lon":5.41114,"is_reserved":false,"is_disabled":false,"rental_uris":{"android":"levelo://app?vid=4bc49598-a9a6-4eb9-b9b1-1cda8d67cb04","ios":"levelo://app?vid=4bc49598-a9a6-4eb9-b9b1-1cda8d67cb04"},"vehicle_type_id":"4","last_reported":1728320882,"current_range_meters":24400,"station_id":"ce4bhkp2rcd13ifvqgd0","pricing_plan_id":"cebpf4jnsgd1na2vs0mg"},{"bike_id":"8d0e46a2-081e-48d2-8d62-77a51352cdeb","system_id":"levelo_inurba_marseille","lat":43.26941,"lon":5.40254,"is_reserved":false,"is_disabled":false,"rental_uris":{"android":"levelo://app?vid=8d0e46a2-081e-48d2-8d62-77a51352cdeb","ios":"levelo://app?vid=8d0e46a2-081e-48d2-8d62-77a51352cdeb"},"vehicle_type_id":"4","last_reported":1728320882,"current_range_meters":10000,"station_id":"cjm6bp8fraef2m0cb0m0","pricing_plan_id":"cebpf4jnsgd1na2vs0mg"},{"bike_id":"7de1dfe2-10be-4d1c-87cd-ba8becc4df3c","system_id":"levelo_inurba_marseille","lat":43.29435,"lon":5.39765,"is_reserved":false,"is_disabled":false,"rental_uris":{"android":"levelo://app?vid=7de1dfe2-10be-4d1c-87cd-ba8becc4df3c","ios":"levelo://app?vid=7de1dfe2-10be-4d1c-87cd-ba8becc4df3c"},"vehicle_type_id":"4","last_reported":1728320882,"current_range_meters":16400,"station_id":"ce4bh3h2rcd13ifvqdo0","pricing_plan_id":"cebpf4jnsgd1na2vs0mg"},{"bike_id":"3949a753-9614-439d-ad26-d9c27d1c652a","system_id":"levelo_inurba_marseille","lat":43.29005,"lon":5.35614,"is_reserved":false,"is_disabled":false,"rental_uris":{"android":"levelo://app?vid=3949a753-9614-439d-ad26-d9c27d1c652a","ios":"levelo://app?vid=3949a753-9614-439d-ad26-d9c27d1c652a"},"vehicle_type_id":"4","last_reported":1728320882,"current_range_meters":20400,"station_id":"ce4bhb92rcd13ifvqen0","pricing_plan_id":"cebpf4jnsgd1na2vs0mg"},{"bike_id":"93b707e9-ad08-4c1a-920c-416ca8156691","system_id":"levelo_inurba_marseille","lat":43.298035,"lon":5.381087,"is_reserved":false,"is_disabled":false,"rental_uris":{"android":"levelo://app?vid=93b707e9-ad08-4c1a-920c-416ca8156691","ios":"levelo://app?vid=93b707e9-ad08-4c1a-920c-416ca8156691"},"vehicle_type_id":"4","last_reported":1728320882,"current_range_meters":36800,"station_id":"ce4bgip2rcd13ifvqbb0","pricing_plan_id":"cebpf4jnsgd1na2vs0mg"},{"bike_id":"a72a9e17-bb59-4e06-b789-53384d97489f","system_id":"levelo_inurba_marseille","lat":43.2668,"lon":5.38274,"is_reserved":false,"is_disabled":false,"rental_uris":{"android":"levelo://app?vid=a72a9e17-bb59-4e06-b789-53384d97489f","ios":"levelo://app?vid=a72a9e17-bb59-4e06-b789-53384d97489f"},"vehicle_type_id":"4","last_reported":1728320882,"current_range_meters":8800,"station_id":"ce4bhg92rcd13ifvqf90","pricing_plan_id":"cebpf4jnsgd1na2vs0mg"},{"bike_id":"453acb5d-c897-4a67-ab6c-4198714aebc1","system_id":"levelo_inurba_marseille","lat":43.23066,"lon":5.35488,"is_reserved":false,"is_disabled":false,"rental_uris":{"android":"levelo://app?vid=453acb5d-c897-4a67-ab6c-4198714aebc1","ios":"levelo://app?vid=453acb5d-c897-4a67-ab6c-4198714aebc1"},"vehicle_type_id":"4","last_reported":1728320882,"current_range_meters":6400,"station_id":"cpo3342slgdg3j2ifvpg","pricing_plan_id":"cebpf4jnsgd1na2vs0mg"},{"bike_id":"9442b23e-de23-4c02-b060-6afa7424b335","system_id":"levelo_inurba_marseille","lat":43.24653,"lon":5.38897,"is_reserved":false,"is_disabled":false,"rental_uris":{"android":"levelo://app?vid=9442b23e-de23-4c02-b060-6afa7424b335","ios":"levelo://app?vid=9442b23e-de23-4c02-b060-6afa7424b335"},"vehicle_type_id":"4","last_reported":1728320882,"current_range_meters":14400,"station_id":"ce4bhg12rcd13ifvqf60","pricing_plan_id":"cebpf4jnsgd1na2vs0mg"},{"bike_id":"f997df17-27e4-4d1f-8d9c-0538b7575e96","system_id":"levelo_inurba_marseille","lat":43.28464,"lon":5.35897,"is_reserved":false,"is_disabled":false,"rental_uris":{"android":"levelo://app?vid=f997df17-27e4-4d1f-8d9c-0538b7575e96","ios":"levelo://app?vid=f997df17-27e4-4d1f-8d9c-0538b7575e96"},"vehicle_type_id":"4","last_reported":1728320882,"current_range_meters":38800,"station_id":"ce4bhah2rcd13ifvqei0","pricing_plan_id":"cebpf4jnsgd1na2vs0mg"},{"bike_id":"5d98e0b3-1c48-4bce-8ffe-0e2c2ea088a0","system_id":"levelo_inurba_marseille","lat":43.23056,"lon":5.35491,"is_reserved":false,"is_disabled":false,"rental_uris":{"android":"levelo://app?vid=5d98e0b3-1c48-4bce-8ffe-0e2c2ea088a0","ios":"levelo://app?vid=5d98e0b3-1c48-4bce-8ffe-0e2c2ea088a0"},"vehicle_type_id":"4","last_reported":1728320882,"current_range_meters":36400,"station_id":"cpo3342slgdg3j2ifvpg","pricing_plan_id":"cebpf4jnsgd1na2vs0mg"},{"bike_id":"a85a17c0-87f3-4602-9d55-83fba0eac568","system_id":"levelo_inurba_marseille","lat":43.33716,"lon":5.39194,"is_reserved":false,"is_disabled":false,"rental_uris":{"android":"levelo://app?vid=a85a17c0-87f3-4602-9d55-83fba0eac568","ios":"levelo://app?vid=a85a17c0-87f3-4602-9d55-83fba0eac568"},"vehicle_type_id":"4","last_reported":1728320882,"current_range_meters":22400,"station_id":"ce4bhr92rcd13ifvqhsg","pricing_plan_id":"cebpf4jnsgd1na2vs0mg"},{"bike_id":"e270a9ca-84e8-4848-a582-e495af1f14e2","system_id":"levelo_inurba_marseille","lat":43.30648,"lon":5.38009,"is_reserved":false,"is_disabled":false,"rental_uris":{"android":"levelo://app?vid=e270a9ca-84e8-4848-a582-e495af1f14e2","ios":"levelo://app?vid=e270a9ca-84e8-4848-a582-e495af1f14e2"},"vehicle_type_id":"4","last_reported":1728320882,"current_range_meters":12800,"station_id":"","pricing_plan_id":"cebpf4jnsgd1na2vs0mg"},{"bike_id":"6487b365-e3b0-401f-8e57-8aad35c799ed","system_id":"levelo_inurba_marseille","lat":43.25467,"lon":5.38193,"is_reserved":false,"is_disabled":false,"rental_uris":{"android":"levelo://app?vid=6487b365-e3b0-401f-8e57-8aad35c799ed","ios":"levelo://app?vid=6487b365-e3b0-401f-8e57-8aad35c799ed"},"vehicle_type_id":"4","last_reported":1728320882,"current_range_meters":4000,"station_id":"ce4bhih2rcd13ifvqfs0","pricing_plan_id":"cebpf4jnsgd1na2vs0mg"},{"bike_id":"de2279bc-d437-4704-97bd-b8daca96c769","system_id":"levelo_inurba_marseille","lat":43.27898,"lon":5.38021,"is_reserved":false,"is_disabled":false,"rental_uris":{"android":"levelo://app?vid=de2279bc-d437-4704-97bd-b8daca96c769","ios":"levelo://app?vid=de2279bc-d437-4704-97bd-b8daca96c769"},"vehicle_type_id":"4","last_reported":1728320882,"current_range_meters":27200,"station_id":"ce4bhf92rcd13ifvqf50","pricing_plan_id":"cebpf4jnsgd1na2vs0mg"},{"bike_id":"2c8ff5f9-92ae-47a4-9e3a-0025f8cf0207","system_id":"levelo_inurba_marseille","lat":43.292664,"lon":5.368477,"is_reserved":false,"is_disabled":false,"rental_uris":{"android":"levelo://app?vid=2c8ff5f9-92ae-47a4-9e3a-0025f8cf0207","ios":"levelo://app?vid=2c8ff5f9-92ae-47a4-9e3a-0025f8cf0207"},"vehicle_type_id":"4","last_reported":1728320882,"current_range_meters":2000,"station_id":"ce4bhbp2rcd13ifvqesg","pricing_plan_id":"cebpf4jnsgd1na2vs0mg"},{"bike_id":"24e0736f-2b14-422d-a74f-537760e81b1d","system_id":"levelo_inurba_marseille","lat":43.28417,"lon":5.37516,"is_reserved":false,"is_disabled":false,"rental_uris":{"android":"levelo://app?vid=24e0736f-2b14-422d-a74f-537760e81b1d","ios":"levelo://app?vid=24e0736f-2b14-422d-a74f-537760e81b1d"},"vehicle_type_id":"4","last_reported":1728320882,"current_range_meters":33600,"station_id":"ce4bh412rcd13ifvqds0","pricing_plan_id":"cebpf4jnsgd1na2vs0mg"},{"bike_id":"93eb450b-61da-457a-b8f2-c5aca727cacb","system_id":"levelo_inurba_marseille","lat":43.24447,"lon":5.4022,"is_reserved":false,"is_disabled":false,"rental_uris":{"android":"levelo://app?vid=93eb450b-61da-457a-b8f2-c5aca727cacb","ios":"levelo://app?vid=93eb450b-61da-457a-b8f2-c5aca727cacb"},"vehicle_type_id":"4","last_reported":1728320882,"current_range_meters":22800,"station_id":"","pricing_plan_id":"cebpf4jnsgd1na2vs0mg"},{"bike_id":"8a4d8848-66ce-4598-a088-f0dc8ab7e393","system_id":"levelo_inurba_marseille","lat":43.29525,"lon":5.39045,"is_reserved":false,"is_disabled":false,"rental_uris":{"android":"levelo://app?vid=8a4d8848-66ce-4598-a088-f0dc8ab7e393","ios":"levelo://app?vid=8a4d8848-66ce-4598-a088-f0dc8ab7e393"},"vehicle_type_id":"4","last_reported":1728320882,"current_range_meters":13600,"station_id":"ce4bh3p2rcd13ifvqdp0","pricing_plan_id":"cebpf4jnsgd1na2vs0mg"},{"bike_id":"ee12f9d9-852c-4d85-aee4-193d3025f550","system_id":"levelo_inurba_marseille","lat":43.2926,"lon":5.4091,"is_reserved":false,"is_disabled":false,"rental_uris":{"android":"levelo://app?vid=ee12f9d9-852c-4d85-aee4-193d3025f550","ios":"levelo://app?vid=ee12f9d9-852c-4d85-aee4-193d3025f550"},"vehicle_type_id":"4","last_reported":1728320882,"current_range_meters":35200,"station_id":"ce4bh192rcd13ifvqdc0","pricing_plan_id":"cebpf4jnsgd1na2vs0mg"},{"bike_id":"187d2fa9-8bc6-434e-bf6d-7e651b309267","system_id":"levelo_inurba_marseille","lat":43.292726,"lon":5.36842,"is_reserved":false,"is_disabled":false,"rental_uris":{"android":"levelo://app?vid=187d2fa9-8bc6-434e-bf6d-7e651b309267","ios":"levelo://app?vid=187d2fa9-8bc6-434e-bf6d-7e651b309267"},"vehicle_type_id":"4","last_reported":1728320882,"current_range_meters":17600,"station_id":"ce4bhbp2rcd13ifvqesg","pricing_plan_id":"cebpf4jnsgd1na2vs0mg"},{"bike_id":"2eb1180c-3c37-45a8-8c05-d2fd624d984f","system_id":"levelo_inurba_marseille","lat":43.23061,"lon":5.35499,"is_reserved":false,"is_disabled":false,"rental_uris":{"android":"levelo://app?vid=2eb1180c-3c37-45a8-8c05-d2fd624d984f","ios":"levelo://app?vid=2eb1180c-3c37-45a8-8c05-d2fd624d984f"},"vehicle_type_id":"4","last_reported":1728320882,"current_range_meters":25200,"station_id":"cpo3342slgdg3j2ifvpg","pricing_plan_id":"cebpf4jnsgd1na2vs0mg"},{"bike_id":"5f5fdd06-0802-4999-8ada-0434a81b9b68","system_id":"levelo_inurba_marseille","lat":43.31711,"lon":5.3776,"is_reserved":false,"is_disabled":false,"rental_uris":{"android":"levelo://app?vid=5f5fdd06-0802-4999-8ada-0434a81b9b68","ios":"levelo://app?vid=5f5fdd06-0802-4999-8ada-0434a81b9b68"},"vehicle_type_id":"4","last_reported":1728320882,"current_range_meters":35200,"station_id":"ce4bgth2rcd13ifvqch0","pricing_plan_id":"cebpf4jnsgd1na2vs0mg"},{"bike_id":"469ffad1-8074-4606-80b8-176769ae6540","system_id":"levelo_inurba_marseille","lat":43.28938,"lon":5.36639,"is_reserved":false,"is_disabled":false,"rental_uris":{"android":"levelo://app?vid=469ffad1-8074-4606-80b8-176769ae6540","ios":"levelo://app?vid=469ffad1-8074-4606-80b8-176769ae6540"},"vehicle_type_id":"4","last_reported":1728320882,"current_range_meters":27200,"station_id":"ce4bhap2rcd13ifvqek0","pricing_plan_id":"cebpf4jnsgd1na2vs0mg"},{"bike_id":"5fd65ad3-c3b6-4367-a6e1-efdf9caa34ae","system_id":"levelo_inurba_marseille","lat":43.24167,"lon":5.36394,"is_reserved":false,"is_disabled":false,"rental_uris":{"android":"levelo://app?vid=5fd65ad3-c3b6-4367-a6e1-efdf9caa34ae","ios":"levelo://app?vid=5fd65ad3-c3b6-4367-a6e1-efdf9caa34ae"},"vehicle_type_id":"4","last_reported":1728320882,"current_range_meters":31200,"station_id":"cpo36qri1sfpv3e86is0","pricing_plan_id":"cebpf4jnsgd1na2vs0mg"},{"bike_id":"6a048a1b-0984-4071-89db-a5e217cf3f3f","system_id":"levelo_inurba_marseille","lat":43.26555,"lon":5.37298,"is_reserved":false,"is_disabled":false,"rental_uris":{"android":"levelo://app?vid=6a048a1b-0984-4071-89db-a5e217cf3f3f","ios":"levelo://app?vid=6a048a1b-0984-4071-89db-a5e217cf3f3f"},"vehicle_type_id":"4","last_reported":1728320882,"current_range_meters":20400,"station_id":"ce4bhg12rcd13ifvqf70","pricing_plan_id":"cebpf4jnsgd1na2vs0mg"},{"bike_id":"4aa3d252-1e16-4376-ad72-72f83695ae26","system_id":"levelo_inurba_marseille","lat":43.25086,"lon":5.39523,"is_reserved":false,"is_disabled":false,"rental_uris":{"android":"levelo://app?vid=4aa3d252-1e16-4376-ad72-72f83695ae26","ios":"levelo://app?vid=4aa3d252-1e16-4376-ad72-72f83695ae26"},"vehicle_type_id":"4","last_reported":1728320882,"current_range_meters":20000,"station_id":"ce4bhm12rcd13ifvqgkg","pricing_plan_id":"cebpf4jnsgd1na2vs0mg"},{"bike_id":"a8dab3c5-5d6f-445e-935a-ef7e9ec6ea42","system_id":"levelo_inurba_marseille","lat":43.258545,"lon":5.399005,"is_reserved":false,"is_disabled":false,"rental_uris":{"android":"levelo://app?vid=a8dab3c5-5d6f-445e-935a-ef7e9ec6ea42","ios":"levelo://app?vid=a8dab3c5-5d6f-445e-935a-ef7e9ec6ea42"},"vehicle_type_id":"4","last_reported":1728320882,"current_range_meters":10800,"station_id":"ce4bhl92rcd13ifvqghg","pricing_plan_id":"cebpf4jnsgd1na2vs0mg"},{"bike_id":"a2b46cbd-2149-462e-8390-e6119e145ac7","system_id":"levelo_inurba_marseille","lat":43.25586,"lon":5.38234,"is_reserved":false,"is_disabled":false,"rental_uris":{"android":"levelo://app?vid=a2b46cbd-2149-462e-8390-e6119e145ac7","ios":"levelo://app?vid=a2b46cbd-2149-462e-8390-e6119e145ac7"},"vehicle_type_id":"4","last_reported":1728320882,"current_range_meters":26800,"station_id":"ce4bhih2rcd13ifvqfs0","pricing_plan_id":"cebpf4jnsgd1na2vs0mg"},{"bike_id":"8e7bb989-a70b-4c45-a6e2-ea3012fe5dbc","system_id":"levelo_inurba_marseille","lat":43.28466,"lon":5.35905,"is_reserved":false,"is_disabled":false,"rental_uris":{"android":"levelo://app?vid=8e7bb989-a70b-4c45-a6e2-ea3012fe5dbc","ios":"levelo://app?vid=8e7bb989-a70b-4c45-a6e2-ea3012fe5dbc"},"vehicle_type_id":"4","last_reported":1728320882,"current_range_meters":16400,"station_id":"ce4bhah2rcd13ifvqei0","pricing_plan_id":"cebpf4jnsgd1na2vs0mg"},{"bike_id":"7fbe966d-6480-46ce-947e-18aedea8aebc","system_id":"levelo_inurba_marseille","lat":43.29588,"lon":5.37848,"is_reserved":false,"is_disabled":false,"rental_uris":{"android":"levelo://app?vid=7fbe966d-6480-46ce-947e-18aedea8aebc","ios":"levelo://app?vid=7fbe966d-6480-46ce-947e-18aedea8aebc"},"vehicle_type_id":"4","last_reported":1728320882,"current_range_meters":12800,"station_id":"ce4bh512rcd13ifvqe2g","pricing_plan_id":"cebpf4jnsgd1na2vs0mg"},{"bike_id":"3da1b70e-4c81-47d3-90d8-1acceb062edc","system_id":"levelo_inurba_marseille","lat":43.23966,"lon":5.36635,"is_reserved":false,"is_disabled":false,"rental_uris":{"android":"levelo://app?vid=3da1b70e-4c81-47d3-90d8-1acceb062edc","ios":"levelo://app?vid=3da1b70e-4c81-47d3-90d8-1acceb062edc"},"vehicle_type_id":"4","last_reported":1728320882,"current_range_meters":19200,"station_id":"ce4bhi12rcd13ifvqfp0","pricing_plan_id":"cebpf4jnsgd1na2vs0mg"},{"bike_id":"846984a2-b212-4bbb-a13a-656e47b7f4d4","system_id":"levelo_inurba_marseille","lat":43.29107,"lon":5.3607,"is_reserved":false,"is_disabled":false,"rental_uris":{"android":"levelo://app?vid=846984a2-b212-4bbb-a13a-656e47b7f4d4","ios":"levelo://app?vid=846984a2-b212-4bbb-a13a-656e47b7f4d4"},"vehicle_type_id":"4","last_reported":1728320882,"current_range_meters":4000,"station_id":"","pricing_plan_id":"cebpf4jnsgd1na2vs0mg"},{"bike_id":"34be8fcf-958f-42ba-bb4e-52e8e29e5e7c","system_id":"levelo_inurba_marseille","lat":43.29981,"lon":5.37173,"is_reserved":false,"is_disabled":false,"rental_uris":{"android":"levelo://app?vid=34be8fcf-958f-42ba-bb4e-52e8e29e5e7c","ios":"levelo://app?vid=34be8fcf-958f-42ba-bb4e-52e8e29e5e7c"},"vehicle_type_id":"4","last_reported":1728320882,"current_range_meters":5600,"station_id":"ce4bgr92rcd13ifvqc7g","pricing_plan_id":"cebpf4jnsgd1na2vs0mg"},{"bike_id":"937afa9a-a938-4a8e-a160-0b7f2dc8a5c3","system_id":"levelo_inurba_marseille","lat":43.23056,"lon":5.35501,"is_reserved":false,"is_disabled":false,"rental_uris":{"android":"levelo://app?vid=937afa9a-a938-4a8e-a160-0b7f2dc8a5c3","ios":"levelo://app?vid=937afa9a-a938-4a8e-a160-0b7f2dc8a5c3"},"vehicle_type_id":"4","last_reported":1728320882,"current_range_meters":14800,"station_id":"cpo3342slgdg3j2ifvpg","pricing_plan_id":"cebpf4jnsgd1na2vs0mg"},{"bike_id":"7e2542f7-16f6-4d30-a5c4-e0535e9cacb6","system_id":"levelo_inurba_marseille","lat":43.27903,"lon":5.38013,"is_reserved":false,"is_disabled":false,"rental_uris":{"android":"levelo://app?vid=7e2542f7-16f6-4d30-a5c4-e0535e9cacb6","ios":"levelo://app?vid=7e2542f7-16f6-4d30-a5c4-e0535e9cacb6"},"vehicle_type_id":"4","last_reported":1728320882,"current_range_meters":22000,"station_id":"ce4bhf92rcd13ifvqf50","pricing_plan_id":"cebpf4jnsgd1na2vs0mg"},{"bike_id":"47f3d3de-ad25-443d-b1bf-f1908a729f24","system_id":"levelo_inurba_marseille","lat":43.23965,"lon":5.36639,"is_reserved":false,"is_disabled":false,"rental_uris":{"android":"levelo://app?vid=47f3d3de-ad25-443d-b1bf-f1908a729f24","ios":"levelo://app?vid=47f3d3de-ad25-443d-b1bf-f1908a729f24"},"vehicle_type_id":"4","last_reported":1728320882,"current_range_meters":37600,"station_id":"ce4bhi12rcd13ifvqfp0","pricing_plan_id":"cebpf4jnsgd1na2vs0mg"},{"bike_id":"d39e9adc-2bbc-4869-b1ca-cd74c7dda9a6","system_id":"levelo_inurba_marseille","lat":43.23055,"lon":5.35493,"is_reserved":false,"is_disabled":false,"rental_uris":{"android":"levelo://app?vid=d39e9adc-2bbc-4869-b1ca-cd74c7dda9a6","ios":"levelo://app?vid=d39e9adc-2bbc-4869-b1ca-cd74c7dda9a6"},"vehicle_type_id":"4","last_reported":1728320882,"current_range_meters":37600,"station_id":"cpo3342slgdg3j2ifvpg","pricing_plan_id":"cebpf4jnsgd1na2vs0mg"},{"bike_id":"80e55ad8-cbff-4ed1-8a03-8bc34291dc9c","system_id":"levelo_inurba_marseille","lat":43.26957,"lon":5.38642,"is_reserved":false,"is_disabled":false,"rental_uris":{"android":"levelo://app?vid=80e55ad8-cbff-4ed1-8a03-8bc34291dc9c","ios":"levelo://app?vid=80e55ad8-cbff-4ed1-8a03-8bc34291dc9c"},"vehicle_type_id":"4","last_reported":1728320882,"current_range_meters":7200,"station_id":"ce4bhh92rcd13ifvqfh0","pricing_plan_id":"cebpf4jnsgd1na2vs0mg"},{"bike_id":"5ecff6c3-0d3c-4fb0-914e-16db2b078751","system_id":"levelo_inurba_marseille","lat":43.28696,"lon":5.37384,"is_reserved":false,"is_disabled":false,"rental_uris":{"android":"levelo://app?vid=5ecff6c3-0d3c-4fb0-914e-16db2b078751","ios":"levelo://app?vid=5ecff6c3-0d3c-4fb0-914e-16db2b078751"},"vehicle_type_id":"4","last_reported":1728320882,"current_range_meters":12000,"station_id":"ce4bh3p2rcd13ifvqdq0","pricing_plan_id":"cebpf4jnsgd1na2vs0mg"},{"bike_id":"ad7ad254-ffae-46a0-a291-30d0ff8034da","system_id":"levelo_inurba_marseille","lat":43.23187,"lon":5.4,"is_reserved":false,"is_disabled":false,"rental_uris":{"android":"levelo://app?vid=ad7ad254-ffae-46a0-a291-30d0ff8034da","ios":"levelo://app?vid=ad7ad254-ffae-46a0-a291-30d0ff8034da"},"vehicle_type_id":"4","last_reported":1728320882,"current_range_meters":6800,"station_id":"ce4bhn12rcd13ifvqgqg","pricing_plan_id":"cebpf4jnsgd1na2vs0mg"},{"bike_id":"803de788-7e16-48fd-bbaa-d01b60af888a","system_id":"levelo_inurba_marseille","lat":43.29582,"lon":5.36742,"is_reserved":false,"is_disabled":false,"rental_uris":{"android":"levelo://app?vid=803de788-7e16-48fd-bbaa-d01b60af888a","ios":"levelo://app?vid=803de788-7e16-48fd-bbaa-d01b60af888a"},"vehicle_type_id":"4","last_reported":1728320882,"current_range_meters":37600,"station_id":"ce4bgph2rcd13ifvqc2g","pricing_plan_id":"cebpf4jnsgd1na2vs0mg"},{"bike_id":"962d2be3-023d-40b9-be13-109c399071ee","system_id":"levelo_inurba_marseille","lat":43.23198,"lon":5.35558,"is_reserved":false,"is_disabled":false,"rental_uris":{"android":"levelo://app?vid=962d2be3-023d-40b9-be13-109c399071ee","ios":"levelo://app?vid=962d2be3-023d-40b9-be13-109c399071ee"},"vehicle_type_id":"4","last_reported":1728320882,"current_range_meters":14800,"station_id":"ce4bhu92rcd13ifvqi70","pricing_plan_id":"cebpf4jnsgd1na2vs0mg"},{"bike_id":"06e4474e-fde5-43dc-8ad3-38deadf1d26d","system_id":"levelo_inurba_marseille","lat":43.29568,"lon":5.39979,"is_reserved":false,"is_disabled":false,"rental_uris":{"android":"levelo://app?vid=06e4474e-fde5-43dc-8ad3-38deadf1d26d","ios":"levelo://app?vid=06e4474e-fde5-43dc-8ad3-38deadf1d26d"},"vehicle_type_id":"4","last_reported":1728320882,"current_range_meters":16800,"station_id":"ce4bh312rcd13ifvqdj0","pricing_plan_id":"cebpf4jnsgd1na2vs0mg"},{"bike_id":"ff589067-b24b-493b-b3ec-73d1858b8152","system_id":"levelo_inurba_marseille","lat":43.31492,"lon":5.37312,"is_reserved":false,"is_disabled":false,"rental_uris":{"android":"levelo://app?vid=ff589067-b24b-493b-b3ec-73d1858b8152","ios":"levelo://app?vid=ff589067-b24b-493b-b3ec-73d1858b8152"},"vehicle_type_id":"4","last_reported":1728320882,"current_range_meters":38800,"station_id":"ce4bgt12rcd13ifvqcd0","pricing_plan_id":"cebpf4jnsgd1na2vs0mg"},{"bike_id":"925351d7-bfef-4d4d-83c2-508cb65c69c7","system_id":"levelo_inurba_marseille","lat":43.22929,"lon":5.35384,"is_reserved":false,"is_disabled":false,"rental_uris":{"android":"levelo://app?vid=925351d7-bfef-4d4d-83c2-508cb65c69c7","ios":"levelo://app?vid=925351d7-bfef-4d4d-83c2-508cb65c69c7"},"vehicle_type_id":"4","last_reported":1728320882,"current_range_meters":30000,"station_id":"cpo3532slgdg3j2ikp40","pricing_plan_id":"cebpf4jnsgd1na2vs0mg"},{"bike_id":"79c7a1e7-d75f-4738-8032-dd91d0f8aa8a","system_id":"levelo_inurba_marseille","lat":43.23057,"lon":5.35497,"is_reserved":false,"is_disabled":false,"rental_uris":{"android":"levelo://app?vid=79c7a1e7-d75f-4738-8032-dd91d0f8aa8a","ios":"levelo://app?vid=79c7a1e7-d75f-4738-8032-dd91d0f8aa8a"},"vehicle_type_id":"4","last_reported":1728320882,"current_range_meters":20800,"station_id":"cpo3342slgdg3j2ifvpg","pricing_plan_id":"cebpf4jnsgd1na2vs0mg"},{"bike_id":"75c67b04-05fb-4f9c-96b5-2f1d45c406cd","system_id":"levelo_inurba_marseille","lat":43.28847,"lon":5.35853,"is_reserved":false,"is_disabled":false,"rental_uris":{"android":"levelo://app?vid=75c67b04-05fb-4f9c-96b5-2f1d45c406cd","ios":"levelo://app?vid=75c67b04-05fb-4f9c-96b5-2f1d45c406cd"},"vehicle_type_id":"4","last_reported":1728320882,"current_range_meters":2800,"station_id":"ce4bhb12rcd13ifvqem0","pricing_plan_id":"cebpf4jnsgd1na2vs0mg"},{"bike_id":"65ad03a2-5bcc-4eca-8723-6ff625b6f1ed","system_id":"levelo_inurba_marseille","lat":43.23063,"lon":5.35493,"is_reserved":false,"is_disabled":false,"rental_uris":{"android":"levelo://app?vid=65ad03a2-5bcc-4eca-8723-6ff625b6f1ed","ios":"levelo://app?vid=65ad03a2-5bcc-4eca-8723-6ff625b6f1ed"},"vehicle_type_id":"4","last_reported":1728320882,"current_range_meters":32000,"station_id":"cpo3342slgdg3j2ifvpg","pricing_plan_id":"cebpf4jnsgd1na2vs0mg"},{"bike_id":"960b2d9b-a2f2-469e-b1fb-d35f771beecd","system_id":"levelo_inurba_marseille","lat":43.30415,"lon":5.41289,"is_reserved":false,"is_disabled":false,"rental_uris":{"android":"levelo://app?vid=960b2d9b-a2f2-469e-b1fb-d35f771beecd","ios":"levelo://app?vid=960b2d9b-a2f2-469e-b1fb-d35f771beecd"},"vehicle_type_id":"4","last_reported":1728320882,"current_range_meters":14400,"station_id":"ce4bhop2rcd13ifvqh8g","pricing_plan_id":"cebpf4jnsgd1na2vs0mg"},{"bike_id":"f3282cc7-faba-4b37-9d31-2ce5c2b5e06a","system_id":"levelo_inurba_marseille","lat":43.29533,"lon":5.39039,"is_reserved":false,"is_disabled":false,"rental_uris":{"android":"levelo://app?vid=f3282cc7-faba-4b37-9d31-2ce5c2b5e06a","ios":"levelo://app?vid=f3282cc7-faba-4b37-9d31-2ce5c2b5e06a"},"vehicle_type_id":"4","last_reported":1728320882,"current_range_meters":9600,"station_id":"ce4bh3p2rcd13ifvqdp0","pricing_plan_id":"cebpf4jnsgd1na2vs0mg"},{"bike_id":"261a98ac-b776-40fc-ac28-41babfdf3a0b","system_id":"levelo_inurba_marseille","lat":43.2558,"lon":5.38234,"is_reserved":false,"is_disabled":false,"rental_uris":{"android":"levelo://app?vid=261a98ac-b776-40fc-ac28-41babfdf3a0b","ios":"levelo://app?vid=261a98ac-b776-40fc-ac28-41babfdf3a0b"},"vehicle_type_id":"4","last_reported":1728320882,"current_range_meters":8800,"station_id":"ce4bhih2rcd13ifvqfs0","pricing_plan_id":"cebpf4jnsgd1na2vs0mg"},{"bike_id":"1b66d170-93bd-4aaa-b906-57a82a5697db","system_id":"levelo_inurba_marseille","lat":43.28083,"lon":5.39753,"is_reserved":false,"is_disabled":false,"rental_uris":{"android":"levelo://app?vid=1b66d170-93bd-4aaa-b906-57a82a5697db","ios":"levelo://app?vid=1b66d170-93bd-4aaa-b906-57a82a5697db"},"vehicle_type_id":"4","last_reported":1728320882,"current_range_meters":19600,"station_id":"","pricing_plan_id":"cebpf4jnsgd1na2vs0mg"},