{"last_updated":1726834616,"ttl":30,"version":"2.2","data":{"bikes":[{"bike_id":"92b0a7ed-f9a4-453f-a299-069ad61f460a","system_id":"levelo_inurba_marseille","lat":43.30306,"lon":5.39209,"is_reserved":false,"is_disabled":false,"rental_uris":{"android":"levelo://app?vid=92b0a7ed-f9a4-453f-a299-069ad61f460a","ios":"levelo://app?vid=92b0a7ed-f9a4-453f-a299-069ad61f460a"},"vehicle_type_id":"4","last_reported":1726834617,"current_range_meters":3600,"station_id":"ce4bgkh2rcd13ifvqbk0","pricing_plan_id":"cebpf4jnsgd1na2vs0mg"},{"bike_id":"d310b6b3-58cf-48fa-8378-2753a1c70c80","system_id":"levelo_inurba_marseille","lat":43.29915,"lon":5.4365,"is_reserved":false,"is_disabled":false,"rental_uris":{"android":"levelo://app?vid=d310b6b3-58cf-48fa-8378-2753a1c70c80","ios":"levelo://app?vid=d310b6b3-58cf-48fa-8378-2753a1c70c80"},"vehicle_type_id":"4","last_reported":1726834617,"current_range_meters":22000,"station_id":"ce4bhpp2rcd13ifvqhfg","pricing_plan_id":"cebpf4jnsgd1na2vs0mg"},{"bike_id":"4bddc6b6-d0f7-4401-b011-4337db5025db","system_id":"levelo_inurba_marseille","lat":43.27494,"lon":5.40928,"is_reserved":false,"is_disabled":false,"rental_uris":{"android":"levelo://app?vid=4bddc6b6-d0f7-4401-b011-4337db5025db","ios":"levelo://app?vid=4bddc6b6-d0f7-4401-b011-4337db5025db"},"vehicle_type_id":"4","last_reported":1726834617,"current_range_meters":22400,"station_id":"cjm6bp8fraef2m0cb0m0","pricing_plan_id":"cebpf4jnsgd1na2vs0mg"},{"bike_id":"ee228979-1d72-475d-8ae1-9f52d797b43d","system_id":"levelo_inurba_marseille","lat":43.258614,"lon":5.39897,"is_reserved":false,"is_disabled":false,"rental_uris":{"android":"levelo://app?vid=ee228979-1d72-475d-8ae1-9f52d797b43d","ios":"levelo://app?vid=ee228979-1d72-475d-8ae1-9f52d797b43d"},"vehicle_type_id":"4","last_reported":1726834617,"current_range_meters":27200,"station_id":"ce4bhl92rcd13ifvqghg","pricing_plan_id":"cebpf4jnsgd1na2vs0mg"},{"bike_id":"cc69b976-e26e-42cb-a25b-a71708e51f10","system_id":"levelo_inurba_marseille","lat":43.26952,"lon":5.38626,"is_reserved":false,"is_disabled":false,"rental_uris":{"android":"levelo://app?vid=cc69b976-e26e-42cb-a25b-a71708e51f10","ios":"levelo://app?vid=cc69b976-e26e-42cb-a25b-a71708e51f10"},"vehicle_type_id":"4","last_reported":1726834617,"current_range_meters":6400,"station_id":"ce4bhh92rcd13ifvqfh0","pricing_plan_id":"cebpf4jnsgd1na2vs0mg"},{"bike_id":"ee95732b-b901-4372-8f5b-4ec70904a0dc","system_id":"levelo_inurba_marseille","lat":43.337444,"lon":5.374475,"is_reserved":false,"is_disabled":false,"rental_uris":{"android":"levelo://app?vid=ee95732b-b901-4372-8f5b-4ec70904a0dc","ios":"levelo://app?vid=ee95732b-b901-4372-8f5b-4ec70904a0dc"},"vehicle_type_id":"4","last_reported":1726834617,"current_range_meters":36800,"station_id":"ce4bgj92rcd13ifvqbd0","pricing_plan_id":"cebpf4jnsgd1na2vs0mg"},{"bike_id":"e532fd53-ad12-4848-82ea-70ac934c1c37","system_id":"levelo_inurba_marseille","lat":43.33748,"lon":5.37449,"is_reserved":false,"is_disabled":false,"rental_uris":{"android":"levelo://app?vid=e532fd53-ad12-4848-82ea-70ac934c1c37","ios":"levelo://app?vid=e532fd53-ad12-4848-82ea-70ac934c1c37"},"vehicle_type_id":"4","last_reported":1726834617,"current_range_meters":12400,"station_id":"","pricing_plan_id":"cebpf4jnsgd1na2vs0mg"},{"bike_id":"caacc5f9-63ca-414d-9124-88e29a835149","system_id":"levelo_inurba_marseille","lat":43.29851,"lon":5.36286,"is_reserved":false,"is_disabled":false,"rental_uris":{"android":"levelo://app?vid=caacc5f9-63ca-414d-9124-88e29a835149","ios":"levelo://app?vid=caacc5f9-63ca-414d-9124-88e29a835149"},"vehicle_type_id":"4","last_reported":1726834617,"current_range_meters":38800,"station_id":"ce4bgpp2rcd13ifvqc3g","pricing_plan_id":"cebpf4jnsgd1na2vs0mg"},{"bike_id":"e6ac2449-822a-43d2-b6be-8ee74f63805f","system_id":"levelo_inurba_marseille","lat":43.31684,"lon":5.40471,"is_reserved":false,"is_disabled":false,"rental_uris":{"android":"levelo://app?vid=e6ac2449-822a-43d2-b6be-8ee74f63805f","ios":"levelo://app?vid=e6ac2449-822a-43d2-b6be-8ee74f63805f"},"vehicle_type_id":"4","last_reported":1726834617,"current_range_meters":16400,"station_id":"ce4bh012rcd13ifvqd00","pricing_plan_id":"cebpf4jnsgd1na2vs0mg"},{"bike_id":"5eb090ec-2b95-4c94-8161-eff4c8f0e709","system_id":"levelo_inurba_marseille","lat":43.32483,"lon":5.3656,"is_reserved":false,"is_disabled":false,"rental_uris":{"android":"levelo://app?vid=5eb090ec-2b95-4c94-8161-eff4c8f0e709","ios":"levelo://app?vid=5eb090ec-2b95-4c94-8161-eff4c8f0e709"},"vehicle_type_id":"4","last_reported":1726834617,"current_range_meters":12800,"station_id":"ce4bhs12rcd13ifvqhvg","pricing_plan_id":"cebpf4jnsgd1na2vs0mg"},{"bike_id":"c0af2736-c895-436a-b434-e89bb13ad755","system_id":"levelo_inurba_marseille","lat":43.289378,"lon":5.363872,"is_reserved":false,"is_disabled":false,"rental_uris":{"android":"levelo://app?vid=c0af2736-c895-436a-b434-e89bb13ad755","ios":"levelo://app?vid=c0af2736-c895-436a-b434-e89bb13ad755"},"vehicle_type_id":"4","last_reported":1726834617,"current_range_meters":8400,"station_id":"ce4bhc92rcd13ifvqetg","pricing_plan_id":"cebpf4jnsgd1na2vs0mg"},{"bike_id":"e9320818-c2cb-4a00-998a-252a32b95463","system_id":"levelo_inurba_marseille","lat":43.29844,"lon":5.36268,"is_reserved":false,"is_disabled":false,"rental_uris":{"android":"levelo://app?vid=e9320818-c2cb-4a00-998a-252a32b95463","ios":"levelo://app?vid=e9320818-c2cb-4a00-998a-252a32b95463"},"vehicle_type_id":"4","last_reported":1726834617,"current_range_meters":22800,"station_id":"ce4bgpp2rcd13ifvqc3g","pricing_plan_id":"cebpf4jnsgd1na2vs0mg"},{"bike_id":"fdc69bcf-7945-4097-982d-215e43619115","system_id":"levelo_inurba_marseille","lat":43.29845,"lon":5.36277,"is_reserved":false,"is_disabled":false,"rental_uris":{"android":"levelo://app?vid=fdc69bcf-7945-4097-982d-215e43619115","ios":"levelo://app?vid=fdc69bcf-7945-4097-982d-215e43619115"},"vehicle_type_id":"4","last_reported":1726834617,"current_range_meters":40000,"station_id":"ce4bgpp2rcd13ifvqc3g","pricing_plan_id":"cebpf4jnsgd1na2vs0mg"},{"bike_id":"2ab15220-c5b8-4057-99ef-d7045d4c6859","system_id":"levelo_inurba_marseille","lat":43.30141,"lon":5.3743,"is_reserved":false,"is_disabled":false,"rental_uris":{"android":"levelo://app?vid=2ab15220-c5b8-4057-99ef-d7045d4c6859","ios":"levelo://app?vid=2ab15220-c5b8-4057-99ef-d7045d4c6859"},"vehicle_type_id":"4","last_reported":1726834617,"current_range_meters":19200,"station_id":"ce4bgs92rcd13ifvqcc0","pricing_plan_id":"cebpf4jnsgd1na2vs0mg"},{"bike_id":"4157a7a5-a7db-4a90-9504-66e91e2d691f","system_id":"levelo_inurba_marseille","lat":43.2717,"lon":5.40994,"is_reserved":false,"is_disabled":false,"rental_uris":{"android":"levelo://app?vid=4157a7a5-a7db-4a90-9504-66e91e2d691f","ios":"levelo://app?vid=4157a7a5-a7db-4a90-9504-66e91e2d691f"},"vehicle_type_id":"4","last_reported":1726834617,"current_range_meters":20000,"station_id":"ce4bhl12rcd13ifvqgf0","pricing_plan_id":"cebpf4jnsgd1na2vs0mg"},{"bike_id":"27247dec-f109-4885-b572-928d57782be9","system_id":"levelo_inurba_marseille","lat":43.2657,"lon":5.3899,"is_reserved":false,"is_disabled":false,"rental_uris":{"android":"levelo://app?vid=27247dec-f109-4885-b572-928d57782be9","ios":"levelo://app?vid=27247dec-f109-4885-b572-928d57782be9"},"vehicle_type_id":"4","last_reported":1726834617,"current_range_meters":24000,"station_id":"ce4bhe12rcd13ifvqf30","pricing_plan_id":"cebpf4jnsgd1na2vs0mg"},{"bike_id":"230bdd9c-936c-4905-9599-746a0827676d","system_id":"levelo_inurba_marseille","lat":43.28936,"lon":5.36633,"is_reserved":false,"is_disabled":false,"rental_uris":{"android":"levelo://app?vid=230bdd9c-936c-4905-9599-746a0827676d","ios":"levelo://app?vid=230bdd9c-936c-4905-9599-746a0827676d"},"vehicle_type_id":"4","last_reported":1726834617,"current_range_meters":38400,"station_id":"ce4bhap2rcd13ifvqek0","pricing_plan_id":"cebpf4jnsgd1na2vs0mg"},{"bike_id":"a19b2abe-9ca8-43de-85f2-ea35f99ff8ce","system_id":"levelo_inurba_marseille","lat":43.23181,"lon":5.39986,"is_reserved":false,"is_disabled":false,"rental_uris":{"android":"levelo://app?vid=a19b2abe-9ca8-43de-85f2-ea35f99ff8ce","ios":"levelo://app?vid=a19b2abe-9ca8-43de-85f2-ea35f99ff8ce"},"vehicle_type_id":"4","last_reported":1726834617,"current_range_meters":9600,"station_id":"ce4bhn12rcd13ifvqgqg","pricing_plan_id":"cebpf4jnsgd1na2vs0mg"},{"bike_id":"89af23a8-139d-437a-8ca2-4abc864ec0e0","system_id":"levelo_inurba_marseille","lat":43.30804,"lon":5.38136,"is_reserved":false,"is_disabled":false,"rental_uris":{"android":"levelo://app?vid=89af23a8-139d-437a-8ca2-4abc864ec0e0","ios":"levelo://app?vid=89af23a8-139d-437a-8ca2-4abc864ec0e0"},"vehicle_type_id":"4","last_reported":1726834617,"current_range_meters":36000,"station_id":"ce4bgt12rcd13ifvqce0","pricing_plan_id":"cebpf4jnsgd1na2vs0mg"},{"bike_id":"838e99a9-3d23-4997-ab0d-600a12008281","system_id":"levelo_inurba_marseille","lat":43.27497,"lon":5.42453,"is_reserved":false,"is_disabled":false,"rental_uris":{"android":"levelo://app?vid=838e99a9-3d23-4997-ab0d-600a12008281","ios":"levelo://app?vid=838e99a9-3d23-4997-ab0d-600a12008281"},"vehicle_type_id":"4","last_reported":1726834617,"current_range_meters":20000,"station_id":"ce4bhn92rcd13ifvqgrg","pricing_plan_id":"cebpf4jnsgd1na2vs0mg"},{"bike_id":"85c2dc7a-89e4-4761-a9ab-a953ed802d70","system_id":"levelo_inurba_marseille","lat":43.27068,"lon":5.42278,"is_reserved":false,"is_disabled":false,"rental_uris":{"android":"levelo://app?vid=85c2dc7a-89e4-4761-a9ab-a953ed802d70","ios":"levelo://app?vid=85c2dc7a-89e4-4761-a9ab-a953ed802d70"},"vehicle_type_id":"4","last_reported":1726834617,"current_range_meters":8800,"station_id":"ce4bhk92rcd13ifvqgb0","pricing_plan_id":"cebpf4jnsgd1na2vs0mg"},{"bike_id":"49f16248-18e8-4962-9435-dad9616472e7","system_id":"levelo_inurba_marseille","lat":43.27372,"lon":5.3626,"is_reserved":false,"is_disabled":false,"rental_uris":{"android":"levelo://app?vid=49f16248-18e8-4962-9435-dad9616472e7","ios":"levelo://app?vid=49f16248-18e8-4962-9435-dad9616472e7"},"vehicle_type_id":"4","last_reported":1726834617,"current_range_meters":37600,"station_id":"ce4bhbh2rcd13ifvqeo0","pricing_plan_id":"cebpf4jnsgd1na2vs0mg"},{"bike_id":"ff35890d-b554-4d05-bdf1-94a62004aa36","system_id":"levelo_inurba_marseille","lat":43.29937,"lon":5.36548,"is_reserved":false,"is_disabled":false,"rental_uris":{"android":"levelo://app?vid=ff35890d-b554-4d05-bdf1-94a62004aa36","ios":"levelo://app?vid=ff35890d-b554-4d05-bdf1-94a62004aa36"},"vehicle_type_id":"4","last_reported":1726834617,"current_range_meters":20800,"station_id":"ce4bgm92rcd13ifvqbr0","pricing_plan_id":"cebpf4jnsgd1na2vs0mg"},{"bike_id":"79ad12de-8119-4d40-87f5-340dec7489f7","system_id":"levelo_inurba_marseille","lat":43.30136,"lon":5.37436,"is_reserved":false,"is_disabled":false,"rental_uris":{"android":"levelo://app?vid=79ad12de-8119-4d40-87f5-340dec7489f7","ios":"levelo://app?vid=79ad12de-8119-4d40-87f5-340dec7489f7"},"vehicle_type_id":"4","last_reported":1726834617,"current_range_meters":39200,"station_id":"ce4bgs92rcd13ifvqcc0","pricing_plan_id":"cebpf4jnsgd1na2vs0mg"},{"bike_id":"0c727f18-7eb4-479b-a38c-2746903fc6ab","system_id":"levelo_inurba_marseille","lat":43.27375,"lon":5.36257,"is_reserved":false,"is_disabled":false,"rental_uris":{"android":"levelo://app?vid=0c727f18-7eb4-479b-a38c-2746903fc6ab","ios":"levelo://app?vid=0c727f18-7eb4-479b-a38c-2746903fc6ab"},"vehicle_type_id":"4","last_reported":1726834617,"current_range_meters":9600,"station_id":"ce4bhbh2rcd13ifvqeo0","pricing_plan_id":"cebpf4jnsgd1na2vs0mg"},{"bike_id":"816ca7be-0c7b-406b-bdb3-622f13941120","system_id":"levelo_inurba_marseille","lat":43.29897,"lon":5.4367,"is_reserved":false,"is_disabled":false,"rental_uris":{"android":"levelo://app?vid=816ca7be-0c7b-406b-bdb3-622f13941120","ios":"levelo://app?vid=816ca7be-0c7b-406b-bdb3-622f13941120"},"vehicle_type_id":"4","last_reported":1726834617,"current_range_meters":17200,"station_id":"ce4bhpp2rcd13ifvqhfg","pricing_plan_id":"cebpf4jnsgd1na2vs0mg"},{"bike_id":"d6d7757c-7dbb-472d-9ec9-e3e1b8dfa44c","system_id":"levelo_inurba_marseille","lat":43.28572,"lon":5.39492,"is_reserved":false,"is_disabled":false,"rental_uris":{"android":"levelo://app?vid=d6d7757c-7dbb-472d-9ec9-e3e1b8dfa44c","ios":"levelo://app?vid=d6d7757c-7dbb-472d-9ec9-e3e1b8dfa44c"},"vehicle_type_id":"4","last_reported":1726834617,"current_range_meters":36000,"station_id":"ce4bh292rcd13ifvqdg0","pricing_plan_id":"cebpf4jnsgd1na2vs0mg"},{"bike_id":"036ab25f-0c34-4c45-8e88-1fc9200da6fd","system_id":"levelo_inurba_marseille","lat":43.27172,"lon":5.42721,"is_reserved":false,"is_disabled":false,"rental_uris":{"android":"levelo://app?vid=036ab25f-0c34-4c45-8e88-1fc9200da6fd","ios":"levelo://app?vid=036ab25f-0c34-4c45-8e88-1fc9200da6fd"},"vehicle_type_id":"4","last_reported":1726834617,"current_range_meters":26000,"station_id":"","pricing_plan_id":"cebpf4jnsgd1na2vs0mg"},{"bike_id":"40e5b403-5590-4098-a474-822a4163b2a7","system_id":"levelo_inurba_marseille","lat":43.29978,"lon":5.37184,"is_reserved":false,"is_disabled":false,"rental_uris":{"android":"levelo://app?vid=40e5b403-5590-4098-a474-822a4163b2a7","ios":"levelo://app?vid=40e5b403-5590-4098-a474-822a4163b2a7"},"vehicle_type_id":"4","last_reported":1726834617,"current_range_meters":25200,"station_id":"ce4bgr92rcd13ifvqc7g","pricing_plan_id":"cebpf4jnsgd1na2vs0mg"},{"bike_id":"a143b59c-ef89-4d2c-9dc3-0c454a53a3d0","system_id":"levelo_inurba_marseille","lat":43.3171,"lon":5.37747,"is_reserved":false,"is_disabled":false,"rental_uris":{"android":"levelo://app?vid=a143b59c-ef89-4d2c-9dc3-0c454a53a3d0","ios":"levelo://app?vid=a143b59c-ef89-4d2c-9dc3-0c454a53a3d0"},"vehicle_type_id":"4","last_reported":1726834617,"current_range_meters":28800,"station_id":"ce4bgth2rcd13ifvqch0","pricing_plan_id":"cebpf4jnsgd1na2vs0mg"},{"bike_id":"809d76c3-2931-4bf7-911e-100e1b844076","system_id":"levelo_inurba_marseille","lat":43.26209,"lon":5.37441,"is_reserved":false,"is_disabled":false,"rental_uris":{"android":"levelo://app?vid=809d76c3-2931-4bf7-911e-100e1b844076","ios":"levelo://app?vid=809d76c3-2931-4bf7-911e-100e1b844076"},"vehicle_type_id":"4","last_reported":1726834617,"current_range_meters":26800,"station_id":"ce4bhgp2rcd13ifvqfc0","pricing_plan_id":"cebpf4jnsgd1na2vs0mg"},{"bike_id":"0fb42f67-e6d4-4b33-8619-af1b1d2a30e9","system_id":"levelo_inurba_marseille","lat":43.23148,"lon":5.43721,"is_reserved":false,"is_disabled":false,"rental_uris":{"android":"levelo://app?vid=0fb42f67-e6d4-4b33-8619-af1b1d2a30e9","ios":"levelo://app?vid=0fb42f67-e6d4-4b33-8619-af1b1d2a30e9"},"vehicle_type_id":"4","last_reported":1726834617,"current_range_meters":40000,"station_id":"ce4bhmp2rcd13ifvqgog","pricing_plan_id":"cebpf4jnsgd1na2vs0mg"},{"bike_id":"b700cd51-dda4-4fb8-8287-cffdb188babb","system_id":"levelo_inurba_marseille","lat":43.2938,"lon":5.37848,"is_reserved":false,"is_disabled":false,"rental_uris":{"android":"levelo://app?vid=b700cd51-dda4-4fb8-8287-cffdb188babb","ios":"levelo://app?vid=b700cd51-dda4-4fb8-8287-cffdb188babb"},"vehicle_type_id":"4","last_reported":1726834617,"current_range_meters":30800,"station_id":"ce4bgjh2rcd13ifvqbf0","pricing_plan_id":"cebpf4jnsgd1na2vs0mg"},{"bike_id":"e3157b7d-f63e-4215-9b0b-bec081b31a83","system_id":"levelo_inurba_marseille","lat":43.32477,"lon":5.36572,"is_reserved":false,"is_disabled":false,"rental_uris":{"android":"levelo://app?vid=e3157b7d-f63e-4215-9b0b-bec081b31a83","ios":"levelo://app?vid=e3157b7d-f63e-4215-9b0b-bec081b31a83"},"vehicle_type_id":"4","last_reported":1726834617,"current_range_meters":6000,"station_id":"ce4bhs12rcd13ifvqhvg","pricing_plan_id":"cebpf4jnsgd1na2vs0mg"},{"bike_id":"751f90c9-696d-43a3-abf5-68be55a262c9","system_id":"levelo_inurba_marseille","lat":43.33617,"lon":5.41033,"is_reserved":false,"is_disabled":false,"rental_uris":{"android":"levelo://app?vid=751f90c9-696d-43a3-abf5-68be55a262c9","ios":"levelo://app?vid=751f90c9-696d-43a3-abf5-68be55a262c9"},"vehicle_type_id":"4","last_reported":1726834617,"current_range_meters":16800,"station_id":"ce4bhqh2rcd13ifvqhmg","pricing_plan_id":"cebpf4jnsgd1na2vs0mg"},{"bike_id":"9899969d-4f8e-4fed-bc43-e675716ac04a","system_id":"levelo_inurba_marseille","lat":43.23153,"lon":5.43715,"is_reserved":false,"is_disabled":false,"rental_uris":{"android":"levelo://app?vid=9899969d-4f8e-4fed-bc43-e675716ac04a","ios":"levelo://app?vid=9899969d-4f8e-4fed-bc43-e675716ac04a"},"vehicle_type_id":"4","last_reported":1726834617,"current_range_meters":40000,"station_id":"ce4bhmp2rcd13ifvqgog","pricing_plan_id":"cebpf4jnsgd1na2vs0mg"},{"bike_id":"edfb1ff5-b81b-4225-8da9-100a9115b1e3","system_id":"levelo_inurba_marseille","lat":43.29735,"lon":5.36561,"is_reserved":false,"is_disabled":false,"rental_uris":{"android":"levelo://app?vid=edfb1ff5-b81b-4225-8da9-100a9115b1e3","ios":"levelo://app?vid=edfb1ff5-b81b-4225-8da9-100a9115b1e3"},"vehicle_type_id":"4","last_reported":1726834617,"current_range_meters":12800,"station_id":"","pricing_plan_id":"cebpf4jnsgd1na2vs0mg"},{"bike_id":"2fe4ef81-1a02-4861-99cd-5133a68370de","system_id":"levelo_inurba_marseille","lat":43.30463,"lon":5.37912,"is_reserved":false,"is_disabled":false,"rental_uris":{"android":"levelo://app?vid=2fe4ef81-1a02-4861-99cd-5133a68370de","ios":"levelo://app?vid=2fe4ef81-1a02-4861-99cd-5133a68370de"},"vehicle_type_id":"4","last_reported":1726834617,"current_range_meters":28800,"station_id":"ce4bgup2rcd13ifvqcn0","pricing_plan_id":"cebpf4jnsgd1na2vs0mg"},{"bike_id":"dbe9261d-1745-4802-a553-673819380fc6","system_id":"levelo_inurba_marseille","lat":43.29521,"lon":5.39049,"is_reserved":false,"is_disabled":false,"rental_uris":{"android":"levelo://app?vid=dbe9261d-1745-4802-a553-673819380fc6","ios":"levelo://app?vid=dbe9261d-1745-4802-a553-673819380fc6"},"vehicle_type_id":"4","last_reported":1726834617,"current_range_meters":11600,"station_id":"ce4bh3p2rcd13ifvqdp0","pricing_plan_id":"cebpf4jnsgd1na2vs0mg"},{"bike_id":"15e3060d-1cfb-481c-9f48-257a94bd2c2a","system_id":"levelo_inurba_marseille","lat":43.32654,"lon":5.40988,"is_reserved":false,"is_disabled":false,"rental_uris":{"android":"levelo://app?vid=15e3060d-1cfb-481c-9f48-257a94bd2c2a","ios":"levelo://app?vid=15e3060d-1cfb-481c-9f48-257a94bd2c2a"},"vehicle_type_id":"4","last_reported":1726834617,"current_range_meters":37600,"station_id":"ce4bhpp2rcd13ifvqhgg","pricing_plan_id":"cebpf4jnsgd1na2vs0mg"},{"bike_id":"c8558a3e-0779-4454-9c3b-d1ee2706fdca","system_id":"levelo_inurba_marseille","lat":43.3171,"lon":5.43706,"is_reserved":false,"is_disabled":false,"rental_uris":{"android":"levelo://app?vid=c8558a3e-0779-4454-9c3b-d1ee2706fdca","ios":"levelo://app?vid=c8558a3e-0779-4454-9c3b-d1ee2706fdca"},"vehicle_type_id":"4","last_reported":1726834617,"current_range_meters":13600,"station_id":"ce4bhp92rcd13ifvqhcg","pricing_plan_id":"cebpf4jnsgd1na2vs0mg"},{"bike_id":"8615a493-3c1b-4012-af18-f43258e13ff7","system_id":"levelo_inurba_marseille","lat":43.231537,"lon":5.437097,"is_reserved":false,"is_disabled":false,"rental_uris":{"android":"levelo://app?vid=8615a493-3c1b-4012-af18-f43258e13ff7","ios":"levelo://app?vid=8615a493-3c1b-4012-af18-f43258e13ff7"},"vehicle_type_id":"4","last_reported":1726834617,"current_range_meters":14800,"station_id":"ce4bhmp2rcd13ifvqgog","pricing_plan_id":"cebpf4jnsgd1na2vs0mg"},{"bike_id":"2dbb1663-551c-4fd6-9505-2a6c2c009f8a","system_id":"levelo_inurba_marseille","lat":43.28698,"lon":5.39982,"is_reserved":false,"is_disabled":false,"rental_uris":{"android":"levelo://app?vid=2dbb1663-551c-4fd6-9505-2a6c2c009f8a","ios":"levelo://app?vid=2dbb1663-551c-4fd6-9505-2a6c2c009f8a"},"vehicle_type_id":"4","last_reported":1726834617,"current_range_meters":2800,"station_id":"ce4bho92rcd13ifvqh3g","pricing_plan_id":"cebpf4jnsgd1na2vs0mg"},{"bike_id":"e8a1ac1d-9e10-4e94-9ed7-5b9ab1ebe882","system_id":"levelo_inurba_marseille","lat":43.23147,"lon":5.43725,"is_reserved":false,"is_disabled":false,"rental_uris":{"android":"levelo://app?vid=e8a1ac1d-9e10-4e94-9ed7-5b9ab1ebe882","ios":"levelo://app?vid=e8a1ac1d-9e10-4e94-9ed7-5b9ab1ebe882"},"vehicle_type_id":"4","last_reported":1726834617,"current_range_meters":33600,"station_id":"ce4bhmp2rcd13ifvqgog","pricing_plan_id":"cebpf4jnsgd1na2vs0mg"},{"bike_id":"fce287ad-70fa-4263-8851-9451b7dd1984","system_id":"levelo_inurba_marseille","lat":43.30604,"lon":5.3935,"is_reserved":false,"is_disabled":false,"rental_uris":{"android":"levelo://app?vid=fce287ad-70fa-4263-8851-9451b7dd1984","ios":"levelo://app?vid=fce287ad-70fa-4263-8851-9451b7dd1984"},"vehicle_type_id":"4","last_reported":1726834617,"current_range_meters":39200,"station_id":"ce4bh0p2rcd13ifvqd80","pricing_plan_id":"cebpf4jnsgd1na2vs0mg"},{"bike_id":"77d5e5db-ddb1-402e-bb8a-801e81be1303","system_id":"levelo_inurba_marseille","lat":43.283697,"lon":5.380952,"is_reserved":false,"is_disabled":false,"rental_uris":{"android":"levelo://app?vid=77d5e5db-ddb1-402e-bb8a-801e81be1303","ios":"levelo://app?vid=77d5e5db-ddb1-402e-bb8a-801e81be1303"},"vehicle_type_id":"4","last_reported":1726834617,"current_range_meters":11200,"station_id":"ce4bh412rcd13ifvqdr0","pricing_plan_id":"cebpf4jnsgd1na2vs0mg"},{"bike_id":"2132d386-47c2-4d32-aec3-af3f76f5322d","system_id":"levelo_inurba_marseille","lat":43.30261,"lon":5.40078,"is_reserved":false,"is_disabled":false,"rental_uris":{"android":"levelo://app?vid=2132d386-47c2-4d32-aec3-af3f76f5322d","ios":"levelo://app?vid=2132d386-47c2-4d32-aec3-af3f76f5322d"},"vehicle_type_id":"4","last_reported":1726834617,"current_range_meters":28000,"station_id":"ce4bgvh2rcd13ifvqcs0","pricing_plan_id":"cebpf4jnsgd1na2vs0mg"},{"bike_id":"ad6aacdc-0fd9-4181-a9c8-7a528fb6f91d","system_id":"levelo_inurba_marseille","lat":43.29962,"lon":5.41315,"is_reserved":false,"is_disabled":false,"rental_uris":{"android":"levelo://app?vid=ad6aacdc-0fd9-4181-a9c8-7a528fb6f91d","ios":"levelo://app?vid=ad6aacdc-0fd9-4181-a9c8-7a528fb6f91d"},"vehicle_type_id":"4","last_reported":1726834617,"current_range_meters":25600,"station_id":"ce4bhp12rcd13ifvqh9g","pricing_plan_id":"cebpf4jnsgd1na2vs0mg"},{"bike_id":"135390c7-aa2e-41f1-a917-4c070be90eaf","system_id":"levelo_inurba_marseille","lat":43.30344,"lon":5.36846,"is_reserved":false,"is_disabled":false,"rental_uris":{"android":"levelo://app?vid=135390c7-aa2e-41f1-a917-4c070be90eaf","ios":"levelo://app?vid=135390c7-aa2e-41f1-a917-4c070be90eaf"},"vehicle_type_id":"4","last_reported":1726834617,"current_range_meters":27600,"station_id":"","pricing_plan_id":"cebpf4jnsgd1na2vs0mg"},{"bike_id":"b431aa11-7864-481f-af3a-c99c02ad287c","system_id":"levelo_inurba_marseille","lat":43.23964,"lon":5.36629,"is_reserved":false,"is_disabled":false,"rental_uris":{"android":"levelo://app?vid=b431aa11-7864-481f-af3a-c99c02ad287c","ios":"levelo://app?vid=b431aa11-7864-481f-af3a-c99c02ad287c"},"vehicle_type_id":"4","last_reported":1726834617,"current_range_meters":38000,"station_id":"ce4bhi12rcd13ifvqfp0","pricing_plan_id":"cebpf4jnsgd1na2vs0mg"},{"bike_id":"e6805398-14bf-4c72-b165-1bedb5484a2a","system_id":"levelo_inurba_marseille","lat":43.29844,"lon":5.36269,"is_reserved":false,"is_disabled":false,"rental_uris":{"android":"levelo://app?vid=e6805398-14bf-4c72-b165-1bedb5484a2a","ios":"levelo://app?vid=e6805398-14bf-4c72-b165-1bedb5484a2a"},"vehicle_type_id":"4","last_reported":1726834617,"current_range_meters":38800,"station_id":"ce4bgpp2rcd13ifvqc3g","pricing_plan_id":"cebpf4jnsgd1na2vs0mg"},{"bike_id":"2e00871d-4620-42a5-a374-42a17da8fbe6","system_id":"levelo_inurba_marseille","lat":43.29621,"lon":5.3716,"is_reserved":false,"is_disabled":false,"rental_uris":{"android":"levelo://app?vid=2e00871d-4620-42a5-a374-42a17da8fbe6","ios":"levelo://app?vid=2e00871d-4620-42a5-a374-42a17da8fbe6"},"vehicle_type_id":"4","last_reported":1726834617,"current_range_meters":33600,"station_id":"ce4bgnh2rcd13ifvqc0g","pricing_plan_id":"cebpf4jnsgd1na2vs0mg"},{"bike_id":"6398ca85-f89a-48b2-9b1b-75064ea5e580","system_id":"levelo_inurba_marseille","lat":43.29984,"lon":5.37174,"is_reserved":false,"is_disabled":false,"rental_uris":{"android":"levelo://app?vid=6398ca85-f89a-48b2-9b1b-75064ea5e580","ios":"levelo://app?vid=6398ca85-f89a-48b2-9b1b-75064ea5e580"},"vehicle_type_id":"4","last_reported":1726834617,"current_range_meters":36400,"station_id":"ce4bgr92rcd13ifvqc7g","pricing_plan_id":"cebpf4jnsgd1na2vs0mg"},{"bike_id":"35ddc044-e8b2-49ff-b1ba-2679673ffad7","system_id":"levelo_inurba_marseille","lat":43.29025,"lon":5.38142,"is_reserved":false,"is_disabled":false,"rental_uris":{"android":"levelo://app?vid=35ddc044-e8b2-49ff-b1ba-2679673ffad7","ios":"levelo://app?vid=35ddc044-e8b2-49ff-b1ba-2679673ffad7"},"vehicle_type_id":"4","last_reported":1726834617,"current_range_meters":33600,"station_id":"ce4bh4p2rcd13ifvqe1g","pricing_plan_id":"cebpf4jnsgd1na2vs0mg"},{"bike_id":"013dda53-0060-46e7-9fc7-9faecda6a0e9","system_id":"levelo_inurba_marseille","lat":43.34146,"lon":5.40909,"is_reserved":false,"is_disabled":false,"rental_uris":{"android":"levelo://app?vid=013dda53-0060-46e7-9fc7-9faecda6a0e9","ios":"levelo://app?vid=013dda53-0060-46e7-9fc7-9faecda6a0e9"},"vehicle_type_id":"4","last_reported":1726834617,"current_range_meters":2800,"station_id":"ce4bhqh2rcd13ifvqhlg","pricing_plan_id":"cebpf4jnsgd1na2vs0mg"},{"bike_id":"34da7d2b-83ae-4bd1-9efe-d960a589581e","system_id":"levelo_inurba_marseille","lat":43.32479,"lon":5.36564,"is_reserved":false,"is_disabled":false,"rental_uris":{"android":"levelo://app?vid=34da7d2b-83ae-4bd1-9efe-d960a589581e","ios":"levelo://app?vid=34da7d2b-83ae-4bd1-9efe-d960a589581e"},"vehicle_type_id":"4","last_reported":1726834617,"current_range_meters":4000,"station_id":"ce4bhs12rcd13ifvqhvg","pricing_plan_id":"cebpf4jnsgd1na2vs0mg"},{"bike_id":"e93662b1-08ac-4abd-82f8-d99e5f5f14d3","system_id":"levelo_inurba_marseille","lat":43.30597,"lon":5.37217,"is_reserved":false,"is_disabled":false,"rental_uris":{"android":"levelo://app?vid=e93662b1-08ac-4abd-82f8-d99e5f5f14d3","ios":"levelo://app?vid=e93662b1-08ac-4abd-82f8-d99e5f5f14d3"},"vehicle_type_id":"4","last_reported":1726834617,"current_range_meters":38800,"station_id":"ce4bgqh2rcd13ifvqc4g","pricing_plan_id":"cebpf4jnsgd1na2vs0mg"},{"bike_id":"22259c83-0d33-4e6b-ae02-8b19ba8d4464","system_id":"levelo_inurba_marseille","lat":43.298372,"lon":5.362751,"is_reserved":false,"is_disabled":false,"rental_uris":{"android":"levelo://app?vid=22259c83-0d33-4e6b-ae02-8b19ba8d4464","ios":"levelo://app?vid=22259c83-0d33-4e6b-ae02-8b19ba8d4464"},"vehicle_type_id":"4","last_reported":1726834617,"current_range_meters":26000,"station_id":"ce4bgpp2rcd13ifvqc3g","pricing_plan_id":"cebpf4jnsgd1na2vs0mg"},{"bike_id":"306549f4-d300-4209-9498-1103ebfb72df","system_id":"levelo_inurba_marseille","lat":43.30537,"lon":5.36528,"is_reserved":false,"is_disabled":false,"rental_uris":{"android":"levelo://app?vid=306549f4-d300-4209-9498-1103ebfb72df","ios":"levelo://app?vid=306549f4-d300-4209-9498-1103ebfb72df"},"vehicle_type_id":"4","last_reported":1726834617,"current_range_meters":28400,"station_id":"ce4bgs12rcd13ifvqcag","pricing_plan_id":"cebpf4jnsgd1na2vs0mg"},{"bike_id":"4826ac05-8ccd-4e7a-a498-d917cebf1979","system_id":"levelo_inurba_marseille","lat":43.26952,"lon":5.38631,"is_reserved":false,"is_disabled":false,"rental_uris":{"android":"levelo://app?vid=4826ac05-8ccd-4e7a-a498-d917cebf1979","ios":"levelo://app?vid=4826ac05-8ccd-4e7a-a498-d917cebf1979"},"vehicle_type_id":"4","last_reported":1726834617,"current_range_meters":38000,"station_id":"ce4bhh92rcd13ifvqfh0","pricing_plan_id":"cebpf4jnsgd1na2vs0mg"},{"bike_id":"4d7dbc6c-bf3b-47f5-af4d-ec4d9c8ea0a1","system_id":"levelo_inurba_marseille","lat":43.26433,"lon":5.40406,"is_reserved":false,"is_disabled":false,"rental_uris":{"android":"levelo://app?vid=4d7dbc6c-bf3b-47f5-af4d-ec4d9c8ea0a1","ios":"levelo://app?vid=4d7dbc6c-bf3b-47f5-af4d-ec4d9c8ea0a1"},"vehicle_type_id":"4","last_reported":1726834617,"current_range_meters":25600,"station_id":"","pricing_plan_id":"cebpf4jnsgd1na2vs0mg"},{"bike_id":"05543175-9cd9-4cbf-bcae-321dbc92b2c2","system_id":"levelo_inurba_marseille","lat":43.29953,"lon":5.41314,"is_reserved":false,"is_disabled":false,"rental_uris":{"android":"levelo://app?vid=05543175-9cd9-4cbf-bcae-321dbc92b2c2","ios":"levelo://app?vid=05543175-9cd9-4cbf-bcae-321dbc92b2c2"},"vehicle_type_id":"4","last_reported":1726834617,"current_range_meters":8800,"station_id":"ce4bhp12rcd13ifvqh9g","pricing_plan_id":"cebpf4jnsgd1na2vs0mg"},{"bike_id":"930df229-a4fc-46c0-980c-29c1519b09ed","system_id":"levelo_inurba_marseille","lat":43.32365,"lon":5.38884,"is_reserved":false,"is_disabled":false,"rental_uris":{"android":"levelo://app?vid=930df229-a4fc-46c0-980c-29c1519b09ed","ios":"levelo://app?vid=930df229-a4fc-46c0-980c-29c1519b09ed"},"vehicle_type_id":"4","last_reported":1726834617,"current_range_meters":21600,"station_id":"ce4bhqp2rcd13ifvqhog","pricing_plan_id":"cebpf4jnsgd1na2vs0mg"},{"bike_id":"07cdd69f-7372-4f1d-a412-3389bb674035","system_id":"levelo_inurba_marseille","lat":43.24075,"lon":5.37756,"is_reserved":false,"is_disabled":false,"rental_uris":{"android":"levelo://app?vid=07cdd69f-7372-4f1d-a412-3389bb674035","ios":"levelo://app?vid=07cdd69f-7372-4f1d-a412-3389bb674035"},"vehicle_type_id":"4","last_reported":1726834617,"current_range_meters":21600,"station_id":"ce4bhnp2rcd13ifvqgvg","pricing_plan_id":"cebpf4jnsgd1na2vs0mg"},{"bike_id":"9733eb26-9e68-456c-b0c3-d7415e89c90e","system_id":"levelo_inurba_marseille","lat":43.30547,"lon":5.36705,"is_reserved":false,"is_disabled":false,"rental_uris":{"android":"levelo://app?vid=9733eb26-9e68-456c-b0c3-d7415e89c90e","ios":"levelo://app?vid=9733eb26-9e68-456c-b0c3-d7415e89c90e"},"vehicle_type_id":"4","last_reported":1726834617,"current_range_meters":28000,"station_id":"ce4bgrp2rcd13ifvqc9g","pricing_plan_id":"cebpf4jnsgd1na2vs0mg"},{"bike_id":"22f3967d-632f-45ae-b2c4-b652ad898533","system_id":"levelo_inurba_marseille","lat":43.2997,"lon":5.38486,"is_reserved":false,"is_disabled":false,"rental_uris":{"android":"levelo://app?vid=22f3967d-632f-45ae-b2c4-b652ad898533","ios":"levelo://app?vid=22f3967d-632f-45ae-b2c4-b652ad898533"},"vehicle_type_id":"4","last_reported":1726834617,"current_range_meters":31200,"station_id":"ce4bgj92rcd13ifvqbd0","pricing_plan_id":"cebpf4jnsgd1na2vs0mg"},{"bike_id":"4ab97c0e-fbfc-46ea-afca-8012153c60da","system_id":"levelo_inurba_marseille","lat":43.28728,"lon":5.36076,"is_reserved":false,"is_disabled":false,"rental_uris":{"android":"levelo://app?vid=4ab97c0e-fbfc-46ea-afca-8012153c60da","ios":"levelo://app?vid=4ab97c0e-fbfc-46ea-afca-8012153c60da"},"vehicle_type_id":"4","last_reported":1726834617,"current_range_meters":17600,"station_id":"cki0cbj6b192h4jlfktg","pricing_plan_id":"cebpf4jnsgd1na2vs0mg"},{"bike_id":"a34c5bc4-317b-4635-ada7-18778faf5b43","system_id":"levelo_inurba_marseille","lat":43.29928,"lon":5.37462,"is_reserved":false,"is_disabled":false,"rental_uris":{"android":"levelo://app?vid=a34c5bc4-317b-4635-ada7-18778faf5b43","ios":"levelo://app?vid=a34c5bc4-317b-4635-ada7-18778faf5b43"},"vehicle_type_id":"4","last_reported":1726834617,"current_range_meters":24800,"station_id":"ce4bgjh2rcd13ifvqbg0","pricing_plan_id":"cebpf4jnsgd1na2vs0mg"},{"bike_id":"8ee6d5db-cb8b-4219-a1d2-5a1a8206952f","system_id":"levelo_inurba_marseille","lat":43.29554,"lon":5.42297,"is_reserved":false,"is_disabled":false,"rental_uris":{"android":"levelo://app?vid=8ee6d5db-cb8b-4219-a1d2-5a1a8206952f","ios":"levelo://app?vid=8ee6d5db-cb8b-4219-a1d2-5a1a8206952f"},"vehicle_type_id":"4","last_reported":1726834617,"current_range_meters":37600,"station_id":"ce4bhph2rcd13ifvqhdg","pricing_plan_id":"cebpf4jnsgd1na2vs0mg"},{"bike_id":"81cf45e3-9170-4f0c-8a90-f15a9ca49911","system_id":"levelo_inurba_marseille","lat":43.29624,"lon":5.37167,"is_reserved":false,"is_disabled":false,"rental_uris":{"android":"levelo://app?vid=81cf45e3-9170-4f0c-8a90-f15a9ca49911","ios":"levelo://app?vid=81cf45e3-9170-4f0c-8a90-f15a9ca49911"},"vehicle_type_id":"4","last_reported":1726834617,"current_range_meters":6400,"station_id":"ce4bgnh2rcd13ifvqc0g","pricing_plan_id":"cebpf4jnsgd1na2vs0mg"},{"bike_id":"af42f746-66d2-45b8-9e58-3721ab0e338d","system_id":"levelo_inurba_marseille","lat":43.23189,"lon":5.35553,"is_reserved":false,"is_disabled":false,"rental_uris":{"android":"levelo://app?vid=af42f746-66d2-45b8-9e58-3721ab0e338d","ios":"levelo://app?vid=af42f746-66d2-45b8-9e58-3721ab0e338d"},"vehicle_type_id":"4","last_reported":1726834617,"current_range_meters":8800,"station_id":"ce4bhu92rcd13ifvqi70","pricing_plan_id":"cebpf4jnsgd1na2vs0mg"},{"bike_id":"680226f5-dafe-4dde-b555-d326cb4b1fbd","system_id":"levelo_inurba_marseille","lat":43.32546,"lon":5.41436,"is_reserved":false,"is_disabled":false,"rental_uris":{"android":"levelo://app?vid=680226f5-dafe-4dde-b555-d326cb4b1fbd","ios":"levelo://app?vid=680226f5-dafe-4dde-b555-d326cb4b1fbd"},"vehicle_type_id":"4","last_reported":1726834617,"current_range_meters":6800,"station_id":"ce4bhq12rcd13ifvqhhg","pricing_plan_id":"cebpf4jnsgd1na2vs0mg"},{"bike_id":"5e427db3-538a-4eeb-9da4-02bd785d3056","system_id":"levelo_inurba_marseille","lat":43.335999,"lon":5.41038,"is_reserved":false,"is_disabled":false,"rental_uris":{"android":"levelo://app?vid=5e427db3-538a-4eeb-9da4-02bd785d3056","ios":"levelo://app?vid=5e427db3-538a-4eeb-9da4-02bd785d3056"},"vehicle_type_id":"4","last_reported":1726834617,"current_range_meters":8800,"station_id":"ce4bhqh2rcd13ifvqhmg","pricing_plan_id":"cebpf4jnsgd1na2vs0mg"},{"bike_id":"b4d90691-b2ae-447e-84f7-f1a017bf250a","system_id":"levelo_inurba_marseille","lat":43.26555,"lon":5.37286,"is_reserved":false,"is_disabled":false,"rental_uris":{"android":"levelo://app?vid=b4d90691-b2ae-447e-84f7-f1a017bf250a","ios":"levelo://app?vid=b4d90691-b2ae-447e-84f7-f1a017bf250a"},"vehicle_type_id":"4","last_reported":1726834617,"current_range_meters":12400,"station_id":"ce4bhg12rcd13ifvqf70","pricing_plan_id":"cebpf4jnsgd1na2vs0mg"},{"bike_id":"66bdbe49-6c87-4f80-b9c2-4a52c0ab5db0","system_id":"levelo_inurba_marseille","lat":43.3053,"lon":5.36705,"is_reserved":false,"is_disabled":false,"rental_uris":{"android":"levelo://app?vid=66bdbe49-6c87-4f80-b9c2-4a52c0ab5db0","ios":"levelo://app?vid=66bdbe49-6c87-4f80-b9c2-4a52c0ab5db0"},"vehicle_type_id":"4","last_reported":1726834617,"current_range_meters":29600,"station_id":"ce4bgrp2rcd13ifvqc9g","pricing_plan_id":"cebpf4jnsgd1na2vs0mg"},{"bike_id":"d931cd70-05fb-433c-b6a1-41d293cf3e23","system_id":"levelo_inurba_marseille","lat":43.30549,"lon":5.36705,"is_reserved":false,"is_disabled":false,"rental_uris":{"android":"levelo://app?vid=d931cd70-05fb-433c-b6a1-41d293cf3e23","ios":"levelo://app?vid=d931cd70-05fb-433c-b6a1-41d293cf3e23"},"vehicle_type_id":"4","last_reported":1726834617,"current_range_meters":16400,"station_id":"ce4bgrp2rcd13ifvqc9g","pricing_plan_id":"cebpf4jnsgd1na2vs0mg"},{"bike_id":"a99e2cc8-fe55-4160-9d94-f87e649c101d","system_id":"levelo_inurba_marseille","lat":43.28968,"lon":5.37839,"is_reserved":false,"is_disabled":false,"rental_uris":{"android":"levelo://app?vid=a99e2cc8-fe55-4160-9d94-f87e649c101d","ios":"levelo://app?vid=a99e2cc8-fe55-4160-9d94-f87e649c101d"},"vehicle_type_id":"4","last_reported":1726834617,"current_range_meters":28800,"station_id":"ce4bh9p2rcd13ifvqed0","pricing_plan_id":"cebpf4jnsgd1na2vs0mg"},{"bike_id":"e6eafe43-c76b-4133-8504-6c097a55605c","system_id":"levelo_inurba_marseille","lat":43.28937,"lon":5.36634,"is_reserved":false,"is_disabled":false,"rental_uris":{"android":"levelo://app?vid=e6eafe43-c76b-4133-8504-6c097a55605c","ios":"levelo://app?vid=e6eafe43-c76b-4133-8504-6c097a55605c"},"vehicle_type_id":"4","last_reported":1726834617,"current_range_meters":37600,"station_id":"ce4bhap2rcd13ifvqek0","pricing_plan_id":"cebpf4jnsgd1na2vs0mg"},{"bike_id":"b5621dfd-5609-477f-a3f9-25b1308b3b00","system_id":"levelo_inurba_marseille","lat":43.299229,"lon":5.390807,"is_reserved":false,"is_disabled":false,"rental_uris":{"android":"levelo://app?vid=b5621dfd-5609-477f-a3f9-25b1308b3b00","ios":"levelo://app?vid=b5621dfd-5609-477f-a3f9-25b1308b3b00"},"vehicle_type_id":"4","last_reported":1726834617,"current_range_meters":4000,"station_id":"","pricing_plan_id":"cebpf4jnsgd1na2vs0mg"},{"bike_id":"a73e1316-a44a-4748-bcfb-e77710e00884","system_id":"levelo_inurba_marseille","lat":43.29968,"lon":5.38489,"is_reserved":false,"is_disabled":false,"rental_uris":{"android":"levelo://app?vid=a73e1316-a44a-4748-bcfb-e77710e00884","ios":"levelo://app?vid=a73e1316-a44a-4748-bcfb-e77710e00884"},"vehicle_type_id":"4","last_reported":1726834617,"current_range_meters":16000,"station_id":"ce4bgj92rcd13ifvqbd0","pricing_plan_id":"cebpf4jnsgd1na2vs0mg"},{"bike_id":"6afe691e-b3c2-4b53-a621-ddba6b3c269c","system_id":"levelo_inurba_marseille","lat":43.2657,"lon":5.39002,"is_reserved":false,"is_disabled":false,"rental_uris":{"android":"levelo://app?vid=6afe691e-b3c2-4b53-a621-ddba6b3c269c","ios":"levelo://app?vid=6afe691e-b3c2-4b53-a621-ddba6b3c269c"},"vehicle_type_id":"4","last_reported":1726834617,"current_range_meters":32000,"station_id":"ce4bhe12rcd13ifvqf30","pricing_plan_id":"cebpf4jnsgd1na2vs0mg"},{"bike_id":"9e17731e-35d9-4aa0-92b3-bc18bc20078c","system_id":"levelo_inurba_marseille","lat":43.30959,"lon":5.39036,"is_reserved":false,"is_disabled":false,"rental_uris":{"android":"levelo://app?vid=9e17731e-35d9-4aa0-92b3-bc18bc20078c","ios":"levelo://app?vid=9e17731e-35d9-4aa0-92b3-bc18bc20078c"},"vehicle_type_id":"4","last_reported":1726834617,"current_range_meters":38000,"station_id":"ce4bgup2rcd13ifvqco0","pricing_plan_id":"cebpf4jnsgd1na2vs0mg"},{"bike_id":"81c17104-0722-41f0-ab39-acf083937c75","system_id":"levelo_inurba_marseille","lat":43.276909,"lon":5.389113,"is_reserved":false,"is_disabled":false,"rental_uris":{"android":"levelo://app?vid=81c17104-0722-41f0-ab39-acf083937c75","ios":"levelo://app?vid=81c17104-0722-41f0-ab39-acf083937c75"},"vehicle_type_id":"4","last_reported":1726834617,"current_range_meters":24400,"station_id":"ce4bhi12rcd13ifvqfo0","pricing_plan_id":"cebpf4jnsgd1na2vs0mg"},{"bike_id":"604c9531-be4f-4974-bfe2-bd7828d7386f","system_id":"levelo_inurba_marseille","lat":43.29896,"lon":5.43673,"is_reserved":false,"is_disabled":false,"rental_uris":{"android":"levelo://app?vid=604c9531-be4f-4974-bfe2-bd7828d7386f","ios":"levelo://app?vid=604c9531-be4f-4974-bfe2-bd7828d7386f"},"vehicle_type_id":"4","last_reported":1726834617,"current_range_meters":28000,"station_id":"ce4bhpp2rcd13ifvqhfg","pricing_plan_id":"cebpf4jnsgd1na2vs0mg"},{"bike_id":"44da3e59-dcf2-4354-910f-f3fece0ed467","system_id":"levelo_inurba_marseille","lat":43.27064,"lon":5.42275,"is_reserved":false,"is_disabled":false,"rental_uris":{"android":"levelo://app?vid=44da3e59-dcf2-4354-910f-f3fece0ed467","ios":"levelo://app?vid=44da3e59-dcf2-4354-910f-f3fece0ed467"},"vehicle_type_id":"4","last_reported":1726834617,"current_range_meters":36800,"station_id":"ce4bhk92rcd13ifvqgb0","pricing_plan_id":"cebpf4jnsgd1na2vs0mg"},{"bike_id":"eb2ef9af-e9bb-4b94-aee1-3fb33b5e66f9","system_id":"levelo_inurba_marseille","lat":43.27998,"lon":5.41654,"is_reserved":false,"is_disabled":false,"rental_uris":{"android":"levelo://app?vid=eb2ef9af-e9bb-4b94-aee1-3fb33b5e66f9","ios":"levelo://app?vid=eb2ef9af-e9bb-4b94-aee1-3fb33b5e66f9"},"vehicle_type_id":"4","last_reported":1726834617,"current_range_meters":36800,"station_id":"ce4bho12rcd13ifvqh1g","pricing_plan_id":"cebpf4jnsgd1na2vs0mg"},{"bike_id":"cec3f15f-e18f-477e-a4f5-e36d58e61fa3","system_id":"levelo_inurba_marseille","lat":43.26684,"lon":5.38255,"is_reserved":false,"is_disabled":false,"rental_uris":{"android":"levelo://app?vid=cec3f15f-e18f-477e-a4f5-e36d58e61fa3","ios":"levelo://app?vid=cec3f15f-e18f-477e-a4f5-e36d58e61fa3"},"vehicle_type_id":"4","last_reported":1726834617,"current_range_meters":26800,"station_id":"ce4bhg92rcd13ifvqf90","pricing_plan_id":"cebpf4jnsgd1na2vs0mg"},{"bike_id":"bbabc812-5d4f-4dde-ac4b-6c59e8a40a27","system_id":"levelo_inurba_marseille","lat":43.27492,"lon":5.4245,"is_reserved":false,"is_disabled":false,"rental_uris":{"android":"levelo://app?vid=bbabc812-5d4f-4dde-ac4b-6c59e8a40a27","ios":"levelo://app?vid=bbabc812-5d4f-4dde-ac4b-6c59e8a40a27"},"vehicle_type_id":"4","last_reported":1726834617,"current_range_meters":38800,"station_id":"ce4bhn92rcd13ifvqgrg","pricing_plan_id":"cebpf4jnsgd1na2vs0mg"},{"bike_id":"15bbdbd8-fa35-4790-b472-706c4e2f4e69","system_id":"levelo_inurba_marseille","lat":43.3053,"lon":5.37272,"is_reserved":false,"is_disabled":false,"rental_uris":{"android":"levelo://app?vid=15bbdbd8-fa35-4790-b472-706c4e2f4e69","ios":"levelo://app?vid=15bbdbd8-fa35-4790-b472-706c4e2f4e69"},"vehicle_type_id":"4","last_reported":1726834617,"current_range_meters":3200,"station_id":"","pricing_plan_id":"cebpf4jnsgd1na2vs0mg"},{"bike_id":"b1856241-7156-43f2-bbff-450ad13a5cdb","system_id":"levelo_inurba_marseille","lat":43.32106,"lon":5.36766,"is_reserved":false,"is_disabled":false,"rental_uris":{"android":"levelo://app?vid=b1856241-7156-43f2-bbff-450ad13a5cdb","ios":"levelo://app?vid=b1856241-7156-43f2-bbff-450ad13a5cdb"},"vehicle_type_id":"4","last_reported":1726834617,"current_range_meters":37600,"station_id":"","pricing_plan_id":"cebpf4jnsgd1na2vs0mg"},{"bike_id":"9f8649e2-75d2-4d09-94ee-538fd13f9680","system_id":"levelo_inurba_marseille","lat":43.33605,"lon":5.41034,"is_reserved":false,"is_disabled":false,"rental_uris":{"android":"levelo://app?vid=9f8649e2-75d2-4d09-94ee-538fd13f9680","ios":"levelo://app?vid=9f8649e2-75d2-4d09-94ee-538fd13f9680"},"vehicle_type_id":"4","last_reported":1726834617,"current_range_meters":38800,"station_id":"ce4bhqh2rcd13ifvqhmg","pricing_plan_id":"cebpf4jnsgd1na2vs0mg"},{"bike_id":"f52d1c94-c030-445a-9a07-7b2bc903c0df","system_id":"levelo_inurba_marseille","lat":43.29854,"lon":5.36283,"is_reserved":false,"is_disabled":false,"rental_uris":{"android":"levelo://app?vid=f52d1c94-c030-445a-9a07-7b2bc903c0df","ios":"levelo://app?vid=f52d1c94-c030-445a-9a07-7b2bc903c0df"},"vehicle_type_id":"4","last_reported":1726834617,"current_range_meters":33200,"station_id":"ce4bgpp2rcd13ifvqc3g","pricing_plan_id":"cebpf4jnsgd1na2vs0mg"},{"bike_id":"57accf38-1d49-4438-a9c0-8e1da014296d","system_id":"levelo_inurba_marseille","lat":43.30278,"lon":5.37694,"is_reserved":false,"is_disabled":false,"rental_uris":{"android":"levelo://app?vid=57accf38-1d49-4438-a9c0-8e1da014296d","ios":"levelo://app?vid=57accf38-1d49-4438-a9c0-8e1da014296d"},"vehicle_type_id":"4","last_reported":1726834617,"current_range_meters":17200,"station_id":"ce4bguh2rcd13ifvqcj0","pricing_plan_id":"cebpf4jnsgd1na2vs0mg"},{"bike_id":"7b50d6d5-7fa5-437f-9bd0-20b7660c4900","system_id":"levelo_inurba_marseille","lat":43.23057,"lon":5.35499,"is_reserved":false,"is_disabled":false,"rental_uris":{"android":"levelo://app?vid=7b50d6d5-7fa5-437f-9bd0-20b7660c4900","ios":"levelo://app?vid=7b50d6d5-7fa5-437f-9bd0-20b7660c4900"},"vehicle_type_id":"4","last_reported":1726834617,"current_range_meters":8400,"station_id":"cpo3342slgdg3j2ifvpg","pricing_plan_id":"cebpf4jnsgd1na2vs0mg"},{"bike_id":"f8d6c7a9-2b47-422a-9b55-52cdf12c3daf","system_id":"levelo_inurba_marseille","lat":43.290079,"lon":5.356283,"is_reserved":false,"is_disabled":false,"rental_uris":{"android":"levelo://app?vid=f8d6c7a9-2b47-422a-9b55-52cdf12c3daf","ios":"levelo://app?vid=f8d6c7a9-2b47-422a-9b55-52cdf12c3daf"},"vehicle_type_id":"4","last_reported":1726834617,"current_range_meters":28800,"station_id":"ce4bhb92rcd13ifvqen0","pricing_plan_id":"cebpf4jnsgd1na2vs0mg"},{"bike_id":"923be1b8-882a-445b-83fa-e72f0e039471","system_id":"levelo_inurba_marseille","lat":43.30541,"lon":5.36533,"is_reserved":false,"is_disabled":false,"rental_uris":{"android":"levelo://app?vid=923be1b8-882a-445b-83fa-e72f0e039471","ios":"levelo://app?vid=923be1b8-882a-445b-83fa-e72f0e039471"},"vehicle_type_id":"4","last_reported":1726834617,"current_range_meters":38800,"station_id":"ce4bgs12rcd13ifvqcag","pricing_plan_id":"cebpf4jnsgd1na2vs0mg"},{"bike_id":"a165395c-39a3-4916-a38f-7dd205828828","system_id":"levelo_inurba_marseille","lat":43.25501,"lon":5.37649,"is_reserved":false,"is_disabled":false,"rental_uris":{"android":"levelo://app?vid=a165395c-39a3-4916-a38f-7dd205828828","ios":"levelo://app?vid=a165395c-39a3-4916-a38f-7dd205828828"},"vehicle_type_id":"4","last_reported":1726834617,"current_range_meters":32400,"station_id":"ce4bhh12rcd13ifvqff0","pricing_plan_id":"cebpf4jnsgd1na2vs0mg"},{"bike_id":"b1773667-41fb-490f-b855-14a327fc3e5f","system_id":"levelo_inurba_marseille","lat":43.29532,"lon":5.38552,"is_reserved":false,"is_disabled":false,"rental_uris":{"android":"levelo://app?vid=b1773667-41fb-490f-b855-14a327fc3e5f","ios":"levelo://app?vid=b1773667-41fb-490f-b855-14a327fc3e5f"},"vehicle_type_id":"4","last_reported":1726834617,"current_range_meters":24800,"station_id":"ce4bgih2rcd13ifvqba0","pricing_plan_id":"cebpf4jnsgd1na2vs0mg"},{"bike_id":"4fa0ca0d-342c-4cd6-990b-f5e4ae40db2b","system_id":"levelo_inurba_marseille","lat":43.29963,"lon":5.41325,"is_reserved":false,"is_disabled":false,"rental_uris":{"android":"levelo://app?vid=4fa0ca0d-342c-4cd6-990b-f5e4ae40db2b","ios":"levelo://app?vid=4fa0ca0d-342c-4cd6-990b-f5e4ae40db2b"},"vehicle_type_id":"4","last_reported":1726834617,"current_range_meters":36400,"station_id":"ce4bhp12rcd13ifvqh9g","pricing_plan_id":"cebpf4jnsgd1na2vs0mg"},{"bike_id":"cd3eaafd-9606-46ca-8944-d5f34e2d95c6","system_id":"levelo_inurba_marseille","lat":43.2465,"lon":5.38907,"is_reserved":false,"is_disabled":false,"rental_uris":{"android":"levelo://app?vid=cd3eaafd-9606-46ca-8944-d5f34e2d95c6","ios":"levelo://app?vid=cd3eaafd-9606-46ca-8944-d5f34e2d95c6"},"vehicle_type_id":"4","last_reported":1726834617,"current_range_meters":38800,"station_id":"ce4bhg12rcd13ifvqf60","pricing_plan_id":"cebpf4jnsgd1na2vs0mg"},{"bike_id":"eddf2e0d-ca74-4022-b68c-86387dbf9fa2","system_id":"levelo_inurba_marseille","lat":43.29096,"lon":5.38135,"is_reserved":false,"is_disabled":false,"rental_uris":{"android":"levelo://app?vid=eddf2e0d-ca74-4022-b68c-86387dbf9fa2","ios":"levelo://app?vid=eddf2e0d-ca74-4022-b68c-86387dbf9fa2"},"vehicle_type_id":"4","last_reported":1726834617,"current_range_meters":30800,"station_id":"ce4bh512rcd13ifvqe2g","pricing_plan_id":"cebpf4jnsgd1na2vs0mg"},{"bike_id":"f8571aad-5f92-4ec9-b9ed-faec8639629b","system_id":"levelo_inurba_marseille","lat":43.3362,"lon":5.41019,"is_reserved":false,"is_disabled":false,"rental_uris":{"android":"levelo://app?vid=f8571aad-5f92-4ec9-b9ed-faec8639629b","ios":"levelo://app?vid=f8571aad-5f92-4ec9-b9ed-faec8639629b"},"vehicle_type_id":"4","last_reported":1726834617,"current_range_meters":16400,"station_id":"ce4bhqh2rcd13ifvqhmg","pricing_plan_id":"cebpf4jnsgd1na2vs0mg"},{"bike_id":"79c66cf1-cd91-4389-b17f-aaf81e94c310","system_id":"levelo_inurba_marseille","lat":43.2315,"lon":5.43726,"is_reserved":false,"is_disabled":false,"rental_uris":{"android":"levelo://app?vid=79c66cf1-cd91-4389-b17f-aaf81e94c310","ios":"levelo://app?vid=79c66cf1-cd91-4389-b17f-aaf81e94c310"},"vehicle_type_id":"4","last_reported":1726834617,"current_range_meters":28400,"station_id":"ce4bhmp2rcd13ifvqgog","pricing_plan_id":"cebpf4jnsgd1na2vs0mg"},{"bike_id":"784fdcbe-6bf3-4153-ad79-2c1d566f6193","system_id":"levelo_inurba_marseille","lat":43.23183,"lon":5.39983,"is_reserved":false,"is_disabled":false,"rental_uris":{"android":"levelo://app?vid=784fdcbe-6bf3-4153-ad79-2c1d566f6193","ios":"levelo://app?vid=784fdcbe-6bf3-4153-ad79-2c1d566f6193"},"vehicle_type_id":"4","last_reported":1726834617,"current_range_meters":30800,"station_id":"ce4bhn12rcd13ifvqgqg","pricing_plan_id":"cebpf4jnsgd1na2vs0mg"},{"bike_id":"dbc0fe31-5477-4d4d-a9ac-0afeb73488f9","system_id":"levelo_inurba_marseille","lat":43.29373,"lon":5.37823,"is_reserved":false,"is_disabled":false,"rental_uris":{"android":"levelo://app?vid=dbc0fe31-5477-4d4d-a9ac-0afeb73488f9","ios":"levelo://app?vid=dbc0fe31-5477-4d4d-a9ac-0afeb73488f9"},"vehicle_type_id":"4","last_reported":1726834617,"current_range_meters":38400,"station_id":"ce4bhh12rcd13ifvqfg0","pricing_plan_id":"cebpf4jnsgd1na2vs0mg"},{"bike_id":"5705acbc-d503-4f36-a9f5-13b5f18aa34d","system_id":"levelo_inurba_marseille","lat":43.23955,"lon":5.36635,"is_reserved":false,"is_disabled":false,"rental_uris":{"android":"levelo://app?vid=5705acbc-d503-4f36-a9f5-13b5f18aa34d","ios":"levelo://app?vid=5705acbc-d503-4f36-a9f5-13b5f18aa34d"},"vehicle_type_id":"4","last_reported":1726834617,"current_range_meters":35600,"station_id":"ce4bhi12rcd13ifvqfp0","pricing_plan_id":"cebpf4jnsgd1na2vs0mg"},{"bike_id":"8a16e0e4-73b9-4856-8326-f8cc446e28f5","system_id":"levelo_inurba_marseille","lat":43.29266,"lon":5.38442,"is_reserved":false,"is_disabled":false,"rental_uris":{"android":"levelo://app?vid=8a16e0e4-73b9-4856-8326-f8cc446e28f5","ios":"levelo://app?vid=8a16e0e4-73b9-4856-8326-f8cc446e28f5"},"vehicle_type_id":"4","last_reported":1726834617,"current_range_meters":4400,"station_id":"ce4bh692rcd13ifvqea0","pricing_plan_id":"cebpf4jnsgd1na2vs0mg"},{"bike_id":"3542f62e-a0f1-48ca-827b-79008293c554","system_id":"levelo_inurba_marseille","lat":43.29896,"lon":5.43672,"is_reserved":false,"is_disabled":false,"rental_uris":{"android":"levelo://app?vid=3542f62e-a0f1-48ca-827b-79008293c554","ios":"levelo://app?vid=3542f62e-a0f1-48ca-827b-79008293c554"},"vehicle_type_id":"4","last_reported":1726834617,"current_range_meters":19200,"station_id":"ce4bhpp2rcd13ifvqhfg","pricing_plan_id":"cebpf4jnsgd1na2vs0mg"},{"bike_id":"c4ea5858-e2b5-4f5a-8279-93561e2b8f84","system_id":"levelo_inurba_marseille","lat":43.26947,"lon":5.38634,"is_reserved":false,"is_disabled":false,"rental_uris":{"android":"levelo://app?vid=c4ea5858-e2b5-4f5a-8279-93561e2b8f84","ios":"levelo://app?vid=c4ea5858-e2b5-4f5a-8279-93561e2b8f84"},"vehicle_type_id":"4","last_reported":1726834617,"current_range_meters":24800,"station_id":"ce4bhh92rcd13ifvqfh0","pricing_plan_id":"cebpf4jnsgd1na2vs0mg"},{"bike_id":"289b5adb-f33b-4ca5-b69c-5bf382567848","system_id":"levelo_inurba_marseille","lat":43.274361,"lon":5.394199,"is_reserved":false,"is_disabled":false,"rental_uris":{"android":"levelo://app?vid=289b5adb-f33b-4ca5-b69c-5bf382567848","ios":"levelo://app?vid=289b5adb-f33b-4ca5-b69c-5bf382567848"},"vehicle_type_id":"4","last_reported":1726834617,"current_range_meters":35600,"station_id":"ce4bhdp2rcd13ifvqf20","pricing_plan_id":"cebpf4jnsgd1na2vs0mg"},{"bike_id":"7b9dd459-340b-4978-bfb0-6c163a5263e8","system_id":"levelo_inurba_marseille","lat":43.2319,"lon":5.35547,"is_reserved":false,"is_disabled":false,"rental_uris":{"android":"levelo://app?vid=7b9dd459-340b-4978-bfb0-6c163a5263e8","ios":"levelo://app?vid=7b9dd459-340b-4978-bfb0-6c163a5263e8"},"vehicle_type_id":"4","last_reported":1726834617,"current_range_meters":38800,"station_id":"ce4bhu92rcd13ifvqi70","pricing_plan_id":"cebpf4jnsgd1na2vs0mg"},{"bike_id":"bebc581e-05ca-41a8-a96a-d04c251f95ef","system_id":"levelo_inurba_marseille","lat":43.29851,"lon":5.36277,"is_reserved":false,"is_disabled":false,"rental_uris":{"android":"levelo://app?vid=bebc581e-05ca-41a8-a96a-d04c251f95ef","ios":"levelo://app?vid=bebc581e-05ca-41a8-a96a-d04c251f95ef"},"vehicle_type_id":"4","last_reported":1726834617,"current_range_meters":22400,"station_id":"ce4bgpp2rcd13ifvqc3g","pricing_plan_id":"cebpf4jnsgd1na2vs0mg"},{"bike_id":"bb2ba6dc-496c-4fcb-81e6-47b5ee972deb","system_id":"levelo_inurba_marseille","lat":43.24082,"lon":5.37726,"is_reserved":false,"is_disabled":false,"rental_uris":{"android":"levelo://app?vid=bb2ba6dc-496c-4fcb-81e6-47b5ee972deb","ios":"levelo://app?vid=bb2ba6dc-496c-4fcb-81e6-47b5ee972deb"},"vehicle_type_id":"4","last_reported":1726834617,"current_range_meters":27200,"station_id":"ce4bhnp2rcd13ifvqgvg","pricing_plan_id":"cebpf4jnsgd1na2vs0mg"},{"bike_id":"30d03598-4584-4809-9303-434479df300e","system_id":"levelo_inurba_marseille","lat":43.32487,"lon":5.36556,"is_reserved":false,"is_disabled":false,"rental_uris":{"android":"levelo://app?vid=30d03598-4584-4809-9303-434479df300e","ios":"levelo://app?vid=30d03598-4584-4809-9303-434479df300e"},"vehicle_type_id":"4","last_reported":1726834617,"current_range_meters":30000,"station_id":"ce4bhs12rcd13ifvqhvg","pricing_plan_id":"cebpf4jnsgd1na2vs0mg"},{"bike_id":"59526314-6814-428f-9df0-ead1cf1c2777","system_id":"levelo_inurba_marseille","lat":43.2593,"lon":5.40919,"is_reserved":false,"is_disabled":false,"rental_uris":{"android":"levelo://app?vid=59526314-6814-428f-9df0-ead1cf1c2777","ios":"levelo://app?vid=59526314-6814-428f-9df0-ead1cf1c2777"},"vehicle_type_id":"4","last_reported":1726834617,"current_range_meters":34800,"station_id":"ce4bhm92rcd13ifvqglg","pricing_plan_id":"cebpf4jnsgd1na2vs0mg"},{"bike_id":"86bc35f8-0389-46cb-acfe-46726346329c","system_id":"levelo_inurba_marseille","lat":43.27494,"lon":5.42456,"is_reserved":false,"is_disabled":false,"rental_uris":{"android":"levelo://app?vid=86bc35f8-0389-46cb-acfe-46726346329c","ios":"levelo://app?vid=86bc35f8-0389-46cb-acfe-46726346329c"},"vehicle_type_id":"4","last_reported":1726834617,"current_range_meters":24000,"station_id":"ce4bhn92rcd13ifvqgrg","pricing_plan_id":"cebpf4jnsgd1na2vs0mg"},{"bike_id":"9d6aad91-3bde-49e8-a584-69fb053fee45","system_id":"levelo_inurba_marseille","lat":43.2799,"lon":5.4002,"is_reserved":false,"is_disabled":false,"rental_uris":{"android":"levelo://app?vid=9d6aad91-3bde-49e8-a584-69fb053fee45","ios":"levelo://app?vid=9d6aad91-3bde-49e8-a584-69fb053fee45"},"vehicle_type_id":"4","last_reported":1726834617,"current_range_meters":33600,"station_id":"ce4bho92rcd13ifvqh4g","pricing_plan_id":"cebpf4jnsgd1na2vs0mg"},{"bike_id":"0d0eb2d1-892c-4e7d-a380-542ff46b38da","system_id":"levelo_inurba_marseille","lat":43.31226,"lon":5.36866,"is_reserved":false,"is_disabled":false,"rental_uris":{"android":"levelo://app?vid=0d0eb2d1-892c-4e7d-a380-542ff46b38da","ios":"levelo://app?vid=0d0eb2d1-892c-4e7d-a380-542ff46b38da"},"vehicle_type_id":"4","last_reported":1726834617,"current_range_meters":10000,"station_id":"ce4bgl92rcd13ifvqbq0","pricing_plan_id":"cebpf4jnsgd1na2vs0mg"},{"bike_id":"36124a4a-9ab7-4909-880f-bad78bb9952e","system_id":"levelo_inurba_marseille","lat":43.26951,"lon":5.38631,"is_reserved":false,"is_disabled":false,"rental_uris":{"android":"levelo://app?vid=36124a4a-9ab7-4909-880f-bad78bb9952e","ios":"levelo://app?vid=36124a4a-9ab7-4909-880f-bad78bb9952e"},"vehicle_type_id":"4","last_reported":1726834617,"current_range_meters":9600,"station_id":"ce4bhh92rcd13ifvqfh0","pricing_plan_id":"cebpf4jnsgd1na2vs0mg"},{"bike_id":"4a587bdc-d1be-4fc8-b29e-b84ba876be42","system_id":"levelo_inurba_marseille","lat":43.29274,"lon":5.36853,"is_reserved":false,"is_disabled":false,"rental_uris":{"android":"levelo://app?vid=4a587bdc-d1be-4fc8-b29e-b84ba876be42","ios":"levelo://app?vid=4a587bdc-d1be-4fc8-b29e-b84ba876be42"},"vehicle_type_id":"4","last_reported":1726834617,"current_range_meters":10000,"station_id":"ce4bhbp2rcd13ifvqesg","pricing_plan_id":"cebpf4jnsgd1na2vs0mg"},{"bike_id":"4eb8481f-4b6b-41fa-9e58-911b623f7c79","system_id":"levelo_inurba_marseille","lat":43.27491,"lon":5.42453,"is_reserved":false,"is_disabled":false,"rental_uris":{"android":"levelo://app?vid=4eb8481f-4b6b-41fa-9e58-911b623f7c79","ios":"levelo://app?vid=4eb8481f-4b6b-41fa-9e58-911b623f7c79"},"vehicle_type_id":"4","last_reported":1726834617,"current_range_meters":32400,"station_id":"ce4bhn92rcd13ifvqgrg","pricing_plan_id":"cebpf4jnsgd1na2vs0mg"},{"bike_id":"12a2ad64-8516-4c47-ba42-5992ae37d047","system_id":"levelo_inurba_marseille","lat":43.29577,"lon":5.37508,"is_reserved":false,"is_disabled":false,"rental_uris":{"android":"levelo://app?vid=12a2ad64-8516-4c47-ba42-5992ae37d047","ios":"levelo://app?vid=12a2ad64-8516-4c47-ba42-5992ae37d047"},"vehicle_type_id":"4","last_reported":1726834617,"current_range_meters":2800,"station_id":"ce4bgh92rcd13ifvqb50","pricing_plan_id":"cebpf4jnsgd1na2vs0mg"},{"bike_id":"625efc9f-ff46-4ca3-aaac-13f8f46af8bc","system_id":"levelo_inurba_marseille","lat":43.30946,"lon":5.39028,"is_reserved":false,"is_disabled":false,"rental_uris":{"android":"levelo://app?vid=625efc9f-ff46-4ca3-aaac-13f8f46af8bc","ios":"levelo://app?vid=625efc9f-ff46-4ca3-aaac-13f8f46af8bc"},"vehicle_type_id":"4","last_reported":1726834617,"current_range_meters":31200,"station_id":"ce4bgup2rcd13ifvqco0","pricing_plan_id":"cebpf4jnsgd1na2vs0mg"},{"bike_id":"7074ab18-257c-441b-aa64-0931d6cc1ccc","system_id":"levelo_inurba_marseille","lat":43.2997,"lon":5.38484,"is_reserved":false,"is_disabled":false,"rental_uris":{"android":"levelo://app?vid=7074ab18-257c-441b-aa64-0931d6cc1ccc","ios":"levelo://app?vid=7074ab18-257c-441b-aa64-0931d6cc1ccc"},"vehicle_type_id":"4","last_reported":1726834617,"current_range_meters":11600,"station_id":"ce4bgj92rcd13ifvqbd0","pricing_plan_id":"cebpf4jnsgd1na2vs0mg"},{"bike_id":"eb2bede7-1cfc-481d-95f0-4175f9ef21df","system_id":"levelo_inurba_marseille","lat":43.25943,"lon":5.40906,"is_reserved":false,"is_disabled":false,"rental_uris":{"android":"levelo://app?vid=eb2bede7-1cfc-481d-95f0-4175f9ef21df","ios":"levelo://app?vid=eb2bede7-1cfc-481d-95f0-4175f9ef21df"},"vehicle_type_id":"4","last_reported":1726834617,"current_range_meters":16400,"station_id":"ce4bhm92rcd13ifvqglg","pricing_plan_id":"cebpf4jnsgd1na2vs0mg"},{"bike_id":"e28d3b60-113b-4e6b-a860-6ecf9aa23df3","system_id":"levelo_inurba_marseille","lat":43.24814,"lon":5.37455,"is_reserved":false,"is_disabled":false,"rental_uris":{"android":"levelo://app?vid=e28d3b60-113b-4e6b-a860-6ecf9aa23df3","ios":"levelo://app?vid=e28d3b60-113b-4e6b-a860-6ecf9aa23df3"},"vehicle_type_id":"4","last_reported":1726834617,"current_range_meters":37600,"station_id":"ce4bhgh2rcd13ifvqfb0","pricing_plan_id":"cebpf4jnsgd1na2vs0mg"},{"bike_id":"9935982f-95c5-4897-ba9e-eb7e0b27f8b6","system_id":"levelo_inurba_marseille","lat":43.24072,"lon":5.37765,"is_reserved":false,"is_disabled":false,"rental_uris":{"android":"levelo://app?vid=9935982f-95c5-4897-ba9e-eb7e0b27f8b6","ios":"levelo://app?vid=9935982f-95c5-4897-ba9e-eb7e0b27f8b6"},"vehicle_type_id":"4","last_reported":1726834617,"current_range_meters":6800,"station_id":"ce4bhnp2rcd13ifvqgvg","pricing_plan_id":"cebpf4jnsgd1na2vs0mg"},{"bike_id":"e64aabd5-f308-4cd5-b20b-7d0627efd6bc","system_id":"levelo_inurba_marseille","lat":43.33607,"lon":5.41034,"is_reserved":false,"is_disabled":false,"rental_uris":{"android":"levelo://app?vid=e64aabd5-f308-4cd5-b20b-7d0627efd6bc","ios":"levelo://app?vid=e64aabd5-f308-4cd5-b20b-7d0627efd6bc"},"vehicle_type_id":"4","last_reported":1726834617,"current_range_meters":38800,"station_id":"ce4bhqh2rcd13ifvqhmg","pricing_plan_id":"cebpf4jnsgd1na2vs0mg"},{"bike_id":"e828384b-42f2-4837-aa91-e7b5b8954ad2","system_id":"levelo_inurba_marseille","lat":43.290235,"lon":5.381243,"is_reserved":false,"is_disabled":false,"rental_uris":{"android":"levelo://app?vid=e828384b-42f2-4837-aa91-e7b5b8954ad2","ios":"levelo://app?vid=e828384b-42f2-4837-aa91-e7b5b8954ad2"},"vehicle_type_id":"4","last_reported":1726834617,"current_range_meters":10800,"station_id":"ce4bh4p2rcd13ifvqe1g","pricing_plan_id":"cebpf4jnsgd1na2vs0mg"},{"bike_id":"3f92bbb0-67da-49b7-a380-d3e998be8116","system_id":"levelo_inurba_marseille","lat":43.30535,"lon":5.36701,"is_reserved":false,"is_disabled":false,"rental_uris":{"android":"levelo://app?vid=3f92bbb0-67da-49b7-a380-d3e998be8116","ios":"levelo://app?vid=3f92bbb0-67da-49b7-a380-d3e998be8116"},"vehicle_type_id":"4","last_reported":1726834617,"current_range_meters":39200,"station_id":"ce4bgrp2rcd13ifvqc9g","pricing_plan_id":"cebpf4jnsgd1na2vs0mg"},{"bike_id":"fc80639a-6893-4543-8349-d6db9fa929a5","system_id":"levelo_inurba_marseille","lat":43.27221,"lon":5.39179,"is_reserved":false,"is_disabled":false,"rental_uris":{"android":"levelo://app?vid=fc80639a-6893-4543-8349-d6db9fa929a5","ios":"levelo://app?vid=fc80639a-6893-4543-8349-d6db9fa929a5"},"vehicle_type_id":"4","last_reported":1726834617,"current_range_meters":17200,"station_id":"ce4bhhp2rcd13ifvqfm0","pricing_plan_id":"cebpf4jnsgd1na2vs0mg"},{"bike_id":"ad138f35-9838-4497-acb4-8123cf10eab9","system_id":"levelo_inurba_marseille","lat":43.278716,"lon":5.407325,"is_reserved":false,"is_disabled":false,"rental_uris":{"android":"levelo://app?vid=ad138f35-9838-4497-acb4-8123cf10eab9","ios":"levelo://app?vid=ad138f35-9838-4497-acb4-8123cf10eab9"},"vehicle_type_id":"4","last_reported":1726834617,"current_range_meters":12400,"station_id":"ce4bhnh2rcd13ifvqgtg","pricing_plan_id":"cebpf4jnsgd1na2vs0mg"},{"bike_id":"91b633fd-ca80-46fe-a667-8ec680fc1824","system_id":"levelo_inurba_marseille","lat":43.26216,"lon":5.37438,"is_reserved":false,"is_disabled":false,"rental_uris":{"android":"levelo://app?vid=91b633fd-ca80-46fe-a667-8ec680fc1824","ios":"levelo://app?vid=91b633fd-ca80-46fe-a667-8ec680fc1824"},"vehicle_type_id":"4","last_reported":1726834617,"current_range_meters":28400,"station_id":"ce4bhgp2rcd13ifvqfc0","pricing_plan_id":"cebpf4jnsgd1na2vs0mg"},{"bike_id":"db5bed51-afb9-4548-98e9-7b7ae226c501","system_id":"levelo_inurba_marseille","lat":43.33756,"lon":5.37453,"is_reserved":false,"is_disabled":false,"rental_uris":{"android":"levelo://app?vid=db5bed51-afb9-4548-98e9-7b7ae226c501","ios":"levelo://app?vid=db5bed51-afb9-4548-98e9-7b7ae226c501"},"vehicle_type_id":"4","last_reported":1726834617,"current_range_meters":15200,"station_id":"","pricing_plan_id":"cebpf4jnsgd1na2vs0mg"},{"bike_id":"32692715-53dd-4a36-afcd-7e32287d7a18","system_id":"levelo_inurba_marseille","lat":43.29068,"lon":5.371637,"is_reserved":false,"is_disabled":false,"rental_uris":{"android":"levelo://app?vid=32692715-53dd-4a36-afcd-7e32287d7a18","ios":"levelo://app?vid=32692715-53dd-4a36-afcd-7e32287d7a18"},"vehicle_type_id":"4","last_reported":1726834617,"current_range_meters":28000,"station_id":"ce4bh5p2rcd13ifvqe4g","pricing_plan_id":"cebpf4jnsgd1na2vs0mg"},{"bike_id":"15969a81-0b7e-45f0-a7b0-f27bf344f300","system_id":"levelo_inurba_marseille","lat":43.29877,"lon":5.39737,"is_reserved":false,"is_disabled":false,"rental_uris":{"android":"levelo://app?vid=15969a81-0b7e-45f0-a7b0-f27bf344f300","ios":"levelo://app?vid=15969a81-0b7e-45f0-a7b0-f27bf344f300"},"vehicle_type_id":"4","last_reported":1726834617,"current_range_meters":22000,"station_id":"ce4bh0h2rcd13ifvqd50","pricing_plan_id":"cebpf4jnsgd1na2vs0mg"},{"bike_id":"fccc13a6-0c93-4f77-b2e7-ea873c779a4f","system_id":"levelo_inurba_marseille","lat":43.29898,"lon":5.43661,"is_reserved":false,"is_disabled":false,"rental_uris":{"android":"levelo://app?vid=fccc13a6-0c93-4f77-b2e7-ea873c779a4f","ios":"levelo://app?vid=fccc13a6-0c93-4f77-b2e7-ea873c779a4f"},"vehicle_type_id":"4","last_reported":1726834617,"current_range_meters":14400,"station_id":"ce4bhpp2rcd13ifvqhfg","pricing_plan_id":"cebpf4jnsgd1na2vs0mg"},{"bike_id":"478adcbd-3353-4714-b73c-26970d30abbe","system_id":"levelo_inurba_marseille","lat":43.27072,"lon":5.42275,"is_reserved":false,"is_disabled":false,"rental_uris":{"android":"levelo://app?vid=478adcbd-3353-4714-b73c-26970d30abbe","ios":"levelo://app?vid=478adcbd-3353-4714-b73c-26970d30abbe"},"vehicle_type_id":"4","last_reported":1726834617,"current_range_meters":29600,"station_id":"ce4bhk92rcd13ifvqgb0","pricing_plan_id":"cebpf4jnsgd1na2vs0mg"},{"bike_id":"f29bcfd2-ef48-4f73-9d42-cfe20584237d","system_id":"levelo_inurba_marseille","lat":43.302798,"lon":5.377842,"is_reserved":false,"is_disabled":false,"rental_uris":{"android":"levelo://app?vid=f29bcfd2-ef48-4f73-9d42-cfe20584237d","ios":"levelo://app?vid=f29bcfd2-ef48-4f73-9d42-cfe20584237d"},"vehicle_type_id":"4","last_reported":1726834617,"current_range_meters":39200,"station_id":"ce4bguh2rcd13ifvqcj0","pricing_plan_id":"cebpf4jnsgd1na2vs0mg"},{"bike_id":"6d7bf0a7-e67d-4749-b5b2-48a482844341","system_id":"levelo_inurba_marseille","lat":43.32657,"lon":5.40993,"is_reserved":false,"is_disabled":false,"rental_uris":{"android":"levelo://app?vid=6d7bf0a7-e67d-4749-b5b2-48a482844341","ios":"levelo://app?vid=6d7bf0a7-e67d-4749-b5b2-48a482844341"},"vehicle_type_id":"4","last_reported":1726834617,"current_range_meters":8400,"station_id":"ce4bhpp2rcd13ifvqhgg","pricing_plan_id":"cebpf4jnsgd1na2vs0mg"},{"bike_id":"f470ed0a-4a30-4baf-8494-5cd87f46eec4","system_id":"levelo_inurba_marseille","lat":43.25939,"lon":5.40911,"is_reserved":false,"is_disabled":false,"rental_uris":{"android":"levelo://app?vid=f470ed0a-4a30-4baf-8494-5cd87f46eec4","ios":"levelo://app?vid=f470ed0a-4a30-4baf-8494-5cd87f46eec4"},"vehicle_type_id":"4","last_reported":1726834617,"current_range_meters":8000,"station_id":"ce4bhm92rcd13ifvqglg","pricing_plan_id":"cebpf4jnsgd1na2vs0mg"},{"bike_id":"dca7a43e-2a7d-49fc-b84f-68cd331d5a9a","system_id":"levelo_inurba_marseille","lat":43.30459,"lon":5.37909,"is_reserved":false,"is_disabled":false,"rental_uris":{"android":"levelo://app?vid=dca7a43e-2a7d-49fc-b84f-68cd331d5a9a","ios":"levelo://app?vid=dca7a43e-2a7d-49fc-b84f-68cd331d5a9a"},"vehicle_type_id":"4","last_reported":1726834617,"current_range_meters":36800,"station_id":"ce4bgup2rcd13ifvqcn0","pricing_plan_id":"cebpf4jnsgd1na2vs0mg"},{"bike_id":"b87c8417-c59f-418d-bd60-25eb8e63567c","system_id":"levelo_inurba_marseille","lat":43.30533,"lon":5.36702,"is_reserved":false,"is_disabled":false,"rental_uris":{"android":"levelo://app?vid=b87c8417-c59f-418d-bd60-25eb8e63567c","ios":"levelo://app?vid=b87c8417-c59f-418d-bd60-25eb8e63567c"},"vehicle_type_id":"4","last_reported":1726834617,"current_range_meters":26000,"station_id":"ce4bgrp2rcd13ifvqc9g","pricing_plan_id":"cebpf4jnsgd1na2vs0mg"},{"bike_id":"dfa25865-d491-4319-ac0d-4a43b0719215","system_id":"levelo_inurba_marseille","lat":43.32479,"lon":5.36568,"is_reserved":false,"is_disabled":false,"rental_uris":{"android":"levelo://app?vid=dfa25865-d491-4319-ac0d-4a43b0719215","ios":"levelo://app?vid=dfa25865-d491-4319-ac0d-4a43b0719215"},"vehicle_type_id":"4","last_reported":1726834617,"current_range_meters":6800,"station_id":"ce4bhs12rcd13ifvqhvg","pricing_plan_id":"cebpf4jnsgd1na2vs0mg"},{"bike_id":"690445ec-2dba-4594-936e-3ef8e30061aa","system_id":"levelo_inurba_marseille","lat":43.31335,"lon":5.36738,"is_reserved":false,"is_disabled":false,"rental_uris":{"android":"levelo://app?vid=690445ec-2dba-4594-936e-3ef8e30061aa","ios":"levelo://app?vid=690445ec-2dba-4594-936e-3ef8e30061aa"},"vehicle_type_id":"4","last_reported":1726834617,"current_range_meters":38800,"station_id":"ce4bgr92rcd13ifvqc6g","pricing_plan_id":"cebpf4jnsgd1na2vs0mg"},{"bike_id":"58014cc6-4f39-4119-a8a0-cdc0e2507820","system_id":"levelo_inurba_marseille","lat":43.3229,"lon":5.38262,"is_reserved":false,"is_disabled":false,"rental_uris":{"android":"levelo://app?vid=58014cc6-4f39-4119-a8a0-cdc0e2507820","ios":"levelo://app?vid=58014cc6-4f39-4119-a8a0-cdc0e2507820"},"vehicle_type_id":"4","last_reported":1726834617,"current_range_meters":39200,"station_id":"ce4bhr12rcd13ifvqhqg","pricing_plan_id":"cebpf4jnsgd1na2vs0mg"},{"bike_id":"29777362-2571-484e-890b-44c49b812cee","system_id":"levelo_inurba_marseille","lat":43.27689,"lon":5.3887,"is_reserved":false,"is_disabled":false,"rental_uris":{"android":"levelo://app?vid=29777362-2571-484e-890b-44c49b812cee","ios":"levelo://app?vid=29777362-2571-484e-890b-44c49b812cee"},"vehicle_type_id":"4","last_reported":1726834617,"current_range_meters":35200,"station_id":"ce4bhi12rcd13ifvqfo0","pricing_plan_id":"cebpf4jnsgd1na2vs0mg"},{"bike_id":"3e4b7299-eb4e-41cf-bcc4-7635f53e4070","system_id":"levelo_inurba_marseille","lat":43.301698,"lon":5.387691,"is_reserved":false,"is_disabled":false,"rental_uris":{"android":"levelo://app?vid=3e4b7299-eb4e-41cf-bcc4-7635f53e4070","ios":"levelo://app?vid=3e4b7299-eb4e-41cf-bcc4-7635f53e4070"},"vehicle_type_id":"4","last_reported":1726834617,"current_range_meters":10800,"station_id":"ce4bh112rcd13ifvqda0","pricing_plan_id":"cebpf4jnsgd1na2vs0mg"},{"bike_id":"893a2ddb-8d12-4ea4-8526-0d4564b0c62c","system_id":"levelo_inurba_marseille","lat":43.23157,"lon":5.4371,"is_reserved":false,"is_disabled":false,"rental_uris":{"android":"levelo://app?vid=893a2ddb-8d12-4ea4-8526-0d4564b0c62c","ios":"levelo://app?vid=893a2ddb-8d12-4ea4-8526-0d4564b0c62c"},"vehicle_type_id":"4","last_reported":1726834617,"current_range_meters":5600,"station_id":"ce4bhmp2rcd13ifvqgog","pricing_plan_id":"cebpf4jnsgd1na2vs0mg"},{"bike_id":"bce83964-771d-421d-a795-c2b376c5b9dc","system_id":"levelo_inurba_marseille","lat":43.23193,"lon":5.3555,"is_reserved":false,"is_disabled":false,"rental_uris":{"android":"levelo://app?vid=bce83964-771d-421d-a795-c2b376c5b9dc","ios":"levelo://app?vid=bce83964-771d-421d-a795-c2b376c5b9dc"},"vehicle_type_id":"4","last_reported":1726834617,"current_range_meters":19200,"station_id":"ce4bhu92rcd13ifvqi70","pricing_plan_id":"cebpf4jnsgd1na2vs0mg"},{"bike_id":"cb49c27a-2b9a-49d1-8f5a-2b6637d73ada","system_id":"levelo_inurba_marseille","lat":43.23183,"lon":5.39994,"is_reserved":false,"is_disabled":false,"rental_uris":{"android":"levelo://app?vid=cb49c27a-2b9a-49d1-8f5a-2b6637d73ada","ios":"levelo://app?vid=cb49c27a-2b9a-49d1-8f5a-2b6637d73ada"},"vehicle_type_id":"4","last_reported":1726834617,"current_range_meters":28000,"station_id":"ce4bhn12rcd13ifvqgqg","pricing_plan_id":"cebpf4jnsgd1na2vs0mg"},{"bike_id":"caa6f7e5-7d39-4b0a-abcc-14754b00760d","system_id":"levelo_inurba_marseille","lat":43.31169,"lon":5.38713,"is_reserved":false,"is_disabled":false,"rental_uris":{"android":"levelo://app?vid=caa6f7e5-7d39-4b0a-abcc-14754b00760d","ios":"levelo://app?vid=caa6f7e5-7d39-4b0a-abcc-14754b00760d"},"vehicle_type_id":"4","last_reported":1726834617,"current_range_meters":39200,"station_id":"ce4bgv12rcd13ifvqcp0","pricing_plan_id":"cebpf4jnsgd1na2vs0mg"},{"bike_id":"6c648bdd-85eb-4664-b61b-fc07a11b6677","system_id":"levelo_inurba_marseille","lat":43.26553,"lon":5.37284,"is_reserved":false,"is_disabled":false,"rental_uris":{"android":"levelo://app?vid=6c648bdd-85eb-4664-b61b-fc07a11b6677","ios":"levelo://app?vid=6c648bdd-85eb-4664-b61b-fc07a11b6677"},"vehicle_type_id":"4","last_reported":1726834617,"current_range_meters":14000,"station_id":"ce4bhg12rcd13ifvqf70","pricing_plan_id":"cebpf4jnsgd1na2vs0mg"},{"bike_id":"1f4af027-6dee-4a39-9bb8-1599e0d2ee2b","system_id":"levelo_inurba_marseille","lat":43.308807,"lon":5.396476,"is_reserved":false,"is_disabled":false,"rental_uris":{"android":"levelo://app?vid=1f4af027-6dee-4a39-9bb8-1599e0d2ee2b","ios":"levelo://app?vid=1f4af027-6dee-4a39-9bb8-1599e0d2ee2b"},"vehicle_type_id":"4","last_reported":1726834617,"current_range_meters":10800,"station_id":"ce4bh012rcd13ifvqcv0","pricing_plan_id":"cebpf4jnsgd1na2vs0mg"},{"bike_id":"c6245117-d851-464f-adf9-f48fdf50bbd5","system_id":"levelo_inurba_marseille","lat":43.29301,"lon":5.37462,"is_reserved":false,"is_disabled":false,"rental_uris":{"android":"levelo://app?vid=c6245117-d851-464f-adf9-f48fdf50bbd5","ios":"levelo://app?vid=c6245117-d851-464f-adf9-f48fdf50bbd5"},"vehicle_type_id":"4","last_reported":1726834617,"current_range_meters":28000,"station_id":"ce4bgi12rcd13ifvqb70","pricing_plan_id":"cebpf4jnsgd1na2vs0mg"},{"bike_id":"01f3bcc0-670b-44b2-b37f-5a0b1f49a53a","system_id":"levelo_inurba_marseille","lat":43.28099,"lon":5.37833,"is_reserved":false,"is_disabled":false,"rental_uris":{"android":"levelo://app?vid=01f3bcc0-670b-44b2-b37f-5a0b1f49a53a","ios":"levelo://app?vid=01f3bcc0-670b-44b2-b37f-5a0b1f49a53a"},"vehicle_type_id":"4","last_reported":1726834617,"current_range_meters":24800,"station_id":"ce4bha12rcd13ifvqee0","pricing_plan_id":"cebpf4jnsgd1na2vs0mg"},{"bike_id":"e9ba7368-6a12-4c39-afe1-44812a55adae","system_id":"levelo_inurba_marseille","lat":43.29006,"lon":5.35609,"is_reserved":false,"is_disabled":false,"rental_uris":{"android":"levelo://app?vid=e9ba7368-6a12-4c39-afe1-44812a55adae","ios":"levelo://app?vid=e9ba7368-6a12-4c39-afe1-44812a55adae"},"vehicle_type_id":"4","last_reported":1726834617,"current_range_meters":33200,"station_id":"ce4bhb92rcd13ifvqen0","pricing_plan_id":"cebpf4jnsgd1na2vs0mg"},{"bike_id":"4e0985c7-90e8-4a50-8bde-1b1536b994c4","system_id":"levelo_inurba_marseille","lat":43.3176,"lon":5.39015,"is_reserved":false,"is_disabled":false,"rental_uris":{"android":"levelo://app?vid=4e0985c7-90e8-4a50-8bde-1b1536b994c4","ios":"levelo://app?vid=4e0985c7-90e8-4a50-8bde-1b1536b994c4"},"vehicle_type_id":"4","last_reported":1726834617,"current_range_meters":38000,"station_id":"ce4bhqp2rcd13ifvqhng","pricing_plan_id":"cebpf4jnsgd1na2vs0mg"},{"bike_id":"c01f25e8-ffde-4a51-808d-2138ce21a7c7","system_id":"levelo_inurba_marseille","lat":43.28935,"lon":5.3663,"is_reserved":false,"is_disabled":false,"rental_uris":{"android":"levelo://app?vid=c01f25e8-ffde-4a51-808d-2138ce21a7c7","ios":"levelo://app?vid=c01f25e8-ffde-4a51-808d-2138ce21a7c7"},"vehicle_type_id":"4","last_reported":1726834617,"current_range_meters":38800,"station_id":"ce4bhap2rcd13ifvqek0","pricing_plan_id":"cebpf4jnsgd1na2vs0mg"},{"bike_id":"fa2e946d-01fe-4bb4-a2b0-55af60a0bcec","system_id":"levelo_inurba_marseille","lat":43.33727,"lon":5.39183,"is_reserved":false,"is_disabled":false,"rental_uris":{"android":"levelo://app?vid=fa2e946d-01fe-4bb4-a2b0-55af60a0bcec","ios":"levelo://app?vid=fa2e946d-01fe-4bb4-a2b0-55af60a0bcec"},"vehicle_type_id":"4","last_reported":1726834617,"current_range_meters":36400,"station_id":"ce4bhr92rcd13ifvqhsg","pricing_plan_id":"cebpf4jnsgd1na2vs0mg"},{"bike_id":"c33add25-123c-4b36-8cf5-b7923beb3261","system_id":"levelo_inurba_marseille","lat":43.32481,"lon":5.36573,"is_reserved":false,"is_disabled":false,"rental_uris":{"android":"levelo://app?vid=c33add25-123c-4b36-8cf5-b7923beb3261","ios":"levelo://app?vid=c33add25-123c-4b36-8cf5-b7923beb3261"},"vehicle_type_id":"4","last_reported":1726834617,"current_range_meters":20400,"station_id":"ce4bhs12rcd13ifvqhvg","pricing_plan_id":"cebpf4jnsgd1na2vs0mg"},{"bike_id":"851fd5dd-c070-4b50-b3f5-f16b27e6a0d6","system_id":"levelo_inurba_marseille","lat":43.29275,"lon":5.3684,"is_reserved":false,"is_disabled":false,"rental_uris":{"android":"levelo://app?vid=851fd5dd-c070-4b50-b3f5-f16b27e6a0d6","ios":"levelo://app?vid=851fd5dd-c070-4b50-b3f5-f16b27e6a0d6"},"vehicle_type_id":"4","last_reported":1726834617,"current_range_meters":14400,"station_id":"ce4bhbp2rcd13ifvqesg","pricing_plan_id":"cebpf4jnsgd1na2vs0mg"},{"bike_id":"2eb49f73-b3a0-4ea0-9f85-131088d037f3","system_id":"levelo_inurba_marseille","lat":43.29226,"lon":5.36058,"is_reserved":false,"is_disabled":false,"rental_uris":{"android":"levelo://app?vid=2eb49f73-b3a0-4ea0-9f85-131088d037f3","ios":"levelo://app?vid=2eb49f73-b3a0-4ea0-9f85-131088d037f3"},"vehicle_type_id":"4","last_reported":1726834617,"current_range_meters":22400,"station_id":"ce4bhbh2rcd13ifvqeqg","pricing_plan_id":"cebpf4jnsgd1na2vs0mg"},{"bike_id":"47ba5d81-4f1e-4672-8fae-e808f171faaa","system_id":"levelo_inurba_marseille","lat":43.33023,"lon":5.39038,"is_reserved":false,"is_disabled":false,"rental_uris":{"android":"levelo://app?vid=47ba5d81-4f1e-4672-8fae-e808f171faaa","ios":"levelo://app?vid=47ba5d81-4f1e-4672-8fae-e808f171faaa"},"vehicle_type_id":"4","last_reported":1726834617,"current_range_meters":6000,"station_id":"ce4bhr92rcd13ifvqhrg","pricing_plan_id":"cebpf4jnsgd1na2vs0mg"},{"bike_id":"3fb11e53-4df8-4597-ab69-14defbdd307d","system_id":"levelo_inurba_marseille","lat":43.31114,"lon":5.37783,"is_reserved":false,"is_disabled":false,"rental_uris":{"android":"levelo://app?vid=3fb11e53-4df8-4597-ab69-14defbdd307d","ios":"levelo://app?vid=3fb11e53-4df8-4597-ab69-14defbdd307d"},"vehicle_type_id":"4","last_reported":1726834617,"current_range_meters":20000,"station_id":"ce4bgt92rcd13ifvqcg0","pricing_plan_id":"cebpf4jnsgd1na2vs0mg"},{"bike_id":"f6afed58-cf55-4d3c-8813-dc533e765c78","system_id":"levelo_inurba_marseille","lat":43.33605,"lon":5.41034,"is_reserved":false,"is_disabled":false,"rental_uris":{"android":"levelo://app?vid=f6afed58-cf55-4d3c-8813-dc533e765c78","ios":"levelo://app?vid=f6afed58-cf55-4d3c-8813-dc533e765c78"},"vehicle_type_id":"4","last_reported":1726834617,"current_range_meters":9200,"station_id":"ce4bhqh2rcd13ifvqhmg","pricing_plan_id":"cebpf4jnsgd1na2vs0mg"},{"bike_id":"0271e760-394a-46af-97f8-ff6577a27277","system_id":"levelo_inurba_marseille","lat":43.30532,"lon":5.36534,"is_reserved":false,"is_disabled":false,"rental_uris":{"android":"levelo://app?vid=0271e760-394a-46af-97f8-ff6577a27277","ios":"levelo://app?vid=0271e760-394a-46af-97f8-ff6577a27277"},"vehicle_type_id":"4","last_reported":1726834617,"current_range_meters":22000,"station_id":"ce4bgs12rcd13ifvqcag","pricing_plan_id":"cebpf4jnsgd1na2vs0mg"},{"bike_id":"8c9b599e-07c0-4803-bac6-aa180391d235","system_id":"levelo_inurba_marseille","lat":43.26559,"lon":5.37283,"is_reserved":false,"is_disabled":false,"rental_uris":{"android":"levelo://app?vid=8c9b599e-07c0-4803-bac6-aa180391d235","ios":"levelo://app?vid=8c9b599e-07c0-4803-bac6-aa180391d235"},"vehicle_type_id":"4","last_reported":1726834617,"current_range_meters":29600,"station_id":"ce4bhg12rcd13ifvqf70","pricing_plan_id":"cebpf4jnsgd1na2vs0mg"},{"bike_id":"d5546a56-cc14-4883-a464-16d02cb7a49c","system_id":"levelo_inurba_marseille","lat":43.31713,"lon":5.43707,"is_reserved":false,"is_disabled":false,"rental_uris":{"android":"levelo://app?vid=d5546a56-cc14-4883-a464-16d02cb7a49c","ios":"levelo://app?vid=d5546a56-cc14-4883-a464-16d02cb7a49c"},"vehicle_type_id":"4","last_reported":1726834617,"current_range_meters":31200,"station_id":"ce4bhp92rcd13ifvqhcg","pricing_plan_id":"cebpf4jnsgd1na2vs0mg"},{"bike_id":"86da0208-6749-4446-bfd7-1c166b8f8d36","system_id":"levelo_inurba_marseille","lat":43.3098,"lon":5.37976,"is_reserved":false,"is_disabled":false,"rental_uris":{"android":"levelo://app?vid=86da0208-6749-4446-bfd7-1c166b8f8d36","ios":"levelo://app?vid=86da0208-6749-4446-bfd7-1c166b8f8d36"},"vehicle_type_id":"4","last_reported":1726834617,"current_range_meters":28000,"station_id":"ce4bgt12rcd13ifvqce0","pricing_plan_id":"cebpf4jnsgd1na2vs0mg"},{"bike_id":"4e8e06dd-9257-4e0a-a231-fbec52fb33f4","system_id":"levelo_inurba_marseille","lat":43.24802,"lon":5.37453,"is_reserved":false,"is_disabled":false,"rental_uris":{"android":"levelo://app?vid=4e8e06dd-9257-4e0a-a231-fbec52fb33f4","ios":"levelo://app?vid=4e8e06dd-9257-4e0a-a231-fbec52fb33f4"},"vehicle_type_id":"4","last_reported":1726834617,"current_range_meters":39200,"station_id":"ce4bhgh2rcd13ifvqfb0","pricing_plan_id":"cebpf4jnsgd1na2vs0mg"},{"bike_id":"ede0a8a2-ffc1-4fac-8497-26fa86f80bf4","system_id":"levelo_inurba_marseille","lat":43.27834,"lon":5.39216,"is_reserved":false,"is_disabled":false,"rental_uris":{"android":"levelo://app?vid=ede0a8a2-ffc1-4fac-8497-26fa86f80bf4","ios":"levelo://app?vid=ede0a8a2-ffc1-4fac-8497-26fa86f80bf4"},"vehicle_type_id":"4","last_reported":1726834617,"current_range_meters":26800,"station_id":"ce4bhjp2rcd13ifvqga0","pricing_plan_id":"cebpf4jnsgd1na2vs0mg"},{"bike_id":"fa690805-233a-4a70-a9f3-33f1b67cdb1f","system_id":"levelo_inurba_marseille","lat":43.32286,"lon":5.38256,"is_reserved":false,"is_disabled":false,"rental_uris":{"android":"levelo://app?vid=fa690805-233a-4a70-a9f3-33f1b67cdb1f","ios":"levelo://app?vid=fa690805-233a-4a70-a9f3-33f1b67cdb1f"},"vehicle_type_id":"4","last_reported":1726834617,"current_range_meters":18000,"station_id":"ce4bhr12rcd13ifvqhqg","pricing_plan_id":"cebpf4jnsgd1na2vs0mg"},{"bike_id":"b69a329a-0d73-4b0c-bf11-b721ae638696","system_id":"levelo_inurba_marseille","lat":43.29587,"lon":5.36741,"is_reserved":false,"is_disabled":false,"rental_uris":{"android":"levelo://app?vid=b69a329a-0d73-4b0c-bf11-b721ae638696","ios":"levelo://app?vid=b69a329a-0d73-4b0c-bf11-b721ae638696"},"vehicle_type_id":"4","last_reported":1726834617,"current_range_meters":38400,"station_id":"ce4bgph2rcd13ifvqc2g","pricing_plan_id":"cebpf4jnsgd1na2vs0mg"},{"bike_id":"577e435a-f36c-4883-b6f0-c48021798d60","system_id":"levelo_inurba_marseille","lat":43.23152,"lon":5.43712,"is_reserved":false,"is_disabled":false,"rental_uris":{"android":"levelo://app?vid=577e435a-f36c-4883-b6f0-c48021798d60","ios":"levelo://app?vid=577e435a-f36c-4883-b6f0-c48021798d60"},"vehicle_type_id":"4","last_reported":1726834617,"current_range_meters":38800,"station_id":"ce4bhmp2rcd13ifvqgog","pricing_plan_id":"cebpf4jnsgd1na2vs0mg"},{"bike_id":"728a6da4-dd0c-42ed-bc4c-72c30d202825","system_id":"levelo_inurba_marseille","lat":43.32481,"lon":5.36558,"is_reserved":false,"is_disabled":false,"rental_uris":{"android":"levelo://app?vid=728a6da4-dd0c-42ed-bc4c-72c30d202825","ios":"levelo://app?vid=728a6da4-dd0c-42ed-bc4c-72c30d202825"},"vehicle_type_id":"4","last_reported":1726834617,"current_range_meters":27200,"station_id":"ce4bhs12rcd13ifvqhvg","pricing_plan_id":"cebpf4jnsgd1na2vs0mg"},{"bike_id":"74c4797f-d4f5-40cb-b93b-7c39426cd71e","system_id":"levelo_inurba_marseille","lat":43.29853,"lon":5.36286,"is_reserved":false,"is_disabled":false,"rental_uris":{"android":"levelo://app?vid=74c4797f-d4f5-40cb-b93b-7c39426cd71e","ios":"levelo://app?vid=74c4797f-d4f5-40cb-b93b-7c39426cd71e"},"vehicle_type_id":"4","last_reported":1726834617,"current_range_meters":34800,"station_id":"ce4bgpp2rcd13ifvqc3g","pricing_plan_id":"cebpf4jnsgd1na2vs0mg"},{"bike_id":"b2763354-ec6c-4733-8de6-6c4493759ae9","system_id":"levelo_inurba_marseille","lat":43.29106,"lon":5.4016,"is_reserved":false,"is_disabled":false,"rental_uris":{"android":"levelo://app?vid=b2763354-ec6c-4733-8de6-6c4493759ae9","ios":"levelo://app?vid=b2763354-ec6c-4733-8de6-6c4493759ae9"},"vehicle_type_id":"4","last_reported":1726834617,"current_range_meters":20400,"station_id":"","pricing_plan_id":"cebpf4jnsgd1na2vs0mg"},{"bike_id":"ac70f898-127e-4be6-878a-f17419392429","system_id":"levelo_inurba_marseille","lat":43.30907,"lon":5.36854,"is_reserved":false,"is_disabled":false,"rental_uris":{"android":"levelo://app?vid=ac70f898-127e-4be6-878a-f17419392429","ios":"levelo://app?vid=ac70f898-127e-4be6-878a-f17419392429"},"vehicle_type_id":"4","last_reported":1726834617,"current_range_meters":39200,"station_id":"ce4bgn92rcd13ifvqbvg","pricing_plan_id":"cebpf4jnsgd1na2vs0mg"},{"bike_id":"c3639e43-0eef-407c-8f4c-db34a0474b16","system_id":"levelo_inurba_marseille","lat":43.30592,"lon":5.39356,"is_reserved":false,"is_disabled":false,"rental_uris":{"android":"levelo://app?vid=c3639e43-0eef-407c-8f4c-db34a0474b16","ios":"levelo://app?vid=c3639e43-0eef-407c-8f4c-db34a0474b16"},"vehicle_type_id":"4","last_reported":1726834617,"current_range_meters":25600,"station_id":"ce4bh0p2rcd13ifvqd80","pricing_plan_id":"cebpf4jnsgd1na2vs0mg"},{"bike_id":"fe780c9c-7e13-4b38-81ce-ea43f071d76c","system_id":"levelo_inurba_marseille","lat":43.23061,"lon":5.35495,"is_reserved":false,"is_disabled":false,"rental_uris":{"android":"levelo://app?vid=fe780c9c-7e13-4b38-81ce-ea43f071d76c","ios":"levelo://app?vid=fe780c9c-7e13-4b38-81ce-ea43f071d76c"},"vehicle_type_id":"4","last_reported":1726834617,"current_range_meters":30400,"station_id":"cpo3342slgdg3j2ifvpg","pricing_plan_id":"cebpf4jnsgd1na2vs0mg"},{"bike_id":"df26bd81-cd3d-4de2-8ca3-706d698f32af","system_id":"levelo_inurba_marseille","lat":43.32481,"lon":5.36572,"is_reserved":false,"is_disabled":false,"rental_uris":{"android":"levelo://app?vid=df26bd81-cd3d-4de2-8ca3-706d698f32af","ios":"levelo://app?vid=df26bd81-cd3d-4de2-8ca3-706d698f32af"},"vehicle_type_id":"4","last_reported":1726834617,"current_range_meters":8800,"station_id":"ce4bhs12rcd13ifvqhvg","pricing_plan_id":"cebpf4jnsgd1na2vs0mg"},{"bike_id":"cc88646a-71d2-4219-8a80-e547b8fb958f","system_id":"levelo_inurba_marseille","lat":43.30533,"lon":5.37294,"is_reserved":false,"is_disabled":false,"rental_uris":{"android":"levelo://app?vid=cc88646a-71d2-4219-8a80-e547b8fb958f","ios":"levelo://app?vid=cc88646a-71d2-4219-8a80-e547b8fb958f"},"vehicle_type_id":"4","last_reported":1726834617,"current_range_meters":24000,"station_id":"","pricing_plan_id":"cebpf4jnsgd1na2vs0mg"},{"bike_id":"8d800646-9abe-42b6-8b3a-3d5eee2f8a33","system_id":"levelo_inurba_marseille","lat":43.33785,"lon":5.37399,"is_reserved":false,"is_disabled":false,"rental_uris":{"android":"levelo://app?vid=8d800646-9abe-42b6-8b3a-3d5eee2f8a33","ios":"levelo://app?vid=8d800646-9abe-42b6-8b3a-3d5eee2f8a33"},"vehicle_type_id":"4","last_reported":1726834617,"current_range_meters":38800,"station_id":"","pricing_plan_id":"cebpf4jnsgd1na2vs0mg"},{"bike_id":"0653cb10-c12e-4c27-af75-8f3495a98f89","system_id":"levelo_inurba_marseille","lat":43.3229,"lon":5.38268,"is_reserved":false,"is_disabled":false,"rental_uris":{"android":"levelo://app?vid=0653cb10-c12e-4c27-af75-8f3495a98f89","ios":"levelo://app?vid=0653cb10-c12e-4c27-af75-8f3495a98f89"},"vehicle_type_id":"4","last_reported":1726834617,"current_range_meters":6400,"station_id":"ce4bhr12rcd13ifvqhqg","pricing_plan_id":"cebpf4jnsgd1na2vs0mg"},{"bike_id":"6ee220b3-bb0d-4a18-864d-494a0d4924db","system_id":"levelo_inurba_marseille","lat":43.30541,"lon":5.36703,"is_reserved":false,"is_disabled":false,"rental_uris":{"android":"levelo://app?vid=6ee220b3-bb0d-4a18-864d-494a0d4924db","ios":"levelo://app?vid=6ee220b3-bb0d-4a18-864d-494a0d4924db"},"vehicle_type_id":"4","last_reported":1726834617,"current_range_meters":4800,"station_id":"ce4bgrp2rcd13ifvqc9g","pricing_plan_id":"cebpf4jnsgd1na2vs0mg"},{"bike_id":"f70da415-1fb2-4ed4-98cb-0261a21f6989","system_id":"levelo_inurba_marseille","lat":43.23155,"lon":5.43721,"is_reserved":false,"is_disabled":false,"rental_uris":{"android":"levelo://app?vid=f70da415-1fb2-4ed4-98cb-0261a21f6989","ios":"levelo://app?vid=f70da415-1fb2-4ed4-98cb-0261a21f6989"},"vehicle_type_id":"4","last_reported":1726834617,"current_range_meters":10800,"station_id":"ce4bhmp2rcd13ifvqgog","pricing_plan_id":"cebpf4jnsgd1na2vs0mg"},{"bike_id":"dc55ee6f-d682-4dc2-af5e-ed21de76deca","system_id":"levelo_inurba_marseille","lat":43.30606,"lon":5.39354,"is_reserved":false,"is_disabled":false,"rental_uris":{"android":"levelo://app?vid=dc55ee6f-d682-4dc2-af5e-ed21de76deca","ios":"levelo://app?vid=dc55ee6f-d682-4dc2-af5e-ed21de76deca"},"vehicle_type_id":"4","last_reported":1726834617,"current_range_meters":25200,"station_id":"ce4bh0p2rcd13ifvqd80","pricing_plan_id":"cebpf4jnsgd1na2vs0mg"},{"bike_id":"53e6a2c8-0873-4dd3-a562-3683c172cb28","system_id":"levelo_inurba_marseille","lat":43.32342,"lon":5.40615,"is_reserved":false,"is_disabled":false,"rental_uris":{"android":"levelo://app?vid=53e6a2c8-0873-4dd3-a562-3683c172cb28","ios":"levelo://app?vid=53e6a2c8-0873-4dd3-a562-3683c172cb28"},"vehicle_type_id":"4","last_reported":1726834617,"current_range_meters":36800,"station_id":"ce4bhq92rcd13ifvqhjg","pricing_plan_id":"cebpf4jnsgd1na2vs0mg"},{"bike_id":"2ef068cd-707f-4df8-94c2-85530c48db9f","system_id":"levelo_inurba_marseille","lat":43.30604,"lon":5.37225,"is_reserved":false,"is_disabled":false,"rental_uris":{"android":"levelo://app?vid=2ef068cd-707f-4df8-94c2-85530c48db9f","ios":"levelo://app?vid=2ef068cd-707f-4df8-94c2-85530c48db9f"},"vehicle_type_id":"4","last_reported":1726834617,"current_range_meters":39200,"station_id":"ce4bgqh2rcd13ifvqc4g","pricing_plan_id":"cebpf4jnsgd1na2vs0mg"},{"bike_id":"c2c9a555-6ec8-4b92-b33e-073571605c93","system_id":"levelo_inurba_marseille","lat":43.23192,"lon":5.35546,"is_reserved":false,"is_disabled":false,"rental_uris":{"android":"levelo://app?vid=c2c9a555-6ec8-4b92-b33e-073571605c93","ios":"levelo://app?vid=c2c9a555-6ec8-4b92-b33e-073571605c93"},"vehicle_type_id":"4","last_reported":1726834617,"current_range_meters":27600,"station_id":"ce4bhu92rcd13ifvqi70","pricing_plan_id":"cebpf4jnsgd1na2vs0mg"},{"bike_id":"7423bf83-fed1-4906-99d8-9967fcb8911a","system_id":"levelo_inurba_marseille","lat":43.28154,"lon":5.42655,"is_reserved":false,"is_disabled":false,"rental_uris":{"android":"levelo://app?vid=7423bf83-fed1-4906-99d8-9967fcb8911a","ios":"levelo://app?vid=7423bf83-fed1-4906-99d8-9967fcb8911a"},"vehicle_type_id":"4","last_reported":1726834617,"current_range_meters":18800,"station_id":"ce4bhnh2rcd13ifvqgug","pricing_plan_id":"cebpf4jnsgd1na2vs0mg"},{"bike_id":"62997862-0566-49dc-92c6-a8477c05ade8","system_id":"levelo_inurba_marseille","lat":43.27073,"lon":5.42277,"is_reserved":false,"is_disabled":false,"rental_uris":{"android":"levelo://app?vid=62997862-0566-49dc-92c6-a8477c05ade8","ios":"levelo://app?vid=62997862-0566-49dc-92c6-a8477c05ade8"},"vehicle_type_id":"4","last_reported":1726834617,"current_range_meters":39200,"station_id":"ce4bhk92rcd13ifvqgb0","pricing_plan_id":"cebpf4jnsgd1na2vs0mg"},{"bike_id":"6bb79fa3-ee0a-4c93-b03f-99cea7e7b637","system_id":"levelo_inurba_marseille","lat":43.25113,"lon":5.40319,"is_reserved":false,"is_disabled":false,"rental_uris":{"android":"levelo://app?vid=6bb79fa3-ee0a-4c93-b03f-99cea7e7b637","ios":"levelo://app?vid=6bb79fa3-ee0a-4c93-b03f-99cea7e7b637"},"vehicle_type_id":"4","last_reported":1726834617,"current_range_meters":36400,"station_id":"ce4bhlh2rcd13ifvqgig","pricing_plan_id":"cebpf4jnsgd1na2vs0mg"},{"bike_id":"33a06a77-0919-48c5-8533-5130ff7d9a99","system_id":"levelo_inurba_marseille","lat":43.28034,"lon":5.36944,"is_reserved":false,"is_disabled":false,"rental_uris":{"android":"levelo://app?vid=33a06a77-0919-48c5-8533-5130ff7d9a99","ios":"levelo://app?vid=33a06a77-0919-48c5-8533-5130ff7d9a99"},"vehicle_type_id":"4","last_reported":1726834617,"current_range_meters":19200,"station_id":"ce4bha12rcd13ifvqef0","pricing_plan_id":"cebpf4jnsgd1na2vs0mg"},{"bike_id":"3ea8f54f-9145-4e7d-b8dd-375864b1fadc","system_id":"levelo_inurba_marseille","lat":43.3199,"lon":5.37202,"is_reserved":false,"is_disabled":false,"rental_uris":{"android":"levelo://app?vid=3ea8f54f-9145-4e7d-b8dd-375864b1fadc","ios":"levelo://app?vid=3ea8f54f-9145-4e7d-b8dd-375864b1fadc"},"vehicle_type_id":"4","last_reported":1726834617,"current_range_meters":14000,"station_id":"","pricing_plan_id":"cebpf4jnsgd1na2vs0mg"},{"bike_id":"80bd2b26-d6d2-4068-a0ac-4254100eb4d7","system_id":"levelo_inurba_marseille","lat":43.286041,"lon":5.351149,"is_reserved":false,"is_disabled":false,"rental_uris":{"android":"levelo://app?vid=80bd2b26-d6d2-4068-a0ac-4254100eb4d7","ios":"levelo://app?vid=80bd2b26-d6d2-4068-a0ac-4254100eb4d7"},"vehicle_type_id":"4","last_reported":1726834617,"current_range_meters":38800,"station_id":"ce4bhch2rcd13ifvqeug","pricing_plan_id":"cebpf4jnsgd1na2vs0mg"},{"bike_id":"75daae73-f01b-4472-bdb7-f1c4ffdff51f","system_id":"levelo_inurba_marseille","lat":43.31367,"lon":5.3852,"is_reserved":false,"is_disabled":false,"rental_uris":{"android":"levelo://app?vid=75daae73-f01b-4472-bdb7-f1c4ffdff51f","ios":"levelo://app?vid=75daae73-f01b-4472-bdb7-f1c4ffdff51f"},"vehicle_type_id":"4","last_reported":1726834617,"current_range_meters":25200,"station_id":"ce4bgt92rcd13ifvqcf0","pricing_plan_id":"cebpf4jnsgd1na2vs0mg"},{"bike_id":"a3e591ca-ddaf-4323-a156-e5d028d61885","system_id":"levelo_inurba_marseille","lat":43.23153,"lon":5.4371,"is_reserved":false,"is_disabled":false,"rental_uris":{"android":"levelo://app?vid=a3e591ca-ddaf-4323-a156-e5d028d61885","ios":"levelo://app?vid=a3e591ca-ddaf-4323-a156-e5d028d61885"},"vehicle_type_id":"4","last_reported":1726834617,"current_range_meters":21600,"station_id":"ce4bhmp2rcd13ifvqgog","pricing_plan_id":"cebpf4jnsgd1na2vs0mg"},{"bike_id":"eaf71e76-3e02-4e2b-b9a9-4424d55f12e3","system_id":"levelo_inurba_marseille","lat":43.29852,"lon":5.36286,"is_reserved":false,"is_disabled":false,"rental_uris":{"android":"levelo://app?vid=eaf71e76-3e02-4e2b-b9a9-4424d55f12e3","ios":"levelo://app?vid=eaf71e76-3e02-4e2b-b9a9-4424d55f12e3"},"vehicle_type_id":"4","last_reported":1726834617,"current_range_meters":26000,"station_id":"ce4bgpp2rcd13ifvqc3g","pricing_plan_id":"cebpf4jnsgd1na2vs0mg"},{"bike_id":"8d040f59-fcc9-40c0-80dc-2159afd0a381","system_id":"levelo_inurba_marseille","lat":43.27376,"lon":5.42715,"is_reserved":false,"is_disabled":false,"rental_uris":{"android":"levelo://app?vid=8d040f59-fcc9-40c0-80dc-2159afd0a381","ios":"levelo://app?vid=8d040f59-fcc9-40c0-80dc-2159afd0a381"},"vehicle_type_id":"4","last_reported":1726834617,"current_range_meters":17200,"station_id":"","pricing_plan_id":"cebpf4jnsgd1na2vs0mg"},{"bike_id":"f4723892-c06a-4785-9026-8bb0fcb8aab9","system_id":"levelo_inurba_marseille","lat":43.27938,"lon":5.38716,"is_reserved":false,"is_disabled":false,"rental_uris":{"android":"levelo://app?vid=f4723892-c06a-4785-9026-8bb0fcb8aab9","ios":"levelo://app?vid=f4723892-c06a-4785-9026-8bb0fcb8aab9"},"vehicle_type_id":"4","last_reported":1726834617,"current_range_meters":36800,"station_id":"ce4bhg12rcd13ifvqf80","pricing_plan_id":"cebpf4jnsgd1na2vs0mg"},{"bike_id":"2d433408-c4de-442f-8ea1-e58b7eb40938","system_id":"levelo_inurba_marseille","lat":43.29916,"lon":5.3747,"is_reserved":false,"is_disabled":false,"rental_uris":{"android":"levelo://app?vid=2d433408-c4de-442f-8ea1-e58b7eb40938","ios":"levelo://app?vid=2d433408-c4de-442f-8ea1-e58b7eb40938"},"vehicle_type_id":"4","last_reported":1726834617,"current_range_meters":17200,"station_id":"ce4bgjh2rcd13ifvqbg0","pricing_plan_id":"cebpf4jnsgd1na2vs0mg"},{"bike_id":"050cac27-3299-4a0f-ab33-25cd1e797f5f","system_id":"levelo_inurba_marseille","lat":43.286509,"lon":5.386444,"is_reserved":false,"is_disabled":false,"rental_uris":{"android":"levelo://app?vid=050cac27-3299-4a0f-ab33-25cd1e797f5f","ios":"levelo://app?vid=050cac27-3299-4a0f-ab33-25cd1e797f5f"},"vehicle_type_id":"4","last_reported":1726834617,"current_range_meters":11600,"station_id":"","pricing_plan_id":"cebpf4jnsgd1na2vs0mg"},{"bike_id":"c2b83eb3-a744-47a1-a55d-c265da7d884e","system_id":"levelo_inurba_marseille","lat":43.31067,"lon":5.38363,"is_reserved":false,"is_disabled":false,"rental_uris":{"android":"levelo://app?vid=c2b83eb3-a744-47a1-a55d-c265da7d884e","ios":"levelo://app?vid=c2b83eb3-a744-47a1-a55d-c265da7d884e"},"vehicle_type_id":"4","last_reported":1726834617,"current_range_meters":33600,"station_id":"ce4bgv92rcd13ifvqcr0","pricing_plan_id":"cebpf4jnsgd1na2vs0mg"},{"bike_id":"397c58c7-0c34-4da4-b03b-a45d803934ed","system_id":"levelo_inurba_marseille","lat":43.308077,"lon":5.381459,"is_reserved":false,"is_disabled":false,"rental_uris":{"android":"levelo://app?vid=397c58c7-0c34-4da4-b03b-a45d803934ed","ios":"levelo://app?vid=397c58c7-0c34-4da4-b03b-a45d803934ed"},"vehicle_type_id":"4","last_reported":1726834617,"current_range_meters":38000,"station_id":"ce4bgt12rcd13ifvqce0","pricing_plan_id":"cebpf4jnsgd1na2vs0mg"},{"bike_id":"54e48df4-f024-4531-8477-5b9e66c3e008","system_id":"levelo_inurba_marseille","lat":43.27126,"lon":5.39237,"is_reserved":false,"is_disabled":false,"rental_uris":{"android":"levelo://app?vid=54e48df4-f024-4531-8477-5b9e66c3e008","ios":"levelo://app?vid=54e48df4-f024-4531-8477-5b9e66c3e008"},"vehicle_type_id":"4","last_reported":1726834617,"current_range_meters":8000,"station_id":"","pricing_plan_id":"cebpf4jnsgd1na2vs0mg"},{"bike_id":"e93c8e7d-b88f-4ef9-87e1-b444c1bd3ced","system_id":"levelo_inurba_marseille","lat":43.31713,"lon":5.43701,"is_reserved":false,"is_disabled":false,"rental_uris":{"android":"levelo://app?vid=e93c8e7d-b88f-4ef9-87e1-b444c1bd3ced","ios":"levelo://app?vid=e93c8e7d-b88f-4ef9-87e1-b444c1bd3ced"},"vehicle_type_id":"4","last_reported":1726834617,"current_range_meters":26000,"station_id":"ce4bhp92rcd13ifvqhcg","pricing_plan_id":"cebpf4jnsgd1na2vs0mg"},{"bike_id":"68159eba-e301-4077-943e-46befe1273f0","system_id":"levelo_inurba_marseille","lat":43.23187,"lon":5.35559,"is_reserved":false,"is_disabled":false,"rental_uris":{"android":"levelo://app?vid=68159eba-e301-4077-943e-46befe1273f0","ios":"levelo://app?vid=68159eba-e301-4077-943e-46befe1273f0"},"vehicle_type_id":"4","last_reported":1726834617,"current_range_meters":33600,"station_id":"ce4bhu92rcd13ifvqi70","pricing_plan_id":"cebpf4jnsgd1na2vs0mg"},{"bike_id":"7d66f339-e9a1-4deb-8e88-576eebb910a0","system_id":"levelo_inurba_marseille","lat":43.31761,"lon":5.39016,"is_reserved":false,"is_disabled":false,"rental_uris":{"android":"levelo://app?vid=7d66f339-e9a1-4deb-8e88-576eebb910a0","ios":"levelo://app?vid=7d66f339-e9a1-4deb-8e88-576eebb910a0"},"vehicle_type_id":"4","last_reported":1726834617,"current_range_meters":7200,"station_id":"ce4bhqp2rcd13ifvqhng","pricing_plan_id":"cebpf4jnsgd1na2vs0mg"},{"bike_id":"a29344e5-4aa4-47f2-b35a-f74d059a7d86","system_id":"levelo_inurba_marseille","lat":43.24171,"lon":5.36402,"is_reserved":false,"is_disabled":false,"rental_uris":{"android":"levelo://app?vid=a29344e5-4aa4-47f2-b35a-f74d059a7d86","ios":"levelo://app?vid=a29344e5-4aa4-47f2-b35a-f74d059a7d86"},"vehicle_type_id":"4","last_reported":1726834617,"current_range_meters":10800,"station_id":"cpo36qri1sfpv3e86is0","pricing_plan_id":"cebpf4jnsgd1na2vs0mg"},{"bike_id":"8945f568-2059-4862-a014-135a24b4f1cf","system_id":"levelo_inurba_marseille","lat":43.27572,"lon":5.38424,"is_reserved":false,"is_disabled":false,"rental_uris":{"android":"levelo://app?vid=8945f568-2059-4862-a014-135a24b4f1cf","ios":"levelo://app?vid=8945f568-2059-4862-a014-135a24b4f1cf"},"vehicle_type_id":"4","last_reported":1726834617,"current_range_meters":10000,"station_id":"ce4bhh92rcd13ifvqfi0","pricing_plan_id":"cebpf4jnsgd1na2vs0mg"},{"bike_id":"e692e5bc-bd12-4d53-9862-9d646dc6564a","system_id":"levelo_inurba_marseille","lat":43.2985,"lon":5.36285,"is_reserved":false,"is_disabled":false,"rental_uris":{"android":"levelo://app?vid=e692e5bc-bd12-4d53-9862-9d646dc6564a","ios":"levelo://app?vid=e692e5bc-bd12-4d53-9862-9d646dc6564a"},"vehicle_type_id":"4","last_reported":1726834617,"current_range_meters":39200,"station_id":"ce4bgpp2rcd13ifvqc3g","pricing_plan_id":"cebpf4jnsgd1na2vs0mg"},{"bike_id":"105b7d49-ac79-4cb1-9a1c-aba841630723","system_id":"levelo_inurba_marseille","lat":43.29937,"lon":5.36552,"is_reserved":false,"is_disabled":false,"rental_uris":{"android":"levelo://app?vid=105b7d49-ac79-4cb1-9a1c-aba841630723","ios":"levelo://app?vid=105b7d49-ac79-4cb1-9a1c-aba841630723"},"vehicle_type_id":"4","last_reported":1726834617,"current_range_meters":38400,"station_id":"ce4bgm92rcd13ifvqbr0","pricing_plan_id":"cebpf4jnsgd1na2vs0mg"},{"bike_id":"0f9e353b-34be-4131-bc94-f528c8afe4b7","system_id":"levelo_inurba_marseille","lat":43.32482,"lon":5.36565,"is_reserved":false,"is_disabled":false,"rental_uris":{"android":"levelo://app?vid=0f9e353b-34be-4131-bc94-f528c8afe4b7","ios":"levelo://app?vid=0f9e353b-34be-4131-bc94-f528c8afe4b7"},"vehicle_type_id":"4","last_reported":1726834617,"current_range_meters":16000,"station_id":"ce4bhs12rcd13ifvqhvg","pricing_plan_id":"cebpf4jnsgd1na2vs0mg"},{"bike_id":"b0ea9129-a863-4fb2-b248-a032c962d202","system_id":"levelo_inurba_marseille","lat":43.3361,"lon":5.41031,"is_reserved":false,"is_disabled":false,"rental_uris":{"android":"levelo://app?vid=b0ea9129-a863-4fb2-b248-a032c962d202","ios":"levelo://app?vid=b0ea9129-a863-4fb2-b248-a032c962d202"},"vehicle_type_id":"4","last_reported":1726834617,"current_range_meters":29600,"station_id":"ce4bhqh2rcd13ifvqhmg","pricing_plan_id":"cebpf4jnsgd1na2vs0mg"},{"bike_id":"e1376f16-a5d8-48aa-8614-ffc2459e8d14","system_id":"levelo_inurba_marseille","lat":43.25112,"lon":5.4032,"is_reserved":false,"is_disabled":false,"rental_uris":{"android":"levelo://app?vid=e1376f16-a5d8-48aa-8614-ffc2459e8d14","ios":"levelo://app?vid=e1376f16-a5d8-48aa-8614-ffc2459e8d14"},"vehicle_type_id":"4","last_reported":1726834617,"current_range_meters":38800,"station_id":"ce4bhlh2rcd13ifvqgig","pricing_plan_id":"cebpf4jnsgd1na2vs0mg"},{"bike_id":"b73c5253-7433-4327-aa97-ce54e4a8ea23","system_id":"levelo_inurba_marseille","lat":43.291432,"lon":5.370357,"is_reserved":false,"is_disabled":false,"rental_uris":{"android":"levelo://app?vid=b73c5253-7433-4327-aa97-ce54e4a8ea23","ios":"levelo://app?vid=b73c5253-7433-4327-aa97-ce54e4a8ea23"},"vehicle_type_id":"4","last_reported":1726834617,"current_range_meters":7200,"station_id":"ce4bha92rcd13ifvqeh0","pricing_plan_id":"cebpf4jnsgd1na2vs0mg"},{"bike_id":"098fffd9-3fc4-4542-991b-d71644089706","system_id":"levelo_inurba_marseille","lat":43.26958,"lon":5.38628,"is_reserved":false,"is_disabled":false,"rental_uris":{"android":"levelo://app?vid=098fffd9-3fc4-4542-991b-d71644089706","ios":"levelo://app?vid=098fffd9-3fc4-4542-991b-d71644089706"},"vehicle_type_id":"4","last_reported":1726834617,"current_range_meters":22800,"station_id":"ce4bhh92rcd13ifvqfh0","pricing_plan_id":"cebpf4jnsgd1na2vs0mg"},