{"last_updated":1715969372,"ttl":30,"version":"2.2","data":{"bikes":[{"bike_id":"3bed0875-3247-4df3-8c20-889024f6d96e","system_id":"levelo_inurba_marseille","lat":43.314811,"lon":5.373104,"is_reserved":false,"is_disabled":false,"rental_uris":{"android":"levelo://app?vid=3bed0875-3247-4df3-8c20-889024f6d96e","ios":"levelo://app?vid=3bed0875-3247-4df3-8c20-889024f6d96e"},"vehicle_type_id":"4","last_reported":1715969372,"current_range_meters":0,"station_id":"ce4bgt12rcd13ifvqcd0","pricing_plan_id":"cebpf4jnsgd1na2vs0mg"},{"bike_id":"5302de32-1aea-4593-8bcb-ebee7484e820","system_id":"levelo_inurba_marseille","lat":43.309039,"lon":5.371797,"is_reserved":false,"is_disabled":false,"rental_uris":{"android":"levelo://app?vid=5302de32-1aea-4593-8bcb-ebee7484e820","ios":"levelo://app?vid=5302de32-1aea-4593-8bcb-ebee7484e820"},"vehicle_type_id":"4","last_reported":1715969372,"current_range_meters":24800,"station_id":"ce4bguh2rcd13ifvqckg","pricing_plan_id":"cebpf4jnsgd1na2vs0mg"},{"bike_id":"2e5d9239-07f5-4b9f-869f-49898ade6bdb","system_id":"levelo_inurba_marseille","lat":43.309039,"lon":5.371797,"is_reserved":false,"is_disabled":false,"rental_uris":{"android":"levelo://app?vid=2e5d9239-07f5-4b9f-869f-49898ade6bdb","ios":"levelo://app?vid=2e5d9239-07f5-4b9f-869f-49898ade6bdb"},"vehicle_type_id":"4","last_reported":1715969372,"current_range_meters":800,"station_id":"ce4bguh2rcd13ifvqckg","pricing_plan_id":"cebpf4jnsgd1na2vs0mg"},{"bike_id":"5c1e11bd-05b7-4490-8aa8-af8fa5c7c4ae","system_id":"levelo_inurba_marseille","lat":43.309034,"lon":5.371783,"is_reserved":false,"is_disabled":false,"rental_uris":{"android":"levelo://app?vid=5c1e11bd-05b7-4490-8aa8-af8fa5c7c4ae","ios":"levelo://app?vid=5c1e11bd-05b7-4490-8aa8-af8fa5c7c4ae"},"vehicle_type_id":"4","last_reported":1715969372,"current_range_meters":2800,"station_id":"ce4bguh2rcd13ifvqckg","pricing_plan_id":"cebpf4jnsgd1na2vs0mg"},{"bike_id":"04745aa2-aa6c-4e8e-b2af-2db8911d80b9","system_id":"levelo_inurba_marseille","lat":43.305368,"lon":5.367343,"is_reserved":false,"is_disabled":false,"rental_uris":{"android":"levelo://app?vid=04745aa2-aa6c-4e8e-b2af-2db8911d80b9","ios":"levelo://app?vid=04745aa2-aa6c-4e8e-b2af-2db8911d80b9"},"vehicle_type_id":"4","last_reported":1715969372,"current_range_meters":17200,"station_id":"ce4bgrp2rcd13ifvqc9g","pricing_plan_id":"cebpf4jnsgd1na2vs0mg"},{"bike_id":"39bf3e66-a9a4-43d9-86f3-479ca8af755a","system_id":"levelo_inurba_marseille","lat":43.311125,"lon":5.377624,"is_reserved":false,"is_disabled":false,"rental_uris":{"android":"levelo://app?vid=39bf3e66-a9a4-43d9-86f3-479ca8af755a","ios":"levelo://app?vid=39bf3e66-a9a4-43d9-86f3-479ca8af755a"},"vehicle_type_id":"4","last_reported":1715969372,"current_range_meters":13200,"station_id":"ce4bgt92rcd13ifvqcg0","pricing_plan_id":"cebpf4jnsgd1na2vs0mg"},{"bike_id":"286707eb-1697-4a6d-8d82-a4e69ccca9bd","system_id":"levelo_inurba_marseille","lat":43.317075,"lon":5.377367,"is_reserved":false,"is_disabled":false,"rental_uris":{"android":"levelo://app?vid=286707eb-1697-4a6d-8d82-a4e69ccca9bd","ios":"levelo://app?vid=286707eb-1697-4a6d-8d82-a4e69ccca9bd"},"vehicle_type_id":"4","last_reported":1715969372,"current_range_meters":25200,"station_id":"ce4bgth2rcd13ifvqch0","pricing_plan_id":"cebpf4jnsgd1na2vs0mg"},{"bike_id":"a18a277c-3764-47f2-ae7c-9ab1353cf1a8","system_id":"levelo_inurba_marseille","lat":43.307848,"lon":5.376483,"is_reserved":false,"is_disabled":false,"rental_uris":{"android":"levelo://app?vid=a18a277c-3764-47f2-ae7c-9ab1353cf1a8","ios":"levelo://app?vid=a18a277c-3764-47f2-ae7c-9ab1353cf1a8"},"vehicle_type_id":"4","last_reported":1715969372,"current_range_meters":0,"station_id":"ce4bgv92rcd13ifvqcq0","pricing_plan_id":"cebpf4jnsgd1na2vs0mg"},{"bike_id":"f673e677-d4c8-421e-9042-9eff9f34ccae","system_id":"levelo_inurba_marseille","lat":43.317075,"lon":5.377367,"is_reserved":false,"is_disabled":false,"rental_uris":{"android":"levelo://app?vid=f673e677-d4c8-421e-9042-9eff9f34ccae","ios":"levelo://app?vid=f673e677-d4c8-421e-9042-9eff9f34ccae"},"vehicle_type_id":"4","last_reported":1715969372,"current_range_meters":0,"station_id":"ce4bgth2rcd13ifvqch0","pricing_plan_id":"cebpf4jnsgd1na2vs0mg"},{"bike_id":"4003d8fb-0a10-4128-a977-753448a5ddb7","system_id":"levelo_inurba_marseille","lat":43.317027,"lon":5.377316,"is_reserved":false,"is_disabled":false,"rental_uris":{"android":"levelo://app?vid=4003d8fb-0a10-4128-a977-753448a5ddb7","ios":"levelo://app?vid=4003d8fb-0a10-4128-a977-753448a5ddb7"},"vehicle_type_id":"4","last_reported":1715969372,"current_range_meters":12800,"station_id":"ce4bgth2rcd13ifvqch0","pricing_plan_id":"cebpf4jnsgd1na2vs0mg"},{"bike_id":"2ca93583-f8ef-4cab-b63b-0bd60cf56f8d","system_id":"levelo_inurba_marseille","lat":43.317075,"lon":5.377367,"is_reserved":false,"is_disabled":false,"rental_uris":{"android":"levelo://app?vid=2ca93583-f8ef-4cab-b63b-0bd60cf56f8d","ios":"levelo://app?vid=2ca93583-f8ef-4cab-b63b-0bd60cf56f8d"},"vehicle_type_id":"4","last_reported":1715969372,"current_range_meters":14800,"station_id":"ce4bgth2rcd13ifvqch0","pricing_plan_id":"cebpf4jnsgd1na2vs0mg"},{"bike_id":"ccecdaee-dcfc-495f-b201-275903d7e8cb","system_id":"levelo_inurba_marseille","lat":43.317075,"lon":5.377367,"is_reserved":false,"is_disabled":false,"rental_uris":{"android":"levelo://app?vid=ccecdaee-dcfc-495f-b201-275903d7e8cb","ios":"levelo://app?vid=ccecdaee-dcfc-495f-b201-275903d7e8cb"},"vehicle_type_id":"4","last_reported":1715969372,"current_range_meters":6000,"station_id":"ce4bgth2rcd13ifvqch0","pricing_plan_id":"cebpf4jnsgd1na2vs0mg"},{"bike_id":"7fd8c90c-38e8-4e0d-bbd5-57107c6cbd4b","system_id":"levelo_inurba_marseille","lat":43.317056,"lon":5.377508,"is_reserved":false,"is_disabled":false,"rental_uris":{"android":"levelo://app?vid=7fd8c90c-38e8-4e0d-bbd5-57107c6cbd4b","ios":"levelo://app?vid=7fd8c90c-38e8-4e0d-bbd5-57107c6cbd4b"},"vehicle_type_id":"4","last_reported":1715969372,"current_range_meters":1600,"station_id":"ce4bgth2rcd13ifvqch0","pricing_plan_id":"cebpf4jnsgd1na2vs0mg"},{"bike_id":"0e8a560e-438f-4f06-b034-2973d6ab4faa","system_id":"levelo_inurba_marseille","lat":43.317075,"lon":5.377367,"is_reserved":false,"is_disabled":false,"rental_uris":{"android":"levelo://app?vid=0e8a560e-438f-4f06-b034-2973d6ab4faa","ios":"levelo://app?vid=0e8a560e-438f-4f06-b034-2973d6ab4faa"},"vehicle_type_id":"4","last_reported":1715969372,"current_range_meters":30400,"station_id":"ce4bgth2rcd13ifvqch0","pricing_plan_id":"cebpf4jnsgd1na2vs0mg"},{"bike_id":"b4b647a8-9c7a-4f2c-9f7c-0416d1006265","system_id":"levelo_inurba_marseille","lat":43.317075,"lon":5.377367,"is_reserved":false,"is_disabled":false,"rental_uris":{"android":"levelo://app?vid=b4b647a8-9c7a-4f2c-9f7c-0416d1006265","ios":"levelo://app?vid=b4b647a8-9c7a-4f2c-9f7c-0416d1006265"},"vehicle_type_id":"4","last_reported":1715969372,"current_range_meters":29200,"station_id":"ce4bgth2rcd13ifvqch0","pricing_plan_id":"cebpf4jnsgd1na2vs0mg"},{"bike_id":"a634758a-cbbd-4530-981f-9202c7b1fb54","system_id":"levelo_inurba_marseille","lat":43.317095,"lon":5.37756,"is_reserved":false,"is_disabled":false,"rental_uris":{"android":"levelo://app?vid=a634758a-cbbd-4530-981f-9202c7b1fb54","ios":"levelo://app?vid=a634758a-cbbd-4530-981f-9202c7b1fb54"},"vehicle_type_id":"4","last_reported":1715969372,"current_range_meters":18000,"station_id":"ce4bgth2rcd13ifvqch0","pricing_plan_id":"cebpf4jnsgd1na2vs0mg"},{"bike_id":"10f35097-2643-4e5e-a8b9-c09f86f89747","system_id":"levelo_inurba_marseille","lat":43.317075,"lon":5.377367,"is_reserved":false,"is_disabled":false,"rental_uris":{"android":"levelo://app?vid=10f35097-2643-4e5e-a8b9-c09f86f89747","ios":"levelo://app?vid=10f35097-2643-4e5e-a8b9-c09f86f89747"},"vehicle_type_id":"4","last_reported":1715969372,"current_range_meters":26000,"station_id":"ce4bgth2rcd13ifvqch0","pricing_plan_id":"cebpf4jnsgd1na2vs0mg"},{"bike_id":"50771f63-9df0-4590-bcf5-c8161979273c","system_id":"levelo_inurba_marseille","lat":43.31703,"lon":5.37766,"is_reserved":false,"is_disabled":false,"rental_uris":{"android":"levelo://app?vid=50771f63-9df0-4590-bcf5-c8161979273c","ios":"levelo://app?vid=50771f63-9df0-4590-bcf5-c8161979273c"},"vehicle_type_id":"4","last_reported":1715969372,"current_range_meters":8800,"station_id":"ce4bgth2rcd13ifvqch0","pricing_plan_id":"cebpf4jnsgd1na2vs0mg"},{"bike_id":"3188de10-a512-48c3-a15c-0ac300408b43","system_id":"levelo_inurba_marseille","lat":43.3171,"lon":5.37761,"is_reserved":false,"is_disabled":false,"rental_uris":{"android":"levelo://app?vid=3188de10-a512-48c3-a15c-0ac300408b43","ios":"levelo://app?vid=3188de10-a512-48c3-a15c-0ac300408b43"},"vehicle_type_id":"4","last_reported":1715969372,"current_range_meters":0,"station_id":"ce4bgth2rcd13ifvqch0","pricing_plan_id":"cebpf4jnsgd1na2vs0mg"},{"bike_id":"50ef0be6-797c-4899-9470-19337badfb4f","system_id":"levelo_inurba_marseille","lat":43.3171,"lon":5.377618,"is_reserved":false,"is_disabled":false,"rental_uris":{"android":"levelo://app?vid=50ef0be6-797c-4899-9470-19337badfb4f","ios":"levelo://app?vid=50ef0be6-797c-4899-9470-19337badfb4f"},"vehicle_type_id":"4","last_reported":1715969372,"current_range_meters":12000,"station_id":"ce4bgth2rcd13ifvqch0","pricing_plan_id":"cebpf4jnsgd1na2vs0mg"},{"bike_id":"84b12753-80bf-47af-9502-f8e46524e089","system_id":"levelo_inurba_marseille","lat":43.3171,"lon":5.377677,"is_reserved":false,"is_disabled":false,"rental_uris":{"android":"levelo://app?vid=84b12753-80bf-47af-9502-f8e46524e089","ios":"levelo://app?vid=84b12753-80bf-47af-9502-f8e46524e089"},"vehicle_type_id":"4","last_reported":1715969372,"current_range_meters":5600,"station_id":"ce4bgth2rcd13ifvqch0","pricing_plan_id":"cebpf4jnsgd1na2vs0mg"},{"bike_id":"8f27c077-d665-425b-add9-d6c91fcb627b","system_id":"levelo_inurba_marseille","lat":43.30304,"lon":5.368987,"is_reserved":false,"is_disabled":false,"rental_uris":{"android":"levelo://app?vid=8f27c077-d665-425b-add9-d6c91fcb627b","ios":"levelo://app?vid=8f27c077-d665-425b-add9-d6c91fcb627b"},"vehicle_type_id":"4","last_reported":1715969372,"current_range_meters":16400,"station_id":"ce4bgqh2rcd13ifvqc5g","pricing_plan_id":"cebpf4jnsgd1na2vs0mg"},{"bike_id":"f7c4e49b-2c75-4bc4-a1c7-586006f157b4","system_id":"levelo_inurba_marseille","lat":43.30304,"lon":5.368987,"is_reserved":false,"is_disabled":false,"rental_uris":{"android":"levelo://app?vid=f7c4e49b-2c75-4bc4-a1c7-586006f157b4","ios":"levelo://app?vid=f7c4e49b-2c75-4bc4-a1c7-586006f157b4"},"vehicle_type_id":"4","last_reported":1715969372,"current_range_meters":0,"station_id":"ce4bgqh2rcd13ifvqc5g","pricing_plan_id":"cebpf4jnsgd1na2vs0mg"},{"bike_id":"1f1171c8-953e-4666-bc8c-8eae3a88fa0a","system_id":"levelo_inurba_marseille","lat":43.315221,"lon":5.38037,"is_reserved":false,"is_disabled":false,"rental_uris":{"android":"levelo://app?vid=1f1171c8-953e-4666-bc8c-8eae3a88fa0a","ios":"levelo://app?vid=1f1171c8-953e-4666-bc8c-8eae3a88fa0a"},"vehicle_type_id":"4","last_reported":1715969372,"current_range_meters":20000,"station_id":"ce4bhsp2rcd13ifvqi50","pricing_plan_id":"cebpf4jnsgd1na2vs0mg"},{"bike_id":"30513bfa-5a9b-4be6-941d-da49323aac4e","system_id":"levelo_inurba_marseille","lat":43.315293,"lon":5.380349,"is_reserved":false,"is_disabled":false,"rental_uris":{"android":"levelo://app?vid=30513bfa-5a9b-4be6-941d-da49323aac4e","ios":"levelo://app?vid=30513bfa-5a9b-4be6-941d-da49323aac4e"},"vehicle_type_id":"4","last_reported":1715969372,"current_range_meters":0,"station_id":"ce4bhsp2rcd13ifvqi50","pricing_plan_id":"cebpf4jnsgd1na2vs0mg"},{"bike_id":"34e0707d-12fc-4ae9-908c-64a4d4a7e51f","system_id":"levelo_inurba_marseille","lat":43.315293,"lon":5.380349,"is_reserved":false,"is_disabled":false,"rental_uris":{"android":"levelo://app?vid=34e0707d-12fc-4ae9-908c-64a4d4a7e51f","ios":"levelo://app?vid=34e0707d-12fc-4ae9-908c-64a4d4a7e51f"},"vehicle_type_id":"4","last_reported":1715969372,"current_range_meters":30400,"station_id":"ce4bhsp2rcd13ifvqi50","pricing_plan_id":"cebpf4jnsgd1na2vs0mg"},{"bike_id":"6b6d2c70-4b9a-4076-b242-ba634e5f6b4f","system_id":"levelo_inurba_marseille","lat":43.30802,"lon":5.38154,"is_reserved":false,"is_disabled":false,"rental_uris":{"android":"levelo://app?vid=6b6d2c70-4b9a-4076-b242-ba634e5f6b4f","ios":"levelo://app?vid=6b6d2c70-4b9a-4076-b242-ba634e5f6b4f"},"vehicle_type_id":"4","last_reported":1715969372,"current_range_meters":0,"station_id":"ce4bgt12rcd13ifvqce0","pricing_plan_id":"cebpf4jnsgd1na2vs0mg"},{"bike_id":"1765f597-2164-44a1-a012-1772df26e916","system_id":"levelo_inurba_marseille","lat":43.304606,"lon":5.379026,"is_reserved":false,"is_disabled":false,"rental_uris":{"android":"levelo://app?vid=1765f597-2164-44a1-a012-1772df26e916","ios":"levelo://app?vid=1765f597-2164-44a1-a012-1772df26e916"},"vehicle_type_id":"4","last_reported":1715969372,"current_range_meters":2800,"station_id":"ce4bgup2rcd13ifvqcn0","pricing_plan_id":"cebpf4jnsgd1na2vs0mg"},{"bike_id":"6ac5d28d-503b-42dd-93e4-dbb0645f2c8c","system_id":"levelo_inurba_marseille","lat":43.304606,"lon":5.379026,"is_reserved":false,"is_disabled":false,"rental_uris":{"android":"levelo://app?vid=6ac5d28d-503b-42dd-93e4-dbb0645f2c8c","ios":"levelo://app?vid=6ac5d28d-503b-42dd-93e4-dbb0645f2c8c"},"vehicle_type_id":"4","last_reported":1715969372,"current_range_meters":1600,"station_id":"ce4bgup2rcd13ifvqcn0","pricing_plan_id":"cebpf4jnsgd1na2vs0mg"},{"bike_id":"c53bd10d-b041-41ad-9b09-85b50edbaf1d","system_id":"levelo_inurba_marseille","lat":43.310804,"lon":5.38359,"is_reserved":false,"is_disabled":false,"rental_uris":{"android":"levelo://app?vid=c53bd10d-b041-41ad-9b09-85b50edbaf1d","ios":"levelo://app?vid=c53bd10d-b041-41ad-9b09-85b50edbaf1d"},"vehicle_type_id":"4","last_reported":1715969372,"current_range_meters":12000,"station_id":"ce4bgv92rcd13ifvqcr0","pricing_plan_id":"cebpf4jnsgd1na2vs0mg"},{"bike_id":"5e1f1357-eb41-4fb1-aac5-28c78f4b1386","system_id":"levelo_inurba_marseille","lat":43.310804,"lon":5.38359,"is_reserved":false,"is_disabled":false,"rental_uris":{"android":"levelo://app?vid=5e1f1357-eb41-4fb1-aac5-28c78f4b1386","ios":"levelo://app?vid=5e1f1357-eb41-4fb1-aac5-28c78f4b1386"},"vehicle_type_id":"4","last_reported":1715969372,"current_range_meters":24800,"station_id":"ce4bgv92rcd13ifvqcr0","pricing_plan_id":"cebpf4jnsgd1na2vs0mg"},{"bike_id":"63d51bcd-c301-45da-84a1-387d3953650a","system_id":"levelo_inurba_marseille","lat":43.310804,"lon":5.38359,"is_reserved":false,"is_disabled":false,"rental_uris":{"android":"levelo://app?vid=63d51bcd-c301-45da-84a1-387d3953650a","ios":"levelo://app?vid=63d51bcd-c301-45da-84a1-387d3953650a"},"vehicle_type_id":"4","last_reported":1715969372,"current_range_meters":14800,"station_id":"ce4bgv92rcd13ifvqcr0","pricing_plan_id":"cebpf4jnsgd1na2vs0mg"},{"bike_id":"f879038e-7797-42a7-a2a6-1f589144ef45","system_id":"levelo_inurba_marseille","lat":43.313571,"lon":5.384829,"is_reserved":false,"is_disabled":false,"rental_uris":{"android":"levelo://app?vid=f879038e-7797-42a7-a2a6-1f589144ef45","ios":"levelo://app?vid=f879038e-7797-42a7-a2a6-1f589144ef45"},"vehicle_type_id":"4","last_reported":1715969372,"current_range_meters":23200,"station_id":"ce4bgt92rcd13ifvqcf0","pricing_plan_id":"cebpf4jnsgd1na2vs0mg"},{"bike_id":"00ab6d0f-17dd-4fda-b4b3-0e63c2d2666b","system_id":"levelo_inurba_marseille","lat":43.313571,"lon":5.384829,"is_reserved":false,"is_disabled":false,"rental_uris":{"android":"levelo://app?vid=00ab6d0f-17dd-4fda-b4b3-0e63c2d2666b","ios":"levelo://app?vid=00ab6d0f-17dd-4fda-b4b3-0e63c2d2666b"},"vehicle_type_id":"4","last_reported":1715969372,"current_range_meters":9200,"station_id":"ce4bgt92rcd13ifvqcf0","pricing_plan_id":"cebpf4jnsgd1na2vs0mg"},{"bike_id":"8b5ad5dc-9f4d-4e31-ac16-22f24ce4456d","system_id":"levelo_inurba_marseille","lat":43.313571,"lon":5.384829,"is_reserved":false,"is_disabled":false,"rental_uris":{"android":"levelo://app?vid=8b5ad5dc-9f4d-4e31-ac16-22f24ce4456d","ios":"levelo://app?vid=8b5ad5dc-9f4d-4e31-ac16-22f24ce4456d"},"vehicle_type_id":"4","last_reported":1715969372,"current_range_meters":19600,"station_id":"ce4bgt92rcd13ifvqcf0","pricing_plan_id":"cebpf4jnsgd1na2vs0mg"},{"bike_id":"7fef7358-7801-455f-b25f-29e648ab744d","system_id":"levelo_inurba_marseille","lat":43.313571,"lon":5.384829,"is_reserved":false,"is_disabled":false,"rental_uris":{"android":"levelo://app?vid=7fef7358-7801-455f-b25f-29e648ab744d","ios":"levelo://app?vid=7fef7358-7801-455f-b25f-29e648ab744d"},"vehicle_type_id":"4","last_reported":1715969372,"current_range_meters":0,"station_id":"ce4bgt92rcd13ifvqcf0","pricing_plan_id":"cebpf4jnsgd1na2vs0mg"},{"bike_id":"c2c6dd62-c5e2-47a1-83bd-bc85439c4f49","system_id":"levelo_inurba_marseille","lat":43.313571,"lon":5.384829,"is_reserved":false,"is_disabled":false,"rental_uris":{"android":"levelo://app?vid=c2c6dd62-c5e2-47a1-83bd-bc85439c4f49","ios":"levelo://app?vid=c2c6dd62-c5e2-47a1-83bd-bc85439c4f49"},"vehicle_type_id":"4","last_reported":1715969372,"current_range_meters":10400,"station_id":"ce4bgt92rcd13ifvqcf0","pricing_plan_id":"cebpf4jnsgd1na2vs0mg"},{"bike_id":"f653286e-820e-403c-bc5d-a1a60ccb5403","system_id":"levelo_inurba_marseille","lat":43.313571,"lon":5.384829,"is_reserved":false,"is_disabled":false,"rental_uris":{"android":"levelo://app?vid=f653286e-820e-403c-bc5d-a1a60ccb5403","ios":"levelo://app?vid=f653286e-820e-403c-bc5d-a1a60ccb5403"},"vehicle_type_id":"4","last_reported":1715969372,"current_range_meters":16000,"station_id":"ce4bgt92rcd13ifvqcf0","pricing_plan_id":"cebpf4jnsgd1na2vs0mg"},{"bike_id":"b3a47ff0-94d1-49d5-8937-d0e6aaec1ea2","system_id":"levelo_inurba_marseille","lat":43.313571,"lon":5.384829,"is_reserved":false,"is_disabled":false,"rental_uris":{"android":"levelo://app?vid=b3a47ff0-94d1-49d5-8937-d0e6aaec1ea2","ios":"levelo://app?vid=b3a47ff0-94d1-49d5-8937-d0e6aaec1ea2"},"vehicle_type_id":"4","last_reported":1715969372,"current_range_meters":0,"station_id":"ce4bgt92rcd13ifvqcf0","pricing_plan_id":"cebpf4jnsgd1na2vs0mg"},{"bike_id":"3161ccec-31b4-426a-90c9-468cc1eefbee","system_id":"levelo_inurba_marseille","lat":43.299724,"lon":5.371829,"is_reserved":false,"is_disabled":false,"rental_uris":{"android":"levelo://app?vid=3161ccec-31b4-426a-90c9-468cc1eefbee","ios":"levelo://app?vid=3161ccec-31b4-426a-90c9-468cc1eefbee"},"vehicle_type_id":"4","last_reported":1715969372,"current_range_meters":0,"station_id":"ce4bgr92rcd13ifvqc7g","pricing_plan_id":"cebpf4jnsgd1na2vs0mg"},{"bike_id":"d97b0625-0a1a-4d6c-b2f4-ddd5cb5e103a","system_id":"levelo_inurba_marseille","lat":43.29939,"lon":5.36538,"is_reserved":false,"is_disabled":false,"rental_uris":{"android":"levelo://app?vid=d97b0625-0a1a-4d6c-b2f4-ddd5cb5e103a","ios":"levelo://app?vid=d97b0625-0a1a-4d6c-b2f4-ddd5cb5e103a"},"vehicle_type_id":"4","last_reported":1715969372,"current_range_meters":17200,"station_id":"ce4bgm92rcd13ifvqbr0","pricing_plan_id":"cebpf4jnsgd1na2vs0mg"},{"bike_id":"ed89f902-0206-4e1a-8580-8627035dc381","system_id":"levelo_inurba_marseille","lat":43.299222,"lon":5.365554,"is_reserved":false,"is_disabled":false,"rental_uris":{"android":"levelo://app?vid=ed89f902-0206-4e1a-8580-8627035dc381","ios":"levelo://app?vid=ed89f902-0206-4e1a-8580-8627035dc381"},"vehicle_type_id":"4","last_reported":1715969372,"current_range_meters":10400,"station_id":"ce4bgm92rcd13ifvqbr0","pricing_plan_id":"cebpf4jnsgd1na2vs0mg"},{"bike_id":"2cb4e30d-b308-4ccb-8a80-c52005cff69d","system_id":"levelo_inurba_marseille","lat":43.299222,"lon":5.365554,"is_reserved":false,"is_disabled":false,"rental_uris":{"android":"levelo://app?vid=2cb4e30d-b308-4ccb-8a80-c52005cff69d","ios":"levelo://app?vid=2cb4e30d-b308-4ccb-8a80-c52005cff69d"},"vehicle_type_id":"4","last_reported":1715969372,"current_range_meters":21600,"station_id":"ce4bgm92rcd13ifvqbr0","pricing_plan_id":"cebpf4jnsgd1na2vs0mg"},{"bike_id":"109e04b6-b4ba-4c28-90bb-2807d4763be8","system_id":"levelo_inurba_marseille","lat":43.299724,"lon":5.371829,"is_reserved":false,"is_disabled":false,"rental_uris":{"android":"levelo://app?vid=109e04b6-b4ba-4c28-90bb-2807d4763be8","ios":"levelo://app?vid=109e04b6-b4ba-4c28-90bb-2807d4763be8"},"vehicle_type_id":"4","last_reported":1715969372,"current_range_meters":3600,"station_id":"ce4bgr92rcd13ifvqc7g","pricing_plan_id":"cebpf4jnsgd1na2vs0mg"},{"bike_id":"10d889f1-c56f-4446-aa37-c51f86fe6ae3","system_id":"levelo_inurba_marseille","lat":43.299222,"lon":5.365554,"is_reserved":false,"is_disabled":false,"rental_uris":{"android":"levelo://app?vid=10d889f1-c56f-4446-aa37-c51f86fe6ae3","ios":"levelo://app?vid=10d889f1-c56f-4446-aa37-c51f86fe6ae3"},"vehicle_type_id":"4","last_reported":1715969372,"current_range_meters":6400,"station_id":"ce4bgm92rcd13ifvqbr0","pricing_plan_id":"cebpf4jnsgd1na2vs0mg"},{"bike_id":"561ab8e5-8ec1-4b26-8a93-b4493c7d80d7","system_id":"levelo_inurba_marseille","lat":43.299222,"lon":5.365554,"is_reserved":false,"is_disabled":false,"rental_uris":{"android":"levelo://app?vid=561ab8e5-8ec1-4b26-8a93-b4493c7d80d7","ios":"levelo://app?vid=561ab8e5-8ec1-4b26-8a93-b4493c7d80d7"},"vehicle_type_id":"4","last_reported":1715969372,"current_range_meters":23600,"station_id":"ce4bgm92rcd13ifvqbr0","pricing_plan_id":"cebpf4jnsgd1na2vs0mg"},{"bike_id":"567d4b0e-a816-4370-a6da-65001a47644f","system_id":"levelo_inurba_marseille","lat":43.299724,"lon":5.371829,"is_reserved":false,"is_disabled":false,"rental_uris":{"android":"levelo://app?vid=567d4b0e-a816-4370-a6da-65001a47644f","ios":"levelo://app?vid=567d4b0e-a816-4370-a6da-65001a47644f"},"vehicle_type_id":"4","last_reported":1715969372,"current_range_meters":6400,"station_id":"ce4bgr92rcd13ifvqc7g","pricing_plan_id":"cebpf4jnsgd1na2vs0mg"},{"bike_id":"9615d2bb-b802-417f-901b-fbd6de41ca6a","system_id":"levelo_inurba_marseille","lat":43.299209,"lon":5.365547,"is_reserved":false,"is_disabled":false,"rental_uris":{"android":"levelo://app?vid=9615d2bb-b802-417f-901b-fbd6de41ca6a","ios":"levelo://app?vid=9615d2bb-b802-417f-901b-fbd6de41ca6a"},"vehicle_type_id":"4","last_reported":1715969372,"current_range_meters":20400,"station_id":"ce4bgm92rcd13ifvqbr0","pricing_plan_id":"cebpf4jnsgd1na2vs0mg"},{"bike_id":"99b4f3cf-a16f-4cca-b5ef-67e972ae6865","system_id":"levelo_inurba_marseille","lat":43.302784,"lon":5.377158,"is_reserved":false,"is_disabled":false,"rental_uris":{"android":"levelo://app?vid=99b4f3cf-a16f-4cca-b5ef-67e972ae6865","ios":"levelo://app?vid=99b4f3cf-a16f-4cca-b5ef-67e972ae6865"},"vehicle_type_id":"4","last_reported":1715969372,"current_range_meters":31200,"station_id":"ce4bguh2rcd13ifvqcj0","pricing_plan_id":"cebpf4jnsgd1na2vs0mg"},{"bike_id":"56065bac-ea58-47e1-9e95-e50f14571014","system_id":"levelo_inurba_marseille","lat":43.298524,"lon":5.362904,"is_reserved":false,"is_disabled":false,"rental_uris":{"android":"levelo://app?vid=56065bac-ea58-47e1-9e95-e50f14571014","ios":"levelo://app?vid=56065bac-ea58-47e1-9e95-e50f14571014"},"vehicle_type_id":"4","last_reported":1715969372,"current_range_meters":12400,"station_id":"ce4bgpp2rcd13ifvqc3g","pricing_plan_id":"cebpf4jnsgd1na2vs0mg"},{"bike_id":"f21bcc49-c246-4ffd-a17c-8520cdfbfcab","system_id":"levelo_inurba_marseille","lat":43.298433,"lon":5.362774,"is_reserved":false,"is_disabled":false,"rental_uris":{"android":"levelo://app?vid=f21bcc49-c246-4ffd-a17c-8520cdfbfcab","ios":"levelo://app?vid=f21bcc49-c246-4ffd-a17c-8520cdfbfcab"},"vehicle_type_id":"4","last_reported":1715969372,"current_range_meters":30000,"station_id":"ce4bgpp2rcd13ifvqc3g","pricing_plan_id":"cebpf4jnsgd1na2vs0mg"},{"bike_id":"7aedc2c3-7049-43c4-a169-7d8da3715918","system_id":"levelo_inurba_marseille","lat":43.298433,"lon":5.362774,"is_reserved":false,"is_disabled":false,"rental_uris":{"android":"levelo://app?vid=7aedc2c3-7049-43c4-a169-7d8da3715918","ios":"levelo://app?vid=7aedc2c3-7049-43c4-a169-7d8da3715918"},"vehicle_type_id":"4","last_reported":1715969372,"current_range_meters":17200,"station_id":"ce4bgpp2rcd13ifvqc3g","pricing_plan_id":"cebpf4jnsgd1na2vs0mg"},{"bike_id":"b38f5ad2-15be-4da2-8ddf-2803d46b1944","system_id":"levelo_inurba_marseille","lat":43.298433,"lon":5.362774,"is_reserved":false,"is_disabled":false,"rental_uris":{"android":"levelo://app?vid=b38f5ad2-15be-4da2-8ddf-2803d46b1944","ios":"levelo://app?vid=b38f5ad2-15be-4da2-8ddf-2803d46b1944"},"vehicle_type_id":"4","last_reported":1715969372,"current_range_meters":30400,"station_id":"ce4bgpp2rcd13ifvqc3g","pricing_plan_id":"cebpf4jnsgd1na2vs0mg"},{"bike_id":"9193da10-3bd0-483f-af0a-7666943e5c3d","system_id":"levelo_inurba_marseille","lat":43.299243,"lon":5.37481,"is_reserved":false,"is_disabled":false,"rental_uris":{"android":"levelo://app?vid=9193da10-3bd0-483f-af0a-7666943e5c3d","ios":"levelo://app?vid=9193da10-3bd0-483f-af0a-7666943e5c3d"},"vehicle_type_id":"4","last_reported":1715969372,"current_range_meters":22800,"station_id":"ce4bgjh2rcd13ifvqbg0","pricing_plan_id":"cebpf4jnsgd1na2vs0mg"},{"bike_id":"a8420d12-5ea1-4553-ba77-74153419b9a1","system_id":"levelo_inurba_marseille","lat":43.305364,"lon":5.384119,"is_reserved":false,"is_disabled":false,"rental_uris":{"android":"levelo://app?vid=a8420d12-5ea1-4553-ba77-74153419b9a1","ios":"levelo://app?vid=a8420d12-5ea1-4553-ba77-74153419b9a1"},"vehicle_type_id":"4","last_reported":1715969372,"current_range_meters":30000,"station_id":"ce4bgg92rcd13ifvqb30","pricing_plan_id":"cebpf4jnsgd1na2vs0mg"},{"bike_id":"0c4eb777-e5e3-4e3a-851d-89925a8a8d85","system_id":"levelo_inurba_marseille","lat":43.305364,"lon":5.384119,"is_reserved":false,"is_disabled":false,"rental_uris":{"android":"levelo://app?vid=0c4eb777-e5e3-4e3a-851d-89925a8a8d85","ios":"levelo://app?vid=0c4eb777-e5e3-4e3a-851d-89925a8a8d85"},"vehicle_type_id":"4","last_reported":1715969372,"current_range_meters":31200,"station_id":"ce4bgg92rcd13ifvqb30","pricing_plan_id":"cebpf4jnsgd1na2vs0mg"},{"bike_id":"996adab2-01a0-4132-a6cd-8d6eaf083e13","system_id":"levelo_inurba_marseille","lat":43.298433,"lon":5.362774,"is_reserved":false,"is_disabled":false,"rental_uris":{"android":"levelo://app?vid=996adab2-01a0-4132-a6cd-8d6eaf083e13","ios":"levelo://app?vid=996adab2-01a0-4132-a6cd-8d6eaf083e13"},"vehicle_type_id":"4","last_reported":1715969372,"current_range_meters":2800,"station_id":"ce4bgpp2rcd13ifvqc3g","pricing_plan_id":"cebpf4jnsgd1na2vs0mg"},{"bike_id":"d3ce8ccf-7541-4919-95c9-8b00476ae2f4","system_id":"levelo_inurba_marseille","lat":43.322872,"lon":5.382756,"is_reserved":false,"is_disabled":false,"rental_uris":{"android":"levelo://app?vid=d3ce8ccf-7541-4919-95c9-8b00476ae2f4","ios":"levelo://app?vid=d3ce8ccf-7541-4919-95c9-8b00476ae2f4"},"vehicle_type_id":"4","last_reported":1715969372,"current_range_meters":12400,"station_id":"ce4bhr12rcd13ifvqhqg","pricing_plan_id":"cebpf4jnsgd1na2vs0mg"},{"bike_id":"619601d5-4977-4604-91fa-e1b130e25293","system_id":"levelo_inurba_marseille","lat":43.311722,"lon":5.387247,"is_reserved":false,"is_disabled":false,"rental_uris":{"android":"levelo://app?vid=619601d5-4977-4604-91fa-e1b130e25293","ios":"levelo://app?vid=619601d5-4977-4604-91fa-e1b130e25293"},"vehicle_type_id":"4","last_reported":1715969372,"current_range_meters":12400,"station_id":"ce4bgv12rcd13ifvqcp0","pricing_plan_id":"cebpf4jnsgd1na2vs0mg"},{"bike_id":"a9ccbad8-7e76-4589-b219-9d053984c64b","system_id":"levelo_inurba_marseille","lat":43.311722,"lon":5.387247,"is_reserved":false,"is_disabled":false,"rental_uris":{"android":"levelo://app?vid=a9ccbad8-7e76-4589-b219-9d053984c64b","ios":"levelo://app?vid=a9ccbad8-7e76-4589-b219-9d053984c64b"},"vehicle_type_id":"4","last_reported":1715969372,"current_range_meters":21600,"station_id":"ce4bgv12rcd13ifvqcp0","pricing_plan_id":"cebpf4jnsgd1na2vs0mg"},{"bike_id":"0a961e28-a39c-4977-b6ec-feba8270ecd9","system_id":"levelo_inurba_marseille","lat":43.311722,"lon":5.387247,"is_reserved":false,"is_disabled":false,"rental_uris":{"android":"levelo://app?vid=0a961e28-a39c-4977-b6ec-feba8270ecd9","ios":"levelo://app?vid=0a961e28-a39c-4977-b6ec-feba8270ecd9"},"vehicle_type_id":"4","last_reported":1715969372,"current_range_meters":0,"station_id":"ce4bgv12rcd13ifvqcp0","pricing_plan_id":"cebpf4jnsgd1na2vs0mg"},{"bike_id":"377006b2-12f6-41d7-9781-033219d857f9","system_id":"levelo_inurba_marseille","lat":43.297774,"lon":5.370875,"is_reserved":false,"is_disabled":false,"rental_uris":{"android":"levelo://app?vid=377006b2-12f6-41d7-9781-033219d857f9","ios":"levelo://app?vid=377006b2-12f6-41d7-9781-033219d857f9"},"vehicle_type_id":"4","last_reported":1715969372,"current_range_meters":19200,"station_id":"ce4bgop2rcd13ifvqc1g","pricing_plan_id":"cebpf4jnsgd1na2vs0mg"},{"bike_id":"46853eb7-19ad-48d7-a628-c7e949ba1f8f","system_id":"levelo_inurba_marseille","lat":43.297794,"lon":5.370888,"is_reserved":false,"is_disabled":false,"rental_uris":{"android":"levelo://app?vid=46853eb7-19ad-48d7-a628-c7e949ba1f8f","ios":"levelo://app?vid=46853eb7-19ad-48d7-a628-c7e949ba1f8f"},"vehicle_type_id":"4","last_reported":1715969372,"current_range_meters":1600,"station_id":"ce4bgop2rcd13ifvqc1g","pricing_plan_id":"cebpf4jnsgd1na2vs0mg"},{"bike_id":"c2f9a36e-349c-4830-a8ca-413c8c5da16f","system_id":"levelo_inurba_marseille","lat":43.297774,"lon":5.370875,"is_reserved":false,"is_disabled":false,"rental_uris":{"android":"levelo://app?vid=c2f9a36e-349c-4830-a8ca-413c8c5da16f","ios":"levelo://app?vid=c2f9a36e-349c-4830-a8ca-413c8c5da16f"},"vehicle_type_id":"4","last_reported":1715969372,"current_range_meters":16000,"station_id":"ce4bgop2rcd13ifvqc1g","pricing_plan_id":"cebpf4jnsgd1na2vs0mg"},{"bike_id":"6fae5358-76c5-4309-bd87-0f0a6e1caf85","system_id":"levelo_inurba_marseille","lat":43.286961,"lon":5.373785,"is_reserved":false,"is_disabled":false,"rental_uris":{"android":"levelo://app?vid=6fae5358-76c5-4309-bd87-0f0a6e1caf85","ios":"levelo://app?vid=6fae5358-76c5-4309-bd87-0f0a6e1caf85"},"vehicle_type_id":"4","last_reported":1715969372,"current_range_meters":16000,"station_id":"ce4bh3p2rcd13ifvqdq0","pricing_plan_id":"cebpf4jnsgd1na2vs0mg"},{"bike_id":"5a41cb1c-585b-4c7e-a851-ed961f462a0e","system_id":"levelo_inurba_marseille","lat":43.322872,"lon":5.382756,"is_reserved":false,"is_disabled":false,"rental_uris":{"android":"levelo://app?vid=5a41cb1c-585b-4c7e-a851-ed961f462a0e","ios":"levelo://app?vid=5a41cb1c-585b-4c7e-a851-ed961f462a0e"},"vehicle_type_id":"4","last_reported":1715969372,"current_range_meters":18400,"station_id":"ce4bhr12rcd13ifvqhqg","pricing_plan_id":"cebpf4jnsgd1na2vs0mg"},{"bike_id":"c79614d0-6967-4ce6-ba2d-5aac2612c2c4","system_id":"levelo_inurba_marseille","lat":43.322872,"lon":5.382756,"is_reserved":false,"is_disabled":false,"rental_uris":{"android":"levelo://app?vid=c79614d0-6967-4ce6-ba2d-5aac2612c2c4","ios":"levelo://app?vid=c79614d0-6967-4ce6-ba2d-5aac2612c2c4"},"vehicle_type_id":"4","last_reported":1715969372,"current_range_meters":14000,"station_id":"ce4bhr12rcd13ifvqhqg","pricing_plan_id":"cebpf4jnsgd1na2vs0mg"},{"bike_id":"82031f0f-98e3-440a-90e8-10bdb387b48f","system_id":"levelo_inurba_marseille","lat":43.322872,"lon":5.382756,"is_reserved":false,"is_disabled":false,"rental_uris":{"android":"levelo://app?vid=82031f0f-98e3-440a-90e8-10bdb387b48f","ios":"levelo://app?vid=82031f0f-98e3-440a-90e8-10bdb387b48f"},"vehicle_type_id":"4","last_reported":1715969372,"current_range_meters":4800,"station_id":"ce4bhr12rcd13ifvqhqg","pricing_plan_id":"cebpf4jnsgd1na2vs0mg"},{"bike_id":"a974e6ef-56af-4915-afe0-8d4165c8f0b1","system_id":"levelo_inurba_marseille","lat":43.297163,"lon":5.365866,"is_reserved":false,"is_disabled":false,"rental_uris":{"android":"levelo://app?vid=a974e6ef-56af-4915-afe0-8d4165c8f0b1","ios":"levelo://app?vid=a974e6ef-56af-4915-afe0-8d4165c8f0b1"},"vehicle_type_id":"4","last_reported":1715969372,"current_range_meters":16400,"station_id":"ce4bgn12rcd13ifvqbt0","pricing_plan_id":"cebpf4jnsgd1na2vs0mg"},{"bike_id":"ec77497c-2876-4935-ae0c-7e0f9cf0ca68","system_id":"levelo_inurba_marseille","lat":43.297163,"lon":5.365866,"is_reserved":false,"is_disabled":false,"rental_uris":{"android":"levelo://app?vid=ec77497c-2876-4935-ae0c-7e0f9cf0ca68","ios":"levelo://app?vid=ec77497c-2876-4935-ae0c-7e0f9cf0ca68"},"vehicle_type_id":"4","last_reported":1715969372,"current_range_meters":18000,"station_id":"ce4bgn12rcd13ifvqbt0","pricing_plan_id":"cebpf4jnsgd1na2vs0mg"},{"bike_id":"9974a062-c7b3-4d68-8033-94edbae877a8","system_id":"levelo_inurba_marseille","lat":43.297163,"lon":5.365866,"is_reserved":false,"is_disabled":false,"rental_uris":{"android":"levelo://app?vid=9974a062-c7b3-4d68-8033-94edbae877a8","ios":"levelo://app?vid=9974a062-c7b3-4d68-8033-94edbae877a8"},"vehicle_type_id":"4","last_reported":1715969372,"current_range_meters":20400,"station_id":"ce4bgn12rcd13ifvqbt0","pricing_plan_id":"cebpf4jnsgd1na2vs0mg"},{"bike_id":"e8b74b53-1f66-4822-bc9f-59e0cd63ffdc","system_id":"levelo_inurba_marseille","lat":43.297039,"lon":5.368947,"is_reserved":false,"is_disabled":false,"rental_uris":{"android":"levelo://app?vid=e8b74b53-1f66-4822-bc9f-59e0cd63ffdc","ios":"levelo://app?vid=e8b74b53-1f66-4822-bc9f-59e0cd63ffdc"},"vehicle_type_id":"4","last_reported":1715969372,"current_range_meters":4800,"station_id":"","pricing_plan_id":"cebpf4jnsgd1na2vs0mg"},{"bike_id":"478f504f-cc49-40bf-841a-7ac79511824d","system_id":"levelo_inurba_marseille","lat":43.297163,"lon":5.365866,"is_reserved":false,"is_disabled":false,"rental_uris":{"android":"levelo://app?vid=478f504f-cc49-40bf-841a-7ac79511824d","ios":"levelo://app?vid=478f504f-cc49-40bf-841a-7ac79511824d"},"vehicle_type_id":"4","last_reported":1715969372,"current_range_meters":15600,"station_id":"ce4bgn12rcd13ifvqbt0","pricing_plan_id":"cebpf4jnsgd1na2vs0mg"},{"bike_id":"62e2cdd3-2f2f-44cd-b066-a9cc69891066","system_id":"levelo_inurba_marseille","lat":43.297163,"lon":5.365866,"is_reserved":false,"is_disabled":false,"rental_uris":{"android":"levelo://app?vid=62e2cdd3-2f2f-44cd-b066-a9cc69891066","ios":"levelo://app?vid=62e2cdd3-2f2f-44cd-b066-a9cc69891066"},"vehicle_type_id":"4","last_reported":1715969372,"current_range_meters":4400,"station_id":"ce4bgn12rcd13ifvqbt0","pricing_plan_id":"cebpf4jnsgd1na2vs0mg"},{"bike_id":"cae80257-98a5-4e4a-89b6-cf85ddd29a93","system_id":"levelo_inurba_marseille","lat":43.309589,"lon":5.390258,"is_reserved":false,"is_disabled":false,"rental_uris":{"android":"levelo://app?vid=cae80257-98a5-4e4a-89b6-cf85ddd29a93","ios":"levelo://app?vid=cae80257-98a5-4e4a-89b6-cf85ddd29a93"},"vehicle_type_id":"4","last_reported":1715969372,"current_range_meters":2000,"station_id":"ce4bgup2rcd13ifvqco0","pricing_plan_id":"cebpf4jnsgd1na2vs0mg"},{"bike_id":"bdc95fef-8728-4703-83e0-5b59e3af01f5","system_id":"levelo_inurba_marseille","lat":43.309589,"lon":5.390258,"is_reserved":false,"is_disabled":false,"rental_uris":{"android":"levelo://app?vid=bdc95fef-8728-4703-83e0-5b59e3af01f5","ios":"levelo://app?vid=bdc95fef-8728-4703-83e0-5b59e3af01f5"},"vehicle_type_id":"4","last_reported":1715969372,"current_range_meters":15200,"station_id":"ce4bgup2rcd13ifvqco0","pricing_plan_id":"cebpf4jnsgd1na2vs0mg"},{"bike_id":"ac5304b2-dea0-4ccc-8d4c-ebd03af1c8a0","system_id":"levelo_inurba_marseille","lat":43.29906,"lon":5.38135,"is_reserved":false,"is_disabled":false,"rental_uris":{"android":"levelo://app?vid=ac5304b2-dea0-4ccc-8d4c-ebd03af1c8a0","ios":"levelo://app?vid=ac5304b2-dea0-4ccc-8d4c-ebd03af1c8a0"},"vehicle_type_id":"4","last_reported":1715969372,"current_range_meters":0,"station_id":"ce4bgj12rcd13ifvqbc0","pricing_plan_id":"cebpf4jnsgd1na2vs0mg"},{"bike_id":"8988dc8a-6bf9-45d3-8ed4-aa54ebaed11a","system_id":"levelo_inurba_marseille","lat":43.296921,"lon":5.376579,"is_reserved":false,"is_disabled":false,"rental_uris":{"android":"levelo://app?vid=8988dc8a-6bf9-45d3-8ed4-aa54ebaed11a","ios":"levelo://app?vid=8988dc8a-6bf9-45d3-8ed4-aa54ebaed11a"},"vehicle_type_id":"4","last_reported":1715969372,"current_range_meters":0,"station_id":"ce4bgkh2rcd13ifvqbl0","pricing_plan_id":"cebpf4jnsgd1na2vs0mg"},{"bike_id":"253e809b-4cc0-4f3d-bd89-d92ee4520502","system_id":"levelo_inurba_marseille","lat":43.296263,"lon":5.40601,"is_reserved":false,"is_disabled":false,"rental_uris":{"android":"levelo://app?vid=253e809b-4cc0-4f3d-bd89-d92ee4520502","ios":"levelo://app?vid=253e809b-4cc0-4f3d-bd89-d92ee4520502"},"vehicle_type_id":"4","last_reported":1715969372,"current_range_meters":17200,"station_id":"ce4bh0h2rcd13ifvqd60","pricing_plan_id":"cebpf4jnsgd1na2vs0mg"},{"bike_id":"77f72742-4ca4-42a6-ab56-92b36066e957","system_id":"levelo_inurba_marseille","lat":43.309589,"lon":5.390258,"is_reserved":false,"is_disabled":false,"rental_uris":{"android":"levelo://app?vid=77f72742-4ca4-42a6-ab56-92b36066e957","ios":"levelo://app?vid=77f72742-4ca4-42a6-ab56-92b36066e957"},"vehicle_type_id":"4","last_reported":1715969372,"current_range_meters":400,"station_id":"ce4bgup2rcd13ifvqco0","pricing_plan_id":"cebpf4jnsgd1na2vs0mg"},{"bike_id":"274b21bc-fa61-4bc8-9757-a79ea84a14df","system_id":"levelo_inurba_marseille","lat":43.309589,"lon":5.390258,"is_reserved":false,"is_disabled":false,"rental_uris":{"android":"levelo://app?vid=274b21bc-fa61-4bc8-9757-a79ea84a14df","ios":"levelo://app?vid=274b21bc-fa61-4bc8-9757-a79ea84a14df"},"vehicle_type_id":"4","last_reported":1715969372,"current_range_meters":0,"station_id":"ce4bgup2rcd13ifvqco0","pricing_plan_id":"cebpf4jnsgd1na2vs0mg"},{"bike_id":"1424a9c1-688d-47e8-854d-83c57dcfcdb2","system_id":"levelo_inurba_marseille","lat":43.309589,"lon":5.390258,"is_reserved":false,"is_disabled":false,"rental_uris":{"android":"levelo://app?vid=1424a9c1-688d-47e8-854d-83c57dcfcdb2","ios":"levelo://app?vid=1424a9c1-688d-47e8-854d-83c57dcfcdb2"},"vehicle_type_id":"4","last_reported":1715969372,"current_range_meters":11600,"station_id":"ce4bgup2rcd13ifvqco0","pricing_plan_id":"cebpf4jnsgd1na2vs0mg"},{"bike_id":"78abd96a-6772-4616-a8ca-e36875b6c03a","system_id":"levelo_inurba_marseille","lat":43.309589,"lon":5.390258,"is_reserved":false,"is_disabled":false,"rental_uris":{"android":"levelo://app?vid=78abd96a-6772-4616-a8ca-e36875b6c03a","ios":"levelo://app?vid=78abd96a-6772-4616-a8ca-e36875b6c03a"},"vehicle_type_id":"4","last_reported":1715969372,"current_range_meters":9600,"station_id":"ce4bgup2rcd13ifvqco0","pricing_plan_id":"cebpf4jnsgd1na2vs0mg"},{"bike_id":"45cd0528-9e82-4a12-b525-28c9397e2160","system_id":"levelo_inurba_marseille","lat":43.309589,"lon":5.390258,"is_reserved":false,"is_disabled":false,"rental_uris":{"android":"levelo://app?vid=45cd0528-9e82-4a12-b525-28c9397e2160","ios":"levelo://app?vid=45cd0528-9e82-4a12-b525-28c9397e2160"},"vehicle_type_id":"4","last_reported":1715969372,"current_range_meters":4400,"station_id":"ce4bgup2rcd13ifvqco0","pricing_plan_id":"cebpf4jnsgd1na2vs0mg"},{"bike_id":"c494c3b8-8478-462d-9ed7-d8d78c228a46","system_id":"levelo_inurba_marseille","lat":43.309589,"lon":5.390258,"is_reserved":false,"is_disabled":false,"rental_uris":{"android":"levelo://app?vid=c494c3b8-8478-462d-9ed7-d8d78c228a46","ios":"levelo://app?vid=c494c3b8-8478-462d-9ed7-d8d78c228a46"},"vehicle_type_id":"4","last_reported":1715969372,"current_range_meters":12400,"station_id":"ce4bgup2rcd13ifvqco0","pricing_plan_id":"cebpf4jnsgd1na2vs0mg"},{"bike_id":"8d1e6907-d48d-49a8-a853-c6f768ad0bc2","system_id":"levelo_inurba_marseille","lat":43.309589,"lon":5.390258,"is_reserved":false,"is_disabled":false,"rental_uris":{"android":"levelo://app?vid=8d1e6907-d48d-49a8-a853-c6f768ad0bc2","ios":"levelo://app?vid=8d1e6907-d48d-49a8-a853-c6f768ad0bc2"},"vehicle_type_id":"4","last_reported":1715969372,"current_range_meters":12400,"station_id":"ce4bgup2rcd13ifvqco0","pricing_plan_id":"cebpf4jnsgd1na2vs0mg"},{"bike_id":"e29ce095-3f03-4b6a-844d-d60880ab8a6b","system_id":"levelo_inurba_marseille","lat":43.309589,"lon":5.390258,"is_reserved":false,"is_disabled":false,"rental_uris":{"android":"levelo://app?vid=e29ce095-3f03-4b6a-844d-d60880ab8a6b","ios":"levelo://app?vid=e29ce095-3f03-4b6a-844d-d60880ab8a6b"},"vehicle_type_id":"4","last_reported":1715969372,"current_range_meters":10800,"station_id":"ce4bgup2rcd13ifvqco0","pricing_plan_id":"cebpf4jnsgd1na2vs0mg"},{"bike_id":"fc238e07-b9d8-4366-837e-788ed46bcf56","system_id":"levelo_inurba_marseille","lat":43.309589,"lon":5.390258,"is_reserved":false,"is_disabled":false,"rental_uris":{"android":"levelo://app?vid=fc238e07-b9d8-4366-837e-788ed46bcf56","ios":"levelo://app?vid=fc238e07-b9d8-4366-837e-788ed46bcf56"},"vehicle_type_id":"4","last_reported":1715969372,"current_range_meters":0,"station_id":"ce4bgup2rcd13ifvqco0","pricing_plan_id":"cebpf4jnsgd1na2vs0mg"},{"bike_id":"8e930d01-762c-40b7-a48f-7dcb0fa356c7","system_id":"levelo_inurba_marseille","lat":43.309589,"lon":5.390258,"is_reserved":false,"is_disabled":false,"rental_uris":{"android":"levelo://app?vid=8e930d01-762c-40b7-a48f-7dcb0fa356c7","ios":"levelo://app?vid=8e930d01-762c-40b7-a48f-7dcb0fa356c7"},"vehicle_type_id":"4","last_reported":1715969372,"current_range_meters":21200,"station_id":"ce4bgup2rcd13ifvqco0","pricing_plan_id":"cebpf4jnsgd1na2vs0mg"},{"bike_id":"79ebb506-25d3-48e0-b178-7c7d4d2f197a","system_id":"levelo_inurba_marseille","lat":43.309589,"lon":5.390258,"is_reserved":false,"is_disabled":false,"rental_uris":{"android":"levelo://app?vid=79ebb506-25d3-48e0-b178-7c7d4d2f197a","ios":"levelo://app?vid=79ebb506-25d3-48e0-b178-7c7d4d2f197a"},"vehicle_type_id":"4","last_reported":1715969372,"current_range_meters":10400,"station_id":"ce4bgup2rcd13ifvqco0","pricing_plan_id":"cebpf4jnsgd1na2vs0mg"},{"bike_id":"cf4e173d-3349-4b0d-b3ee-83c931c737d2","system_id":"levelo_inurba_marseille","lat":43.309589,"lon":5.390258,"is_reserved":false,"is_disabled":false,"rental_uris":{"android":"levelo://app?vid=cf4e173d-3349-4b0d-b3ee-83c931c737d2","ios":"levelo://app?vid=cf4e173d-3349-4b0d-b3ee-83c931c737d2"},"vehicle_type_id":"4","last_reported":1715969372,"current_range_meters":8400,"station_id":"ce4bgup2rcd13ifvqco0","pricing_plan_id":"cebpf4jnsgd1na2vs0mg"},{"bike_id":"ae9ed065-50c2-46fa-b202-a1296231db44","system_id":"levelo_inurba_marseille","lat":43.309589,"lon":5.390258,"is_reserved":false,"is_disabled":false,"rental_uris":{"android":"levelo://app?vid=ae9ed065-50c2-46fa-b202-a1296231db44","ios":"levelo://app?vid=ae9ed065-50c2-46fa-b202-a1296231db44"},"vehicle_type_id":"4","last_reported":1715969372,"current_range_meters":0,"station_id":"ce4bgup2rcd13ifvqco0","pricing_plan_id":"cebpf4jnsgd1na2vs0mg"},{"bike_id":"73133b33-343d-423e-8b13-9c95ef36bde4","system_id":"levelo_inurba_marseille","lat":43.309589,"lon":5.390258,"is_reserved":false,"is_disabled":false,"rental_uris":{"android":"levelo://app?vid=73133b33-343d-423e-8b13-9c95ef36bde4","ios":"levelo://app?vid=73133b33-343d-423e-8b13-9c95ef36bde4"},"vehicle_type_id":"4","last_reported":1715969372,"current_range_meters":10000,"station_id":"ce4bgup2rcd13ifvqco0","pricing_plan_id":"cebpf4jnsgd1na2vs0mg"},{"bike_id":"fe4d2e18-cfca-44bb-8d63-e426da664ebc","system_id":"levelo_inurba_marseille","lat":43.309535,"lon":5.390399,"is_reserved":false,"is_disabled":false,"rental_uris":{"android":"levelo://app?vid=fe4d2e18-cfca-44bb-8d63-e426da664ebc","ios":"levelo://app?vid=fe4d2e18-cfca-44bb-8d63-e426da664ebc"},"vehicle_type_id":"4","last_reported":1715969372,"current_range_meters":0,"station_id":"ce4bgup2rcd13ifvqco0","pricing_plan_id":"cebpf4jnsgd1na2vs0mg"},{"bike_id":"2d899684-77f8-4fb7-8297-1abfccd107bb","system_id":"levelo_inurba_marseille","lat":43.317557,"lon":5.390173,"is_reserved":false,"is_disabled":false,"rental_uris":{"android":"levelo://app?vid=2d899684-77f8-4fb7-8297-1abfccd107bb","ios":"levelo://app?vid=2d899684-77f8-4fb7-8297-1abfccd107bb"},"vehicle_type_id":"4","last_reported":1715969372,"current_range_meters":0,"station_id":"ce4bhqp2rcd13ifvqhng","pricing_plan_id":"cebpf4jnsgd1na2vs0mg"},{"bike_id":"9b793932-6fb3-4029-afde-ed9e26d17435","system_id":"levelo_inurba_marseille","lat":43.296935,"lon":5.376544,"is_reserved":false,"is_disabled":false,"rental_uris":{"android":"levelo://app?vid=9b793932-6fb3-4029-afde-ed9e26d17435","ios":"levelo://app?vid=9b793932-6fb3-4029-afde-ed9e26d17435"},"vehicle_type_id":"4","last_reported":1715969372,"current_range_meters":0,"station_id":"ce4bgkh2rcd13ifvqbl0","pricing_plan_id":"cebpf4jnsgd1na2vs0mg"},{"bike_id":"66025fac-5e8f-4193-864b-139ef98250d4","system_id":"levelo_inurba_marseille","lat":43.317549,"lon":5.390083,"is_reserved":false,"is_disabled":false,"rental_uris":{"android":"levelo://app?vid=66025fac-5e8f-4193-864b-139ef98250d4","ios":"levelo://app?vid=66025fac-5e8f-4193-864b-139ef98250d4"},"vehicle_type_id":"4","last_reported":1715969372,"current_range_meters":21200,"station_id":"ce4bhqp2rcd13ifvqhng","pricing_plan_id":"cebpf4jnsgd1na2vs0mg"},{"bike_id":"7e87f7a8-044f-45f4-b232-efd2a391017e","system_id":"levelo_inurba_marseille","lat":43.31753,"lon":5.39018,"is_reserved":false,"is_disabled":false,"rental_uris":{"android":"levelo://app?vid=7e87f7a8-044f-45f4-b232-efd2a391017e","ios":"levelo://app?vid=7e87f7a8-044f-45f4-b232-efd2a391017e"},"vehicle_type_id":"4","last_reported":1715969372,"current_range_meters":13600,"station_id":"ce4bhqp2rcd13ifvqhng","pricing_plan_id":"cebpf4jnsgd1na2vs0mg"},{"bike_id":"43f2a1ed-3caf-4e24-acdb-45d8c7591e57","system_id":"levelo_inurba_marseille","lat":43.317537,"lon":5.390196,"is_reserved":false,"is_disabled":false,"rental_uris":{"android":"levelo://app?vid=43f2a1ed-3caf-4e24-acdb-45d8c7591e57","ios":"levelo://app?vid=43f2a1ed-3caf-4e24-acdb-45d8c7591e57"},"vehicle_type_id":"4","last_reported":1715969372,"current_range_meters":21200,"station_id":"ce4bhqp2rcd13ifvqhng","pricing_plan_id":"cebpf4jnsgd1na2vs0mg"},{"bike_id":"05b04fe5-cb2b-4f8a-bf97-e6829ad9cc1b","system_id":"levelo_inurba_marseille","lat":43.317557,"lon":5.390173,"is_reserved":false,"is_disabled":false,"rental_uris":{"android":"levelo://app?vid=05b04fe5-cb2b-4f8a-bf97-e6829ad9cc1b","ios":"levelo://app?vid=05b04fe5-cb2b-4f8a-bf97-e6829ad9cc1b"},"vehicle_type_id":"4","last_reported":1715969372,"current_range_meters":24400,"station_id":"ce4bhqp2rcd13ifvqhng","pricing_plan_id":"cebpf4jnsgd1na2vs0mg"},{"bike_id":"db2781b9-cd03-436a-9589-0a0763679e58","system_id":"levelo_inurba_marseille","lat":43.309589,"lon":5.390258,"is_reserved":false,"is_disabled":false,"rental_uris":{"android":"levelo://app?vid=db2781b9-cd03-436a-9589-0a0763679e58","ios":"levelo://app?vid=db2781b9-cd03-436a-9589-0a0763679e58"},"vehicle_type_id":"4","last_reported":1715969372,"current_range_meters":4400,"station_id":"ce4bgup2rcd13ifvqco0","pricing_plan_id":"cebpf4jnsgd1na2vs0mg"},{"bike_id":"08ef62ff-94e6-4259-9679-a1b79e15fda7","system_id":"levelo_inurba_marseille","lat":43.295748,"lon":5.37522,"is_reserved":false,"is_disabled":false,"rental_uris":{"android":"levelo://app?vid=08ef62ff-94e6-4259-9679-a1b79e15fda7","ios":"levelo://app?vid=08ef62ff-94e6-4259-9679-a1b79e15fda7"},"vehicle_type_id":"4","last_reported":1715969372,"current_range_meters":0,"station_id":"ce4bgh92rcd13ifvqb50","pricing_plan_id":"cebpf4jnsgd1na2vs0mg"},{"bike_id":"dcf73ead-4fd4-463a-98b3-0c0222fac3e8","system_id":"levelo_inurba_marseille","lat":43.298075,"lon":5.381025,"is_reserved":false,"is_disabled":false,"rental_uris":{"android":"levelo://app?vid=dcf73ead-4fd4-463a-98b3-0c0222fac3e8","ios":"levelo://app?vid=dcf73ead-4fd4-463a-98b3-0c0222fac3e8"},"vehicle_type_id":"4","last_reported":1715969372,"current_range_meters":0,"station_id":"ce4bgip2rcd13ifvqbb0","pricing_plan_id":"cebpf4jnsgd1na2vs0mg"},{"bike_id":"c0e278f8-b56a-4547-9e1f-93684c43209a","system_id":"levelo_inurba_marseille","lat":43.304278,"lon":5.388868,"is_reserved":false,"is_disabled":false,"rental_uris":{"android":"levelo://app?vid=c0e278f8-b56a-4547-9e1f-93684c43209a","ios":"levelo://app?vid=c0e278f8-b56a-4547-9e1f-93684c43209a"},"vehicle_type_id":"4","last_reported":1715969372,"current_range_meters":0,"station_id":"ce4bgk12rcd13ifvqbi0","pricing_plan_id":"cebpf4jnsgd1na2vs0mg"},{"bike_id":"1e9c5e99-e588-4cf4-86ed-720f3aa1cbdc","system_id":"levelo_inurba_marseille","lat":43.304278,"lon":5.388868,"is_reserved":false,"is_disabled":false,"rental_uris":{"android":"levelo://app?vid=1e9c5e99-e588-4cf4-86ed-720f3aa1cbdc","ios":"levelo://app?vid=1e9c5e99-e588-4cf4-86ed-720f3aa1cbdc"},"vehicle_type_id":"4","last_reported":1715969372,"current_range_meters":2000,"station_id":"ce4bgk12rcd13ifvqbi0","pricing_plan_id":"cebpf4jnsgd1na2vs0mg"},{"bike_id":"339ffa21-3f3a-4f8c-a325-db3942d05bdb","system_id":"levelo_inurba_marseille","lat":43.3043,"lon":5.38893,"is_reserved":false,"is_disabled":false,"rental_uris":{"android":"levelo://app?vid=339ffa21-3f3a-4f8c-a325-db3942d05bdb","ios":"levelo://app?vid=339ffa21-3f3a-4f8c-a325-db3942d05bdb"},"vehicle_type_id":"4","last_reported":1715969372,"current_range_meters":0,"station_id":"ce4bgk12rcd13ifvqbi0","pricing_plan_id":"cebpf4jnsgd1na2vs0mg"},{"bike_id":"e9e7ba40-aec6-4eb1-b5f2-6dbf991b531a","system_id":"levelo_inurba_marseille","lat":43.304423,"lon":5.389079,"is_reserved":false,"is_disabled":false,"rental_uris":{"android":"levelo://app?vid=e9e7ba40-aec6-4eb1-b5f2-6dbf991b531a","ios":"levelo://app?vid=e9e7ba40-aec6-4eb1-b5f2-6dbf991b531a"},"vehicle_type_id":"4","last_reported":1715969372,"current_range_meters":0,"station_id":"ce4bgk12rcd13ifvqbi0","pricing_plan_id":"cebpf4jnsgd1na2vs0mg"},{"bike_id":"99fa263f-dfed-4f1a-94c2-a6bdb1a23b89","system_id":"levelo_inurba_marseille","lat":43.299707,"lon":5.384859,"is_reserved":false,"is_disabled":false,"rental_uris":{"android":"levelo://app?vid=99fa263f-dfed-4f1a-94c2-a6bdb1a23b89","ios":"levelo://app?vid=99fa263f-dfed-4f1a-94c2-a6bdb1a23b89"},"vehicle_type_id":"4","last_reported":1715969372,"current_range_meters":0,"station_id":"ce4bgj92rcd13ifvqbd0","pricing_plan_id":"cebpf4jnsgd1na2vs0mg"},{"bike_id":"dc2ba45b-6b1d-434f-9cd7-fbedc7411921","system_id":"levelo_inurba_marseille","lat":43.295976,"lon":5.377199,"is_reserved":false,"is_disabled":false,"rental_uris":{"android":"levelo://app?vid=dc2ba45b-6b1d-434f-9cd7-fbedc7411921","ios":"levelo://app?vid=dc2ba45b-6b1d-434f-9cd7-fbedc7411921"},"vehicle_type_id":"4","last_reported":1715969372,"current_range_meters":0,"station_id":"ce4bgi92rcd13ifvqb90","pricing_plan_id":"cebpf4jnsgd1na2vs0mg"},{"bike_id":"92cf6dfe-ecac-4c50-8a10-28c631a7a9ed","system_id":"levelo_inurba_marseille","lat":43.299707,"lon":5.384859,"is_reserved":false,"is_disabled":false,"rental_uris":{"android":"levelo://app?vid=92cf6dfe-ecac-4c50-8a10-28c631a7a9ed","ios":"levelo://app?vid=92cf6dfe-ecac-4c50-8a10-28c631a7a9ed"},"vehicle_type_id":"4","last_reported":1715969372,"current_range_meters":10000,"station_id":"ce4bgj92rcd13ifvqbd0","pricing_plan_id":"cebpf4jnsgd1na2vs0mg"},{"bike_id":"bd300287-005c-4a5e-bb49-2796feff22f6","system_id":"levelo_inurba_marseille","lat":43.299707,"lon":5.384859,"is_reserved":false,"is_disabled":false,"rental_uris":{"android":"levelo://app?vid=bd300287-005c-4a5e-bb49-2796feff22f6","ios":"levelo://app?vid=bd300287-005c-4a5e-bb49-2796feff22f6"},"vehicle_type_id":"4","last_reported":1715969372,"current_range_meters":19200,"station_id":"ce4bgj92rcd13ifvqbd0","pricing_plan_id":"cebpf4jnsgd1na2vs0mg"},{"bike_id":"8b765631-e22e-4999-ae55-7cdb4d072358","system_id":"levelo_inurba_marseille","lat":43.29975,"lon":5.38495,"is_reserved":false,"is_disabled":false,"rental_uris":{"android":"levelo://app?vid=8b765631-e22e-4999-ae55-7cdb4d072358","ios":"levelo://app?vid=8b765631-e22e-4999-ae55-7cdb4d072358"},"vehicle_type_id":"4","last_reported":1715969372,"current_range_meters":0,"station_id":"ce4bgj92rcd13ifvqbd0","pricing_plan_id":"cebpf4jnsgd1na2vs0mg"},{"bike_id":"03c48f3c-b6ed-4040-ae7a-bddc174b50ec","system_id":"levelo_inurba_marseille","lat":43.299724,"lon":5.384848,"is_reserved":false,"is_disabled":false,"rental_uris":{"android":"levelo://app?vid=03c48f3c-b6ed-4040-ae7a-bddc174b50ec","ios":"levelo://app?vid=03c48f3c-b6ed-4040-ae7a-bddc174b50ec"},"vehicle_type_id":"4","last_reported":1715969372,"current_range_meters":16800,"station_id":"ce4bgj92rcd13ifvqbd0","pricing_plan_id":"cebpf4jnsgd1na2vs0mg"},{"bike_id":"64163a6a-5503-4c40-9088-642fc3eba192","system_id":"levelo_inurba_marseille","lat":43.304274,"lon":5.388873,"is_reserved":false,"is_disabled":false,"rental_uris":{"android":"levelo://app?vid=64163a6a-5503-4c40-9088-642fc3eba192","ios":"levelo://app?vid=64163a6a-5503-4c40-9088-642fc3eba192"},"vehicle_type_id":"4","last_reported":1715969372,"current_range_meters":16000,"station_id":"ce4bgk12rcd13ifvqbi0","pricing_plan_id":"cebpf4jnsgd1na2vs0mg"},{"bike_id":"781c1c26-f9aa-4e79-9f3b-b86d1c09f7ef","system_id":"levelo_inurba_marseille","lat":43.29449,"lon":5.37654,"is_reserved":false,"is_disabled":false,"rental_uris":{"android":"levelo://app?vid=781c1c26-f9aa-4e79-9f3b-b86d1c09f7ef","ios":"levelo://app?vid=781c1c26-f9aa-4e79-9f3b-b86d1c09f7ef"},"vehicle_type_id":"4","last_reported":1715969372,"current_range_meters":5200,"station_id":"","pricing_plan_id":"cebpf4jnsgd1na2vs0mg"},{"bike_id":"6c757166-6cb3-4424-9c2f-ac5c0534864e","system_id":"levelo_inurba_marseille","lat":43.29601,"lon":5.381084,"is_reserved":false,"is_disabled":false,"rental_uris":{"android":"levelo://app?vid=6c757166-6cb3-4424-9c2f-ac5c0534864e","ios":"levelo://app?vid=6c757166-6cb3-4424-9c2f-ac5c0534864e"},"vehicle_type_id":"4","last_reported":1715969372,"current_range_meters":0,"station_id":"ce4bgl12rcd13ifvqbo0","pricing_plan_id":"cebpf4jnsgd1na2vs0mg"},{"bike_id":"a75a5aee-da6a-4484-9e67-833bf9eebd46","system_id":"levelo_inurba_marseille","lat":43.29601,"lon":5.381084,"is_reserved":false,"is_disabled":false,"rental_uris":{"android":"levelo://app?vid=a75a5aee-da6a-4484-9e67-833bf9eebd46","ios":"levelo://app?vid=a75a5aee-da6a-4484-9e67-833bf9eebd46"},"vehicle_type_id":"4","last_reported":1715969372,"current_range_meters":16000,"station_id":"ce4bgl12rcd13ifvqbo0","pricing_plan_id":"cebpf4jnsgd1na2vs0mg"},{"bike_id":"0b3be791-75ef-461c-923b-71b70052430d","system_id":"levelo_inurba_marseille","lat":43.29596,"lon":5.38103,"is_reserved":false,"is_disabled":false,"rental_uris":{"android":"levelo://app?vid=0b3be791-75ef-461c-923b-71b70052430d","ios":"levelo://app?vid=0b3be791-75ef-461c-923b-71b70052430d"},"vehicle_type_id":"4","last_reported":1715969372,"current_range_meters":0,"station_id":"ce4bgl12rcd13ifvqbo0","pricing_plan_id":"cebpf4jnsgd1na2vs0mg"},{"bike_id":"87a5da52-051e-42fa-ae1a-1cffdc63914b","system_id":"levelo_inurba_marseille","lat":43.29602,"lon":5.381084,"is_reserved":false,"is_disabled":false,"rental_uris":{"android":"levelo://app?vid=87a5da52-051e-42fa-ae1a-1cffdc63914b","ios":"levelo://app?vid=87a5da52-051e-42fa-ae1a-1cffdc63914b"},"vehicle_type_id":"4","last_reported":1715969372,"current_range_meters":10800,"station_id":"ce4bgl12rcd13ifvqbo0","pricing_plan_id":"cebpf4jnsgd1na2vs0mg"},{"bike_id":"6a2c4582-e96e-4731-9a44-0003479dca66","system_id":"levelo_inurba_marseille","lat":43.29602,"lon":5.381084,"is_reserved":false,"is_disabled":false,"rental_uris":{"android":"levelo://app?vid=6a2c4582-e96e-4731-9a44-0003479dca66","ios":"levelo://app?vid=6a2c4582-e96e-4731-9a44-0003479dca66"},"vehicle_type_id":"4","last_reported":1715969372,"current_range_meters":0,"station_id":"ce4bgl12rcd13ifvqbo0","pricing_plan_id":"cebpf4jnsgd1na2vs0mg"},{"bike_id":"4f276ee6-c38b-4128-9d41-37dd696f6522","system_id":"levelo_inurba_marseille","lat":43.293009,"lon":5.374584,"is_reserved":false,"is_disabled":false,"rental_uris":{"android":"levelo://app?vid=4f276ee6-c38b-4128-9d41-37dd696f6522","ios":"levelo://app?vid=4f276ee6-c38b-4128-9d41-37dd696f6522"},"vehicle_type_id":"4","last_reported":1715969372,"current_range_meters":400,"station_id":"ce4bgi12rcd13ifvqb70","pricing_plan_id":"cebpf4jnsgd1na2vs0mg"},{"bike_id":"511dfa75-5908-48ef-84dc-23c2cc1d1c21","system_id":"levelo_inurba_marseille","lat":43.293106,"lon":5.37447,"is_reserved":false,"is_disabled":false,"rental_uris":{"android":"levelo://app?vid=511dfa75-5908-48ef-84dc-23c2cc1d1c21","ios":"levelo://app?vid=511dfa75-5908-48ef-84dc-23c2cc1d1c21"},"vehicle_type_id":"4","last_reported":1715969372,"current_range_meters":0,"station_id":"ce4bgi12rcd13ifvqb70","pricing_plan_id":"cebpf4jnsgd1na2vs0mg"},{"bike_id":"85bc1cf2-b68f-4917-a88d-abb3c52b9f5f","system_id":"levelo_inurba_marseille","lat":43.305994,"lon":5.393687,"is_reserved":false,"is_disabled":false,"rental_uris":{"android":"levelo://app?vid=85bc1cf2-b68f-4917-a88d-abb3c52b9f5f","ios":"levelo://app?vid=85bc1cf2-b68f-4917-a88d-abb3c52b9f5f"},"vehicle_type_id":"4","last_reported":1715969372,"current_range_meters":30400,"station_id":"ce4bh0p2rcd13ifvqd80","pricing_plan_id":"cebpf4jnsgd1na2vs0mg"},{"bike_id":"769088c9-16f4-446f-a9c4-702d3ef55d95","system_id":"levelo_inurba_marseille","lat":43.293109,"lon":5.374678,"is_reserved":false,"is_disabled":false,"rental_uris":{"android":"levelo://app?vid=769088c9-16f4-446f-a9c4-702d3ef55d95","ios":"levelo://app?vid=769088c9-16f4-446f-a9c4-702d3ef55d95"},"vehicle_type_id":"4","last_reported":1715969372,"current_range_meters":0,"station_id":"ce4bgi12rcd13ifvqb70","pricing_plan_id":"cebpf4jnsgd1na2vs0mg"},{"bike_id":"4ed04240-3a8a-4ec1-8af0-6e962fcb5135","system_id":"levelo_inurba_marseille","lat":43.29303,"lon":5.37454,"is_reserved":false,"is_disabled":false,"rental_uris":{"android":"levelo://app?vid=4ed04240-3a8a-4ec1-8af0-6e962fcb5135","ios":"levelo://app?vid=4ed04240-3a8a-4ec1-8af0-6e962fcb5135"},"vehicle_type_id":"4","last_reported":1715969372,"current_range_meters":0,"station_id":"ce4bgi12rcd13ifvqb70","pricing_plan_id":"cebpf4jnsgd1na2vs0mg"},{"bike_id":"545dbf96-9a0b-4b7a-9c7c-08d56a12ae1e","system_id":"levelo_inurba_marseille","lat":43.293046,"lon":5.374684,"is_reserved":false,"is_disabled":false,"rental_uris":{"android":"levelo://app?vid=545dbf96-9a0b-4b7a-9c7c-08d56a12ae1e","ios":"levelo://app?vid=545dbf96-9a0b-4b7a-9c7c-08d56a12ae1e"},"vehicle_type_id":"4","last_reported":1715969372,"current_range_meters":0,"station_id":"ce4bgi12rcd13ifvqb70","pricing_plan_id":"cebpf4jnsgd1na2vs0mg"},{"bike_id":"953c7397-99dd-4a3a-b4ab-b3282a0f7aed","system_id":"levelo_inurba_marseille","lat":43.29303,"lon":5.37473,"is_reserved":false,"is_disabled":false,"rental_uris":{"android":"levelo://app?vid=953c7397-99dd-4a3a-b4ab-b3282a0f7aed","ios":"levelo://app?vid=953c7397-99dd-4a3a-b4ab-b3282a0f7aed"},"vehicle_type_id":"4","last_reported":1715969372,"current_range_meters":0,"station_id":"ce4bgi12rcd13ifvqb70","pricing_plan_id":"cebpf4jnsgd1na2vs0mg"},{"bike_id":"53c88eea-3980-4395-bd84-024207fbcaaf","system_id":"levelo_inurba_marseille","lat":43.30599,"lon":5.3936,"is_reserved":false,"is_disabled":false,"rental_uris":{"android":"levelo://app?vid=53c88eea-3980-4395-bd84-024207fbcaaf","ios":"levelo://app?vid=53c88eea-3980-4395-bd84-024207fbcaaf"},"vehicle_type_id":"4","last_reported":1715969372,"current_range_meters":0,"station_id":"ce4bh0p2rcd13ifvqd80","pricing_plan_id":"cebpf4jnsgd1na2vs0mg"},{"bike_id":"39087e2c-3387-47c4-835a-9beb921bc0b0","system_id":"levelo_inurba_marseille","lat":43.293009,"lon":5.374584,"is_reserved":false,"is_disabled":false,"rental_uris":{"android":"levelo://app?vid=39087e2c-3387-47c4-835a-9beb921bc0b0","ios":"levelo://app?vid=39087e2c-3387-47c4-835a-9beb921bc0b0"},"vehicle_type_id":"4","last_reported":1715969372,"current_range_meters":0,"station_id":"ce4bgi12rcd13ifvqb70","pricing_plan_id":"cebpf4jnsgd1na2vs0mg"},{"bike_id":"8531a636-96ae-4aa2-a553-c8bdff6fa077","system_id":"levelo_inurba_marseille","lat":43.305994,"lon":5.393687,"is_reserved":false,"is_disabled":false,"rental_uris":{"android":"levelo://app?vid=8531a636-96ae-4aa2-a553-c8bdff6fa077","ios":"levelo://app?vid=8531a636-96ae-4aa2-a553-c8bdff6fa077"},"vehicle_type_id":"4","last_reported":1715969372,"current_range_meters":5600,"station_id":"ce4bh0p2rcd13ifvqd80","pricing_plan_id":"cebpf4jnsgd1na2vs0mg"},{"bike_id":"949523fa-f5c2-442d-920e-83d970a80a0c","system_id":"levelo_inurba_marseille","lat":43.29293,"lon":5.37463,"is_reserved":false,"is_disabled":false,"rental_uris":{"android":"levelo://app?vid=949523fa-f5c2-442d-920e-83d970a80a0c","ios":"levelo://app?vid=949523fa-f5c2-442d-920e-83d970a80a0c"},"vehicle_type_id":"4","last_reported":1715969372,"current_range_meters":0,"station_id":"ce4bgi12rcd13ifvqb70","pricing_plan_id":"cebpf4jnsgd1na2vs0mg"},{"bike_id":"3f8554f5-812c-4d0c-b2d4-bb098fdb091b","system_id":"levelo_inurba_marseille","lat":43.305994,"lon":5.393687,"is_reserved":false,"is_disabled":false,"rental_uris":{"android":"levelo://app?vid=3f8554f5-812c-4d0c-b2d4-bb098fdb091b","ios":"levelo://app?vid=3f8554f5-812c-4d0c-b2d4-bb098fdb091b"},"vehicle_type_id":"4","last_reported":1715969372,"current_range_meters":8400,"station_id":"ce4bh0p2rcd13ifvqd80","pricing_plan_id":"cebpf4jnsgd1na2vs0mg"},{"bike_id":"1aca28da-52a9-42e7-a8bb-f76d7a7bddba","system_id":"levelo_inurba_marseille","lat":43.305994,"lon":5.393687,"is_reserved":false,"is_disabled":false,"rental_uris":{"android":"levelo://app?vid=1aca28da-52a9-42e7-a8bb-f76d7a7bddba","ios":"levelo://app?vid=1aca28da-52a9-42e7-a8bb-f76d7a7bddba"},"vehicle_type_id":"4","last_reported":1715969372,"current_range_meters":19600,"station_id":"ce4bh0p2rcd13ifvqd80","pricing_plan_id":"cebpf4jnsgd1na2vs0mg"},{"bike_id":"f540be67-a617-491e-ac8e-f8ac98f18cf9","system_id":"levelo_inurba_marseille","lat":43.303002,"lon":5.392142,"is_reserved":false,"is_disabled":false,"rental_uris":{"android":"levelo://app?vid=f540be67-a617-491e-ac8e-f8ac98f18cf9","ios":"levelo://app?vid=f540be67-a617-491e-ac8e-f8ac98f18cf9"},"vehicle_type_id":"4","last_reported":1715969372,"current_range_meters":18800,"station_id":"ce4bgkh2rcd13ifvqbk0","pricing_plan_id":"cebpf4jnsgd1na2vs0mg"},{"bike_id":"4cce763b-3583-4b40-9db7-7722eade6d99","system_id":"levelo_inurba_marseille","lat":43.302971,"lon":5.392116,"is_reserved":false,"is_disabled":false,"rental_uris":{"android":"levelo://app?vid=4cce763b-3583-4b40-9db7-7722eade6d99","ios":"levelo://app?vid=4cce763b-3583-4b40-9db7-7722eade6d99"},"vehicle_type_id":"4","last_reported":1715969372,"current_range_meters":5200,"station_id":"ce4bgkh2rcd13ifvqbk0","pricing_plan_id":"cebpf4jnsgd1na2vs0mg"},{"bike_id":"4e67462d-9b88-467d-a972-ec03a6ed3640","system_id":"levelo_inurba_marseille","lat":43.303002,"lon":5.392142,"is_reserved":false,"is_disabled":false,"rental_uris":{"android":"levelo://app?vid=4e67462d-9b88-467d-a972-ec03a6ed3640","ios":"levelo://app?vid=4e67462d-9b88-467d-a972-ec03a6ed3640"},"vehicle_type_id":"4","last_reported":1715969372,"current_range_meters":20800,"station_id":"ce4bgkh2rcd13ifvqbk0","pricing_plan_id":"cebpf4jnsgd1na2vs0mg"},{"bike_id":"1945394d-fd9a-4d50-90b7-7ce8f8b14817","system_id":"levelo_inurba_marseille","lat":43.2936,"lon":5.37835,"is_reserved":false,"is_disabled":false,"rental_uris":{"android":"levelo://app?vid=1945394d-fd9a-4d50-90b7-7ce8f8b14817","ios":"levelo://app?vid=1945394d-fd9a-4d50-90b7-7ce8f8b14817"},"vehicle_type_id":"4","last_reported":1715969372,"current_range_meters":17200,"station_id":"ce4bgjh2rcd13ifvqbf0","pricing_plan_id":"cebpf4jnsgd1na2vs0mg"},{"bike_id":"451ab373-9715-4898-9ef8-4a4797ce4ffe","system_id":"levelo_inurba_marseille","lat":43.30299,"lon":5.39226,"is_reserved":false,"is_disabled":false,"rental_uris":{"android":"levelo://app?vid=451ab373-9715-4898-9ef8-4a4797ce4ffe","ios":"levelo://app?vid=451ab373-9715-4898-9ef8-4a4797ce4ffe"},"vehicle_type_id":"4","last_reported":1715969372,"current_range_meters":0,"station_id":"ce4bgkh2rcd13ifvqbk0","pricing_plan_id":"cebpf4jnsgd1na2vs0mg"},{"bike_id":"369f36f1-827d-4529-ae95-a49d1edd7124","system_id":"levelo_inurba_marseille","lat":43.309589,"lon":5.390258,"is_reserved":false,"is_disabled":false,"rental_uris":{"android":"levelo://app?vid=369f36f1-827d-4529-ae95-a49d1edd7124","ios":"levelo://app?vid=369f36f1-827d-4529-ae95-a49d1edd7124"},"vehicle_type_id":"4","last_reported":1715969372,"current_range_meters":0,"station_id":"ce4bgup2rcd13ifvqco0","pricing_plan_id":"cebpf4jnsgd1na2vs0mg"},{"bike_id":"230240b6-b641-4878-8e82-1008ce95ac35","system_id":"levelo_inurba_marseille","lat":43.2936,"lon":5.37835,"is_reserved":false,"is_disabled":false,"rental_uris":{"android":"levelo://app?vid=230240b6-b641-4878-8e82-1008ce95ac35","ios":"levelo://app?vid=230240b6-b641-4878-8e82-1008ce95ac35"},"vehicle_type_id":"4","last_reported":1715969372,"current_range_meters":0,"station_id":"ce4bgjh2rcd13ifvqbf0","pricing_plan_id":"cebpf4jnsgd1na2vs0mg"},{"bike_id":"a135a860-238e-445a-9393-ead040895007","system_id":"levelo_inurba_marseille","lat":43.292311,"lon":5.360731,"is_reserved":false,"is_disabled":false,"rental_uris":{"android":"levelo://app?vid=a135a860-238e-445a-9393-ead040895007","ios":"levelo://app?vid=a135a860-238e-445a-9393-ead040895007"},"vehicle_type_id":"4","last_reported":1715969372,"current_range_meters":7600,"station_id":"ce4bhbh2rcd13ifvqeqg","pricing_plan_id":"cebpf4jnsgd1na2vs0mg"},{"bike_id":"75f35057-704f-4176-8e86-76543d100af7","system_id":"levelo_inurba_marseille","lat":43.292258,"lon":5.360755,"is_reserved":false,"is_disabled":false,"rental_uris":{"android":"levelo://app?vid=75f35057-704f-4176-8e86-76543d100af7","ios":"levelo://app?vid=75f35057-704f-4176-8e86-76543d100af7"},"vehicle_type_id":"4","last_reported":1715969372,"current_range_meters":23600,"station_id":"ce4bhbh2rcd13ifvqeqg","pricing_plan_id":"cebpf4jnsgd1na2vs0mg"},{"bike_id":"72bfed1c-a7dd-4214-9651-d28a950e1bfc","system_id":"levelo_inurba_marseille","lat":43.30085,"lon":5.390856,"is_reserved":false,"is_disabled":false,"rental_uris":{"android":"levelo://app?vid=72bfed1c-a7dd-4214-9651-d28a950e1bfc","ios":"levelo://app?vid=72bfed1c-a7dd-4214-9651-d28a950e1bfc"},"vehicle_type_id":"4","last_reported":1715969372,"current_range_meters":0,"station_id":"ce4bh192rcd13ifvqdb0","pricing_plan_id":"cebpf4jnsgd1na2vs0mg"},{"bike_id":"e4ba396b-876b-4e76-b66d-21a8786826f5","system_id":"levelo_inurba_marseille","lat":43.292234,"lon":5.360558,"is_reserved":false,"is_disabled":false,"rental_uris":{"android":"levelo://app?vid=e4ba396b-876b-4e76-b66d-21a8786826f5","ios":"levelo://app?vid=e4ba396b-876b-4e76-b66d-21a8786826f5"},"vehicle_type_id":"4","last_reported":1715969372,"current_range_meters":30000,"station_id":"ce4bhbh2rcd13ifvqeqg","pricing_plan_id":"cebpf4jnsgd1na2vs0mg"},{"bike_id":"30d7b16b-c9a6-4843-8770-768350ac2816","system_id":"levelo_inurba_marseille","lat":43.292189,"lon":5.360638,"is_reserved":false,"is_disabled":false,"rental_uris":{"android":"levelo://app?vid=30d7b16b-c9a6-4843-8770-768350ac2816","ios":"levelo://app?vid=30d7b16b-c9a6-4843-8770-768350ac2816"},"vehicle_type_id":"4","last_reported":1715969372,"current_range_meters":29200,"station_id":"ce4bhbh2rcd13ifvqeqg","pricing_plan_id":"cebpf4jnsgd1na2vs0mg"},{"bike_id":"3fbbe138-97e7-4244-bdb5-3ce21463df70","system_id":"levelo_inurba_marseille","lat":43.300852,"lon":5.390859,"is_reserved":false,"is_disabled":false,"rental_uris":{"android":"levelo://app?vid=3fbbe138-97e7-4244-bdb5-3ce21463df70","ios":"levelo://app?vid=3fbbe138-97e7-4244-bdb5-3ce21463df70"},"vehicle_type_id":"4","last_reported":1715969372,"current_range_meters":0,"station_id":"ce4bh192rcd13ifvqdb0","pricing_plan_id":"cebpf4jnsgd1na2vs0mg"},{"bike_id":"9efd86e5-e4c9-4112-b094-955d7e2f0d28","system_id":"levelo_inurba_marseille","lat":43.291775,"lon":5.371475,"is_reserved":false,"is_disabled":false,"rental_uris":{"android":"levelo://app?vid=9efd86e5-e4c9-4112-b094-955d7e2f0d28","ios":"levelo://app?vid=9efd86e5-e4c9-4112-b094-955d7e2f0d28"},"vehicle_type_id":"4","last_reported":1715969372,"current_range_meters":0,"station_id":"ce4bha92rcd13ifvqeh0","pricing_plan_id":"cebpf4jnsgd1na2vs0mg"},{"bike_id":"7d62d4ea-747c-4728-9d11-8873ccabccd3","system_id":"levelo_inurba_marseille","lat":43.298764,"lon":5.388973,"is_reserved":false,"is_disabled":false,"rental_uris":{"android":"levelo://app?vid=7d62d4ea-747c-4728-9d11-8873ccabccd3","ios":"levelo://app?vid=7d62d4ea-747c-4728-9d11-8873ccabccd3"},"vehicle_type_id":"4","last_reported":1715969372,"current_range_meters":0,"station_id":"ce4bh392rcd13ifvqdl0","pricing_plan_id":"cebpf4jnsgd1na2vs0mg"},{"bike_id":"589f59b9-637d-4cde-9d9b-45f8a8129008","system_id":"levelo_inurba_marseille","lat":43.291671,"lon":5.371575,"is_reserved":false,"is_disabled":false,"rental_uris":{"android":"levelo://app?vid=589f59b9-637d-4cde-9d9b-45f8a8129008","ios":"levelo://app?vid=589f59b9-637d-4cde-9d9b-45f8a8129008"},"vehicle_type_id":"4","last_reported":1715969372,"current_range_meters":5200,"station_id":"ce4bha92rcd13ifvqeh0","pricing_plan_id":"cebpf4jnsgd1na2vs0mg"},{"bike_id":"3adf0c41-bb1b-4563-887b-1981bfeacf40","system_id":"levelo_inurba_marseille","lat":43.291671,"lon":5.371575,"is_reserved":false,"is_disabled":false,"rental_uris":{"android":"levelo://app?vid=3adf0c41-bb1b-4563-887b-1981bfeacf40","ios":"levelo://app?vid=3adf0c41-bb1b-4563-887b-1981bfeacf40"},"vehicle_type_id":"4","last_reported":1715969372,"current_range_meters":1200,"station_id":"ce4bha92rcd13ifvqeh0","pricing_plan_id":"cebpf4jnsgd1na2vs0mg"},{"bike_id":"4db5bc23-730c-4e23-ab11-2869b4e71159","system_id":"levelo_inurba_marseille","lat":43.291671,"lon":5.371575,"is_reserved":false,"is_disabled":false,"rental_uris":{"android":"levelo://app?vid=4db5bc23-730c-4e23-ab11-2869b4e71159","ios":"levelo://app?vid=4db5bc23-730c-4e23-ab11-2869b4e71159"},"vehicle_type_id":"4","last_reported":1715969372,"current_range_meters":400,"station_id":"ce4bha92rcd13ifvqeh0","pricing_plan_id":"cebpf4jnsgd1na2vs0mg"},{"bike_id":"1155c9c0-d110-498e-aeb9-9c1c33165ff3","system_id":"levelo_inurba_marseille","lat":43.291654,"lon":5.371598,"is_reserved":false,"is_disabled":false,"rental_uris":{"android":"levelo://app?vid=1155c9c0-d110-498e-aeb9-9c1c33165ff3","ios":"levelo://app?vid=1155c9c0-d110-498e-aeb9-9c1c33165ff3"},"vehicle_type_id":"4","last_reported":1715969372,"current_range_meters":0,"station_id":"ce4bha92rcd13ifvqeh0","pricing_plan_id":"cebpf4jnsgd1na2vs0mg"},{"bike_id":"20b75ac4-d9aa-43bc-9b82-52aa8299f6b9","system_id":"levelo_inurba_marseille","lat":43.298764,"lon":5.388973,"is_reserved":false,"is_disabled":false,"rental_uris":{"android":"levelo://app?vid=20b75ac4-d9aa-43bc-9b82-52aa8299f6b9","ios":"levelo://app?vid=20b75ac4-d9aa-43bc-9b82-52aa8299f6b9"},"vehicle_type_id":"4","last_reported":1715969372,"current_range_meters":10400,"station_id":"ce4bh392rcd13ifvqdl0","pricing_plan_id":"cebpf4jnsgd1na2vs0mg"},{"bike_id":"3e87cace-c043-4bdc-b491-74fbcbdb3d7a","system_id":"levelo_inurba_marseille","lat":43.292005,"lon":5.357875,"is_reserved":false,"is_disabled":false,"rental_uris":{"android":"levelo://app?vid=3e87cace-c043-4bdc-b491-74fbcbdb3d7a","ios":"levelo://app?vid=3e87cace-c043-4bdc-b491-74fbcbdb3d7a"},"vehicle_type_id":"4","last_reported":1715969372,"current_range_meters":5200,"station_id":"ce4bhb12rcd13ifvqel0","pricing_plan_id":"cebpf4jnsgd1na2vs0mg"},{"bike_id":"9f6edd3b-c7c1-4b7a-9d8f-5ad9c0f10751","system_id":"levelo_inurba_marseille","lat":43.309047,"lon":5.396551,"is_reserved":false,"is_disabled":false,"rental_uris":{"android":"levelo://app?vid=9f6edd3b-c7c1-4b7a-9d8f-5ad9c0f10751","ios":"levelo://app?vid=9f6edd3b-c7c1-4b7a-9d8f-5ad9c0f10751"},"vehicle_type_id":"4","last_reported":1715969372,"current_range_meters":7600,"station_id":"ce4bh012rcd13ifvqcv0","pricing_plan_id":"cebpf4jnsgd1na2vs0mg"},{"bike_id":"4ed52ba3-c808-46fc-a17f-6adc6ad9f35b","system_id":"levelo_inurba_marseille","lat":43.291943,"lon":5.35807,"is_reserved":false,"is_disabled":false,"rental_uris":{"android":"levelo://app?vid=4ed52ba3-c808-46fc-a17f-6adc6ad9f35b","ios":"levelo://app?vid=4ed52ba3-c808-46fc-a17f-6adc6ad9f35b"},"vehicle_type_id":"4","last_reported":1715969372,"current_range_meters":0,"station_id":"ce4bhb12rcd13ifvqel0","pricing_plan_id":"cebpf4jnsgd1na2vs0mg"},{"bike_id":"b5babbaf-0a65-46ac-aec3-065886d72edd","system_id":"levelo_inurba_marseille","lat":43.291994,"lon":5.357886,"is_reserved":false,"is_disabled":false,"rental_uris":{"android":"levelo://app?vid=b5babbaf-0a65-46ac-aec3-065886d72edd","ios":"levelo://app?vid=b5babbaf-0a65-46ac-aec3-065886d72edd"},"vehicle_type_id":"4","last_reported":1715969372,"current_range_meters":18000,"station_id":"ce4bhb12rcd13ifvqel0","pricing_plan_id":"cebpf4jnsgd1na2vs0mg"},{"bike_id":"61111dd1-63ed-4269-8d23-9956428cdc8e","system_id":"levelo_inurba_marseille","lat":43.313291,"lon":5.396838,"is_reserved":false,"is_disabled":false,"rental_uris":{"android":"levelo://app?vid=61111dd1-63ed-4269-8d23-9956428cdc8e","ios":"levelo://app?vid=61111dd1-63ed-4269-8d23-9956428cdc8e"},"vehicle_type_id":"4","last_reported":1715969372,"current_range_meters":0,"station_id":"ce4bgvp2rcd13ifvqcu0","pricing_plan_id":"cebpf4jnsgd1na2vs0mg"},{"bike_id":"1a1bec11-d80b-42de-9b8d-6bff202f7c44","system_id":"levelo_inurba_marseille","lat":43.309047,"lon":5.396551,"is_reserved":false,"is_disabled":false,"rental_uris":{"android":"levelo://app?vid=1a1bec11-d80b-42de-9b8d-6bff202f7c44","ios":"levelo://app?vid=1a1bec11-d80b-42de-9b8d-6bff202f7c44"},"vehicle_type_id":"4","last_reported":1715969372,"current_range_meters":1600,"station_id":"ce4bh012rcd13ifvqcv0","pricing_plan_id":"cebpf4jnsgd1na2vs0mg"},{"bike_id":"250f0ad4-7f5d-4b1d-a41c-ea82fd42fc0b","system_id":"levelo_inurba_marseille","lat":43.313291,"lon":5.396838,"is_reserved":false,"is_disabled":false,"rental_uris":{"android":"levelo://app?vid=250f0ad4-7f5d-4b1d-a41c-ea82fd42fc0b","ios":"levelo://app?vid=250f0ad4-7f5d-4b1d-a41c-ea82fd42fc0b"},"vehicle_type_id":"4","last_reported":1715969372,"current_range_meters":4800,"station_id":"ce4bgvp2rcd13ifvqcu0","pricing_plan_id":"cebpf4jnsgd1na2vs0mg"},{"bike_id":"5f425ac9-8388-4b11-a80a-76f840907acd","system_id":"levelo_inurba_marseille","lat":43.291994,"lon":5.357886,"is_reserved":false,"is_disabled":false,"rental_uris":{"android":"levelo://app?vid=5f425ac9-8388-4b11-a80a-76f840907acd","ios":"levelo://app?vid=5f425ac9-8388-4b11-a80a-76f840907acd"},"vehicle_type_id":"4","last_reported":1715969372,"current_range_meters":6000,"station_id":"ce4bhb12rcd13ifvqel0","pricing_plan_id":"cebpf4jnsgd1na2vs0mg"},{"bike_id":"47f142b5-2385-4c46-a17d-f8824ee5a59d","system_id":"levelo_inurba_marseille","lat":43.309038,"lon":5.396546,"is_reserved":false,"is_disabled":false,"rental_uris":{"android":"levelo://app?vid=47f142b5-2385-4c46-a17d-f8824ee5a59d","ios":"levelo://app?vid=47f142b5-2385-4c46-a17d-f8824ee5a59d"},"vehicle_type_id":"4","last_reported":1715969372,"current_range_meters":15600,"station_id":"ce4bh012rcd13ifvqcv0","pricing_plan_id":"cebpf4jnsgd1na2vs0mg"},{"bike_id":"5ea0b563-2076-40a0-ab70-131c80103ed3","system_id":"levelo_inurba_marseille","lat":43.309038,"lon":5.396546,"is_reserved":false,"is_disabled":false,"rental_uris":{"android":"levelo://app?vid=5ea0b563-2076-40a0-ab70-131c80103ed3","ios":"levelo://app?vid=5ea0b563-2076-40a0-ab70-131c80103ed3"},"vehicle_type_id":"4","last_reported":1715969372,"current_range_meters":0,"station_id":"ce4bh012rcd13ifvqcv0","pricing_plan_id":"cebpf4jnsgd1na2vs0mg"},{"bike_id":"00051cfb-2ce5-49bf-b30f-81ced116ca8d","system_id":"levelo_inurba_marseille","lat":43.309047,"lon":5.396551,"is_reserved":false,"is_disabled":false,"rental_uris":{"android":"levelo://app?vid=00051cfb-2ce5-49bf-b30f-81ced116ca8d","ios":"levelo://app?vid=00051cfb-2ce5-49bf-b30f-81ced116ca8d"},"vehicle_type_id":"4","last_reported":1715969372,"current_range_meters":0,"station_id":"ce4bh012rcd13ifvqcv0","pricing_plan_id":"cebpf4jnsgd1na2vs0mg"},{"bike_id":"a0bd79da-19c2-4df5-8585-a677f3a517a6","system_id":"levelo_inurba_marseille","lat":43.309038,"lon":5.396546,"is_reserved":false,"is_disabled":false,"rental_uris":{"android":"levelo://app?vid=a0bd79da-19c2-4df5-8585-a677f3a517a6","ios":"levelo://app?vid=a0bd79da-19c2-4df5-8585-a677f3a517a6"},"vehicle_type_id":"4","last_reported":1715969372,"current_range_meters":16000,"station_id":"ce4bh012rcd13ifvqcv0","pricing_plan_id":"cebpf4jnsgd1na2vs0mg"},{"bike_id":"8ff0dc02-f0c6-4939-81ba-f47840e3bc3d","system_id":"levelo_inurba_marseille","lat":43.309038,"lon":5.396546,"is_reserved":false,"is_disabled":false,"rental_uris":{"android":"levelo://app?vid=8ff0dc02-f0c6-4939-81ba-f47840e3bc3d","ios":"levelo://app?vid=8ff0dc02-f0c6-4939-81ba-f47840e3bc3d"},"vehicle_type_id":"4","last_reported":1715969372,"current_range_meters":1600,"station_id":"ce4bh012rcd13ifvqcv0","pricing_plan_id":"cebpf4jnsgd1na2vs0mg"},{"bike_id":"36b36834-c910-431c-876b-7e96252d4cdd","system_id":"levelo_inurba_marseille","lat":43.309047,"lon":5.396551,"is_reserved":false,"is_disabled":false,"rental_uris":{"android":"levelo://app?vid=36b36834-c910-431c-876b-7e96252d4cdd","ios":"levelo://app?vid=36b36834-c910-431c-876b-7e96252d4cdd"},"vehicle_type_id":"4","last_reported":1715969372,"current_range_meters":19600,"station_id":"ce4bh012rcd13ifvqcv0","pricing_plan_id":"cebpf4jnsgd1na2vs0mg"},{"bike_id":"4be805d7-4737-4dd5-a642-f9c6ed28fa3c","system_id":"levelo_inurba_marseille","lat":43.309047,"lon":5.396551,"is_reserved":false,"is_disabled":false,"rental_uris":{"android":"levelo://app?vid=4be805d7-4737-4dd5-a642-f9c6ed28fa3c","ios":"levelo://app?vid=4be805d7-4737-4dd5-a642-f9c6ed28fa3c"},"vehicle_type_id":"4","last_reported":1715969372,"current_range_meters":0,"station_id":"ce4bh012rcd13ifvqcv0","pricing_plan_id":"cebpf4jnsgd1na2vs0mg"},{"bike_id":"cdf0e98a-374e-411e-84e8-9dd8f745dec1","system_id":"levelo_inurba_marseille","lat":43.29529,"lon":5.385581,"is_reserved":false,"is_disabled":false,"rental_uris":{"android":"levelo://app?vid=cdf0e98a-374e-411e-84e8-9dd8f745dec1","ios":"levelo://app?vid=cdf0e98a-374e-411e-84e8-9dd8f745dec1"},"vehicle_type_id":"4","last_reported":1715969372,"current_range_meters":4000,"station_id":"ce4bgih2rcd13ifvqba0","pricing_plan_id":"cebpf4jnsgd1na2vs0mg"},{"bike_id":"3c25dae0-51e7-4c1b-ab00-8ae34efe2e61","system_id":"levelo_inurba_marseille","lat":43.29533,"lon":5.38549,"is_reserved":false,"is_disabled":false,"rental_uris":{"android":"levelo://app?vid=3c25dae0-51e7-4c1b-ab00-8ae34efe2e61","ios":"levelo://app?vid=3c25dae0-51e7-4c1b-ab00-8ae34efe2e61"},"vehicle_type_id":"4","last_reported":1715969372,"current_range_meters":0,"station_id":"ce4bgih2rcd13ifvqba0","pricing_plan_id":"cebpf4jnsgd1na2vs0mg"},{"bike_id":"dfee42a4-f133-464b-9730-3ad7d2d553a6","system_id":"levelo_inurba_marseille","lat":43.29532,"lon":5.385574,"is_reserved":false,"is_disabled":false,"rental_uris":{"android":"levelo://app?vid=dfee42a4-f133-464b-9730-3ad7d2d553a6","ios":"levelo://app?vid=dfee42a4-f133-464b-9730-3ad7d2d553a6"},"vehicle_type_id":"4","last_reported":1715969372,"current_range_meters":0,"station_id":"ce4bgih2rcd13ifvqba0","pricing_plan_id":"cebpf4jnsgd1na2vs0mg"},{"bike_id":"178c1133-b1d2-4f25-a800-e398a4e15986","system_id":"levelo_inurba_marseille","lat":43.29529,"lon":5.385581,"is_reserved":false,"is_disabled":false,"rental_uris":{"android":"levelo://app?vid=178c1133-b1d2-4f25-a800-e398a4e15986","ios":"levelo://app?vid=178c1133-b1d2-4f25-a800-e398a4e15986"},"vehicle_type_id":"4","last_reported":1715969372,"current_range_meters":5600,"station_id":"ce4bgih2rcd13ifvqba0","pricing_plan_id":"cebpf4jnsgd1na2vs0mg"},{"bike_id":"38578e5d-8947-4609-9d88-d311ed33fc0c","system_id":"levelo_inurba_marseille","lat":43.295217,"lon":5.385679,"is_reserved":false,"is_disabled":false,"rental_uris":{"android":"levelo://app?vid=38578e5d-8947-4609-9d88-d311ed33fc0c","ios":"levelo://app?vid=38578e5d-8947-4609-9d88-d311ed33fc0c"},"vehicle_type_id":"4","last_reported":1715969372,"current_range_meters":400,"station_id":"ce4bgih2rcd13ifvqba0","pricing_plan_id":"cebpf4jnsgd1na2vs0mg"},{"bike_id":"da0cded8-498b-4a76-9cbe-c3f7834aaec7","system_id":"levelo_inurba_marseille","lat":43.290779,"lon":5.371482,"is_reserved":false,"is_disabled":false,"rental_uris":{"android":"levelo://app?vid=da0cded8-498b-4a76-9cbe-c3f7834aaec7","ios":"levelo://app?vid=da0cded8-498b-4a76-9cbe-c3f7834aaec7"},"vehicle_type_id":"4","last_reported":1715969372,"current_range_meters":16400,"station_id":"ce4bh5p2rcd13ifvqe4g","pricing_plan_id":"cebpf4jnsgd1na2vs0mg"},{"bike_id":"fbdcf0dc-6319-4bd5-a4a0-72b429869e19","system_id":"levelo_inurba_marseille","lat":43.290779,"lon":5.371482,"is_reserved":false,"is_disabled":false,"rental_uris":{"android":"levelo://app?vid=fbdcf0dc-6319-4bd5-a4a0-72b429869e19","ios":"levelo://app?vid=fbdcf0dc-6319-4bd5-a4a0-72b429869e19"},"vehicle_type_id":"4","last_reported":1715969372,"current_range_meters":12800,"station_id":"ce4bh5p2rcd13ifvqe4g","pricing_plan_id":"cebpf4jnsgd1na2vs0mg"},{"bike_id":"1aef668d-309a-4566-9da0-6aca8644e4d2","system_id":"levelo_inurba_marseille","lat":43.29288,"lon":5.3824,"is_reserved":false,"is_disabled":false,"rental_uris":{"android":"levelo://app?vid=1aef668d-309a-4566-9da0-6aca8644e4d2","ios":"levelo://app?vid=1aef668d-309a-4566-9da0-6aca8644e4d2"},"vehicle_type_id":"4","last_reported":1715969372,"current_range_meters":5200,"station_id":"","pricing_plan_id":"cebpf4jnsgd1na2vs0mg"},{"bike_id":"f16bb997-1e1e-437b-a61d-07649810ebf6","system_id":"levelo_inurba_marseille","lat":43.302008,"lon":5.394694,"is_reserved":false,"is_disabled":false,"rental_uris":{"android":"levelo://app?vid=f16bb997-1e1e-437b-a61d-07649810ebf6","ios":"levelo://app?vid=f16bb997-1e1e-437b-a61d-07649810ebf6"},"vehicle_type_id":"4","last_reported":1715969372,"current_range_meters":0,"station_id":"ce4bh0p2rcd13ifvqd70","pricing_plan_id":"cebpf4jnsgd1na2vs0mg"},{"bike_id":"108b4f93-1d30-45db-82e1-29f50f307bd1","system_id":"levelo_inurba_marseille","lat":43.302111,"lon":5.394723,"is_reserved":false,"is_disabled":false,"rental_uris":{"android":"levelo://app?vid=108b4f93-1d30-45db-82e1-29f50f307bd1","ios":"levelo://app?vid=108b4f93-1d30-45db-82e1-29f50f307bd1"},"vehicle_type_id":"4","last_reported":1715969372,"current_range_meters":0,"station_id":"ce4bh0p2rcd13ifvqd70","pricing_plan_id":"cebpf4jnsgd1na2vs0mg"},{"bike_id":"0980446b-e2f3-4fb0-81fd-4c00eb0e259c","system_id":"levelo_inurba_marseille","lat":43.294418,"lon":5.385751,"is_reserved":false,"is_disabled":false,"rental_uris":{"android":"levelo://app?vid=0980446b-e2f3-4fb0-81fd-4c00eb0e259c","ios":"levelo://app?vid=0980446b-e2f3-4fb0-81fd-4c00eb0e259c"},"vehicle_type_id":"4","last_reported":1715969372,"current_range_meters":14400,"station_id":"","pricing_plan_id":"cebpf4jnsgd1na2vs0mg"},{"bike_id":"5863b875-fcaa-4ffd-9ce3-43d465a26a69","system_id":"levelo_inurba_marseille","lat":43.294338,"lon":5.385649,"is_reserved":false,"is_disabled":false,"rental_uris":{"android":"levelo://app?vid=5863b875-fcaa-4ffd-9ce3-43d465a26a69","ios":"levelo://app?vid=5863b875-fcaa-4ffd-9ce3-43d465a26a69"},"vehicle_type_id":"4","last_reported":1715969372,"current_range_meters":5200,"station_id":"ce4bh2h2rcd13ifvqdh0","pricing_plan_id":"cebpf4jnsgd1na2vs0mg"},{"bike_id":"9c64a30b-6994-4649-bd1d-5e0acdc5cf11","system_id":"levelo_inurba_marseille","lat":43.294162,"lon":5.386292,"is_reserved":false,"is_disabled":false,"rental_uris":{"android":"levelo://app?vid=9c64a30b-6994-4649-bd1d-5e0acdc5cf11","ios":"levelo://app?vid=9c64a30b-6994-4649-bd1d-5e0acdc5cf11"},"vehicle_type_id":"4","last_reported":1715969372,"current_range_meters":0,"station_id":"ce4bh2h2rcd13ifvqdh0","pricing_plan_id":"cebpf4jnsgd1na2vs0mg"},{"bike_id":"6e2a3cee-30a7-4e0a-90bf-991dd33fc333","system_id":"levelo_inurba_marseille","lat":43.294282,"lon":5.38624,"is_reserved":false,"is_disabled":false,"rental_uris":{"android":"levelo://app?vid=6e2a3cee-30a7-4e0a-90bf-991dd33fc333","ios":"levelo://app?vid=6e2a3cee-30a7-4e0a-90bf-991dd33fc333"},"vehicle_type_id":"4","last_reported":1715969372,"current_range_meters":0,"station_id":"ce4bh2h2rcd13ifvqdh0","pricing_plan_id":"cebpf4jnsgd1na2vs0mg"},{"bike_id":"a75c93af-caed-4d0d-a09b-19e95c51f102","system_id":"levelo_inurba_marseille","lat":43.294153,"lon":5.386305,"is_reserved":false,"is_disabled":false,"rental_uris":{"android":"levelo://app?vid=a75c93af-caed-4d0d-a09b-19e95c51f102","ios":"levelo://app?vid=a75c93af-caed-4d0d-a09b-19e95c51f102"},"vehicle_type_id":"4","last_reported":1715969372,"current_range_meters":13200,"station_id":"ce4bh2h2rcd13ifvqdh0","pricing_plan_id":"cebpf4jnsgd1na2vs0mg"},{"bike_id":"79c0e39e-539c-4ae1-a917-ba96e2f6186b","system_id":"levelo_inurba_marseille","lat":43.290327,"lon":5.375711,"is_reserved":false,"is_disabled":false,"rental_uris":{"android":"levelo://app?vid=79c0e39e-539c-4ae1-a917-ba96e2f6186b","ios":"levelo://app?vid=79c0e39e-539c-4ae1-a917-ba96e2f6186b"},"vehicle_type_id":"4","last_reported":1715969372,"current_range_meters":0,"station_id":"ce4bh692rcd13ifvqe90","pricing_plan_id":"cebpf4jnsgd1na2vs0mg"},{"bike_id":"7bee6d8a-9fd9-4212-9807-46d0f574ebfc","system_id":"levelo_inurba_marseille","lat":43.294153,"lon":5.386305,"is_reserved":false,"is_disabled":false,"rental_uris":{"android":"levelo://app?vid=7bee6d8a-9fd9-4212-9807-46d0f574ebfc","ios":"levelo://app?vid=7bee6d8a-9fd9-4212-9807-46d0f574ebfc"},"vehicle_type_id":"4","last_reported":1715969372,"current_range_meters":0,"station_id":"ce4bh2h2rcd13ifvqdh0","pricing_plan_id":"cebpf4jnsgd1na2vs0mg"},{"bike_id":"f7c61877-aad0-45c5-8928-612b48e2a65d","system_id":"levelo_inurba_marseille","lat":43.294162,"lon":5.386292,"is_reserved":false,"is_disabled":false,"rental_uris":{"android":"levelo://app?vid=f7c61877-aad0-45c5-8928-612b48e2a65d","ios":"levelo://app?vid=f7c61877-aad0-45c5-8928-612b48e2a65d"},"vehicle_type_id":"4","last_reported":1715969372,"current_range_meters":4400,"station_id":"ce4bh2h2rcd13ifvqdh0","pricing_plan_id":"cebpf4jnsgd1na2vs0mg"},{"bike_id":"8a245a9c-a105-4aa9-be89-e127930e94e7","system_id":"levelo_inurba_marseille","lat":43.29417,"lon":5.38624,"is_reserved":false,"is_disabled":false,"rental_uris":{"android":"levelo://app?vid=8a245a9c-a105-4aa9-be89-e127930e94e7","ios":"levelo://app?vid=8a245a9c-a105-4aa9-be89-e127930e94e7"},"vehicle_type_id":"4","last_reported":1715969372,"current_range_meters":0,"station_id":"ce4bh2h2rcd13ifvqdh0","pricing_plan_id":"cebpf4jnsgd1na2vs0mg"},{"bike_id":"dbcccde5-88d2-4dd1-b5c3-0d3fce6ae639","system_id":"levelo_inurba_marseille","lat":43.29416,"lon":5.38625,"is_reserved":false,"is_disabled":false,"rental_uris":{"android":"levelo://app?vid=dbcccde5-88d2-4dd1-b5c3-0d3fce6ae639","ios":"levelo://app?vid=dbcccde5-88d2-4dd1-b5c3-0d3fce6ae639"},"vehicle_type_id":"4","last_reported":1715969372,"current_range_meters":0,"station_id":"ce4bh2h2rcd13ifvqdh0","pricing_plan_id":"cebpf4jnsgd1na2vs0mg"},{"bike_id":"58b9c9e7-1e96-4b69-b890-16d423f64e03","system_id":"levelo_inurba_marseille","lat":43.29421,"lon":5.38636,"is_reserved":false,"is_disabled":false,"rental_uris":{"android":"levelo://app?vid=58b9c9e7-1e96-4b69-b890-16d423f64e03","ios":"levelo://app?vid=58b9c9e7-1e96-4b69-b890-16d423f64e03"},"vehicle_type_id":"4","last_reported":1715969372,"current_range_meters":0,"station_id":"ce4bh2h2rcd13ifvqdh0","pricing_plan_id":"cebpf4jnsgd1na2vs0mg"},{"bike_id":"f2934542-5429-4194-ae6c-7621644ea056","system_id":"levelo_inurba_marseille","lat":43.289184,"lon":5.366408,"is_reserved":false,"is_disabled":false,"rental_uris":{"android":"levelo://app?vid=f2934542-5429-4194-ae6c-7621644ea056","ios":"levelo://app?vid=f2934542-5429-4194-ae6c-7621644ea056"},"vehicle_type_id":"4","last_reported":1715969372,"current_range_meters":3600,"station_id":"ce4bhap2rcd13ifvqek0","pricing_plan_id":"cebpf4jnsgd1na2vs0mg"},{"bike_id":"2a9fa283-e0dd-4caa-b290-6df0f2041715","system_id":"levelo_inurba_marseille","lat":43.289184,"lon":5.366408,"is_reserved":false,"is_disabled":false,"rental_uris":{"android":"levelo://app?vid=2a9fa283-e0dd-4caa-b290-6df0f2041715","ios":"levelo://app?vid=2a9fa283-e0dd-4caa-b290-6df0f2041715"},"vehicle_type_id":"4","last_reported":1715969372,"current_range_meters":400,"station_id":"ce4bhap2rcd13ifvqek0","pricing_plan_id":"cebpf4jnsgd1na2vs0mg"},{"bike_id":"5e2ec021-b4b4-475c-871c-1a9f33ecff6c","system_id":"levelo_inurba_marseille","lat":43.289184,"lon":5.366408,"is_reserved":false,"is_disabled":false,"rental_uris":{"android":"levelo://app?vid=5e2ec021-b4b4-475c-871c-1a9f33ecff6c","ios":"levelo://app?vid=5e2ec021-b4b4-475c-871c-1a9f33ecff6c"},"vehicle_type_id":"4","last_reported":1715969372,"current_range_meters":2400,"station_id":"ce4bhap2rcd13ifvqek0","pricing_plan_id":"cebpf4jnsgd1na2vs0mg"},{"bike_id":"d92ae35a-4bd3-4186-8504-b9585f1afa0c","system_id":"levelo_inurba_marseille","lat":43.292005,"lon":5.357875,"is_reserved":false,"is_disabled":false,"rental_uris":{"android":"levelo://app?vid=d92ae35a-4bd3-4186-8504-b9585f1afa0c","ios":"levelo://app?vid=d92ae35a-4bd3-4186-8504-b9585f1afa0c"},"vehicle_type_id":"4","last_reported":1715969372,"current_range_meters":29200,"station_id":"ce4bhb12rcd13ifvqel0","pricing_plan_id":"cebpf4jnsgd1na2vs0mg"},{"bike_id":"bd132511-187a-454e-9790-7abc23c73050","system_id":"levelo_inurba_marseille","lat":43.254945,"lon":5.376454,"is_reserved":false,"is_disabled":false,"rental_uris":{"android":"levelo://app?vid=bd132511-187a-454e-9790-7abc23c73050","ios":"levelo://app?vid=bd132511-187a-454e-9790-7abc23c73050"},"vehicle_type_id":"4","last_reported":1715969372,"current_range_meters":12000,"station_id":"ce4bhh12rcd13ifvqff0","pricing_plan_id":"cebpf4jnsgd1na2vs0mg"},{"bike_id":"3cd66661-11dc-4129-b18a-2eaae4dba076","system_id":"levelo_inurba_marseille","lat":43.290345,"lon":5.38646,"is_reserved":false,"is_disabled":false,"rental_uris":{"android":"levelo://app?vid=3cd66661-11dc-4129-b18a-2eaae4dba076","ios":"levelo://app?vid=3cd66661-11dc-4129-b18a-2eaae4dba076"},"vehicle_type_id":"4","last_reported":1715969372,"current_range_meters":0,"station_id":"ce4bh4p2rcd13ifvqe0g","pricing_plan_id":"cebpf4jnsgd1na2vs0mg"},{"bike_id":"3cefd8e8-a91c-44c0-83da-79f648202a57","system_id":"levelo_inurba_marseille","lat":43.292642,"lon":5.384254,"is_reserved":false,"is_disabled":false,"rental_uris":{"android":"levelo://app?vid=3cefd8e8-a91c-44c0-83da-79f648202a57","ios":"levelo://app?vid=3cefd8e8-a91c-44c0-83da-79f648202a57"},"vehicle_type_id":"4","last_reported":1715969372,"current_range_meters":0,"station_id":"ce4bh692rcd13ifvqea0","pricing_plan_id":"cebpf4jnsgd1na2vs0mg"},{"bike_id":"2e84943e-881a-4d1a-8ae3-173b87c6a143","system_id":"levelo_inurba_marseille","lat":43.29262,"lon":5.38448,"is_reserved":false,"is_disabled":false,"rental_uris":{"android":"levelo://app?vid=2e84943e-881a-4d1a-8ae3-173b87c6a143","ios":"levelo://app?vid=2e84943e-881a-4d1a-8ae3-173b87c6a143"},"vehicle_type_id":"4","last_reported":1715969372,"current_range_meters":0,"station_id":"","pricing_plan_id":"cebpf4jnsgd1na2vs0mg"},{"bike_id":"9a2857b4-1670-4757-8651-4fabd53937f5","system_id":"levelo_inurba_marseille","lat":43.292495,"lon":5.384228,"is_reserved":false,"is_disabled":false,"rental_uris":{"android":"levelo://app?vid=9a2857b4-1670-4757-8651-4fabd53937f5","ios":"levelo://app?vid=9a2857b4-1670-4757-8651-4fabd53937f5"},"vehicle_type_id":"4","last_reported":1715969372,"current_range_meters":0,"station_id":"ce4bh692rcd13ifvqea0","pricing_plan_id":"cebpf4jnsgd1na2vs0mg"},{"bike_id":"7a72e45c-74e2-41fc-b6d9-baee63c84e8f","system_id":"levelo_inurba_marseille","lat":43.290103,"lon":5.356114,"is_reserved":false,"is_disabled":false,"rental_uris":{"android":"levelo://app?vid=7a72e45c-74e2-41fc-b6d9-baee63c84e8f","ios":"levelo://app?vid=7a72e45c-74e2-41fc-b6d9-baee63c84e8f"},"vehicle_type_id":"4","last_reported":1715969372,"current_range_meters":0,"station_id":"ce4bhb92rcd13ifvqen0","pricing_plan_id":"cebpf4jnsgd1na2vs0mg"},{"bike_id":"7e5a27e7-06e2-4f78-bdd3-2edcffd497d4","system_id":"levelo_inurba_marseille","lat":43.290104,"lon":5.356111,"is_reserved":false,"is_disabled":false,"rental_uris":{"android":"levelo://app?vid=7e5a27e7-06e2-4f78-bdd3-2edcffd497d4","ios":"levelo://app?vid=7e5a27e7-06e2-4f78-bdd3-2edcffd497d4"},"vehicle_type_id":"4","last_reported":1715969372,"current_range_meters":11200,"station_id":"ce4bhb92rcd13ifvqen0","pricing_plan_id":"cebpf4jnsgd1na2vs0mg"},{"bike_id":"11950b30-603d-4f54-a505-68e368a470f6","system_id":"levelo_inurba_marseille","lat":43.290077,"lon":5.35603,"is_reserved":false,"is_disabled":false,"rental_uris":{"android":"levelo://app?vid=11950b30-603d-4f54-a505-68e368a470f6","ios":"levelo://app?vid=11950b30-603d-4f54-a505-68e368a470f6"},"vehicle_type_id":"4","last_reported":1715969372,"current_range_meters":0,"station_id":"ce4bhb92rcd13ifvqen0","pricing_plan_id":"cebpf4jnsgd1na2vs0mg"},{"bike_id":"5773cc41-3ee9-49a0-b933-3697e2de4d14","system_id":"levelo_inurba_marseille","lat":43.290104,"lon":5.356111,"is_reserved":false,"is_disabled":false,"rental_uris":{"android":"levelo://app?vid=5773cc41-3ee9-49a0-b933-3697e2de4d14","ios":"levelo://app?vid=5773cc41-3ee9-49a0-b933-3697e2de4d14"},"vehicle_type_id":"4","last_reported":1715969372,"current_range_meters":800,"station_id":"ce4bhb92rcd13ifvqen0","pricing_plan_id":"cebpf4jnsgd1na2vs0mg"},{"bike_id":"43214798-e513-4369-854c-c99a6ccdc3a1","system_id":"levelo_inurba_marseille","lat":43.290104,"lon":5.356111,"is_reserved":false,"is_disabled":false,"rental_uris":{"android":"levelo://app?vid=43214798-e513-4369-854c-c99a6ccdc3a1","ios":"levelo://app?vid=43214798-e513-4369-854c-c99a6ccdc3a1"},"vehicle_type_id":"4","last_reported":1715969372,"current_range_meters":0,"station_id":"ce4bhb92rcd13ifvqen0","pricing_plan_id":"cebpf4jnsgd1na2vs0mg"},{"bike_id":"70a0d704-2012-457d-83e5-60e9974aefab","system_id":"levelo_inurba_marseille","lat":43.297997,"lon":5.393088,"is_reserved":false,"is_disabled":false,"rental_uris":{"android":"levelo://app?vid=70a0d704-2012-457d-83e5-60e9974aefab","ios":"levelo://app?vid=70a0d704-2012-457d-83e5-60e9974aefab"},"vehicle_type_id":"4","last_reported":1715969372,"current_range_meters":0,"station_id":"chh1huq6cuj3fo74tm60","pricing_plan_id":"cebpf4jnsgd1na2vs0mg"},{"bike_id":"9904bf4e-7f97-4e5a-b7f1-877327077747","system_id":"levelo_inurba_marseille","lat":43.290995,"lon":5.381361,"is_reserved":false,"is_disabled":false,"rental_uris":{"android":"levelo://app?vid=9904bf4e-7f97-4e5a-b7f1-877327077747","ios":"levelo://app?vid=9904bf4e-7f97-4e5a-b7f1-877327077747"},"vehicle_type_id":"4","last_reported":1715969372,"current_range_meters":3200,"station_id":"ce4bh512rcd13ifvqe2g","pricing_plan_id":"cebpf4jnsgd1na2vs0mg"},{"bike_id":"5c1353e7-00b7-4a4d-a100-2a5c9bdfbd34","system_id":"levelo_inurba_marseille","lat":43.295169,"lon":5.390426,"is_reserved":false,"is_disabled":false,"rental_uris":{"android":"levelo://app?vid=5c1353e7-00b7-4a4d-a100-2a5c9bdfbd34","ios":"levelo://app?vid=5c1353e7-00b7-4a4d-a100-2a5c9bdfbd34"},"vehicle_type_id":"4","last_reported":1715969372,"current_range_meters":0,"station_id":"ce4bh3p2rcd13ifvqdp0","pricing_plan_id":"cebpf4jnsgd1na2vs0mg"},{"bike_id":"f59b68ec-091a-4c54-a08b-0039fd5992cd","system_id":"levelo_inurba_marseille","lat":43.295169,"lon":5.390426,"is_reserved":false,"is_disabled":false,"rental_uris":{"android":"levelo://app?vid=f59b68ec-091a-4c54-a08b-0039fd5992cd","ios":"levelo://app?vid=f59b68ec-091a-4c54-a08b-0039fd5992cd"},"vehicle_type_id":"4","last_reported":1715969372,"current_range_meters":0,"station_id":"ce4bh3p2rcd13ifvqdp0","pricing_plan_id":"cebpf4jnsgd1na2vs0mg"},{"bike_id":"e7df6c3c-290a-40d9-9ca6-4df9b00e556b","system_id":"levelo_inurba_marseille","lat":43.297815,"lon":5.393548,"is_reserved":false,"is_disabled":false,"rental_uris":{"android":"levelo://app?vid=e7df6c3c-290a-40d9-9ca6-4df9b00e556b","ios":"levelo://app?vid=e7df6c3c-290a-40d9-9ca6-4df9b00e556b"},"vehicle_type_id":"4","last_reported":1715969372,"current_range_meters":2000,"station_id":"chh1huq6cuj3fo74tm60","pricing_plan_id":"cebpf4jnsgd1na2vs0mg"},{"bike_id":"53c9a803-972e-461d-bea7-8af32e3edc38","system_id":"levelo_inurba_marseille","lat":43.330442,"lon":5.389148,"is_reserved":false,"is_disabled":false,"rental_uris":{"android":"levelo://app?vid=53c9a803-972e-461d-bea7-8af32e3edc38","ios":"levelo://app?vid=53c9a803-972e-461d-bea7-8af32e3edc38"},"vehicle_type_id":"4","last_reported":1715969372,"current_range_meters":2400,"station_id":"ce4bhr92rcd13ifvqhrg","pricing_plan_id":"cebpf4jnsgd1na2vs0mg"},{"bike_id":"0bca675e-f588-426a-9e75-f5b8d833513b","system_id":"levelo_inurba_marseille","lat":43.295169,"lon":5.390426,"is_reserved":false,"is_disabled":false,"rental_uris":{"android":"levelo://app?vid=0bca675e-f588-426a-9e75-f5b8d833513b","ios":"levelo://app?vid=0bca675e-f588-426a-9e75-f5b8d833513b"},"vehicle_type_id":"4","last_reported":1715969372,"current_range_meters":0,"station_id":"ce4bh3p2rcd13ifvqdp0","pricing_plan_id":"cebpf4jnsgd1na2vs0mg"},{"bike_id":"3739694a-26e0-4a70-b761-6579a4bfae65","system_id":"levelo_inurba_marseille","lat":43.290339,"lon":5.380318,"is_reserved":false,"is_disabled":false,"rental_uris":{"android":"levelo://app?vid=3739694a-26e0-4a70-b761-6579a4bfae65","ios":"levelo://app?vid=3739694a-26e0-4a70-b761-6579a4bfae65"},"vehicle_type_id":"4","last_reported":1715969372,"current_range_meters":29200,"station_id":"ce4bh4p2rcd13ifvqe1g","pricing_plan_id":"cebpf4jnsgd1na2vs0mg"},{"bike_id":"b2c725c9-8d9c-47c5-8b3c-f2b8f4429c6d","system_id":"levelo_inurba_marseille","lat":43.289743,"lon":5.378304,"is_reserved":false,"is_disabled":false,"rental_uris":{"android":"levelo://app?vid=b2c725c9-8d9c-47c5-8b3c-f2b8f4429c6d","ios":"levelo://app?vid=b2c725c9-8d9c-47c5-8b3c-f2b8f4429c6d"},"vehicle_type_id":"4","last_reported":1715969372,"current_range_meters":15200,"station_id":"ce4bh9p2rcd13ifvqed0","pricing_plan_id":"cebpf4jnsgd1na2vs0mg"},{"bike_id":"a6791fc8-13a0-46a9-bc23-54aa7aefff7d","system_id":"levelo_inurba_marseille","lat":43.295169,"lon":5.390426,"is_reserved":false,"is_disabled":false,"rental_uris":{"android":"levelo://app?vid=a6791fc8-13a0-46a9-bc23-54aa7aefff7d","ios":"levelo://app?vid=a6791fc8-13a0-46a9-bc23-54aa7aefff7d"},"vehicle_type_id":"4","last_reported":1715969372,"current_range_meters":30400,"station_id":"ce4bh3p2rcd13ifvqdp0","pricing_plan_id":"cebpf4jnsgd1na2vs0mg"},{"bike_id":"77fe2fd0-8ef6-41a6-9b9e-670f24e3a3a1","system_id":"levelo_inurba_marseille","lat":43.295517,"lon":5.390923,"is_reserved":false,"is_disabled":false,"rental_uris":{"android":"levelo://app?vid=77fe2fd0-8ef6-41a6-9b9e-670f24e3a3a1","ios":"levelo://app?vid=77fe2fd0-8ef6-41a6-9b9e-670f24e3a3a1"},"vehicle_type_id":"4","last_reported":1715969372,"current_range_meters":0,"station_id":"ce4bh3p2rcd13ifvqdp0","pricing_plan_id":"cebpf4jnsgd1na2vs0mg"},{"bike_id":"69fe1925-b3d4-44bf-910f-3e80aa2aace0","system_id":"levelo_inurba_marseille","lat":43.297581,"lon":5.393429,"is_reserved":false,"is_disabled":false,"rental_uris":{"android":"levelo://app?vid=69fe1925-b3d4-44bf-910f-3e80aa2aace0","ios":"levelo://app?vid=69fe1925-b3d4-44bf-910f-3e80aa2aace0"},"vehicle_type_id":"4","last_reported":1715969372,"current_range_meters":0,"station_id":"chh1huq6cuj3fo74tm60","pricing_plan_id":"cebpf4jnsgd1na2vs0mg"},{"bike_id":"a837d745-1515-4f96-8f53-7748ae48042c","system_id":"levelo_inurba_marseille","lat":43.28856,"lon":5.358371,"is_reserved":false,"is_disabled":false,"rental_uris":{"android":"levelo://app?vid=a837d745-1515-4f96-8f53-7748ae48042c","ios":"levelo://app?vid=a837d745-1515-4f96-8f53-7748ae48042c"},"vehicle_type_id":"4","last_reported":1715969372,"current_range_meters":20000,"station_id":"ce4bhb12rcd13ifvqem0","pricing_plan_id":"cebpf4jnsgd1na2vs0mg"},{"bike_id":"a92cfd34-33ca-4512-89a2-2b8dc853de19","system_id":"levelo_inurba_marseille","lat":43.28856,"lon":5.358371,"is_reserved":false,"is_disabled":false,"rental_uris":{"android":"levelo://app?vid=a92cfd34-33ca-4512-89a2-2b8dc853de19","ios":"levelo://app?vid=a92cfd34-33ca-4512-89a2-2b8dc853de19"},"vehicle_type_id":"4","last_reported":1715969372,"current_range_meters":11600,"station_id":"ce4bhb12rcd13ifvqem0","pricing_plan_id":"cebpf4jnsgd1na2vs0mg"},{"bike_id":"4994e041-ae8e-4fb3-8200-0f886ae7a251","system_id":"levelo_inurba_marseille","lat":43.28856,"lon":5.358371,"is_reserved":false,"is_disabled":false,"rental_uris":{"android":"levelo://app?vid=4994e041-ae8e-4fb3-8200-0f886ae7a251","ios":"levelo://app?vid=4994e041-ae8e-4fb3-8200-0f886ae7a251"},"vehicle_type_id":"4","last_reported":1715969372,"current_range_meters":4000,"station_id":"ce4bhb12rcd13ifvqem0","pricing_plan_id":"cebpf4jnsgd1na2vs0mg"},{"bike_id":"1153c18b-9b2e-4877-a085-5337d320fe6c","system_id":"levelo_inurba_marseille","lat":43.28856,"lon":5.358371,"is_reserved":false,"is_disabled":false,"rental_uris":{"android":"levelo://app?vid=1153c18b-9b2e-4877-a085-5337d320fe6c","ios":"levelo://app?vid=1153c18b-9b2e-4877-a085-5337d320fe6c"},