{"last_updated":1728403846,"ttl":60,"version":"2.2","data":{"bikes":[{"bike_id":"58a24ad9-05ed-499a-b4b5-3ffa36e61b13","system_id":"levelo_inurba_marseille","lat":43.27941,"lon":5.38697,"is_reserved":false,"is_disabled":false,"rental_uris":{"android":"levelo://app?vid=58a24ad9-05ed-499a-b4b5-3ffa36e61b13","ios":"levelo://app?vid=58a24ad9-05ed-499a-b4b5-3ffa36e61b13"},"vehicle_type_id":"4","last_reported":1728403846,"current_range_meters":38000,"station_id":"","pricing_plan_id":"cebpf4jnsgd1na2vs0mg"},{"bike_id":"2eebc418-81a4-48d2-8a61-21c87e83362a","system_id":"levelo_inurba_marseille","lat":43.27379,"lon":5.36271,"is_reserved":false,"is_disabled":false,"rental_uris":{"android":"levelo://app?vid=2eebc418-81a4-48d2-8a61-21c87e83362a","ios":"levelo://app?vid=2eebc418-81a4-48d2-8a61-21c87e83362a"},"vehicle_type_id":"4","last_reported":1728403846,"current_range_meters":6800,"station_id":"ce4bhbh2rcd13ifvqeo0","pricing_plan_id":"cebpf4jnsgd1na2vs0mg"},{"bike_id":"a35661b2-b710-4aed-96d4-0351ce96658b","system_id":"levelo_inurba_marseille","lat":43.27611,"lon":5.36104,"is_reserved":false,"is_disabled":false,"rental_uris":{"android":"levelo://app?vid=a35661b2-b710-4aed-96d4-0351ce96658b","ios":"levelo://app?vid=a35661b2-b710-4aed-96d4-0351ce96658b"},"vehicle_type_id":"4","last_reported":1728403846,"current_range_meters":32400,"station_id":"ce4bgj92rcd13ifvqbe0","pricing_plan_id":"cebpf4jnsgd1na2vs0mg"},{"bike_id":"add9fef5-c62d-44bd-9b64-52d06baef3e9","system_id":"levelo_inurba_marseille","lat":43.2953,"lon":5.39396,"is_reserved":false,"is_disabled":false,"rental_uris":{"android":"levelo://app?vid=add9fef5-c62d-44bd-9b64-52d06baef3e9","ios":"levelo://app?vid=add9fef5-c62d-44bd-9b64-52d06baef3e9"},"vehicle_type_id":"4","last_reported":1728403846,"current_range_meters":2800,"station_id":"ce4bh292rcd13ifvqdf0","pricing_plan_id":"cebpf4jnsgd1na2vs0mg"},{"bike_id":"6eae26b0-3281-4453-bbf1-25cc19dff223","system_id":"levelo_inurba_marseille","lat":43.29249,"lon":5.40896,"is_reserved":false,"is_disabled":false,"rental_uris":{"android":"levelo://app?vid=6eae26b0-3281-4453-bbf1-25cc19dff223","ios":"levelo://app?vid=6eae26b0-3281-4453-bbf1-25cc19dff223"},"vehicle_type_id":"4","last_reported":1728403846,"current_range_meters":38000,"station_id":"ce4bh192rcd13ifvqdc0","pricing_plan_id":"cebpf4jnsgd1na2vs0mg"},{"bike_id":"75f11660-7622-4c47-b2e5-57a2baeae5dd","system_id":"levelo_inurba_marseille","lat":43.27374,"lon":5.36265,"is_reserved":false,"is_disabled":false,"rental_uris":{"android":"levelo://app?vid=75f11660-7622-4c47-b2e5-57a2baeae5dd","ios":"levelo://app?vid=75f11660-7622-4c47-b2e5-57a2baeae5dd"},"vehicle_type_id":"4","last_reported":1728403846,"current_range_meters":38800,"station_id":"ce4bhbh2rcd13ifvqeo0","pricing_plan_id":"cebpf4jnsgd1na2vs0mg"},{"bike_id":"3edccbad-c604-40df-acb2-6e9d91b67298","system_id":"levelo_inurba_marseille","lat":43.23051,"lon":5.35492,"is_reserved":false,"is_disabled":false,"rental_uris":{"android":"levelo://app?vid=3edccbad-c604-40df-acb2-6e9d91b67298","ios":"levelo://app?vid=3edccbad-c604-40df-acb2-6e9d91b67298"},"vehicle_type_id":"4","last_reported":1728403846,"current_range_meters":12400,"station_id":"cpo3342slgdg3j2ifvpg","pricing_plan_id":"cebpf4jnsgd1na2vs0mg"},{"bike_id":"689ff25f-c1b5-4cf6-8764-0d22c40a2cf0","system_id":"levelo_inurba_marseille","lat":43.27379,"lon":5.36253,"is_reserved":false,"is_disabled":false,"rental_uris":{"android":"levelo://app?vid=689ff25f-c1b5-4cf6-8764-0d22c40a2cf0","ios":"levelo://app?vid=689ff25f-c1b5-4cf6-8764-0d22c40a2cf0"},"vehicle_type_id":"4","last_reported":1728403846,"current_range_meters":38400,"station_id":"ce4bhbh2rcd13ifvqeo0","pricing_plan_id":"cebpf4jnsgd1na2vs0mg"},{"bike_id":"f4200f39-deed-41b0-b5ae-d66fb84b9e80","system_id":"levelo_inurba_marseille","lat":43.2656,"lon":5.37282,"is_reserved":false,"is_disabled":false,"rental_uris":{"android":"levelo://app?vid=f4200f39-deed-41b0-b5ae-d66fb84b9e80","ios":"levelo://app?vid=f4200f39-deed-41b0-b5ae-d66fb84b9e80"},"vehicle_type_id":"4","last_reported":1728403846,"current_range_meters":8800,"station_id":"ce4bhg12rcd13ifvqf70","pricing_plan_id":"cebpf4jnsgd1na2vs0mg"},{"bike_id":"4072215b-ec0b-4d14-8899-a7077f1bedc1","system_id":"levelo_inurba_marseille","lat":43.28926,"lon":5.38403,"is_reserved":false,"is_disabled":false,"rental_uris":{"android":"levelo://app?vid=4072215b-ec0b-4d14-8899-a7077f1bedc1","ios":"levelo://app?vid=4072215b-ec0b-4d14-8899-a7077f1bedc1"},"vehicle_type_id":"4","last_reported":1728403846,"current_range_meters":28000,"station_id":"ce4bh612rcd13ifvqe6g","pricing_plan_id":"cebpf4jnsgd1na2vs0mg"},{"bike_id":"591b37cf-52c6-4946-838d-d16a5b4ed171","system_id":"levelo_inurba_marseille","lat":43.31886,"lon":5.40741,"is_reserved":false,"is_disabled":false,"rental_uris":{"android":"levelo://app?vid=591b37cf-52c6-4946-838d-d16a5b4ed171","ios":"levelo://app?vid=591b37cf-52c6-4946-838d-d16a5b4ed171"},"vehicle_type_id":"4","last_reported":1728403846,"current_range_meters":0,"station_id":"ce4bhq12rcd13ifvqhig","pricing_plan_id":"cebpf4jnsgd1na2vs0mg"},{"bike_id":"81b07a05-4c57-4e76-99d6-5f6e3acbb201","system_id":"levelo_inurba_marseille","lat":43.23059,"lon":5.35495,"is_reserved":false,"is_disabled":false,"rental_uris":{"android":"levelo://app?vid=81b07a05-4c57-4e76-99d6-5f6e3acbb201","ios":"levelo://app?vid=81b07a05-4c57-4e76-99d6-5f6e3acbb201"},"vehicle_type_id":"4","last_reported":1728403846,"current_range_meters":6400,"station_id":"cpo3342slgdg3j2ifvpg","pricing_plan_id":"cebpf4jnsgd1na2vs0mg"},{"bike_id":"809d4a37-f61b-4a81-b505-c4fb238cf73a","system_id":"levelo_inurba_marseille","lat":43.28942,"lon":5.39637,"is_reserved":false,"is_disabled":false,"rental_uris":{"android":"levelo://app?vid=809d4a37-f61b-4a81-b505-c4fb238cf73a","ios":"levelo://app?vid=809d4a37-f61b-4a81-b505-c4fb238cf73a"},"vehicle_type_id":"4","last_reported":1728403846,"current_range_meters":800,"station_id":"ce4bh3h2rcd13ifvqdn0","pricing_plan_id":"cebpf4jnsgd1na2vs0mg"},{"bike_id":"fca6ae8e-7788-4404-95a2-6fa51e66ea91","system_id":"levelo_inurba_marseille","lat":43.24658,"lon":5.38165,"is_reserved":false,"is_disabled":false,"rental_uris":{"android":"levelo://app?vid=fca6ae8e-7788-4404-95a2-6fa51e66ea91","ios":"levelo://app?vid=fca6ae8e-7788-4404-95a2-6fa51e66ea91"},"vehicle_type_id":"4","last_reported":1728403846,"current_range_meters":4800,"station_id":"ce4bhih2rcd13ifvqfr0","pricing_plan_id":"cebpf4jnsgd1na2vs0mg"},{"bike_id":"a014d622-d55a-4c3e-b50c-0f9853733d2f","system_id":"levelo_inurba_marseille","lat":43.26789,"lon":5.3942,"is_reserved":false,"is_disabled":false,"rental_uris":{"android":"levelo://app?vid=a014d622-d55a-4c3e-b50c-0f9853733d2f","ios":"levelo://app?vid=a014d622-d55a-4c3e-b50c-0f9853733d2f"},"vehicle_type_id":"4","last_reported":1728403846,"current_range_meters":2800,"station_id":"ce4bhh12rcd13ifvqfg0","pricing_plan_id":"cebpf4jnsgd1na2vs0mg"},{"bike_id":"90b7b815-be07-4d3f-a351-671d7e515226","system_id":"levelo_inurba_marseille","lat":43.24647,"lon":5.3889,"is_reserved":false,"is_disabled":false,"rental_uris":{"android":"levelo://app?vid=90b7b815-be07-4d3f-a351-671d7e515226","ios":"levelo://app?vid=90b7b815-be07-4d3f-a351-671d7e515226"},"vehicle_type_id":"4","last_reported":1728403846,"current_range_meters":19200,"station_id":"ce4bhg12rcd13ifvqf60","pricing_plan_id":"cebpf4jnsgd1na2vs0mg"},{"bike_id":"aa3103db-f865-40d4-97ce-aa89e199ca1d","system_id":"levelo_inurba_marseille","lat":43.282666,"lon":5.350711,"is_reserved":false,"is_disabled":false,"rental_uris":{"android":"levelo://app?vid=aa3103db-f865-40d4-97ce-aa89e199ca1d","ios":"levelo://app?vid=aa3103db-f865-40d4-97ce-aa89e199ca1d"},"vehicle_type_id":"4","last_reported":1728403846,"current_range_meters":38800,"station_id":"ce4bhbp2rcd13ifvqerg","pricing_plan_id":"cebpf4jnsgd1na2vs0mg"},{"bike_id":"066ccb90-6b9a-4302-bde4-9c97dfce747d","system_id":"levelo_inurba_marseille","lat":43.33726,"lon":5.39188,"is_reserved":false,"is_disabled":false,"rental_uris":{"android":"levelo://app?vid=066ccb90-6b9a-4302-bde4-9c97dfce747d","ios":"levelo://app?vid=066ccb90-6b9a-4302-bde4-9c97dfce747d"},"vehicle_type_id":"4","last_reported":1728403846,"current_range_meters":36400,"station_id":"ce4bhr92rcd13ifvqhsg","pricing_plan_id":"cebpf4jnsgd1na2vs0mg"},{"bike_id":"f50162c6-b604-4fac-8f3c-6b59d21e8e0f","system_id":"levelo_inurba_marseille","lat":43.24178,"lon":5.39731,"is_reserved":false,"is_disabled":false,"rental_uris":{"android":"levelo://app?vid=f50162c6-b604-4fac-8f3c-6b59d21e8e0f","ios":"levelo://app?vid=f50162c6-b604-4fac-8f3c-6b59d21e8e0f"},"vehicle_type_id":"4","last_reported":1728403846,"current_range_meters":20000,"station_id":"ce4bhn12rcd13ifvqgpg","pricing_plan_id":"cebpf4jnsgd1na2vs0mg"},{"bike_id":"9d9fb096-c1fe-4cfc-957f-265a496e4307","system_id":"levelo_inurba_marseille","lat":43.2655,"lon":5.37288,"is_reserved":false,"is_disabled":false,"rental_uris":{"android":"levelo://app?vid=9d9fb096-c1fe-4cfc-957f-265a496e4307","ios":"levelo://app?vid=9d9fb096-c1fe-4cfc-957f-265a496e4307"},"vehicle_type_id":"4","last_reported":1728403846,"current_range_meters":32400,"station_id":"ce4bhg12rcd13ifvqf70","pricing_plan_id":"cebpf4jnsgd1na2vs0mg"},{"bike_id":"198bed4a-52e8-4608-826c-1f3d38299517","system_id":"levelo_inurba_marseille","lat":43.29794,"lon":5.40396,"is_reserved":false,"is_disabled":false,"rental_uris":{"android":"levelo://app?vid=198bed4a-52e8-4608-826c-1f3d38299517","ios":"levelo://app?vid=198bed4a-52e8-4608-826c-1f3d38299517"},"vehicle_type_id":"4","last_reported":1728403846,"current_range_meters":30400,"station_id":"ce4bh112rcd13ifvqd90","pricing_plan_id":"cebpf4jnsgd1na2vs0mg"},{"bike_id":"8cced729-50e8-4092-8b83-cee80118604a","system_id":"levelo_inurba_marseille","lat":43.29561,"lon":5.37501,"is_reserved":false,"is_disabled":false,"rental_uris":{"android":"levelo://app?vid=8cced729-50e8-4092-8b83-cee80118604a","ios":"levelo://app?vid=8cced729-50e8-4092-8b83-cee80118604a"},"vehicle_type_id":"4","last_reported":1728403846,"current_range_meters":37600,"station_id":"ce4bgh92rcd13ifvqb50","pricing_plan_id":"cebpf4jnsgd1na2vs0mg"},{"bike_id":"35db5aab-a536-4286-87d7-90ec43783f24","system_id":"levelo_inurba_marseille","lat":43.23193,"lon":5.35554,"is_reserved":false,"is_disabled":false,"rental_uris":{"android":"levelo://app?vid=35db5aab-a536-4286-87d7-90ec43783f24","ios":"levelo://app?vid=35db5aab-a536-4286-87d7-90ec43783f24"},"vehicle_type_id":"4","last_reported":1728403846,"current_range_meters":29600,"station_id":"ce4bhu92rcd13ifvqi70","pricing_plan_id":"cebpf4jnsgd1na2vs0mg"},{"bike_id":"c12c34b2-7d84-4cf4-b240-f26923dbc72a","system_id":"levelo_inurba_marseille","lat":43.29537,"lon":5.38546,"is_reserved":false,"is_disabled":false,"rental_uris":{"android":"levelo://app?vid=c12c34b2-7d84-4cf4-b240-f26923dbc72a","ios":"levelo://app?vid=c12c34b2-7d84-4cf4-b240-f26923dbc72a"},"vehicle_type_id":"4","last_reported":1728403846,"current_range_meters":6400,"station_id":"ce4bgih2rcd13ifvqba0","pricing_plan_id":"cebpf4jnsgd1na2vs0mg"},{"bike_id":"b7644bd2-dcd1-4853-8900-8ebbf1e79312","system_id":"levelo_inurba_marseille","lat":43.297,"lon":5.36601,"is_reserved":false,"is_disabled":false,"rental_uris":{"android":"levelo://app?vid=b7644bd2-dcd1-4853-8900-8ebbf1e79312","ios":"levelo://app?vid=b7644bd2-dcd1-4853-8900-8ebbf1e79312"},"vehicle_type_id":"4","last_reported":1728403846,"current_range_meters":19200,"station_id":"ce4bgn12rcd13ifvqbt0","pricing_plan_id":"cebpf4jnsgd1na2vs0mg"},{"bike_id":"f9be3472-8874-4637-81c3-c4d057676443","system_id":"levelo_inurba_marseille","lat":43.23182,"lon":5.39987,"is_reserved":false,"is_disabled":false,"rental_uris":{"android":"levelo://app?vid=f9be3472-8874-4637-81c3-c4d057676443","ios":"levelo://app?vid=f9be3472-8874-4637-81c3-c4d057676443"},"vehicle_type_id":"4","last_reported":1728403846,"current_range_meters":4800,"station_id":"ce4bhn12rcd13ifvqgqg","pricing_plan_id":"cebpf4jnsgd1na2vs0mg"},{"bike_id":"d74661f0-830d-4988-b75c-49337b55f926","system_id":"levelo_inurba_marseille","lat":43.3229,"lon":5.38278,"is_reserved":false,"is_disabled":false,"rental_uris":{"android":"levelo://app?vid=d74661f0-830d-4988-b75c-49337b55f926","ios":"levelo://app?vid=d74661f0-830d-4988-b75c-49337b55f926"},"vehicle_type_id":"4","last_reported":1728403846,"current_range_meters":28400,"station_id":"ce4bhr12rcd13ifvqhqg","pricing_plan_id":"cebpf4jnsgd1na2vs0mg"},{"bike_id":"82e33ac7-7556-481a-a6a0-35c802146b93","system_id":"levelo_inurba_marseille","lat":43.30885,"lon":5.39655,"is_reserved":false,"is_disabled":false,"rental_uris":{"android":"levelo://app?vid=82e33ac7-7556-481a-a6a0-35c802146b93","ios":"levelo://app?vid=82e33ac7-7556-481a-a6a0-35c802146b93"},"vehicle_type_id":"4","last_reported":1728403846,"current_range_meters":4800,"station_id":"ce4bh012rcd13ifvqcv0","pricing_plan_id":"cebpf4jnsgd1na2vs0mg"},{"bike_id":"012809b7-2471-49ec-b20a-b82c9136c8f2","system_id":"levelo_inurba_marseille","lat":43.27072,"lon":5.42279,"is_reserved":false,"is_disabled":false,"rental_uris":{"android":"levelo://app?vid=012809b7-2471-49ec-b20a-b82c9136c8f2","ios":"levelo://app?vid=012809b7-2471-49ec-b20a-b82c9136c8f2"},"vehicle_type_id":"4","last_reported":1728403846,"current_range_meters":8400,"station_id":"ce4bhk92rcd13ifvqgb0","pricing_plan_id":"cebpf4jnsgd1na2vs0mg"},{"bike_id":"e33ab491-f5fb-4bc6-baee-bf7b7130a05e","system_id":"levelo_inurba_marseille","lat":43.28615,"lon":5.35105,"is_reserved":false,"is_disabled":false,"rental_uris":{"android":"levelo://app?vid=e33ab491-f5fb-4bc6-baee-bf7b7130a05e","ios":"levelo://app?vid=e33ab491-f5fb-4bc6-baee-bf7b7130a05e"},"vehicle_type_id":"4","last_reported":1728403846,"current_range_meters":34800,"station_id":"ce4bhch2rcd13ifvqeug","pricing_plan_id":"cebpf4jnsgd1na2vs0mg"},{"bike_id":"66ff6098-7eb9-410a-9cf7-bec087048d61","system_id":"levelo_inurba_marseille","lat":43.274078,"lon":5.362125,"is_reserved":false,"is_disabled":false,"rental_uris":{"android":"levelo://app?vid=66ff6098-7eb9-410a-9cf7-bec087048d61","ios":"levelo://app?vid=66ff6098-7eb9-410a-9cf7-bec087048d61"},"vehicle_type_id":"4","last_reported":1728403846,"current_range_meters":23200,"station_id":"ce4bgi12rcd13ifvqb70","pricing_plan_id":"cebpf4jnsgd1na2vs0mg"},{"bike_id":"c5c7b103-a3d6-4563-904b-072b9a721b51","system_id":"levelo_inurba_marseille","lat":43.32295,"lon":5.38276,"is_reserved":false,"is_disabled":false,"rental_uris":{"android":"levelo://app?vid=c5c7b103-a3d6-4563-904b-072b9a721b51","ios":"levelo://app?vid=c5c7b103-a3d6-4563-904b-072b9a721b51"},"vehicle_type_id":"4","last_reported":1728403846,"current_range_meters":24400,"station_id":"ce4bhr12rcd13ifvqhqg","pricing_plan_id":"cebpf4jnsgd1na2vs0mg"},{"bike_id":"72f390d6-8036-4225-a9fd-bbdc6e34eeea","system_id":"levelo_inurba_marseille","lat":43.23193,"lon":5.39989,"is_reserved":false,"is_disabled":false,"rental_uris":{"android":"levelo://app?vid=72f390d6-8036-4225-a9fd-bbdc6e34eeea","ios":"levelo://app?vid=72f390d6-8036-4225-a9fd-bbdc6e34eeea"},"vehicle_type_id":"4","last_reported":1728403846,"current_range_meters":36800,"station_id":"ce4bhn12rcd13ifvqgqg","pricing_plan_id":"cebpf4jnsgd1na2vs0mg"},{"bike_id":"e0fc6b2b-c143-4280-9722-0016916d40bb","system_id":"levelo_inurba_marseille","lat":43.24171,"lon":5.39731,"is_reserved":false,"is_disabled":false,"rental_uris":{"android":"levelo://app?vid=e0fc6b2b-c143-4280-9722-0016916d40bb","ios":"levelo://app?vid=e0fc6b2b-c143-4280-9722-0016916d40bb"},"vehicle_type_id":"4","last_reported":1728403846,"current_range_meters":27600,"station_id":"ce4bhn12rcd13ifvqgpg","pricing_plan_id":"cebpf4jnsgd1na2vs0mg"},{"bike_id":"d5414e04-d41a-433f-b321-60dbd78a2576","system_id":"levelo_inurba_marseille","lat":43.24808,"lon":5.37455,"is_reserved":false,"is_disabled":false,"rental_uris":{"android":"levelo://app?vid=d5414e04-d41a-433f-b321-60dbd78a2576","ios":"levelo://app?vid=d5414e04-d41a-433f-b321-60dbd78a2576"},"vehicle_type_id":"4","last_reported":1728403846,"current_range_meters":38800,"station_id":"ce4bhgh2rcd13ifvqfb0","pricing_plan_id":"cebpf4jnsgd1na2vs0mg"},{"bike_id":"4af55307-045f-4c66-a045-a91d88bb4c16","system_id":"levelo_inurba_marseille","lat":43.22928,"lon":5.35377,"is_reserved":false,"is_disabled":false,"rental_uris":{"android":"levelo://app?vid=4af55307-045f-4c66-a045-a91d88bb4c16","ios":"levelo://app?vid=4af55307-045f-4c66-a045-a91d88bb4c16"},"vehicle_type_id":"4","last_reported":1728403846,"current_range_meters":20400,"station_id":"cpo3532slgdg3j2ikp40","pricing_plan_id":"cebpf4jnsgd1na2vs0mg"},{"bike_id":"1108f945-2562-4a37-b07f-6ae5d87c264e","system_id":"levelo_inurba_marseille","lat":43.337444,"lon":5.374475,"is_reserved":false,"is_disabled":false,"rental_uris":{"android":"levelo://app?vid=1108f945-2562-4a37-b07f-6ae5d87c264e","ios":"levelo://app?vid=1108f945-2562-4a37-b07f-6ae5d87c264e"},"vehicle_type_id":"4","last_reported":1728403846,"current_range_meters":37600,"station_id":"","pricing_plan_id":"cebpf4jnsgd1na2vs0mg"},{"bike_id":"8750225e-e86d-49ae-849f-51a7a2685fc3","system_id":"levelo_inurba_marseille","lat":43.250843,"lon":5.395169,"is_reserved":false,"is_disabled":false,"rental_uris":{"android":"levelo://app?vid=8750225e-e86d-49ae-849f-51a7a2685fc3","ios":"levelo://app?vid=8750225e-e86d-49ae-849f-51a7a2685fc3"},"vehicle_type_id":"4","last_reported":1728403846,"current_range_meters":16800,"station_id":"ce4bhm12rcd13ifvqgkg","pricing_plan_id":"cebpf4jnsgd1na2vs0mg"},{"bike_id":"d97ef086-b101-46be-b171-9933c814020e","system_id":"levelo_inurba_marseille","lat":43.32537,"lon":5.41421,"is_reserved":false,"is_disabled":false,"rental_uris":{"android":"levelo://app?vid=d97ef086-b101-46be-b171-9933c814020e","ios":"levelo://app?vid=d97ef086-b101-46be-b171-9933c814020e"},"vehicle_type_id":"4","last_reported":1728403846,"current_range_meters":25600,"station_id":"ce4bhq12rcd13ifvqhhg","pricing_plan_id":"cebpf4jnsgd1na2vs0mg"},{"bike_id":"6d618cde-6ffb-495e-b3fd-d881e07993e2","system_id":"levelo_inurba_marseille","lat":43.28939,"lon":5.3664,"is_reserved":false,"is_disabled":false,"rental_uris":{"android":"levelo://app?vid=6d618cde-6ffb-495e-b3fd-d881e07993e2","ios":"levelo://app?vid=6d618cde-6ffb-495e-b3fd-d881e07993e2"},"vehicle_type_id":"4","last_reported":1728403846,"current_range_meters":23200,"station_id":"ce4bhap2rcd13ifvqek0","pricing_plan_id":"cebpf4jnsgd1na2vs0mg"},{"bike_id":"6f651bc6-2b4f-47e4-b2b7-7c8e84fca847","system_id":"levelo_inurba_marseille","lat":43.29882,"lon":5.38915,"is_reserved":false,"is_disabled":false,"rental_uris":{"android":"levelo://app?vid=6f651bc6-2b4f-47e4-b2b7-7c8e84fca847","ios":"levelo://app?vid=6f651bc6-2b4f-47e4-b2b7-7c8e84fca847"},"vehicle_type_id":"4","last_reported":1728403846,"current_range_meters":24400,"station_id":"ce4bh392rcd13ifvqdl0","pricing_plan_id":"cebpf4jnsgd1na2vs0mg"},{"bike_id":"c12c46a4-bd86-493d-803e-5d507cd7924b","system_id":"levelo_inurba_marseille","lat":43.23204,"lon":5.35552,"is_reserved":false,"is_disabled":false,"rental_uris":{"android":"levelo://app?vid=c12c46a4-bd86-493d-803e-5d507cd7924b","ios":"levelo://app?vid=c12c46a4-bd86-493d-803e-5d507cd7924b"},"vehicle_type_id":"4","last_reported":1728403846,"current_range_meters":17600,"station_id":"ce4bhu92rcd13ifvqi70","pricing_plan_id":"cebpf4jnsgd1na2vs0mg"},{"bike_id":"1e22ea5d-d406-4b63-92d6-06a783dc0af8","system_id":"levelo_inurba_marseille","lat":43.2319,"lon":5.39977,"is_reserved":false,"is_disabled":false,"rental_uris":{"android":"levelo://app?vid=1e22ea5d-d406-4b63-92d6-06a783dc0af8","ios":"levelo://app?vid=1e22ea5d-d406-4b63-92d6-06a783dc0af8"},"vehicle_type_id":"4","last_reported":1728403846,"current_range_meters":17600,"station_id":"ce4bhn12rcd13ifvqgqg","pricing_plan_id":"cebpf4jnsgd1na2vs0mg"},{"bike_id":"c19e637b-a9df-4896-bb6a-b56e60a34764","system_id":"levelo_inurba_marseille","lat":43.25099,"lon":5.3952,"is_reserved":false,"is_disabled":false,"rental_uris":{"android":"levelo://app?vid=c19e637b-a9df-4896-bb6a-b56e60a34764","ios":"levelo://app?vid=c19e637b-a9df-4896-bb6a-b56e60a34764"},"vehicle_type_id":"4","last_reported":1728403846,"current_range_meters":18000,"station_id":"ce4bhm12rcd13ifvqgkg","pricing_plan_id":"cebpf4jnsgd1na2vs0mg"},{"bike_id":"d185fa09-3df0-43cc-a82a-8fc41b649c31","system_id":"levelo_inurba_marseille","lat":43.27946,"lon":5.41048,"is_reserved":false,"is_disabled":false,"rental_uris":{"android":"levelo://app?vid=d185fa09-3df0-43cc-a82a-8fc41b649c31","ios":"levelo://app?vid=d185fa09-3df0-43cc-a82a-8fc41b649c31"},"vehicle_type_id":"4","last_reported":1728403846,"current_range_meters":34000,"station_id":"ce4bhnp2rcd13ifvqh0g","pricing_plan_id":"cebpf4jnsgd1na2vs0mg"},{"bike_id":"662f4970-f45a-4eb7-8b5b-5f2d14dbdf57","system_id":"levelo_inurba_marseille","lat":43.26682,"lon":5.38272,"is_reserved":false,"is_disabled":false,"rental_uris":{"android":"levelo://app?vid=662f4970-f45a-4eb7-8b5b-5f2d14dbdf57","ios":"levelo://app?vid=662f4970-f45a-4eb7-8b5b-5f2d14dbdf57"},"vehicle_type_id":"4","last_reported":1728403846,"current_range_meters":36800,"station_id":"ce4bhg92rcd13ifvqf90","pricing_plan_id":"cebpf4jnsgd1na2vs0mg"},{"bike_id":"01090722-31cf-4e93-9e38-1741e033ebfd","system_id":"levelo_inurba_marseille","lat":43.29918,"lon":5.37481,"is_reserved":false,"is_disabled":false,"rental_uris":{"android":"levelo://app?vid=01090722-31cf-4e93-9e38-1741e033ebfd","ios":"levelo://app?vid=01090722-31cf-4e93-9e38-1741e033ebfd"},"vehicle_type_id":"4","last_reported":1728403846,"current_range_meters":28000,"station_id":"ce4bgjh2rcd13ifvqbg0","pricing_plan_id":"cebpf4jnsgd1na2vs0mg"},{"bike_id":"a94c8440-e3d7-4ce9-91c7-2bc2fec21011","system_id":"levelo_inurba_marseille","lat":43.27377,"lon":5.36258,"is_reserved":false,"is_disabled":false,"rental_uris":{"android":"levelo://app?vid=a94c8440-e3d7-4ce9-91c7-2bc2fec21011","ios":"levelo://app?vid=a94c8440-e3d7-4ce9-91c7-2bc2fec21011"},"vehicle_type_id":"4","last_reported":1728403846,"current_range_meters":6800,"station_id":"ce4bhbh2rcd13ifvqeo0","pricing_plan_id":"cebpf4jnsgd1na2vs0mg"},{"bike_id":"baef9fba-2a63-45f6-ba69-ec17986e56b6","system_id":"levelo_inurba_marseille","lat":43.29738,"lon":5.37681,"is_reserved":false,"is_disabled":false,"rental_uris":{"android":"levelo://app?vid=baef9fba-2a63-45f6-ba69-ec17986e56b6","ios":"levelo://app?vid=baef9fba-2a63-45f6-ba69-ec17986e56b6"},"vehicle_type_id":"4","last_reported":1728403846,"current_range_meters":38800,"station_id":"ce4bgkh2rcd13ifvqbl0","pricing_plan_id":"cebpf4jnsgd1na2vs0mg"},{"bike_id":"79758d16-5dd5-4993-bddc-25fb8f318bf0","system_id":"levelo_inurba_marseille","lat":43.3009,"lon":5.39076,"is_reserved":false,"is_disabled":false,"rental_uris":{"android":"levelo://app?vid=79758d16-5dd5-4993-bddc-25fb8f318bf0","ios":"levelo://app?vid=79758d16-5dd5-4993-bddc-25fb8f318bf0"},"vehicle_type_id":"4","last_reported":1728403846,"current_range_meters":33600,"station_id":"ce4bh192rcd13ifvqdb0","pricing_plan_id":"cebpf4jnsgd1na2vs0mg"},{"bike_id":"8614b994-ae2d-4ba6-9c50-9dc14a4d72af","system_id":"levelo_inurba_marseille","lat":43.255,"lon":5.37654,"is_reserved":false,"is_disabled":false,"rental_uris":{"android":"levelo://app?vid=8614b994-ae2d-4ba6-9c50-9dc14a4d72af","ios":"levelo://app?vid=8614b994-ae2d-4ba6-9c50-9dc14a4d72af"},"vehicle_type_id":"4","last_reported":1728403846,"current_range_meters":28800,"station_id":"ce4bhh12rcd13ifvqff0","pricing_plan_id":"cebpf4jnsgd1na2vs0mg"},{"bike_id":"6b5668a9-0029-4b95-8860-61cea6d5c551","system_id":"levelo_inurba_marseille","lat":43.32472,"lon":5.36566,"is_reserved":false,"is_disabled":false,"rental_uris":{"android":"levelo://app?vid=6b5668a9-0029-4b95-8860-61cea6d5c551","ios":"levelo://app?vid=6b5668a9-0029-4b95-8860-61cea6d5c551"},"vehicle_type_id":"4","last_reported":1728403846,"current_range_meters":38000,"station_id":"","pricing_plan_id":"cebpf4jnsgd1na2vs0mg"},{"bike_id":"d00a3477-782a-4de0-b711-15ed9dd434f4","system_id":"levelo_inurba_marseille","lat":43.23054,"lon":5.35488,"is_reserved":false,"is_disabled":false,"rental_uris":{"android":"levelo://app?vid=d00a3477-782a-4de0-b711-15ed9dd434f4","ios":"levelo://app?vid=d00a3477-782a-4de0-b711-15ed9dd434f4"},"vehicle_type_id":"4","last_reported":1728403846,"current_range_meters":3600,"station_id":"cpo3342slgdg3j2ifvpg","pricing_plan_id":"cebpf4jnsgd1na2vs0mg"},{"bike_id":"428c9266-e011-4b54-8895-02f6fecf3d59","system_id":"levelo_inurba_marseille","lat":43.29423,"lon":5.38628,"is_reserved":false,"is_disabled":false,"rental_uris":{"android":"levelo://app?vid=428c9266-e011-4b54-8895-02f6fecf3d59","ios":"levelo://app?vid=428c9266-e011-4b54-8895-02f6fecf3d59"},"vehicle_type_id":"4","last_reported":1728403846,"current_range_meters":38800,"station_id":"ce4bh2h2rcd13ifvqdh0","pricing_plan_id":"cebpf4jnsgd1na2vs0mg"},{"bike_id":"864c1fdf-ebcf-4a58-8174-6e60fd5ed649","system_id":"levelo_inurba_marseille","lat":43.27173,"lon":5.40988,"is_reserved":false,"is_disabled":false,"rental_uris":{"android":"levelo://app?vid=864c1fdf-ebcf-4a58-8174-6e60fd5ed649","ios":"levelo://app?vid=864c1fdf-ebcf-4a58-8174-6e60fd5ed649"},"vehicle_type_id":"4","last_reported":1728403846,"current_range_meters":10800,"station_id":"ce4bhl12rcd13ifvqgf0","pricing_plan_id":"cebpf4jnsgd1na2vs0mg"},{"bike_id":"e38a71c7-93a2-4ec8-8f9f-16bfb5d4e073","system_id":"levelo_inurba_marseille","lat":43.2987,"lon":5.39735,"is_reserved":false,"is_disabled":false,"rental_uris":{"android":"levelo://app?vid=e38a71c7-93a2-4ec8-8f9f-16bfb5d4e073","ios":"levelo://app?vid=e38a71c7-93a2-4ec8-8f9f-16bfb5d4e073"},"vehicle_type_id":"4","last_reported":1728403846,"current_range_meters":6800,"station_id":"ce4bh0h2rcd13ifvqd50","pricing_plan_id":"cebpf4jnsgd1na2vs0mg"},{"bike_id":"e8f38f77-6572-42be-9296-0cbe6e7cb972","system_id":"levelo_inurba_marseille","lat":43.23054,"lon":5.35492,"is_reserved":false,"is_disabled":false,"rental_uris":{"android":"levelo://app?vid=e8f38f77-6572-42be-9296-0cbe6e7cb972","ios":"levelo://app?vid=e8f38f77-6572-42be-9296-0cbe6e7cb972"},"vehicle_type_id":"4","last_reported":1728403846,"current_range_meters":30800,"station_id":"cpo3342slgdg3j2ifvpg","pricing_plan_id":"cebpf4jnsgd1na2vs0mg"},{"bike_id":"75597744-2f31-4375-aa4e-1a88ebd5b157","system_id":"levelo_inurba_marseille","lat":43.323517,"lon":5.364254,"is_reserved":false,"is_disabled":false,"rental_uris":{"android":"levelo://app?vid=75597744-2f31-4375-aa4e-1a88ebd5b157","ios":"levelo://app?vid=75597744-2f31-4375-aa4e-1a88ebd5b157"},"vehicle_type_id":"4","last_reported":1728403846,"current_range_meters":6000,"station_id":"ce4bh412rcd13ifvqds0","pricing_plan_id":"cebpf4jnsgd1na2vs0mg"},{"bike_id":"77d131a6-db5f-44eb-adb1-7fc7032d111b","system_id":"levelo_inurba_marseille","lat":43.24654,"lon":5.38895,"is_reserved":false,"is_disabled":false,"rental_uris":{"android":"levelo://app?vid=77d131a6-db5f-44eb-adb1-7fc7032d111b","ios":"levelo://app?vid=77d131a6-db5f-44eb-adb1-7fc7032d111b"},"vehicle_type_id":"4","last_reported":1728403846,"current_range_meters":12000,"station_id":"ce4bhg12rcd13ifvqf60","pricing_plan_id":"cebpf4jnsgd1na2vs0mg"},{"bike_id":"7bf18131-0d8e-491c-ad8f-7e4389ec4ed0","system_id":"levelo_inurba_marseille","lat":43.29877,"lon":5.38898,"is_reserved":false,"is_disabled":false,"rental_uris":{"android":"levelo://app?vid=7bf18131-0d8e-491c-ad8f-7e4389ec4ed0","ios":"levelo://app?vid=7bf18131-0d8e-491c-ad8f-7e4389ec4ed0"},"vehicle_type_id":"4","last_reported":1728403846,"current_range_meters":8800,"station_id":"ce4bh392rcd13ifvqdl0","pricing_plan_id":"cebpf4jnsgd1na2vs0mg"},{"bike_id":"4756f994-dcd0-40f0-8c02-f11efbc81576","system_id":"levelo_inurba_marseille","lat":43.25582,"lon":5.3824,"is_reserved":false,"is_disabled":false,"rental_uris":{"android":"levelo://app?vid=4756f994-dcd0-40f0-8c02-f11efbc81576","ios":"levelo://app?vid=4756f994-dcd0-40f0-8c02-f11efbc81576"},"vehicle_type_id":"4","last_reported":1728403846,"current_range_meters":28400,"station_id":"ce4bhih2rcd13ifvqfs0","pricing_plan_id":"cebpf4jnsgd1na2vs0mg"},{"bike_id":"81120058-b39a-44ba-b934-c158afb224ea","system_id":"levelo_inurba_marseille","lat":43.313263,"lon":5.396888,"is_reserved":false,"is_disabled":false,"rental_uris":{"android":"levelo://app?vid=81120058-b39a-44ba-b934-c158afb224ea","ios":"levelo://app?vid=81120058-b39a-44ba-b934-c158afb224ea"},"vehicle_type_id":"4","last_reported":1728403846,"current_range_meters":2000,"station_id":"ce4bgvp2rcd13ifvqcu0","pricing_plan_id":"cebpf4jnsgd1na2vs0mg"},{"bike_id":"b658c143-43b8-4433-a0d9-a48b3166f91e","system_id":"levelo_inurba_marseille","lat":43.310821,"lon":5.424281,"is_reserved":false,"is_disabled":false,"rental_uris":{"android":"levelo://app?vid=b658c143-43b8-4433-a0d9-a48b3166f91e","ios":"levelo://app?vid=b658c143-43b8-4433-a0d9-a48b3166f91e"},"vehicle_type_id":"4","last_reported":1728403846,"current_range_meters":12800,"station_id":"ce4bhp92rcd13ifvqhag","pricing_plan_id":"cebpf4jnsgd1na2vs0mg"},{"bike_id":"b5142c12-3f3f-452c-853c-bcb33ce12fbf","system_id":"levelo_inurba_marseille","lat":43.23202,"lon":5.35545,"is_reserved":false,"is_disabled":false,"rental_uris":{"android":"levelo://app?vid=b5142c12-3f3f-452c-853c-bcb33ce12fbf","ios":"levelo://app?vid=b5142c12-3f3f-452c-853c-bcb33ce12fbf"},"vehicle_type_id":"4","last_reported":1728403846,"current_range_meters":36800,"station_id":"ce4bhu92rcd13ifvqi70","pricing_plan_id":"cebpf4jnsgd1na2vs0mg"},{"bike_id":"21de6ba0-bc03-48e1-8d9f-f875bba9c5b9","system_id":"levelo_inurba_marseille","lat":43.308,"lon":5.43522,"is_reserved":false,"is_disabled":false,"rental_uris":{"android":"levelo://app?vid=21de6ba0-bc03-48e1-8d9f-f875bba9c5b9","ios":"levelo://app?vid=21de6ba0-bc03-48e1-8d9f-f875bba9c5b9"},"vehicle_type_id":"4","last_reported":1728403846,"current_range_meters":12000,"station_id":"ce4bhph2rcd13ifvqheg","pricing_plan_id":"cebpf4jnsgd1na2vs0mg"},{"bike_id":"4261034b-ec64-48f4-9924-92b3e081e7fa","system_id":"levelo_inurba_marseille","lat":43.28003,"lon":5.40005,"is_reserved":false,"is_disabled":false,"rental_uris":{"android":"levelo://app?vid=4261034b-ec64-48f4-9924-92b3e081e7fa","ios":"levelo://app?vid=4261034b-ec64-48f4-9924-92b3e081e7fa"},"vehicle_type_id":"4","last_reported":1728403846,"current_range_meters":12400,"station_id":"ce4bho92rcd13ifvqh4g","pricing_plan_id":"cebpf4jnsgd1na2vs0mg"},{"bike_id":"4fc638a5-f788-4211-989c-eab9f986d55f","system_id":"levelo_inurba_marseille","lat":43.2694,"lon":5.4025,"is_reserved":false,"is_disabled":false,"rental_uris":{"android":"levelo://app?vid=4fc638a5-f788-4211-989c-eab9f986d55f","ios":"levelo://app?vid=4fc638a5-f788-4211-989c-eab9f986d55f"},"vehicle_type_id":"4","last_reported":1728403846,"current_range_meters":9600,"station_id":"cjm6bp8fraef2m0cb0m0","pricing_plan_id":"cebpf4jnsgd1na2vs0mg"},{"bike_id":"68fe04c0-5d75-45e6-beba-6d59590df5a2","system_id":"levelo_inurba_marseille","lat":43.30803,"lon":5.43533,"is_reserved":false,"is_disabled":false,"rental_uris":{"android":"levelo://app?vid=68fe04c0-5d75-45e6-beba-6d59590df5a2","ios":"levelo://app?vid=68fe04c0-5d75-45e6-beba-6d59590df5a2"},"vehicle_type_id":"4","last_reported":1728403846,"current_range_meters":9200,"station_id":"ce4bhph2rcd13ifvqheg","pricing_plan_id":"cebpf4jnsgd1na2vs0mg"},{"bike_id":"2baef9d4-20b2-4f99-a7d2-fe2636021d9e","system_id":"levelo_inurba_marseille","lat":43.30923,"lon":5.40143,"is_reserved":false,"is_disabled":false,"rental_uris":{"android":"levelo://app?vid=2baef9d4-20b2-4f99-a7d2-fe2636021d9e","ios":"levelo://app?vid=2baef9d4-20b2-4f99-a7d2-fe2636021d9e"},"vehicle_type_id":"4","last_reported":1728403846,"current_range_meters":3200,"station_id":"ce4bgvp2rcd13ifvqct0","pricing_plan_id":"cebpf4jnsgd1na2vs0mg"},{"bike_id":"93d45870-2e1c-4ed1-9664-7b219a4ed443","system_id":"levelo_inurba_marseille","lat":43.22927,"lon":5.35381,"is_reserved":false,"is_disabled":false,"rental_uris":{"android":"levelo://app?vid=93d45870-2e1c-4ed1-9664-7b219a4ed443","ios":"levelo://app?vid=93d45870-2e1c-4ed1-9664-7b219a4ed443"},"vehicle_type_id":"4","last_reported":1728403846,"current_range_meters":30400,"station_id":"cpo3532slgdg3j2ikp40","pricing_plan_id":"cebpf4jnsgd1na2vs0mg"},{"bike_id":"5c2a1afd-c7b8-471d-933a-b62d7b52a4ec","system_id":"levelo_inurba_marseille","lat":43.30216,"lon":5.39455,"is_reserved":false,"is_disabled":false,"rental_uris":{"android":"levelo://app?vid=5c2a1afd-c7b8-471d-933a-b62d7b52a4ec","ios":"levelo://app?vid=5c2a1afd-c7b8-471d-933a-b62d7b52a4ec"},"vehicle_type_id":"4","last_reported":1728403846,"current_range_meters":38000,"station_id":"ce4bh0p2rcd13ifvqd70","pricing_plan_id":"cebpf4jnsgd1na2vs0mg"},{"bike_id":"9ffdbaf6-b4cc-4e90-8e18-59e8fe8ce519","system_id":"levelo_inurba_marseille","lat":43.2992,"lon":5.37506,"is_reserved":false,"is_disabled":false,"rental_uris":{"android":"levelo://app?vid=9ffdbaf6-b4cc-4e90-8e18-59e8fe8ce519","ios":"levelo://app?vid=9ffdbaf6-b4cc-4e90-8e18-59e8fe8ce519"},"vehicle_type_id":"4","last_reported":1728403846,"current_range_meters":38800,"station_id":"ce4bgrh2rcd13ifvqc8g","pricing_plan_id":"cebpf4jnsgd1na2vs0mg"},{"bike_id":"aad7d37e-4fd5-4548-a03b-28fb4b069217","system_id":"levelo_inurba_marseille","lat":43.26191,"lon":5.37449,"is_reserved":false,"is_disabled":false,"rental_uris":{"android":"levelo://app?vid=aad7d37e-4fd5-4548-a03b-28fb4b069217","ios":"levelo://app?vid=aad7d37e-4fd5-4548-a03b-28fb4b069217"},"vehicle_type_id":"4","last_reported":1728403846,"current_range_meters":14400,"station_id":"ce4bhgp2rcd13ifvqfc0","pricing_plan_id":"cebpf4jnsgd1na2vs0mg"},{"bike_id":"3652d264-684f-4fb5-90d0-51a566fcc6a3","system_id":"levelo_inurba_marseille","lat":43.290869,"lon":5.371766,"is_reserved":false,"is_disabled":false,"rental_uris":{"android":"levelo://app?vid=3652d264-684f-4fb5-90d0-51a566fcc6a3","ios":"levelo://app?vid=3652d264-684f-4fb5-90d0-51a566fcc6a3"},"vehicle_type_id":"4","last_reported":1728403846,"current_range_meters":14000,"station_id":"ce4bhah2rcd13ifvqej0","pricing_plan_id":"cebpf4jnsgd1na2vs0mg"},{"bike_id":"017308ad-f481-4218-b7f9-5a36c9fab05f","system_id":"levelo_inurba_marseille","lat":43.23195,"lon":5.35554,"is_reserved":false,"is_disabled":false,"rental_uris":{"android":"levelo://app?vid=017308ad-f481-4218-b7f9-5a36c9fab05f","ios":"levelo://app?vid=017308ad-f481-4218-b7f9-5a36c9fab05f"},"vehicle_type_id":"4","last_reported":1728403846,"current_range_meters":22800,"station_id":"ce4bhu92rcd13ifvqi70","pricing_plan_id":"cebpf4jnsgd1na2vs0mg"},{"bike_id":"608285e4-d7f0-4de8-b9d3-3160906bb9ed","system_id":"levelo_inurba_marseille","lat":43.29023,"lon":5.38648,"is_reserved":false,"is_disabled":false,"rental_uris":{"android":"levelo://app?vid=608285e4-d7f0-4de8-b9d3-3160906bb9ed","ios":"levelo://app?vid=608285e4-d7f0-4de8-b9d3-3160906bb9ed"},"vehicle_type_id":"4","last_reported":1728403846,"current_range_meters":1200,"station_id":"ce4bh4p2rcd13ifvqe0g","pricing_plan_id":"cebpf4jnsgd1na2vs0mg"},{"bike_id":"331dd4d4-70b9-44da-996e-808b09fe3eb4","system_id":"levelo_inurba_marseille","lat":43.3042,"lon":5.41282,"is_reserved":false,"is_disabled":false,"rental_uris":{"android":"levelo://app?vid=331dd4d4-70b9-44da-996e-808b09fe3eb4","ios":"levelo://app?vid=331dd4d4-70b9-44da-996e-808b09fe3eb4"},"vehicle_type_id":"4","last_reported":1728403846,"current_range_meters":4000,"station_id":"ce4bhop2rcd13ifvqh8g","pricing_plan_id":"cebpf4jnsgd1na2vs0mg"},{"bike_id":"3e1ff721-9b0f-4160-acdc-943aa9eba73a","system_id":"levelo_inurba_marseille","lat":43.295993,"lon":5.381077,"is_reserved":false,"is_disabled":false,"rental_uris":{"android":"levelo://app?vid=3e1ff721-9b0f-4160-acdc-943aa9eba73a","ios":"levelo://app?vid=3e1ff721-9b0f-4160-acdc-943aa9eba73a"},"vehicle_type_id":"4","last_reported":1728403846,"current_range_meters":38000,"station_id":"ce4bgl12rcd13ifvqbo0","pricing_plan_id":"cebpf4jnsgd1na2vs0mg"},{"bike_id":"a92f6206-1720-4e29-9ed4-ca1db6a5dc4b","system_id":"levelo_inurba_marseille","lat":43.29915,"lon":5.37558,"is_reserved":false,"is_disabled":false,"rental_uris":{"android":"levelo://app?vid=a92f6206-1720-4e29-9ed4-ca1db6a5dc4b","ios":"levelo://app?vid=a92f6206-1720-4e29-9ed4-ca1db6a5dc4b"},"vehicle_type_id":"4","last_reported":1728403846,"current_range_meters":27200,"station_id":"","pricing_plan_id":"cebpf4jnsgd1na2vs0mg"},{"bike_id":"0af1008a-0c7c-4e5f-905e-b908636160e2","system_id":"levelo_inurba_marseille","lat":43.26554,"lon":5.37282,"is_reserved":false,"is_disabled":false,"rental_uris":{"android":"levelo://app?vid=0af1008a-0c7c-4e5f-905e-b908636160e2","ios":"levelo://app?vid=0af1008a-0c7c-4e5f-905e-b908636160e2"},"vehicle_type_id":"4","last_reported":1728403846,"current_range_meters":12800,"station_id":"ce4bhg12rcd13ifvqf70","pricing_plan_id":"cebpf4jnsgd1na2vs0mg"},{"bike_id":"d6fed826-2998-4526-ba03-73b7cd38ec14","system_id":"levelo_inurba_marseille","lat":43.28484,"lon":5.34993,"is_reserved":false,"is_disabled":false,"rental_uris":{"android":"levelo://app?vid=d6fed826-2998-4526-ba03-73b7cd38ec14","ios":"levelo://app?vid=d6fed826-2998-4526-ba03-73b7cd38ec14"},"vehicle_type_id":"4","last_reported":1728403846,"current_range_meters":16800,"station_id":"ce4bgj92rcd13ifvqbe0","pricing_plan_id":"cebpf4jnsgd1na2vs0mg"},{"bike_id":"81804227-c392-4016-b67b-f2ce4b764b97","system_id":"levelo_inurba_marseille","lat":43.28461,"lon":5.35887,"is_reserved":false,"is_disabled":false,"rental_uris":{"android":"levelo://app?vid=81804227-c392-4016-b67b-f2ce4b764b97","ios":"levelo://app?vid=81804227-c392-4016-b67b-f2ce4b764b97"},"vehicle_type_id":"4","last_reported":1728403846,"current_range_meters":24800,"station_id":"ce4bhah2rcd13ifvqei0","pricing_plan_id":"cebpf4jnsgd1na2vs0mg"},{"bike_id":"71c8f50c-cbe4-4609-98f9-b2a774784a36","system_id":"levelo_inurba_marseille","lat":43.289372,"lon":5.366441,"is_reserved":false,"is_disabled":false,"rental_uris":{"android":"levelo://app?vid=71c8f50c-cbe4-4609-98f9-b2a774784a36","ios":"levelo://app?vid=71c8f50c-cbe4-4609-98f9-b2a774784a36"},"vehicle_type_id":"4","last_reported":1728403846,"current_range_meters":3200,"station_id":"ce4bha12rcd13ifvqef0","pricing_plan_id":"cebpf4jnsgd1na2vs0mg"},{"bike_id":"3db92d35-9591-475c-be00-b9f6fe66dfcf","system_id":"levelo_inurba_marseille","lat":43.302488,"lon":5.400621,"is_reserved":false,"is_disabled":false,"rental_uris":{"android":"levelo://app?vid=3db92d35-9591-475c-be00-b9f6fe66dfcf","ios":"levelo://app?vid=3db92d35-9591-475c-be00-b9f6fe66dfcf"},"vehicle_type_id":"4","last_reported":1728403846,"current_range_meters":26800,"station_id":"","pricing_plan_id":"cebpf4jnsgd1na2vs0mg"},{"bike_id":"35f19849-b583-459a-8966-c36ec1914dce","system_id":"levelo_inurba_marseille","lat":43.285217,"lon":5.391011,"is_reserved":false,"is_disabled":false,"rental_uris":{"android":"levelo://app?vid=35f19849-b583-459a-8966-c36ec1914dce","ios":"levelo://app?vid=35f19849-b583-459a-8966-c36ec1914dce"},"vehicle_type_id":"4","last_reported":1728403846,"current_range_meters":6000,"station_id":"ce4bhoh2rcd13ifvqh5g","pricing_plan_id":"cebpf4jnsgd1na2vs0mg"},{"bike_id":"f7803bda-f75b-4b62-8595-1c4e2c0c2427","system_id":"levelo_inurba_marseille","lat":43.24178,"lon":5.39734,"is_reserved":false,"is_disabled":false,"rental_uris":{"android":"levelo://app?vid=f7803bda-f75b-4b62-8595-1c4e2c0c2427","ios":"levelo://app?vid=f7803bda-f75b-4b62-8595-1c4e2c0c2427"},"vehicle_type_id":"4","last_reported":1728403846,"current_range_meters":3200,"station_id":"ce4bhn12rcd13ifvqgpg","pricing_plan_id":"cebpf4jnsgd1na2vs0mg"},{"bike_id":"cf927195-cafe-4fe6-8a9b-b503bf9be2b0","system_id":"levelo_inurba_marseille","lat":43.23179,"lon":5.39987,"is_reserved":false,"is_disabled":false,"rental_uris":{"android":"levelo://app?vid=cf927195-cafe-4fe6-8a9b-b503bf9be2b0","ios":"levelo://app?vid=cf927195-cafe-4fe6-8a9b-b503bf9be2b0"},"vehicle_type_id":"4","last_reported":1728403846,"current_range_meters":36400,"station_id":"ce4bhn12rcd13ifvqgqg","pricing_plan_id":"cebpf4jnsgd1na2vs0mg"},{"bike_id":"3ecff8b0-97b3-4511-94c6-587f3120cdf6","system_id":"levelo_inurba_marseille","lat":43.2997,"lon":5.37184,"is_reserved":false,"is_disabled":false,"rental_uris":{"android":"levelo://app?vid=3ecff8b0-97b3-4511-94c6-587f3120cdf6","ios":"levelo://app?vid=3ecff8b0-97b3-4511-94c6-587f3120cdf6"},"vehicle_type_id":"4","last_reported":1728403846,"current_range_meters":5600,"station_id":"ce4bgr92rcd13ifvqc7g","pricing_plan_id":"cebpf4jnsgd1na2vs0mg"},{"bike_id":"4671d3b4-db91-425d-9a0f-4f5e3512f516","system_id":"levelo_inurba_marseille","lat":43.28724,"lon":5.36087,"is_reserved":false,"is_disabled":false,"rental_uris":{"android":"levelo://app?vid=4671d3b4-db91-425d-9a0f-4f5e3512f516","ios":"levelo://app?vid=4671d3b4-db91-425d-9a0f-4f5e3512f516"},"vehicle_type_id":"4","last_reported":1728403846,"current_range_meters":28000,"station_id":"cki0cbj6b192h4jlfktg","pricing_plan_id":"cebpf4jnsgd1na2vs0mg"},{"bike_id":"837be1aa-6c36-422b-a4d7-b83281f7978f","system_id":"levelo_inurba_marseille","lat":43.292251,"lon":5.360589,"is_reserved":false,"is_disabled":false,"rental_uris":{"android":"levelo://app?vid=837be1aa-6c36-422b-a4d7-b83281f7978f","ios":"levelo://app?vid=837be1aa-6c36-422b-a4d7-b83281f7978f"},"vehicle_type_id":"4","last_reported":1728403846,"current_range_meters":16000,"station_id":"ce4bhbh2rcd13ifvqeqg","pricing_plan_id":"cebpf4jnsgd1na2vs0mg"},{"bike_id":"6752d235-67b7-46d8-b3fc-782c570a9ba1","system_id":"levelo_inurba_marseille","lat":43.279386,"lon":5.410388,"is_reserved":false,"is_disabled":false,"rental_uris":{"android":"levelo://app?vid=6752d235-67b7-46d8-b3fc-782c570a9ba1","ios":"levelo://app?vid=6752d235-67b7-46d8-b3fc-782c570a9ba1"},"vehicle_type_id":"4","last_reported":1728403846,"current_range_meters":22000,"station_id":"ce4bhnp2rcd13ifvqh0g","pricing_plan_id":"cebpf4jnsgd1na2vs0mg"},{"bike_id":"6731d1b1-b391-47f7-84a2-e5222ded00d2","system_id":"levelo_inurba_marseille","lat":43.33025,"lon":5.39041,"is_reserved":false,"is_disabled":false,"rental_uris":{"android":"levelo://app?vid=6731d1b1-b391-47f7-84a2-e5222ded00d2","ios":"levelo://app?vid=6731d1b1-b391-47f7-84a2-e5222ded00d2"},"vehicle_type_id":"4","last_reported":1728403846,"current_range_meters":24800,"station_id":"ce4bhr92rcd13ifvqhrg","pricing_plan_id":"cebpf4jnsgd1na2vs0mg"},{"bike_id":"39585e24-9284-4558-bd63-27a4a9dd3a64","system_id":"levelo_inurba_marseille","lat":43.25578,"lon":5.38235,"is_reserved":false,"is_disabled":false,"rental_uris":{"android":"levelo://app?vid=39585e24-9284-4558-bd63-27a4a9dd3a64","ios":"levelo://app?vid=39585e24-9284-4558-bd63-27a4a9dd3a64"},"vehicle_type_id":"4","last_reported":1728403846,"current_range_meters":14000,"station_id":"ce4bhih2rcd13ifvqfs0","pricing_plan_id":"cebpf4jnsgd1na2vs0mg"},{"bike_id":"f276946a-c301-4fd8-9ee9-b3ea2a208df0","system_id":"levelo_inurba_marseille","lat":43.23066,"lon":5.3549,"is_reserved":false,"is_disabled":false,"rental_uris":{"android":"levelo://app?vid=f276946a-c301-4fd8-9ee9-b3ea2a208df0","ios":"levelo://app?vid=f276946a-c301-4fd8-9ee9-b3ea2a208df0"},"vehicle_type_id":"4","last_reported":1728403846,"current_range_meters":24000,"station_id":"cpo3342slgdg3j2ifvpg","pricing_plan_id":"cebpf4jnsgd1na2vs0mg"},{"bike_id":"fdbba320-a6cf-4fc7-b301-59b70f76cfca","system_id":"levelo_inurba_marseille","lat":43.25579,"lon":5.38236,"is_reserved":false,"is_disabled":false,"rental_uris":{"android":"levelo://app?vid=fdbba320-a6cf-4fc7-b301-59b70f76cfca","ios":"levelo://app?vid=fdbba320-a6cf-4fc7-b301-59b70f76cfca"},"vehicle_type_id":"4","last_reported":1728403846,"current_range_meters":36800,"station_id":"ce4bhih2rcd13ifvqfs0","pricing_plan_id":"cebpf4jnsgd1na2vs0mg"},{"bike_id":"87de7013-8cce-4c6e-8583-f083139e3301","system_id":"levelo_inurba_marseille","lat":43.29037,"lon":5.35923,"is_reserved":false,"is_disabled":false,"rental_uris":{"android":"levelo://app?vid=87de7013-8cce-4c6e-8583-f083139e3301","ios":"levelo://app?vid=87de7013-8cce-4c6e-8583-f083139e3301"},"vehicle_type_id":"4","last_reported":1728403846,"current_range_meters":14800,"station_id":"ce4bha92rcd13ifvqeg0","pricing_plan_id":"cebpf4jnsgd1na2vs0mg"},{"bike_id":"a2033ae2-f5b1-4c58-8721-decd66d10543","system_id":"levelo_inurba_marseille","lat":43.33728,"lon":5.39182,"is_reserved":false,"is_disabled":false,"rental_uris":{"android":"levelo://app?vid=a2033ae2-f5b1-4c58-8721-decd66d10543","ios":"levelo://app?vid=a2033ae2-f5b1-4c58-8721-decd66d10543"},"vehicle_type_id":"4","last_reported":1728403846,"current_range_meters":18800,"station_id":"ce4bhr92rcd13ifvqhsg","pricing_plan_id":"cebpf4jnsgd1na2vs0mg"},{"bike_id":"2b66f35a-d2f5-4917-9292-cce898972775","system_id":"levelo_inurba_marseille","lat":43.24545,"lon":5.39528,"is_reserved":false,"is_disabled":false,"rental_uris":{"android":"levelo://app?vid=2b66f35a-d2f5-4917-9292-cce898972775","ios":"levelo://app?vid=2b66f35a-d2f5-4917-9292-cce898972775"},"vehicle_type_id":"4","last_reported":1728403846,"current_range_meters":6800,"station_id":"ce4bhlp2rcd13ifvqgjg","pricing_plan_id":"cebpf4jnsgd1na2vs0mg"},{"bike_id":"3d864eb3-20cf-4e39-9984-2932928bfae2","system_id":"levelo_inurba_marseille","lat":43.28939,"lon":5.3663,"is_reserved":false,"is_disabled":false,"rental_uris":{"android":"levelo://app?vid=3d864eb3-20cf-4e39-9984-2932928bfae2","ios":"levelo://app?vid=3d864eb3-20cf-4e39-9984-2932928bfae2"},"vehicle_type_id":"4","last_reported":1728403846,"current_range_meters":24000,"station_id":"ce4bhap2rcd13ifvqek0","pricing_plan_id":"cebpf4jnsgd1na2vs0mg"},{"bike_id":"2b0f66da-8ffa-47b4-82fc-54df73d2a50d","system_id":"levelo_inurba_marseille","lat":43.30421,"lon":5.41284,"is_reserved":false,"is_disabled":false,"rental_uris":{"android":"levelo://app?vid=2b0f66da-8ffa-47b4-82fc-54df73d2a50d","ios":"levelo://app?vid=2b0f66da-8ffa-47b4-82fc-54df73d2a50d"},"vehicle_type_id":"4","last_reported":1728403846,"current_range_meters":30000,"station_id":"ce4bhop2rcd13ifvqh8g","pricing_plan_id":"cebpf4jnsgd1na2vs0mg"},{"bike_id":"5102b9e4-fde6-452f-9071-58db3beb671c","system_id":"levelo_inurba_marseille","lat":43.28003,"lon":5.40019,"is_reserved":false,"is_disabled":false,"rental_uris":{"android":"levelo://app?vid=5102b9e4-fde6-452f-9071-58db3beb671c","ios":"levelo://app?vid=5102b9e4-fde6-452f-9071-58db3beb671c"},"vehicle_type_id":"4","last_reported":1728403846,"current_range_meters":3600,"station_id":"ce4bho92rcd13ifvqh4g","pricing_plan_id":"cebpf4jnsgd1na2vs0mg"},{"bike_id":"1704018c-d316-4b48-818b-5265ee5f2004","system_id":"levelo_inurba_marseille","lat":43.27768,"lon":5.38806,"is_reserved":false,"is_disabled":false,"rental_uris":{"android":"levelo://app?vid=1704018c-d316-4b48-818b-5265ee5f2004","ios":"levelo://app?vid=1704018c-d316-4b48-818b-5265ee5f2004"},"vehicle_type_id":"4","last_reported":1728403846,"current_range_meters":37600,"station_id":"ce4bhi12rcd13ifvqfo0","pricing_plan_id":"cebpf4jnsgd1na2vs0mg"},{"bike_id":"ba0fce0c-f7b3-40a2-bc4f-0a69739a290f","system_id":"levelo_inurba_marseille","lat":43.31347,"lon":5.36715,"is_reserved":false,"is_disabled":false,"rental_uris":{"android":"levelo://app?vid=ba0fce0c-f7b3-40a2-bc4f-0a69739a290f","ios":"levelo://app?vid=ba0fce0c-f7b3-40a2-bc4f-0a69739a290f"},"vehicle_type_id":"4","last_reported":1728403846,"current_range_meters":4000,"station_id":"ce4bgr92rcd13ifvqc6g","pricing_plan_id":"cebpf4jnsgd1na2vs0mg"},{"bike_id":"406ce2a4-a7bb-4f3e-964a-9dbeb6ff03d1","system_id":"levelo_inurba_marseille","lat":43.30805,"lon":5.43526,"is_reserved":false,"is_disabled":false,"rental_uris":{"android":"levelo://app?vid=406ce2a4-a7bb-4f3e-964a-9dbeb6ff03d1","ios":"levelo://app?vid=406ce2a4-a7bb-4f3e-964a-9dbeb6ff03d1"},"vehicle_type_id":"4","last_reported":1728403846,"current_range_meters":24400,"station_id":"ce4bhph2rcd13ifvqheg","pricing_plan_id":"cebpf4jnsgd1na2vs0mg"},{"bike_id":"3e5f4929-843f-429a-8caf-e7ad5f12d47d","system_id":"levelo_inurba_marseille","lat":43.29589,"lon":5.38103,"is_reserved":false,"is_disabled":false,"rental_uris":{"android":"levelo://app?vid=3e5f4929-843f-429a-8caf-e7ad5f12d47d","ios":"levelo://app?vid=3e5f4929-843f-429a-8caf-e7ad5f12d47d"},"vehicle_type_id":"4","last_reported":1728403846,"current_range_meters":38800,"station_id":"ce4bgl12rcd13ifvqbo0","pricing_plan_id":"cebpf4jnsgd1na2vs0mg"},{"bike_id":"211dc7e9-8943-4a79-80e0-97b9a513da9a","system_id":"levelo_inurba_marseille","lat":43.29578,"lon":5.37521,"is_reserved":false,"is_disabled":false,"rental_uris":{"android":"levelo://app?vid=211dc7e9-8943-4a79-80e0-97b9a513da9a","ios":"levelo://app?vid=211dc7e9-8943-4a79-80e0-97b9a513da9a"},"vehicle_type_id":"4","last_reported":1728403846,"current_range_meters":28400,"station_id":"ce4bgh92rcd13ifvqb50","pricing_plan_id":"cebpf4jnsgd1na2vs0mg"},{"bike_id":"14aa3b67-793f-4fe5-8f3b-eb595e5d1c4d","system_id":"levelo_inurba_marseille","lat":43.32286,"lon":5.38279,"is_reserved":false,"is_disabled":false,"rental_uris":{"android":"levelo://app?vid=14aa3b67-793f-4fe5-8f3b-eb595e5d1c4d","ios":"levelo://app?vid=14aa3b67-793f-4fe5-8f3b-eb595e5d1c4d"},"vehicle_type_id":"4","last_reported":1728403846,"current_range_meters":16800,"station_id":"ce4bhr12rcd13ifvqhqg","pricing_plan_id":"cebpf4jnsgd1na2vs0mg"},{"bike_id":"e6d86d2f-929e-412d-b639-89761e6c74e0","system_id":"levelo_inurba_marseille","lat":43.337444,"lon":5.374475,"is_reserved":false,"is_disabled":false,"rental_uris":{"android":"levelo://app?vid=e6d86d2f-929e-412d-b639-89761e6c74e0","ios":"levelo://app?vid=e6d86d2f-929e-412d-b639-89761e6c74e0"},"vehicle_type_id":"4","last_reported":1728403846,"current_range_meters":30000,"station_id":"","pricing_plan_id":"cebpf4jnsgd1na2vs0mg"},{"bike_id":"77691551-be15-4165-b371-57982589b361","system_id":"levelo_inurba_marseille","lat":43.24806,"lon":5.37459,"is_reserved":false,"is_disabled":false,"rental_uris":{"android":"levelo://app?vid=77691551-be15-4165-b371-57982589b361","ios":"levelo://app?vid=77691551-be15-4165-b371-57982589b361"},"vehicle_type_id":"4","last_reported":1728403846,"current_range_meters":3200,"station_id":"ce4bhgh2rcd13ifvqfb0","pricing_plan_id":"cebpf4jnsgd1na2vs0mg"},{"bike_id":"e42909c6-4066-4a6b-b842-7b4dc41cd462","system_id":"levelo_inurba_marseille","lat":43.3128,"lon":5.40161,"is_reserved":false,"is_disabled":false,"rental_uris":{"android":"levelo://app?vid=e42909c6-4066-4a6b-b842-7b4dc41cd462","ios":"levelo://app?vid=e42909c6-4066-4a6b-b842-7b4dc41cd462"},"vehicle_type_id":"4","last_reported":1728403846,"current_range_meters":8800,"station_id":"ce4bh092rcd13ifvqd30","pricing_plan_id":"cebpf4jnsgd1na2vs0mg"},{"bike_id":"88d7dfb6-8420-435f-b2cc-c3d2a63a1211","system_id":"levelo_inurba_marseille","lat":43.29603,"lon":5.38107,"is_reserved":false,"is_disabled":false,"rental_uris":{"android":"levelo://app?vid=88d7dfb6-8420-435f-b2cc-c3d2a63a1211","ios":"levelo://app?vid=88d7dfb6-8420-435f-b2cc-c3d2a63a1211"},"vehicle_type_id":"4","last_reported":1728403846,"current_range_meters":4400,"station_id":"ce4bgl12rcd13ifvqbo0","pricing_plan_id":"cebpf4jnsgd1na2vs0mg"},{"bike_id":"be27d48c-afb5-4fe4-b716-d71b35579bfc","system_id":"levelo_inurba_marseille","lat":43.26557,"lon":5.37289,"is_reserved":false,"is_disabled":false,"rental_uris":{"android":"levelo://app?vid=be27d48c-afb5-4fe4-b716-d71b35579bfc","ios":"levelo://app?vid=be27d48c-afb5-4fe4-b716-d71b35579bfc"},"vehicle_type_id":"4","last_reported":1728403846,"current_range_meters":19600,"station_id":"ce4bhg12rcd13ifvqf70","pricing_plan_id":"cebpf4jnsgd1na2vs0mg"},{"bike_id":"44b24d8a-d3ff-496d-bafb-3f1f42a1ced5","system_id":"levelo_inurba_marseille","lat":43.28931,"lon":5.36636,"is_reserved":false,"is_disabled":false,"rental_uris":{"android":"levelo://app?vid=44b24d8a-d3ff-496d-bafb-3f1f42a1ced5","ios":"levelo://app?vid=44b24d8a-d3ff-496d-bafb-3f1f42a1ced5"},"vehicle_type_id":"4","last_reported":1728403846,"current_range_meters":28000,"station_id":"ce4bhap2rcd13ifvqek0","pricing_plan_id":"cebpf4jnsgd1na2vs0mg"},{"bike_id":"c190b4a1-ea1d-47e2-b2e8-eefa3099f9cc","system_id":"levelo_inurba_marseille","lat":43.23193,"lon":5.35551,"is_reserved":false,"is_disabled":false,"rental_uris":{"android":"levelo://app?vid=c190b4a1-ea1d-47e2-b2e8-eefa3099f9cc","ios":"levelo://app?vid=c190b4a1-ea1d-47e2-b2e8-eefa3099f9cc"},"vehicle_type_id":"4","last_reported":1728403846,"current_range_meters":35200,"station_id":"ce4bhu92rcd13ifvqi70","pricing_plan_id":"cebpf4jnsgd1na2vs0mg"},{"bike_id":"ff5ba5ff-b9bc-44eb-9be7-e35bd733d917","system_id":"levelo_inurba_marseille","lat":43.24173,"lon":5.36392,"is_reserved":false,"is_disabled":false,"rental_uris":{"android":"levelo://app?vid=ff5ba5ff-b9bc-44eb-9be7-e35bd733d917","ios":"levelo://app?vid=ff5ba5ff-b9bc-44eb-9be7-e35bd733d917"},"vehicle_type_id":"4","last_reported":1728403846,"current_range_meters":36400,"station_id":"cpo36qri1sfpv3e86is0","pricing_plan_id":"cebpf4jnsgd1na2vs0mg"},{"bike_id":"69880e97-c83a-4068-96e0-d71473e203d3","system_id":"levelo_inurba_marseille","lat":43.29881,"lon":5.38906,"is_reserved":false,"is_disabled":false,"rental_uris":{"android":"levelo://app?vid=69880e97-c83a-4068-96e0-d71473e203d3","ios":"levelo://app?vid=69880e97-c83a-4068-96e0-d71473e203d3"},"vehicle_type_id":"4","last_reported":1728403846,"current_range_meters":22000,"station_id":"ce4bh392rcd13ifvqdl0","pricing_plan_id":"cebpf4jnsgd1na2vs0mg"},{"bike_id":"a697879a-1ebd-48cb-9f31-7fc9da925408","system_id":"levelo_inurba_marseille","lat":43.31264,"lon":5.40163,"is_reserved":false,"is_disabled":false,"rental_uris":{"android":"levelo://app?vid=a697879a-1ebd-48cb-9f31-7fc9da925408","ios":"levelo://app?vid=a697879a-1ebd-48cb-9f31-7fc9da925408"},"vehicle_type_id":"4","last_reported":1728403846,"current_range_meters":20000,"station_id":"ce4bh092rcd13ifvqd30","pricing_plan_id":"cebpf4jnsgd1na2vs0mg"},{"bike_id":"2a75358c-c53d-4d85-b84f-ba43cbf3d3c3","system_id":"levelo_inurba_marseille","lat":43.337444,"lon":5.374475,"is_reserved":false,"is_disabled":false,"rental_uris":{"android":"levelo://app?vid=2a75358c-c53d-4d85-b84f-ba43cbf3d3c3","ios":"levelo://app?vid=2a75358c-c53d-4d85-b84f-ba43cbf3d3c3"},"vehicle_type_id":"4","last_reported":1728403846,"current_range_meters":36800,"station_id":"","pricing_plan_id":"cebpf4jnsgd1na2vs0mg"},{"bike_id":"630e65f1-4f55-4dea-a570-1b05513c56eb","system_id":"levelo_inurba_marseille","lat":43.33021,"lon":5.39034,"is_reserved":false,"is_disabled":false,"rental_uris":{"android":"levelo://app?vid=630e65f1-4f55-4dea-a570-1b05513c56eb","ios":"levelo://app?vid=630e65f1-4f55-4dea-a570-1b05513c56eb"},"vehicle_type_id":"4","last_reported":1728403846,"current_range_meters":4000,"station_id":"ce4bhr92rcd13ifvqhrg","pricing_plan_id":"cebpf4jnsgd1na2vs0mg"},{"bike_id":"f6a8c21d-b1f0-4240-bb8d-db34231d6f88","system_id":"levelo_inurba_marseille","lat":43.27994,"lon":5.40004,"is_reserved":false,"is_disabled":false,"rental_uris":{"android":"levelo://app?vid=f6a8c21d-b1f0-4240-bb8d-db34231d6f88","ios":"levelo://app?vid=f6a8c21d-b1f0-4240-bb8d-db34231d6f88"},"vehicle_type_id":"4","last_reported":1728403846,"current_range_meters":10000,"station_id":"ce4bho92rcd13ifvqh4g","pricing_plan_id":"cebpf4jnsgd1na2vs0mg"},{"bike_id":"e42026bc-1eaf-4ab0-8872-58fafaf9f081","system_id":"levelo_inurba_marseille","lat":43.27066,"lon":5.4026,"is_reserved":false,"is_disabled":false,"rental_uris":{"android":"levelo://app?vid=e42026bc-1eaf-4ab0-8872-58fafaf9f081","ios":"levelo://app?vid=e42026bc-1eaf-4ab0-8872-58fafaf9f081"},"vehicle_type_id":"4","last_reported":1728403846,"current_range_meters":31200,"station_id":"ce4bhk92rcd13ifvqgc0","pricing_plan_id":"cebpf4jnsgd1na2vs0mg"},{"bike_id":"77f7f45c-192c-44d5-85d2-ffe3b7dab930","system_id":"levelo_inurba_marseille","lat":43.23064,"lon":5.35495,"is_reserved":false,"is_disabled":false,"rental_uris":{"android":"levelo://app?vid=77f7f45c-192c-44d5-85d2-ffe3b7dab930","ios":"levelo://app?vid=77f7f45c-192c-44d5-85d2-ffe3b7dab930"},"vehicle_type_id":"4","last_reported":1728403846,"current_range_meters":38800,"station_id":"cpo3342slgdg3j2ifvpg","pricing_plan_id":"cebpf4jnsgd1na2vs0mg"},{"bike_id":"000e46b4-74c7-4956-8887-4004c2527d6b","system_id":"levelo_inurba_marseille","lat":43.279907,"lon":5.399922,"is_reserved":false,"is_disabled":false,"rental_uris":{"android":"levelo://app?vid=000e46b4-74c7-4956-8887-4004c2527d6b","ios":"levelo://app?vid=000e46b4-74c7-4956-8887-4004c2527d6b"},"vehicle_type_id":"4","last_reported":1728403846,"current_range_meters":38800,"station_id":"ce4bho92rcd13ifvqh4g","pricing_plan_id":"cebpf4jnsgd1na2vs0mg"},{"bike_id":"28da3627-6a15-4106-be27-dfb9a1d27a11","system_id":"levelo_inurba_marseille","lat":43.26558,"lon":5.37286,"is_reserved":false,"is_disabled":false,"rental_uris":{"android":"levelo://app?vid=28da3627-6a15-4106-be27-dfb9a1d27a11","ios":"levelo://app?vid=28da3627-6a15-4106-be27-dfb9a1d27a11"},"vehicle_type_id":"4","last_reported":1728403846,"current_range_meters":28400,"station_id":"ce4bhg12rcd13ifvqf70","pricing_plan_id":"cebpf4jnsgd1na2vs0mg"},{"bike_id":"b625834a-54ef-4eab-8c9d-e8c85e149a97","system_id":"levelo_inurba_marseille","lat":43.31081,"lon":5.4243,"is_reserved":false,"is_disabled":false,"rental_uris":{"android":"levelo://app?vid=b625834a-54ef-4eab-8c9d-e8c85e149a97","ios":"levelo://app?vid=b625834a-54ef-4eab-8c9d-e8c85e149a97"},"vehicle_type_id":"4","last_reported":1728403846,"current_range_meters":36800,"station_id":"ce4bhp92rcd13ifvqhag","pricing_plan_id":"cebpf4jnsgd1na2vs0mg"},{"bike_id":"29238423-17e6-4d9f-b867-4e1512c4cfe5","system_id":"levelo_inurba_marseille","lat":43.2781,"lon":5.40704,"is_reserved":false,"is_disabled":false,"rental_uris":{"android":"levelo://app?vid=29238423-17e6-4d9f-b867-4e1512c4cfe5","ios":"levelo://app?vid=29238423-17e6-4d9f-b867-4e1512c4cfe5"},"vehicle_type_id":"4","last_reported":1728403846,"current_range_meters":4800,"station_id":"ce4bhnh2rcd13ifvqgtg","pricing_plan_id":"cebpf4jnsgd1na2vs0mg"},{"bike_id":"87cb76c2-0d61-4527-8d7b-4918ced68e7b","system_id":"levelo_inurba_marseille","lat":43.2828,"lon":5.35075,"is_reserved":false,"is_disabled":false,"rental_uris":{"android":"levelo://app?vid=87cb76c2-0d61-4527-8d7b-4918ced68e7b","ios":"levelo://app?vid=87cb76c2-0d61-4527-8d7b-4918ced68e7b"},"vehicle_type_id":"4","last_reported":1728403846,"current_range_meters":38800,"station_id":"ce4bhbp2rcd13ifvqerg","pricing_plan_id":"cebpf4jnsgd1na2vs0mg"},{"bike_id":"9a2d6c58-ef8c-42a4-bbce-c5ad2c70d5ec","system_id":"levelo_inurba_marseille","lat":43.26934,"lon":5.38931,"is_reserved":false,"is_disabled":false,"rental_uris":{"android":"levelo://app?vid=9a2d6c58-ef8c-42a4-bbce-c5ad2c70d5ec","ios":"levelo://app?vid=9a2d6c58-ef8c-42a4-bbce-c5ad2c70d5ec"},"vehicle_type_id":"4","last_reported":1728403846,"current_range_meters":24400,"station_id":"ce4bhhh2rcd13ifvqfl0","pricing_plan_id":"cebpf4jnsgd1na2vs0mg"},{"bike_id":"e9fc0459-d698-4f36-a06c-4318b2eaff14","system_id":"levelo_inurba_marseille","lat":43.31217,"lon":5.36836,"is_reserved":false,"is_disabled":false,"rental_uris":{"android":"levelo://app?vid=e9fc0459-d698-4f36-a06c-4318b2eaff14","ios":"levelo://app?vid=e9fc0459-d698-4f36-a06c-4318b2eaff14"},"vehicle_type_id":"4","last_reported":1728403846,"current_range_meters":30400,"station_id":"ce4bgl92rcd13ifvqbq0","pricing_plan_id":"cebpf4jnsgd1na2vs0mg"},{"bike_id":"a1b4c79e-719d-4f8b-981e-87219c1fc24f","system_id":"levelo_inurba_marseille","lat":43.2319,"lon":5.39982,"is_reserved":false,"is_disabled":false,"rental_uris":{"android":"levelo://app?vid=a1b4c79e-719d-4f8b-981e-87219c1fc24f","ios":"levelo://app?vid=a1b4c79e-719d-4f8b-981e-87219c1fc24f"},"vehicle_type_id":"4","last_reported":1728403846,"current_range_meters":28000,"station_id":"ce4bhn12rcd13ifvqgqg","pricing_plan_id":"cebpf4jnsgd1na2vs0mg"},{"bike_id":"b5e05e32-ac39-464f-8b6a-89a0322c6e4f","system_id":"levelo_inurba_marseille","lat":43.29574,"lon":5.39967,"is_reserved":false,"is_disabled":false,"rental_uris":{"android":"levelo://app?vid=b5e05e32-ac39-464f-8b6a-89a0322c6e4f","ios":"levelo://app?vid=b5e05e32-ac39-464f-8b6a-89a0322c6e4f"},"vehicle_type_id":"4","last_reported":1728403846,"current_range_meters":21600,"station_id":"ce4bh312rcd13ifvqdj0","pricing_plan_id":"cebpf4jnsgd1na2vs0mg"},{"bike_id":"4b03f4e8-5057-4a67-a4d1-ea658a85589b","system_id":"levelo_inurba_marseille","lat":43.29255,"lon":5.40909,"is_reserved":false,"is_disabled":false,"rental_uris":{"android":"levelo://app?vid=4b03f4e8-5057-4a67-a4d1-ea658a85589b","ios":"levelo://app?vid=4b03f4e8-5057-4a67-a4d1-ea658a85589b"},"vehicle_type_id":"4","last_reported":1728403846,"current_range_meters":23200,"station_id":"ce4bh192rcd13ifvqdc0","pricing_plan_id":"cebpf4jnsgd1na2vs0mg"},{"bike_id":"91627e0c-4838-4552-9fb7-0d0387c9dc61","system_id":"levelo_inurba_marseille","lat":43.30435,"lon":5.38887,"is_reserved":false,"is_disabled":false,"rental_uris":{"android":"levelo://app?vid=91627e0c-4838-4552-9fb7-0d0387c9dc61","ios":"levelo://app?vid=91627e0c-4838-4552-9fb7-0d0387c9dc61"},"vehicle_type_id":"4","last_reported":1728403846,"current_range_meters":8000,"station_id":"ce4bgk12rcd13ifvqbi0","pricing_plan_id":"cebpf4jnsgd1na2vs0mg"},{"bike_id":"a7960620-7946-4500-bfc5-ce62fa6e21bf","system_id":"levelo_inurba_marseille","lat":43.24181,"lon":5.39733,"is_reserved":false,"is_disabled":false,"rental_uris":{"android":"levelo://app?vid=a7960620-7946-4500-bfc5-ce62fa6e21bf","ios":"levelo://app?vid=a7960620-7946-4500-bfc5-ce62fa6e21bf"},"vehicle_type_id":"4","last_reported":1728403846,"current_range_meters":16400,"station_id":"ce4bhn12rcd13ifvqgpg","pricing_plan_id":"cebpf4jnsgd1na2vs0mg"},{"bike_id":"1848461f-6c73-45e4-a874-58e49fe5efc2","system_id":"levelo_inurba_marseille","lat":43.309385,"lon":5.400594,"is_reserved":false,"is_disabled":false,"rental_uris":{"android":"levelo://app?vid=1848461f-6c73-45e4-a874-58e49fe5efc2","ios":"levelo://app?vid=1848461f-6c73-45e4-a874-58e49fe5efc2"},"vehicle_type_id":"4","last_reported":1728403846,"current_range_meters":37600,"station_id":"ce4bgk12rcd13ifvqbi0","pricing_plan_id":"cebpf4jnsgd1na2vs0mg"},{"bike_id":"444ba3dd-ba68-4348-aff6-bb6a10ce9876","system_id":"levelo_inurba_marseille","lat":43.28664,"lon":5.36352,"is_reserved":false,"is_disabled":false,"rental_uris":{"android":"levelo://app?vid=444ba3dd-ba68-4348-aff6-bb6a10ce9876","ios":"levelo://app?vid=444ba3dd-ba68-4348-aff6-bb6a10ce9876"},"vehicle_type_id":"4","last_reported":1728403846,"current_range_meters":26800,"station_id":"ce4bhah2rcd13ifvqej0","pricing_plan_id":"cebpf4jnsgd1na2vs0mg"},{"bike_id":"31e1ce7c-bb60-451a-b27a-d2b1f3e15e99","system_id":"levelo_inurba_marseille","lat":43.26939,"lon":5.38904,"is_reserved":false,"is_disabled":false,"rental_uris":{"android":"levelo://app?vid=31e1ce7c-bb60-451a-b27a-d2b1f3e15e99","ios":"levelo://app?vid=31e1ce7c-bb60-451a-b27a-d2b1f3e15e99"},"vehicle_type_id":"4","last_reported":1728403846,"current_range_meters":28400,"station_id":"ce4bhhh2rcd13ifvqfl0","pricing_plan_id":"cebpf4jnsgd1na2vs0mg"},{"bike_id":"75b980f6-c1d3-40cc-b626-31e744acf317","system_id":"levelo_inurba_marseille","lat":43.27057,"lon":5.40258,"is_reserved":false,"is_disabled":false,"rental_uris":{"android":"levelo://app?vid=75b980f6-c1d3-40cc-b626-31e744acf317","ios":"levelo://app?vid=75b980f6-c1d3-40cc-b626-31e744acf317"},"vehicle_type_id":"4","last_reported":1728403846,"current_range_meters":17600,"station_id":"ce4bhk92rcd13ifvqgc0","pricing_plan_id":"cebpf4jnsgd1na2vs0mg"},{"bike_id":"2a8dd3d9-c232-4f9f-8f64-954a8e335f9a","system_id":"levelo_inurba_marseille","lat":43.2694,"lon":5.40245,"is_reserved":false,"is_disabled":false,"rental_uris":{"android":"levelo://app?vid=2a8dd3d9-c232-4f9f-8f64-954a8e335f9a","ios":"levelo://app?vid=2a8dd3d9-c232-4f9f-8f64-954a8e335f9a"},"vehicle_type_id":"4","last_reported":1728403846,"current_range_meters":7200,"station_id":"cjm6bp8fraef2m0cb0m0","pricing_plan_id":"cebpf4jnsgd1na2vs0mg"},{"bike_id":"ecda83e2-0861-4211-9f6d-3a9516d9d21f","system_id":"levelo_inurba_marseille","lat":43.30384,"lon":5.38643,"is_reserved":false,"is_disabled":false,"rental_uris":{"android":"levelo://app?vid=ecda83e2-0861-4211-9f6d-3a9516d9d21f","ios":"levelo://app?vid=ecda83e2-0861-4211-9f6d-3a9516d9d21f"},"vehicle_type_id":"4","last_reported":1728403846,"current_range_meters":29600,"station_id":"ce4bgk12rcd13ifvqbi0","pricing_plan_id":"cebpf4jnsgd1na2vs0mg"},{"bike_id":"650ab51e-7370-4612-a6a3-3dcbba4ae599","system_id":"levelo_inurba_marseille","lat":43.28615,"lon":5.351,"is_reserved":false,"is_disabled":false,"rental_uris":{"android":"levelo://app?vid=650ab51e-7370-4612-a6a3-3dcbba4ae599","ios":"levelo://app?vid=650ab51e-7370-4612-a6a3-3dcbba4ae599"},"vehicle_type_id":"4","last_reported":1728403846,"current_range_meters":3200,"station_id":"ce4bhch2rcd13ifvqeug","pricing_plan_id":"cebpf4jnsgd1na2vs0mg"},{"bike_id":"fbab334e-6568-46ac-88f7-b856d9d2d598","system_id":"levelo_inurba_marseille","lat":43.2319,"lon":5.3555,"is_reserved":false,"is_disabled":false,"rental_uris":{"android":"levelo://app?vid=fbab334e-6568-46ac-88f7-b856d9d2d598","ios":"levelo://app?vid=fbab334e-6568-46ac-88f7-b856d9d2d598"},"vehicle_type_id":"4","last_reported":1728403846,"current_range_meters":38800,"station_id":"ce4bhu92rcd13ifvqi70","pricing_plan_id":"cebpf4jnsgd1na2vs0mg"},{"bike_id":"32006b6a-d004-47aa-9d47-81eab9eb94ed","system_id":"levelo_inurba_marseille","lat":43.29006,"lon":5.35615,"is_reserved":false,"is_disabled":false,"rental_uris":{"android":"levelo://app?vid=32006b6a-d004-47aa-9d47-81eab9eb94ed","ios":"levelo://app?vid=32006b6a-d004-47aa-9d47-81eab9eb94ed"},"vehicle_type_id":"4","last_reported":1728403846,"current_range_meters":28800,"station_id":"ce4bhb92rcd13ifvqen0","pricing_plan_id":"cebpf4jnsgd1na2vs0mg"},{"bike_id":"a1bbfead-cd92-4ef3-8e82-b88ca05c7728","system_id":"levelo_inurba_marseille","lat":43.28267,"lon":5.35073,"is_reserved":false,"is_disabled":false,"rental_uris":{"android":"levelo://app?vid=a1bbfead-cd92-4ef3-8e82-b88ca05c7728","ios":"levelo://app?vid=a1bbfead-cd92-4ef3-8e82-b88ca05c7728"},"vehicle_type_id":"4","last_reported":1728403846,"current_range_meters":36000,"station_id":"ce4bhbp2rcd13ifvqerg","pricing_plan_id":"cebpf4jnsgd1na2vs0mg"},{"bike_id":"8aefafcd-2829-4899-bdc7-79b7493f82bb","system_id":"levelo_inurba_marseille","lat":43.29879,"lon":5.38902,"is_reserved":false,"is_disabled":false,"rental_uris":{"android":"levelo://app?vid=8aefafcd-2829-4899-bdc7-79b7493f82bb","ios":"levelo://app?vid=8aefafcd-2829-4899-bdc7-79b7493f82bb"},"vehicle_type_id":"4","last_reported":1728403846,"current_range_meters":25200,"station_id":"ce4bh392rcd13ifvqdl0","pricing_plan_id":"cebpf4jnsgd1na2vs0mg"},{"bike_id":"830709dc-12a3-495c-8a23-48b45dad4439","system_id":"levelo_inurba_marseille","lat":43.29228,"lon":5.36069,"is_reserved":false,"is_disabled":false,"rental_uris":{"android":"levelo://app?vid=830709dc-12a3-495c-8a23-48b45dad4439","ios":"levelo://app?vid=830709dc-12a3-495c-8a23-48b45dad4439"},"vehicle_type_id":"4","last_reported":1728403846,"current_range_meters":36000,"station_id":"ce4bhbh2rcd13ifvqeqg","pricing_plan_id":"cebpf4jnsgd1na2vs0mg"},{"bike_id":"b69081aa-c8df-48a9-88ec-5d6b9fe4f3d6","system_id":"levelo_inurba_marseille","lat":43.29295,"lon":5.37463,"is_reserved":false,"is_disabled":false,"rental_uris":{"android":"levelo://app?vid=b69081aa-c8df-48a9-88ec-5d6b9fe4f3d6","ios":"levelo://app?vid=b69081aa-c8df-48a9-88ec-5d6b9fe4f3d6"},"vehicle_type_id":"4","last_reported":1728403846,"current_range_meters":37600,"station_id":"ce4bgi12rcd13ifvqb70","pricing_plan_id":"cebpf4jnsgd1na2vs0mg"},{"bike_id":"0b776cd0-fc89-4a39-b4ba-e3877c52496d","system_id":"levelo_inurba_marseille","lat":43.30353,"lon":5.41876,"is_reserved":false,"is_disabled":false,"rental_uris":{"android":"levelo://app?vid=0b776cd0-fc89-4a39-b4ba-e3877c52496d","ios":"levelo://app?vid=0b776cd0-fc89-4a39-b4ba-e3877c52496d"},"vehicle_type_id":"4","last_reported":1728403846,"current_range_meters":38000,"station_id":"ce4bhop2rcd13ifvqh7g","pricing_plan_id":"cebpf4jnsgd1na2vs0mg"},{"bike_id":"ac63b881-53ef-4e4b-b5e6-9f4914bcf168","system_id":"levelo_inurba_marseille","lat":43.23057,"lon":5.35491,"is_reserved":false,"is_disabled":false,"rental_uris":{"android":"levelo://app?vid=ac63b881-53ef-4e4b-b5e6-9f4914bcf168","ios":"levelo://app?vid=ac63b881-53ef-4e4b-b5e6-9f4914bcf168"},"vehicle_type_id":"4","last_reported":1728403846,"current_range_meters":30000,"station_id":"cpo3342slgdg3j2ifvpg","pricing_plan_id":"cebpf4jnsgd1na2vs0mg"},{"bike_id":"a185443f-1207-408b-8c72-393a999c91bf","system_id":"levelo_inurba_marseille","lat":43.23966,"lon":5.36627,"is_reserved":false,"is_disabled":false,"rental_uris":{"android":"levelo://app?vid=a185443f-1207-408b-8c72-393a999c91bf","ios":"levelo://app?vid=a185443f-1207-408b-8c72-393a999c91bf"},"vehicle_type_id":"4","last_reported":1728403846,"current_range_meters":22800,"station_id":"ce4bhi12rcd13ifvqfp0","pricing_plan_id":"cebpf4jnsgd1na2vs0mg"},{"bike_id":"fe654fdc-bd87-4fc3-a0fe-535c3177f1b0","system_id":"levelo_inurba_marseille","lat":43.28703,"lon":5.37376,"is_reserved":false,"is_disabled":false,"rental_uris":{"android":"levelo://app?vid=fe654fdc-bd87-4fc3-a0fe-535c3177f1b0","ios":"levelo://app?vid=fe654fdc-bd87-4fc3-a0fe-535c3177f1b0"},"vehicle_type_id":"4","last_reported":1728403846,"current_range_meters":5600,"station_id":"ce4bh3p2rcd13ifvqdq0","pricing_plan_id":"cebpf4jnsgd1na2vs0mg"},{"bike_id":"9f0905ce-0429-48b6-9103-efbcedec7ca4","system_id":"levelo_inurba_marseille","lat":43.28276,"lon":5.35059,"is_reserved":false,"is_disabled":false,"rental_uris":{"android":"levelo://app?vid=9f0905ce-0429-48b6-9103-efbcedec7ca4","ios":"levelo://app?vid=9f0905ce-0429-48b6-9103-efbcedec7ca4"},"vehicle_type_id":"4","last_reported":1728403846,"current_range_meters":30800,"station_id":"ce4bhbp2rcd13ifvqerg","pricing_plan_id":"cebpf4jnsgd1na2vs0mg"},{"bike_id":"14efdc45-cff6-4f3a-9bbe-06abf3501250","system_id":"levelo_inurba_marseille","lat":43.28792,"lon":5.35803,"is_reserved":false,"is_disabled":false,"rental_uris":{"android":"levelo://app?vid=14efdc45-cff6-4f3a-9bbe-06abf3501250","ios":"levelo://app?vid=14efdc45-cff6-4f3a-9bbe-06abf3501250"},"vehicle_type_id":"4","last_reported":1728403846,"current_range_meters":7200,"station_id":"ce4bha92rcd13ifvqeg0","pricing_plan_id":"cebpf4jnsgd1na2vs0mg"},{"bike_id":"143042cc-0594-4b5a-a3a1-18747ced46e6","system_id":"levelo_inurba_marseille","lat":43.264871,"lon":5.395398,"is_reserved":false,"is_disabled":false,"rental_uris":{"android":"levelo://app?vid=143042cc-0594-4b5a-a3a1-18747ced46e6","ios":"levelo://app?vid=143042cc-0594-4b5a-a3a1-18747ced46e6"},"vehicle_type_id":"4","last_reported":1728403846,"current_range_meters":6400,"station_id":"ce4bhlh2rcd13ifvqgig","pricing_plan_id":"cebpf4jnsgd1na2vs0mg"},{"bike_id":"ecc88699-8f0d-4601-a919-3da9e8aba57e","system_id":"levelo_inurba_marseille","lat":43.27811,"lon":5.40711,"is_reserved":false,"is_disabled":false,"rental_uris":{"android":"levelo://app?vid=ecc88699-8f0d-4601-a919-3da9e8aba57e","ios":"levelo://app?vid=ecc88699-8f0d-4601-a919-3da9e8aba57e"},"vehicle_type_id":"4","last_reported":1728403846,"current_range_meters":30800,"station_id":"ce4bhnh2rcd13ifvqgtg","pricing_plan_id":"cebpf4jnsgd1na2vs0mg"},{"bike_id":"ee3f614b-373b-449c-a58d-35e47f5eafd2","system_id":"levelo_inurba_marseille","lat":43.23194,"lon":5.35549,"is_reserved":false,"is_disabled":false,"rental_uris":{"android":"levelo://app?vid=ee3f614b-373b-449c-a58d-35e47f5eafd2","ios":"levelo://app?vid=ee3f614b-373b-449c-a58d-35e47f5eafd2"},"vehicle_type_id":"4","last_reported":1728403846,"current_range_meters":6800,"station_id":"ce4bhu92rcd13ifvqi70","pricing_plan_id":"cebpf4jnsgd1na2vs0mg"},{"bike_id":"9e3fe2e1-eca8-4201-b615-2eaf2b4dc3f2","system_id":"levelo_inurba_marseille","lat":43.23196,"lon":5.35552,"is_reserved":false,"is_disabled":false,"rental_uris":{"android":"levelo://app?vid=9e3fe2e1-eca8-4201-b615-2eaf2b4dc3f2","ios":"levelo://app?vid=9e3fe2e1-eca8-4201-b615-2eaf2b4dc3f2"},"vehicle_type_id":"4","last_reported":1728403846,"current_range_meters":37600,"station_id":"ce4bhu92rcd13ifvqi70","pricing_plan_id":"cebpf4jnsgd1na2vs0mg"},{"bike_id":"e747717c-d99c-43ce-a638-17db4451c496","system_id":"levelo_inurba_marseille","lat":43.25487,"lon":5.37646,"is_reserved":false,"is_disabled":false,"rental_uris":{"android":"levelo://app?vid=e747717c-d99c-43ce-a638-17db4451c496","ios":"levelo://app?vid=e747717c-d99c-43ce-a638-17db4451c496"},"vehicle_type_id":"4","last_reported":1728403846,"current_range_meters":26000,"station_id":"ce4bhh12rcd13ifvqff0","pricing_plan_id":"cebpf4jnsgd1na2vs0mg"},{"bike_id":"a62e60d5-76e9-4d97-8bc0-b9f335121f55","system_id":"levelo_inurba_marseille","lat":43.3172,"lon":5.42401,"is_reserved":false,"is_disabled":false,"rental_uris":{"android":"levelo://app?vid=a62e60d5-76e9-4d97-8bc0-b9f335121f55","ios":"levelo://app?vid=a62e60d5-76e9-4d97-8bc0-b9f335121f55"},"vehicle_type_id":"4","last_reported":1728403846,"current_range_meters":10800,"station_id":"ce4bhp92rcd13ifvqhbg","pricing_plan_id":"cebpf4jnsgd1na2vs0mg"},{"bike_id":"2a0c3d79-aa13-4c95-aa92-a20998eaba18","system_id":"levelo_inurba_marseille","lat":43.30801,"lon":5.43297,"is_reserved":false,"is_disabled":false,"rental_uris":{"android":"levelo://app?vid=2a0c3d79-aa13-4c95-aa92-a20998eaba18","ios":"levelo://app?vid=2a0c3d79-aa13-4c95-aa92-a20998eaba18"},"vehicle_type_id":"4","last_reported":1728403846,"current_range_meters":6800,"station_id":"ce4bhph2rcd13ifvqheg","pricing_plan_id":"cebpf4jnsgd1na2vs0mg"},{"bike_id":"c57771ea-7ecf-4e58-8fc6-842bb0deb4d1","system_id":"levelo_inurba_marseille","lat":43.28411,"lon":5.37523,"is_reserved":false,"is_disabled":false,"rental_uris":{"android":"levelo://app?vid=c57771ea-7ecf-4e58-8fc6-842bb0deb4d1","ios":"levelo://app?vid=c57771ea-7ecf-4e58-8fc6-842bb0deb4d1"},"vehicle_type_id":"4","last_reported":1728403846,"current_range_meters":16000,"station_id":"ce4bh412rcd13ifvqds0","pricing_plan_id":"cebpf4jnsgd1na2vs0mg"},{"bike_id":"89af7777-a924-4852-a865-d16950584e67","system_id":"levelo_inurba_marseille","lat":43.29229,"lon":5.36072,"is_reserved":false,"is_disabled":false,"rental_uris":{"android":"levelo://app?vid=89af7777-a924-4852-a865-d16950584e67","ios":"levelo://app?vid=89af7777-a924-4852-a865-d16950584e67"},"vehicle_type_id":"4","last_reported":1728403846,"current_range_meters":27600,"station_id":"ce4bhbh2rcd13ifvqeqg","pricing_plan_id":"cebpf4jnsgd1na2vs0mg"},{"bike_id":"e145fac8-74b1-41a2-9a39-e0f89e921c36","system_id":"levelo_inurba_marseille","lat":43.27173,"lon":5.40992,"is_reserved":false,"is_disabled":false,"rental_uris":{"android":"levelo://app?vid=e145fac8-74b1-41a2-9a39-e0f89e921c36","ios":"levelo://app?vid=e145fac8-74b1-41a2-9a39-e0f89e921c36"},"vehicle_type_id":"4","last_reported":1728403846,"current_range_meters":24000,"station_id":"ce4bhl12rcd13ifvqgf0","pricing_plan_id":"cebpf4jnsgd1na2vs0mg"},{"bike_id":"11e19dac-3751-484d-b0a3-9547e34eb248","system_id":"levelo_inurba_marseille","lat":43.29623,"lon":5.37717,"is_reserved":false,"is_disabled":false,"rental_uris":{"android":"levelo://app?vid=11e19dac-3751-484d-b0a3-9547e34eb248","ios":"levelo://app?vid=11e19dac-3751-484d-b0a3-9547e34eb248"},"vehicle_type_id":"4","last_reported":1728403846,"current_range_meters":32400,"station_id":"ce4bgi92rcd13ifvqb90","pricing_plan_id":"cebpf4jnsgd1na2vs0mg"},{"bike_id":"4552a146-c9b7-4cae-ae0f-d674570d6500","system_id":"levelo_inurba_marseille","lat":43.33024,"lon":5.39036,"is_reserved":false,"is_disabled":false,"rental_uris":{"android":"levelo://app?vid=4552a146-c9b7-4cae-ae0f-d674570d6500","ios":"levelo://app?vid=4552a146-c9b7-4cae-ae0f-d674570d6500"},"vehicle_type_id":"4","last_reported":1728403846,"current_range_meters":18800,"station_id":"ce4bhr92rcd13ifvqhrg","pricing_plan_id":"cebpf4jnsgd1na2vs0mg"},{"bike_id":"aa633575-e98c-4b00-80a5-6db29a8438f8","system_id":"levelo_inurba_marseille","lat":43.29555,"lon":5.42294,"is_reserved":false,"is_disabled":false,"rental_uris":{"android":"levelo://app?vid=aa633575-e98c-4b00-80a5-6db29a8438f8","ios":"levelo://app?vid=aa633575-e98c-4b00-80a5-6db29a8438f8"},"vehicle_type_id":"4","last_reported":1728403846,"current_range_meters":27200,"station_id":"ce4bhph2rcd13ifvqhdg","pricing_plan_id":"cebpf4jnsgd1na2vs0mg"},{"bike_id":"8b10cb9f-15d9-4eb9-a18e-896430cdcbda","system_id":"levelo_inurba_marseille","lat":43.32029,"lon":5.40811,"is_reserved":false,"is_disabled":false,"rental_uris":{"android":"levelo://app?vid=8b10cb9f-15d9-4eb9-a18e-896430cdcbda","ios":"levelo://app?vid=8b10cb9f-15d9-4eb9-a18e-896430cdcbda"},"vehicle_type_id":"4","last_reported":1728403846,"current_range_meters":28000,"station_id":"ce4bhq92rcd13ifvqhjg","pricing_plan_id":"cebpf4jnsgd1na2vs0mg"},{"bike_id":"517173a8-eaff-455b-8da5-57692b738fdd","system_id":"levelo_inurba_marseille","lat":43.296,"lon":5.38105,"is_reserved":false,"is_disabled":false,"rental_uris":{"android":"levelo://app?vid=517173a8-eaff-455b-8da5-57692b738fdd","ios":"levelo://app?vid=517173a8-eaff-455b-8da5-57692b738fdd"},"vehicle_type_id":"4","last_reported":1728403846,"current_range_meters":11200,"station_id":"ce4bgl12rcd13ifvqbo0","pricing_plan_id":"cebpf4jnsgd1na2vs0mg"},{"bike_id":"1ed5e428-910d-45ef-8800-bd57d7ef8ae5","system_id":"levelo_inurba_marseille","lat":43.31324,"lon":5.39693,"is_reserved":false,"is_disabled":false,"rental_uris":{"android":"levelo://app?vid=1ed5e428-910d-45ef-8800-bd57d7ef8ae5","ios":"levelo://app?vid=1ed5e428-910d-45ef-8800-bd57d7ef8ae5"},"vehicle_type_id":"4","last_reported":1728403846,"current_range_meters":35200,"station_id":"ce4bgvp2rcd13ifvqcu0","pricing_plan_id":"cebpf4jnsgd1na2vs0mg"},{"bike_id":"a0b45c3e-7380-4bdf-aa6f-e2e7da0fec05","system_id":"levelo_inurba_marseille","lat":43.279085,"lon":5.38016,"is_reserved":false,"is_disabled":false,"rental_uris":{"android":"levelo://app?vid=a0b45c3e-7380-4bdf-aa6f-e2e7da0fec05","ios":"levelo://app?vid=a0b45c3e-7380-4bdf-aa6f-e2e7da0fec05"},"vehicle_type_id":"4","last_reported":1728403846,"current_range_meters":6800,"station_id":"ce4bhf92rcd13ifvqf50","pricing_plan_id":"cebpf4jnsgd1na2vs0mg"},{"bike_id":"d497689f-9055-4c78-841d-43bd6f571c48","system_id":"levelo_inurba_marseille","lat":43.27633,"lon":5.36109,"is_reserved":false,"is_disabled":false,"rental_uris":{"android":"levelo://app?vid=d497689f-9055-4c78-841d-43bd6f571c48","ios":"levelo://app?vid=d497689f-9055-4c78-841d-43bd6f571c48"},"vehicle_type_id":"4","last_reported":1728403846,"current_range_meters":38800,"station_id":"ce4bgj92rcd13ifvqbe0","pricing_plan_id":"cebpf4jnsgd1na2vs0mg"},{"bike_id":"1a616dce-a566-4f54-8367-b7a2c29bf84c","system_id":"levelo_inurba_marseille","lat":43.30353,"lon":5.41882,"is_reserved":false,"is_disabled":false,"rental_uris":{"android":"levelo://app?vid=1a616dce-a566-4f54-8367-b7a2c29bf84c","ios":"levelo://app?vid=1a616dce-a566-4f54-8367-b7a2c29bf84c"},"vehicle_type_id":"4","last_reported":1728403846,"current_range_meters":38400,"station_id":"ce4bhop2rcd13ifvqh7g","pricing_plan_id":"cebpf4jnsgd1na2vs0mg"},{"bike_id":"eb8adc99-8201-449a-b1fa-f265bd3504ae","system_id":"levelo_inurba_marseille","lat":43.29569,"lon":5.37514,"is_reserved":false,"is_disabled":false,"rental_uris":{"android":"levelo://app?vid=eb8adc99-8201-449a-b1fa-f265bd3504ae","ios":"levelo://app?vid=eb8adc99-8201-449a-b1fa-f265bd3504ae"},"vehicle_type_id":"4","last_reported":1728403846,"current_range_meters":39200,"station_id":"ce4bgh92rcd13ifvqb50","pricing_plan_id":"cebpf4jnsgd1na2vs0mg"},{"bike_id":"1027f6bf-9b3c-41af-9f81-0c58d1959e85","system_id":"levelo_inurba_marseille","lat":43.28612,"lon":5.35098,"is_reserved":false,"is_disabled":false,"rental_uris":{"android":"levelo://app?vid=1027f6bf-9b3c-41af-9f81-0c58d1959e85","ios":"levelo://app?vid=1027f6bf-9b3c-41af-9f81-0c58d1959e85"},"vehicle_type_id":"4","last_reported":1728403846,"current_range_meters":25600,"station_id":"ce4bhch2rcd13ifvqeug","pricing_plan_id":"cebpf4jnsgd1na2vs0mg"},{"bike_id":"4bf88070-50a3-4974-9ff9-b2bec0cba66a","system_id":"levelo_inurba_marseille","lat":43.25722,"lon":5.41116,"is_reserved":false,"is_disabled":false,"rental_uris":{"android":"levelo://app?vid=4bf88070-50a3-4974-9ff9-b2bec0cba66a","ios":"levelo://app?vid=4bf88070-50a3-4974-9ff9-b2bec0cba66a"},"vehicle_type_id":"4","last_reported":1728403846,"current_range_meters":30000,"station_id":"ce4bhkp2rcd13ifvqgd0","pricing_plan_id":"cebpf4jnsgd1na2vs0mg"},{"bike_id":"52d6ccba-a0a8-4368-8c19-ff2719f260af","system_id":"levelo_inurba_marseille","lat":43.29024,"lon":5.3865,"is_reserved":false,"is_disabled":false,"rental_uris":{"android":"levelo://app?vid=52d6ccba-a0a8-4368-8c19-ff2719f260af","ios":"levelo://app?vid=52d6ccba-a0a8-4368-8c19-ff2719f260af"},"vehicle_type_id":"4","last_reported":1728403846,"current_range_meters":36800,"station_id":"ce4bh4p2rcd13ifvqe0g","pricing_plan_id":"cebpf4jnsgd1na2vs0mg"},{"bike_id":"0a571cd2-fa2a-4636-97d1-d1b19f4098a9","system_id":"levelo_inurba_marseille","lat":43.28662,"lon":5.36358,"is_reserved":false,"is_disabled":false,"rental_uris":{"android":"levelo://app?vid=0a571cd2-fa2a-4636-97d1-d1b19f4098a9","ios":"levelo://app?vid=0a571cd2-fa2a-4636-97d1-d1b19f4098a9"},"vehicle_type_id":"4","last_reported":1728403846,"current_range_meters":38000,"station_id":"ce4bhah2rcd13ifvqej0","pricing_plan_id":"cebpf4jnsgd1na2vs0mg"},{"bike_id":"4a7f32a5-45f9-4e4f-8b14-ad0c04f2fc35","system_id":"levelo_inurba_marseille","lat":43.25489,"lon":5.37649,"is_reserved":false,"is_disabled":false,"rental_uris":{"android":"levelo://app?vid=4a7f32a5-45f9-4e4f-8b14-ad0c04f2fc35","ios":"levelo://app?vid=4a7f32a5-45f9-4e4f-8b14-ad0c04f2fc35"},"vehicle_type_id":"4","last_reported":1728403846,"current_range_meters":10800,"station_id":"ce4bhh12rcd13ifvqff0","pricing_plan_id":"cebpf4jnsgd1na2vs0mg"},{"bike_id":"9ed49e92-8fe1-49f5-ac7c-c12e2d4da7a9","system_id":"levelo_inurba_marseille","lat":43.27952,"lon":5.41048,"is_reserved":false,"is_disabled":false,"rental_uris":{"android":"levelo://app?vid=9ed49e92-8fe1-49f5-ac7c-c12e2d4da7a9","ios":"levelo://app?vid=9ed49e92-8fe1-49f5-ac7c-c12e2d4da7a9"},"vehicle_type_id":"4","last_reported":1728403846,"current_range_meters":3600,"station_id":"ce4bhnp2rcd13ifvqh0g","pricing_plan_id":"cebpf4jnsgd1na2vs0mg"},{"bike_id":"0a4ebb61-05a7-41d5-8ed8-40aa1fbf562f","system_id":"levelo_inurba_marseille","lat":43.28933,"lon":5.36641,"is_reserved":false,"is_disabled":false,"rental_uris":{"android":"levelo://app?vid=0a4ebb61-05a7-41d5-8ed8-40aa1fbf562f","ios":"levelo://app?vid=0a4ebb61-05a7-41d5-8ed8-40aa1fbf562f"},"vehicle_type_id":"4","last_reported":1728403846,"current_range_meters":27600,"station_id":"ce4bhap2rcd13ifvqek0","pricing_plan_id":"cebpf4jnsgd1na2vs0mg"},{"bike_id":"5d98e0b3-1c48-4bce-8ffe-0e2c2ea088a0","system_id":"levelo_inurba_marseille","lat":43.23054,"lon":5.35491,"is_reserved":false,"is_disabled":false,"rental_uris":{"android":"levelo://app?vid=5d98e0b3-1c48-4bce-8ffe-0e2c2ea088a0","ios":"levelo://app?vid=5d98e0b3-1c48-4bce-8ffe-0e2c2ea088a0"},"vehicle_type_id":"4","last_reported":1728403846,"current_range_meters":30400,"station_id":"cpo3342slgdg3j2ifvpg","pricing_plan_id":"cebpf4jnsgd1na2vs0mg"},{"bike_id":"322c44c0-a167-401e-9e90-ca29bbf4cc50","system_id":"levelo_inurba_marseille","lat":43.28615,"lon":5.35104,"is_reserved":false,"is_disabled":false,"rental_uris":{"android":"levelo://app?vid=322c44c0-a167-401e-9e90-ca29bbf4cc50","ios":"levelo://app?vid=322c44c0-a167-401e-9e90-ca29bbf4cc50"},"vehicle_type_id":"4","last_reported":1728403846,"current_range_meters":34000,"station_id":"ce4bhch2rcd13ifvqeug","pricing_plan_id":"cebpf4jnsgd1na2vs0mg"},{"bike_id":"698cc731-fcb7-4d91-a557-0c0b0b348d56","system_id":"levelo_inurba_marseille","lat":43.25003,"lon":5.38926,"is_reserved":false,"is_disabled":false,"rental_uris":{"android":"levelo://app?vid=698cc731-fcb7-4d91-a557-0c0b0b348d56","ios":"levelo://app?vid=698cc731-fcb7-4d91-a557-0c0b0b348d56"},"vehicle_type_id":"4","last_reported":1728403846,"current_range_meters":13600,"station_id":"ce4bhgp2rcd13ifvqfd0","pricing_plan_id":"cebpf4jnsgd1na2vs0mg"},{"bike_id":"1fe94854-bca7-4628-a77d-34cdb2a062d3","system_id":"levelo_inurba_marseille","lat":43.33024,"lon":5.39036,"is_reserved":false,"is_disabled":false,"rental_uris":{"android":"levelo://app?vid=1fe94854-bca7-4628-a77d-34cdb2a062d3","ios":"levelo://app?vid=1fe94854-bca7-4628-a77d-34cdb2a062d3"},"vehicle_type_id":"4","last_reported":1728403846,"current_range_meters":25600,"station_id":"ce4bhr92rcd13ifvqhrg","pricing_plan_id":"cebpf4jnsgd1na2vs0mg"},{"bike_id":"4b4ab079-2353-4442-beef-d3de0dd2f184","system_id":"levelo_inurba_marseille","lat":43.29514,"lon":5.37517,"is_reserved":false,"is_disabled":false,"rental_uris":{"android":"levelo://app?vid=4b4ab079-2353-4442-beef-d3de0dd2f184","ios":"levelo://app?vid=4b4ab079-2353-4442-beef-d3de0dd2f184"},"vehicle_type_id":"4","last_reported":1728403846,"current_range_meters":39200,"station_id":"ce4bgkp2rcd13ifvqbmg","pricing_plan_id":"cebpf4jnsgd1na2vs0mg"},{"bike_id":"07ac1999-0eab-458d-a765-76ec2cdc18a8","system_id":"levelo_inurba_marseille","lat":43.31697,"lon":5.37745,"is_reserved":false,"is_disabled":false,"rental_uris":{"android":"levelo://app?vid=07ac1999-0eab-458d-a765-76ec2cdc18a8","ios":"levelo://app?vid=07ac1999-0eab-458d-a765-76ec2cdc18a8"},"vehicle_type_id":"4","last_reported":1728403846,"current_range_meters":10000,"station_id":"ce4bgth2rcd13ifvqch0","pricing_plan_id":"cebpf4jnsgd1na2vs0mg"},{"bike_id":"20b5e75d-1ffc-411f-8136-2c1532a0b515","system_id":"levelo_inurba_marseille","lat":43.29271,"lon":5.38444,"is_reserved":false,"is_disabled":false,"rental_uris":{"android":"levelo://app?vid=20b5e75d-1ffc-411f-8136-2c1532a0b515","ios":"levelo://app?vid=20b5e75d-1ffc-411f-8136-2c1532a0b515"},"vehicle_type_id":"4","last_reported":1728403846,"current_range_meters":24400,"station_id":"ce4bh692rcd13ifvqea0","pricing_plan_id":"cebpf4jnsgd1na2vs0mg"},{"bike_id":"b79f0bd5-ebfb-42fe-a7fc-b03e20d478d6","system_id":"levelo_inurba_marseille","lat":43.2417,"lon":5.36401,"is_reserved":false,"is_disabled":false,"rental_uris":{"android":"levelo://app?vid=b79f0bd5-ebfb-42fe-a7fc-b03e20d478d6","ios":"levelo://app?vid=b79f0bd5-ebfb-42fe-a7fc-b03e20d478d6"},"vehicle_type_id":"4","last_reported":1728403846,"current_range_meters":25600,"station_id":"cpo36qri1sfpv3e86is0","pricing_plan_id":"cebpf4jnsgd1na2vs0mg"},{"bike_id":"4e5ca471-a4e8-4361-b02f-d0f5f0708281","system_id":"levelo_inurba_marseille","lat":43.33718,"lon":5.39175,"is_reserved":false,"is_disabled":false,"rental_uris":{"android":"levelo://app?vid=4e5ca471-a4e8-4361-b02f-d0f5f0708281","ios":"levelo://app?vid=4e5ca471-a4e8-4361-b02f-d0f5f0708281"},"vehicle_type_id":"4","last_reported":1728403846,"current_range_meters":34000,"station_id":"ce4bhr92rcd13ifvqhsg","pricing_plan_id":"cebpf4jnsgd1na2vs0mg"},{"bike_id":"3c9f7ea1-2418-4c30-8908-05e25a17a060","system_id":"levelo_inurba_marseille","lat":43.26217,"lon":5.37925,"is_reserved":false,"is_disabled":false,"rental_uris":{"android":"levelo://app?vid=3c9f7ea1-2418-4c30-8908-05e25a17a060","ios":"levelo://app?vid=3c9f7ea1-2418-4c30-8908-05e25a17a060"},"vehicle_type_id":"4","last_reported":1728403846,"current_range_meters":8800,"station_id":"ce4bhjp2rcd13ifvqg90","pricing_plan_id":"cebpf4jnsgd1na2vs0mg"},{"bike_id":"b9a7f280-ed10-4f76-bb4a-ff766c68711c","system_id":"levelo_inurba_marseille","lat":43.30144,"lon":5.38781,"is_reserved":false,"is_disabled":false,"rental_uris":{"android":"levelo://app?vid=b9a7f280-ed10-4f76-bb4a-ff766c68711c","ios":"levelo://app?vid=b9a7f280-ed10-4f76-bb4a-ff766c68711c"},"vehicle_type_id":"4","last_reported":1728403846,"current_range_meters":24400,"station_id":"ce4bghh2rcd13ifvqb60","pricing_plan_id":"cebpf4jnsgd1na2vs0mg"},{"bike_id":"49979391-6b89-47f5-a40e-1818e205202e","system_id":"levelo_inurba_marseille","lat":43.26555,"lon":5.37286,"is_reserved":false,"is_disabled":false,"rental_uris":{"android":"levelo://app?vid=49979391-6b89-47f5-a40e-1818e205202e","ios":"levelo://app?vid=49979391-6b89-47f5-a40e-1818e205202e"},"vehicle_type_id":"4","last_reported":1728403846,"current_range_meters":26000,"station_id":"ce4bhg12rcd13ifvqf70","pricing_plan_id":"cebpf4jnsgd1na2vs0mg"},{"bike_id":"c5435a10-7799-4471-bfc2-f1c7d1514c7d","system_id":"levelo_inurba_marseille","lat":43.28645,"lon":5.38537,"is_reserved":false,"is_disabled":false,"rental_uris":{"android":"levelo://app?vid=c5435a10-7799-4471-bfc2-f1c7d1514c7d","ios":"levelo://app?vid=c5435a10-7799-4471-bfc2-f1c7d1514c7d"},"vehicle_type_id":"4","last_reported":1728403846,"current_range_meters":38800,"station_id":"ce4bhnh2rcd13ifvqgug","pricing_plan_id":"cebpf4jnsgd1na2vs0mg"},{"bike_id":"afd72d07-0340-4a62-9188-751a11343b5d","system_id":"levelo_inurba_marseille","lat":43.25584,"lon":5.3824,"is_reserved":false,"is_disabled":false,"rental_uris":{"android":"levelo://app?vid=afd72d07-0340-4a62-9188-751a11343b5d","ios":"levelo://app?vid=afd72d07-0340-4a62-9188-751a11343b5d"},"vehicle_type_id":"4","last_reported":1728403846,"current_range_meters":36400,"station_id":"ce4bhih2rcd13ifvqfs0","pricing_plan_id":"cebpf4jnsgd1na2vs0mg"},{"bike_id":"92ce6877-6243-483a-a87b-b23c3e8590d4","system_id":"levelo_inurba_marseille","lat":43.27372,"lon":5.36259,"is_reserved":false,"is_disabled":false,"rental_uris":{"android":"levelo://app?vid=92ce6877-6243-483a-a87b-b23c3e8590d4","ios":"levelo://app?vid=92ce6877-6243-483a-a87b-b23c3e8590d4"},"vehicle_type_id":"4","last_reported":1728403846,"current_range_meters":14000,"station_id":"ce4bhbh2rcd13ifvqeo0","pricing_plan_id":"cebpf4jnsgd1na2vs0mg"},{"bike_id":"93430734-9d33-498a-ae9b-ff66f3482f6c","system_id":"levelo_inurba_marseille","lat":43.25491,"lon":5.3765,"is_reserved":false,"is_disabled":false,"rental_uris":{"android":"levelo://app?vid=93430734-9d33-498a-ae9b-ff66f3482f6c","ios":"levelo://app?vid=93430734-9d33-498a-ae9b-ff66f3482f6c"},"vehicle_type_id":"4","last_reported":1728403846,"current_range_meters":26800,"station_id":"ce4bhh12rcd13ifvqff0","pricing_plan_id":"cebpf4jnsgd1na2vs0mg"},{"bike_id":"fff45706-c894-491d-9819-db0372772e0d","system_id":"levelo_inurba_marseille","lat":43.23196,"lon":5.35551,"is_reserved":false,"is_disabled":false,"rental_uris":{"android":"levelo://app?vid=fff45706-c894-491d-9819-db0372772e0d","ios":"levelo://app?vid=fff45706-c894-491d-9819-db0372772e0d"},"vehicle_type_id":"4","last_reported":1728403846,"current_range_meters":8000,"station_id":"ce4bhu92rcd13ifvqi70","pricing_plan_id":"cebpf4jnsgd1na2vs0mg"},{"bike_id":"7fca960b-93c9-406d-8ed2-210492bdb45a","system_id":"levelo_inurba_marseille","lat":43.27993,"lon":5.40007,"is_reserved":false,"is_disabled":false,"rental_uris":{"android":"levelo://app?vid=7fca960b-93c9-406d-8ed2-210492bdb45a","ios":"levelo://app?vid=7fca960b-93c9-406d-8ed2-210492bdb45a"},"vehicle_type_id":"4","last_reported":1728403846,"current_range_meters":35200,"station_id":"ce4bho92rcd13ifvqh4g","pricing_plan_id":"cebpf4jnsgd1na2vs0mg"},{"bike_id":"8dbe39cd-8568-4c07-a95f-12abb01da6f3","system_id":"levelo_inurba_marseille","lat":43.23184,"lon":5.39979,"is_reserved":false,"is_disabled":false,"rental_uris":{"android":"levelo://app?vid=8dbe39cd-8568-4c07-a95f-12abb01da6f3","ios":"levelo://app?vid=8dbe39cd-8568-4c07-a95f-12abb01da6f3"},"vehicle_type_id":"4","last_reported":1728403846,"current_range_meters":14000,"station_id":"ce4bhn12rcd13ifvqgqg","pricing_plan_id":"cebpf4jnsgd1na2vs0mg"},{"bike_id":"47ac27c2-66d4-475c-935a-1d283ef43979","system_id":"levelo_inurba_marseille","lat":43.291565,"lon":5.372019,"is_reserved":false,"is_disabled":false,"rental_uris":{"android":"levelo://app?vid=47ac27c2-66d4-475c-935a-1d283ef43979","ios":"levelo://app?vid=47ac27c2-66d4-475c-935a-1d283ef43979"},"vehicle_type_id":"4","last_reported":1728403846,"current_range_meters":4000,"station_id":"ce4bha92rcd13ifvqeh0","pricing_plan_id":"cebpf4jnsgd1na2vs0mg"},{"bike_id":"e17cd7f7-d0f9-41e1-9512-cea7913f5bbf","system_id":"levelo_inurba_marseille","lat":43.25117,"lon":5.40318,"is_reserved":false,"is_disabled":false,"rental_uris":{"android":"levelo://app?vid=e17cd7f7-d0f9-41e1-9512-cea7913f5bbf","ios":"levelo://app?vid=e17cd7f7-d0f9-41e1-9512-cea7913f5bbf"},"vehicle_type_id":"4","last_reported":1728403846,"current_range_meters":16800,"station_id":"ce4bhlh2rcd13ifvqgig","pricing_plan_id":"cebpf4jnsgd1na2vs0mg"},{"bike_id":"a60ef5e8-fe0e-4bcd-ba5c-f2f17a63dc03","system_id":"levelo_inurba_marseille","lat":43.25092,"lon":5.39533,"is_reserved":false,"is_disabled":false,"rental_uris":{"android":"levelo://app?vid=a60ef5e8-fe0e-4bcd-ba5c-f2f17a63dc03","ios":"levelo://app?vid=a60ef5e8-fe0e-4bcd-ba5c-f2f17a63dc03"},"vehicle_type_id":"4","last_reported":1728403846,"current_range_meters":10000,"station_id":"ce4bhm12rcd13ifvqgkg","pricing_plan_id":"cebpf4jnsgd1na2vs0mg"},{"bike_id":"9c4d84ea-4b6f-4236-919c-1a194ab8e452","system_id":"levelo_inurba_marseille","lat":43.2418,"lon":5.39718,"is_reserved":false,"is_disabled":false,"rental_uris":{"android":"levelo://app?vid=9c4d84ea-4b6f-4236-919c-1a194ab8e452","ios":"levelo://app?vid=9c4d84ea-4b6f-4236-919c-1a194ab8e452"},"vehicle_type_id":"4","last_reported":1728403846,"current_range_meters":34800,"station_id":"ce4bhn12rcd13ifvqgpg","pricing_plan_id":"cebpf4jnsgd1na2vs0mg"},{"bike_id":"56ce8db1-9ee9-4b87-9310-ced7fd84f2bc","system_id":"levelo_inurba_marseille","lat":43.29006,"lon":5.3562,"is_reserved":false,"is_disabled":false,"rental_uris":{"android":"levelo://app?vid=56ce8db1-9ee9-4b87-9310-ced7fd84f2bc","ios":"levelo://app?vid=56ce8db1-9ee9-4b87-9310-ced7fd84f2bc"},"vehicle_type_id":"4","last_reported":1728403846,"current_range_meters":4000,"station_id":"ce4bhb92rcd13ifvqen0","pricing_plan_id":"cebpf4jnsgd1na2vs0mg"},{"bike_id":"ba67fa70-6128-401d-b154-daf6a4f08f24","system_id":"levelo_inurba_marseille","lat":43.30442,"lon":5.38886,"is_reserved":false,"is_disabled":false,"rental_uris":{"android":"levelo://app?vid=ba67fa70-6128-401d-b154-daf6a4f08f24","ios":"levelo://app?vid=ba67fa70-6128-401d-b154-daf6a4f08f24"},"vehicle_type_id":"4","last_reported":1728403846,"current_range_meters":32400,"station_id":"ce4bgk12rcd13ifvqbi0","pricing_plan_id":"cebpf4jnsgd1na2vs0mg"},{"bike_id":"ccb10e23-0bbb-4a51-954e-50a6ea2d0006","system_id":"levelo_inurba_marseille","lat":43.29007,"lon":5.35612,"is_reserved":false,"is_disabled":false,"rental_uris":{"android":"levelo://app?vid=ccb10e23-0bbb-4a51-954e-50a6ea2d0006","ios":"levelo://app?vid=ccb10e23-0bbb-4a51-954e-50a6ea2d0006"},"vehicle_type_id":"4","last_reported":1728403846,"current_range_meters":31200,"station_id":"ce4bhb92rcd13ifvqen0","pricing_plan_id":"cebpf4jnsgd1na2vs0mg"},{"bike_id":"937afa9a-a938-4a8e-a160-0b7f2dc8a5c3","system_id":"levelo_inurba_marseille","lat":43.23051,"lon":5.35497,"is_reserved":false,"is_disabled":false,"rental_uris":{"android":"levelo://app?vid=937afa9a-a938-4a8e-a160-0b7f2dc8a5c3","ios":"levelo://app?vid=937afa9a-a938-4a8e-a160-0b7f2dc8a5c3"},"vehicle_type_id":"4","last_reported":1728403846,"current_range_meters":8800,"station_id":"cpo3342slgdg3j2ifvpg","pricing_plan_id":"cebpf4jnsgd1na2vs0mg"},{"bike_id":"b5476d6d-4475-4445-8957-a68cc4a7e788","system_id":"levelo_inurba_marseille","lat":43.25582,"lon":5.38229,"is_reserved":false,"is_disabled":false,"rental_uris":{"android":"levelo://app?vid=b5476d6d-4475-4445-8957-a68cc4a7e788","ios":"levelo://app?vid=b5476d6d-4475-4445-8957-a68cc4a7e788"},"vehicle_type_id":"4","last_reported":1728403846,"current_range_meters":33600,"station_id":"ce4bhih2rcd13ifvqfs0","pricing_plan_id":"cebpf4jnsgd1na2vs0mg"},{"bike_id":"f596aaba-88c0-468b-876d-d3a38027258f","system_id":"levelo_inurba_marseille","lat":43.23191,"lon":5.39981,"is_reserved":false,"is_disabled":false,"rental_uris":{"android":"levelo://app?vid=f596aaba-88c0-468b-876d-d3a38027258f","ios":"levelo://app?vid=f596aaba-88c0-468b-876d-d3a38027258f"},"vehicle_type_id":"4","last_reported":1728403846,"current_range_meters":28800,"station_id":"ce4bhn12rcd13ifvqgqg","pricing_plan_id":"cebpf4jnsgd1na2vs0mg"},{"bike_id":"8e4deac9-2d7a-4493-8440-3c122d55d120","system_id":"levelo_inurba_marseille","lat":43.27997,"lon":5.4002,"is_reserved":false,"is_disabled":false,"rental_uris":{"android":"levelo://app?vid=8e4deac9-2d7a-4493-8440-3c122d55d120","ios":"levelo://app?vid=8e4deac9-2d7a-4493-8440-3c122d55d120"},"vehicle_type_id":"4","last_reported":1728403846,"current_range_meters":39200,"station_id":"ce4bho92rcd13ifvqh4g","pricing_plan_id":"cebpf4jnsgd1na2vs0mg"},{"bike_id":"617e9fce-41fc-493e-9601-16fd697fc3b4","system_id":"levelo_inurba_marseille","lat":43.29258,"lon":5.40908,"is_reserved":false,"is_disabled":false,"rental_uris":{"android":"levelo://app?vid=617e9fce-41fc-493e-9601-16fd697fc3b4","ios":"levelo://app?vid=617e9fce-41fc-493e-9601-16fd697fc3b4"},"vehicle_type_id":"4","last_reported":1728403846,"current_range_meters":22400,"station_id":"ce4bh192rcd13ifvqdc0","pricing_plan_id":"cebpf4jnsgd1na2vs0mg"},{"bike_id":"82e9b802-ed62-41ff-96c0-b2b59ca5e48d","system_id":"levelo_inurba_marseille","lat":43.30651,"lon":5.40091,"is_reserved":false,"is_disabled":false,"rental_uris":{"android":"levelo://app?vid=82e9b802-ed62-41ff-96c0-b2b59ca5e48d","ios":"levelo://app?vid=82e9b802-ed62-41ff-96c0-b2b59ca5e48d"},"vehicle_type_id":"4","last_reported":1728403846,"current_range_meters":33200,"station_id":"ce4bh112rcd13ifvqda0","pricing_plan_id":"cebpf4jnsgd1na2vs0mg"},{"bike_id":"d39e9adc-2bbc-4869-b1ca-cd74c7dda9a6","system_id":"levelo_inurba_marseille","lat":43.23058,"lon":5.35487,"is_reserved":false,"is_disabled":false,"rental_uris":{"android":"levelo://app?vid=d39e9adc-2bbc-4869-b1ca-cd74c7dda9a6","ios":"levelo://app?vid=d39e9adc-2bbc-4869-b1ca-cd74c7dda9a6"},"vehicle_type_id":"4","last_reported":1728403846,"current_range_meters":32000,"station_id":"cpo3342slgdg3j2ifvpg","pricing_plan_id":"cebpf4jnsgd1na2vs0mg"},{"bike_id":"6f845a78-d154-42fd-a3e5-6c1376c49c7b","system_id":"levelo_inurba_marseille","lat":43.28724,"lon":5.36077,"is_reserved":false,"is_disabled":false,"rental_uris":{"android":"levelo://app?vid=6f845a78-d154-42fd-a3e5-6c1376c49c7b","ios":"levelo://app?vid=6f845a78-d154-42fd-a3e5-6c1376c49c7b"},"vehicle_type_id":"4","last_reported":1728403846,"current_range_meters":14400,"station_id":"cki0cbj6b192h4jlfktg","pricing_plan_id":"cebpf4jnsgd1na2vs0mg"},{"bike_id":"7ad8ddd9-6ef0-4866-b09e-e4ac5bd2634f","system_id":"levelo_inurba_marseille","lat":43.2738,"lon":5.36265,"is_reserved":false,"is_disabled":false,"rental_uris":{"android":"levelo://app?vid=7ad8ddd9-6ef0-4866-b09e-e4ac5bd2634f","ios":"levelo://app?vid=7ad8ddd9-6ef0-4866-b09e-e4ac5bd2634f"},"vehicle_type_id":"4","last_reported":1728403846,"current_range_meters":38800,"station_id":"ce4bhbh2rcd13ifvqeo0","pricing_plan_id":"cebpf4jnsgd1na2vs0mg"},{"bike_id":"a301a305-4b9e-4b2f-b84a-507db4a2a4d8","system_id":"levelo_inurba_marseille","lat":43.28612,"lon":5.35094,"is_reserved":false,"is_disabled":false,"rental_uris":{"android":"levelo://app?vid=a301a305-4b9e-4b2f-b84a-507db4a2a4d8","ios":"levelo://app?vid=a301a305-4b9e-4b2f-b84a-507db4a2a4d8"},"vehicle_type_id":"4","last_reported":1728403846,"current_range_meters":3600,"station_id":"ce4bhch2rcd13ifvqeug","pricing_plan_id":"cebpf4jnsgd1na2vs0mg"},{"bike_id":"9eef18b8-9784-40ba-a91b-dd3021d2f448","system_id":"levelo_inurba_marseille","lat":43.27992,"lon":5.40005,"is_reserved":false,"is_disabled":false,"rental_uris":{"android":"levelo://app?vid=9eef18b8-9784-40ba-a91b-dd3021d2f448","ios":"levelo://app?vid=9eef18b8-9784-40ba-a91b-dd3021d2f448"},"vehicle_type_id":"4","last_reported":1728403846,"current_range_meters":36000,"station_id":"ce4bho92rcd13ifvqh4g","pricing_plan_id":"cebpf4jnsgd1na2vs0mg"},{"bike_id":"24747cc8-0ea8-42bf-b7f7-502fcdaa2e42","system_id":"levelo_inurba_marseille","lat":43.316812,"lon":5.404572,"is_reserved":false,"is_disabled":false,"rental_uris":{"android":"levelo://app?vid=24747cc8-0ea8-42bf-b7f7-502fcdaa2e42","ios":"levelo://app?vid=24747cc8-0ea8-42bf-b7f7-502fcdaa2e42"},"vehicle_type_id":"4","last_reported":1728403846,"current_range_meters":39200,"station_id":"ce4bh012rcd13ifvqd00","pricing_plan_id":"cebpf4jnsgd1na2vs0mg"},{"bike_id":"2deb1d58-0312-4fef-8c07-71d1df5503ce","system_id":"levelo_inurba_marseille","lat":43.27941,"lon":5.41059,"is_reserved":false,"is_disabled":false,"rental_uris":{"android":"levelo://app?vid=2deb1d58-0312-4fef-8c07-71d1df5503ce","ios":"levelo://app?vid=2deb1d58-0312-4fef-8c07-71d1df5503ce"},"vehicle_type_id":"4","last_reported":1728403846,"current_range_meters":3600,"station_id":"ce4bhnp2rcd13ifvqh0g","pricing_plan_id":"cebpf4jnsgd1na2vs0mg"},