{"last_updated":1737472172,"ttl":60,"version":"2.2","data":{"bikes":[{"bike_id":"b74b855a-0a8e-44e1-aa63-99dc34613857","system_id":"levelo_inurba_marseille","lat":43.299,"lon":5.4365,"is_reserved":false,"is_disabled":false,"rental_uris":{"android":"levelo://app?vid=b74b855a-0a8e-44e1-aa63-99dc34613857","ios":"levelo://app?vid=b74b855a-0a8e-44e1-aa63-99dc34613857"},"vehicle_type_id":"4","last_reported":1737472172,"current_range_meters":28400,"station_id":"ce4bhpp2rcd13ifvqhfg","pricing_plan_id":"cebpf4jnsgd1na2vs0mg"},{"bike_id":"689dda7a-7032-4dcd-8149-6c95173bb231","system_id":"levelo_inurba_marseille","lat":43.30552,"lon":5.36539,"is_reserved":false,"is_disabled":false,"rental_uris":{"android":"levelo://app?vid=689dda7a-7032-4dcd-8149-6c95173bb231","ios":"levelo://app?vid=689dda7a-7032-4dcd-8149-6c95173bb231"},"vehicle_type_id":"4","last_reported":1737472172,"current_range_meters":38000,"station_id":"ce4bgs12rcd13ifvqcag","pricing_plan_id":"cebpf4jnsgd1na2vs0mg"},{"bike_id":"af64160c-1ddf-442c-aba8-bfd72e2963c6","system_id":"levelo_inurba_marseille","lat":43.284568,"lon":5.358985,"is_reserved":false,"is_disabled":false,"rental_uris":{"android":"levelo://app?vid=af64160c-1ddf-442c-aba8-bfd72e2963c6","ios":"levelo://app?vid=af64160c-1ddf-442c-aba8-bfd72e2963c6"},"vehicle_type_id":"4","last_reported":1737472172,"current_range_meters":26000,"station_id":"ce4bhah2rcd13ifvqei0","pricing_plan_id":"cebpf4jnsgd1na2vs0mg"},{"bike_id":"4ae7bd19-32eb-4847-ac6c-e6763de81997","system_id":"levelo_inurba_marseille","lat":43.27614,"lon":5.36106,"is_reserved":false,"is_disabled":false,"rental_uris":{"android":"levelo://app?vid=4ae7bd19-32eb-4847-ac6c-e6763de81997","ios":"levelo://app?vid=4ae7bd19-32eb-4847-ac6c-e6763de81997"},"vehicle_type_id":"4","last_reported":1737472172,"current_range_meters":38800,"station_id":"ce4bgj92rcd13ifvqbe0","pricing_plan_id":"cebpf4jnsgd1na2vs0mg"},{"bike_id":"c3ba33e4-adb9-4db6-83a4-d6e3cb0e506e","system_id":"levelo_inurba_marseille","lat":43.28616,"lon":5.37056,"is_reserved":false,"is_disabled":false,"rental_uris":{"android":"levelo://app?vid=c3ba33e4-adb9-4db6-83a4-d6e3cb0e506e","ios":"levelo://app?vid=c3ba33e4-adb9-4db6-83a4-d6e3cb0e506e"},"vehicle_type_id":"4","last_reported":1737472172,"current_range_meters":38000,"station_id":"ce4bht12rcd13ifvqi60","pricing_plan_id":"cebpf4jnsgd1na2vs0mg"},{"bike_id":"db7d33f6-1676-4961-be7e-7d1fef015396","system_id":"levelo_inurba_marseille","lat":43.30139,"lon":5.3741,"is_reserved":false,"is_disabled":false,"rental_uris":{"android":"levelo://app?vid=db7d33f6-1676-4961-be7e-7d1fef015396","ios":"levelo://app?vid=db7d33f6-1676-4961-be7e-7d1fef015396"},"vehicle_type_id":"4","last_reported":1737472172,"current_range_meters":39200,"station_id":"ce4bgs92rcd13ifvqcc0","pricing_plan_id":"cebpf4jnsgd1na2vs0mg"},{"bike_id":"dbfc6bbb-0554-4b09-9ba3-6a0d99a97020","system_id":"levelo_inurba_marseille","lat":43.3056,"lon":5.38444,"is_reserved":false,"is_disabled":false,"rental_uris":{"android":"levelo://app?vid=dbfc6bbb-0554-4b09-9ba3-6a0d99a97020","ios":"levelo://app?vid=dbfc6bbb-0554-4b09-9ba3-6a0d99a97020"},"vehicle_type_id":"4","last_reported":1737472172,"current_range_meters":38800,"station_id":"ce4bgg92rcd13ifvqb30","pricing_plan_id":"cebpf4jnsgd1na2vs0mg"},{"bike_id":"c0a09ef6-6edd-48e2-8010-d57602985f00","system_id":"levelo_inurba_marseille","lat":43.310436,"lon":5.378983,"is_reserved":false,"is_disabled":false,"rental_uris":{"android":"levelo://app?vid=c0a09ef6-6edd-48e2-8010-d57602985f00","ios":"levelo://app?vid=c0a09ef6-6edd-48e2-8010-d57602985f00"},"vehicle_type_id":"4","last_reported":1737472172,"current_range_meters":14800,"station_id":"ce4bgt92rcd13ifvqcg0","pricing_plan_id":"cebpf4jnsgd1na2vs0mg"},{"bike_id":"0efcb19d-a5d5-4cbb-a0ba-146fb16ac38e","system_id":"levelo_inurba_marseille","lat":43.3056,"lon":5.36537,"is_reserved":false,"is_disabled":false,"rental_uris":{"android":"levelo://app?vid=0efcb19d-a5d5-4cbb-a0ba-146fb16ac38e","ios":"levelo://app?vid=0efcb19d-a5d5-4cbb-a0ba-146fb16ac38e"},"vehicle_type_id":"4","last_reported":1737472172,"current_range_meters":38800,"station_id":"ce4bgs12rcd13ifvqcag","pricing_plan_id":"cebpf4jnsgd1na2vs0mg"},{"bike_id":"4c0455d1-203d-489d-98a3-5c044b215c6d","system_id":"levelo_inurba_marseille","lat":43.28614,"lon":5.35104,"is_reserved":false,"is_disabled":false,"rental_uris":{"android":"levelo://app?vid=4c0455d1-203d-489d-98a3-5c044b215c6d","ios":"levelo://app?vid=4c0455d1-203d-489d-98a3-5c044b215c6d"},"vehicle_type_id":"4","last_reported":1737472172,"current_range_meters":6000,"station_id":"ce4bhch2rcd13ifvqeug","pricing_plan_id":"cebpf4jnsgd1na2vs0mg"},{"bike_id":"a9212900-1e0d-420e-b40b-16ee89a0dae3","system_id":"levelo_inurba_marseille","lat":43.26557,"lon":5.3902,"is_reserved":false,"is_disabled":false,"rental_uris":{"android":"levelo://app?vid=a9212900-1e0d-420e-b40b-16ee89a0dae3","ios":"levelo://app?vid=a9212900-1e0d-420e-b40b-16ee89a0dae3"},"vehicle_type_id":"4","last_reported":1737472172,"current_range_meters":18000,"station_id":"ce4bhe12rcd13ifvqf30","pricing_plan_id":"cebpf4jnsgd1na2vs0mg"},{"bike_id":"a77430c7-a93a-45f7-b054-9b8bf58b026d","system_id":"levelo_inurba_marseille","lat":43.29873,"lon":5.39738,"is_reserved":false,"is_disabled":false,"rental_uris":{"android":"levelo://app?vid=a77430c7-a93a-45f7-b054-9b8bf58b026d","ios":"levelo://app?vid=a77430c7-a93a-45f7-b054-9b8bf58b026d"},"vehicle_type_id":"4","last_reported":1737472172,"current_range_meters":33200,"station_id":"ce4bh0h2rcd13ifvqd50","pricing_plan_id":"cebpf4jnsgd1na2vs0mg"},{"bike_id":"0da8be6e-e3b2-41cf-af76-58614e9065e2","system_id":"levelo_inurba_marseille","lat":43.2982,"lon":5.4041,"is_reserved":false,"is_disabled":false,"rental_uris":{"android":"levelo://app?vid=0da8be6e-e3b2-41cf-af76-58614e9065e2","ios":"levelo://app?vid=0da8be6e-e3b2-41cf-af76-58614e9065e2"},"vehicle_type_id":"4","last_reported":1737472172,"current_range_meters":39200,"station_id":"ce4bh112rcd13ifvqd90","pricing_plan_id":"cebpf4jnsgd1na2vs0mg"},{"bike_id":"3b0d352f-4c55-4a83-a5cd-33b0501f0cf9","system_id":"levelo_inurba_marseille","lat":43.289897,"lon":5.378307,"is_reserved":false,"is_disabled":false,"rental_uris":{"android":"levelo://app?vid=3b0d352f-4c55-4a83-a5cd-33b0501f0cf9","ios":"levelo://app?vid=3b0d352f-4c55-4a83-a5cd-33b0501f0cf9"},"vehicle_type_id":"4","last_reported":1737472172,"current_range_meters":31200,"station_id":"ce4bh9p2rcd13ifvqed0","pricing_plan_id":"cebpf4jnsgd1na2vs0mg"},{"bike_id":"48a4db89-2f72-4ee8-b0ea-b0bc6e5aab84","system_id":"levelo_inurba_marseille","lat":43.26071,"lon":5.39368,"is_reserved":false,"is_disabled":false,"rental_uris":{"android":"levelo://app?vid=48a4db89-2f72-4ee8-b0ea-b0bc6e5aab84","ios":"levelo://app?vid=48a4db89-2f72-4ee8-b0ea-b0bc6e5aab84"},"vehicle_type_id":"4","last_reported":1737472172,"current_range_meters":39200,"station_id":"ce4bhh92rcd13ifvqfj0","pricing_plan_id":"cebpf4jnsgd1na2vs0mg"},{"bike_id":"06cfd958-c471-4dfe-8613-29275f91d3d2","system_id":"levelo_inurba_marseille","lat":43.29058,"lon":5.37163,"is_reserved":false,"is_disabled":false,"rental_uris":{"android":"levelo://app?vid=06cfd958-c471-4dfe-8613-29275f91d3d2","ios":"levelo://app?vid=06cfd958-c471-4dfe-8613-29275f91d3d2"},"vehicle_type_id":"4","last_reported":1737472172,"current_range_meters":6800,"station_id":"ce4bh5p2rcd13ifvqe4g","pricing_plan_id":"cebpf4jnsgd1na2vs0mg"},{"bike_id":"a2771881-b956-4a9a-9bc9-a89642d437c9","system_id":"levelo_inurba_marseille","lat":43.23196,"lon":5.35541,"is_reserved":false,"is_disabled":false,"rental_uris":{"android":"levelo://app?vid=a2771881-b956-4a9a-9bc9-a89642d437c9","ios":"levelo://app?vid=a2771881-b956-4a9a-9bc9-a89642d437c9"},"vehicle_type_id":"4","last_reported":1737472172,"current_range_meters":39200,"station_id":"ce4bhu92rcd13ifvqi70","pricing_plan_id":"cebpf4jnsgd1na2vs0mg"},{"bike_id":"38deec00-54a4-4647-b71a-a7db3d6a1353","system_id":"levelo_inurba_marseille","lat":43.32098,"lon":5.36759,"is_reserved":false,"is_disabled":false,"rental_uris":{"android":"levelo://app?vid=38deec00-54a4-4647-b71a-a7db3d6a1353","ios":"levelo://app?vid=38deec00-54a4-4647-b71a-a7db3d6a1353"},"vehicle_type_id":"4","last_reported":1737472172,"current_range_meters":12400,"station_id":"ce4bhrh2rcd13ifvqhug","pricing_plan_id":"cebpf4jnsgd1na2vs0mg"},{"bike_id":"0d78df30-723c-4495-9e80-871e3dcd593f","system_id":"levelo_inurba_marseille","lat":43.30131,"lon":5.37423,"is_reserved":false,"is_disabled":false,"rental_uris":{"android":"levelo://app?vid=0d78df30-723c-4495-9e80-871e3dcd593f","ios":"levelo://app?vid=0d78df30-723c-4495-9e80-871e3dcd593f"},"vehicle_type_id":"4","last_reported":1737472172,"current_range_meters":38800,"station_id":"ce4bgs92rcd13ifvqcc0","pricing_plan_id":"cebpf4jnsgd1na2vs0mg"},{"bike_id":"4d071c99-59bc-4138-8b76-2f04d780bbaa","system_id":"levelo_inurba_marseille","lat":43.26241,"lon":5.40456,"is_reserved":false,"is_disabled":false,"rental_uris":{"android":"levelo://app?vid=4d071c99-59bc-4138-8b76-2f04d780bbaa","ios":"levelo://app?vid=4d071c99-59bc-4138-8b76-2f04d780bbaa"},"vehicle_type_id":"4","last_reported":1737472172,"current_range_meters":17600,"station_id":"","pricing_plan_id":"cebpf4jnsgd1na2vs0mg"},{"bike_id":"d29f90ef-576b-417e-82e9-944e6b255e68","system_id":"levelo_inurba_marseille","lat":43.3043,"lon":5.38889,"is_reserved":false,"is_disabled":false,"rental_uris":{"android":"levelo://app?vid=d29f90ef-576b-417e-82e9-944e6b255e68","ios":"levelo://app?vid=d29f90ef-576b-417e-82e9-944e6b255e68"},"vehicle_type_id":"4","last_reported":1737472172,"current_range_meters":38800,"station_id":"ce4bgk12rcd13ifvqbi0","pricing_plan_id":"cebpf4jnsgd1na2vs0mg"},{"bike_id":"d07b2279-a1f4-4e07-a311-73b4f7f2bf4b","system_id":"levelo_inurba_marseille","lat":43.2905,"lon":5.37571,"is_reserved":false,"is_disabled":false,"rental_uris":{"android":"levelo://app?vid=d07b2279-a1f4-4e07-a311-73b4f7f2bf4b","ios":"levelo://app?vid=d07b2279-a1f4-4e07-a311-73b4f7f2bf4b"},"vehicle_type_id":"4","last_reported":1737472172,"current_range_meters":39200,"station_id":"ce4bh692rcd13ifvqe90","pricing_plan_id":"cebpf4jnsgd1na2vs0mg"},{"bike_id":"8e397219-ab21-4c6f-9c63-ad326c41c0fa","system_id":"levelo_inurba_marseille","lat":43.28074,"lon":5.39645,"is_reserved":false,"is_disabled":false,"rental_uris":{"android":"levelo://app?vid=8e397219-ab21-4c6f-9c63-ad326c41c0fa","ios":"levelo://app?vid=8e397219-ab21-4c6f-9c63-ad326c41c0fa"},"vehicle_type_id":"4","last_reported":1737472172,"current_range_meters":33200,"station_id":"ce4bho12rcd13ifvqh2g","pricing_plan_id":"cebpf4jnsgd1na2vs0mg"},{"bike_id":"f927862b-a9a0-4d1d-be64-143392c27d77","system_id":"levelo_inurba_marseille","lat":43.31212,"lon":5.36841,"is_reserved":false,"is_disabled":false,"rental_uris":{"android":"levelo://app?vid=f927862b-a9a0-4d1d-be64-143392c27d77","ios":"levelo://app?vid=f927862b-a9a0-4d1d-be64-143392c27d77"},"vehicle_type_id":"4","last_reported":1737472172,"current_range_meters":28400,"station_id":"ce4bgl92rcd13ifvqbq0","pricing_plan_id":"cebpf4jnsgd1na2vs0mg"},{"bike_id":"4f3eb2e1-a1f8-4468-95fc-ccd5e7a262af","system_id":"levelo_inurba_marseille","lat":43.28862,"lon":5.39311,"is_reserved":false,"is_disabled":false,"rental_uris":{"android":"levelo://app?vid=4f3eb2e1-a1f8-4468-95fc-ccd5e7a262af","ios":"levelo://app?vid=4f3eb2e1-a1f8-4468-95fc-ccd5e7a262af"},"vehicle_type_id":"4","last_reported":1737472172,"current_range_meters":3200,"station_id":"ce4bh2p2rcd13ifvqdi0","pricing_plan_id":"cebpf4jnsgd1na2vs0mg"},{"bike_id":"e87016fb-66e9-45c3-ae3b-d82280cf2ed7","system_id":"levelo_inurba_marseille","lat":43.32534,"lon":5.41435,"is_reserved":false,"is_disabled":false,"rental_uris":{"android":"levelo://app?vid=e87016fb-66e9-45c3-ae3b-d82280cf2ed7","ios":"levelo://app?vid=e87016fb-66e9-45c3-ae3b-d82280cf2ed7"},"vehicle_type_id":"4","last_reported":1737472172,"current_range_meters":26000,"station_id":"ce4bhq12rcd13ifvqhhg","pricing_plan_id":"cebpf4jnsgd1na2vs0mg"},{"bike_id":"ad3665cc-4757-4e98-9e3b-b3f13103b812","system_id":"levelo_inurba_marseille","lat":43.29632,"lon":5.37727,"is_reserved":false,"is_disabled":false,"rental_uris":{"android":"levelo://app?vid=ad3665cc-4757-4e98-9e3b-b3f13103b812","ios":"levelo://app?vid=ad3665cc-4757-4e98-9e3b-b3f13103b812"},"vehicle_type_id":"4","last_reported":1737472172,"current_range_meters":19600,"station_id":"ce4bgi92rcd13ifvqb90","pricing_plan_id":"cebpf4jnsgd1na2vs0mg"},{"bike_id":"ab7b1d7a-8ae0-4c4a-9611-7e663b41825a","system_id":"levelo_inurba_marseille","lat":43.3229,"lon":5.38258,"is_reserved":false,"is_disabled":false,"rental_uris":{"android":"levelo://app?vid=ab7b1d7a-8ae0-4c4a-9611-7e663b41825a","ios":"levelo://app?vid=ab7b1d7a-8ae0-4c4a-9611-7e663b41825a"},"vehicle_type_id":"4","last_reported":1737472172,"current_range_meters":38800,"station_id":"ce4bhr12rcd13ifvqhqg","pricing_plan_id":"cebpf4jnsgd1na2vs0mg"},{"bike_id":"9a46fc70-7cd3-48e2-808e-3b382fbb61cd","system_id":"levelo_inurba_marseille","lat":43.23143,"lon":5.43717,"is_reserved":false,"is_disabled":false,"rental_uris":{"android":"levelo://app?vid=9a46fc70-7cd3-48e2-808e-3b382fbb61cd","ios":"levelo://app?vid=9a46fc70-7cd3-48e2-808e-3b382fbb61cd"},"vehicle_type_id":"4","last_reported":1737472172,"current_range_meters":13600,"station_id":"ce4bhmp2rcd13ifvqgog","pricing_plan_id":"cebpf4jnsgd1na2vs0mg"},{"bike_id":"188e09b2-ccb8-432b-be6f-8dbc57a72e1a","system_id":"levelo_inurba_marseille","lat":43.31275,"lon":5.40157,"is_reserved":false,"is_disabled":false,"rental_uris":{"android":"levelo://app?vid=188e09b2-ccb8-432b-be6f-8dbc57a72e1a","ios":"levelo://app?vid=188e09b2-ccb8-432b-be6f-8dbc57a72e1a"},"vehicle_type_id":"4","last_reported":1737472172,"current_range_meters":22400,"station_id":"ce4bh092rcd13ifvqd30","pricing_plan_id":"cebpf4jnsgd1na2vs0mg"},{"bike_id":"971e79ab-1936-4123-b0a8-54ba93817ba2","system_id":"levelo_inurba_marseille","lat":43.27816,"lon":5.40713,"is_reserved":false,"is_disabled":false,"rental_uris":{"android":"levelo://app?vid=971e79ab-1936-4123-b0a8-54ba93817ba2","ios":"levelo://app?vid=971e79ab-1936-4123-b0a8-54ba93817ba2"},"vehicle_type_id":"4","last_reported":1737472172,"current_range_meters":26800,"station_id":"ce4bhnh2rcd13ifvqgtg","pricing_plan_id":"cebpf4jnsgd1na2vs0mg"},{"bike_id":"3f59c436-1cd6-48d5-a70a-6319db59feff","system_id":"levelo_inurba_marseille","lat":43.30437,"lon":5.38889,"is_reserved":false,"is_disabled":false,"rental_uris":{"android":"levelo://app?vid=3f59c436-1cd6-48d5-a70a-6319db59feff","ios":"levelo://app?vid=3f59c436-1cd6-48d5-a70a-6319db59feff"},"vehicle_type_id":"4","last_reported":1737472172,"current_range_meters":32400,"station_id":"ce4bgk12rcd13ifvqbi0","pricing_plan_id":"cebpf4jnsgd1na2vs0mg"},{"bike_id":"d91be513-c350-4df2-80c9-9eac41eaf470","system_id":"levelo_inurba_marseille","lat":43.27948,"lon":5.3871,"is_reserved":false,"is_disabled":true,"rental_uris":{"android":"levelo://app?vid=d91be513-c350-4df2-80c9-9eac41eaf470","ios":"levelo://app?vid=d91be513-c350-4df2-80c9-9eac41eaf470"},"vehicle_type_id":"4","last_reported":1737472172,"current_range_meters":0,"station_id":"ce4bhg12rcd13ifvqf80","pricing_plan_id":"cebpf4jnsgd1na2vs0mg"},{"bike_id":"16d557bd-8a98-400c-a4d5-ef3de0c095c9","system_id":"levelo_inurba_marseille","lat":43.28721,"lon":5.37936,"is_reserved":false,"is_disabled":false,"rental_uris":{"android":"levelo://app?vid=16d557bd-8a98-400c-a4d5-ef3de0c095c9","ios":"levelo://app?vid=16d557bd-8a98-400c-a4d5-ef3de0c095c9"},"vehicle_type_id":"4","last_reported":1737472172,"current_range_meters":35600,"station_id":"ce4bh9p2rcd13ifvqec0","pricing_plan_id":"cebpf4jnsgd1na2vs0mg"},{"bike_id":"bda5c3c5-1ce2-40be-87ca-14619f5b97ef","system_id":"levelo_inurba_marseille","lat":43.31318,"lon":5.39694,"is_reserved":false,"is_disabled":false,"rental_uris":{"android":"levelo://app?vid=bda5c3c5-1ce2-40be-87ca-14619f5b97ef","ios":"levelo://app?vid=bda5c3c5-1ce2-40be-87ca-14619f5b97ef"},"vehicle_type_id":"4","last_reported":1737472172,"current_range_meters":18800,"station_id":"ce4bgvp2rcd13ifvqcu0","pricing_plan_id":"cebpf4jnsgd1na2vs0mg"},{"bike_id":"22086f1e-8965-4707-9ed7-32ff6fc770d2","system_id":"levelo_inurba_marseille","lat":43.27912,"lon":5.3959,"is_reserved":false,"is_disabled":false,"rental_uris":{"android":"levelo://app?vid=22086f1e-8965-4707-9ed7-32ff6fc770d2","ios":"levelo://app?vid=22086f1e-8965-4707-9ed7-32ff6fc770d2"},"vehicle_type_id":"4","last_reported":1737472172,"current_range_meters":12400,"station_id":"ce4bhf92rcd13ifvqf40","pricing_plan_id":"cebpf4jnsgd1na2vs0mg"},{"bike_id":"2013d2d2-593d-4dd7-bc08-8296754af443","system_id":"levelo_inurba_marseille","lat":43.27495,"lon":5.42456,"is_reserved":false,"is_disabled":false,"rental_uris":{"android":"levelo://app?vid=2013d2d2-593d-4dd7-bc08-8296754af443","ios":"levelo://app?vid=2013d2d2-593d-4dd7-bc08-8296754af443"},"vehicle_type_id":"4","last_reported":1737472172,"current_range_meters":14000,"station_id":"ce4bhn92rcd13ifvqgrg","pricing_plan_id":"cebpf4jnsgd1na2vs0mg"},{"bike_id":"20c3f350-3c7b-4ffb-8ae3-d213fb56f276","system_id":"levelo_inurba_marseille","lat":43.31044,"lon":5.38343,"is_reserved":false,"is_disabled":false,"rental_uris":{"android":"levelo://app?vid=20c3f350-3c7b-4ffb-8ae3-d213fb56f276","ios":"levelo://app?vid=20c3f350-3c7b-4ffb-8ae3-d213fb56f276"},"vehicle_type_id":"4","last_reported":1737472172,"current_range_meters":11200,"station_id":"","pricing_plan_id":"cebpf4jnsgd1na2vs0mg"},{"bike_id":"9bc726c4-f0ae-46a7-9894-3042b33f1aaf","system_id":"levelo_inurba_marseille","lat":43.23152,"lon":5.43718,"is_reserved":false,"is_disabled":true,"rental_uris":{"android":"levelo://app?vid=9bc726c4-f0ae-46a7-9894-3042b33f1aaf","ios":"levelo://app?vid=9bc726c4-f0ae-46a7-9894-3042b33f1aaf"},"vehicle_type_id":"4","last_reported":1737472172,"current_range_meters":800,"station_id":"ce4bhmp2rcd13ifvqgog","pricing_plan_id":"cebpf4jnsgd1na2vs0mg"},{"bike_id":"8c2d908b-1f3e-4848-bdd6-0c37e3374310","system_id":"levelo_inurba_marseille","lat":43.30145,"lon":5.39877,"is_reserved":false,"is_disabled":false,"rental_uris":{"android":"levelo://app?vid=8c2d908b-1f3e-4848-bdd6-0c37e3374310","ios":"levelo://app?vid=8c2d908b-1f3e-4848-bdd6-0c37e3374310"},"vehicle_type_id":"4","last_reported":1737472172,"current_range_meters":28800,"station_id":"ce4bh0h2rcd13ifvqd40","pricing_plan_id":"cebpf4jnsgd1na2vs0mg"},{"bike_id":"53e56092-bf59-4d37-8073-3e35714bc05d","system_id":"levelo_inurba_marseille","lat":43.23152,"lon":5.43725,"is_reserved":false,"is_disabled":false,"rental_uris":{"android":"levelo://app?vid=53e56092-bf59-4d37-8073-3e35714bc05d","ios":"levelo://app?vid=53e56092-bf59-4d37-8073-3e35714bc05d"},"vehicle_type_id":"4","last_reported":1737472172,"current_range_meters":17200,"station_id":"ce4bhmp2rcd13ifvqgog","pricing_plan_id":"cebpf4jnsgd1na2vs0mg"},{"bike_id":"89e5d999-b64a-4894-b233-fbd2ca840386","system_id":"levelo_inurba_marseille","lat":43.30916,"lon":5.36849,"is_reserved":false,"is_disabled":false,"rental_uris":{"android":"levelo://app?vid=89e5d999-b64a-4894-b233-fbd2ca840386","ios":"levelo://app?vid=89e5d999-b64a-4894-b233-fbd2ca840386"},"vehicle_type_id":"4","last_reported":1737472172,"current_range_meters":32400,"station_id":"ce4bgn92rcd13ifvqbvg","pricing_plan_id":"cebpf4jnsgd1na2vs0mg"},{"bike_id":"262f4863-52f1-45dd-a68a-7e628bc0400d","system_id":"levelo_inurba_marseille","lat":43.27443,"lon":5.39414,"is_reserved":false,"is_disabled":false,"rental_uris":{"android":"levelo://app?vid=262f4863-52f1-45dd-a68a-7e628bc0400d","ios":"levelo://app?vid=262f4863-52f1-45dd-a68a-7e628bc0400d"},"vehicle_type_id":"4","last_reported":1737472172,"current_range_meters":33600,"station_id":"ce4bhdp2rcd13ifvqf20","pricing_plan_id":"cebpf4jnsgd1na2vs0mg"},{"bike_id":"d98c383f-deee-439b-9ec7-deec2a8acf6b","system_id":"levelo_inurba_marseille","lat":43.30329,"lon":5.36906,"is_reserved":false,"is_disabled":false,"rental_uris":{"android":"levelo://app?vid=d98c383f-deee-439b-9ec7-deec2a8acf6b","ios":"levelo://app?vid=d98c383f-deee-439b-9ec7-deec2a8acf6b"},"vehicle_type_id":"4","last_reported":1737472172,"current_range_meters":37600,"station_id":"ce4bgqh2rcd13ifvqc5g","pricing_plan_id":"cebpf4jnsgd1na2vs0mg"},{"bike_id":"f0af8429-ac7c-4974-b8ef-9e94a78407d7","system_id":"levelo_inurba_marseille","lat":43.29189,"lon":5.39329,"is_reserved":false,"is_disabled":false,"rental_uris":{"android":"levelo://app?vid=f0af8429-ac7c-4974-b8ef-9e94a78407d7","ios":"levelo://app?vid=f0af8429-ac7c-4974-b8ef-9e94a78407d7"},"vehicle_type_id":"4","last_reported":1737472172,"current_range_meters":38800,"station_id":"ce4bh192rcd13ifvqdd0","pricing_plan_id":"cebpf4jnsgd1na2vs0mg"},{"bike_id":"7e4c7ea3-48f8-4aac-8b08-3e4fa595f4e5","system_id":"levelo_inurba_marseille","lat":43.287065,"lon":5.373735,"is_reserved":false,"is_disabled":false,"rental_uris":{"android":"levelo://app?vid=7e4c7ea3-48f8-4aac-8b08-3e4fa595f4e5","ios":"levelo://app?vid=7e4c7ea3-48f8-4aac-8b08-3e4fa595f4e5"},"vehicle_type_id":"4","last_reported":1737472172,"current_range_meters":18800,"station_id":"ce4bh3p2rcd13ifvqdq0","pricing_plan_id":"cebpf4jnsgd1na2vs0mg"},{"bike_id":"324a7318-dc59-4c9f-8262-0b260deab003","system_id":"levelo_inurba_marseille","lat":43.28852,"lon":5.3932,"is_reserved":false,"is_disabled":false,"rental_uris":{"android":"levelo://app?vid=324a7318-dc59-4c9f-8262-0b260deab003","ios":"levelo://app?vid=324a7318-dc59-4c9f-8262-0b260deab003"},"vehicle_type_id":"4","last_reported":1737472172,"current_range_meters":38800,"station_id":"ce4bh2p2rcd13ifvqdi0","pricing_plan_id":"cebpf4jnsgd1na2vs0mg"},{"bike_id":"1f6dc155-db14-4993-a445-66a4306b1945","system_id":"levelo_inurba_marseille","lat":43.28414,"lon":5.37517,"is_reserved":false,"is_disabled":false,"rental_uris":{"android":"levelo://app?vid=1f6dc155-db14-4993-a445-66a4306b1945","ios":"levelo://app?vid=1f6dc155-db14-4993-a445-66a4306b1945"},"vehicle_type_id":"4","last_reported":1737472172,"current_range_meters":28400,"station_id":"ce4bh412rcd13ifvqds0","pricing_plan_id":"cebpf4jnsgd1na2vs0mg"},{"bike_id":"bc863def-c610-41f8-b99f-aa07c22929c0","system_id":"levelo_inurba_marseille","lat":43.30152,"lon":5.39867,"is_reserved":false,"is_disabled":false,"rental_uris":{"android":"levelo://app?vid=bc863def-c610-41f8-b99f-aa07c22929c0","ios":"levelo://app?vid=bc863def-c610-41f8-b99f-aa07c22929c0"},"vehicle_type_id":"4","last_reported":1737472172,"current_range_meters":28000,"station_id":"ce4bh0h2rcd13ifvqd40","pricing_plan_id":"cebpf4jnsgd1na2vs0mg"},{"bike_id":"57089681-4dfb-4ed4-9d3a-5124dafb4159","system_id":"levelo_inurba_marseille","lat":43.27062,"lon":5.42275,"is_reserved":false,"is_disabled":false,"rental_uris":{"android":"levelo://app?vid=57089681-4dfb-4ed4-9d3a-5124dafb4159","ios":"levelo://app?vid=57089681-4dfb-4ed4-9d3a-5124dafb4159"},"vehicle_type_id":"4","last_reported":1737472172,"current_range_meters":38800,"station_id":"ce4bhk92rcd13ifvqgb0","pricing_plan_id":"cebpf4jnsgd1na2vs0mg"},{"bike_id":"777109ab-a7f4-483f-b422-40d7c37b72f6","system_id":"levelo_inurba_marseille","lat":43.309818,"lon":5.380491,"is_reserved":false,"is_disabled":false,"rental_uris":{"android":"levelo://app?vid=777109ab-a7f4-483f-b422-40d7c37b72f6","ios":"levelo://app?vid=777109ab-a7f4-483f-b422-40d7c37b72f6"},"vehicle_type_id":"4","last_reported":1737472172,"current_range_meters":38400,"station_id":"ce4bhqp2rcd13ifvqhng","pricing_plan_id":"cebpf4jnsgd1na2vs0mg"},{"bike_id":"a036d79a-5d90-4c7f-ae02-024da4f1b856","system_id":"levelo_inurba_marseille","lat":43.30771,"lon":5.37585,"is_reserved":false,"is_disabled":false,"rental_uris":{"android":"levelo://app?vid=a036d79a-5d90-4c7f-ae02-024da4f1b856","ios":"levelo://app?vid=a036d79a-5d90-4c7f-ae02-024da4f1b856"},"vehicle_type_id":"4","last_reported":1737472172,"current_range_meters":33200,"station_id":"ce4bgv92rcd13ifvqcq0","pricing_plan_id":"cebpf4jnsgd1na2vs0mg"},{"bike_id":"580fd682-a63d-4470-bd40-a527c3d7e682","system_id":"levelo_inurba_marseille","lat":43.25007,"lon":5.389,"is_reserved":false,"is_disabled":false,"rental_uris":{"android":"levelo://app?vid=580fd682-a63d-4470-bd40-a527c3d7e682","ios":"levelo://app?vid=580fd682-a63d-4470-bd40-a527c3d7e682"},"vehicle_type_id":"4","last_reported":1737472172,"current_range_meters":38800,"station_id":"ce4bhgp2rcd13ifvqfd0","pricing_plan_id":"cebpf4jnsgd1na2vs0mg"},{"bike_id":"853adf7d-7ed3-4fc6-8e3d-794e1d39f42e","system_id":"levelo_inurba_marseille","lat":43.28847,"lon":5.39313,"is_reserved":false,"is_disabled":false,"rental_uris":{"android":"levelo://app?vid=853adf7d-7ed3-4fc6-8e3d-794e1d39f42e","ios":"levelo://app?vid=853adf7d-7ed3-4fc6-8e3d-794e1d39f42e"},"vehicle_type_id":"4","last_reported":1737472172,"current_range_meters":25600,"station_id":"ce4bh2p2rcd13ifvqdi0","pricing_plan_id":"cebpf4jnsgd1na2vs0mg"},{"bike_id":"bcd175e1-1fd1-4b01-ba8a-35156c99c1cc","system_id":"levelo_inurba_marseille","lat":43.31277,"lon":5.40169,"is_reserved":false,"is_disabled":false,"rental_uris":{"android":"levelo://app?vid=bcd175e1-1fd1-4b01-ba8a-35156c99c1cc","ios":"levelo://app?vid=bcd175e1-1fd1-4b01-ba8a-35156c99c1cc"},"vehicle_type_id":"4","last_reported":1737472172,"current_range_meters":38800,"station_id":"ce4bh092rcd13ifvqd30","pricing_plan_id":"cebpf4jnsgd1na2vs0mg"},{"bike_id":"3f7adcb8-552a-4309-bdb8-bd6e87e7c99b","system_id":"levelo_inurba_marseille","lat":43.27505,"lon":5.42431,"is_reserved":false,"is_disabled":false,"rental_uris":{"android":"levelo://app?vid=3f7adcb8-552a-4309-bdb8-bd6e87e7c99b","ios":"levelo://app?vid=3f7adcb8-552a-4309-bdb8-bd6e87e7c99b"},"vehicle_type_id":"4","last_reported":1737472172,"current_range_meters":6800,"station_id":"ce4bhn92rcd13ifvqgrg","pricing_plan_id":"cebpf4jnsgd1na2vs0mg"},{"bike_id":"d0deaa0f-336c-4daf-981a-c3ffec1ee136","system_id":"levelo_inurba_marseille","lat":43.26557,"lon":5.37282,"is_reserved":false,"is_disabled":false,"rental_uris":{"android":"levelo://app?vid=d0deaa0f-336c-4daf-981a-c3ffec1ee136","ios":"levelo://app?vid=d0deaa0f-336c-4daf-981a-c3ffec1ee136"},"vehicle_type_id":"4","last_reported":1737472172,"current_range_meters":35200,"station_id":"ce4bhg12rcd13ifvqf70","pricing_plan_id":"cebpf4jnsgd1na2vs0mg"},{"bike_id":"25cce461-9c2a-4621-ab6f-7612add39744","system_id":"levelo_inurba_marseille","lat":43.31331,"lon":5.39694,"is_reserved":false,"is_disabled":false,"rental_uris":{"android":"levelo://app?vid=25cce461-9c2a-4621-ab6f-7612add39744","ios":"levelo://app?vid=25cce461-9c2a-4621-ab6f-7612add39744"},"vehicle_type_id":"4","last_reported":1737472172,"current_range_meters":28400,"station_id":"ce4bgvp2rcd13ifvqcu0","pricing_plan_id":"cebpf4jnsgd1na2vs0mg"},{"bike_id":"890f5e27-5a54-4b2c-bcef-2d6479fe6229","system_id":"levelo_inurba_marseille","lat":43.29644,"lon":5.37169,"is_reserved":false,"is_disabled":false,"rental_uris":{"android":"levelo://app?vid=890f5e27-5a54-4b2c-bcef-2d6479fe6229","ios":"levelo://app?vid=890f5e27-5a54-4b2c-bcef-2d6479fe6229"},"vehicle_type_id":"4","last_reported":1737472172,"current_range_meters":38800,"station_id":"ce4bgnh2rcd13ifvqc0g","pricing_plan_id":"cebpf4jnsgd1na2vs0mg"},{"bike_id":"b7cbae11-2f9a-455e-aad2-e4e037e925a5","system_id":"levelo_inurba_marseille","lat":43.25582,"lon":5.38232,"is_reserved":false,"is_disabled":false,"rental_uris":{"android":"levelo://app?vid=b7cbae11-2f9a-455e-aad2-e4e037e925a5","ios":"levelo://app?vid=b7cbae11-2f9a-455e-aad2-e4e037e925a5"},"vehicle_type_id":"4","last_reported":1737472172,"current_range_meters":31200,"station_id":"ce4bhih2rcd13ifvqfs0","pricing_plan_id":"cebpf4jnsgd1na2vs0mg"},{"bike_id":"31257c94-14b2-42e2-9664-77ef70ea51d9","system_id":"levelo_inurba_marseille","lat":43.32474,"lon":5.36587,"is_reserved":false,"is_disabled":false,"rental_uris":{"android":"levelo://app?vid=31257c94-14b2-42e2-9664-77ef70ea51d9","ios":"levelo://app?vid=31257c94-14b2-42e2-9664-77ef70ea51d9"},"vehicle_type_id":"4","last_reported":1737472172,"current_range_meters":38800,"station_id":"ce4bhs12rcd13ifvqhvg","pricing_plan_id":"cebpf4jnsgd1na2vs0mg"},{"bike_id":"670ac4b0-6b16-4fd3-b7e2-1a38a75e38aa","system_id":"levelo_inurba_marseille","lat":43.30327,"lon":5.40429,"is_reserved":false,"is_disabled":false,"rental_uris":{"android":"levelo://app?vid=670ac4b0-6b16-4fd3-b7e2-1a38a75e38aa","ios":"levelo://app?vid=670ac4b0-6b16-4fd3-b7e2-1a38a75e38aa"},"vehicle_type_id":"4","last_reported":1737472172,"current_range_meters":32400,"station_id":"ce4bh012rcd13ifvqd10","pricing_plan_id":"cebpf4jnsgd1na2vs0mg"},{"bike_id":"7347ed2d-2941-4e73-8e2a-d48f922ac401","system_id":"levelo_inurba_marseille","lat":43.30327,"lon":5.404313,"is_reserved":false,"is_disabled":false,"rental_uris":{"android":"levelo://app?vid=7347ed2d-2941-4e73-8e2a-d48f922ac401","ios":"levelo://app?vid=7347ed2d-2941-4e73-8e2a-d48f922ac401"},"vehicle_type_id":"4","last_reported":1737472172,"current_range_meters":4800,"station_id":"ce4bh012rcd13ifvqd10","pricing_plan_id":"cebpf4jnsgd1na2vs0mg"},{"bike_id":"b6cc31be-151e-4d56-8839-e71a9cd45b18","system_id":"levelo_inurba_marseille","lat":43.2319,"lon":5.35555,"is_reserved":false,"is_disabled":false,"rental_uris":{"android":"levelo://app?vid=b6cc31be-151e-4d56-8839-e71a9cd45b18","ios":"levelo://app?vid=b6cc31be-151e-4d56-8839-e71a9cd45b18"},"vehicle_type_id":"4","last_reported":1737472172,"current_range_meters":36400,"station_id":"ce4bhu92rcd13ifvqi70","pricing_plan_id":"cebpf4jnsgd1na2vs0mg"},{"bike_id":"b11a3a39-0de8-404b-9eae-e947f7f49d56","system_id":"levelo_inurba_marseille","lat":43.31168,"lon":5.38714,"is_reserved":false,"is_disabled":false,"rental_uris":{"android":"levelo://app?vid=b11a3a39-0de8-404b-9eae-e947f7f49d56","ios":"levelo://app?vid=b11a3a39-0de8-404b-9eae-e947f7f49d56"},"vehicle_type_id":"4","last_reported":1737472172,"current_range_meters":28400,"station_id":"ce4bgv12rcd13ifvqcp0","pricing_plan_id":"cebpf4jnsgd1na2vs0mg"},{"bike_id":"5dd9f8b5-e578-450c-8989-937e9f80267e","system_id":"levelo_inurba_marseille","lat":43.29286,"lon":5.37474,"is_reserved":false,"is_disabled":false,"rental_uris":{"android":"levelo://app?vid=5dd9f8b5-e578-450c-8989-937e9f80267e","ios":"levelo://app?vid=5dd9f8b5-e578-450c-8989-937e9f80267e"},"vehicle_type_id":"4","last_reported":1737472172,"current_range_meters":38800,"station_id":"ce4bgi12rcd13ifvqb70","pricing_plan_id":"cebpf4jnsgd1na2vs0mg"},{"bike_id":"503f4e76-2279-4cdf-a5a2-2531a91f3a3a","system_id":"levelo_inurba_marseille","lat":43.26552,"lon":5.37289,"is_reserved":false,"is_disabled":false,"rental_uris":{"android":"levelo://app?vid=503f4e76-2279-4cdf-a5a2-2531a91f3a3a","ios":"levelo://app?vid=503f4e76-2279-4cdf-a5a2-2531a91f3a3a"},"vehicle_type_id":"4","last_reported":1737472172,"current_range_meters":36000,"station_id":"ce4bhg12rcd13ifvqf70","pricing_plan_id":"cebpf4jnsgd1na2vs0mg"},{"bike_id":"bf04cb94-1bb7-4539-a87b-98c1f139ab50","system_id":"levelo_inurba_marseille","lat":43.29933,"lon":5.37464,"is_reserved":false,"is_disabled":false,"rental_uris":{"android":"levelo://app?vid=bf04cb94-1bb7-4539-a87b-98c1f139ab50","ios":"levelo://app?vid=bf04cb94-1bb7-4539-a87b-98c1f139ab50"},"vehicle_type_id":"4","last_reported":1737472172,"current_range_meters":24400,"station_id":"ce4bgjh2rcd13ifvqbg0","pricing_plan_id":"cebpf4jnsgd1na2vs0mg"},{"bike_id":"973357c8-dead-42ca-92e9-500225bc994c","system_id":"levelo_inurba_marseille","lat":43.33029,"lon":5.39044,"is_reserved":false,"is_disabled":false,"rental_uris":{"android":"levelo://app?vid=973357c8-dead-42ca-92e9-500225bc994c","ios":"levelo://app?vid=973357c8-dead-42ca-92e9-500225bc994c"},"vehicle_type_id":"4","last_reported":1737472172,"current_range_meters":39200,"station_id":"ce4bhr92rcd13ifvqhrg","pricing_plan_id":"cebpf4jnsgd1na2vs0mg"},{"bike_id":"e1b86826-a513-4fa0-8111-6fab965861d5","system_id":"levelo_inurba_marseille","lat":43.31714,"lon":5.43702,"is_reserved":false,"is_disabled":false,"rental_uris":{"android":"levelo://app?vid=e1b86826-a513-4fa0-8111-6fab965861d5","ios":"levelo://app?vid=e1b86826-a513-4fa0-8111-6fab965861d5"},"vehicle_type_id":"4","last_reported":1737472172,"current_range_meters":14800,"station_id":"ce4bhp92rcd13ifvqhcg","pricing_plan_id":"cebpf4jnsgd1na2vs0mg"},{"bike_id":"d8ec2319-60bc-419d-bce5-00f5962508cf","system_id":"levelo_inurba_marseille","lat":43.27374,"lon":5.36252,"is_reserved":false,"is_disabled":false,"rental_uris":{"android":"levelo://app?vid=d8ec2319-60bc-419d-bce5-00f5962508cf","ios":"levelo://app?vid=d8ec2319-60bc-419d-bce5-00f5962508cf"},"vehicle_type_id":"4","last_reported":1737472172,"current_range_meters":25200,"station_id":"ce4bhbh2rcd13ifvqeo0","pricing_plan_id":"cebpf4jnsgd1na2vs0mg"},{"bike_id":"ee3a02e7-0486-4c1e-b32e-8abdd1762a67","system_id":"levelo_inurba_marseille","lat":43.27373,"lon":5.36263,"is_reserved":false,"is_disabled":false,"rental_uris":{"android":"levelo://app?vid=ee3a02e7-0486-4c1e-b32e-8abdd1762a67","ios":"levelo://app?vid=ee3a02e7-0486-4c1e-b32e-8abdd1762a67"},"vehicle_type_id":"4","last_reported":1737472172,"current_range_meters":39200,"station_id":"","pricing_plan_id":"cebpf4jnsgd1na2vs0mg"},{"bike_id":"a9667386-5370-4b94-b202-eea81d19e9ae","system_id":"levelo_inurba_marseille","lat":43.30156,"lon":5.38784,"is_reserved":false,"is_disabled":false,"rental_uris":{"android":"levelo://app?vid=a9667386-5370-4b94-b202-eea81d19e9ae","ios":"levelo://app?vid=a9667386-5370-4b94-b202-eea81d19e9ae"},"vehicle_type_id":"4","last_reported":1737472172,"current_range_meters":30400,"station_id":"ce4bghh2rcd13ifvqb60","pricing_plan_id":"cebpf4jnsgd1na2vs0mg"},{"bike_id":"bbca38f4-68c8-4403-8e2c-3c210a8bf670","system_id":"levelo_inurba_marseille","lat":43.30791,"lon":5.3765,"is_reserved":false,"is_disabled":false,"rental_uris":{"android":"levelo://app?vid=bbca38f4-68c8-4403-8e2c-3c210a8bf670","ios":"levelo://app?vid=bbca38f4-68c8-4403-8e2c-3c210a8bf670"},"vehicle_type_id":"4","last_reported":1737472172,"current_range_meters":24800,"station_id":"ce4bgv92rcd13ifvqcq0","pricing_plan_id":"cebpf4jnsgd1na2vs0mg"},{"bike_id":"1bc4f972-1eb6-4a1e-8920-bbde83f7ed86","system_id":"levelo_inurba_marseille","lat":43.30902,"lon":5.36837,"is_reserved":false,"is_disabled":false,"rental_uris":{"android":"levelo://app?vid=1bc4f972-1eb6-4a1e-8920-bbde83f7ed86","ios":"levelo://app?vid=1bc4f972-1eb6-4a1e-8920-bbde83f7ed86"},"vehicle_type_id":"4","last_reported":1737472172,"current_range_meters":38800,"station_id":"ce4bgn92rcd13ifvqbvg","pricing_plan_id":"cebpf4jnsgd1na2vs0mg"},{"bike_id":"1f5cb474-798b-4357-9d76-fbb42e648fb5","system_id":"levelo_inurba_marseille","lat":43.28642,"lon":5.35093,"is_reserved":false,"is_disabled":false,"rental_uris":{"android":"levelo://app?vid=1f5cb474-798b-4357-9d76-fbb42e648fb5","ios":"levelo://app?vid=1f5cb474-798b-4357-9d76-fbb42e648fb5"},"vehicle_type_id":"4","last_reported":1737472172,"current_range_meters":14800,"station_id":"ce4bhch2rcd13ifvqeug","pricing_plan_id":"cebpf4jnsgd1na2vs0mg"},{"bike_id":"084e2786-4ec7-40d2-9df3-d5a697e8285e","system_id":"levelo_inurba_marseille","lat":43.25087,"lon":5.39525,"is_reserved":false,"is_disabled":false,"rental_uris":{"android":"levelo://app?vid=084e2786-4ec7-40d2-9df3-d5a697e8285e","ios":"levelo://app?vid=084e2786-4ec7-40d2-9df3-d5a697e8285e"},"vehicle_type_id":"4","last_reported":1737472172,"current_range_meters":8400,"station_id":"ce4bhm12rcd13ifvqgkg","pricing_plan_id":"cebpf4jnsgd1na2vs0mg"},{"bike_id":"e0dd1ce8-6598-45f9-b4fe-9d8cc08f1d88","system_id":"levelo_inurba_marseille","lat":43.28411,"lon":5.34986,"is_reserved":false,"is_disabled":true,"rental_uris":{"android":"levelo://app?vid=e0dd1ce8-6598-45f9-b4fe-9d8cc08f1d88","ios":"levelo://app?vid=e0dd1ce8-6598-45f9-b4fe-9d8cc08f1d88"},"vehicle_type_id":"4","last_reported":1737472172,"current_range_meters":0,"station_id":"ce4bhbh2rcd13ifvqepg","pricing_plan_id":"cebpf4jnsgd1na2vs0mg"},{"bike_id":"7b2b96b7-8723-423b-bc80-b7103e400bb0","system_id":"levelo_inurba_marseille","lat":43.27173,"lon":5.40985,"is_reserved":false,"is_disabled":false,"rental_uris":{"android":"levelo://app?vid=7b2b96b7-8723-423b-bc80-b7103e400bb0","ios":"levelo://app?vid=7b2b96b7-8723-423b-bc80-b7103e400bb0"},"vehicle_type_id":"4","last_reported":1737472172,"current_range_meters":38800,"station_id":"ce4bhl12rcd13ifvqgf0","pricing_plan_id":"cebpf4jnsgd1na2vs0mg"},{"bike_id":"b1e7c0e3-f276-47c4-8832-08cec6a6eeae","system_id":"levelo_inurba_marseille","lat":43.3054,"lon":5.3669,"is_reserved":false,"is_disabled":false,"rental_uris":{"android":"levelo://app?vid=b1e7c0e3-f276-47c4-8832-08cec6a6eeae","ios":"levelo://app?vid=b1e7c0e3-f276-47c4-8832-08cec6a6eeae"},"vehicle_type_id":"4","last_reported":1737472172,"current_range_meters":38000,"station_id":"ce4bgrp2rcd13ifvqc9g","pricing_plan_id":"cebpf4jnsgd1na2vs0mg"},{"bike_id":"b3ca73cb-43b3-4cd5-9687-9645b13108f6","system_id":"levelo_inurba_marseille","lat":43.29745,"lon":5.3767,"is_reserved":false,"is_disabled":false,"rental_uris":{"android":"levelo://app?vid=b3ca73cb-43b3-4cd5-9687-9645b13108f6","ios":"levelo://app?vid=b3ca73cb-43b3-4cd5-9687-9645b13108f6"},"vehicle_type_id":"4","last_reported":1737472172,"current_range_meters":17200,"station_id":"ce4bgkh2rcd13ifvqbl0","pricing_plan_id":"cebpf4jnsgd1na2vs0mg"},{"bike_id":"188a488e-e122-4c05-97a4-b179fcfd46e1","system_id":"levelo_inurba_marseille","lat":43.29819,"lon":5.38068,"is_reserved":false,"is_disabled":false,"rental_uris":{"android":"levelo://app?vid=188a488e-e122-4c05-97a4-b179fcfd46e1","ios":"levelo://app?vid=188a488e-e122-4c05-97a4-b179fcfd46e1"},"vehicle_type_id":"4","last_reported":1737472172,"current_range_meters":38400,"station_id":"ce4bgip2rcd13ifvqbb0","pricing_plan_id":"cebpf4jnsgd1na2vs0mg"},{"bike_id":"0145248c-30cf-4f2d-86de-5896525609bc","system_id":"levelo_inurba_marseille","lat":43.33777,"lon":5.37434,"is_reserved":false,"is_disabled":false,"rental_uris":{"android":"levelo://app?vid=0145248c-30cf-4f2d-86de-5896525609bc","ios":"levelo://app?vid=0145248c-30cf-4f2d-86de-5896525609bc"},"vehicle_type_id":"4","last_reported":1737472172,"current_range_meters":38800,"station_id":"","pricing_plan_id":"cebpf4jnsgd1na2vs0mg"},{"bike_id":"64b66824-f064-4903-8358-094ea3275fbf","system_id":"levelo_inurba_marseille","lat":43.30287,"lon":5.37673,"is_reserved":false,"is_disabled":false,"rental_uris":{"android":"levelo://app?vid=64b66824-f064-4903-8358-094ea3275fbf","ios":"levelo://app?vid=64b66824-f064-4903-8358-094ea3275fbf"},"vehicle_type_id":"4","last_reported":1737472172,"current_range_meters":38800,"station_id":"ce4bguh2rcd13ifvqcj0","pricing_plan_id":"cebpf4jnsgd1na2vs0mg"},{"bike_id":"1e18800a-d2e0-4756-9e2e-944ef60290aa","system_id":"levelo_inurba_marseille","lat":43.26569,"lon":5.38998,"is_reserved":false,"is_disabled":false,"rental_uris":{"android":"levelo://app?vid=1e18800a-d2e0-4756-9e2e-944ef60290aa","ios":"levelo://app?vid=1e18800a-d2e0-4756-9e2e-944ef60290aa"},"vehicle_type_id":"4","last_reported":1737472172,"current_range_meters":17600,"station_id":"ce4bhe12rcd13ifvqf30","pricing_plan_id":"cebpf4jnsgd1na2vs0mg"},{"bike_id":"1b1acf8d-54ac-4efe-96ff-66c901f3aba1","system_id":"levelo_inurba_marseille","lat":43.30543,"lon":5.36533,"is_reserved":false,"is_disabled":false,"rental_uris":{"android":"levelo://app?vid=1b1acf8d-54ac-4efe-96ff-66c901f3aba1","ios":"levelo://app?vid=1b1acf8d-54ac-4efe-96ff-66c901f3aba1"},"vehicle_type_id":"4","last_reported":1737472172,"current_range_meters":38800,"station_id":"ce4bgs12rcd13ifvqcag","pricing_plan_id":"cebpf4jnsgd1na2vs0mg"},{"bike_id":"784a4db8-b523-44fa-863a-df01fcaa4721","system_id":"levelo_inurba_marseille","lat":43.23964,"lon":5.36639,"is_reserved":false,"is_disabled":false,"rental_uris":{"android":"levelo://app?vid=784a4db8-b523-44fa-863a-df01fcaa4721","ios":"levelo://app?vid=784a4db8-b523-44fa-863a-df01fcaa4721"},"vehicle_type_id":"4","last_reported":1737472172,"current_range_meters":16400,"station_id":"ce4bhi12rcd13ifvqfp0","pricing_plan_id":"cebpf4jnsgd1na2vs0mg"},{"bike_id":"565b608d-76f1-4b0e-8b96-1edfb19a2b5c","system_id":"levelo_inurba_marseille","lat":43.33613,"lon":5.41014,"is_reserved":false,"is_disabled":true,"rental_uris":{"android":"levelo://app?vid=565b608d-76f1-4b0e-8b96-1edfb19a2b5c","ios":"levelo://app?vid=565b608d-76f1-4b0e-8b96-1edfb19a2b5c"},"vehicle_type_id":"4","last_reported":1737472172,"current_range_meters":0,"station_id":"ce4bhqh2rcd13ifvqhmg","pricing_plan_id":"cebpf4jnsgd1na2vs0mg"},{"bike_id":"86d1a769-f88d-4a86-a0d6-7babb2b59cf4","system_id":"levelo_inurba_marseille","lat":43.30088,"lon":5.39079,"is_reserved":false,"is_disabled":false,"rental_uris":{"android":"levelo://app?vid=86d1a769-f88d-4a86-a0d6-7babb2b59cf4","ios":"levelo://app?vid=86d1a769-f88d-4a86-a0d6-7babb2b59cf4"},"vehicle_type_id":"4","last_reported":1737472172,"current_range_meters":38000,"station_id":"ce4bh192rcd13ifvqdb0","pricing_plan_id":"cebpf4jnsgd1na2vs0mg"},{"bike_id":"0991a636-1601-4811-b80c-c916c805a5d9","system_id":"levelo_inurba_marseille","lat":43.29282,"lon":5.40115,"is_reserved":false,"is_disabled":false,"rental_uris":{"android":"levelo://app?vid=0991a636-1601-4811-b80c-c916c805a5d9","ios":"levelo://app?vid=0991a636-1601-4811-b80c-c916c805a5d9"},"vehicle_type_id":"4","last_reported":1737472172,"current_range_meters":27600,"station_id":"ce4bh312rcd13ifvqdk0","pricing_plan_id":"cebpf4jnsgd1na2vs0mg"},{"bike_id":"e5905677-072c-48c2-ad2d-1856fa481a6c","system_id":"levelo_inurba_marseille","lat":43.25819,"lon":5.39453,"is_reserved":false,"is_disabled":false,"rental_uris":{"android":"levelo://app?vid=e5905677-072c-48c2-ad2d-1856fa481a6c","ios":"levelo://app?vid=e5905677-072c-48c2-ad2d-1856fa481a6c"},"vehicle_type_id":"4","last_reported":1737472172,"current_range_meters":36000,"station_id":"ce4bhip2rcd13ifvqft0","pricing_plan_id":"cebpf4jnsgd1na2vs0mg"},{"bike_id":"cb33197b-e426-4634-8e46-bbf41a0bbbd8","system_id":"levelo_inurba_marseille","lat":43.31352,"lon":5.36695,"is_reserved":false,"is_disabled":false,"rental_uris":{"android":"levelo://app?vid=cb33197b-e426-4634-8e46-bbf41a0bbbd8","ios":"levelo://app?vid=cb33197b-e426-4634-8e46-bbf41a0bbbd8"},"vehicle_type_id":"4","last_reported":1737472172,"current_range_meters":39200,"station_id":"ce4bgr92rcd13ifvqc6g","pricing_plan_id":"cebpf4jnsgd1na2vs0mg"},{"bike_id":"6e1433da-ca9f-4090-b658-fb877339609a","system_id":"levelo_inurba_marseille","lat":43.27821,"lon":5.40698,"is_reserved":false,"is_disabled":false,"rental_uris":{"android":"levelo://app?vid=6e1433da-ca9f-4090-b658-fb877339609a","ios":"levelo://app?vid=6e1433da-ca9f-4090-b658-fb877339609a"},"vehicle_type_id":"4","last_reported":1737472172,"current_range_meters":37600,"station_id":"ce4bhnh2rcd13ifvqgtg","pricing_plan_id":"cebpf4jnsgd1na2vs0mg"},{"bike_id":"89a2217f-f95a-4949-8fe3-295bef65420d","system_id":"levelo_inurba_marseille","lat":43.241813,"lon":5.36385,"is_reserved":false,"is_disabled":false,"rental_uris":{"android":"levelo://app?vid=89a2217f-f95a-4949-8fe3-295bef65420d","ios":"levelo://app?vid=89a2217f-f95a-4949-8fe3-295bef65420d"},"vehicle_type_id":"4","last_reported":1737472172,"current_range_meters":17200,"station_id":"cpo36qri1sfpv3e86is0","pricing_plan_id":"cebpf4jnsgd1na2vs0mg"},{"bike_id":"426e7f9b-5e0d-43bf-8bdf-78db7dc8caea","system_id":"levelo_inurba_marseille","lat":43.29977,"lon":5.37159,"is_reserved":false,"is_disabled":false,"rental_uris":{"android":"levelo://app?vid=426e7f9b-5e0d-43bf-8bdf-78db7dc8caea","ios":"levelo://app?vid=426e7f9b-5e0d-43bf-8bdf-78db7dc8caea"},"vehicle_type_id":"4","last_reported":1737472172,"current_range_meters":20800,"station_id":"ce4bgr92rcd13ifvqc7g","pricing_plan_id":"cebpf4jnsgd1na2vs0mg"},{"bike_id":"af6d5d8d-79e6-4aa3-b664-b8e2ded40f3b","system_id":"levelo_inurba_marseille","lat":43.28461,"lon":5.35895,"is_reserved":false,"is_disabled":false,"rental_uris":{"android":"levelo://app?vid=af6d5d8d-79e6-4aa3-b664-b8e2ded40f3b","ios":"levelo://app?vid=af6d5d8d-79e6-4aa3-b664-b8e2ded40f3b"},"vehicle_type_id":"4","last_reported":1737472172,"current_range_meters":11600,"station_id":"ce4bhah2rcd13ifvqei0","pricing_plan_id":"cebpf4jnsgd1na2vs0mg"},{"bike_id":"a3c85c4e-f490-4de6-846d-e6cc32052c51","system_id":"levelo_inurba_marseille","lat":43.32662,"lon":5.40999,"is_reserved":false,"is_disabled":false,"rental_uris":{"android":"levelo://app?vid=a3c85c4e-f490-4de6-846d-e6cc32052c51","ios":"levelo://app?vid=a3c85c4e-f490-4de6-846d-e6cc32052c51"},"vehicle_type_id":"4","last_reported":1737472172,"current_range_meters":38400,"station_id":"ce4bhpp2rcd13ifvqhgg","pricing_plan_id":"cebpf4jnsgd1na2vs0mg"},{"bike_id":"9ae99da4-e73a-446f-8dbc-c6d40e4fe51d","system_id":"levelo_inurba_marseille","lat":43.25872,"lon":5.39897,"is_reserved":false,"is_disabled":false,"rental_uris":{"android":"levelo://app?vid=9ae99da4-e73a-446f-8dbc-c6d40e4fe51d","ios":"levelo://app?vid=9ae99da4-e73a-446f-8dbc-c6d40e4fe51d"},"vehicle_type_id":"4","last_reported":1737472172,"current_range_meters":24800,"station_id":"ce4bhl92rcd13ifvqghg","pricing_plan_id":"cebpf4jnsgd1na2vs0mg"},{"bike_id":"9ca4de9a-cfca-4937-bf4d-f360d7c8f7f5","system_id":"levelo_inurba_marseille","lat":43.30531,"lon":5.36493,"is_reserved":false,"is_disabled":false,"rental_uris":{"android":"levelo://app?vid=9ca4de9a-cfca-4937-bf4d-f360d7c8f7f5","ios":"levelo://app?vid=9ca4de9a-cfca-4937-bf4d-f360d7c8f7f5"},"vehicle_type_id":"4","last_reported":1737472172,"current_range_meters":38000,"station_id":"ce4bgs12rcd13ifvqcag","pricing_plan_id":"cebpf4jnsgd1na2vs0mg"},{"bike_id":"b55cbed2-2a41-48c6-8d5c-ee78621f6d83","system_id":"levelo_inurba_marseille","lat":43.31348,"lon":5.367144,"is_reserved":false,"is_disabled":false,"rental_uris":{"android":"levelo://app?vid=b55cbed2-2a41-48c6-8d5c-ee78621f6d83","ios":"levelo://app?vid=b55cbed2-2a41-48c6-8d5c-ee78621f6d83"},"vehicle_type_id":"4","last_reported":1737472172,"current_range_meters":16000,"station_id":"ce4bgr92rcd13ifvqc6g","pricing_plan_id":"cebpf4jnsgd1na2vs0mg"},{"bike_id":"4891786e-abb0-40fb-8f67-e8889ab2c468","system_id":"levelo_inurba_marseille","lat":43.29766,"lon":5.39345,"is_reserved":false,"is_disabled":false,"rental_uris":{"android":"levelo://app?vid=4891786e-abb0-40fb-8f67-e8889ab2c468","ios":"levelo://app?vid=4891786e-abb0-40fb-8f67-e8889ab2c468"},"vehicle_type_id":"4","last_reported":1737472172,"current_range_meters":38800,"station_id":"chh1huq6cuj3fo74tm60","pricing_plan_id":"cebpf4jnsgd1na2vs0mg"},{"bike_id":"82b9fcb3-21e7-403c-b9c6-7c15b2e435d8","system_id":"levelo_inurba_marseille","lat":43.28151,"lon":5.42636,"is_reserved":false,"is_disabled":false,"rental_uris":{"android":"levelo://app?vid=82b9fcb3-21e7-403c-b9c6-7c15b2e435d8","ios":"levelo://app?vid=82b9fcb3-21e7-403c-b9c6-7c15b2e435d8"},"vehicle_type_id":"4","last_reported":1737472172,"current_range_meters":16400,"station_id":"ce4bhnh2rcd13ifvqgug","pricing_plan_id":"cebpf4jnsgd1na2vs0mg"},{"bike_id":"ca5ebe5c-d696-4d10-94b0-99fa9093db2a","system_id":"levelo_inurba_marseille","lat":43.32485,"lon":5.36568,"is_reserved":false,"is_disabled":false,"rental_uris":{"android":"levelo://app?vid=ca5ebe5c-d696-4d10-94b0-99fa9093db2a","ios":"levelo://app?vid=ca5ebe5c-d696-4d10-94b0-99fa9093db2a"},"vehicle_type_id":"4","last_reported":1737472172,"current_range_meters":25200,"station_id":"ce4bhs12rcd13ifvqhvg","pricing_plan_id":"cebpf4jnsgd1na2vs0mg"},{"bike_id":"62ab18f9-23d8-4f7a-b998-aea5c43ac15a","system_id":"levelo_inurba_marseille","lat":43.29688,"lon":5.37307,"is_reserved":false,"is_disabled":false,"rental_uris":{"android":"levelo://app?vid=62ab18f9-23d8-4f7a-b998-aea5c43ac15a","ios":"levelo://app?vid=62ab18f9-23d8-4f7a-b998-aea5c43ac15a"},"vehicle_type_id":"4","last_reported":1737472172,"current_range_meters":38800,"station_id":"ce4bgk12rcd13ifvqbj0","pricing_plan_id":"cebpf4jnsgd1na2vs0mg"},{"bike_id":"b86a3e1d-3f83-41ea-bb2d-340a69ea0c88","system_id":"levelo_inurba_marseille","lat":43.31674,"lon":5.37755,"is_reserved":false,"is_disabled":false,"rental_uris":{"android":"levelo://app?vid=b86a3e1d-3f83-41ea-bb2d-340a69ea0c88","ios":"levelo://app?vid=b86a3e1d-3f83-41ea-bb2d-340a69ea0c88"},"vehicle_type_id":"4","last_reported":1737472172,"current_range_meters":27600,"station_id":"ce4bgth2rcd13ifvqch0","pricing_plan_id":"cebpf4jnsgd1na2vs0mg"},{"bike_id":"519b51a8-90c4-44c3-9c8b-ad9a743bab37","system_id":"levelo_inurba_marseille","lat":43.30554,"lon":5.38426,"is_reserved":false,"is_disabled":false,"rental_uris":{"android":"levelo://app?vid=519b51a8-90c4-44c3-9c8b-ad9a743bab37","ios":"levelo://app?vid=519b51a8-90c4-44c3-9c8b-ad9a743bab37"},"vehicle_type_id":"4","last_reported":1737472172,"current_range_meters":38400,"station_id":"ce4bgg92rcd13ifvqb30","pricing_plan_id":"cebpf4jnsgd1na2vs0mg"},{"bike_id":"c0415c0f-9e4f-40eb-9000-09f37e152b18","system_id":"levelo_inurba_marseille","lat":43.27499,"lon":5.42456,"is_reserved":false,"is_disabled":false,"rental_uris":{"android":"levelo://app?vid=c0415c0f-9e4f-40eb-9000-09f37e152b18","ios":"levelo://app?vid=c0415c0f-9e4f-40eb-9000-09f37e152b18"},"vehicle_type_id":"4","last_reported":1737472172,"current_range_meters":12800,"station_id":"ce4bhn92rcd13ifvqgrg","pricing_plan_id":"cebpf4jnsgd1na2vs0mg"},{"bike_id":"dcefc1e0-68be-4f7d-a1d1-a6ad3d74f066","system_id":"levelo_inurba_marseille","lat":43.28409,"lon":5.37519,"is_reserved":false,"is_disabled":false,"rental_uris":{"android":"levelo://app?vid=dcefc1e0-68be-4f7d-a1d1-a6ad3d74f066","ios":"levelo://app?vid=dcefc1e0-68be-4f7d-a1d1-a6ad3d74f066"},"vehicle_type_id":"4","last_reported":1737472172,"current_range_meters":10000,"station_id":"ce4bh412rcd13ifvqds0","pricing_plan_id":"cebpf4jnsgd1na2vs0mg"},{"bike_id":"078f0fe4-9e0f-4992-9113-276db2eccc8b","system_id":"levelo_inurba_marseille","lat":43.30533,"lon":5.38434,"is_reserved":false,"is_disabled":false,"rental_uris":{"android":"levelo://app?vid=078f0fe4-9e0f-4992-9113-276db2eccc8b","ios":"levelo://app?vid=078f0fe4-9e0f-4992-9113-276db2eccc8b"},"vehicle_type_id":"4","last_reported":1737472172,"current_range_meters":16000,"station_id":"ce4bgg92rcd13ifvqb30","pricing_plan_id":"cebpf4jnsgd1na2vs0mg"},{"bike_id":"3251b621-179f-437f-84f8-9d5f1f665e8e","system_id":"levelo_inurba_marseille","lat":43.28418,"lon":5.375,"is_reserved":false,"is_disabled":false,"rental_uris":{"android":"levelo://app?vid=3251b621-179f-437f-84f8-9d5f1f665e8e","ios":"levelo://app?vid=3251b621-179f-437f-84f8-9d5f1f665e8e"},"vehicle_type_id":"4","last_reported":1737472172,"current_range_meters":8000,"station_id":"ce4bh412rcd13ifvqds0","pricing_plan_id":"cebpf4jnsgd1na2vs0mg"},{"bike_id":"49e863e7-823e-4e9b-9150-30a232f530d5","system_id":"levelo_inurba_marseille","lat":43.28454,"lon":5.35882,"is_reserved":false,"is_disabled":false,"rental_uris":{"android":"levelo://app?vid=49e863e7-823e-4e9b-9150-30a232f530d5","ios":"levelo://app?vid=49e863e7-823e-4e9b-9150-30a232f530d5"},"vehicle_type_id":"4","last_reported":1737472172,"current_range_meters":28000,"station_id":"ce4bhah2rcd13ifvqei0","pricing_plan_id":"cebpf4jnsgd1na2vs0mg"},{"bike_id":"8e37d5a1-5a26-42a5-8fbe-c99733a808dd","system_id":"levelo_inurba_marseille","lat":43.260689,"lon":5.394104,"is_reserved":false,"is_disabled":false,"rental_uris":{"android":"levelo://app?vid=8e37d5a1-5a26-42a5-8fbe-c99733a808dd","ios":"levelo://app?vid=8e37d5a1-5a26-42a5-8fbe-c99733a808dd"},"vehicle_type_id":"4","last_reported":1737472172,"current_range_meters":39200,"station_id":"ce4bhh92rcd13ifvqfj0","pricing_plan_id":"cebpf4jnsgd1na2vs0mg"},{"bike_id":"157552c9-6a1a-4001-a811-25e56169e699","system_id":"levelo_inurba_marseille","lat":43.290078,"lon":5.378496,"is_reserved":false,"is_disabled":false,"rental_uris":{"android":"levelo://app?vid=157552c9-6a1a-4001-a811-25e56169e699","ios":"levelo://app?vid=157552c9-6a1a-4001-a811-25e56169e699"},"vehicle_type_id":"4","last_reported":1737472172,"current_range_meters":38800,"station_id":"ce4bh692rcd13ifvqe90","pricing_plan_id":"cebpf4jnsgd1na2vs0mg"},{"bike_id":"22c3b3f3-6835-405e-9c28-a86f29f70685","system_id":"levelo_inurba_marseille","lat":43.25022,"lon":5.38934,"is_reserved":false,"is_disabled":false,"rental_uris":{"android":"levelo://app?vid=22c3b3f3-6835-405e-9c28-a86f29f70685","ios":"levelo://app?vid=22c3b3f3-6835-405e-9c28-a86f29f70685"},"vehicle_type_id":"4","last_reported":1737472172,"current_range_meters":21600,"station_id":"ce4bhgp2rcd13ifvqfd0","pricing_plan_id":"cebpf4jnsgd1na2vs0mg"},{"bike_id":"64dd059b-ecf7-48ee-8d07-a03165f684e7","system_id":"levelo_inurba_marseille","lat":43.29908,"lon":5.37471,"is_reserved":false,"is_disabled":false,"rental_uris":{"android":"levelo://app?vid=64dd059b-ecf7-48ee-8d07-a03165f684e7","ios":"levelo://app?vid=64dd059b-ecf7-48ee-8d07-a03165f684e7"},"vehicle_type_id":"4","last_reported":1737472172,"current_range_meters":39200,"station_id":"ce4bgjh2rcd13ifvqbg0","pricing_plan_id":"cebpf4jnsgd1na2vs0mg"},{"bike_id":"f1920900-c4c8-48e9-a4af-11bd5be8fb9b","system_id":"levelo_inurba_marseille","lat":43.30142,"lon":5.39875,"is_reserved":false,"is_disabled":false,"rental_uris":{"android":"levelo://app?vid=f1920900-c4c8-48e9-a4af-11bd5be8fb9b","ios":"levelo://app?vid=f1920900-c4c8-48e9-a4af-11bd5be8fb9b"},"vehicle_type_id":"4","last_reported":1737472172,"current_range_meters":38800,"station_id":"ce4bh0h2rcd13ifvqd40","pricing_plan_id":"cebpf4jnsgd1na2vs0mg"},{"bike_id":"6ad9a4dd-2703-4326-97af-ee3e8a521307","system_id":"levelo_inurba_marseille","lat":43.2972,"lon":5.37691,"is_reserved":false,"is_disabled":false,"rental_uris":{"android":"levelo://app?vid=6ad9a4dd-2703-4326-97af-ee3e8a521307","ios":"levelo://app?vid=6ad9a4dd-2703-4326-97af-ee3e8a521307"},"vehicle_type_id":"4","last_reported":1737472172,"current_range_meters":14400,"station_id":"ce4bgkh2rcd13ifvqbl0","pricing_plan_id":"cebpf4jnsgd1na2vs0mg"},{"bike_id":"9504b7e0-2f20-49ea-814e-e380f0d8ec79","system_id":"levelo_inurba_marseille","lat":43.32104,"lon":5.36766,"is_reserved":false,"is_disabled":false,"rental_uris":{"android":"levelo://app?vid=9504b7e0-2f20-49ea-814e-e380f0d8ec79","ios":"levelo://app?vid=9504b7e0-2f20-49ea-814e-e380f0d8ec79"},"vehicle_type_id":"4","last_reported":1737472172,"current_range_meters":38000,"station_id":"ce4bhrh2rcd13ifvqhug","pricing_plan_id":"cebpf4jnsgd1na2vs0mg"},{"bike_id":"e4e78618-f71d-4856-a681-297ea78e4d80","system_id":"levelo_inurba_marseille","lat":43.28459,"lon":5.38436,"is_reserved":false,"is_disabled":false,"rental_uris":{"android":"levelo://app?vid=e4e78618-f71d-4856-a681-297ea78e4d80","ios":"levelo://app?vid=e4e78618-f71d-4856-a681-297ea78e4d80"},"vehicle_type_id":"4","last_reported":1737472172,"current_range_meters":39200,"station_id":"ce4bh512rcd13ifvqe3g","pricing_plan_id":"cebpf4jnsgd1na2vs0mg"},{"bike_id":"2e391245-990a-489f-b7cc-387a1c7f1479","system_id":"levelo_inurba_marseille","lat":43.305286,"lon":5.367298,"is_reserved":false,"is_disabled":false,"rental_uris":{"android":"levelo://app?vid=2e391245-990a-489f-b7cc-387a1c7f1479","ios":"levelo://app?vid=2e391245-990a-489f-b7cc-387a1c7f1479"},"vehicle_type_id":"4","last_reported":1737472172,"current_range_meters":25600,"station_id":"ce4bgrp2rcd13ifvqc9g","pricing_plan_id":"cebpf4jnsgd1na2vs0mg"},{"bike_id":"732f6a5f-7f4f-46d6-a1d7-0e5df1ebf234","system_id":"levelo_inurba_marseille","lat":43.27072,"lon":5.42277,"is_reserved":false,"is_disabled":false,"rental_uris":{"android":"levelo://app?vid=732f6a5f-7f4f-46d6-a1d7-0e5df1ebf234","ios":"levelo://app?vid=732f6a5f-7f4f-46d6-a1d7-0e5df1ebf234"},"vehicle_type_id":"4","last_reported":1737472172,"current_range_meters":16800,"station_id":"ce4bhk92rcd13ifvqgb0","pricing_plan_id":"cebpf4jnsgd1na2vs0mg"},{"bike_id":"051f5f1b-4f3d-4f53-8826-80dcbb42e4ac","system_id":"levelo_inurba_marseille","lat":43.29801,"lon":5.40408,"is_reserved":false,"is_disabled":false,"rental_uris":{"android":"levelo://app?vid=051f5f1b-4f3d-4f53-8826-80dcbb42e4ac","ios":"levelo://app?vid=051f5f1b-4f3d-4f53-8826-80dcbb42e4ac"},"vehicle_type_id":"4","last_reported":1737472172,"current_range_meters":28800,"station_id":"ce4bh112rcd13ifvqd90","pricing_plan_id":"cebpf4jnsgd1na2vs0mg"},{"bike_id":"6afeeefa-11c0-4f74-82c2-cb592a43a0b2","system_id":"levelo_inurba_marseille","lat":43.2816,"lon":5.4264,"is_reserved":false,"is_disabled":false,"rental_uris":{"android":"levelo://app?vid=6afeeefa-11c0-4f74-82c2-cb592a43a0b2","ios":"levelo://app?vid=6afeeefa-11c0-4f74-82c2-cb592a43a0b2"},"vehicle_type_id":"4","last_reported":1737472172,"current_range_meters":30000,"station_id":"ce4bhnh2rcd13ifvqgug","pricing_plan_id":"cebpf4jnsgd1na2vs0mg"},{"bike_id":"55e9e33f-65d7-4114-a3b6-94916cdab4b2","system_id":"levelo_inurba_marseille","lat":43.26495,"lon":5.39547,"is_reserved":false,"is_disabled":false,"rental_uris":{"android":"levelo://app?vid=55e9e33f-65d7-4114-a3b6-94916cdab4b2","ios":"levelo://app?vid=55e9e33f-65d7-4114-a3b6-94916cdab4b2"},"vehicle_type_id":"4","last_reported":1737472172,"current_range_meters":38800,"station_id":"ce4bhi12rcd13ifvqfq0","pricing_plan_id":"cebpf4jnsgd1na2vs0mg"},{"bike_id":"66b33c33-d68f-49e5-8604-188220eb2f0c","system_id":"levelo_inurba_marseille","lat":43.26561,"lon":5.39018,"is_reserved":false,"is_disabled":false,"rental_uris":{"android":"levelo://app?vid=66b33c33-d68f-49e5-8604-188220eb2f0c","ios":"levelo://app?vid=66b33c33-d68f-49e5-8604-188220eb2f0c"},"vehicle_type_id":"4","last_reported":1737472172,"current_range_meters":29600,"station_id":"ce4bhe12rcd13ifvqf30","pricing_plan_id":"cebpf4jnsgd1na2vs0mg"},{"bike_id":"6e32a172-90e4-4d86-8f8a-689baae2f4e9","system_id":"levelo_inurba_marseille","lat":43.24412,"lon":5.37063,"is_reserved":false,"is_disabled":false,"rental_uris":{"android":"levelo://app?vid=6e32a172-90e4-4d86-8f8a-689baae2f4e9","ios":"levelo://app?vid=6e32a172-90e4-4d86-8f8a-689baae2f4e9"},"vehicle_type_id":"4","last_reported":1737472172,"current_range_meters":39200,"station_id":"ce4bhhh2rcd13ifvqfk0","pricing_plan_id":"cebpf4jnsgd1na2vs0mg"},{"bike_id":"3cde4fa6-ed07-40d0-8d9b-e88ff9f7ea23","system_id":"levelo_inurba_marseille","lat":43.257568,"lon":5.409407,"is_reserved":false,"is_disabled":false,"rental_uris":{"android":"levelo://app?vid=3cde4fa6-ed07-40d0-8d9b-e88ff9f7ea23","ios":"levelo://app?vid=3cde4fa6-ed07-40d0-8d9b-e88ff9f7ea23"},"vehicle_type_id":"4","last_reported":1737472172,"current_range_meters":16400,"station_id":"ce4bhkp2rcd13ifvqgd0","pricing_plan_id":"cebpf4jnsgd1na2vs0mg"},{"bike_id":"f3d58c03-7b96-460c-a649-e2c1c29ee9c8","system_id":"levelo_inurba_marseille","lat":43.286341,"lon":5.351179,"is_reserved":false,"is_disabled":false,"rental_uris":{"android":"levelo://app?vid=f3d58c03-7b96-460c-a649-e2c1c29ee9c8","ios":"levelo://app?vid=f3d58c03-7b96-460c-a649-e2c1c29ee9c8"},"vehicle_type_id":"4","last_reported":1737472172,"current_range_meters":18800,"station_id":"ce4bhch2rcd13ifvqeug","pricing_plan_id":"cebpf4jnsgd1na2vs0mg"},{"bike_id":"14bf62af-c950-435b-82dd-0bca67231add","system_id":"levelo_inurba_marseille","lat":43.25722,"lon":5.41119,"is_reserved":false,"is_disabled":false,"rental_uris":{"android":"levelo://app?vid=14bf62af-c950-435b-82dd-0bca67231add","ios":"levelo://app?vid=14bf62af-c950-435b-82dd-0bca67231add"},"vehicle_type_id":"4","last_reported":1737472172,"current_range_meters":38800,"station_id":"ce4bhkp2rcd13ifvqgd0","pricing_plan_id":"cebpf4jnsgd1na2vs0mg"},{"bike_id":"ecbbe448-5144-42a2-a8b0-4133715261c1","system_id":"levelo_inurba_marseille","lat":43.27819,"lon":5.40697,"is_reserved":false,"is_disabled":false,"rental_uris":{"android":"levelo://app?vid=ecbbe448-5144-42a2-a8b0-4133715261c1","ios":"levelo://app?vid=ecbbe448-5144-42a2-a8b0-4133715261c1"},"vehicle_type_id":"4","last_reported":1737472172,"current_range_meters":28800,"station_id":"ce4bhnh2rcd13ifvqgtg","pricing_plan_id":"cebpf4jnsgd1na2vs0mg"},{"bike_id":"bb2aa27c-d314-433f-a134-98756fdc47bc","system_id":"levelo_inurba_marseille","lat":43.31355,"lon":5.36714,"is_reserved":false,"is_disabled":false,"rental_uris":{"android":"levelo://app?vid=bb2aa27c-d314-433f-a134-98756fdc47bc","ios":"levelo://app?vid=bb2aa27c-d314-433f-a134-98756fdc47bc"},"vehicle_type_id":"4","last_reported":1737472172,"current_range_meters":39200,"station_id":"ce4bgr92rcd13ifvqc6g","pricing_plan_id":"cebpf4jnsgd1na2vs0mg"},{"bike_id":"dd430912-fe51-42a1-bb2b-54feb4f645f9","system_id":"levelo_inurba_marseille","lat":43.28451,"lon":5.39207,"is_reserved":false,"is_disabled":false,"rental_uris":{"android":"levelo://app?vid=dd430912-fe51-42a1-bb2b-54feb4f645f9","ios":"levelo://app?vid=dd430912-fe51-42a1-bb2b-54feb4f645f9"},"vehicle_type_id":"4","last_reported":1737472172,"current_range_meters":8800,"station_id":"ce4bhoh2rcd13ifvqh5g","pricing_plan_id":"cebpf4jnsgd1na2vs0mg"},{"bike_id":"87605047-ceb4-4b39-a737-645a88af3d67","system_id":"levelo_inurba_marseille","lat":43.30324,"lon":5.4043,"is_reserved":false,"is_disabled":false,"rental_uris":{"android":"levelo://app?vid=87605047-ceb4-4b39-a737-645a88af3d67","ios":"levelo://app?vid=87605047-ceb4-4b39-a737-645a88af3d67"},"vehicle_type_id":"4","last_reported":1737472172,"current_range_meters":30800,"station_id":"ce4bh012rcd13ifvqd10","pricing_plan_id":"cebpf4jnsgd1na2vs0mg"},{"bike_id":"1a3b29b3-17e8-4775-8d86-74e3b8c314ae","system_id":"levelo_inurba_marseille","lat":43.30515,"lon":5.36688,"is_reserved":false,"is_disabled":false,"rental_uris":{"android":"levelo://app?vid=1a3b29b3-17e8-4775-8d86-74e3b8c314ae","ios":"levelo://app?vid=1a3b29b3-17e8-4775-8d86-74e3b8c314ae"},"vehicle_type_id":"4","last_reported":1737472172,"current_range_meters":38800,"station_id":"ce4bgrp2rcd13ifvqc9g","pricing_plan_id":"cebpf4jnsgd1na2vs0mg"},{"bike_id":"ce348ecb-e6da-4256-ae38-a3cca0ccf065","system_id":"levelo_inurba_marseille","lat":43.30541,"lon":5.36689,"is_reserved":false,"is_disabled":false,"rental_uris":{"android":"levelo://app?vid=ce348ecb-e6da-4256-ae38-a3cca0ccf065","ios":"levelo://app?vid=ce348ecb-e6da-4256-ae38-a3cca0ccf065"},"vehicle_type_id":"4","last_reported":1737472172,"current_range_meters":38800,"station_id":"ce4bgrp2rcd13ifvqc9g","pricing_plan_id":"cebpf4jnsgd1na2vs0mg"},{"bike_id":"da83ea58-a4df-4ac8-a838-7a5d78af0593","system_id":"levelo_inurba_marseille","lat":43.29621,"lon":5.37724,"is_reserved":false,"is_disabled":false,"rental_uris":{"android":"levelo://app?vid=da83ea58-a4df-4ac8-a838-7a5d78af0593","ios":"levelo://app?vid=da83ea58-a4df-4ac8-a838-7a5d78af0593"},"vehicle_type_id":"4","last_reported":1737472172,"current_range_meters":39200,"station_id":"ce4bgi92rcd13ifvqb90","pricing_plan_id":"cebpf4jnsgd1na2vs0mg"},{"bike_id":"f782bc49-f5ec-4f94-9d1b-2866506d78a2","system_id":"levelo_inurba_marseille","lat":43.28862,"lon":5.39314,"is_reserved":false,"is_disabled":false,"rental_uris":{"android":"levelo://app?vid=f782bc49-f5ec-4f94-9d1b-2866506d78a2","ios":"levelo://app?vid=f782bc49-f5ec-4f94-9d1b-2866506d78a2"},"vehicle_type_id":"4","last_reported":1737472172,"current_range_meters":20800,"station_id":"ce4bh2p2rcd13ifvqdi0","pricing_plan_id":"cebpf4jnsgd1na2vs0mg"},{"bike_id":"bb2d79d6-e11e-4c8e-892c-2fd98332b100","system_id":"levelo_inurba_marseille","lat":43.27497,"lon":5.42455,"is_reserved":false,"is_disabled":false,"rental_uris":{"android":"levelo://app?vid=bb2d79d6-e11e-4c8e-892c-2fd98332b100","ios":"levelo://app?vid=bb2d79d6-e11e-4c8e-892c-2fd98332b100"},"vehicle_type_id":"4","last_reported":1737472172,"current_range_meters":22400,"station_id":"ce4bhn92rcd13ifvqgrg","pricing_plan_id":"cebpf4jnsgd1na2vs0mg"},{"bike_id":"84a7d486-83f1-44a8-8bae-fd056d6abbcd","system_id":"levelo_inurba_marseille","lat":43.31278,"lon":5.40147,"is_reserved":false,"is_disabled":false,"rental_uris":{"android":"levelo://app?vid=84a7d486-83f1-44a8-8bae-fd056d6abbcd","ios":"levelo://app?vid=84a7d486-83f1-44a8-8bae-fd056d6abbcd"},"vehicle_type_id":"4","last_reported":1737472172,"current_range_meters":26800,"station_id":"ce4bh092rcd13ifvqd30","pricing_plan_id":"cebpf4jnsgd1na2vs0mg"},{"bike_id":"40e5a64d-65b5-4754-b8f6-3564af0d8c58","system_id":"levelo_inurba_marseille","lat":43.23158,"lon":5.4372,"is_reserved":false,"is_disabled":false,"rental_uris":{"android":"levelo://app?vid=40e5a64d-65b5-4754-b8f6-3564af0d8c58","ios":"levelo://app?vid=40e5a64d-65b5-4754-b8f6-3564af0d8c58"},"vehicle_type_id":"4","last_reported":1737472172,"current_range_meters":5600,"station_id":"ce4bhmp2rcd13ifvqgog","pricing_plan_id":"cebpf4jnsgd1na2vs0mg"},{"bike_id":"c5c2e985-fc8b-426c-92bf-d16e0a9c2d8a","system_id":"levelo_inurba_marseille","lat":43.29304,"lon":5.37457,"is_reserved":false,"is_disabled":false,"rental_uris":{"android":"levelo://app?vid=c5c2e985-fc8b-426c-92bf-d16e0a9c2d8a","ios":"levelo://app?vid=c5c2e985-fc8b-426c-92bf-d16e0a9c2d8a"},"vehicle_type_id":"4","last_reported":1737472172,"current_range_meters":9600,"station_id":"ce4bgi12rcd13ifvqb70","pricing_plan_id":"cebpf4jnsgd1na2vs0mg"},{"bike_id":"301ad218-79fc-4f77-96f2-3aac2d1a8ccf","system_id":"levelo_inurba_marseille","lat":43.25927,"lon":5.39426,"is_reserved":false,"is_disabled":true,"rental_uris":{"android":"levelo://app?vid=301ad218-79fc-4f77-96f2-3aac2d1a8ccf","ios":"levelo://app?vid=301ad218-79fc-4f77-96f2-3aac2d1a8ccf"},"vehicle_type_id":"4","last_reported":1737472172,"current_range_meters":6800,"station_id":"","pricing_plan_id":"cebpf4jnsgd1na2vs0mg"},{"bike_id":"6d0a9de3-3e4e-4646-84ff-17f6bb1fb70d","system_id":"levelo_inurba_marseille","lat":43.2648,"lon":5.39545,"is_reserved":false,"is_disabled":false,"rental_uris":{"android":"levelo://app?vid=6d0a9de3-3e4e-4646-84ff-17f6bb1fb70d","ios":"levelo://app?vid=6d0a9de3-3e4e-4646-84ff-17f6bb1fb70d"},"vehicle_type_id":"4","last_reported":1737472172,"current_range_meters":36800,"station_id":"ce4bhi12rcd13ifvqfq0","pricing_plan_id":"cebpf4jnsgd1na2vs0mg"},{"bike_id":"23379a95-72b4-449c-abbd-5871cdaaa4bd","system_id":"levelo_inurba_marseille","lat":43.30531,"lon":5.36688,"is_reserved":false,"is_disabled":false,"rental_uris":{"android":"levelo://app?vid=23379a95-72b4-449c-abbd-5871cdaaa4bd","ios":"levelo://app?vid=23379a95-72b4-449c-abbd-5871cdaaa4bd"},"vehicle_type_id":"4","last_reported":1737472172,"current_range_meters":36800,"station_id":"ce4bgrp2rcd13ifvqc9g","pricing_plan_id":"cebpf4jnsgd1na2vs0mg"},{"bike_id":"73271825-f317-42ef-98ec-53e0d2a4165e","system_id":"levelo_inurba_marseille","lat":43.27049,"lon":5.4026,"is_reserved":false,"is_disabled":false,"rental_uris":{"android":"levelo://app?vid=73271825-f317-42ef-98ec-53e0d2a4165e","ios":"levelo://app?vid=73271825-f317-42ef-98ec-53e0d2a4165e"},"vehicle_type_id":"4","last_reported":1737472172,"current_range_meters":38800,"station_id":"ce4bhk92rcd13ifvqgc0","pricing_plan_id":"cebpf4jnsgd1na2vs0mg"},{"bike_id":"009e4e21-eaff-4df3-a6cd-96d6c5c81fda","system_id":"levelo_inurba_marseille","lat":43.30562,"lon":5.36538,"is_reserved":false,"is_disabled":false,"rental_uris":{"android":"levelo://app?vid=009e4e21-eaff-4df3-a6cd-96d6c5c81fda","ios":"levelo://app?vid=009e4e21-eaff-4df3-a6cd-96d6c5c81fda"},"vehicle_type_id":"4","last_reported":1737472172,"current_range_meters":23200,"station_id":"ce4bgs12rcd13ifvqcag","pricing_plan_id":"cebpf4jnsgd1na2vs0mg"},{"bike_id":"a478c8e4-70f7-4330-80af-a80f08fe66b3","system_id":"levelo_inurba_marseille","lat":43.25727,"lon":5.41108,"is_reserved":false,"is_disabled":false,"rental_uris":{"android":"levelo://app?vid=a478c8e4-70f7-4330-80af-a80f08fe66b3","ios":"levelo://app?vid=a478c8e4-70f7-4330-80af-a80f08fe66b3"},"vehicle_type_id":"4","last_reported":1737472172,"current_range_meters":24400,"station_id":"ce4bhkp2rcd13ifvqgd0","pricing_plan_id":"cebpf4jnsgd1na2vs0mg"},{"bike_id":"9ea35a92-1564-493c-991c-f92a347b776b","system_id":"levelo_inurba_marseille","lat":43.305518,"lon":5.365364,"is_reserved":false,"is_disabled":false,"rental_uris":{"android":"levelo://app?vid=9ea35a92-1564-493c-991c-f92a347b776b","ios":"levelo://app?vid=9ea35a92-1564-493c-991c-f92a347b776b"},"vehicle_type_id":"4","last_reported":1737472172,"current_range_meters":24800,"station_id":"ce4bgs12rcd13ifvqcag","pricing_plan_id":"cebpf4jnsgd1na2vs0mg"},{"bike_id":"e70ef129-9269-4977-88ab-de087f1ca58a","system_id":"levelo_inurba_marseille","lat":43.28457,"lon":5.35902,"is_reserved":false,"is_disabled":false,"rental_uris":{"android":"levelo://app?vid=e70ef129-9269-4977-88ab-de087f1ca58a","ios":"levelo://app?vid=e70ef129-9269-4977-88ab-de087f1ca58a"},"vehicle_type_id":"4","last_reported":1737472172,"current_range_meters":9600,"station_id":"ce4bhah2rcd13ifvqei0","pricing_plan_id":"cebpf4jnsgd1na2vs0mg"},{"bike_id":"308cc682-94fd-427f-a7f4-c7ad2e8f89c9","system_id":"levelo_inurba_marseille","lat":43.28466,"lon":5.35891,"is_reserved":false,"is_disabled":false,"rental_uris":{"android":"levelo://app?vid=308cc682-94fd-427f-a7f4-c7ad2e8f89c9","ios":"levelo://app?vid=308cc682-94fd-427f-a7f4-c7ad2e8f89c9"},"vehicle_type_id":"4","last_reported":1737472172,"current_range_meters":30400,"station_id":"ce4bhah2rcd13ifvqei0","pricing_plan_id":"cebpf4jnsgd1na2vs0mg"},{"bike_id":"b834a014-a9be-4559-bbaa-15aa5f1cbaa1","system_id":"levelo_inurba_marseille","lat":43.23195,"lon":5.35553,"is_reserved":false,"is_disabled":false,"rental_uris":{"android":"levelo://app?vid=b834a014-a9be-4559-bbaa-15aa5f1cbaa1","ios":"levelo://app?vid=b834a014-a9be-4559-bbaa-15aa5f1cbaa1"},"vehicle_type_id":"4","last_reported":1737472172,"current_range_meters":37600,"station_id":"ce4bhu92rcd13ifvqi70","pricing_plan_id":"cebpf4jnsgd1na2vs0mg"},{"bike_id":"713c2070-5fbc-40f7-a36f-126465d4c68d","system_id":"levelo_inurba_marseille","lat":43.29777,"lon":5.37112,"is_reserved":false,"is_disabled":false,"rental_uris":{"android":"levelo://app?vid=713c2070-5fbc-40f7-a36f-126465d4c68d","ios":"levelo://app?vid=713c2070-5fbc-40f7-a36f-126465d4c68d"},"vehicle_type_id":"4","last_reported":1737472172,"current_range_meters":3600,"station_id":"ce4bgop2rcd13ifvqc1g","pricing_plan_id":"cebpf4jnsgd1na2vs0mg"},{"bike_id":"3b81d3bf-6de7-44c0-8900-9d32cf2c37e4","system_id":"levelo_inurba_marseille","lat":43.30138,"lon":5.39882,"is_reserved":false,"is_disabled":true,"rental_uris":{"android":"levelo://app?vid=3b81d3bf-6de7-44c0-8900-9d32cf2c37e4","ios":"levelo://app?vid=3b81d3bf-6de7-44c0-8900-9d32cf2c37e4"},"vehicle_type_id":"4","last_reported":1737472172,"current_range_meters":400,"station_id":"ce4bh0h2rcd13ifvqd40","pricing_plan_id":"cebpf4jnsgd1na2vs0mg"},{"bike_id":"10d27098-69e9-48b1-9d26-115b0af1cc68","system_id":"levelo_inurba_marseille","lat":43.3054,"lon":5.36533,"is_reserved":false,"is_disabled":false,"rental_uris":{"android":"levelo://app?vid=10d27098-69e9-48b1-9d26-115b0af1cc68","ios":"levelo://app?vid=10d27098-69e9-48b1-9d26-115b0af1cc68"},"vehicle_type_id":"4","last_reported":1737472172,"current_range_meters":31200,"station_id":"ce4bgs12rcd13ifvqcag","pricing_plan_id":"cebpf4jnsgd1na2vs0mg"},{"bike_id":"0328f7ed-1f9d-4bf4-a61b-d78fae39d26e","system_id":"levelo_inurba_marseille","lat":43.29099,"lon":5.38123,"is_reserved":false,"is_disabled":false,"rental_uris":{"android":"levelo://app?vid=0328f7ed-1f9d-4bf4-a61b-d78fae39d26e","ios":"levelo://app?vid=0328f7ed-1f9d-4bf4-a61b-d78fae39d26e"},"vehicle_type_id":"4","last_reported":1737472172,"current_range_meters":5600,"station_id":"ce4bh512rcd13ifvqe2g","pricing_plan_id":"cebpf4jnsgd1na2vs0mg"},{"bike_id":"b4c43f48-1a45-41e8-8f82-49322d3a8bdb","system_id":"levelo_inurba_marseille","lat":43.31496,"lon":5.37307,"is_reserved":false,"is_disabled":false,"rental_uris":{"android":"levelo://app?vid=b4c43f48-1a45-41e8-8f82-49322d3a8bdb","ios":"levelo://app?vid=b4c43f48-1a45-41e8-8f82-49322d3a8bdb"},"vehicle_type_id":"4","last_reported":1737472172,"current_range_meters":30800,"station_id":"ce4bgt12rcd13ifvqcd0","pricing_plan_id":"cebpf4jnsgd1na2vs0mg"},{"bike_id":"72566f29-6f10-4a7a-b876-5ef51a8add7e","system_id":"levelo_inurba_marseille","lat":43.26804,"lon":5.40268,"is_reserved":false,"is_disabled":false,"rental_uris":{"android":"levelo://app?vid=72566f29-6f10-4a7a-b876-5ef51a8add7e","ios":"levelo://app?vid=72566f29-6f10-4a7a-b876-5ef51a8add7e"},"vehicle_type_id":"4","last_reported":1737472172,"current_range_meters":30800,"station_id":"ce501612rcd8frsf0b60","pricing_plan_id":"cebpf4jnsgd1na2vs0mg"},{"bike_id":"0fdc2558-c265-4c0f-b88d-b053909c0353","system_id":"levelo_inurba_marseille","lat":43.24647,"lon":5.38885,"is_reserved":false,"is_disabled":false,"rental_uris":{"android":"levelo://app?vid=0fdc2558-c265-4c0f-b88d-b053909c0353","ios":"levelo://app?vid=0fdc2558-c265-4c0f-b88d-b053909c0353"},"vehicle_type_id":"4","last_reported":1737472172,"current_range_meters":38000,"station_id":"ce4bhg12rcd13ifvqf60","pricing_plan_id":"cebpf4jnsgd1na2vs0mg"},{"bike_id":"3965fbee-4ca6-470c-8db4-3c059617bf7d","system_id":"levelo_inurba_marseille","lat":43.29803,"lon":5.3809,"is_reserved":false,"is_disabled":false,"rental_uris":{"android":"levelo://app?vid=3965fbee-4ca6-470c-8db4-3c059617bf7d","ios":"levelo://app?vid=3965fbee-4ca6-470c-8db4-3c059617bf7d"},"vehicle_type_id":"4","last_reported":1737472172,"current_range_meters":14400,"station_id":"ce4bgip2rcd13ifvqbb0","pricing_plan_id":"cebpf4jnsgd1na2vs0mg"},{"bike_id":"66ce096e-2d59-4d30-bb68-6329fea7fe13","system_id":"levelo_inurba_marseille","lat":43.32103,"lon":5.36779,"is_reserved":false,"is_disabled":false,"rental_uris":{"android":"levelo://app?vid=66ce096e-2d59-4d30-bb68-6329fea7fe13","ios":"levelo://app?vid=66ce096e-2d59-4d30-bb68-6329fea7fe13"},"vehicle_type_id":"4","last_reported":1737472172,"current_range_meters":27600,"station_id":"ce4bhrh2rcd13ifvqhug","pricing_plan_id":"cebpf4jnsgd1na2vs0mg"},{"bike_id":"7c940d32-6528-4328-b2bd-741d07ea00b1","system_id":"levelo_inurba_marseille","lat":43.28472,"lon":5.38418,"is_reserved":false,"is_disabled":false,"rental_uris":{"android":"levelo://app?vid=7c940d32-6528-4328-b2bd-741d07ea00b1","ios":"levelo://app?vid=7c940d32-6528-4328-b2bd-741d07ea00b1"},"vehicle_type_id":"4","last_reported":1737472172,"current_range_meters":29600,"station_id":"ce4bh512rcd13ifvqe3g","pricing_plan_id":"cebpf4jnsgd1na2vs0mg"},{"bike_id":"03db88d0-d795-4992-88ee-05e2cce5a137","system_id":"levelo_inurba_marseille","lat":43.2908,"lon":5.38106,"is_reserved":false,"is_disabled":false,"rental_uris":{"android":"levelo://app?vid=03db88d0-d795-4992-88ee-05e2cce5a137","ios":"levelo://app?vid=03db88d0-d795-4992-88ee-05e2cce5a137"},"vehicle_type_id":"4","last_reported":1737472172,"current_range_meters":38000,"station_id":"ce4bh512rcd13ifvqe2g","pricing_plan_id":"cebpf4jnsgd1na2vs0mg"},{"bike_id":"6c5bc4fb-7692-4139-a6b1-f6405304a300","system_id":"levelo_inurba_marseille","lat":43.27495,"lon":5.42455,"is_reserved":false,"is_disabled":false,"rental_uris":{"android":"levelo://app?vid=6c5bc4fb-7692-4139-a6b1-f6405304a300","ios":"levelo://app?vid=6c5bc4fb-7692-4139-a6b1-f6405304a300"},"vehicle_type_id":"4","last_reported":1737472172,"current_range_meters":23200,"station_id":"ce4bhn92rcd13ifvqgrg","pricing_plan_id":"cebpf4jnsgd1na2vs0mg"},{"bike_id":"e8a90894-bf94-4131-8e7e-635abd998083","system_id":"levelo_inurba_marseille","lat":43.31069,"lon":5.38345,"is_reserved":false,"is_disabled":false,"rental_uris":{"android":"levelo://app?vid=e8a90894-bf94-4131-8e7e-635abd998083","ios":"levelo://app?vid=e8a90894-bf94-4131-8e7e-635abd998083"},"vehicle_type_id":"4","last_reported":1737472172,"current_range_meters":30800,"station_id":"ce4bgv92rcd13ifvqcr0","pricing_plan_id":"cebpf4jnsgd1na2vs0mg"},{"bike_id":"1c6b35e6-44ca-46d6-80d3-cd1732c3c001","system_id":"levelo_inurba_marseille","lat":43.25868,"lon":5.39896,"is_reserved":false,"is_disabled":false,"rental_uris":{"android":"levelo://app?vid=1c6b35e6-44ca-46d6-80d3-cd1732c3c001","ios":"levelo://app?vid=1c6b35e6-44ca-46d6-80d3-cd1732c3c001"},"vehicle_type_id":"4","last_reported":1737472172,"current_range_meters":39200,"station_id":"ce4bhl92rcd13ifvqghg","pricing_plan_id":"cebpf4jnsgd1na2vs0mg"},{"bike_id":"c58a3e89-36cf-4bb0-a7c8-9e31a2ac39c5","system_id":"levelo_inurba_marseille","lat":43.27374,"lon":5.36252,"is_reserved":false,"is_disabled":false,"rental_uris":{"android":"levelo://app?vid=c58a3e89-36cf-4bb0-a7c8-9e31a2ac39c5","ios":"levelo://app?vid=c58a3e89-36cf-4bb0-a7c8-9e31a2ac39c5"},"vehicle_type_id":"4","last_reported":1737472172,"current_range_meters":26800,"station_id":"ce4bhbh2rcd13ifvqeo0","pricing_plan_id":"cebpf4jnsgd1na2vs0mg"},{"bike_id":"7c1b7fdd-7a56-4a25-a7cc-d8b1f6b3802b","system_id":"levelo_inurba_marseille","lat":43.26562,"lon":5.37293,"is_reserved":false,"is_disabled":false,"rental_uris":{"android":"levelo://app?vid=7c1b7fdd-7a56-4a25-a7cc-d8b1f6b3802b","ios":"levelo://app?vid=7c1b7fdd-7a56-4a25-a7cc-d8b1f6b3802b"},"vehicle_type_id":"4","last_reported":1737472172,"current_range_meters":10800,"station_id":"ce4bhg12rcd13ifvqf70","pricing_plan_id":"cebpf4jnsgd1na2vs0mg"},{"bike_id":"61ee1556-e7be-4885-a81b-297c8068313d","system_id":"levelo_inurba_marseille","lat":43.29062,"lon":5.37171,"is_reserved":false,"is_disabled":false,"rental_uris":{"android":"levelo://app?vid=61ee1556-e7be-4885-a81b-297c8068313d","ios":"levelo://app?vid=61ee1556-e7be-4885-a81b-297c8068313d"},"vehicle_type_id":"4","last_reported":1737472172,"current_range_meters":37600,"station_id":"ce4bh5p2rcd13ifvqe4g","pricing_plan_id":"cebpf4jnsgd1na2vs0mg"},{"bike_id":"a64d2809-91be-4c20-83b2-9f7439ed4c4c","system_id":"levelo_inurba_marseille","lat":43.2706,"lon":5.40254,"is_reserved":false,"is_disabled":false,"rental_uris":{"android":"levelo://app?vid=a64d2809-91be-4c20-83b2-9f7439ed4c4c","ios":"levelo://app?vid=a64d2809-91be-4c20-83b2-9f7439ed4c4c"},"vehicle_type_id":"4","last_reported":1737472172,"current_range_meters":16800,"station_id":"ce4bhk92rcd13ifvqgc0","pricing_plan_id":"cebpf4jnsgd1na2vs0mg"},{"bike_id":"f29197b7-892b-4656-99c5-484d8091a1b7","system_id":"levelo_inurba_marseille","lat":43.30531,"lon":5.36747,"is_reserved":false,"is_disabled":false,"rental_uris":{"android":"levelo://app?vid=f29197b7-892b-4656-99c5-484d8091a1b7","ios":"levelo://app?vid=f29197b7-892b-4656-99c5-484d8091a1b7"},"vehicle_type_id":"4","last_reported":1737472172,"current_range_meters":38800,"station_id":"ce4bgrp2rcd13ifvqc9g","pricing_plan_id":"cebpf4jnsgd1na2vs0mg"},{"bike_id":"c63545a7-0958-43b8-9a12-90a8d5922737","system_id":"levelo_inurba_marseille","lat":43.2418,"lon":5.39728,"is_reserved":false,"is_disabled":false,"rental_uris":{"android":"levelo://app?vid=c63545a7-0958-43b8-9a12-90a8d5922737","ios":"levelo://app?vid=c63545a7-0958-43b8-9a12-90a8d5922737"},"vehicle_type_id":"4","last_reported":1737472172,"current_range_meters":39200,"station_id":"ce4bhn12rcd13ifvqgpg","pricing_plan_id":"cebpf4jnsgd1na2vs0mg"},{"bike_id":"5434439c-80a7-45ef-8e7d-a897cb833684","system_id":"levelo_inurba_marseille","lat":43.32363,"lon":5.36757,"is_reserved":false,"is_disabled":false,"rental_uris":{"android":"levelo://app?vid=5434439c-80a7-45ef-8e7d-a897cb833684","ios":"levelo://app?vid=5434439c-80a7-45ef-8e7d-a897cb833684"},"vehicle_type_id":"4","last_reported":1737472172,"current_range_meters":38800,"station_id":"ce4bhsh2rcd13ifvqi2g","pricing_plan_id":"cebpf4jnsgd1na2vs0mg"},{"bike_id":"ef1fc9d5-d036-4f48-874b-f910389f6d84","system_id":"levelo_inurba_marseille","lat":43.29961,"lon":5.37177,"is_reserved":false,"is_disabled":false,"rental_uris":{"android":"levelo://app?vid=ef1fc9d5-d036-4f48-874b-f910389f6d84","ios":"levelo://app?vid=ef1fc9d5-d036-4f48-874b-f910389f6d84"},"vehicle_type_id":"4","last_reported":1737472172,"current_range_meters":14400,"station_id":"ce4bgr92rcd13ifvqc7g","pricing_plan_id":"cebpf4jnsgd1na2vs0mg"},{"bike_id":"35c8a44e-3d93-4de3-b85d-4f21a04feb82","system_id":"levelo_inurba_marseille","lat":43.32357,"lon":5.38884,"is_reserved":false,"is_disabled":false,"rental_uris":{"android":"levelo://app?vid=35c8a44e-3d93-4de3-b85d-4f21a04feb82","ios":"levelo://app?vid=35c8a44e-3d93-4de3-b85d-4f21a04feb82"},"vehicle_type_id":"4","last_reported":1737472172,"current_range_meters":30000,"station_id":"ce4bhqp2rcd13ifvqhog","pricing_plan_id":"cebpf4jnsgd1na2vs0mg"},{"bike_id":"3ec90941-52d4-443b-89ab-56ea5ad82d0b","system_id":"levelo_inurba_marseille","lat":43.300873,"lon":5.390625,"is_reserved":false,"is_disabled":false,"rental_uris":{"android":"levelo://app?vid=3ec90941-52d4-443b-89ab-56ea5ad82d0b","ios":"levelo://app?vid=3ec90941-52d4-443b-89ab-56ea5ad82d0b"},"vehicle_type_id":"4","last_reported":1737472172,"current_range_meters":23200,"station_id":"ce4bh192rcd13ifvqdb0","pricing_plan_id":"cebpf4jnsgd1na2vs0mg"},{"bike_id":"42707e4f-fc86-4055-94d3-267e0305077b","system_id":"levelo_inurba_marseille","lat":43.29847,"lon":5.36312,"is_reserved":false,"is_disabled":false,"rental_uris":{"android":"levelo://app?vid=42707e4f-fc86-4055-94d3-267e0305077b","ios":"levelo://app?vid=42707e4f-fc86-4055-94d3-267e0305077b"},"vehicle_type_id":"4","last_reported":1737472172,"current_range_meters":0,"station_id":"ce4bgpp2rcd13ifvqc3g","pricing_plan_id":"cebpf4jnsgd1na2vs0mg"},{"bike_id":"3dd094e6-7b23-41d2-9e4a-a9cfaaac6a3e","system_id":"levelo_inurba_marseille","lat":43.33627,"lon":5.41021,"is_reserved":false,"is_disabled":false,"rental_uris":{"android":"levelo://app?vid=3dd094e6-7b23-41d2-9e4a-a9cfaaac6a3e","ios":"levelo://app?vid=3dd094e6-7b23-41d2-9e4a-a9cfaaac6a3e"},"vehicle_type_id":"4","last_reported":1737472172,"current_range_meters":37600,"station_id":"ce4bhqh2rcd13ifvqhmg","pricing_plan_id":"cebpf4jnsgd1na2vs0mg"},{"bike_id":"f2b44ab6-6d90-449e-8c2a-d99008813005","system_id":"levelo_inurba_marseille","lat":43.29269,"lon":5.38444,"is_reserved":false,"is_disabled":false,"rental_uris":{"android":"levelo://app?vid=f2b44ab6-6d90-449e-8c2a-d99008813005","ios":"levelo://app?vid=f2b44ab6-6d90-449e-8c2a-d99008813005"},"vehicle_type_id":"4","last_reported":1737472172,"current_range_meters":26800,"station_id":"ce4bh692rcd13ifvqea0","pricing_plan_id":"cebpf4jnsgd1na2vs0mg"},{"bike_id":"ffee3e92-aedf-4ae9-83cb-cc457d76f7ad","system_id":"levelo_inurba_marseille","lat":43.32654,"lon":5.40992,"is_reserved":false,"is_disabled":false,"rental_uris":{"android":"levelo://app?vid=ffee3e92-aedf-4ae9-83cb-cc457d76f7ad","ios":"levelo://app?vid=ffee3e92-aedf-4ae9-83cb-cc457d76f7ad"},"vehicle_type_id":"4","last_reported":1737472172,"current_range_meters":30800,"station_id":"ce4bhpp2rcd13ifvqhgg","pricing_plan_id":"cebpf4jnsgd1na2vs0mg"},{"bike_id":"25a450b2-f97e-4b98-a100-ad338c5b031f","system_id":"levelo_inurba_marseille","lat":43.29629,"lon":5.37174,"is_reserved":false,"is_disabled":false,"rental_uris":{"android":"levelo://app?vid=25a450b2-f97e-4b98-a100-ad338c5b031f","ios":"levelo://app?vid=25a450b2-f97e-4b98-a100-ad338c5b031f"},"vehicle_type_id":"4","last_reported":1737472172,"current_range_meters":26800,"station_id":"ce4bgnh2rcd13ifvqc0g","pricing_plan_id":"cebpf4jnsgd1na2vs0mg"},{"bike_id":"524b093f-b071-41c0-9fe4-f158e085c588","system_id":"levelo_inurba_marseille","lat":43.32478,"lon":5.36537,"is_reserved":false,"is_disabled":false,"rental_uris":{"android":"levelo://app?vid=524b093f-b071-41c0-9fe4-f158e085c588","ios":"levelo://app?vid=524b093f-b071-41c0-9fe4-f158e085c588"},"vehicle_type_id":"4","last_reported":1737472172,"current_range_meters":28000,"station_id":"ce4bhs12rcd13ifvqhvg","pricing_plan_id":"cebpf4jnsgd1na2vs0mg"},{"bike_id":"754c26fc-9463-4b9e-b436-ba3c101d648d","system_id":"levelo_inurba_marseille","lat":43.31119,"lon":5.37763,"is_reserved":false,"is_disabled":false,"rental_uris":{"android":"levelo://app?vid=754c26fc-9463-4b9e-b436-ba3c101d648d","ios":"levelo://app?vid=754c26fc-9463-4b9e-b436-ba3c101d648d"},"vehicle_type_id":"4","last_reported":1737472172,"current_range_meters":37600,"station_id":"ce4bgt92rcd13ifvqcg0","pricing_plan_id":"cebpf4jnsgd1na2vs0mg"},{"bike_id":"bbe30ec8-e43d-4675-922b-0c8995bb10f8","system_id":"levelo_inurba_marseille","lat":43.27674,"lon":5.38939,"is_reserved":false,"is_disabled":false,"rental_uris":{"android":"levelo://app?vid=bbe30ec8-e43d-4675-922b-0c8995bb10f8","ios":"levelo://app?vid=bbe30ec8-e43d-4675-922b-0c8995bb10f8"},"vehicle_type_id":"4","last_reported":1737472172,"current_range_meters":38800,"station_id":"ce4bhi12rcd13ifvqfo0","pricing_plan_id":"cebpf4jnsgd1na2vs0mg"},{"bike_id":"47ba5e5d-e12d-4691-9d44-094800f3bc72","system_id":"levelo_inurba_marseille","lat":43.28449,"lon":5.39208,"is_reserved":false,"is_disabled":false,"rental_uris":{"android":"levelo://app?vid=47ba5e5d-e12d-4691-9d44-094800f3bc72","ios":"levelo://app?vid=47ba5e5d-e12d-4691-9d44-094800f3bc72"},"vehicle_type_id":"4","last_reported":1737472172,"current_range_meters":14400,"station_id":"ce4bhoh2rcd13ifvqh5g","pricing_plan_id":"cebpf4jnsgd1na2vs0mg"},{"bike_id":"96a964aa-40a3-45b1-a8df-8e3b67b56aa2","system_id":"levelo_inurba_marseille","lat":43.28566,"lon":5.39505,"is_reserved":false,"is_disabled":false,"rental_uris":{"android":"levelo://app?vid=96a964aa-40a3-45b1-a8df-8e3b67b56aa2","ios":"levelo://app?vid=96a964aa-40a3-45b1-a8df-8e3b67b56aa2"},"vehicle_type_id":"4","last_reported":1737472172,"current_range_meters":39200,"station_id":"ce4bh292rcd13ifvqdg0","pricing_plan_id":"cebpf4jnsgd1na2vs0mg"},{"bike_id":"a86a6700-765e-49cb-a89a-158a0b203e3f","system_id":"levelo_inurba_marseille","lat":43.24663,"lon":5.38164,"is_reserved":false,"is_disabled":false,"rental_uris":{"android":"levelo://app?vid=a86a6700-765e-49cb-a89a-158a0b203e3f","ios":"levelo://app?vid=a86a6700-765e-49cb-a89a-158a0b203e3f"},"vehicle_type_id":"4","last_reported":1737472172,"current_range_meters":35200,"station_id":"ce4bhih2rcd13ifvqfr0","pricing_plan_id":"cebpf4jnsgd1na2vs0mg"},{"bike_id":"6f0056e6-7ee6-4824-954e-6ad1a7ec6e1e","system_id":"levelo_inurba_marseille","lat":43.32491,"lon":5.36562,"is_reserved":false,"is_disabled":true,"rental_uris":{"android":"levelo://app?vid=6f0056e6-7ee6-4824-954e-6ad1a7ec6e1e","ios":"levelo://app?vid=6f0056e6-7ee6-4824-954e-6ad1a7ec6e1e"},"vehicle_type_id":"4","last_reported":1737472172,"current_range_meters":0,"station_id":"ce4bhs12rcd13ifvqhvg","pricing_plan_id":"cebpf4jnsgd1na2vs0mg"},{"bike_id":"b5b91842-f1aa-4bba-964f-7a9484225fb0","system_id":"levelo_inurba_marseille","lat":43.25867,"lon":5.39899,"is_reserved":false,"is_disabled":false,"rental_uris":{"android":"levelo://app?vid=b5b91842-f1aa-4bba-964f-7a9484225fb0","ios":"levelo://app?vid=b5b91842-f1aa-4bba-964f-7a9484225fb0"},"vehicle_type_id":"4","last_reported":1737472172,"current_range_meters":39200,"station_id":"ce4bhl92rcd13ifvqghg","pricing_plan_id":"cebpf4jnsgd1na2vs0mg"},{"bike_id":"d31575ef-ffef-4c0b-afc9-be316af88c0f","system_id":"levelo_inurba_marseille","lat":43.30417,"lon":5.41281,"is_reserved":false,"is_disabled":false,"rental_uris":{"android":"levelo://app?vid=d31575ef-ffef-4c0b-afc9-be316af88c0f","ios":"levelo://app?vid=d31575ef-ffef-4c0b-afc9-be316af88c0f"},"vehicle_type_id":"4","last_reported":1737472172,"current_range_meters":30400,"station_id":"ce4bhop2rcd13ifvqh8g","pricing_plan_id":"cebpf4jnsgd1na2vs0mg"},{"bike_id":"60b7d049-237a-4dbd-ad0c-436ecde1802f","system_id":"levelo_inurba_marseille","lat":43.23196,"lon":5.35552,"is_reserved":false,"is_disabled":false,"rental_uris":{"android":"levelo://app?vid=60b7d049-237a-4dbd-ad0c-436ecde1802f","ios":"levelo://app?vid=60b7d049-237a-4dbd-ad0c-436ecde1802f"},"vehicle_type_id":"4","last_reported":1737472172,"current_range_meters":20400,"station_id":"ce4bhu92rcd13ifvqi70","pricing_plan_id":"cebpf4jnsgd1na2vs0mg"},{"bike_id":"f85c25ff-d2e1-425b-9cfd-ea36ab1346fa","system_id":"levelo_inurba_marseille","lat":43.244232,"lon":5.379847,"is_reserved":false,"is_disabled":false,"rental_uris":{"android":"levelo://app?vid=f85c25ff-d2e1-425b-9cfd-ea36ab1346fa","ios":"levelo://app?vid=f85c25ff-d2e1-425b-9cfd-ea36ab1346fa"},"vehicle_type_id":"4","last_reported":1737472172,"current_range_meters":16000,"station_id":"ce4bhhh2rcd13ifvqfk0","pricing_plan_id":"cebpf4jnsgd1na2vs0mg"},{"bike_id":"86d67274-3f7f-4b7f-936e-b73e7a0da0d3","system_id":"levelo_inurba_marseille","lat":43.30536,"lon":5.367,"is_reserved":false,"is_disabled":false,"rental_uris":{"android":"levelo://app?vid=86d67274-3f7f-4b7f-936e-b73e7a0da0d3","ios":"levelo://app?vid=86d67274-3f7f-4b7f-936e-b73e7a0da0d3"},"vehicle_type_id":"4","last_reported":1737472172,"current_range_meters":38800,"station_id":"ce4bgrp2rcd13ifvqc9g","pricing_plan_id":"cebpf4jnsgd1na2vs0mg"},{"bike_id":"de6dcb73-003c-4fef-9223-b36086e0aca6","system_id":"levelo_inurba_marseille","lat":43.2953,"lon":5.38537,"is_reserved":false,"is_disabled":false,"rental_uris":{"android":"levelo://app?vid=de6dcb73-003c-4fef-9223-b36086e0aca6","ios":"levelo://app?vid=de6dcb73-003c-4fef-9223-b36086e0aca6"},"vehicle_type_id":"4","last_reported":1737472172,"current_range_meters":22000,"station_id":"ce4bgih2rcd13ifvqba0","pricing_plan_id":"cebpf4jnsgd1na2vs0mg"},{"bike_id":"a5fe764a-34f4-4649-80ed-0bb9652af8d5","system_id":"levelo_inurba_marseille","lat":43.26571,"lon":5.39004,"is_reserved":false,"is_disabled":true,"rental_uris":{"android":"levelo://app?vid=a5fe764a-34f4-4649-80ed-0bb9652af8d5","ios":"levelo://app?vid=a5fe764a-34f4-4649-80ed-0bb9652af8d5"},"vehicle_type_id":"4","last_reported":1737472172,"current_range_meters":0,"station_id":"ce4bhe12rcd13ifvqf30","pricing_plan_id":"cebpf4jnsgd1na2vs0mg"},{"bike_id":"cea541d4-3f8e-4079-91ad-02075f617536","system_id":"levelo_inurba_marseille","lat":43.27372,"lon":5.36253,"is_reserved":false,"is_disabled":false,"rental_uris":{"android":"levelo://app?vid=cea541d4-3f8e-4079-91ad-02075f617536","ios":"levelo://app?vid=cea541d4-3f8e-4079-91ad-02075f617536"},"vehicle_type_id":"4","last_reported":1737472172,"current_range_meters":39200,"station_id":"ce4bhbh2rcd13ifvqeo0","pricing_plan_id":"cebpf4jnsgd1na2vs0mg"},{"bike_id":"4a056786-bc85-4309-a7b3-2d018225f433","system_id":"levelo_inurba_marseille","lat":43.29966,"lon":5.3849,"is_reserved":false,"is_disabled":false,"rental_uris":{"android":"levelo://app?vid=4a056786-bc85-4309-a7b3-2d018225f433","ios":"levelo://app?vid=4a056786-bc85-4309-a7b3-2d018225f433"},"vehicle_type_id":"4","last_reported":1737472172,"current_range_meters":38000,"station_id":"ce4bgj92rcd13ifvqbd0","pricing_plan_id":"cebpf4jnsgd1na2vs0mg"},{"bike_id":"e87debe1-dd81-4477-a1cc-0f387a2af601","system_id":"levelo_inurba_marseille","lat":43.29911,"lon":5.37475,"is_reserved":false,"is_disabled":false,"rental_uris":{"android":"levelo://app?vid=e87debe1-dd81-4477-a1cc-0f387a2af601","ios":"levelo://app?vid=e87debe1-dd81-4477-a1cc-0f387a2af601"},"vehicle_type_id":"4","last_reported":1737472172,"current_range_meters":28400,"station_id":"ce4bgjh2rcd13ifvqbg0","pricing_plan_id":"cebpf4jnsgd1na2vs0mg"},{"bike_id":"b28cbc4f-694d-41e3-a060-43e0877c7d6c","system_id":"levelo_inurba_marseille","lat":43.30141,"lon":5.37416,"is_reserved":false,"is_disabled":false,"rental_uris":{"android":"levelo://app?vid=b28cbc4f-694d-41e3-a060-43e0877c7d6c","ios":"levelo://app?vid=b28cbc4f-694d-41e3-a060-43e0877c7d6c"},"vehicle_type_id":"4","last_reported":1737472172,"current_range_meters":24800,"station_id":"ce4bgs92rcd13ifvqcc0","pricing_plan_id":"cebpf4jnsgd1na2vs0mg"},{"bike_id":"4f990209-04d5-4ce5-bcf6-1abc31b5d30d","system_id":"levelo_inurba_marseille","lat":43.30535,"lon":5.36547,"is_reserved":false,"is_disabled":false,"rental_uris":{"android":"levelo://app?vid=4f990209-04d5-4ce5-bcf6-1abc31b5d30d","ios":"levelo://app?vid=4f990209-04d5-4ce5-bcf6-1abc31b5d30d"},"vehicle_type_id":"4","last_reported":1737472172,"current_range_meters":38800,"station_id":"ce4bgs12rcd13ifvqcag","pricing_plan_id":"cebpf4jnsgd1na2vs0mg"},{"bike_id":"16483ab7-511b-4965-ade6-72c3442926cd","system_id":"levelo_inurba_marseille","lat":43.24384,"lon":5.37066,"is_reserved":false,"is_disabled":false,"rental_uris":{"android":"levelo://app?vid=16483ab7-511b-4965-ade6-72c3442926cd","ios":"levelo://app?vid=16483ab7-511b-4965-ade6-72c3442926cd"},"vehicle_type_id":"4","last_reported":1737472172,"current_range_meters":39200,"station_id":"ce4bhhh2rcd13ifvqfk0","pricing_plan_id":"cebpf4jnsgd1na2vs0mg"},{"bike_id":"292f8adc-7623-41ea-a3ea-158a93156577","system_id":"levelo_inurba_marseille","lat":43.30549,"lon":5.38403,"is_reserved":false,"is_disabled":false,"rental_uris":{"android":"levelo://app?vid=292f8adc-7623-41ea-a3ea-158a93156577","ios":"levelo://app?vid=292f8adc-7623-41ea-a3ea-158a93156577"},"vehicle_type_id":"4","last_reported":1737472172,"current_range_meters":28800,"station_id":"ce4bgg92rcd13ifvqb30","pricing_plan_id":"cebpf4jnsgd1na2vs0mg"},{"bike_id":"089acda9-0b1b-4c79-b80e-1b2d3e197dd8","system_id":"levelo_inurba_marseille","lat":43.30963,"lon":5.39044,"is_reserved":false,"is_disabled":false,"rental_uris":{"android":"levelo://app?vid=089acda9-0b1b-4c79-b80e-1b2d3e197dd8","ios":"levelo://app?vid=089acda9-0b1b-4c79-b80e-1b2d3e197dd8"},"vehicle_type_id":"4","last_reported":1737472172,"current_range_meters":32000,"station_id":"ce4bgup2rcd13ifvqco0","pricing_plan_id":"cebpf4jnsgd1na2vs0mg"},{"bike_id":"09271c13-bc57-4a1b-ad60-73ddd2d0ee51","system_id":"levelo_inurba_marseille","lat":43.31358,"lon":5.36708,"is_reserved":false,"is_disabled":false,"rental_uris":{"android":"levelo://app?vid=09271c13-bc57-4a1b-ad60-73ddd2d0ee51","ios":"levelo://app?vid=09271c13-bc57-4a1b-ad60-73ddd2d0ee51"},"vehicle_type_id":"4","last_reported":1737472172,"current_range_meters":38800,"station_id":"ce4bgr92rcd13ifvqc6g","pricing_plan_id":"cebpf4jnsgd1na2vs0mg"},{"bike_id":"b1178cb4-439f-49c8-944f-b5adf4637300","system_id":"levelo_inurba_marseille","lat":43.28163,"lon":5.42618,"is_reserved":false,"is_disabled":false,"rental_uris":{"android":"levelo://app?vid=b1178cb4-439f-49c8-944f-b5adf4637300","ios":"levelo://app?vid=b1178cb4-439f-49c8-944f-b5adf4637300"},"vehicle_type_id":"4","last_reported":1737472172,"current_range_meters":24400,"station_id":"ce4bhnh2rcd13ifvqgug","pricing_plan_id":"cebpf4jnsgd1na2vs0mg"},{"bike_id":"64b084cb-bee9-4bf3-b5f1-99ae8fc22268","system_id":"levelo_inurba_marseille","lat":43.24187,"lon":5.39739,"is_reserved":false,"is_disabled":false,"rental_uris":{"android":"levelo://app?vid=64b084cb-bee9-4bf3-b5f1-99ae8fc22268","ios":"levelo://app?vid=64b084cb-bee9-4bf3-b5f1-99ae8fc22268"},"vehicle_type_id":"4","last_reported":1737472172,"current_range_meters":27200,"station_id":"ce4bhn12rcd13ifvqgpg","pricing_plan_id":"cebpf4jnsgd1na2vs0mg"},{"bike_id":"6e63ef53-d2fb-4193-8563-06449ed74b84","system_id":"levelo_inurba_marseille","lat":43.29919,"lon":5.38132,"is_reserved":false,"is_disabled":true,"rental_uris":{"android":"levelo://app?vid=6e63ef53-d2fb-4193-8563-06449ed74b84","ios":"levelo://app?vid=6e63ef53-d2fb-4193-8563-06449ed74b84"},"vehicle_type_id":"4","last_reported":1737472172,"current_range_meters":0,"station_id":"ce4bgj12rcd13ifvqbc0","pricing_plan_id":"cebpf4jnsgd1na2vs0mg"},{"bike_id":"f608b382-76f1-4146-82dc-6c379612bba7","system_id":"levelo_inurba_marseille","lat":43.32469,"lon":5.36576,"is_reserved":false,"is_disabled":false,"rental_uris":{"android":"levelo://app?vid=f608b382-76f1-4146-82dc-6c379612bba7","ios":"levelo://app?vid=f608b382-76f1-4146-82dc-6c379612bba7"},"vehicle_type_id":"4","last_reported":1737472172,"current_range_meters":27200,"station_id":"ce4bhs12rcd13ifvqhvg","pricing_plan_id":"cebpf4jnsgd1na2vs0mg"},{"bike_id":"0aaedd18-95c7-458b-bb63-6504ef2e11ba","system_id":"levelo_inurba_marseille","lat":43.32099,"lon":5.36777,"is_reserved":false,"is_disabled":false,"rental_uris":{"android":"levelo://app?vid=0aaedd18-95c7-458b-bb63-6504ef2e11ba","ios":"levelo://app?vid=0aaedd18-95c7-458b-bb63-6504ef2e11ba"},"vehicle_type_id":"4","last_reported":1737472172,"current_range_meters":33200,"station_id":"ce4bhrh2rcd13ifvqhug","pricing_plan_id":"cebpf4jnsgd1na2vs0mg"},{"bike_id":"de695776-f513-4e38-9108-fb33192a39fb","system_id":"levelo_inurba_marseille","lat":43.23965,"lon":5.36629,"is_reserved":false,"is_disabled":true,"rental_uris":{"android":"levelo://app?vid=de695776-f513-4e38-9108-fb33192a39fb","ios":"levelo://app?vid=de695776-f513-4e38-9108-fb33192a39fb"},"vehicle_type_id":"4","last_reported":1737472172,"current_range_meters":0,"station_id":"ce4bhi12rcd13ifvqfp0","pricing_plan_id":"cebpf4jnsgd1na2vs0mg"},{"bike_id":"fc3851d3-4c11-4c58-8623-4bafe383244b","system_id":"levelo_inurba_marseille","lat":43.30439,"lon":5.38885,"is_reserved":false,"is_disabled":false,"rental_uris":{"android":"levelo://app?vid=fc3851d3-4c11-4c58-8623-4bafe383244b","ios":"levelo://app?vid=fc3851d3-4c11-4c58-8623-4bafe383244b"},"vehicle_type_id":"4","last_reported":1737472172,"current_range_meters":38800,"station_id":"ce4bgk12rcd13ifvqbi0","pricing_plan_id":"cebpf4jnsgd1na2vs0mg"},{"bike_id":"a00f9d10-2df3-4a8a-9537-639a60aaa7db","system_id":"levelo_inurba_marseille","lat":43.32491,"lon":5.36563,"is_reserved":false,"is_disabled":false,"rental_uris":{"android":"levelo://app?vid=a00f9d10-2df3-4a8a-9537-639a60aaa7db","ios":"levelo://app?vid=a00f9d10-2df3-4a8a-9537-639a60aaa7db"},"vehicle_type_id":"4","last_reported":1737472172,"current_range_meters":35200,"station_id":"ce4bhs12rcd13ifvqhvg","pricing_plan_id":"cebpf4jnsgd1na2vs0mg"},{"bike_id":"21f319de-5001-4705-a283-0d3557eac4b3","system_id":"levelo_inurba_marseille","lat":43.28076,"lon":5.39657,"is_reserved":false,"is_disabled":false,"rental_uris":{"android":"levelo://app?vid=21f319de-5001-4705-a283-0d3557eac4b3","ios":"levelo://app?vid=21f319de-5001-4705-a283-0d3557eac4b3"},"vehicle_type_id":"4","last_reported":1737472172,"current_range_meters":38400,"station_id":"ce4bho12rcd13ifvqh2g","pricing_plan_id":"cebpf4jnsgd1na2vs0mg"},{"bike_id":"f2f7d57f-f7a9-437c-98a4-1ec33db31a7f","system_id":"levelo_inurba_marseille","lat":43.30252,"lon":5.40068,"is_reserved":false,"is_disabled":false,"rental_uris":{"android":"levelo://app?vid=f2f7d57f-f7a9-437c-98a4-1ec33db31a7f","ios":"levelo://app?vid=f2f7d57f-f7a9-437c-98a4-1ec33db31a7f"},"vehicle_type_id":"4","last_reported":1737472172,"current_range_meters":30800,"station_id":"ce4bgvh2rcd13ifvqcs0","pricing_plan_id":"cebpf4jnsgd1na2vs0mg"},{"bike_id":"be5af88f-b9fb-4c45-affa-947d36a2d441","system_id":"levelo_inurba_marseille","lat":43.26551,"lon":5.37287,"is_reserved":false,"is_disabled":false,"rental_uris":{"android":"levelo://app?vid=be5af88f-b9fb-4c45-affa-947d36a2d441","ios":"levelo://app?vid=be5af88f-b9fb-4c45-affa-947d36a2d441"},"vehicle_type_id":"4","last_reported":1737472172,"current_range_meters":8800,"station_id":"ce4bhg12rcd13ifvqf70","pricing_plan_id":"cebpf4jnsgd1na2vs0mg"},{"bike_id":"dc137be1-72ad-40a0-85e3-027cef5715ec","system_id":"levelo_inurba_marseille","lat":43.28847,"lon":5.35864,"is_reserved":false,"is_disabled":false,"rental_uris":{"android":"levelo://app?vid=dc137be1-72ad-40a0-85e3-027cef5715ec","ios":"levelo://app?vid=dc137be1-72ad-40a0-85e3-027cef5715ec"},"vehicle_type_id":"4","last_reported":1737472172,"current_range_meters":25600,"station_id":"ce4bhb12rcd13ifvqem0","pricing_plan_id":"cebpf4jnsgd1na2vs0mg"},{"bike_id":"08a0aa4a-0e05-4b52-b7fe-41d5430ca038","system_id":"levelo_inurba_marseille","lat":43.30798,"lon":5.37654,"is_reserved":false,"is_disabled":false,"rental_uris":{"android":"levelo://app?vid=08a0aa4a-0e05-4b52-b7fe-41d5430ca038","ios":"levelo://app?vid=08a0aa4a-0e05-4b52-b7fe-41d5430ca038"},"vehicle_type_id":"4","last_reported":1737472172,"current_range_meters":27200,"station_id":"ce4bgv92rcd13ifvqcq0","pricing_plan_id":"cebpf4jnsgd1na2vs0mg"},{"bike_id":"c70c7955-2cfd-40c0-86b7-a19179005842","system_id":"levelo_inurba_marseille","lat":43.27615,"lon":5.36094,"is_reserved":false,"is_disabled":false,"rental_uris":{"android":"levelo://app?vid=c70c7955-2cfd-40c0-86b7-a19179005842","ios":"levelo://app?vid=c70c7955-2cfd-40c0-86b7-a19179005842"},"vehicle_type_id":"4","last_reported":1737472172,"current_range_meters":39200,"station_id":"ce4bgj92rcd13ifvqbe0","pricing_plan_id":"cebpf4jnsgd1na2vs0mg"},{"bike_id":"25559174-5622-4ad5-949d-0b3714a31d52","system_id":"levelo_inurba_marseille","lat":43.29851,"lon":5.36276,"is_reserved":false,"is_disabled":false,"rental_uris":{"android":"levelo://app?vid=25559174-5622-4ad5-949d-0b3714a31d52","ios":"levelo://app?vid=25559174-5622-4ad5-949d-0b3714a31d52"},"vehicle_type_id":"4","last_reported":1737472172,"current_range_meters":20400,"station_id":"ce4bgpp2rcd13ifvqc3g","pricing_plan_id":"cebpf4jnsgd1na2vs0mg"},{"bike_id":"586a1c41-11d4-4205-8447-2266a0160e78","system_id":"levelo_inurba_marseille","lat":43.26208,"lon":5.37909,"is_reserved":false,"is_disabled":false,"rental_uris":{"android":"levelo://app?vid=586a1c41-11d4-4205-8447-2266a0160e78","ios":"levelo://app?vid=586a1c41-11d4-4205-8447-2266a0160e78"},"vehicle_type_id":"4","last_reported":1737472172,"current_range_meters":38800,"station_id":"ce4bhjp2rcd13ifvqg90","pricing_plan_id":"cebpf4jnsgd1na2vs0mg"},