{"last_updated":1752240386,"ttl":60,"version":"2.2","data":{"bikes":[{"bike_id":"0cd2b57d-adb2-4c21-a930-82f360d67409","system_id":"levelo_inurba_marseille","lat":43.29705,"lon":5.36628,"is_reserved":false,"is_disabled":false,"rental_uris":{"android":"levelo://app?vid=0cd2b57d-adb2-4c21-a930-82f360d67409","ios":"levelo://app?vid=0cd2b57d-adb2-4c21-a930-82f360d67409"},"vehicle_type_id":"4","last_reported":1752240386,"current_range_meters":2800,"station_id":"ce4bgn12rcd13ifvqbt0","pricing_plan_id":"cebpf4jnsgd1na2vs0mg"},{"bike_id":"caabc45e-5568-4c28-89e2-6bbd36cdd2f9","system_id":"levelo_inurba_marseille","lat":43.29798,"lon":5.40402,"is_reserved":false,"is_disabled":false,"rental_uris":{"android":"levelo://app?vid=caabc45e-5568-4c28-89e2-6bbd36cdd2f9","ios":"levelo://app?vid=caabc45e-5568-4c28-89e2-6bbd36cdd2f9"},"vehicle_type_id":"4","last_reported":1752240386,"current_range_meters":2800,"station_id":"ce4bh112rcd13ifvqd90","pricing_plan_id":"cebpf4jnsgd1na2vs0mg"},{"bike_id":"2866f220-926f-4556-9588-931ea7898507","system_id":"levelo_inurba_marseille","lat":43.28939,"lon":5.36638,"is_reserved":false,"is_disabled":false,"rental_uris":{"android":"levelo://app?vid=2866f220-926f-4556-9588-931ea7898507","ios":"levelo://app?vid=2866f220-926f-4556-9588-931ea7898507"},"vehicle_type_id":"4","last_reported":1752240386,"current_range_meters":2800,"station_id":"ce4bhap2rcd13ifvqek0","pricing_plan_id":"cebpf4jnsgd1na2vs0mg"},{"bike_id":"515c67db-fe24-4690-aa3b-6a8603d03a36","system_id":"levelo_inurba_marseille","lat":43.26192,"lon":5.3745,"is_reserved":false,"is_disabled":false,"rental_uris":{"android":"levelo://app?vid=515c67db-fe24-4690-aa3b-6a8603d03a36","ios":"levelo://app?vid=515c67db-fe24-4690-aa3b-6a8603d03a36"},"vehicle_type_id":"4","last_reported":1752240386,"current_range_meters":2800,"station_id":"ce4bhgp2rcd13ifvqfc0","pricing_plan_id":"cebpf4jnsgd1na2vs0mg"},{"bike_id":"aac575cb-f0c4-4c5a-8eb6-f7be4b216064","system_id":"levelo_inurba_marseille","lat":43.28367,"lon":5.38634,"is_reserved":false,"is_disabled":false,"rental_uris":{"android":"levelo://app?vid=aac575cb-f0c4-4c5a-8eb6-f7be4b216064","ios":"levelo://app?vid=aac575cb-f0c4-4c5a-8eb6-f7be4b216064"},"vehicle_type_id":"4","last_reported":1752240386,"current_range_meters":2000,"station_id":"ce4bh492rcd13ifvqdvg","pricing_plan_id":"cebpf4jnsgd1na2vs0mg"},{"bike_id":"a2af2d8a-3c71-4033-b624-2b9d05b74fa1","system_id":"levelo_inurba_marseille","lat":43.23967,"lon":5.36637,"is_reserved":false,"is_disabled":false,"rental_uris":{"android":"levelo://app?vid=a2af2d8a-3c71-4033-b624-2b9d05b74fa1","ios":"levelo://app?vid=a2af2d8a-3c71-4033-b624-2b9d05b74fa1"},"vehicle_type_id":"4","last_reported":1752240386,"current_range_meters":3200,"station_id":"ce4bhi12rcd13ifvqfp0","pricing_plan_id":"cebpf4jnsgd1na2vs0mg"},{"bike_id":"06862b8c-f473-410c-b6f4-d47f991ad182","system_id":"levelo_inurba_marseille","lat":43.31072,"lon":5.38364,"is_reserved":false,"is_disabled":false,"rental_uris":{"android":"levelo://app?vid=06862b8c-f473-410c-b6f4-d47f991ad182","ios":"levelo://app?vid=06862b8c-f473-410c-b6f4-d47f991ad182"},"vehicle_type_id":"4","last_reported":1752240386,"current_range_meters":3200,"station_id":"ce4bgv92rcd13ifvqcr0","pricing_plan_id":"cebpf4jnsgd1na2vs0mg"},{"bike_id":"b8d6bf6b-ecbb-4c40-8ce7-0169ef070b49","system_id":"levelo_inurba_marseille","lat":43.29578,"lon":5.37404,"is_reserved":false,"is_disabled":false,"rental_uris":{"android":"levelo://app?vid=b8d6bf6b-ecbb-4c40-8ce7-0169ef070b49","ios":"levelo://app?vid=b8d6bf6b-ecbb-4c40-8ce7-0169ef070b49"},"vehicle_type_id":"4","last_reported":1752240386,"current_range_meters":3600,"station_id":"","pricing_plan_id":"cebpf4jnsgd1na2vs0mg"},{"bike_id":"9378824b-9e33-4017-921b-9d55061b28e0","system_id":"levelo_inurba_marseille","lat":43.239497,"lon":5.366063,"is_reserved":false,"is_disabled":false,"rental_uris":{"android":"levelo://app?vid=9378824b-9e33-4017-921b-9d55061b28e0","ios":"levelo://app?vid=9378824b-9e33-4017-921b-9d55061b28e0"},"vehicle_type_id":"4","last_reported":1752240386,"current_range_meters":3600,"station_id":"ce4bhi12rcd13ifvqfp0","pricing_plan_id":"cebpf4jnsgd1na2vs0mg"},{"bike_id":"2bd2509c-8e69-46fb-904c-1c65a6340b60","system_id":"levelo_inurba_marseille","lat":43.22931,"lon":5.35384,"is_reserved":false,"is_disabled":false,"rental_uris":{"android":"levelo://app?vid=2bd2509c-8e69-46fb-904c-1c65a6340b60","ios":"levelo://app?vid=2bd2509c-8e69-46fb-904c-1c65a6340b60"},"vehicle_type_id":"4","last_reported":1752240386,"current_range_meters":3600,"station_id":"cpo3532slgdg3j2ikp40","pricing_plan_id":"cebpf4jnsgd1na2vs0mg"},{"bike_id":"a4e71c09-d013-4906-bd5c-aaf1012438e0","system_id":"levelo_inurba_marseille","lat":43.30922,"lon":5.401552,"is_reserved":false,"is_disabled":true,"rental_uris":{"android":"levelo://app?vid=a4e71c09-d013-4906-bd5c-aaf1012438e0","ios":"levelo://app?vid=a4e71c09-d013-4906-bd5c-aaf1012438e0"},"vehicle_type_id":"4","last_reported":1752240386,"current_range_meters":4400,"station_id":"ce4bgvp2rcd13ifvqct0","pricing_plan_id":"cebpf4jnsgd1na2vs0mg"},{"bike_id":"344f5c21-5c7d-461d-8dc4-1c1b10443425","system_id":"levelo_inurba_marseille","lat":43.27072,"lon":5.42285,"is_reserved":false,"is_disabled":false,"rental_uris":{"android":"levelo://app?vid=344f5c21-5c7d-461d-8dc4-1c1b10443425","ios":"levelo://app?vid=344f5c21-5c7d-461d-8dc4-1c1b10443425"},"vehicle_type_id":"4","last_reported":1752240386,"current_range_meters":4400,"station_id":"ce4bhk92rcd13ifvqgb0","pricing_plan_id":"cebpf4jnsgd1na2vs0mg"},{"bike_id":"a239481b-c535-44cc-8f5c-907c22bf00f8","system_id":"levelo_inurba_marseille","lat":43.24171,"lon":5.36396,"is_reserved":false,"is_disabled":false,"rental_uris":{"android":"levelo://app?vid=a239481b-c535-44cc-8f5c-907c22bf00f8","ios":"levelo://app?vid=a239481b-c535-44cc-8f5c-907c22bf00f8"},"vehicle_type_id":"4","last_reported":1752240386,"current_range_meters":4800,"station_id":"cpo36qri1sfpv3e86is0","pricing_plan_id":"cebpf4jnsgd1na2vs0mg"},{"bike_id":"7c1d133b-b30b-4916-a189-c8f259f48b89","system_id":"levelo_inurba_marseille","lat":43.21749,"lon":5.34602,"is_reserved":false,"is_disabled":false,"rental_uris":{"android":"levelo://app?vid=7c1d133b-b30b-4916-a189-c8f259f48b89","ios":"levelo://app?vid=7c1d133b-b30b-4916-a189-c8f259f48b89"},"vehicle_type_id":"4","last_reported":1752240386,"current_range_meters":4800,"station_id":"st_cvj6r9ubvosntc0bgbag","pricing_plan_id":"cebpf4jnsgd1na2vs0mg"},{"bike_id":"c9ec8264-b1f7-41db-a127-5dfa02fc980f","system_id":"levelo_inurba_marseille","lat":43.31574,"lon":5.40178,"is_reserved":false,"is_disabled":false,"rental_uris":{"android":"levelo://app?vid=c9ec8264-b1f7-41db-a127-5dfa02fc980f","ios":"levelo://app?vid=c9ec8264-b1f7-41db-a127-5dfa02fc980f"},"vehicle_type_id":"4","last_reported":1752240386,"current_range_meters":4800,"station_id":"","pricing_plan_id":"cebpf4jnsgd1na2vs0mg"},{"bike_id":"52cadec5-3774-483c-a86b-aaa54bf44e04","system_id":"levelo_inurba_marseille","lat":43.28453,"lon":5.35901,"is_reserved":false,"is_disabled":false,"rental_uris":{"android":"levelo://app?vid=52cadec5-3774-483c-a86b-aaa54bf44e04","ios":"levelo://app?vid=52cadec5-3774-483c-a86b-aaa54bf44e04"},"vehicle_type_id":"4","last_reported":1752240386,"current_range_meters":5600,"station_id":"ce4bhah2rcd13ifvqei0","pricing_plan_id":"cebpf4jnsgd1na2vs0mg"},{"bike_id":"e070b844-db3c-4fc1-9e24-a1ebff6a822b","system_id":"levelo_inurba_marseille","lat":43.28726,"lon":5.36099,"is_reserved":false,"is_disabled":false,"rental_uris":{"android":"levelo://app?vid=e070b844-db3c-4fc1-9e24-a1ebff6a822b","ios":"levelo://app?vid=e070b844-db3c-4fc1-9e24-a1ebff6a822b"},"vehicle_type_id":"4","last_reported":1752240386,"current_range_meters":5600,"station_id":"cki0cbj6b192h4jlfktg","pricing_plan_id":"cebpf4jnsgd1na2vs0mg"},{"bike_id":"e62040a3-1a56-4866-ac66-66b4dc0b63ed","system_id":"levelo_inurba_marseille","lat":43.29195,"lon":5.3581,"is_reserved":false,"is_disabled":false,"rental_uris":{"android":"levelo://app?vid=e62040a3-1a56-4866-ac66-66b4dc0b63ed","ios":"levelo://app?vid=e62040a3-1a56-4866-ac66-66b4dc0b63ed"},"vehicle_type_id":"4","last_reported":1752240386,"current_range_meters":5600,"station_id":"ce4bhb12rcd13ifvqel0","pricing_plan_id":"cebpf4jnsgd1na2vs0mg"},{"bike_id":"df712ea8-fa0e-4dc0-9487-73c43f88a2a0","system_id":"levelo_inurba_marseille","lat":43.30756,"lon":5.37677,"is_reserved":false,"is_disabled":false,"rental_uris":{"android":"levelo://app?vid=df712ea8-fa0e-4dc0-9487-73c43f88a2a0","ios":"levelo://app?vid=df712ea8-fa0e-4dc0-9487-73c43f88a2a0"},"vehicle_type_id":"4","last_reported":1752240386,"current_range_meters":5600,"station_id":"ce4bgv92rcd13ifvqcq0","pricing_plan_id":"cebpf4jnsgd1na2vs0mg"},{"bike_id":"3108e78c-759c-4d11-b361-5abb833e983c","system_id":"levelo_inurba_marseille","lat":43.28864,"lon":5.39403,"is_reserved":false,"is_disabled":false,"rental_uris":{"android":"levelo://app?vid=3108e78c-759c-4d11-b361-5abb833e983c","ios":"levelo://app?vid=3108e78c-759c-4d11-b361-5abb833e983c"},"vehicle_type_id":"4","last_reported":1752240386,"current_range_meters":6000,"station_id":"","pricing_plan_id":"cebpf4jnsgd1na2vs0mg"},{"bike_id":"27711ce5-43ae-4bee-b870-5e7eb849d50a","system_id":"levelo_inurba_marseille","lat":43.29575,"lon":5.37519,"is_reserved":false,"is_disabled":false,"rental_uris":{"android":"levelo://app?vid=27711ce5-43ae-4bee-b870-5e7eb849d50a","ios":"levelo://app?vid=27711ce5-43ae-4bee-b870-5e7eb849d50a"},"vehicle_type_id":"4","last_reported":1752240386,"current_range_meters":6000,"station_id":"ce4bgh92rcd13ifvqb50","pricing_plan_id":"cebpf4jnsgd1na2vs0mg"},{"bike_id":"4d0f5ade-cbeb-482c-9ba4-f927ef5f90a2","system_id":"levelo_inurba_marseille","lat":43.28983,"lon":5.37834,"is_reserved":false,"is_disabled":false,"rental_uris":{"android":"levelo://app?vid=4d0f5ade-cbeb-482c-9ba4-f927ef5f90a2","ios":"levelo://app?vid=4d0f5ade-cbeb-482c-9ba4-f927ef5f90a2"},"vehicle_type_id":"4","last_reported":1752240386,"current_range_meters":6000,"station_id":"ce4bh9p2rcd13ifvqed0","pricing_plan_id":"cebpf4jnsgd1na2vs0mg"},{"bike_id":"159fe00e-1605-4a3a-a906-ef8dcd52b1db","system_id":"levelo_inurba_marseille","lat":43.308569,"lon":5.373291,"is_reserved":false,"is_disabled":false,"rental_uris":{"android":"levelo://app?vid=159fe00e-1605-4a3a-a906-ef8dcd52b1db","ios":"levelo://app?vid=159fe00e-1605-4a3a-a906-ef8dcd52b1db"},"vehicle_type_id":"4","last_reported":1752240386,"current_range_meters":6000,"station_id":"","pricing_plan_id":"cebpf4jnsgd1na2vs0mg"},{"bike_id":"20763534-4b4f-4a23-86b4-3e729e1b3926","system_id":"levelo_inurba_marseille","lat":43.337444,"lon":5.374475,"is_reserved":false,"is_disabled":false,"rental_uris":{"android":"levelo://app?vid=20763534-4b4f-4a23-86b4-3e729e1b3926","ios":"levelo://app?vid=20763534-4b4f-4a23-86b4-3e729e1b3926"},"vehicle_type_id":"4","last_reported":1752240386,"current_range_meters":6000,"station_id":"","pricing_plan_id":"cebpf4jnsgd1na2vs0mg"},{"bike_id":"1ec0089c-7430-4e50-b29d-f9bd1662c45d","system_id":"levelo_inurba_marseille","lat":43.251234,"lon":5.403355,"is_reserved":false,"is_disabled":false,"rental_uris":{"android":"levelo://app?vid=1ec0089c-7430-4e50-b29d-f9bd1662c45d","ios":"levelo://app?vid=1ec0089c-7430-4e50-b29d-f9bd1662c45d"},"vehicle_type_id":"4","last_reported":1752240386,"current_range_meters":6400,"station_id":"ce4bhlh2rcd13ifvqgig","pricing_plan_id":"cebpf4jnsgd1na2vs0mg"},{"bike_id":"9a2f109c-f5b3-4a8e-aa40-7e0a83dcf874","system_id":"levelo_inurba_marseille","lat":43.29882,"lon":5.38905,"is_reserved":false,"is_disabled":false,"rental_uris":{"android":"levelo://app?vid=9a2f109c-f5b3-4a8e-aa40-7e0a83dcf874","ios":"levelo://app?vid=9a2f109c-f5b3-4a8e-aa40-7e0a83dcf874"},"vehicle_type_id":"4","last_reported":1752240386,"current_range_meters":6000,"station_id":"ce4bh392rcd13ifvqdl0","pricing_plan_id":"cebpf4jnsgd1na2vs0mg"},{"bike_id":"b91e5c72-7b8d-436f-944a-260a056916d3","system_id":"levelo_inurba_marseille","lat":43.23067,"lon":5.354817,"is_reserved":false,"is_disabled":false,"rental_uris":{"android":"levelo://app?vid=b91e5c72-7b8d-436f-944a-260a056916d3","ios":"levelo://app?vid=b91e5c72-7b8d-436f-944a-260a056916d3"},"vehicle_type_id":"4","last_reported":1752240386,"current_range_meters":6400,"station_id":"cpo3342slgdg3j2ifvpg","pricing_plan_id":"cebpf4jnsgd1na2vs0mg"},{"bike_id":"4efc2025-c2d7-4205-a81b-af8ae7bba118","system_id":"levelo_inurba_marseille","lat":43.25832,"lon":5.39448,"is_reserved":false,"is_disabled":false,"rental_uris":{"android":"levelo://app?vid=4efc2025-c2d7-4205-a81b-af8ae7bba118","ios":"levelo://app?vid=4efc2025-c2d7-4205-a81b-af8ae7bba118"},"vehicle_type_id":"4","last_reported":1752240386,"current_range_meters":6800,"station_id":"ce4bhip2rcd13ifvqft0","pricing_plan_id":"cebpf4jnsgd1na2vs0mg"},{"bike_id":"78d6e7c8-8477-436d-96d8-0d0ab485a2b5","system_id":"levelo_inurba_marseille","lat":43.21744,"lon":5.34599,"is_reserved":false,"is_disabled":false,"rental_uris":{"android":"levelo://app?vid=78d6e7c8-8477-436d-96d8-0d0ab485a2b5","ios":"levelo://app?vid=78d6e7c8-8477-436d-96d8-0d0ab485a2b5"},"vehicle_type_id":"4","last_reported":1752240386,"current_range_meters":6800,"station_id":"st_cvj6r9ubvosntc0bgbag","pricing_plan_id":"cebpf4jnsgd1na2vs0mg"},{"bike_id":"070e1cbb-5ec1-4e8a-895f-711af5e50c9a","system_id":"levelo_inurba_marseille","lat":43.297835,"lon":5.370957,"is_reserved":false,"is_disabled":false,"rental_uris":{"android":"levelo://app?vid=070e1cbb-5ec1-4e8a-895f-711af5e50c9a","ios":"levelo://app?vid=070e1cbb-5ec1-4e8a-895f-711af5e50c9a"},"vehicle_type_id":"4","last_reported":1752240386,"current_range_meters":6800,"station_id":"ce4bgop2rcd13ifvqc1g","pricing_plan_id":"cebpf4jnsgd1na2vs0mg"},{"bike_id":"8accfd41-d9f3-4db3-92f0-f1570c20fbc6","system_id":"levelo_inurba_marseille","lat":43.23197,"lon":5.35555,"is_reserved":false,"is_disabled":false,"rental_uris":{"android":"levelo://app?vid=8accfd41-d9f3-4db3-92f0-f1570c20fbc6","ios":"levelo://app?vid=8accfd41-d9f3-4db3-92f0-f1570c20fbc6"},"vehicle_type_id":"4","last_reported":1752240386,"current_range_meters":7200,"station_id":"ce4bhu92rcd13ifvqi70","pricing_plan_id":"cebpf4jnsgd1na2vs0mg"},{"bike_id":"ed7690f8-d0b4-41ca-a701-db8f7e65c6b2","system_id":"levelo_inurba_marseille","lat":43.31488,"lon":5.37306,"is_reserved":false,"is_disabled":false,"rental_uris":{"android":"levelo://app?vid=ed7690f8-d0b4-41ca-a701-db8f7e65c6b2","ios":"levelo://app?vid=ed7690f8-d0b4-41ca-a701-db8f7e65c6b2"},"vehicle_type_id":"4","last_reported":1752240386,"current_range_meters":7200,"station_id":"ce4bgt12rcd13ifvqcd0","pricing_plan_id":"cebpf4jnsgd1na2vs0mg"},{"bike_id":"21ae54b9-7375-4101-b8a7-bff9d6e1fa32","system_id":"levelo_inurba_marseille","lat":43.29953,"lon":5.37697,"is_reserved":false,"is_disabled":false,"rental_uris":{"android":"levelo://app?vid=21ae54b9-7375-4101-b8a7-bff9d6e1fa32","ios":"levelo://app?vid=21ae54b9-7375-4101-b8a7-bff9d6e1fa32"},"vehicle_type_id":"4","last_reported":1752240386,"current_range_meters":7200,"station_id":"","pricing_plan_id":"cebpf4jnsgd1na2vs0mg"},{"bike_id":"b757ffbb-2b71-4330-9f60-5f8a9d46d16e","system_id":"levelo_inurba_marseille","lat":43.29659,"lon":5.37127,"is_reserved":false,"is_disabled":false,"rental_uris":{"android":"levelo://app?vid=b757ffbb-2b71-4330-9f60-5f8a9d46d16e","ios":"levelo://app?vid=b757ffbb-2b71-4330-9f60-5f8a9d46d16e"},"vehicle_type_id":"4","last_reported":1752240386,"current_range_meters":7200,"station_id":"","pricing_plan_id":"cebpf4jnsgd1na2vs0mg"},{"bike_id":"64872161-d6c2-487d-b870-fbe955698725","system_id":"levelo_inurba_marseille","lat":43.2928,"lon":5.40111,"is_reserved":false,"is_disabled":false,"rental_uris":{"android":"levelo://app?vid=64872161-d6c2-487d-b870-fbe955698725","ios":"levelo://app?vid=64872161-d6c2-487d-b870-fbe955698725"},"vehicle_type_id":"4","last_reported":1752240386,"current_range_meters":7200,"station_id":"ce4bh312rcd13ifvqdk0","pricing_plan_id":"cebpf4jnsgd1na2vs0mg"},{"bike_id":"0f7ee0a8-cdd3-47c0-a0b3-33e3d1dc2b0e","system_id":"levelo_inurba_marseille","lat":43.24544,"lon":5.39551,"is_reserved":false,"is_disabled":false,"rental_uris":{"android":"levelo://app?vid=0f7ee0a8-cdd3-47c0-a0b3-33e3d1dc2b0e","ios":"levelo://app?vid=0f7ee0a8-cdd3-47c0-a0b3-33e3d1dc2b0e"},"vehicle_type_id":"4","last_reported":1752240386,"current_range_meters":7200,"station_id":"ce4bhlp2rcd13ifvqgjg","pricing_plan_id":"cebpf4jnsgd1na2vs0mg"},{"bike_id":"e443cac3-8abc-47d4-93ae-2d43dfcb6300","system_id":"levelo_inurba_marseille","lat":43.295993,"lon":5.38551,"is_reserved":false,"is_disabled":false,"rental_uris":{"android":"levelo://app?vid=e443cac3-8abc-47d4-93ae-2d43dfcb6300","ios":"levelo://app?vid=e443cac3-8abc-47d4-93ae-2d43dfcb6300"},"vehicle_type_id":"4","last_reported":1752240386,"current_range_meters":7200,"station_id":"ce4bgih2rcd13ifvqba0","pricing_plan_id":"cebpf4jnsgd1na2vs0mg"},{"bike_id":"439eaa5e-a81f-4388-ab2a-0fd0215ab727","system_id":"levelo_inurba_marseille","lat":43.32342,"lon":5.40623,"is_reserved":false,"is_disabled":false,"rental_uris":{"android":"levelo://app?vid=439eaa5e-a81f-4388-ab2a-0fd0215ab727","ios":"levelo://app?vid=439eaa5e-a81f-4388-ab2a-0fd0215ab727"},"vehicle_type_id":"4","last_reported":1752240386,"current_range_meters":8000,"station_id":"ce4bhq92rcd13ifvqhjg","pricing_plan_id":"cebpf4jnsgd1na2vs0mg"},{"bike_id":"a1fb9f0e-7ce5-4e25-a640-0264f32a8d62","system_id":"levelo_inurba_marseille","lat":43.271732,"lon":5.409904,"is_reserved":false,"is_disabled":false,"rental_uris":{"android":"levelo://app?vid=a1fb9f0e-7ce5-4e25-a640-0264f32a8d62","ios":"levelo://app?vid=a1fb9f0e-7ce5-4e25-a640-0264f32a8d62"},"vehicle_type_id":"4","last_reported":1752240386,"current_range_meters":8000,"station_id":"ce4bhl12rcd13ifvqgf0","pricing_plan_id":"cebpf4jnsgd1na2vs0mg"},{"bike_id":"ee5e176b-45f1-4725-af6b-889cf7a36fbe","system_id":"levelo_inurba_marseille","lat":43.21749,"lon":5.34602,"is_reserved":false,"is_disabled":false,"rental_uris":{"android":"levelo://app?vid=ee5e176b-45f1-4725-af6b-889cf7a36fbe","ios":"levelo://app?vid=ee5e176b-45f1-4725-af6b-889cf7a36fbe"},"vehicle_type_id":"4","last_reported":1752240386,"current_range_meters":8000,"station_id":"st_cvj6r9ubvosntc0bgbag","pricing_plan_id":"cebpf4jnsgd1na2vs0mg"},{"bike_id":"84e55064-8e11-4d8d-a7f5-6c888c662a09","system_id":"levelo_inurba_marseille","lat":43.28612,"lon":5.37054,"is_reserved":false,"is_disabled":false,"rental_uris":{"android":"levelo://app?vid=84e55064-8e11-4d8d-a7f5-6c888c662a09","ios":"levelo://app?vid=84e55064-8e11-4d8d-a7f5-6c888c662a09"},"vehicle_type_id":"4","last_reported":1752240386,"current_range_meters":8400,"station_id":"ce4bht12rcd13ifvqi60","pricing_plan_id":"cebpf4jnsgd1na2vs0mg"},{"bike_id":"80778b69-e378-4576-a615-711c510ff883","system_id":"levelo_inurba_marseille","lat":43.30609,"lon":5.3722,"is_reserved":false,"is_disabled":false,"rental_uris":{"android":"levelo://app?vid=80778b69-e378-4576-a615-711c510ff883","ios":"levelo://app?vid=80778b69-e378-4576-a615-711c510ff883"},"vehicle_type_id":"4","last_reported":1752240386,"current_range_meters":8400,"station_id":"ce4bgqh2rcd13ifvqc4g","pricing_plan_id":"cebpf4jnsgd1na2vs0mg"},{"bike_id":"aefcdd74-6482-42e0-92ee-b3d9efe0d8e2","system_id":"levelo_inurba_marseille","lat":43.32472,"lon":5.36576,"is_reserved":false,"is_disabled":false,"rental_uris":{"android":"levelo://app?vid=aefcdd74-6482-42e0-92ee-b3d9efe0d8e2","ios":"levelo://app?vid=aefcdd74-6482-42e0-92ee-b3d9efe0d8e2"},"vehicle_type_id":"4","last_reported":1752240386,"current_range_meters":8400,"station_id":"ce4bhs12rcd13ifvqhvg","pricing_plan_id":"cebpf4jnsgd1na2vs0mg"},{"bike_id":"5d57464c-a178-4818-8fea-4ad29bcd5805","system_id":"levelo_inurba_marseille","lat":43.26937,"lon":5.38924,"is_reserved":false,"is_disabled":false,"rental_uris":{"android":"levelo://app?vid=5d57464c-a178-4818-8fea-4ad29bcd5805","ios":"levelo://app?vid=5d57464c-a178-4818-8fea-4ad29bcd5805"},"vehicle_type_id":"4","last_reported":1752240386,"current_range_meters":8400,"station_id":"ce4bhhh2rcd13ifvqfl0","pricing_plan_id":"cebpf4jnsgd1na2vs0mg"},{"bike_id":"9a077a47-6e72-4fac-ab43-301b0c84c392","system_id":"levelo_inurba_marseille","lat":43.303019,"lon":5.391804,"is_reserved":false,"is_disabled":false,"rental_uris":{"android":"levelo://app?vid=9a077a47-6e72-4fac-ab43-301b0c84c392","ios":"levelo://app?vid=9a077a47-6e72-4fac-ab43-301b0c84c392"},"vehicle_type_id":"4","last_reported":1752240386,"current_range_meters":8400,"station_id":"ce4bgkh2rcd13ifvqbk0","pricing_plan_id":"cebpf4jnsgd1na2vs0mg"},{"bike_id":"1408f5b4-00e6-4292-95c5-c525bd0fa600","system_id":"levelo_inurba_marseille","lat":43.27914,"lon":5.39589,"is_reserved":false,"is_disabled":false,"rental_uris":{"android":"levelo://app?vid=1408f5b4-00e6-4292-95c5-c525bd0fa600","ios":"levelo://app?vid=1408f5b4-00e6-4292-95c5-c525bd0fa600"},"vehicle_type_id":"4","last_reported":1752240386,"current_range_meters":8400,"station_id":"ce4bhf92rcd13ifvqf40","pricing_plan_id":"cebpf4jnsgd1na2vs0mg"},{"bike_id":"833f97ec-e704-4051-ab3b-2e9eb58f71d0","system_id":"levelo_inurba_marseille","lat":43.30238,"lon":5.37532,"is_reserved":false,"is_disabled":false,"rental_uris":{"android":"levelo://app?vid=833f97ec-e704-4051-ab3b-2e9eb58f71d0","ios":"levelo://app?vid=833f97ec-e704-4051-ab3b-2e9eb58f71d0"},"vehicle_type_id":"4","last_reported":1752240386,"current_range_meters":8400,"station_id":"","pricing_plan_id":"cebpf4jnsgd1na2vs0mg"},{"bike_id":"7dd9e2fb-9810-4ba8-b7d2-c10e7587dae7","system_id":"levelo_inurba_marseille","lat":43.23968,"lon":5.36634,"is_reserved":false,"is_disabled":false,"rental_uris":{"android":"levelo://app?vid=7dd9e2fb-9810-4ba8-b7d2-c10e7587dae7","ios":"levelo://app?vid=7dd9e2fb-9810-4ba8-b7d2-c10e7587dae7"},"vehicle_type_id":"4","last_reported":1752240386,"current_range_meters":8400,"station_id":"ce4bhi12rcd13ifvqfp0","pricing_plan_id":"cebpf4jnsgd1na2vs0mg"},{"bike_id":"d9b5440b-0a4f-42b7-9140-2fff902cd3b6","system_id":"levelo_inurba_marseille","lat":43.30884,"lon":5.39641,"is_reserved":false,"is_disabled":false,"rental_uris":{"android":"levelo://app?vid=d9b5440b-0a4f-42b7-9140-2fff902cd3b6","ios":"levelo://app?vid=d9b5440b-0a4f-42b7-9140-2fff902cd3b6"},"vehicle_type_id":"4","last_reported":1752240386,"current_range_meters":8800,"station_id":"ce4bh012rcd13ifvqcv0","pricing_plan_id":"cebpf4jnsgd1na2vs0mg"},{"bike_id":"e204274b-73ad-4c6f-862d-8af730ce2e2b","system_id":"levelo_inurba_marseille","lat":43.29556,"lon":5.42286,"is_reserved":false,"is_disabled":false,"rental_uris":{"android":"levelo://app?vid=e204274b-73ad-4c6f-862d-8af730ce2e2b","ios":"levelo://app?vid=e204274b-73ad-4c6f-862d-8af730ce2e2b"},"vehicle_type_id":"4","last_reported":1752240386,"current_range_meters":8800,"station_id":"ce4bhph2rcd13ifvqhdg","pricing_plan_id":"cebpf4jnsgd1na2vs0mg"},{"bike_id":"6fa0df8f-9ff1-40c3-a15b-344b5a0d383b","system_id":"levelo_inurba_marseille","lat":43.32369,"lon":5.36721,"is_reserved":false,"is_disabled":false,"rental_uris":{"android":"levelo://app?vid=6fa0df8f-9ff1-40c3-a15b-344b5a0d383b","ios":"levelo://app?vid=6fa0df8f-9ff1-40c3-a15b-344b5a0d383b"},"vehicle_type_id":"4","last_reported":1752240386,"current_range_meters":9200,"station_id":"ce4bhsh2rcd13ifvqi2g","pricing_plan_id":"cebpf4jnsgd1na2vs0mg"},{"bike_id":"b0502e5e-9bed-461d-a4b3-3398ff818b7d","system_id":"levelo_inurba_marseille","lat":43.2454,"lon":5.39531,"is_reserved":false,"is_disabled":false,"rental_uris":{"android":"levelo://app?vid=b0502e5e-9bed-461d-a4b3-3398ff818b7d","ios":"levelo://app?vid=b0502e5e-9bed-461d-a4b3-3398ff818b7d"},"vehicle_type_id":"4","last_reported":1752240386,"current_range_meters":8800,"station_id":"ce4bhlp2rcd13ifvqgjg","pricing_plan_id":"cebpf4jnsgd1na2vs0mg"},{"bike_id":"ea7f713a-f8eb-4f16-8168-36d2161084e8","system_id":"levelo_inurba_marseille","lat":43.27855,"lon":5.39494,"is_reserved":false,"is_disabled":false,"rental_uris":{"android":"levelo://app?vid=ea7f713a-f8eb-4f16-8168-36d2161084e8","ios":"levelo://app?vid=ea7f713a-f8eb-4f16-8168-36d2161084e8"},"vehicle_type_id":"4","last_reported":1752240386,"current_range_meters":9600,"station_id":"","pricing_plan_id":"cebpf4jnsgd1na2vs0mg"},{"bike_id":"7ebbf6da-26eb-4ce2-824d-abaece9e4a95","system_id":"levelo_inurba_marseille","lat":43.27943,"lon":5.41048,"is_reserved":false,"is_disabled":false,"rental_uris":{"android":"levelo://app?vid=7ebbf6da-26eb-4ce2-824d-abaece9e4a95","ios":"levelo://app?vid=7ebbf6da-26eb-4ce2-824d-abaece9e4a95"},"vehicle_type_id":"4","last_reported":1752240386,"current_range_meters":9600,"station_id":"ce4bhnp2rcd13ifvqh0g","pricing_plan_id":"cebpf4jnsgd1na2vs0mg"},{"bike_id":"ca37c346-ca1f-45c8-a09d-8108ee20d2d3","system_id":"levelo_inurba_marseille","lat":43.24158,"lon":5.36445,"is_reserved":false,"is_disabled":false,"rental_uris":{"android":"levelo://app?vid=ca37c346-ca1f-45c8-a09d-8108ee20d2d3","ios":"levelo://app?vid=ca37c346-ca1f-45c8-a09d-8108ee20d2d3"},"vehicle_type_id":"4","last_reported":1752240386,"current_range_meters":9600,"station_id":"cpo36qri1sfpv3e86is0","pricing_plan_id":"cebpf4jnsgd1na2vs0mg"},{"bike_id":"df9d904e-a43c-40dc-b9f5-07088bb564c7","system_id":"levelo_inurba_marseille","lat":43.28401,"lon":5.3751,"is_reserved":false,"is_disabled":false,"rental_uris":{"android":"levelo://app?vid=df9d904e-a43c-40dc-b9f5-07088bb564c7","ios":"levelo://app?vid=df9d904e-a43c-40dc-b9f5-07088bb564c7"},"vehicle_type_id":"4","last_reported":1752240386,"current_range_meters":10000,"station_id":"ce4bh412rcd13ifvqds0","pricing_plan_id":"cebpf4jnsgd1na2vs0mg"},{"bike_id":"fb635f8a-861f-4951-8730-3224ff8a91f5","system_id":"levelo_inurba_marseille","lat":43.27366,"lon":5.36259,"is_reserved":false,"is_disabled":false,"rental_uris":{"android":"levelo://app?vid=fb635f8a-861f-4951-8730-3224ff8a91f5","ios":"levelo://app?vid=fb635f8a-861f-4951-8730-3224ff8a91f5"},"vehicle_type_id":"4","last_reported":1752240386,"current_range_meters":10000,"station_id":"ce4bhbh2rcd13ifvqeo0","pricing_plan_id":"cebpf4jnsgd1na2vs0mg"},{"bike_id":"7c2d071d-3793-47df-b931-9d1ad060c48c","system_id":"levelo_inurba_marseille","lat":43.29552,"lon":5.42293,"is_reserved":false,"is_disabled":false,"rental_uris":{"android":"levelo://app?vid=7c2d071d-3793-47df-b931-9d1ad060c48c","ios":"levelo://app?vid=7c2d071d-3793-47df-b931-9d1ad060c48c"},"vehicle_type_id":"4","last_reported":1752240386,"current_range_meters":10000,"station_id":"ce4bhph2rcd13ifvqhdg","pricing_plan_id":"cebpf4jnsgd1na2vs0mg"},{"bike_id":"c15080dd-6329-4b49-bc32-1ed1ff178ac9","system_id":"levelo_inurba_marseille","lat":43.284811,"lon":5.385672,"is_reserved":false,"is_disabled":false,"rental_uris":{"android":"levelo://app?vid=c15080dd-6329-4b49-bc32-1ed1ff178ac9","ios":"levelo://app?vid=c15080dd-6329-4b49-bc32-1ed1ff178ac9"},"vehicle_type_id":"4","last_reported":1752240386,"current_range_meters":10000,"station_id":"ce4bh8p2rcd13ifvqeb0","pricing_plan_id":"cebpf4jnsgd1na2vs0mg"},{"bike_id":"bacc4d5c-7215-4280-b46f-16c62254f369","system_id":"levelo_inurba_marseille","lat":43.29198,"lon":5.39323,"is_reserved":false,"is_disabled":false,"rental_uris":{"android":"levelo://app?vid=bacc4d5c-7215-4280-b46f-16c62254f369","ios":"levelo://app?vid=bacc4d5c-7215-4280-b46f-16c62254f369"},"vehicle_type_id":"4","last_reported":1752240386,"current_range_meters":10000,"station_id":"ce4bh192rcd13ifvqdd0","pricing_plan_id":"cebpf4jnsgd1na2vs0mg"},{"bike_id":"cd63c3f6-7364-405c-b188-ba9ab4a074f3","system_id":"levelo_inurba_marseille","lat":43.2175,"lon":5.345982,"is_reserved":false,"is_disabled":false,"rental_uris":{"android":"levelo://app?vid=cd63c3f6-7364-405c-b188-ba9ab4a074f3","ios":"levelo://app?vid=cd63c3f6-7364-405c-b188-ba9ab4a074f3"},"vehicle_type_id":"4","last_reported":1752240386,"current_range_meters":10800,"station_id":"st_cvj6r9ubvosntc0bgbag","pricing_plan_id":"cebpf4jnsgd1na2vs0mg"},{"bike_id":"81346845-e563-4a54-9cf3-0e2793adb323","system_id":"levelo_inurba_marseille","lat":43.3376,"lon":5.37467,"is_reserved":false,"is_disabled":false,"rental_uris":{"android":"levelo://app?vid=81346845-e563-4a54-9cf3-0e2793adb323","ios":"levelo://app?vid=81346845-e563-4a54-9cf3-0e2793adb323"},"vehicle_type_id":"4","last_reported":1752240386,"current_range_meters":10800,"station_id":"","pricing_plan_id":"cebpf4jnsgd1na2vs0mg"},{"bike_id":"73fe94e8-74f9-41f0-85e9-7d8c52adf2fc","system_id":"levelo_inurba_marseille","lat":43.212718,"lon":5.352754,"is_reserved":false,"is_disabled":false,"rental_uris":{"android":"levelo://app?vid=73fe94e8-74f9-41f0-85e9-7d8c52adf2fc","ios":"levelo://app?vid=73fe94e8-74f9-41f0-85e9-7d8c52adf2fc"},"vehicle_type_id":"4","last_reported":1752240386,"current_range_meters":10800,"station_id":"","pricing_plan_id":"cebpf4jnsgd1na2vs0mg"},{"bike_id":"658b5320-f54e-4d3f-95f7-79f55a4ebdc4","system_id":"levelo_inurba_marseille","lat":43.26211,"lon":5.40453,"is_reserved":false,"is_disabled":false,"rental_uris":{"android":"levelo://app?vid=658b5320-f54e-4d3f-95f7-79f55a4ebdc4","ios":"levelo://app?vid=658b5320-f54e-4d3f-95f7-79f55a4ebdc4"},"vehicle_type_id":"4","last_reported":1752240386,"current_range_meters":10800,"station_id":"ce4bhmh2rcd13ifvqgmg","pricing_plan_id":"cebpf4jnsgd1na2vs0mg"},{"bike_id":"9f5e74ce-2459-4c6f-a171-f6d1e8a1ed83","system_id":"levelo_inurba_marseille","lat":43.31868,"lon":5.3754,"is_reserved":false,"is_disabled":false,"rental_uris":{"android":"levelo://app?vid=9f5e74ce-2459-4c6f-a171-f6d1e8a1ed83","ios":"levelo://app?vid=9f5e74ce-2459-4c6f-a171-f6d1e8a1ed83"},"vehicle_type_id":"4","last_reported":1752240386,"current_range_meters":10800,"station_id":"","pricing_plan_id":"cebpf4jnsgd1na2vs0mg"},{"bike_id":"939db09d-05ee-4a33-9a11-3bc1fcb5e51a","system_id":"levelo_inurba_marseille","lat":43.31488,"lon":5.37311,"is_reserved":false,"is_disabled":false,"rental_uris":{"android":"levelo://app?vid=939db09d-05ee-4a33-9a11-3bc1fcb5e51a","ios":"levelo://app?vid=939db09d-05ee-4a33-9a11-3bc1fcb5e51a"},"vehicle_type_id":"4","last_reported":1752240386,"current_range_meters":10800,"station_id":"ce4bgt12rcd13ifvqcd0","pricing_plan_id":"cebpf4jnsgd1na2vs0mg"},{"bike_id":"718aff8d-4f05-4e31-8ebf-f09ac437893d","system_id":"levelo_inurba_marseille","lat":43.24163,"lon":5.36398,"is_reserved":false,"is_disabled":false,"rental_uris":{"android":"levelo://app?vid=718aff8d-4f05-4e31-8ebf-f09ac437893d","ios":"levelo://app?vid=718aff8d-4f05-4e31-8ebf-f09ac437893d"},"vehicle_type_id":"4","last_reported":1752240386,"current_range_meters":10800,"station_id":"cpo36qri1sfpv3e86is0","pricing_plan_id":"cebpf4jnsgd1na2vs0mg"},{"bike_id":"21cc4a87-2424-44a2-8db3-1f99d6545494","system_id":"levelo_inurba_marseille","lat":43.21749,"lon":5.34606,"is_reserved":false,"is_disabled":false,"rental_uris":{"android":"levelo://app?vid=21cc4a87-2424-44a2-8db3-1f99d6545494","ios":"levelo://app?vid=21cc4a87-2424-44a2-8db3-1f99d6545494"},"vehicle_type_id":"4","last_reported":1752240386,"current_range_meters":10800,"station_id":"st_cvj6r9ubvosntc0bgbag","pricing_plan_id":"cebpf4jnsgd1na2vs0mg"},{"bike_id":"4e209b0c-855f-4b51-8120-2faef8673853","system_id":"levelo_inurba_marseille","lat":43.306073,"lon":5.368955,"is_reserved":false,"is_disabled":false,"rental_uris":{"android":"levelo://app?vid=4e209b0c-855f-4b51-8120-2faef8673853","ios":"levelo://app?vid=4e209b0c-855f-4b51-8120-2faef8673853"},"vehicle_type_id":"4","last_reported":1752240386,"current_range_meters":10800,"station_id":"","pricing_plan_id":"cebpf4jnsgd1na2vs0mg"},{"bike_id":"b7f108a7-8a29-41b3-a471-653da9f63827","system_id":"levelo_inurba_marseille","lat":43.287147,"lon":5.373941,"is_reserved":false,"is_disabled":false,"rental_uris":{"android":"levelo://app?vid=b7f108a7-8a29-41b3-a471-653da9f63827","ios":"levelo://app?vid=b7f108a7-8a29-41b3-a471-653da9f63827"},"vehicle_type_id":"4","last_reported":1752240386,"current_range_meters":11200,"station_id":"ce4bh3p2rcd13ifvqdq0","pricing_plan_id":"cebpf4jnsgd1na2vs0mg"},{"bike_id":"ca409ee8-de50-446b-85ac-968f7703c2f0","system_id":"levelo_inurba_marseille","lat":43.26685,"lon":5.38277,"is_reserved":false,"is_disabled":false,"rental_uris":{"android":"levelo://app?vid=ca409ee8-de50-446b-85ac-968f7703c2f0","ios":"levelo://app?vid=ca409ee8-de50-446b-85ac-968f7703c2f0"},"vehicle_type_id":"4","last_reported":1752240386,"current_range_meters":11200,"station_id":"ce4bhg92rcd13ifvqf90","pricing_plan_id":"cebpf4jnsgd1na2vs0mg"},{"bike_id":"39e8aea4-b2c2-4f2e-9b0d-df31cd915ba4","system_id":"levelo_inurba_marseille","lat":43.24394,"lon":5.37062,"is_reserved":false,"is_disabled":false,"rental_uris":{"android":"levelo://app?vid=39e8aea4-b2c2-4f2e-9b0d-df31cd915ba4","ios":"levelo://app?vid=39e8aea4-b2c2-4f2e-9b0d-df31cd915ba4"},"vehicle_type_id":"4","last_reported":1752240386,"current_range_meters":11200,"station_id":"ce4bhhh2rcd13ifvqfk0","pricing_plan_id":"cebpf4jnsgd1na2vs0mg"},{"bike_id":"6b465ee5-e09a-471f-adcd-4c6d7399b408","system_id":"levelo_inurba_marseille","lat":43.29197,"lon":5.35813,"is_reserved":false,"is_disabled":false,"rental_uris":{"android":"levelo://app?vid=6b465ee5-e09a-471f-adcd-4c6d7399b408","ios":"levelo://app?vid=6b465ee5-e09a-471f-adcd-4c6d7399b408"},"vehicle_type_id":"4","last_reported":1752240386,"current_range_meters":11600,"station_id":"ce4bhb12rcd13ifvqel0","pricing_plan_id":"cebpf4jnsgd1na2vs0mg"},{"bike_id":"5a7b57ef-a00d-4d19-853c-d49c119db95f","system_id":"levelo_inurba_marseille","lat":43.24566,"lon":5.3734,"is_reserved":false,"is_disabled":false,"rental_uris":{"android":"levelo://app?vid=5a7b57ef-a00d-4d19-853c-d49c119db95f","ios":"levelo://app?vid=5a7b57ef-a00d-4d19-853c-d49c119db95f"},"vehicle_type_id":"4","last_reported":1752240386,"current_range_meters":11600,"station_id":"","pricing_plan_id":"cebpf4jnsgd1na2vs0mg"},{"bike_id":"f08a24ac-bbfd-4b1a-9784-9ba453850a3c","system_id":"levelo_inurba_marseille","lat":43.26809,"lon":5.40272,"is_reserved":false,"is_disabled":false,"rental_uris":{"android":"levelo://app?vid=f08a24ac-bbfd-4b1a-9784-9ba453850a3c","ios":"levelo://app?vid=f08a24ac-bbfd-4b1a-9784-9ba453850a3c"},"vehicle_type_id":"4","last_reported":1752240386,"current_range_meters":11600,"station_id":"ce501612rcd8frsf0b60","pricing_plan_id":"cebpf4jnsgd1na2vs0mg"},{"bike_id":"21df582f-c3f5-46fc-a8c7-efa5e6a56705","system_id":"levelo_inurba_marseille","lat":43.21746,"lon":5.34605,"is_reserved":false,"is_disabled":false,"rental_uris":{"android":"levelo://app?vid=21df582f-c3f5-46fc-a8c7-efa5e6a56705","ios":"levelo://app?vid=21df582f-c3f5-46fc-a8c7-efa5e6a56705"},"vehicle_type_id":"4","last_reported":1752240386,"current_range_meters":11600,"station_id":"st_cvj6r9ubvosntc0bgbag","pricing_plan_id":"cebpf4jnsgd1na2vs0mg"},{"bike_id":"54bc9077-725f-4289-9343-f1def2cc68ee","system_id":"levelo_inurba_marseille","lat":43.307151,"lon":5.371884,"is_reserved":false,"is_disabled":false,"rental_uris":{"android":"levelo://app?vid=54bc9077-725f-4289-9343-f1def2cc68ee","ios":"levelo://app?vid=54bc9077-725f-4289-9343-f1def2cc68ee"},"vehicle_type_id":"4","last_reported":1752240386,"current_range_meters":11600,"station_id":"ce4bguh2rcd13ifvqckg","pricing_plan_id":"cebpf4jnsgd1na2vs0mg"},{"bike_id":"d819eef6-8e24-4d3f-af07-1a402618f324","system_id":"levelo_inurba_marseille","lat":43.3056,"lon":5.36544,"is_reserved":false,"is_disabled":false,"rental_uris":{"android":"levelo://app?vid=d819eef6-8e24-4d3f-af07-1a402618f324","ios":"levelo://app?vid=d819eef6-8e24-4d3f-af07-1a402618f324"},"vehicle_type_id":"4","last_reported":1752240386,"current_range_meters":11600,"station_id":"ce4bgs12rcd13ifvqcag","pricing_plan_id":"cebpf4jnsgd1na2vs0mg"},{"bike_id":"2c17d96f-4770-4ebd-bbd8-160cb7ecf197","system_id":"levelo_inurba_marseille","lat":43.30905,"lon":5.36843,"is_reserved":false,"is_disabled":false,"rental_uris":{"android":"levelo://app?vid=2c17d96f-4770-4ebd-bbd8-160cb7ecf197","ios":"levelo://app?vid=2c17d96f-4770-4ebd-bbd8-160cb7ecf197"},"vehicle_type_id":"4","last_reported":1752240386,"current_range_meters":12000,"station_id":"ce4bgn92rcd13ifvqbvg","pricing_plan_id":"cebpf4jnsgd1na2vs0mg"},{"bike_id":"8330a68f-2f6e-4337-9657-35d7d87c04ca","system_id":"levelo_inurba_marseille","lat":43.25451,"lon":5.37946,"is_reserved":false,"is_disabled":false,"rental_uris":{"android":"levelo://app?vid=8330a68f-2f6e-4337-9657-35d7d87c04ca","ios":"levelo://app?vid=8330a68f-2f6e-4337-9657-35d7d87c04ca"},"vehicle_type_id":"4","last_reported":1752240386,"current_range_meters":12000,"station_id":"","pricing_plan_id":"cebpf4jnsgd1na2vs0mg"},{"bike_id":"a1a7585c-fa24-487c-a6d1-551d73c00678","system_id":"levelo_inurba_marseille","lat":43.26214,"lon":5.37438,"is_reserved":false,"is_disabled":false,"rental_uris":{"android":"levelo://app?vid=a1a7585c-fa24-487c-a6d1-551d73c00678","ios":"levelo://app?vid=a1a7585c-fa24-487c-a6d1-551d73c00678"},"vehicle_type_id":"4","last_reported":1752240386,"current_range_meters":12000,"station_id":"ce4bhgp2rcd13ifvqfc0","pricing_plan_id":"cebpf4jnsgd1na2vs0mg"},{"bike_id":"f78449e2-7d44-4571-9947-41ae79d4b3c6","system_id":"levelo_inurba_marseille","lat":43.28624,"lon":5.35104,"is_reserved":false,"is_disabled":false,"rental_uris":{"android":"levelo://app?vid=f78449e2-7d44-4571-9947-41ae79d4b3c6","ios":"levelo://app?vid=f78449e2-7d44-4571-9947-41ae79d4b3c6"},"vehicle_type_id":"4","last_reported":1752240386,"current_range_meters":12000,"station_id":"ce4bhch2rcd13ifvqeug","pricing_plan_id":"cebpf4jnsgd1na2vs0mg"},{"bike_id":"eb3700d4-3e5a-48b5-aada-8550d1bfda41","system_id":"levelo_inurba_marseille","lat":43.28857,"lon":5.35853,"is_reserved":false,"is_disabled":false,"rental_uris":{"android":"levelo://app?vid=eb3700d4-3e5a-48b5-aada-8550d1bfda41","ios":"levelo://app?vid=eb3700d4-3e5a-48b5-aada-8550d1bfda41"},"vehicle_type_id":"4","last_reported":1752240386,"current_range_meters":12000,"station_id":"ce4bhb12rcd13ifvqem0","pricing_plan_id":"cebpf4jnsgd1na2vs0mg"},{"bike_id":"db4f86b3-2385-4494-8b33-d0d7cc1c855a","system_id":"levelo_inurba_marseille","lat":43.28681,"lon":5.38643,"is_reserved":false,"is_disabled":false,"rental_uris":{"android":"levelo://app?vid=db4f86b3-2385-4494-8b33-d0d7cc1c855a","ios":"levelo://app?vid=db4f86b3-2385-4494-8b33-d0d7cc1c855a"},"vehicle_type_id":"4","last_reported":1752240386,"current_range_meters":12000,"station_id":"ce4bh492rcd13ifvqdug","pricing_plan_id":"cebpf4jnsgd1na2vs0mg"},{"bike_id":"815e27c5-951e-45f8-a0dd-764d99208be7","system_id":"levelo_inurba_marseille","lat":43.2621,"lon":5.3744,"is_reserved":false,"is_disabled":false,"rental_uris":{"android":"levelo://app?vid=815e27c5-951e-45f8-a0dd-764d99208be7","ios":"levelo://app?vid=815e27c5-951e-45f8-a0dd-764d99208be7"},"vehicle_type_id":"4","last_reported":1752240386,"current_range_meters":12400,"station_id":"ce4bhgp2rcd13ifvqfc0","pricing_plan_id":"cebpf4jnsgd1na2vs0mg"},{"bike_id":"6e9c4ec1-564d-4e01-9fc0-418d8a9c163e","system_id":"levelo_inurba_marseille","lat":43.2175,"lon":5.34603,"is_reserved":false,"is_disabled":false,"rental_uris":{"android":"levelo://app?vid=6e9c4ec1-564d-4e01-9fc0-418d8a9c163e","ios":"levelo://app?vid=6e9c4ec1-564d-4e01-9fc0-418d8a9c163e"},"vehicle_type_id":"4","last_reported":1752240386,"current_range_meters":12400,"station_id":"st_cvj6r9ubvosntc0bgbag","pricing_plan_id":"cebpf4jnsgd1na2vs0mg"},{"bike_id":"80900b71-12dd-420e-a341-60327296484e","system_id":"levelo_inurba_marseille","lat":43.28838,"lon":5.35854,"is_reserved":false,"is_disabled":false,"rental_uris":{"android":"levelo://app?vid=80900b71-12dd-420e-a341-60327296484e","ios":"levelo://app?vid=80900b71-12dd-420e-a341-60327296484e"},"vehicle_type_id":"4","last_reported":1752240386,"current_range_meters":12400,"station_id":"ce4bhb12rcd13ifvqem0","pricing_plan_id":"cebpf4jnsgd1na2vs0mg"},{"bike_id":"8f89e4f3-495a-4317-bd6d-37a19186d65b","system_id":"levelo_inurba_marseille","lat":43.33737,"lon":5.39192,"is_reserved":false,"is_disabled":false,"rental_uris":{"android":"levelo://app?vid=8f89e4f3-495a-4317-bd6d-37a19186d65b","ios":"levelo://app?vid=8f89e4f3-495a-4317-bd6d-37a19186d65b"},"vehicle_type_id":"4","last_reported":1752240386,"current_range_meters":12400,"station_id":"ce4bhr92rcd13ifvqhsg","pricing_plan_id":"cebpf4jnsgd1na2vs0mg"},{"bike_id":"a2f087e4-2174-4792-b543-bc2fc14fed30","system_id":"levelo_inurba_marseille","lat":43.28422,"lon":5.34976,"is_reserved":false,"is_disabled":false,"rental_uris":{"android":"levelo://app?vid=a2f087e4-2174-4792-b543-bc2fc14fed30","ios":"levelo://app?vid=a2f087e4-2174-4792-b543-bc2fc14fed30"},"vehicle_type_id":"4","last_reported":1752240386,"current_range_meters":12400,"station_id":"ce4bhbh2rcd13ifvqepg","pricing_plan_id":"cebpf4jnsgd1na2vs0mg"},{"bike_id":"c3c5b26c-e834-4db6-994b-52abb31f20f1","system_id":"levelo_inurba_marseille","lat":43.240699,"lon":5.377567,"is_reserved":false,"is_disabled":false,"rental_uris":{"android":"levelo://app?vid=c3c5b26c-e834-4db6-994b-52abb31f20f1","ios":"levelo://app?vid=c3c5b26c-e834-4db6-994b-52abb31f20f1"},"vehicle_type_id":"4","last_reported":1752240386,"current_range_meters":12800,"station_id":"ce4bhnp2rcd13ifvqgvg","pricing_plan_id":"cebpf4jnsgd1na2vs0mg"},{"bike_id":"7ba2ba0c-38e9-47e7-b93f-11e0e30c9c7a","system_id":"levelo_inurba_marseille","lat":43.30155,"lon":5.38074,"is_reserved":false,"is_disabled":false,"rental_uris":{"android":"levelo://app?vid=7ba2ba0c-38e9-47e7-b93f-11e0e30c9c7a","ios":"levelo://app?vid=7ba2ba0c-38e9-47e7-b93f-11e0e30c9c7a"},"vehicle_type_id":"4","last_reported":1752240386,"current_range_meters":12800,"station_id":"ce4bgjp2rcd13ifvqbh0","pricing_plan_id":"cebpf4jnsgd1na2vs0mg"},{"bike_id":"d849a247-c2c0-4619-bac8-f5a6994e0014","system_id":"levelo_inurba_marseille","lat":43.320377,"lon":5.415672,"is_reserved":false,"is_disabled":true,"rental_uris":{"android":"levelo://app?vid=d849a247-c2c0-4619-bac8-f5a6994e0014","ios":"levelo://app?vid=d849a247-c2c0-4619-bac8-f5a6994e0014"},"vehicle_type_id":"4","last_reported":1752240386,"current_range_meters":12800,"station_id":"ce4bhq92rcd13ifvqhkg","pricing_plan_id":"cebpf4jnsgd1na2vs0mg"},{"bike_id":"c74b27ee-3cfc-4e11-b4c4-f418cd2e9569","system_id":"levelo_inurba_marseille","lat":43.24182,"lon":5.36372,"is_reserved":false,"is_disabled":false,"rental_uris":{"android":"levelo://app?vid=c74b27ee-3cfc-4e11-b4c4-f418cd2e9569","ios":"levelo://app?vid=c74b27ee-3cfc-4e11-b4c4-f418cd2e9569"},"vehicle_type_id":"4","last_reported":1752240386,"current_range_meters":12800,"station_id":"cpo36qri1sfpv3e86is0","pricing_plan_id":"cebpf4jnsgd1na2vs0mg"},{"bike_id":"2c702aa4-2ac5-4550-b697-5b3cdcd314b3","system_id":"levelo_inurba_marseille","lat":43.320345,"lon":5.415691,"is_reserved":false,"is_disabled":false,"rental_uris":{"android":"levelo://app?vid=2c702aa4-2ac5-4550-b697-5b3cdcd314b3","ios":"levelo://app?vid=2c702aa4-2ac5-4550-b697-5b3cdcd314b3"},"vehicle_type_id":"4","last_reported":1752240386,"current_range_meters":13600,"station_id":"ce4bhq92rcd13ifvqhkg","pricing_plan_id":"cebpf4jnsgd1na2vs0mg"},{"bike_id":"823ef37f-20a8-4c39-8134-3e6a506b1235","system_id":"levelo_inurba_marseille","lat":43.23186,"lon":5.35545,"is_reserved":false,"is_disabled":false,"rental_uris":{"android":"levelo://app?vid=823ef37f-20a8-4c39-8134-3e6a506b1235","ios":"levelo://app?vid=823ef37f-20a8-4c39-8134-3e6a506b1235"},"vehicle_type_id":"4","last_reported":1752240386,"current_range_meters":13600,"station_id":"ce4bhu92rcd13ifvqi70","pricing_plan_id":"cebpf4jnsgd1na2vs0mg"},{"bike_id":"f1e29bb2-107b-4bf3-8bae-1a9c40e9b8fd","system_id":"levelo_inurba_marseille","lat":43.30142,"lon":5.38794,"is_reserved":false,"is_disabled":false,"rental_uris":{"android":"levelo://app?vid=f1e29bb2-107b-4bf3-8bae-1a9c40e9b8fd","ios":"levelo://app?vid=f1e29bb2-107b-4bf3-8bae-1a9c40e9b8fd"},"vehicle_type_id":"4","last_reported":1752240386,"current_range_meters":13600,"station_id":"ce4bghh2rcd13ifvqb60","pricing_plan_id":"cebpf4jnsgd1na2vs0mg"},{"bike_id":"4464c91a-b8cf-48b1-82b6-b9f3398a5c02","system_id":"levelo_inurba_marseille","lat":43.2842,"lon":5.34991,"is_reserved":false,"is_disabled":false,"rental_uris":{"android":"levelo://app?vid=4464c91a-b8cf-48b1-82b6-b9f3398a5c02","ios":"levelo://app?vid=4464c91a-b8cf-48b1-82b6-b9f3398a5c02"},"vehicle_type_id":"4","last_reported":1752240386,"current_range_meters":13600,"station_id":"ce4bhbh2rcd13ifvqepg","pricing_plan_id":"cebpf4jnsgd1na2vs0mg"},{"bike_id":"cbd6990c-2d10-4be5-aecd-e63e3a73b0f0","system_id":"levelo_inurba_marseille","lat":43.30888,"lon":5.37195,"is_reserved":false,"is_disabled":false,"rental_uris":{"android":"levelo://app?vid=cbd6990c-2d10-4be5-aecd-e63e3a73b0f0","ios":"levelo://app?vid=cbd6990c-2d10-4be5-aecd-e63e3a73b0f0"},"vehicle_type_id":"4","last_reported":1752240386,"current_range_meters":14000,"station_id":"ce4bguh2rcd13ifvqckg","pricing_plan_id":"cebpf4jnsgd1na2vs0mg"},{"bike_id":"4cbd8612-f2cb-4960-bc03-42cf783b6414","system_id":"levelo_inurba_marseille","lat":43.2846,"lon":5.35901,"is_reserved":false,"is_disabled":false,"rental_uris":{"android":"levelo://app?vid=4cbd8612-f2cb-4960-bc03-42cf783b6414","ios":"levelo://app?vid=4cbd8612-f2cb-4960-bc03-42cf783b6414"},"vehicle_type_id":"4","last_reported":1752240386,"current_range_meters":14000,"station_id":"ce4bhah2rcd13ifvqei0","pricing_plan_id":"cebpf4jnsgd1na2vs0mg"},{"bike_id":"dcc5af8d-152f-4f47-9491-dd69e3f36aa1","system_id":"levelo_inurba_marseille","lat":43.25496,"lon":5.37655,"is_reserved":false,"is_disabled":false,"rental_uris":{"android":"levelo://app?vid=dcc5af8d-152f-4f47-9491-dd69e3f36aa1","ios":"levelo://app?vid=dcc5af8d-152f-4f47-9491-dd69e3f36aa1"},"vehicle_type_id":"4","last_reported":1752240386,"current_range_meters":14000,"station_id":"ce4bhh12rcd13ifvqff0","pricing_plan_id":"cebpf4jnsgd1na2vs0mg"},{"bike_id":"81f14ef3-72ec-4dcc-8a86-a48ac80d9d9a","system_id":"levelo_inurba_marseille","lat":43.305502,"lon":5.365417,"is_reserved":false,"is_disabled":false,"rental_uris":{"android":"levelo://app?vid=81f14ef3-72ec-4dcc-8a86-a48ac80d9d9a","ios":"levelo://app?vid=81f14ef3-72ec-4dcc-8a86-a48ac80d9d9a"},"vehicle_type_id":"4","last_reported":1752240386,"current_range_meters":14000,"station_id":"ce4bgs12rcd13ifvqcag","pricing_plan_id":"cebpf4jnsgd1na2vs0mg"},{"bike_id":"d263de9c-115f-417f-977b-8d0ef8cd06ed","system_id":"levelo_inurba_marseille","lat":43.30539,"lon":5.36702,"is_reserved":false,"is_disabled":false,"rental_uris":{"android":"levelo://app?vid=d263de9c-115f-417f-977b-8d0ef8cd06ed","ios":"levelo://app?vid=d263de9c-115f-417f-977b-8d0ef8cd06ed"},"vehicle_type_id":"4","last_reported":1752240386,"current_range_meters":14400,"station_id":"ce4bh312rcd13ifvqdj0","pricing_plan_id":"cebpf4jnsgd1na2vs0mg"},{"bike_id":"e73c8b25-d4f0-4858-a556-2538c44d800b","system_id":"levelo_inurba_marseille","lat":43.30787,"lon":5.3764,"is_reserved":false,"is_disabled":false,"rental_uris":{"android":"levelo://app?vid=e73c8b25-d4f0-4858-a556-2538c44d800b","ios":"levelo://app?vid=e73c8b25-d4f0-4858-a556-2538c44d800b"},"vehicle_type_id":"4","last_reported":1752240386,"current_range_meters":14000,"station_id":"ce4bgv92rcd13ifvqcq0","pricing_plan_id":"cebpf4jnsgd1na2vs0mg"},{"bike_id":"4d4b9e28-a4f6-4d45-ac6b-64a63a768bd8","system_id":"levelo_inurba_marseille","lat":43.315148,"lon":5.374143,"is_reserved":false,"is_disabled":false,"rental_uris":{"android":"levelo://app?vid=4d4b9e28-a4f6-4d45-ac6b-64a63a768bd8","ios":"levelo://app?vid=4d4b9e28-a4f6-4d45-ac6b-64a63a768bd8"},"vehicle_type_id":"4","last_reported":1752240386,"current_range_meters":14400,"station_id":"","pricing_plan_id":"cebpf4jnsgd1na2vs0mg"},{"bike_id":"52c758bc-9c10-44da-ba85-5a546eb3e467","system_id":"levelo_inurba_marseille","lat":43.28616,"lon":5.35111,"is_reserved":false,"is_disabled":false,"rental_uris":{"android":"levelo://app?vid=52c758bc-9c10-44da-ba85-5a546eb3e467","ios":"levelo://app?vid=52c758bc-9c10-44da-ba85-5a546eb3e467"},"vehicle_type_id":"4","last_reported":1752240386,"current_range_meters":14400,"station_id":"ce4bhch2rcd13ifvqeug","pricing_plan_id":"cebpf4jnsgd1na2vs0mg"},{"bike_id":"595e9351-a7ce-45de-8995-771f7d9fe86e","system_id":"levelo_inurba_marseille","lat":43.309243,"lon":5.378088,"is_reserved":false,"is_disabled":false,"rental_uris":{"android":"levelo://app?vid=595e9351-a7ce-45de-8995-771f7d9fe86e","ios":"levelo://app?vid=595e9351-a7ce-45de-8995-771f7d9fe86e"},"vehicle_type_id":"4","last_reported":1752240386,"current_range_meters":14400,"station_id":"","pricing_plan_id":"cebpf4jnsgd1na2vs0mg"},{"bike_id":"6e44525d-ed45-445a-a877-081b94eb5813","system_id":"levelo_inurba_marseille","lat":43.303555,"lon":5.418878,"is_reserved":false,"is_disabled":true,"rental_uris":{"android":"levelo://app?vid=6e44525d-ed45-445a-a877-081b94eb5813","ios":"levelo://app?vid=6e44525d-ed45-445a-a877-081b94eb5813"},"vehicle_type_id":"4","last_reported":1752240386,"current_range_meters":14400,"station_id":"ce4bhop2rcd13ifvqh7g","pricing_plan_id":"cebpf4jnsgd1na2vs0mg"},{"bike_id":"e3a75ee9-c614-467b-8cc2-f813bcef2ab1","system_id":"levelo_inurba_marseille","lat":43.33743,"lon":5.3919,"is_reserved":false,"is_disabled":false,"rental_uris":{"android":"levelo://app?vid=e3a75ee9-c614-467b-8cc2-f813bcef2ab1","ios":"levelo://app?vid=e3a75ee9-c614-467b-8cc2-f813bcef2ab1"},"vehicle_type_id":"4","last_reported":1752240386,"current_range_meters":14400,"station_id":"ce4bhr92rcd13ifvqhsg","pricing_plan_id":"cebpf4jnsgd1na2vs0mg"},{"bike_id":"dc745791-e4b0-4e9a-bf26-a83de36e49d9","system_id":"levelo_inurba_marseille","lat":43.28613,"lon":5.35094,"is_reserved":false,"is_disabled":false,"rental_uris":{"android":"levelo://app?vid=dc745791-e4b0-4e9a-bf26-a83de36e49d9","ios":"levelo://app?vid=dc745791-e4b0-4e9a-bf26-a83de36e49d9"},"vehicle_type_id":"4","last_reported":1752240386,"current_range_meters":14400,"station_id":"ce4bhch2rcd13ifvqeug","pricing_plan_id":"cebpf4jnsgd1na2vs0mg"},{"bike_id":"5bd9b675-a021-4f35-bb46-9da614a0bf43","system_id":"levelo_inurba_marseille","lat":43.28609,"lon":5.37072,"is_reserved":false,"is_disabled":false,"rental_uris":{"android":"levelo://app?vid=5bd9b675-a021-4f35-bb46-9da614a0bf43","ios":"levelo://app?vid=5bd9b675-a021-4f35-bb46-9da614a0bf43"},"vehicle_type_id":"4","last_reported":1752240386,"current_range_meters":14800,"station_id":"ce4bht12rcd13ifvqi60","pricing_plan_id":"cebpf4jnsgd1na2vs0mg"},{"bike_id":"5423e7d5-07f9-4264-9d42-219884898d7f","system_id":"levelo_inurba_marseille","lat":43.241757,"lon":5.363793,"is_reserved":false,"is_disabled":false,"rental_uris":{"android":"levelo://app?vid=5423e7d5-07f9-4264-9d42-219884898d7f","ios":"levelo://app?vid=5423e7d5-07f9-4264-9d42-219884898d7f"},"vehicle_type_id":"4","last_reported":1752240386,"current_range_meters":14800,"station_id":"cpo36qri1sfpv3e86is0","pricing_plan_id":"cebpf4jnsgd1na2vs0mg"},{"bike_id":"c6a80404-0b82-4bac-a58d-0caa47987300","system_id":"levelo_inurba_marseille","lat":43.30148,"lon":5.37399,"is_reserved":false,"is_disabled":false,"rental_uris":{"android":"levelo://app?vid=c6a80404-0b82-4bac-a58d-0caa47987300","ios":"levelo://app?vid=c6a80404-0b82-4bac-a58d-0caa47987300"},"vehicle_type_id":"4","last_reported":1752240386,"current_range_meters":14800,"station_id":"ce4bgs92rcd13ifvqcc0","pricing_plan_id":"cebpf4jnsgd1na2vs0mg"},{"bike_id":"0c1e3b29-4286-4846-8d06-a1eec46bfd8e","system_id":"levelo_inurba_marseille","lat":43.284811,"lon":5.385678,"is_reserved":false,"is_disabled":false,"rental_uris":{"android":"levelo://app?vid=0c1e3b29-4286-4846-8d06-a1eec46bfd8e","ios":"levelo://app?vid=0c1e3b29-4286-4846-8d06-a1eec46bfd8e"},"vehicle_type_id":"4","last_reported":1752240386,"current_range_meters":14800,"station_id":"ce4bh8p2rcd13ifvqeb0","pricing_plan_id":"cebpf4jnsgd1na2vs0mg"},{"bike_id":"58fd885c-cbab-42e2-b29b-a9bd59a07733","system_id":"levelo_inurba_marseille","lat":43.28459,"lon":5.35904,"is_reserved":false,"is_disabled":false,"rental_uris":{"android":"levelo://app?vid=58fd885c-cbab-42e2-b29b-a9bd59a07733","ios":"levelo://app?vid=58fd885c-cbab-42e2-b29b-a9bd59a07733"},"vehicle_type_id":"4","last_reported":1752240386,"current_range_meters":14800,"station_id":"ce4bhah2rcd13ifvqei0","pricing_plan_id":"cebpf4jnsgd1na2vs0mg"},{"bike_id":"fd9f5c27-5d58-42e5-badc-a12a0344229e","system_id":"levelo_inurba_marseille","lat":43.28953,"lon":5.36058,"is_reserved":false,"is_disabled":false,"rental_uris":{"android":"levelo://app?vid=fd9f5c27-5d58-42e5-badc-a12a0344229e","ios":"levelo://app?vid=fd9f5c27-5d58-42e5-badc-a12a0344229e"},"vehicle_type_id":"4","last_reported":1752240386,"current_range_meters":15200,"station_id":"","pricing_plan_id":"cebpf4jnsgd1na2vs0mg"},{"bike_id":"530fdaa0-3dcf-48bd-ae6d-18f67ca1c283","system_id":"levelo_inurba_marseille","lat":43.297111,"lon":5.366155,"is_reserved":false,"is_disabled":false,"rental_uris":{"android":"levelo://app?vid=530fdaa0-3dcf-48bd-ae6d-18f67ca1c283","ios":"levelo://app?vid=530fdaa0-3dcf-48bd-ae6d-18f67ca1c283"},"vehicle_type_id":"4","last_reported":1752240386,"current_range_meters":15200,"station_id":"","pricing_plan_id":"cebpf4jnsgd1na2vs0mg"},{"bike_id":"f4ebd1b3-708e-4727-afed-095e5c08156c","system_id":"levelo_inurba_marseille","lat":43.30534,"lon":5.36721,"is_reserved":false,"is_disabled":false,"rental_uris":{"android":"levelo://app?vid=f4ebd1b3-708e-4727-afed-095e5c08156c","ios":"levelo://app?vid=f4ebd1b3-708e-4727-afed-095e5c08156c"},"vehicle_type_id":"4","last_reported":1752240386,"current_range_meters":15200,"station_id":"ce4bgrp2rcd13ifvqc9g","pricing_plan_id":"cebpf4jnsgd1na2vs0mg"},{"bike_id":"ecec5a70-47e2-4076-ac88-b63310387724","system_id":"levelo_inurba_marseille","lat":43.21746,"lon":5.34607,"is_reserved":false,"is_disabled":true,"rental_uris":{"android":"levelo://app?vid=ecec5a70-47e2-4076-ac88-b63310387724","ios":"levelo://app?vid=ecec5a70-47e2-4076-ac88-b63310387724"},"vehicle_type_id":"4","last_reported":1752240386,"current_range_meters":15200,"station_id":"st_cvj6r9ubvosntc0bgbag","pricing_plan_id":"cebpf4jnsgd1na2vs0mg"},{"bike_id":"544ec108-796d-413d-8a7c-7e4ffa805fe3","system_id":"levelo_inurba_marseille","lat":43.27326,"lon":5.3929,"is_reserved":false,"is_disabled":false,"rental_uris":{"android":"levelo://app?vid=544ec108-796d-413d-8a7c-7e4ffa805fe3","ios":"levelo://app?vid=544ec108-796d-413d-8a7c-7e4ffa805fe3"},"vehicle_type_id":"4","last_reported":1752240386,"current_range_meters":15200,"station_id":"","pricing_plan_id":"cebpf4jnsgd1na2vs0mg"},{"bike_id":"2f8a5f2d-3e40-49a3-af7d-3f339ed1b4f8","system_id":"levelo_inurba_marseille","lat":43.317022,"lon":5.377626,"is_reserved":false,"is_disabled":false,"rental_uris":{"android":"levelo://app?vid=2f8a5f2d-3e40-49a3-af7d-3f339ed1b4f8","ios":"levelo://app?vid=2f8a5f2d-3e40-49a3-af7d-3f339ed1b4f8"},"vehicle_type_id":"4","last_reported":1752240386,"current_range_meters":15200,"station_id":"ce4bgth2rcd13ifvqch0","pricing_plan_id":"cebpf4jnsgd1na2vs0mg"},{"bike_id":"28535a5a-bc88-41dd-93a2-af9b8ed5cef1","system_id":"levelo_inurba_marseille","lat":43.2962,"lon":5.37703,"is_reserved":false,"is_disabled":false,"rental_uris":{"android":"levelo://app?vid=28535a5a-bc88-41dd-93a2-af9b8ed5cef1","ios":"levelo://app?vid=28535a5a-bc88-41dd-93a2-af9b8ed5cef1"},"vehicle_type_id":"4","last_reported":1752240386,"current_range_meters":16000,"station_id":"ce4bgi92rcd13ifvqb90","pricing_plan_id":"cebpf4jnsgd1na2vs0mg"},{"bike_id":"cd05e0de-b9bb-4393-ac59-a875b684a0d6","system_id":"levelo_inurba_marseille","lat":43.32356,"lon":5.36755,"is_reserved":false,"is_disabled":false,"rental_uris":{"android":"levelo://app?vid=cd05e0de-b9bb-4393-ac59-a875b684a0d6","ios":"levelo://app?vid=cd05e0de-b9bb-4393-ac59-a875b684a0d6"},"vehicle_type_id":"4","last_reported":1752240386,"current_range_meters":16000,"station_id":"ce4bhsh2rcd13ifvqi2g","pricing_plan_id":"cebpf4jnsgd1na2vs0mg"},{"bike_id":"647a1903-1834-4730-b34e-6397917620f0","system_id":"levelo_inurba_marseille","lat":43.31654,"lon":5.37015,"is_reserved":false,"is_disabled":false,"rental_uris":{"android":"levelo://app?vid=647a1903-1834-4730-b34e-6397917620f0","ios":"levelo://app?vid=647a1903-1834-4730-b34e-6397917620f0"},"vehicle_type_id":"4","last_reported":1752240386,"current_range_meters":16000,"station_id":"","pricing_plan_id":"cebpf4jnsgd1na2vs0mg"},{"bike_id":"f993caa3-ade3-4fe5-9ef4-5c02d19b5b3b","system_id":"levelo_inurba_marseille","lat":43.28408,"lon":5.34996,"is_reserved":false,"is_disabled":false,"rental_uris":{"android":"levelo://app?vid=f993caa3-ade3-4fe5-9ef4-5c02d19b5b3b","ios":"levelo://app?vid=f993caa3-ade3-4fe5-9ef4-5c02d19b5b3b"},"vehicle_type_id":"4","last_reported":1752240386,"current_range_meters":16000,"station_id":"ce4bhbh2rcd13ifvqepg","pricing_plan_id":"cebpf4jnsgd1na2vs0mg"},{"bike_id":"c1d4fa30-fa11-4c1d-8b18-ad6d5767504c","system_id":"levelo_inurba_marseille","lat":43.28414,"lon":5.34992,"is_reserved":false,"is_disabled":false,"rental_uris":{"android":"levelo://app?vid=c1d4fa30-fa11-4c1d-8b18-ad6d5767504c","ios":"levelo://app?vid=c1d4fa30-fa11-4c1d-8b18-ad6d5767504c"},"vehicle_type_id":"4","last_reported":1752240386,"current_range_meters":16000,"station_id":"ce4bhbh2rcd13ifvqepg","pricing_plan_id":"cebpf4jnsgd1na2vs0mg"},{"bike_id":"a24fd909-da01-426e-a1c5-8d8680808c83","system_id":"levelo_inurba_marseille","lat":43.26791,"lon":5.39409,"is_reserved":false,"is_disabled":false,"rental_uris":{"android":"levelo://app?vid=a24fd909-da01-426e-a1c5-8d8680808c83","ios":"levelo://app?vid=a24fd909-da01-426e-a1c5-8d8680808c83"},"vehicle_type_id":"4","last_reported":1752240386,"current_range_meters":15200,"station_id":"ce4bhh12rcd13ifvqfg0","pricing_plan_id":"cebpf4jnsgd1na2vs0mg"},{"bike_id":"eda0ea69-6404-43e6-9ede-2655d170d444","system_id":"levelo_inurba_marseille","lat":43.28849,"lon":5.35824,"is_reserved":false,"is_disabled":false,"rental_uris":{"android":"levelo://app?vid=eda0ea69-6404-43e6-9ede-2655d170d444","ios":"levelo://app?vid=eda0ea69-6404-43e6-9ede-2655d170d444"},"vehicle_type_id":"4","last_reported":1752240386,"current_range_meters":16000,"station_id":"ce4bhb12rcd13ifvqem0","pricing_plan_id":"cebpf4jnsgd1na2vs0mg"},{"bike_id":"e8e03632-b9d1-480f-a4da-da482a543464","system_id":"levelo_inurba_marseille","lat":43.29036,"lon":5.37559,"is_reserved":false,"is_disabled":true,"rental_uris":{"android":"levelo://app?vid=e8e03632-b9d1-480f-a4da-da482a543464","ios":"levelo://app?vid=e8e03632-b9d1-480f-a4da-da482a543464"},"vehicle_type_id":"4","last_reported":1752240386,"current_range_meters":16400,"station_id":"ce4bh692rcd13ifvqe90","pricing_plan_id":"cebpf4jnsgd1na2vs0mg"},{"bike_id":"8929c1bf-fd4d-44e4-aa66-b3eb6538c998","system_id":"levelo_inurba_marseille","lat":43.28568,"lon":5.42976,"is_reserved":false,"is_disabled":false,"rental_uris":{"android":"levelo://app?vid=8929c1bf-fd4d-44e4-aa66-b3eb6538c998","ios":"levelo://app?vid=8929c1bf-fd4d-44e4-aa66-b3eb6538c998"},"vehicle_type_id":"4","last_reported":1752240386,"current_range_meters":16400,"station_id":"","pricing_plan_id":"cebpf4jnsgd1na2vs0mg"},{"bike_id":"5ed8effa-6539-4a17-9b0b-88a1e88bb81f","system_id":"levelo_inurba_marseille","lat":43.30554,"lon":5.36711,"is_reserved":false,"is_disabled":false,"rental_uris":{"android":"levelo://app?vid=5ed8effa-6539-4a17-9b0b-88a1e88bb81f","ios":"levelo://app?vid=5ed8effa-6539-4a17-9b0b-88a1e88bb81f"},"vehicle_type_id":"4","last_reported":1752240386,"current_range_meters":16400,"station_id":"ce4bgrp2rcd13ifvqc9g","pricing_plan_id":"cebpf4jnsgd1na2vs0mg"},{"bike_id":"45bf7bb2-07d1-4864-86fe-8e74a893ff6b","system_id":"levelo_inurba_marseille","lat":43.28414,"lon":5.35003,"is_reserved":false,"is_disabled":false,"rental_uris":{"android":"levelo://app?vid=45bf7bb2-07d1-4864-86fe-8e74a893ff6b","ios":"levelo://app?vid=45bf7bb2-07d1-4864-86fe-8e74a893ff6b"},"vehicle_type_id":"4","last_reported":1752240386,"current_range_meters":16400,"station_id":"ce4bhbh2rcd13ifvqepg","pricing_plan_id":"cebpf4jnsgd1na2vs0mg"},{"bike_id":"a9001741-1745-49c0-afeb-e7f128011c9f","system_id":"levelo_inurba_marseille","lat":43.28417,"lon":5.34994,"is_reserved":false,"is_disabled":false,"rental_uris":{"android":"levelo://app?vid=a9001741-1745-49c0-afeb-e7f128011c9f","ios":"levelo://app?vid=a9001741-1745-49c0-afeb-e7f128011c9f"},"vehicle_type_id":"4","last_reported":1752240386,"current_range_meters":16400,"station_id":"ce4bhbh2rcd13ifvqepg","pricing_plan_id":"cebpf4jnsgd1na2vs0mg"},{"bike_id":"af1cde33-5506-4304-9bde-62aa1392a4b6","system_id":"levelo_inurba_marseille","lat":43.32363,"lon":5.38892,"is_reserved":false,"is_disabled":false,"rental_uris":{"android":"levelo://app?vid=af1cde33-5506-4304-9bde-62aa1392a4b6","ios":"levelo://app?vid=af1cde33-5506-4304-9bde-62aa1392a4b6"},"vehicle_type_id":"4","last_reported":1752240386,"current_range_meters":16400,"station_id":"ce4bhqp2rcd13ifvqhog","pricing_plan_id":"cebpf4jnsgd1na2vs0mg"},{"bike_id":"dafa5a87-b26d-4379-9a6b-1f02133b78a6","system_id":"levelo_inurba_marseille","lat":43.21188,"lon":5.35091,"is_reserved":false,"is_disabled":false,"rental_uris":{"android":"levelo://app?vid=dafa5a87-b26d-4379-9a6b-1f02133b78a6","ios":"levelo://app?vid=dafa5a87-b26d-4379-9a6b-1f02133b78a6"},"vehicle_type_id":"4","last_reported":1752240386,"current_range_meters":16400,"station_id":"st_cvj6sg6p6f1abm77japg","pricing_plan_id":"cebpf4jnsgd1na2vs0mg"},{"bike_id":"2aa723b1-9ea1-4ac2-80c7-216a9d74c0a8","system_id":"levelo_inurba_marseille","lat":43.2175,"lon":5.34601,"is_reserved":false,"is_disabled":false,"rental_uris":{"android":"levelo://app?vid=2aa723b1-9ea1-4ac2-80c7-216a9d74c0a8","ios":"levelo://app?vid=2aa723b1-9ea1-4ac2-80c7-216a9d74c0a8"},"vehicle_type_id":"4","last_reported":1752240386,"current_range_meters":16400,"station_id":"st_cvj6r9ubvosntc0bgbag","pricing_plan_id":"cebpf4jnsgd1na2vs0mg"},{"bike_id":"1bf36ecd-a9d1-40cf-8c8b-89fa3acf5601","system_id":"levelo_inurba_marseille","lat":43.27373,"lon":5.36257,"is_reserved":false,"is_disabled":false,"rental_uris":{"android":"levelo://app?vid=1bf36ecd-a9d1-40cf-8c8b-89fa3acf5601","ios":"levelo://app?vid=1bf36ecd-a9d1-40cf-8c8b-89fa3acf5601"},"vehicle_type_id":"4","last_reported":1752240386,"current_range_meters":16400,"station_id":"ce4bhbh2rcd13ifvqeo0","pricing_plan_id":"cebpf4jnsgd1na2vs0mg"},{"bike_id":"7b5cd6ce-df57-4328-854d-cb2d1407ab18","system_id":"levelo_inurba_marseille","lat":43.33035,"lon":5.39007,"is_reserved":false,"is_disabled":false,"rental_uris":{"android":"levelo://app?vid=7b5cd6ce-df57-4328-854d-cb2d1407ab18","ios":"levelo://app?vid=7b5cd6ce-df57-4328-854d-cb2d1407ab18"},"vehicle_type_id":"4","last_reported":1752240386,"current_range_meters":16400,"station_id":"ce4bhr92rcd13ifvqhrg","pricing_plan_id":"cebpf4jnsgd1na2vs0mg"},{"bike_id":"21ad8c69-799f-400a-a283-4a91aafbd8dc","system_id":"levelo_inurba_marseille","lat":43.2762,"lon":5.36113,"is_reserved":false,"is_disabled":false,"rental_uris":{"android":"levelo://app?vid=21ad8c69-799f-400a-a283-4a91aafbd8dc","ios":"levelo://app?vid=21ad8c69-799f-400a-a283-4a91aafbd8dc"},"vehicle_type_id":"4","last_reported":1752240386,"current_range_meters":16400,"station_id":"ce4bgj92rcd13ifvqbe0","pricing_plan_id":"cebpf4jnsgd1na2vs0mg"},{"bike_id":"e9fd0cf8-573b-4177-88a6-f1faf33e8aca","system_id":"levelo_inurba_marseille","lat":43.29012,"lon":5.35575,"is_reserved":false,"is_disabled":true,"rental_uris":{"android":"levelo://app?vid=e9fd0cf8-573b-4177-88a6-f1faf33e8aca","ios":"levelo://app?vid=e9fd0cf8-573b-4177-88a6-f1faf33e8aca"},"vehicle_type_id":"4","last_reported":1752240386,"current_range_meters":16800,"station_id":"ce4bhb92rcd13ifvqen0","pricing_plan_id":"cebpf4jnsgd1na2vs0mg"},{"bike_id":"43b90c82-97e0-4fa7-8b67-2448f07d529e","system_id":"levelo_inurba_marseille","lat":43.21188,"lon":5.35066,"is_reserved":false,"is_disabled":false,"rental_uris":{"android":"levelo://app?vid=43b90c82-97e0-4fa7-8b67-2448f07d529e","ios":"levelo://app?vid=43b90c82-97e0-4fa7-8b67-2448f07d529e"},"vehicle_type_id":"4","last_reported":1752240386,"current_range_meters":16800,"station_id":"","pricing_plan_id":"cebpf4jnsgd1na2vs0mg"},{"bike_id":"6c958768-59d2-449c-afc1-304865072a5f","system_id":"levelo_inurba_marseille","lat":43.24074,"lon":5.37763,"is_reserved":false,"is_disabled":false,"rental_uris":{"android":"levelo://app?vid=6c958768-59d2-449c-afc1-304865072a5f","ios":"levelo://app?vid=6c958768-59d2-449c-afc1-304865072a5f"},"vehicle_type_id":"4","last_reported":1752240386,"current_range_meters":16800,"station_id":"ce4bhnp2rcd13ifvqgvg","pricing_plan_id":"cebpf4jnsgd1na2vs0mg"},{"bike_id":"ab073cb9-15d3-4a53-bf46-d04138efc6a3","system_id":"levelo_inurba_marseille","lat":43.28269,"lon":5.35074,"is_reserved":false,"is_disabled":false,"rental_uris":{"android":"levelo://app?vid=ab073cb9-15d3-4a53-bf46-d04138efc6a3","ios":"levelo://app?vid=ab073cb9-15d3-4a53-bf46-d04138efc6a3"},"vehicle_type_id":"4","last_reported":1752240386,"current_range_meters":16800,"station_id":"ce4bhbp2rcd13ifvqerg","pricing_plan_id":"cebpf4jnsgd1na2vs0mg"},{"bike_id":"d05e987d-6766-4c70-b7d6-4c4ecf5a7258","system_id":"levelo_inurba_marseille","lat":43.28409,"lon":5.34994,"is_reserved":false,"is_disabled":false,"rental_uris":{"android":"levelo://app?vid=d05e987d-6766-4c70-b7d6-4c4ecf5a7258","ios":"levelo://app?vid=d05e987d-6766-4c70-b7d6-4c4ecf5a7258"},"vehicle_type_id":"4","last_reported":1752240386,"current_range_meters":16800,"station_id":"ce4bhbh2rcd13ifvqepg","pricing_plan_id":"cebpf4jnsgd1na2vs0mg"},{"bike_id":"37b84a38-055a-4a6e-a56a-8ff3d0c1b2ec","system_id":"levelo_inurba_marseille","lat":43.211904,"lon":5.350723,"is_reserved":false,"is_disabled":false,"rental_uris":{"android":"levelo://app?vid=37b84a38-055a-4a6e-a56a-8ff3d0c1b2ec","ios":"levelo://app?vid=37b84a38-055a-4a6e-a56a-8ff3d0c1b2ec"},"vehicle_type_id":"4","last_reported":1752240386,"current_range_meters":16800,"station_id":"st_cvj6sg6p6f1abm77japg","pricing_plan_id":"cebpf4jnsgd1na2vs0mg"},{"bike_id":"60da8230-7552-4766-95b6-a204d159fe83","system_id":"levelo_inurba_marseille","lat":43.24167,"lon":5.36401,"is_reserved":false,"is_disabled":false,"rental_uris":{"android":"levelo://app?vid=60da8230-7552-4766-95b6-a204d159fe83","ios":"levelo://app?vid=60da8230-7552-4766-95b6-a204d159fe83"},"vehicle_type_id":"4","last_reported":1752240386,"current_range_meters":16800,"station_id":"cpo36qri1sfpv3e86is0","pricing_plan_id":"cebpf4jnsgd1na2vs0mg"},{"bike_id":"dbba3321-20c7-4989-a7b5-ea9ab2c4b3e8","system_id":"levelo_inurba_marseille","lat":43.261935,"lon":5.374477,"is_reserved":false,"is_disabled":false,"rental_uris":{"android":"levelo://app?vid=dbba3321-20c7-4989-a7b5-ea9ab2c4b3e8","ios":"levelo://app?vid=dbba3321-20c7-4989-a7b5-ea9ab2c4b3e8"},"vehicle_type_id":"4","last_reported":1752240386,"current_range_meters":16800,"station_id":"ce4bhgp2rcd13ifvqfc0","pricing_plan_id":"cebpf4jnsgd1na2vs0mg"},{"bike_id":"1bfa8dac-30b4-45a4-b42e-d32ed578018a","system_id":"levelo_inurba_marseille","lat":43.30936,"lon":5.40143,"is_reserved":false,"is_disabled":false,"rental_uris":{"android":"levelo://app?vid=1bfa8dac-30b4-45a4-b42e-d32ed578018a","ios":"levelo://app?vid=1bfa8dac-30b4-45a4-b42e-d32ed578018a"},"vehicle_type_id":"4","last_reported":1752240386,"current_range_meters":16800,"station_id":"ce4bgvp2rcd13ifvqct0","pricing_plan_id":"cebpf4jnsgd1na2vs0mg"},{"bike_id":"26fa8cc2-9ef0-4421-b918-65dd774b6449","system_id":"levelo_inurba_marseille","lat":43.2844,"lon":5.39181,"is_reserved":false,"is_disabled":false,"rental_uris":{"android":"levelo://app?vid=26fa8cc2-9ef0-4421-b918-65dd774b6449","ios":"levelo://app?vid=26fa8cc2-9ef0-4421-b918-65dd774b6449"},"vehicle_type_id":"4","last_reported":1752240386,"current_range_meters":16400,"station_id":"ce4bhoh2rcd13ifvqh5g","pricing_plan_id":"cebpf4jnsgd1na2vs0mg"},{"bike_id":"ed357826-d1c2-4ba2-87ca-9977c07889f0","system_id":"levelo_inurba_marseille","lat":43.30805,"lon":5.38157,"is_reserved":false,"is_disabled":false,"rental_uris":{"android":"levelo://app?vid=ed357826-d1c2-4ba2-87ca-9977c07889f0","ios":"levelo://app?vid=ed357826-d1c2-4ba2-87ca-9977c07889f0"},"vehicle_type_id":"4","last_reported":1752240386,"current_range_meters":16800,"station_id":"ce4bgt12rcd13ifvqce0","pricing_plan_id":"cebpf4jnsgd1na2vs0mg"},{"bike_id":"05662ace-c268-4e48-916a-515b0a949424","system_id":"levelo_inurba_marseille","lat":43.29194,"lon":5.3579,"is_reserved":false,"is_disabled":false,"rental_uris":{"android":"levelo://app?vid=05662ace-c268-4e48-916a-515b0a949424","ios":"levelo://app?vid=05662ace-c268-4e48-916a-515b0a949424"},"vehicle_type_id":"4","last_reported":1752240386,"current_range_meters":17200,"station_id":"ce4bhb12rcd13ifvqel0","pricing_plan_id":"cebpf4jnsgd1na2vs0mg"},{"bike_id":"3e80bd6f-44c8-4b0f-a2da-77ee6c540715","system_id":"levelo_inurba_marseille","lat":43.29896,"lon":5.43657,"is_reserved":false,"is_disabled":false,"rental_uris":{"android":"levelo://app?vid=3e80bd6f-44c8-4b0f-a2da-77ee6c540715","ios":"levelo://app?vid=3e80bd6f-44c8-4b0f-a2da-77ee6c540715"},"vehicle_type_id":"4","last_reported":1752240386,"current_range_meters":17200,"station_id":"ce4bhpp2rcd13ifvqhfg","pricing_plan_id":"cebpf4jnsgd1na2vs0mg"},{"bike_id":"8fccf46e-4269-459a-bd9a-cdd93f6b32bc","system_id":"levelo_inurba_marseille","lat":43.30356,"lon":5.41874,"is_reserved":false,"is_disabled":true,"rental_uris":{"android":"levelo://app?vid=8fccf46e-4269-459a-bd9a-cdd93f6b32bc","ios":"levelo://app?vid=8fccf46e-4269-459a-bd9a-cdd93f6b32bc"},"vehicle_type_id":"4","last_reported":1752240386,"current_range_meters":17200,"station_id":"ce4bhop2rcd13ifvqh7g","pricing_plan_id":"cebpf4jnsgd1na2vs0mg"},{"bike_id":"e96530e6-c800-40b1-8078-eb425f3ab1e3","system_id":"levelo_inurba_marseille","lat":43.29198,"lon":5.35801,"is_reserved":false,"is_disabled":false,"rental_uris":{"android":"levelo://app?vid=e96530e6-c800-40b1-8078-eb425f3ab1e3","ios":"levelo://app?vid=e96530e6-c800-40b1-8078-eb425f3ab1e3"},"vehicle_type_id":"4","last_reported":1752240386,"current_range_meters":17200,"station_id":"ce4bhb12rcd13ifvqel0","pricing_plan_id":"cebpf4jnsgd1na2vs0mg"},{"bike_id":"16fe5a08-6de8-49dd-8a04-d449558d31f8","system_id":"levelo_inurba_marseille","lat":43.21192,"lon":5.35073,"is_reserved":false,"is_disabled":false,"rental_uris":{"android":"levelo://app?vid=16fe5a08-6de8-49dd-8a04-d449558d31f8","ios":"levelo://app?vid=16fe5a08-6de8-49dd-8a04-d449558d31f8"},"vehicle_type_id":"4","last_reported":1752240386,"current_range_meters":17200,"station_id":"st_cvj6sg6p6f1abm77japg","pricing_plan_id":"cebpf4jnsgd1na2vs0mg"},{"bike_id":"a525ddc7-d7a2-4728-b545-40dd83d474db","system_id":"levelo_inurba_marseille","lat":43.31119,"lon":5.37759,"is_reserved":false,"is_disabled":false,"rental_uris":{"android":"levelo://app?vid=a525ddc7-d7a2-4728-b545-40dd83d474db","ios":"levelo://app?vid=a525ddc7-d7a2-4728-b545-40dd83d474db"},"vehicle_type_id":"4","last_reported":1752240386,"current_range_meters":17200,"station_id":"ce4bgt92rcd13ifvqcg0","pricing_plan_id":"cebpf4jnsgd1na2vs0mg"},{"bike_id":"0e65ce47-abdc-487e-8a4f-3b6e27709cc0","system_id":"levelo_inurba_marseille","lat":43.313293,"lon":5.396853,"is_reserved":false,"is_disabled":false,"rental_uris":{"android":"levelo://app?vid=0e65ce47-abdc-487e-8a4f-3b6e27709cc0","ios":"levelo://app?vid=0e65ce47-abdc-487e-8a4f-3b6e27709cc0"},"vehicle_type_id":"4","last_reported":1752240386,"current_range_meters":17200,"station_id":"ce4bgvp2rcd13ifvqcu0","pricing_plan_id":"cebpf4jnsgd1na2vs0mg"},{"bike_id":"5f9facdb-d1e1-40e1-8ceb-766e4b9ac193","system_id":"levelo_inurba_marseille","lat":43.21754,"lon":5.345992,"is_reserved":false,"is_disabled":false,"rental_uris":{"android":"levelo://app?vid=5f9facdb-d1e1-40e1-8ceb-766e4b9ac193","ios":"levelo://app?vid=5f9facdb-d1e1-40e1-8ceb-766e4b9ac193"},"vehicle_type_id":"4","last_reported":1752240386,"current_range_meters":17200,"station_id":"","pricing_plan_id":"cebpf4jnsgd1na2vs0mg"},{"bike_id":"eb6a2290-40e2-4780-bdeb-a149c699215d","system_id":"levelo_inurba_marseille","lat":43.27951,"lon":5.41119,"is_reserved":false,"is_disabled":false,"rental_uris":{"android":"levelo://app?vid=eb6a2290-40e2-4780-bdeb-a149c699215d","ios":"levelo://app?vid=eb6a2290-40e2-4780-bdeb-a149c699215d"},"vehicle_type_id":"4","last_reported":1752240386,"current_range_meters":17200,"station_id":"","pricing_plan_id":"cebpf4jnsgd1na2vs0mg"},{"bike_id":"ad1ea14c-4222-436d-a9cf-ba534be92f23","system_id":"levelo_inurba_marseille","lat":43.28455,"lon":5.35886,"is_reserved":false,"is_disabled":false,"rental_uris":{"android":"levelo://app?vid=ad1ea14c-4222-436d-a9cf-ba534be92f23","ios":"levelo://app?vid=ad1ea14c-4222-436d-a9cf-ba534be92f23"},"vehicle_type_id":"4","last_reported":1752240386,"current_range_meters":17200,"station_id":"ce4bhah2rcd13ifvqei0","pricing_plan_id":"cebpf4jnsgd1na2vs0mg"},{"bike_id":"c1fc2f16-d889-4e35-80e7-91b916a8c8ea","system_id":"levelo_inurba_marseille","lat":43.31362,"lon":5.38493,"is_reserved":false,"is_disabled":false,"rental_uris":{"android":"levelo://app?vid=c1fc2f16-d889-4e35-80e7-91b916a8c8ea","ios":"levelo://app?vid=c1fc2f16-d889-4e35-80e7-91b916a8c8ea"},"vehicle_type_id":"4","last_reported":1752240386,"current_range_meters":17200,"station_id":"ce4bgt92rcd13ifvqcf0","pricing_plan_id":"cebpf4jnsgd1na2vs0mg"},{"bike_id":"62ac1821-7906-4c60-a407-d7977f4aa9dc","system_id":"levelo_inurba_marseille","lat":43.27377,"lon":5.36259,"is_reserved":false,"is_disabled":false,"rental_uris":{"android":"levelo://app?vid=62ac1821-7906-4c60-a407-d7977f4aa9dc","ios":"levelo://app?vid=62ac1821-7906-4c60-a407-d7977f4aa9dc"},"vehicle_type_id":"4","last_reported":1752240386,"current_range_meters":17600,"station_id":"ce4bhbh2rcd13ifvqeo0","pricing_plan_id":"cebpf4jnsgd1na2vs0mg"},{"bike_id":"5d169770-ab33-4f11-a6ec-09665efde15c","system_id":"levelo_inurba_marseille","lat":43.30559,"lon":5.36625,"is_reserved":false,"is_disabled":false,"rental_uris":{"android":"levelo://app?vid=5d169770-ab33-4f11-a6ec-09665efde15c","ios":"levelo://app?vid=5d169770-ab33-4f11-a6ec-09665efde15c"},"vehicle_type_id":"4","last_reported":1752240386,"current_range_meters":17600,"station_id":"","pricing_plan_id":"cebpf4jnsgd1na2vs0mg"},{"bike_id":"a0ef0d4a-1009-4dd6-9d93-2ffc2cc5b8bf","system_id":"levelo_inurba_marseille","lat":43.282656,"lon":5.350528,"is_reserved":false,"is_disabled":false,"rental_uris":{"android":"levelo://app?vid=a0ef0d4a-1009-4dd6-9d93-2ffc2cc5b8bf","ios":"levelo://app?vid=a0ef0d4a-1009-4dd6-9d93-2ffc2cc5b8bf"},"vehicle_type_id":"4","last_reported":1752240386,"current_range_meters":17600,"station_id":"ce4bhbp2rcd13ifvqerg","pricing_plan_id":"cebpf4jnsgd1na2vs0mg"},{"bike_id":"452e8211-4f44-45d0-814a-3e9e25b8c44e","system_id":"levelo_inurba_marseille","lat":43.21194,"lon":5.35076,"is_reserved":false,"is_disabled":false,"rental_uris":{"android":"levelo://app?vid=452e8211-4f44-45d0-814a-3e9e25b8c44e","ios":"levelo://app?vid=452e8211-4f44-45d0-814a-3e9e25b8c44e"},"vehicle_type_id":"4","last_reported":1752240386,"current_range_meters":17600,"station_id":"st_cvj6sg6p6f1abm77japg","pricing_plan_id":"cebpf4jnsgd1na2vs0mg"},{"bike_id":"03eea793-0480-4a49-ab5e-35410fec1ade","system_id":"levelo_inurba_marseille","lat":43.24813,"lon":5.37477,"is_reserved":false,"is_disabled":false,"rental_uris":{"android":"levelo://app?vid=03eea793-0480-4a49-ab5e-35410fec1ade","ios":"levelo://app?vid=03eea793-0480-4a49-ab5e-35410fec1ade"},"vehicle_type_id":"4","last_reported":1752240386,"current_range_meters":17600,"station_id":"ce4bhgh2rcd13ifvqfb0","pricing_plan_id":"cebpf4jnsgd1na2vs0mg"},{"bike_id":"167e9ffb-1c9a-4672-a9d5-234144056654","system_id":"levelo_inurba_marseille","lat":43.27496,"lon":5.42448,"is_reserved":false,"is_disabled":false,"rental_uris":{"android":"levelo://app?vid=167e9ffb-1c9a-4672-a9d5-234144056654","ios":"levelo://app?vid=167e9ffb-1c9a-4672-a9d5-234144056654"},"vehicle_type_id":"4","last_reported":1752240386,"current_range_meters":17200,"station_id":"ce4bhn92rcd13ifvqgrg","pricing_plan_id":"cebpf4jnsgd1na2vs0mg"},{"bike_id":"e86ba8c9-208d-482c-a826-4c100938472a","system_id":"levelo_inurba_marseille","lat":43.21195,"lon":5.35073,"is_reserved":false,"is_disabled":false,"rental_uris":{"android":"levelo://app?vid=e86ba8c9-208d-482c-a826-4c100938472a","ios":"levelo://app?vid=e86ba8c9-208d-482c-a826-4c100938472a"},"vehicle_type_id":"4","last_reported":1752240386,"current_range_meters":17600,"station_id":"st_cvj6sg6p6f1abm77japg","pricing_plan_id":"cebpf4jnsgd1na2vs0mg"},{"bike_id":"f85da7f2-9b8c-40df-ab85-908c3b65f090","system_id":"levelo_inurba_marseille","lat":43.2679,"lon":5.39411,"is_reserved":false,"is_disabled":false,"rental_uris":{"android":"levelo://app?vid=f85da7f2-9b8c-40df-ab85-908c3b65f090","ios":"levelo://app?vid=f85da7f2-9b8c-40df-ab85-908c3b65f090"},"vehicle_type_id":"4","last_reported":1752240386,"current_range_meters":17600,"station_id":"ce4bhh12rcd13ifvqfg0","pricing_plan_id":"cebpf4jnsgd1na2vs0mg"},{"bike_id":"8a04fd21-64fa-4c30-ac91-c054cd0ee197","system_id":"levelo_inurba_marseille","lat":43.30163,"lon":5.38081,"is_reserved":false,"is_disabled":false,"rental_uris":{"android":"levelo://app?vid=8a04fd21-64fa-4c30-ac91-c054cd0ee197","ios":"levelo://app?vid=8a04fd21-64fa-4c30-ac91-c054cd0ee197"},"vehicle_type_id":"4","last_reported":1752240386,"current_range_meters":18000,"station_id":"ce4bgjp2rcd13ifvqbh0","pricing_plan_id":"cebpf4jnsgd1na2vs0mg"},{"bike_id":"902cbc5b-3f0d-4bf0-9879-3dcdb78445aa","system_id":"levelo_inurba_marseille","lat":43.24665,"lon":5.38167,"is_reserved":false,"is_disabled":false,"rental_uris":{"android":"levelo://app?vid=902cbc5b-3f0d-4bf0-9879-3dcdb78445aa","ios":"levelo://app?vid=902cbc5b-3f0d-4bf0-9879-3dcdb78445aa"},"vehicle_type_id":"4","last_reported":1752240386,"current_range_meters":18000,"station_id":"ce4bhih2rcd13ifvqfr0","pricing_plan_id":"cebpf4jnsgd1na2vs0mg"},{"bike_id":"a581eef9-f0fb-4e5d-8be0-84b96bfd2d41","system_id":"levelo_inurba_marseille","lat":43.2937,"lon":5.37852,"is_reserved":false,"is_disabled":true,"rental_uris":{"android":"levelo://app?vid=a581eef9-f0fb-4e5d-8be0-84b96bfd2d41","ios":"levelo://app?vid=a581eef9-f0fb-4e5d-8be0-84b96bfd2d41"},"vehicle_type_id":"4","last_reported":1752240386,"current_range_meters":18000,"station_id":"ce4bgjh2rcd13ifvqbf0","pricing_plan_id":"cebpf4jnsgd1na2vs0mg"},{"bike_id":"61198919-e72c-4fce-bc96-126627987dc0","system_id":"levelo_inurba_marseille","lat":43.29585,"lon":5.37894,"is_reserved":false,"is_disabled":false,"rental_uris":{"android":"levelo://app?vid=61198919-e72c-4fce-bc96-126627987dc0","ios":"levelo://app?vid=61198919-e72c-4fce-bc96-126627987dc0"},"vehicle_type_id":"4","last_reported":1752240386,"current_range_meters":18000,"station_id":"","pricing_plan_id":"cebpf4jnsgd1na2vs0mg"},{"bike_id":"ac2fb1e3-10ef-4644-bcbb-37ff591c8355","system_id":"levelo_inurba_marseille","lat":43.2827,"lon":5.35059,"is_reserved":false,"is_disabled":false,"rental_uris":{"android":"levelo://app?vid=ac2fb1e3-10ef-4644-bcbb-37ff591c8355","ios":"levelo://app?vid=ac2fb1e3-10ef-4644-bcbb-37ff591c8355"},"vehicle_type_id":"4","last_reported":1752240386,"current_range_meters":18000,"station_id":"ce4bhbp2rcd13ifvqerg","pricing_plan_id":"cebpf4jnsgd1na2vs0mg"},{"bike_id":"740dfaf6-8335-4480-812a-57fbfd8254c8","system_id":"levelo_inurba_marseille","lat":43.28845,"lon":5.39318,"is_reserved":false,"is_disabled":false,"rental_uris":{"android":"levelo://app?vid=740dfaf6-8335-4480-812a-57fbfd8254c8","ios":"levelo://app?vid=740dfaf6-8335-4480-812a-57fbfd8254c8"},"vehicle_type_id":"4","last_reported":1752240386,"current_range_meters":18000,"station_id":"ce4bh2p2rcd13ifvqdi0","pricing_plan_id":"cebpf4jnsgd1na2vs0mg"},{"bike_id":"a81ede20-43a9-47cd-942d-8fb15c54f5f7","system_id":"levelo_inurba_marseille","lat":43.30041,"lon":5.45158,"is_reserved":false,"is_disabled":false,"rental_uris":{"android":"levelo://app?vid=a81ede20-43a9-47cd-942d-8fb15c54f5f7","ios":"levelo://app?vid=a81ede20-43a9-47cd-942d-8fb15c54f5f7"},"vehicle_type_id":"4","last_reported":1752240386,"current_range_meters":18800,"station_id":"","pricing_plan_id":"cebpf4jnsgd1na2vs0mg"},{"bike_id":"021af6ae-17eb-4cb6-a926-ac3ae8b11452","system_id":"levelo_inurba_marseille","lat":43.30897,"lon":5.39651,"is_reserved":false,"is_disabled":false,"rental_uris":{"android":"levelo://app?vid=021af6ae-17eb-4cb6-a926-ac3ae8b11452","ios":"levelo://app?vid=021af6ae-17eb-4cb6-a926-ac3ae8b11452"},"vehicle_type_id":"4","last_reported":1752240386,"current_range_meters":18800,"station_id":"ce4bh012rcd13ifvqcv0","pricing_plan_id":"cebpf4jnsgd1na2vs0mg"},{"bike_id":"083006df-40ee-4cb2-b3e4-fce7047b83fd","system_id":"levelo_inurba_marseille","lat":43.29875,"lon":5.39734,"is_reserved":false,"is_disabled":false,"rental_uris":{"android":"levelo://app?vid=083006df-40ee-4cb2-b3e4-fce7047b83fd","ios":"levelo://app?vid=083006df-40ee-4cb2-b3e4-fce7047b83fd"},"vehicle_type_id":"4","last_reported":1752240386,"current_range_meters":18800,"station_id":"ce4bh0h2rcd13ifvqd50","pricing_plan_id":"cebpf4jnsgd1na2vs0mg"},{"bike_id":"d986ab92-05dd-4f8a-9fa1-a9294bba3783","system_id":"levelo_inurba_marseille","lat":43.2861,"lon":5.35092,"is_reserved":false,"is_disabled":false,"rental_uris":{"android":"levelo://app?vid=d986ab92-05dd-4f8a-9fa1-a9294bba3783","ios":"levelo://app?vid=d986ab92-05dd-4f8a-9fa1-a9294bba3783"},"vehicle_type_id":"4","last_reported":1752240386,"current_range_meters":18800,"station_id":"ce4bhch2rcd13ifvqeug","pricing_plan_id":"cebpf4jnsgd1na2vs0mg"},{"bike_id":"f272420d-ba4a-4b11-a790-579b5df77b6a","system_id":"levelo_inurba_marseille","lat":43.28617,"lon":5.35088,"is_reserved":false,"is_disabled":false,"rental_uris":{"android":"levelo://app?vid=f272420d-ba4a-4b11-a790-579b5df77b6a","ios":"levelo://app?vid=f272420d-ba4a-4b11-a790-579b5df77b6a"},"vehicle_type_id":"4","last_reported":1752240386,"current_range_meters":18800,"station_id":"ce4bhch2rcd13ifvqeug","pricing_plan_id":"cebpf4jnsgd1na2vs0mg"},{"bike_id":"e72cfbf3-f00e-4474-a978-8976cecd3110","system_id":"levelo_inurba_marseille","lat":43.30154,"lon":5.38091,"is_reserved":false,"is_disabled":false,"rental_uris":{"android":"levelo://app?vid=e72cfbf3-f00e-4474-a978-8976cecd3110","ios":"levelo://app?vid=e72cfbf3-f00e-4474-a978-8976cecd3110"},"vehicle_type_id":"4","last_reported":1752240386,"current_range_meters":18800,"station_id":"ce4bgjp2rcd13ifvqbh0","pricing_plan_id":"cebpf4jnsgd1na2vs0mg"},{"bike_id":"ef666adf-4b9f-47ff-85e8-1c31eb0db337","system_id":"levelo_inurba_marseille","lat":43.29197,"lon":5.35793,"is_reserved":false,"is_disabled":false,"rental_uris":{"android":"levelo://app?vid=ef666adf-4b9f-47ff-85e8-1c31eb0db337","ios":"levelo://app?vid=ef666adf-4b9f-47ff-85e8-1c31eb0db337"},"vehicle_type_id":"4","last_reported":1752240386,"current_range_meters":18800,"station_id":"ce4bhb12rcd13ifvqel0","pricing_plan_id":"cebpf4jnsgd1na2vs0mg"},{"bike_id":"d716c1ec-609f-4831-a7f4-c61933682b36","system_id":"levelo_inurba_marseille","lat":43.28619,"lon":5.35103,"is_reserved":false,"is_disabled":false,"rental_uris":{"android":"levelo://app?vid=d716c1ec-609f-4831-a7f4-c61933682b36","ios":"levelo://app?vid=d716c1ec-609f-4831-a7f4-c61933682b36"},"vehicle_type_id":"4","last_reported":1752240386,"current_range_meters":18800,"station_id":"ce4bhch2rcd13ifvqeug","pricing_plan_id":"cebpf4jnsgd1na2vs0mg"},{"bike_id":"9a0cb1a3-2bfe-4644-ba31-8f50fab06156","system_id":"levelo_inurba_marseille","lat":43.27374,"lon":5.36251,"is_reserved":false,"is_disabled":false,"rental_uris":{"android":"levelo://app?vid=9a0cb1a3-2bfe-4644-ba31-8f50fab06156","ios":"levelo://app?vid=9a0cb1a3-2bfe-4644-ba31-8f50fab06156"},"vehicle_type_id":"4","last_reported":1752240386,"current_range_meters":18800,"station_id":"ce4bhbh2rcd13ifvqeo0","pricing_plan_id":"cebpf4jnsgd1na2vs0mg"},{"bike_id":"8bf47d7d-21f3-41da-a8ce-56dc595d1a4d","system_id":"levelo_inurba_marseille","lat":43.29908,"lon":5.38136,"is_reserved":false,"is_disabled":false,"rental_uris":{"android":"levelo://app?vid=8bf47d7d-21f3-41da-a8ce-56dc595d1a4d","ios":"levelo://app?vid=8bf47d7d-21f3-41da-a8ce-56dc595d1a4d"},"vehicle_type_id":"4","last_reported":1752240386,"current_range_meters":18800,"station_id":"ce4bgj12rcd13ifvqbc0","pricing_plan_id":"cebpf4jnsgd1na2vs0mg"},{"bike_id":"bee14989-3be1-4d39-8c52-b47b2481323b","system_id":"levelo_inurba_marseille","lat":43.26226,"lon":5.40443,"is_reserved":false,"is_disabled":false,"rental_uris":{"android":"levelo://app?vid=bee14989-3be1-4d39-8c52-b47b2481323b","ios":"levelo://app?vid=bee14989-3be1-4d39-8c52-b47b2481323b"},"vehicle_type_id":"4","last_reported":1752240386,"current_range_meters":19200,"station_id":"ce4bhmh2rcd13ifvqgmg","pricing_plan_id":"cebpf4jnsgd1na2vs0mg"},{"bike_id":"3a549bf5-5125-49ba-877e-49034f17c879","system_id":"levelo_inurba_marseille","lat":43.24802,"lon":5.37454,"is_reserved":false,"is_disabled":false,"rental_uris":{"android":"levelo://app?vid=3a549bf5-5125-49ba-877e-49034f17c879","ios":"levelo://app?vid=3a549bf5-5125-49ba-877e-49034f17c879"},"vehicle_type_id":"4","last_reported":1752240386,"current_range_meters":19200,"station_id":"ce4bhgh2rcd13ifvqfb0","pricing_plan_id":"cebpf4jnsgd1na2vs0mg"},{"bike_id":"709c9beb-13f1-45e2-bbd1-0f71d60cf8b2","system_id":"levelo_inurba_marseille","lat":43.309204,"lon":5.401518,"is_reserved":false,"is_disabled":true,"rental_uris":{"android":"levelo://app?vid=709c9beb-13f1-45e2-bbd1-0f71d60cf8b2","ios":"levelo://app?vid=709c9beb-13f1-45e2-bbd1-0f71d60cf8b2"},"vehicle_type_id":"4","last_reported":1752240386,"current_range_meters":19200,"station_id":"ce4bgvp2rcd13ifvqct0","pricing_plan_id":"cebpf4jnsgd1na2vs0mg"},{"bike_id":"3e4edfee-1e8f-445b-a244-1a6051affcc2","system_id":"levelo_inurba_marseille","lat":43.297819,"lon":5.370966,"is_reserved":false,"is_disabled":false,"rental_uris":{"android":"levelo://app?vid=3e4edfee-1e8f-445b-a244-1a6051affcc2","ios":"levelo://app?vid=3e4edfee-1e8f-445b-a244-1a6051affcc2"},"vehicle_type_id":"4","last_reported":1752240386,"current_range_meters":19200,"station_id":"ce4bhbp2rcd13ifvqerg","pricing_plan_id":"cebpf4jnsgd1na2vs0mg"},{"bike_id":"622e8029-19fd-41c4-bfc0-7d297e50e368","system_id":"levelo_inurba_marseille","lat":43.27373,"lon":5.36259,"is_reserved":false,"is_disabled":false,"rental_uris":{"android":"levelo://app?vid=622e8029-19fd-41c4-bfc0-7d297e50e368","ios":"levelo://app?vid=622e8029-19fd-41c4-bfc0-7d297e50e368"},"vehicle_type_id":"4","last_reported":1752240386,"current_range_meters":19200,"station_id":"ce4bhbh2rcd13ifvqeo0","pricing_plan_id":"cebpf4jnsgd1na2vs0mg"},{"bike_id":"ad023729-3d33-44a6-99ca-a047715b7f88","system_id":"levelo_inurba_marseille","lat":43.211846,"lon":5.350909,"is_reserved":false,"is_disabled":false,"rental_uris":{"android":"levelo://app?vid=ad023729-3d33-44a6-99ca-a047715b7f88","ios":"levelo://app?vid=ad023729-3d33-44a6-99ca-a047715b7f88"},"vehicle_type_id":"4","last_reported":1752240386,"current_range_meters":19200,"station_id":"st_cvj6sg6p6f1abm77japg","pricing_plan_id":"cebpf4jnsgd1na2vs0mg"},{"bike_id":"375b6948-84fe-43fa-b8af-8e91d1fe84c4","system_id":"levelo_inurba_marseille","lat":43.26696,"lon":5.38257,"is_reserved":false,"is_disabled":false,"rental_uris":{"android":"levelo://app?vid=375b6948-84fe-43fa-b8af-8e91d1fe84c4","ios":"levelo://app?vid=375b6948-84fe-43fa-b8af-8e91d1fe84c4"},"vehicle_type_id":"4","last_reported":1752240386,"current_range_meters":19200,"station_id":"ce4bhg92rcd13ifvqf90","pricing_plan_id":"cebpf4jnsgd1na2vs0mg"},{"bike_id":"4a9251ff-9dce-4a9d-9675-63a4583321c0","system_id":"levelo_inurba_marseille","lat":43.28616,"lon":5.35109,"is_reserved":false,"is_disabled":false,"rental_uris":{"android":"levelo://app?vid=4a9251ff-9dce-4a9d-9675-63a4583321c0","ios":"levelo://app?vid=4a9251ff-9dce-4a9d-9675-63a4583321c0"},"vehicle_type_id":"4","last_reported":1752240386,"current_range_meters":19600,"station_id":"ce4bhch2rcd13ifvqeug","pricing_plan_id":"cebpf4jnsgd1na2vs0mg"},{"bike_id":"73f5ba04-f0c3-4c17-8b1d-03cf11291855","system_id":"levelo_inurba_marseille","lat":43.26684,"lon":5.38271,"is_reserved":false,"is_disabled":false,"rental_uris":{"android":"levelo://app?vid=73f5ba04-f0c3-4c17-8b1d-03cf11291855","ios":"levelo://app?vid=73f5ba04-f0c3-4c17-8b1d-03cf11291855"},"vehicle_type_id":"4","last_reported":1752240386,"current_range_meters":19600,"station_id":"ce4bhg92rcd13ifvqf90","pricing_plan_id":"cebpf4jnsgd1na2vs0mg"},{"bike_id":"3e7ec850-b571-461c-9c3e-7c16ccce9d27","system_id":"levelo_inurba_marseille","lat":43.27378,"lon":5.36256,"is_reserved":false,"is_disabled":false,"rental_uris":{"android":"levelo://app?vid=3e7ec850-b571-461c-9c3e-7c16ccce9d27","ios":"levelo://app?vid=3e7ec850-b571-461c-9c3e-7c16ccce9d27"},"vehicle_type_id":"4","last_reported":1752240386,"current_range_meters":19600,"station_id":"ce4bhbh2rcd13ifvqeo0","pricing_plan_id":"cebpf4jnsgd1na2vs0mg"},{"bike_id":"ec1ebd3b-4a7f-4ce3-bc48-300c0042e8d5","system_id":"levelo_inurba_marseille","lat":43.29365,"lon":5.37875,"is_reserved":false,"is_disabled":false,"rental_uris":{"android":"levelo://app?vid=ec1ebd3b-4a7f-4ce3-bc48-300c0042e8d5","ios":"levelo://app?vid=ec1ebd3b-4a7f-4ce3-bc48-300c0042e8d5"},"vehicle_type_id":"4","last_reported":1752240386,"current_range_meters":19600,"station_id":"ce4bgjh2rcd13ifvqbf0","pricing_plan_id":"cebpf4jnsgd1na2vs0mg"},{"bike_id":"272507f6-464c-4523-8d2d-bf98c0f878e1","system_id":"levelo_inurba_marseille","lat":43.30464,"lon":5.37895,"is_reserved":false,"is_disabled":false,"rental_uris":{"android":"levelo://app?vid=272507f6-464c-4523-8d2d-bf98c0f878e1","ios":"levelo://app?vid=272507f6-464c-4523-8d2d-bf98c0f878e1"},"vehicle_type_id":"4","last_reported":1752240386,"current_range_meters":19600,"station_id":"ce4bgup2rcd13ifvqcn0","pricing_plan_id":"cebpf4jnsgd1na2vs0mg"},{"bike_id":"790c377f-77f7-4730-a831-b0f708a46319","system_id":"levelo_inurba_marseille","lat":43.33616,"lon":5.41016,"is_reserved":false,"is_disabled":false,"rental_uris":{"android":"levelo://app?vid=790c377f-77f7-4730-a831-b0f708a46319","ios":"levelo://app?vid=790c377f-77f7-4730-a831-b0f708a46319"},"vehicle_type_id":"4","last_reported":1752240386,"current_range_meters":19600,"station_id":"ce4bhqh2rcd13ifvqhmg","pricing_plan_id":"cebpf4jnsgd1na2vs0mg"},{"bike_id":"49a25542-5ccc-437e-a925-aba2deda045d","system_id":"levelo_inurba_marseille","lat":43.28419,"lon":5.34988,"is_reserved":false,"is_disabled":false,"rental_uris":{"android":"levelo://app?vid=49a25542-5ccc-437e-a925-aba2deda045d","ios":"levelo://app?vid=49a25542-5ccc-437e-a925-aba2deda045d"},"vehicle_type_id":"4","last_reported":1752240386,"current_range_meters":19600,"station_id":"ce4bhbh2rcd13ifvqepg","pricing_plan_id":"cebpf4jnsgd1na2vs0mg"},{"bike_id":"54f0982d-8f90-4bec-9d0f-344ffd3b7cfc","system_id":"levelo_inurba_marseille","lat":43.2867,"lon":5.38682,"is_reserved":false,"is_disabled":false,"rental_uris":{"android":"levelo://app?vid=54f0982d-8f90-4bec-9d0f-344ffd3b7cfc","ios":"levelo://app?vid=54f0982d-8f90-4bec-9d0f-344ffd3b7cfc"},"vehicle_type_id":"4","last_reported":1752240386,"current_range_meters":20000,"station_id":"ce4bh492rcd13ifvqdug","pricing_plan_id":"cebpf4jnsgd1na2vs0mg"},{"bike_id":"40330dcb-29a5-4ad3-8d22-d51ce4593d26","system_id":"levelo_inurba_marseille","lat":43.27375,"lon":5.3625,"is_reserved":false,"is_disabled":false,"rental_uris":{"android":"levelo://app?vid=40330dcb-29a5-4ad3-8d22-d51ce4593d26","ios":"levelo://app?vid=40330dcb-29a5-4ad3-8d22-d51ce4593d26"},"vehicle_type_id":"4","last_reported":1752240386,"current_range_meters":20000,"station_id":"ce4bhbh2rcd13ifvqeo0","pricing_plan_id":"cebpf4jnsgd1na2vs0mg"},{"bike_id":"84a0b29a-d125-4f96-9b98-49db9e6f603f","system_id":"levelo_inurba_marseille","lat":43.28459,"lon":5.35888,"is_reserved":false,"is_disabled":false,"rental_uris":{"android":"levelo://app?vid=84a0b29a-d125-4f96-9b98-49db9e6f603f","ios":"levelo://app?vid=84a0b29a-d125-4f96-9b98-49db9e6f603f"},"vehicle_type_id":"4","last_reported":1752240386,"current_range_meters":20000,"station_id":"ce4bhah2rcd13ifvqei0","pricing_plan_id":"cebpf4jnsgd1na2vs0mg"},{"bike_id":"2f76f581-74d9-44c1-9c2b-aa6a8c100287","system_id":"levelo_inurba_marseille","lat":43.30431,"lon":5.38889,"is_reserved":false,"is_disabled":false,"rental_uris":{"android":"levelo://app?vid=2f76f581-74d9-44c1-9c2b-aa6a8c100287","ios":"levelo://app?vid=2f76f581-74d9-44c1-9c2b-aa6a8c100287"},"vehicle_type_id":"4","last_reported":1752240386,"current_range_meters":19600,"station_id":"ce4bgk12rcd13ifvqbi0","pricing_plan_id":"cebpf4jnsgd1na2vs0mg"},{"bike_id":"ea7da443-c2db-4f09-9062-b4f9a0a7e2db","system_id":"levelo_inurba_marseille","lat":43.28712,"lon":5.37944,"is_reserved":false,"is_disabled":false,"rental_uris":{"android":"levelo://app?vid=ea7da443-c2db-4f09-9062-b4f9a0a7e2db","ios":"levelo://app?vid=ea7da443-c2db-4f09-9062-b4f9a0a7e2db"},"vehicle_type_id":"4","last_reported":1752240386,"current_range_meters":20000,"station_id":"ce4bh9p2rcd13ifvqec0","pricing_plan_id":"cebpf4jnsgd1na2vs0mg"},{"bike_id":"6d14be32-980b-4b55-ac72-2c4cb54caef9","system_id":"levelo_inurba_marseille","lat":43.264867,"lon":5.395449,"is_reserved":false,"is_disabled":false,"rental_uris":{"android":"levelo://app?vid=6d14be32-980b-4b55-ac72-2c4cb54caef9","ios":"levelo://app?vid=6d14be32-980b-4b55-ac72-2c4cb54caef9"},"vehicle_type_id":"4","last_reported":1752240386,"current_range_meters":19600,"station_id":"ce4bhi12rcd13ifvqfq0","pricing_plan_id":"cebpf4jnsgd1na2vs0mg"},{"bike_id":"4ba6dbfd-c428-48b0-8992-ab97f5536ab2","system_id":"levelo_inurba_marseille","lat":43.27218,"lon":5.39184,"is_reserved":false,"is_disabled":false,"rental_uris":{"android":"levelo://app?vid=4ba6dbfd-c428-48b0-8992-ab97f5536ab2","ios":"levelo://app?vid=4ba6dbfd-c428-48b0-8992-ab97f5536ab2"},"vehicle_type_id":"4","last_reported":1752240386,"current_range_meters":20000,"station_id":"ce4bhhp2rcd13ifvqfm0","pricing_plan_id":"cebpf4jnsgd1na2vs0mg"},{"bike_id":"4726d837-8746-4b7e-b234-493b127f6cc4","system_id":"levelo_inurba_marseille","lat":43.30553,"lon":5.36707,"is_reserved":false,"is_disabled":false,"rental_uris":{"android":"levelo://app?vid=4726d837-8746-4b7e-b234-493b127f6cc4","ios":"levelo://app?vid=4726d837-8746-4b7e-b234-493b127f6cc4"},"vehicle_type_id":"4","last_reported":1752240386,"current_range_meters":20000,"station_id":"ce4bgrp2rcd13ifvqc9g","pricing_plan_id":"cebpf4jnsgd1na2vs0mg"},{"bike_id":"cd58ad42-73a8-4dcc-a2bd-c874ff346b33","system_id":"levelo_inurba_marseille","lat":43.3042,"lon":5.4128,"is_reserved":false,"is_disabled":false,"rental_uris":{"android":"levelo://app?vid=cd58ad42-73a8-4dcc-a2bd-c874ff346b33","ios":"levelo://app?vid=cd58ad42-73a8-4dcc-a2bd-c874ff346b33"},"vehicle_type_id":"4","last_reported":1752240386,"current_range_meters":20000,"station_id":"ce4bhop2rcd13ifvqh8g","pricing_plan_id":"cebpf4jnsgd1na2vs0mg"},{"bike_id":"2093d507-9815-48d8-8feb-cb32ba87d199","system_id":"levelo_inurba_marseille","lat":43.32112,"lon":5.36767,"is_reserved":false,"is_disabled":false,"rental_uris":{"android":"levelo://app?vid=2093d507-9815-48d8-8feb-cb32ba87d199","ios":"levelo://app?vid=2093d507-9815-48d8-8feb-cb32ba87d199"},"vehicle_type_id":"4","last_reported":1752240386,"current_range_meters":20000,"station_id":"ce4bhrh2rcd13ifvqhug","pricing_plan_id":"cebpf4jnsgd1na2vs0mg"},{"bike_id":"4fec33af-d369-4af4-832e-e94c6e47ae1a","system_id":"levelo_inurba_marseille","lat":43.28154,"lon":5.4265,"is_reserved":false,"is_disabled":false,"rental_uris":{"android":"levelo://app?vid=4fec33af-d369-4af4-832e-e94c6e47ae1a","ios":"levelo://app?vid=4fec33af-d369-4af4-832e-e94c6e47ae1a"},"vehicle_type_id":"4","last_reported":1752240386,"current_range_meters":20000,"station_id":"ce4bhnh2rcd13ifvqgug","pricing_plan_id":"cebpf4jnsgd1na2vs0mg"},{"bike_id":"61311c34-8ad3-46f2-97a6-24b285751e2f","system_id":"levelo_inurba_marseille","lat":43.32343,"lon":5.40616,"is_reserved":false,"is_disabled":false,"rental_uris":{"android":"levelo://app?vid=61311c34-8ad3-46f2-97a6-24b285751e2f","ios":"levelo://app?vid=61311c34-8ad3-46f2-97a6-24b285751e2f"},"vehicle_type_id":"4","last_reported":1752240386,"current_range_meters":20400,"station_id":"ce4bhq92rcd13ifvqhjg","pricing_plan_id":"cebpf4jnsgd1na2vs0mg"},{"bike_id":"00bc0b3b-e317-4a17-a011-a3a9a29d816a","system_id":"levelo_inurba_marseille","lat":43.21206,"lon":5.35091,"is_reserved":false,"is_disabled":false,"rental_uris":{"android":"levelo://app?vid=00bc0b3b-e317-4a17-a011-a3a9a29d816a","ios":"levelo://app?vid=00bc0b3b-e317-4a17-a011-a3a9a29d816a"},"vehicle_type_id":"4","last_reported":1752240386,"current_range_meters":20400,"station_id":"st_cvj6sg6p6f1abm77japg","pricing_plan_id":"cebpf4jnsgd1na2vs0mg"},{"bike_id":"01411afc-67be-4025-b618-56424ed4df78","system_id":"levelo_inurba_marseille","lat":43.24548,"lon":5.39452,"is_reserved":false,"is_disabled":false,"rental_uris":{"android":"levelo://app?vid=01411afc-67be-4025-b618-56424ed4df78","ios":"levelo://app?vid=01411afc-67be-4025-b618-56424ed4df78"},"vehicle_type_id":"4","last_reported":1752240386,"current_range_meters":20400,"station_id":"ce4bhlp2rcd13ifvqgjg","pricing_plan_id":"cebpf4jnsgd1na2vs0mg"},{"bike_id":"51890362-46b0-4ee7-9f02-afbf036d064e","system_id":"levelo_inurba_marseille","lat":43.21193,"lon":5.35074,"is_reserved":false,"is_disabled":false,"rental_uris":{"android":"levelo://app?vid=51890362-46b0-4ee7-9f02-afbf036d064e","ios":"levelo://app?vid=51890362-46b0-4ee7-9f02-afbf036d064e"},"vehicle_type_id":"4","last_reported":1752240386,"current_range_meters":20400,"station_id":"st_cvj6sg6p6f1abm77japg","pricing_plan_id":"cebpf4jnsgd1na2vs0mg"},{"bike_id":"2e587233-41ac-49a1-8b29-0e61fa8a348e","system_id":"levelo_inurba_marseille","lat":43.29941,"lon":5.36535,"is_reserved":false,"is_disabled":false,"rental_uris":{"android":"levelo://app?vid=2e587233-41ac-49a1-8b29-0e61fa8a348e","ios":"levelo://app?vid=2e587233-41ac-49a1-8b29-0e61fa8a348e"},"vehicle_type_id":"4","last_reported":1752240386,"current_range_meters":20400,"station_id":"ce4bgm92rcd13ifvqbr0","pricing_plan_id":"cebpf4jnsgd1na2vs0mg"},{"bike_id":"8f36ed24-46ce-476e-abea-128d934b1052","system_id":"levelo_inurba_marseille","lat":43.25916,"lon":5.40883,"is_reserved":false,"is_disabled":false,"rental_uris":{"android":"levelo://app?vid=8f36ed24-46ce-476e-abea-128d934b1052","ios":"levelo://app?vid=8f36ed24-46ce-476e-abea-128d934b1052"},"vehicle_type_id":"4","last_reported":1752240386,"current_range_meters":20400,"station_id":"ce4bhm92rcd13ifvqglg","pricing_plan_id":"cebpf4jnsgd1na2vs0mg"},{"bike_id":"85d2aee3-4fe4-4c9f-9f31-cc4fe835c04e","system_id":"levelo_inurba_marseille","lat":43.21192,"lon":5.35035,"is_reserved":false,"is_disabled":false,"rental_uris":{"android":"levelo://app?vid=85d2aee3-4fe4-4c9f-9f31-cc4fe835c04e","ios":"levelo://app?vid=85d2aee3-4fe4-4c9f-9f31-cc4fe835c04e"},"vehicle_type_id":"4","last_reported":1752240386,"current_range_meters":20400,"station_id":"st_cvj6sg6p6f1abm77japg","pricing_plan_id":"cebpf4jnsgd1na2vs0mg"},{"bike_id":"7e8e84e4-7666-4926-96a0-29020b243a5d","system_id":"levelo_inurba_marseille","lat":43.30462,"lon":5.379,"is_reserved":false,"is_disabled":false,"rental_uris":{"android":"levelo://app?vid=7e8e84e4-7666-4926-96a0-29020b243a5d","ios":"levelo://app?vid=7e8e84e4-7666-4926-96a0-29020b243a5d"},"vehicle_type_id":"4","last_reported":1752240386,"current_range_meters":20400,"station_id":"ce4bgup2rcd13ifvqcn0","pricing_plan_id":"cebpf4jnsgd1na2vs0mg"},{"bike_id":"e086cefe-35f3-41bc-8c2a-1d08370b36a2","system_id":"levelo_inurba_marseille","lat":43.27613,"lon":5.36116,"is_reserved":false,"is_disabled":false,"rental_uris":{"android":"levelo://app?vid=e086cefe-35f3-41bc-8c2a-1d08370b36a2","ios":"levelo://app?vid=e086cefe-35f3-41bc-8c2a-1d08370b36a2"},"vehicle_type_id":"4","last_reported":1752240386,"current_range_meters":20800,"station_id":"ce4bgj92rcd13ifvqbe0","pricing_plan_id":"cebpf4jnsgd1na2vs0mg"},{"bike_id":"9c306d2c-4c4a-458b-8440-eb87e2f8e252","system_id":"levelo_inurba_marseille","lat":43.298401,"lon":5.362641,"is_reserved":false,"is_disabled":false,"rental_uris":{"android":"levelo://app?vid=9c306d2c-4c4a-458b-8440-eb87e2f8e252","ios":"levelo://app?vid=9c306d2c-4c4a-458b-8440-eb87e2f8e252"},"vehicle_type_id":"4","last_reported":1752240386,"current_range_meters":20800,"station_id":"ce4bgpp2rcd13ifvqc3g","pricing_plan_id":"cebpf4jnsgd1na2vs0mg"},{"bike_id":"209f8359-e4f4-458f-82f4-f07f999617ce","system_id":"levelo_inurba_marseille","lat":43.28269,"lon":5.35077,"is_reserved":false,"is_disabled":false,"rental_uris":{"android":"levelo://app?vid=209f8359-e4f4-458f-82f4-f07f999617ce","ios":"levelo://app?vid=209f8359-e4f4-458f-82f4-f07f999617ce"},