{"last_updated":1774972668,"ttl":60,"version":"2.2","data":{"bikes":[{"bike_id":"fd2c0864-8c1f-45bd-8539-3042695532eb","system_id":"levelo_inurba_marseille","lat":43.24953,"lon":5.40483,"is_reserved":false,"is_disabled":false,"rental_uris":{"android":"levelo://app?vid=fd2c0864-8c1f-45bd-8539-3042695532eb","ios":"levelo://app?vid=fd2c0864-8c1f-45bd-8539-3042695532eb"},"vehicle_type_id":"4","last_reported":1774972669,"current_range_meters":2800,"station_id":"st_d2ngiaodas8pm72gd1h0","pricing_plan_id":"cebpf4jnsgd1na2vs0mg"},{"bike_id":"eb183401-ae3c-43f2-9e5e-c8679d00a258","system_id":"levelo_inurba_marseille","lat":43.25084,"lon":5.39518,"is_reserved":false,"is_disabled":false,"rental_uris":{"android":"levelo://app?vid=eb183401-ae3c-43f2-9e5e-c8679d00a258","ios":"levelo://app?vid=eb183401-ae3c-43f2-9e5e-c8679d00a258"},"vehicle_type_id":"4","last_reported":1774972669,"current_range_meters":2800,"station_id":"ce4bhm12rcd13ifvqgkg","pricing_plan_id":"cebpf4jnsgd1na2vs0mg"},{"bike_id":"479ddab6-8b70-42ac-848f-c46ba633fc4d","system_id":"levelo_inurba_marseille","lat":43.28534,"lon":5.44098,"is_reserved":false,"is_disabled":false,"rental_uris":{"android":"levelo://app?vid=479ddab6-8b70-42ac-848f-c46ba633fc4d","ios":"levelo://app?vid=479ddab6-8b70-42ac-848f-c46ba633fc4d"},"vehicle_type_id":"4","last_reported":1774972669,"current_range_meters":2800,"station_id":"st_d3j3df2ikq2c7380ej80","pricing_plan_id":"cebpf4jnsgd1na2vs0mg"},{"bike_id":"413afe58-995a-4911-ab2d-1d0cd110e24e","system_id":"levelo_inurba_marseille","lat":43.23151,"lon":5.43723,"is_reserved":false,"is_disabled":false,"rental_uris":{"android":"levelo://app?vid=413afe58-995a-4911-ab2d-1d0cd110e24e","ios":"levelo://app?vid=413afe58-995a-4911-ab2d-1d0cd110e24e"},"vehicle_type_id":"4","last_reported":1774972669,"current_range_meters":2800,"station_id":"ce4bhmp2rcd13ifvqgog","pricing_plan_id":"cebpf4jnsgd1na2vs0mg"},{"bike_id":"f18b46b6-c8ce-4ef4-b909-5b7e8c48763e","system_id":"levelo_inurba_marseille","lat":43.30269,"lon":5.37694,"is_reserved":false,"is_disabled":false,"rental_uris":{"android":"levelo://app?vid=f18b46b6-c8ce-4ef4-b909-5b7e8c48763e","ios":"levelo://app?vid=f18b46b6-c8ce-4ef4-b909-5b7e8c48763e"},"vehicle_type_id":"4","last_reported":1774972669,"current_range_meters":2800,"station_id":"ce4bguh2rcd13ifvqcj0","pricing_plan_id":"cebpf4jnsgd1na2vs0mg"},{"bike_id":"0027e804-1c2e-4eac-af86-b1844799a4ea","system_id":"levelo_inurba_marseille","lat":43.30424,"lon":5.41298,"is_reserved":false,"is_disabled":false,"rental_uris":{"android":"levelo://app?vid=0027e804-1c2e-4eac-af86-b1844799a4ea","ios":"levelo://app?vid=0027e804-1c2e-4eac-af86-b1844799a4ea"},"vehicle_type_id":"4","last_reported":1774972669,"current_range_meters":2800,"station_id":"ce4bhop2rcd13ifvqh8g","pricing_plan_id":"cebpf4jnsgd1na2vs0mg"},{"bike_id":"2927f07c-b234-4097-94c4-3cfcf9c927ca","system_id":"levelo_inurba_marseille","lat":43.23804,"lon":5.36641,"is_reserved":false,"is_disabled":false,"rental_uris":{"android":"levelo://app?vid=2927f07c-b234-4097-94c4-3cfcf9c927ca","ios":"levelo://app?vid=2927f07c-b234-4097-94c4-3cfcf9c927ca"},"vehicle_type_id":"4","last_reported":1774972669,"current_range_meters":2800,"station_id":"st_d3nk18o9ro0c73en2l3g","pricing_plan_id":"cebpf4jnsgd1na2vs0mg"},{"bike_id":"9d8c240b-6b5f-4449-9df4-bcf598898dab","system_id":"levelo_inurba_marseille","lat":43.24813,"lon":5.37456,"is_reserved":false,"is_disabled":false,"rental_uris":{"android":"levelo://app?vid=9d8c240b-6b5f-4449-9df4-bcf598898dab","ios":"levelo://app?vid=9d8c240b-6b5f-4449-9df4-bcf598898dab"},"vehicle_type_id":"4","last_reported":1774972669,"current_range_meters":2800,"station_id":"ce4bhgh2rcd13ifvqfb0","pricing_plan_id":"cebpf4jnsgd1na2vs0mg"},{"bike_id":"c0eec902-074b-4a18-af47-ff048b653a5e","system_id":"levelo_inurba_marseille","lat":43.28521,"lon":5.48434,"is_reserved":false,"is_disabled":false,"rental_uris":{"android":"levelo://app?vid=c0eec902-074b-4a18-af47-ff048b653a5e","ios":"levelo://app?vid=c0eec902-074b-4a18-af47-ff048b653a5e"},"vehicle_type_id":"4","last_reported":1774972669,"current_range_meters":3200,"station_id":"","pricing_plan_id":"cebpf4jnsgd1na2vs0mg"},{"bike_id":"639a16e7-5685-402e-9461-b49f02349e6b","system_id":"levelo_inurba_marseille","lat":43.29765,"lon":5.37109,"is_reserved":false,"is_disabled":false,"rental_uris":{"android":"levelo://app?vid=639a16e7-5685-402e-9461-b49f02349e6b","ios":"levelo://app?vid=639a16e7-5685-402e-9461-b49f02349e6b"},"vehicle_type_id":"4","last_reported":1774972669,"current_range_meters":3200,"station_id":"ce4bgop2rcd13ifvqc1g","pricing_plan_id":"cebpf4jnsgd1na2vs0mg"},{"bike_id":"9e340ba7-1277-446c-9459-913d7b47e570","system_id":"levelo_inurba_marseille","lat":43.30426,"lon":5.39102,"is_reserved":false,"is_disabled":false,"rental_uris":{"android":"levelo://app?vid=9e340ba7-1277-446c-9459-913d7b47e570","ios":"levelo://app?vid=9e340ba7-1277-446c-9459-913d7b47e570"},"vehicle_type_id":"4","last_reported":1774972669,"current_range_meters":3200,"station_id":"ce4bgk12rcd13ifvqbi0","pricing_plan_id":"cebpf4jnsgd1na2vs0mg"},{"bike_id":"0fc867b7-28aa-4011-b793-84c8b08bae6a","system_id":"levelo_inurba_marseille","lat":43.29532,"lon":5.38543,"is_reserved":false,"is_disabled":false,"rental_uris":{"android":"levelo://app?vid=0fc867b7-28aa-4011-b793-84c8b08bae6a","ios":"levelo://app?vid=0fc867b7-28aa-4011-b793-84c8b08bae6a"},"vehicle_type_id":"4","last_reported":1774972669,"current_range_meters":3200,"station_id":"ce4bgih2rcd13ifvqba0","pricing_plan_id":"cebpf4jnsgd1na2vs0mg"},{"bike_id":"b0ad70bd-2658-4fd8-a59f-0af52ed9a4fe","system_id":"levelo_inurba_marseille","lat":43.29203,"lon":5.35806,"is_reserved":false,"is_disabled":false,"rental_uris":{"android":"levelo://app?vid=b0ad70bd-2658-4fd8-a59f-0af52ed9a4fe","ios":"levelo://app?vid=b0ad70bd-2658-4fd8-a59f-0af52ed9a4fe"},"vehicle_type_id":"4","last_reported":1774972669,"current_range_meters":3200,"station_id":"ce4bhb12rcd13ifvqel0","pricing_plan_id":"cebpf4jnsgd1na2vs0mg"},{"bike_id":"64e8b088-2460-4e61-bb88-9bcb0cf6d684","system_id":"levelo_inurba_marseille","lat":43.27619,"lon":5.36101,"is_reserved":false,"is_disabled":false,"rental_uris":{"android":"levelo://app?vid=64e8b088-2460-4e61-bb88-9bcb0cf6d684","ios":"levelo://app?vid=64e8b088-2460-4e61-bb88-9bcb0cf6d684"},"vehicle_type_id":"4","last_reported":1774972669,"current_range_meters":3200,"station_id":"ce4bgj92rcd13ifvqbe0","pricing_plan_id":"cebpf4jnsgd1na2vs0mg"},{"bike_id":"60535554-f646-4a1d-b465-c1c23373de37","system_id":"levelo_inurba_marseille","lat":43.28036,"lon":5.42176,"is_reserved":false,"is_disabled":false,"rental_uris":{"android":"levelo://app?vid=60535554-f646-4a1d-b465-c1c23373de37","ios":"levelo://app?vid=60535554-f646-4a1d-b465-c1c23373de37"},"vehicle_type_id":"4","last_reported":1774972669,"current_range_meters":3600,"station_id":"","pricing_plan_id":"cebpf4jnsgd1na2vs0mg"},{"bike_id":"f2581f7a-1cb6-482c-bf85-31b52fc8847c","system_id":"levelo_inurba_marseille","lat":43.26568,"lon":5.37275,"is_reserved":false,"is_disabled":false,"rental_uris":{"android":"levelo://app?vid=f2581f7a-1cb6-482c-bf85-31b52fc8847c","ios":"levelo://app?vid=f2581f7a-1cb6-482c-bf85-31b52fc8847c"},"vehicle_type_id":"4","last_reported":1774972669,"current_range_meters":3600,"station_id":"ce4bhg12rcd13ifvqf70","pricing_plan_id":"cebpf4jnsgd1na2vs0mg"},{"bike_id":"fa2139d7-56b5-4664-870b-94753042ac1d","system_id":"levelo_inurba_marseille","lat":43.21197,"lon":5.35072,"is_reserved":false,"is_disabled":false,"rental_uris":{"android":"levelo://app?vid=fa2139d7-56b5-4664-870b-94753042ac1d","ios":"levelo://app?vid=fa2139d7-56b5-4664-870b-94753042ac1d"},"vehicle_type_id":"4","last_reported":1774972669,"current_range_meters":3600,"station_id":"st_cvj6sg6p6f1abm77japg","pricing_plan_id":"cebpf4jnsgd1na2vs0mg"},{"bike_id":"c6c032ec-5401-4d4e-8ce1-29e0b4d988fc","system_id":"levelo_inurba_marseille","lat":43.28622,"lon":5.39883,"is_reserved":false,"is_disabled":false,"rental_uris":{"android":"levelo://app?vid=c6c032ec-5401-4d4e-8ce1-29e0b4d988fc","ios":"levelo://app?vid=c6c032ec-5401-4d4e-8ce1-29e0b4d988fc"},"vehicle_type_id":"4","last_reported":1774972669,"current_range_meters":3600,"station_id":"st_d4a7ka997mjs738ck50g","pricing_plan_id":"cebpf4jnsgd1na2vs0mg"},{"bike_id":"3ac0129c-9c97-4af6-b6ad-c66c14a5c227","system_id":"levelo_inurba_marseille","lat":43.28488,"lon":5.4842,"is_reserved":false,"is_disabled":false,"rental_uris":{"android":"levelo://app?vid=3ac0129c-9c97-4af6-b6ad-c66c14a5c227","ios":"levelo://app?vid=3ac0129c-9c97-4af6-b6ad-c66c14a5c227"},"vehicle_type_id":"4","last_reported":1774972669,"current_range_meters":3600,"station_id":"","pricing_plan_id":"cebpf4jnsgd1na2vs0mg"},{"bike_id":"2347f686-fb58-45e4-8613-4ee621e8f00a","system_id":"levelo_inurba_marseille","lat":43.29931,"lon":5.3655,"is_reserved":false,"is_disabled":false,"rental_uris":{"android":"levelo://app?vid=2347f686-fb58-45e4-8613-4ee621e8f00a","ios":"levelo://app?vid=2347f686-fb58-45e4-8613-4ee621e8f00a"},"vehicle_type_id":"4","last_reported":1774972669,"current_range_meters":3600,"station_id":"ce4bgm92rcd13ifvqbr0","pricing_plan_id":"cebpf4jnsgd1na2vs0mg"},{"bike_id":"4d667ae4-b547-4cca-991c-1e232d16e2e1","system_id":"levelo_inurba_marseille","lat":43.24179,"lon":5.36395,"is_reserved":false,"is_disabled":false,"rental_uris":{"android":"levelo://app?vid=4d667ae4-b547-4cca-991c-1e232d16e2e1","ios":"levelo://app?vid=4d667ae4-b547-4cca-991c-1e232d16e2e1"},"vehicle_type_id":"4","last_reported":1774972669,"current_range_meters":4000,"station_id":"cpo36qri1sfpv3e86is0","pricing_plan_id":"cebpf4jnsgd1na2vs0mg"},{"bike_id":"7cefc45d-38f5-45cf-a99c-dfb4be1018fe","system_id":"levelo_inurba_marseille","lat":43.24482,"lon":5.42529,"is_reserved":false,"is_disabled":false,"rental_uris":{"android":"levelo://app?vid=7cefc45d-38f5-45cf-a99c-dfb4be1018fe","ios":"levelo://app?vid=7cefc45d-38f5-45cf-a99c-dfb4be1018fe"},"vehicle_type_id":"4","last_reported":1774972669,"current_range_meters":4000,"station_id":"st_d4a3vfp97mjs738cd8kg","pricing_plan_id":"cebpf4jnsgd1na2vs0mg"},{"bike_id":"84f584f2-7463-430c-b256-7715ae444efe","system_id":"levelo_inurba_marseille","lat":43.26228,"lon":5.4048,"is_reserved":false,"is_disabled":false,"rental_uris":{"android":"levelo://app?vid=84f584f2-7463-430c-b256-7715ae444efe","ios":"levelo://app?vid=84f584f2-7463-430c-b256-7715ae444efe"},"vehicle_type_id":"4","last_reported":1774972669,"current_range_meters":4000,"station_id":"ce4bhmh2rcd13ifvqgmg","pricing_plan_id":"cebpf4jnsgd1na2vs0mg"},{"bike_id":"fe2c2d4e-ad0a-4ad1-b727-7e9a7d4ef824","system_id":"levelo_inurba_marseille","lat":43.28488,"lon":5.48377,"is_reserved":false,"is_disabled":false,"rental_uris":{"android":"levelo://app?vid=fe2c2d4e-ad0a-4ad1-b727-7e9a7d4ef824","ios":"levelo://app?vid=fe2c2d4e-ad0a-4ad1-b727-7e9a7d4ef824"},"vehicle_type_id":"4","last_reported":1774972669,"current_range_meters":4000,"station_id":"","pricing_plan_id":"cebpf4jnsgd1na2vs0mg"},{"bike_id":"8d26c30b-3847-405c-8066-75bf15658130","system_id":"levelo_inurba_marseille","lat":43.29837,"lon":5.36469,"is_reserved":false,"is_disabled":false,"rental_uris":{"android":"levelo://app?vid=8d26c30b-3847-405c-8066-75bf15658130","ios":"levelo://app?vid=8d26c30b-3847-405c-8066-75bf15658130"},"vehicle_type_id":"4","last_reported":1774972669,"current_range_meters":4000,"station_id":"","pricing_plan_id":"cebpf4jnsgd1na2vs0mg"},{"bike_id":"e98dd6e8-d317-43af-87b8-7784a84112b8","system_id":"levelo_inurba_marseille","lat":43.23968,"lon":5.3663,"is_reserved":false,"is_disabled":false,"rental_uris":{"android":"levelo://app?vid=e98dd6e8-d317-43af-87b8-7784a84112b8","ios":"levelo://app?vid=e98dd6e8-d317-43af-87b8-7784a84112b8"},"vehicle_type_id":"4","last_reported":1774972669,"current_range_meters":4000,"station_id":"ce4bhi12rcd13ifvqfp0","pricing_plan_id":"cebpf4jnsgd1na2vs0mg"},{"bike_id":"d44c384a-52ef-4874-ac26-a5a8820fc02d","system_id":"levelo_inurba_marseille","lat":43.271292,"lon":5.395507,"is_reserved":false,"is_disabled":false,"rental_uris":{"android":"levelo://app?vid=d44c384a-52ef-4874-ac26-a5a8820fc02d","ios":"levelo://app?vid=d44c384a-52ef-4874-ac26-a5a8820fc02d"},"vehicle_type_id":"4","last_reported":1774972669,"current_range_meters":4000,"station_id":"ce4bhl12rcd13ifvqgf0","pricing_plan_id":"cebpf4jnsgd1na2vs0mg"},{"bike_id":"038bd06b-85ee-4348-8ad4-bd8d78b9c2d6","system_id":"levelo_inurba_marseille","lat":43.31073,"lon":5.37167,"is_reserved":false,"is_disabled":false,"rental_uris":{"android":"levelo://app?vid=038bd06b-85ee-4348-8ad4-bd8d78b9c2d6","ios":"levelo://app?vid=038bd06b-85ee-4348-8ad4-bd8d78b9c2d6"},"vehicle_type_id":"4","last_reported":1774972669,"current_range_meters":4000,"station_id":"st_d4kl2rp97mjs73e7tdfg","pricing_plan_id":"cebpf4jnsgd1na2vs0mg"},{"bike_id":"86e75f3c-23b3-46c4-9204-578544ad8e9a","system_id":"levelo_inurba_marseille","lat":43.23381,"lon":5.41219,"is_reserved":false,"is_disabled":false,"rental_uris":{"android":"levelo://app?vid=86e75f3c-23b3-46c4-9204-578544ad8e9a","ios":"levelo://app?vid=86e75f3c-23b3-46c4-9204-578544ad8e9a"},"vehicle_type_id":"4","last_reported":1774972669,"current_range_meters":4000,"station_id":"st_d75pvndhf9lc73cqq3eg","pricing_plan_id":"cebpf4jnsgd1na2vs0mg"},{"bike_id":"03ec0070-1d93-4ac5-87d3-21d47edad7cd","system_id":"levelo_inurba_marseille","lat":43.23771,"lon":5.3657,"is_reserved":false,"is_disabled":false,"rental_uris":{"android":"levelo://app?vid=03ec0070-1d93-4ac5-87d3-21d47edad7cd","ios":"levelo://app?vid=03ec0070-1d93-4ac5-87d3-21d47edad7cd"},"vehicle_type_id":"4","last_reported":1774972669,"current_range_meters":4400,"station_id":"","pricing_plan_id":"cebpf4jnsgd1na2vs0mg"},{"bike_id":"94ebd6be-fb80-4ec3-8693-d1f514f30182","system_id":"levelo_inurba_marseille","lat":43.30526,"lon":5.36701,"is_reserved":false,"is_disabled":false,"rental_uris":{"android":"levelo://app?vid=94ebd6be-fb80-4ec3-8693-d1f514f30182","ios":"levelo://app?vid=94ebd6be-fb80-4ec3-8693-d1f514f30182"},"vehicle_type_id":"4","last_reported":1774972669,"current_range_meters":4400,"station_id":"ce4bgrp2rcd13ifvqc9g","pricing_plan_id":"cebpf4jnsgd1na2vs0mg"},{"bike_id":"3a0058cf-efbc-4267-b19d-a2ef1622297f","system_id":"levelo_inurba_marseille","lat":43.28622,"lon":5.35104,"is_reserved":false,"is_disabled":false,"rental_uris":{"android":"levelo://app?vid=3a0058cf-efbc-4267-b19d-a2ef1622297f","ios":"levelo://app?vid=3a0058cf-efbc-4267-b19d-a2ef1622297f"},"vehicle_type_id":"4","last_reported":1774972669,"current_range_meters":4400,"station_id":"ce4bhch2rcd13ifvqeug","pricing_plan_id":"cebpf4jnsgd1na2vs0mg"},{"bike_id":"14c02da1-788d-458d-a8e7-dbeba974518f","system_id":"levelo_inurba_marseille","lat":43.30464,"lon":5.3791,"is_reserved":false,"is_disabled":false,"rental_uris":{"android":"levelo://app?vid=14c02da1-788d-458d-a8e7-dbeba974518f","ios":"levelo://app?vid=14c02da1-788d-458d-a8e7-dbeba974518f"},"vehicle_type_id":"4","last_reported":1774972669,"current_range_meters":4400,"station_id":"ce4bgup2rcd13ifvqcn0","pricing_plan_id":"cebpf4jnsgd1na2vs0mg"},{"bike_id":"8289ea9c-9f3c-47cc-ae82-8027b0a738ac","system_id":"levelo_inurba_marseille","lat":43.31927,"lon":5.36734,"is_reserved":false,"is_disabled":false,"rental_uris":{"android":"levelo://app?vid=8289ea9c-9f3c-47cc-ae82-8027b0a738ac","ios":"levelo://app?vid=8289ea9c-9f3c-47cc-ae82-8027b0a738ac"},"vehicle_type_id":"4","last_reported":1774972669,"current_range_meters":4400,"station_id":"","pricing_plan_id":"cebpf4jnsgd1na2vs0mg"},{"bike_id":"cb88b7c0-158f-47d6-b62a-c3ee88f004a1","system_id":"levelo_inurba_marseille","lat":43.24464,"lon":5.4255,"is_reserved":false,"is_disabled":false,"rental_uris":{"android":"levelo://app?vid=cb88b7c0-158f-47d6-b62a-c3ee88f004a1","ios":"levelo://app?vid=cb88b7c0-158f-47d6-b62a-c3ee88f004a1"},"vehicle_type_id":"4","last_reported":1774972669,"current_range_meters":4400,"station_id":"st_d4a3vfp97mjs738cd8kg","pricing_plan_id":"cebpf4jnsgd1na2vs0mg"},{"bike_id":"c6ed78e3-3c94-4dd1-b429-a5d8d26a2a1e","system_id":"levelo_inurba_marseille","lat":43.28945,"lon":5.36397,"is_reserved":false,"is_disabled":false,"rental_uris":{"android":"levelo://app?vid=c6ed78e3-3c94-4dd1-b429-a5d8d26a2a1e","ios":"levelo://app?vid=c6ed78e3-3c94-4dd1-b429-a5d8d26a2a1e"},"vehicle_type_id":"4","last_reported":1774972669,"current_range_meters":4800,"station_id":"ce4bhc92rcd13ifvqetg","pricing_plan_id":"cebpf4jnsgd1na2vs0mg"},{"bike_id":"10844d4f-8a2d-46cd-986e-ccf4b3a1143c","system_id":"levelo_inurba_marseille","lat":43.26565,"lon":5.39023,"is_reserved":false,"is_disabled":false,"rental_uris":{"android":"levelo://app?vid=10844d4f-8a2d-46cd-986e-ccf4b3a1143c","ios":"levelo://app?vid=10844d4f-8a2d-46cd-986e-ccf4b3a1143c"},"vehicle_type_id":"4","last_reported":1774972669,"current_range_meters":4800,"station_id":"ce4bhe12rcd13ifvqf30","pricing_plan_id":"cebpf4jnsgd1na2vs0mg"},{"bike_id":"c798f683-654c-4162-8383-94bab235ad53","system_id":"levelo_inurba_marseille","lat":43.2994,"lon":5.36518,"is_reserved":false,"is_disabled":false,"rental_uris":{"android":"levelo://app?vid=c798f683-654c-4162-8383-94bab235ad53","ios":"levelo://app?vid=c798f683-654c-4162-8383-94bab235ad53"},"vehicle_type_id":"4","last_reported":1774972669,"current_range_meters":4800,"station_id":"ce4bgm92rcd13ifvqbr0","pricing_plan_id":"cebpf4jnsgd1na2vs0mg"},{"bike_id":"4977f95e-718a-4120-8926-2364059fe1a3","system_id":"levelo_inurba_marseille","lat":43.2727,"lon":5.40177,"is_reserved":false,"is_disabled":false,"rental_uris":{"android":"levelo://app?vid=4977f95e-718a-4120-8926-2364059fe1a3","ios":"levelo://app?vid=4977f95e-718a-4120-8926-2364059fe1a3"},"vehicle_type_id":"4","last_reported":1774972669,"current_range_meters":4800,"station_id":"","pricing_plan_id":"cebpf4jnsgd1na2vs0mg"},{"bike_id":"f5a303b4-19b6-4e82-aa4f-cd822fbe2e26","system_id":"levelo_inurba_marseille","lat":43.25576,"lon":5.38223,"is_reserved":false,"is_disabled":false,"rental_uris":{"android":"levelo://app?vid=f5a303b4-19b6-4e82-aa4f-cd822fbe2e26","ios":"levelo://app?vid=f5a303b4-19b6-4e82-aa4f-cd822fbe2e26"},"vehicle_type_id":"4","last_reported":1774972669,"current_range_meters":4800,"station_id":"ce4bhih2rcd13ifvqfs0","pricing_plan_id":"cebpf4jnsgd1na2vs0mg"},{"bike_id":"0c6e6798-e036-48b5-8f51-31ac48e32018","system_id":"levelo_inurba_marseille","lat":43.31151,"lon":5.36852,"is_reserved":false,"is_disabled":false,"rental_uris":{"android":"levelo://app?vid=0c6e6798-e036-48b5-8f51-31ac48e32018","ios":"levelo://app?vid=0c6e6798-e036-48b5-8f51-31ac48e32018"},"vehicle_type_id":"4","last_reported":1774972669,"current_range_meters":4800,"station_id":"","pricing_plan_id":"cebpf4jnsgd1na2vs0mg"},{"bike_id":"6a07290c-4d96-493c-bece-412d5cabc671","system_id":"levelo_inurba_marseille","lat":43.28618,"lon":5.35105,"is_reserved":false,"is_disabled":false,"rental_uris":{"android":"levelo://app?vid=6a07290c-4d96-493c-bece-412d5cabc671","ios":"levelo://app?vid=6a07290c-4d96-493c-bece-412d5cabc671"},"vehicle_type_id":"4","last_reported":1774972669,"current_range_meters":4800,"station_id":"ce4bhch2rcd13ifvqeug","pricing_plan_id":"cebpf4jnsgd1na2vs0mg"},{"bike_id":"8db720bd-c013-47bc-b3e6-6235b86947e2","system_id":"levelo_inurba_marseille","lat":43.22554,"lon":5.41631,"is_reserved":false,"is_disabled":false,"rental_uris":{"android":"levelo://app?vid=8db720bd-c013-47bc-b3e6-6235b86947e2","ios":"levelo://app?vid=8db720bd-c013-47bc-b3e6-6235b86947e2"},"vehicle_type_id":"4","last_reported":1774972669,"current_range_meters":4800,"station_id":"st_d2o4gvlbi1j2169b742g","pricing_plan_id":"cebpf4jnsgd1na2vs0mg"},{"bike_id":"0528433d-f479-4ab7-911c-fbe118ce1d18","system_id":"levelo_inurba_marseille","lat":43.30528,"lon":5.3672,"is_reserved":false,"is_disabled":false,"rental_uris":{"android":"levelo://app?vid=0528433d-f479-4ab7-911c-fbe118ce1d18","ios":"levelo://app?vid=0528433d-f479-4ab7-911c-fbe118ce1d18"},"vehicle_type_id":"4","last_reported":1774972669,"current_range_meters":4800,"station_id":"ce4bgrp2rcd13ifvqc9g","pricing_plan_id":"cebpf4jnsgd1na2vs0mg"},{"bike_id":"f5ff7a09-393b-48f6-bb71-3c7d02033327","system_id":"levelo_inurba_marseille","lat":43.30464,"lon":5.38907,"is_reserved":false,"is_disabled":true,"rental_uris":{"android":"levelo://app?vid=f5ff7a09-393b-48f6-bb71-3c7d02033327","ios":"levelo://app?vid=f5ff7a09-393b-48f6-bb71-3c7d02033327"},"vehicle_type_id":"4","last_reported":1774972669,"current_range_meters":4800,"station_id":"ce4bgk12rcd13ifvqbi0","pricing_plan_id":"cebpf4jnsgd1na2vs0mg"},{"bike_id":"ae7263d2-e16a-41b7-b3e2-0db58965c478","system_id":"levelo_inurba_marseille","lat":43.25124,"lon":5.40317,"is_reserved":false,"is_disabled":false,"rental_uris":{"android":"levelo://app?vid=ae7263d2-e16a-41b7-b3e2-0db58965c478","ios":"levelo://app?vid=ae7263d2-e16a-41b7-b3e2-0db58965c478"},"vehicle_type_id":"4","last_reported":1774972669,"current_range_meters":4800,"station_id":"ce4bhlh2rcd13ifvqgig","pricing_plan_id":"cebpf4jnsgd1na2vs0mg"},{"bike_id":"6cb80350-a12f-414d-8a45-edb4d9decdf0","system_id":"levelo_inurba_marseille","lat":43.28551,"lon":5.44134,"is_reserved":false,"is_disabled":false,"rental_uris":{"android":"levelo://app?vid=6cb80350-a12f-414d-8a45-edb4d9decdf0","ios":"levelo://app?vid=6cb80350-a12f-414d-8a45-edb4d9decdf0"},"vehicle_type_id":"4","last_reported":1774972669,"current_range_meters":4800,"station_id":"st_d3j3df2ikq2c7380ej80","pricing_plan_id":"cebpf4jnsgd1na2vs0mg"},{"bike_id":"4a643d52-c681-4877-9690-ff562581810a","system_id":"levelo_inurba_marseille","lat":43.32654,"lon":5.40995,"is_reserved":false,"is_disabled":false,"rental_uris":{"android":"levelo://app?vid=4a643d52-c681-4877-9690-ff562581810a","ios":"levelo://app?vid=4a643d52-c681-4877-9690-ff562581810a"},"vehicle_type_id":"4","last_reported":1774972669,"current_range_meters":4800,"station_id":"ce4bhpp2rcd13ifvqhgg","pricing_plan_id":"cebpf4jnsgd1na2vs0mg"},{"bike_id":"a73191d3-73d9-430f-9176-77248fba3ed8","system_id":"levelo_inurba_marseille","lat":43.296088,"lon":5.377094,"is_reserved":false,"is_disabled":false,"rental_uris":{"android":"levelo://app?vid=a73191d3-73d9-430f-9176-77248fba3ed8","ios":"levelo://app?vid=a73191d3-73d9-430f-9176-77248fba3ed8"},"vehicle_type_id":"4","last_reported":1774972669,"current_range_meters":4800,"station_id":"ce4bgi92rcd13ifvqb90","pricing_plan_id":"cebpf4jnsgd1na2vs0mg"},{"bike_id":"72d9b7c8-bad1-4689-9b0f-2502537cdda9","system_id":"levelo_inurba_marseille","lat":43.2553,"lon":5.37658,"is_reserved":false,"is_disabled":false,"rental_uris":{"android":"levelo://app?vid=72d9b7c8-bad1-4689-9b0f-2502537cdda9","ios":"levelo://app?vid=72d9b7c8-bad1-4689-9b0f-2502537cdda9"},"vehicle_type_id":"4","last_reported":1774972669,"current_range_meters":4800,"station_id":"ce4bhh12rcd13ifvqff0","pricing_plan_id":"cebpf4jnsgd1na2vs0mg"},{"bike_id":"e75d5ab0-201a-49aa-aee4-ccc6a30f5664","system_id":"levelo_inurba_marseille","lat":43.29527,"lon":5.38674,"is_reserved":false,"is_disabled":false,"rental_uris":{"android":"levelo://app?vid=e75d5ab0-201a-49aa-aee4-ccc6a30f5664","ios":"levelo://app?vid=e75d5ab0-201a-49aa-aee4-ccc6a30f5664"},"vehicle_type_id":"4","last_reported":1774972669,"current_range_meters":4800,"station_id":"","pricing_plan_id":"cebpf4jnsgd1na2vs0mg"},{"bike_id":"86d65a97-413c-40d1-80af-aa86a6b8325c","system_id":"levelo_inurba_marseille","lat":43.29258,"lon":5.40909,"is_reserved":false,"is_disabled":false,"rental_uris":{"android":"levelo://app?vid=86d65a97-413c-40d1-80af-aa86a6b8325c","ios":"levelo://app?vid=86d65a97-413c-40d1-80af-aa86a6b8325c"},"vehicle_type_id":"4","last_reported":1774972669,"current_range_meters":4800,"station_id":"ce4bh192rcd13ifvqdc0","pricing_plan_id":"cebpf4jnsgd1na2vs0mg"},{"bike_id":"558d1225-f00e-4763-8566-233b5b7e61a8","system_id":"levelo_inurba_marseille","lat":43.2962,"lon":5.37722,"is_reserved":false,"is_disabled":false,"rental_uris":{"android":"levelo://app?vid=558d1225-f00e-4763-8566-233b5b7e61a8","ios":"levelo://app?vid=558d1225-f00e-4763-8566-233b5b7e61a8"},"vehicle_type_id":"4","last_reported":1774972669,"current_range_meters":4800,"station_id":"ce4bgi92rcd13ifvqb90","pricing_plan_id":"cebpf4jnsgd1na2vs0mg"},{"bike_id":"245e34c7-8ef0-4b24-b73f-685b2ecfb3c1","system_id":"levelo_inurba_marseille","lat":43.29996,"lon":5.38603,"is_reserved":false,"is_disabled":false,"rental_uris":{"android":"levelo://app?vid=245e34c7-8ef0-4b24-b73f-685b2ecfb3c1","ios":"levelo://app?vid=245e34c7-8ef0-4b24-b73f-685b2ecfb3c1"},"vehicle_type_id":"4","last_reported":1774972669,"current_range_meters":4800,"station_id":"","pricing_plan_id":"cebpf4jnsgd1na2vs0mg"},{"bike_id":"227cc43c-6fb3-476a-abb2-74c924061fb2","system_id":"levelo_inurba_marseille","lat":43.22569,"lon":5.41637,"is_reserved":false,"is_disabled":false,"rental_uris":{"android":"levelo://app?vid=227cc43c-6fb3-476a-abb2-74c924061fb2","ios":"levelo://app?vid=227cc43c-6fb3-476a-abb2-74c924061fb2"},"vehicle_type_id":"4","last_reported":1774972669,"current_range_meters":4800,"station_id":"st_d2o4gvlbi1j2169b742g","pricing_plan_id":"cebpf4jnsgd1na2vs0mg"},{"bike_id":"f54bfc49-c52e-433a-9661-97eeb8e5a586","system_id":"levelo_inurba_marseille","lat":43.23773,"lon":5.3667,"is_reserved":false,"is_disabled":false,"rental_uris":{"android":"levelo://app?vid=f54bfc49-c52e-433a-9661-97eeb8e5a586","ios":"levelo://app?vid=f54bfc49-c52e-433a-9661-97eeb8e5a586"},"vehicle_type_id":"4","last_reported":1774972669,"current_range_meters":4800,"station_id":"st_d3nk18o9ro0c73en2l3g","pricing_plan_id":"cebpf4jnsgd1na2vs0mg"},{"bike_id":"8b4108a6-c7e2-4043-b547-cb1e59a8963a","system_id":"levelo_inurba_marseille","lat":43.24351,"lon":5.40837,"is_reserved":false,"is_disabled":false,"rental_uris":{"android":"levelo://app?vid=8b4108a6-c7e2-4043-b547-cb1e59a8963a","ios":"levelo://app?vid=8b4108a6-c7e2-4043-b547-cb1e59a8963a"},"vehicle_type_id":"4","last_reported":1774972669,"current_range_meters":4800,"station_id":"","pricing_plan_id":"cebpf4jnsgd1na2vs0mg"},{"bike_id":"4723eef4-bfeb-4703-a009-d2703a79428a","system_id":"levelo_inurba_marseille","lat":43.23152,"lon":5.43703,"is_reserved":false,"is_disabled":false,"rental_uris":{"android":"levelo://app?vid=4723eef4-bfeb-4703-a009-d2703a79428a","ios":"levelo://app?vid=4723eef4-bfeb-4703-a009-d2703a79428a"},"vehicle_type_id":"4","last_reported":1774972669,"current_range_meters":5600,"station_id":"ce4bhmp2rcd13ifvqgog","pricing_plan_id":"cebpf4jnsgd1na2vs0mg"},{"bike_id":"cb1709ac-6129-4781-b7ce-4b0441532f28","system_id":"levelo_inurba_marseille","lat":43.23782,"lon":5.36654,"is_reserved":false,"is_disabled":false,"rental_uris":{"android":"levelo://app?vid=cb1709ac-6129-4781-b7ce-4b0441532f28","ios":"levelo://app?vid=cb1709ac-6129-4781-b7ce-4b0441532f28"},"vehicle_type_id":"4","last_reported":1774972669,"current_range_meters":5600,"station_id":"st_d3nk18o9ro0c73en2l3g","pricing_plan_id":"cebpf4jnsgd1na2vs0mg"},{"bike_id":"f2ac8faa-b8e8-4025-bb6d-4e45873c4422","system_id":"levelo_inurba_marseille","lat":43.23193,"lon":5.43687,"is_reserved":false,"is_disabled":false,"rental_uris":{"android":"levelo://app?vid=f2ac8faa-b8e8-4025-bb6d-4e45873c4422","ios":"levelo://app?vid=f2ac8faa-b8e8-4025-bb6d-4e45873c4422"},"vehicle_type_id":"4","last_reported":1774972669,"current_range_meters":5600,"station_id":"ce4bhmp2rcd13ifvqgog","pricing_plan_id":"cebpf4jnsgd1na2vs0mg"},{"bike_id":"46908cee-d39c-4432-9f8a-bab93c874af1","system_id":"levelo_inurba_marseille","lat":43.24694,"lon":5.38206,"is_reserved":false,"is_disabled":false,"rental_uris":{"android":"levelo://app?vid=46908cee-d39c-4432-9f8a-bab93c874af1","ios":"levelo://app?vid=46908cee-d39c-4432-9f8a-bab93c874af1"},"vehicle_type_id":"4","last_reported":1774972669,"current_range_meters":5600,"station_id":"ce4bhih2rcd13ifvqfr0","pricing_plan_id":"cebpf4jnsgd1na2vs0mg"},{"bike_id":"3894727a-5bec-4539-adc1-de46f01cbe56","system_id":"levelo_inurba_marseille","lat":43.294666,"lon":5.3763,"is_reserved":false,"is_disabled":false,"rental_uris":{"android":"levelo://app?vid=3894727a-5bec-4539-adc1-de46f01cbe56","ios":"levelo://app?vid=3894727a-5bec-4539-adc1-de46f01cbe56"},"vehicle_type_id":"4","last_reported":1774972669,"current_range_meters":5600,"station_id":"ce4bha92rcd13ifvqeh0","pricing_plan_id":"cebpf4jnsgd1na2vs0mg"},{"bike_id":"34e5e96c-68fe-4408-9ab0-fa9cd7e8a6c0","system_id":"levelo_inurba_marseille","lat":43.29893,"lon":5.40947,"is_reserved":false,"is_disabled":false,"rental_uris":{"android":"levelo://app?vid=34e5e96c-68fe-4408-9ab0-fa9cd7e8a6c0","ios":"levelo://app?vid=34e5e96c-68fe-4408-9ab0-fa9cd7e8a6c0"},"vehicle_type_id":"4","last_reported":1774972669,"current_range_meters":5600,"station_id":"","pricing_plan_id":"cebpf4jnsgd1na2vs0mg"},{"bike_id":"511b8e46-a923-4530-a3b5-7b17727580ae","system_id":"levelo_inurba_marseille","lat":43.29532,"lon":5.38541,"is_reserved":false,"is_disabled":false,"rental_uris":{"android":"levelo://app?vid=511b8e46-a923-4530-a3b5-7b17727580ae","ios":"levelo://app?vid=511b8e46-a923-4530-a3b5-7b17727580ae"},"vehicle_type_id":"4","last_reported":1774972669,"current_range_meters":5600,"station_id":"ce4bgih2rcd13ifvqba0","pricing_plan_id":"cebpf4jnsgd1na2vs0mg"},{"bike_id":"3cc05887-c394-4b3c-a39b-a8709b3db538","system_id":"levelo_inurba_marseille","lat":43.26091,"lon":5.39342,"is_reserved":false,"is_disabled":false,"rental_uris":{"android":"levelo://app?vid=3cc05887-c394-4b3c-a39b-a8709b3db538","ios":"levelo://app?vid=3cc05887-c394-4b3c-a39b-a8709b3db538"},"vehicle_type_id":"4","last_reported":1774972669,"current_range_meters":5600,"station_id":"","pricing_plan_id":"cebpf4jnsgd1na2vs0mg"},{"bike_id":"e61a3b02-8828-47a8-8796-a0480c283119","system_id":"levelo_inurba_marseille","lat":43.22928,"lon":5.35393,"is_reserved":false,"is_disabled":false,"rental_uris":{"android":"levelo://app?vid=e61a3b02-8828-47a8-8796-a0480c283119","ios":"levelo://app?vid=e61a3b02-8828-47a8-8796-a0480c283119"},"vehicle_type_id":"4","last_reported":1774972669,"current_range_meters":5600,"station_id":"cpo3532slgdg3j2ikp40","pricing_plan_id":"cebpf4jnsgd1na2vs0mg"},{"bike_id":"bf87ceba-50cc-4a6b-ac16-584c66d1327e","system_id":"levelo_inurba_marseille","lat":43.3033,"lon":5.40431,"is_reserved":false,"is_disabled":false,"rental_uris":{"android":"levelo://app?vid=bf87ceba-50cc-4a6b-ac16-584c66d1327e","ios":"levelo://app?vid=bf87ceba-50cc-4a6b-ac16-584c66d1327e"},"vehicle_type_id":"4","last_reported":1774972669,"current_range_meters":5600,"station_id":"ce4bh012rcd13ifvqd10","pricing_plan_id":"cebpf4jnsgd1na2vs0mg"},{"bike_id":"a2df5bbc-915e-4be4-8861-be4d46ce41c0","system_id":"levelo_inurba_marseille","lat":43.28476,"lon":5.48392,"is_reserved":false,"is_disabled":false,"rental_uris":{"android":"levelo://app?vid=a2df5bbc-915e-4be4-8861-be4d46ce41c0","ios":"levelo://app?vid=a2df5bbc-915e-4be4-8861-be4d46ce41c0"},"vehicle_type_id":"4","last_reported":1774972669,"current_range_meters":6000,"station_id":"","pricing_plan_id":"cebpf4jnsgd1na2vs0mg"},{"bike_id":"dddf0143-24c8-4746-a004-3fd370327f3f","system_id":"levelo_inurba_marseille","lat":43.26498,"lon":5.3955,"is_reserved":false,"is_disabled":false,"rental_uris":{"android":"levelo://app?vid=dddf0143-24c8-4746-a004-3fd370327f3f","ios":"levelo://app?vid=dddf0143-24c8-4746-a004-3fd370327f3f"},"vehicle_type_id":"4","last_reported":1774972669,"current_range_meters":6000,"station_id":"ce4bhi12rcd13ifvqfq0","pricing_plan_id":"cebpf4jnsgd1na2vs0mg"},{"bike_id":"5ae1cde3-c020-448f-8cff-83f80611c531","system_id":"levelo_inurba_marseille","lat":43.24461,"lon":5.42535,"is_reserved":false,"is_disabled":false,"rental_uris":{"android":"levelo://app?vid=5ae1cde3-c020-448f-8cff-83f80611c531","ios":"levelo://app?vid=5ae1cde3-c020-448f-8cff-83f80611c531"},"vehicle_type_id":"4","last_reported":1774972669,"current_range_meters":6000,"station_id":"st_d4a3vfp97mjs738cd8kg","pricing_plan_id":"cebpf4jnsgd1na2vs0mg"},{"bike_id":"7807e959-548b-4573-9349-6f8ad219a4a5","system_id":"levelo_inurba_marseille","lat":43.24178,"lon":5.36374,"is_reserved":false,"is_disabled":false,"rental_uris":{"android":"levelo://app?vid=7807e959-548b-4573-9349-6f8ad219a4a5","ios":"levelo://app?vid=7807e959-548b-4573-9349-6f8ad219a4a5"},"vehicle_type_id":"4","last_reported":1774972669,"current_range_meters":6000,"station_id":"cpo36qri1sfpv3e86is0","pricing_plan_id":"cebpf4jnsgd1na2vs0mg"},{"bike_id":"372b8b50-b0a7-4341-a976-61dda51c6bb2","system_id":"levelo_inurba_marseille","lat":43.26187,"lon":5.37447,"is_reserved":false,"is_disabled":false,"rental_uris":{"android":"levelo://app?vid=372b8b50-b0a7-4341-a976-61dda51c6bb2","ios":"levelo://app?vid=372b8b50-b0a7-4341-a976-61dda51c6bb2"},"vehicle_type_id":"4","last_reported":1774972669,"current_range_meters":6000,"station_id":"ce4bhgp2rcd13ifvqfc0","pricing_plan_id":"cebpf4jnsgd1na2vs0mg"},{"bike_id":"12dcee11-3c66-402c-ba95-5f734655298c","system_id":"levelo_inurba_marseille","lat":43.24546,"lon":5.39521,"is_reserved":false,"is_disabled":false,"rental_uris":{"android":"levelo://app?vid=12dcee11-3c66-402c-ba95-5f734655298c","ios":"levelo://app?vid=12dcee11-3c66-402c-ba95-5f734655298c"},"vehicle_type_id":"4","last_reported":1774972669,"current_range_meters":6000,"station_id":"ce4bhlp2rcd13ifvqgjg","pricing_plan_id":"cebpf4jnsgd1na2vs0mg"},{"bike_id":"1ec7aa15-c468-42bb-a169-1266117f5979","system_id":"levelo_inurba_marseille","lat":43.29968,"lon":5.37181,"is_reserved":false,"is_disabled":false,"rental_uris":{"android":"levelo://app?vid=1ec7aa15-c468-42bb-a169-1266117f5979","ios":"levelo://app?vid=1ec7aa15-c468-42bb-a169-1266117f5979"},"vehicle_type_id":"4","last_reported":1774972669,"current_range_meters":6000,"station_id":"ce4bgr92rcd13ifvqc7g","pricing_plan_id":"cebpf4jnsgd1na2vs0mg"},{"bike_id":"b2ad8f77-b72f-425d-ae56-6f3d07fd7d34","system_id":"levelo_inurba_marseille","lat":43.33162,"lon":5.3771,"is_reserved":false,"is_disabled":false,"rental_uris":{"android":"levelo://app?vid=b2ad8f77-b72f-425d-ae56-6f3d07fd7d34","ios":"levelo://app?vid=b2ad8f77-b72f-425d-ae56-6f3d07fd7d34"},"vehicle_type_id":"4","last_reported":1774972669,"current_range_meters":6000,"station_id":"st_d46cu089ee8s73dldbu0","pricing_plan_id":"cebpf4jnsgd1na2vs0mg"},{"bike_id":"e9ac60bc-3dbb-4fc1-b6fd-bc440425e538","system_id":"levelo_inurba_marseille","lat":43.26563,"lon":5.40327,"is_reserved":false,"is_disabled":false,"rental_uris":{"android":"levelo://app?vid=e9ac60bc-3dbb-4fc1-b6fd-bc440425e538","ios":"levelo://app?vid=e9ac60bc-3dbb-4fc1-b6fd-bc440425e538"},"vehicle_type_id":"4","last_reported":1774972669,"current_range_meters":6000,"station_id":"ce4bhmp2rcd13ifvqgng","pricing_plan_id":"cebpf4jnsgd1na2vs0mg"},{"bike_id":"145da0be-3016-4be6-8263-0e24c3e5d1fa","system_id":"levelo_inurba_marseille","lat":43.23961,"lon":5.3662,"is_reserved":false,"is_disabled":false,"rental_uris":{"android":"levelo://app?vid=145da0be-3016-4be6-8263-0e24c3e5d1fa","ios":"levelo://app?vid=145da0be-3016-4be6-8263-0e24c3e5d1fa"},"vehicle_type_id":"4","last_reported":1774972669,"current_range_meters":6000,"station_id":"ce4bhi12rcd13ifvqfp0","pricing_plan_id":"cebpf4jnsgd1na2vs0mg"},{"bike_id":"6af8ee89-7e2b-4a49-ae02-b3f230dc55a8","system_id":"levelo_inurba_marseille","lat":43.29583,"lon":5.36738,"is_reserved":false,"is_disabled":false,"rental_uris":{"android":"levelo://app?vid=6af8ee89-7e2b-4a49-ae02-b3f230dc55a8","ios":"levelo://app?vid=6af8ee89-7e2b-4a49-ae02-b3f230dc55a8"},"vehicle_type_id":"4","last_reported":1774972669,"current_range_meters":6000,"station_id":"ce4bgph2rcd13ifvqc2g","pricing_plan_id":"cebpf4jnsgd1na2vs0mg"},{"bike_id":"bb9c9ce8-7ad8-4c58-9c75-429d43a3d175","system_id":"levelo_inurba_marseille","lat":43.24037,"lon":5.3623,"is_reserved":false,"is_disabled":false,"rental_uris":{"android":"levelo://app?vid=bb9c9ce8-7ad8-4c58-9c75-429d43a3d175","ios":"levelo://app?vid=bb9c9ce8-7ad8-4c58-9c75-429d43a3d175"},"vehicle_type_id":"4","last_reported":1774972669,"current_range_meters":6000,"station_id":"","pricing_plan_id":"cebpf4jnsgd1na2vs0mg"},{"bike_id":"8224fee4-1d52-4b11-b16a-70c5a6603dd7","system_id":"levelo_inurba_marseille","lat":43.28488,"lon":5.48401,"is_reserved":false,"is_disabled":false,"rental_uris":{"android":"levelo://app?vid=8224fee4-1d52-4b11-b16a-70c5a6603dd7","ios":"levelo://app?vid=8224fee4-1d52-4b11-b16a-70c5a6603dd7"},"vehicle_type_id":"4","last_reported":1774972669,"current_range_meters":6000,"station_id":"","pricing_plan_id":"cebpf4jnsgd1na2vs0mg"},{"bike_id":"84f5a0fd-3505-4a12-96e3-a965175825c8","system_id":"levelo_inurba_marseille","lat":43.31358,"lon":5.38491,"is_reserved":false,"is_disabled":false,"rental_uris":{"android":"levelo://app?vid=84f5a0fd-3505-4a12-96e3-a965175825c8","ios":"levelo://app?vid=84f5a0fd-3505-4a12-96e3-a965175825c8"},"vehicle_type_id":"4","last_reported":1774972669,"current_range_meters":6400,"station_id":"ce4bgt92rcd13ifvqcf0","pricing_plan_id":"cebpf4jnsgd1na2vs0mg"},{"bike_id":"48529b6b-9879-4de3-b292-e59df15e7b99","system_id":"levelo_inurba_marseille","lat":43.29526,"lon":5.39052,"is_reserved":false,"is_disabled":false,"rental_uris":{"android":"levelo://app?vid=48529b6b-9879-4de3-b292-e59df15e7b99","ios":"levelo://app?vid=48529b6b-9879-4de3-b292-e59df15e7b99"},"vehicle_type_id":"4","last_reported":1774972669,"current_range_meters":6400,"station_id":"ce4bh3p2rcd13ifvqdp0","pricing_plan_id":"cebpf4jnsgd1na2vs0mg"},{"bike_id":"eac6a123-5f69-4eb4-aa4b-cdeaecf10b56","system_id":"levelo_inurba_marseille","lat":43.30555,"lon":5.36539,"is_reserved":false,"is_disabled":false,"rental_uris":{"android":"levelo://app?vid=eac6a123-5f69-4eb4-aa4b-cdeaecf10b56","ios":"levelo://app?vid=eac6a123-5f69-4eb4-aa4b-cdeaecf10b56"},"vehicle_type_id":"4","last_reported":1774972669,"current_range_meters":6400,"station_id":"ce4bgs12rcd13ifvqcag","pricing_plan_id":"cebpf4jnsgd1na2vs0mg"},{"bike_id":"e72f4c7b-240a-4bc5-b383-6a5f011f272e","system_id":"levelo_inurba_marseille","lat":43.23207,"lon":5.35568,"is_reserved":false,"is_disabled":false,"rental_uris":{"android":"levelo://app?vid=e72f4c7b-240a-4bc5-b383-6a5f011f272e","ios":"levelo://app?vid=e72f4c7b-240a-4bc5-b383-6a5f011f272e"},"vehicle_type_id":"4","last_reported":1774972669,"current_range_meters":6400,"station_id":"ce4bhu92rcd13ifvqi70","pricing_plan_id":"cebpf4jnsgd1na2vs0mg"},{"bike_id":"1aa18052-e7e0-4185-b467-3a7da5c3e7aa","system_id":"levelo_inurba_marseille","lat":43.29802,"lon":5.37112,"is_reserved":false,"is_disabled":false,"rental_uris":{"android":"levelo://app?vid=1aa18052-e7e0-4185-b467-3a7da5c3e7aa","ios":"levelo://app?vid=1aa18052-e7e0-4185-b467-3a7da5c3e7aa"},"vehicle_type_id":"4","last_reported":1774972669,"current_range_meters":6400,"station_id":"ce4bgop2rcd13ifvqc1g","pricing_plan_id":"cebpf4jnsgd1na2vs0mg"},{"bike_id":"1a499317-0fc5-4b53-a27c-eaac6150b22b","system_id":"levelo_inurba_marseille","lat":43.30129,"lon":5.39862,"is_reserved":false,"is_disabled":false,"rental_uris":{"android":"levelo://app?vid=1a499317-0fc5-4b53-a27c-eaac6150b22b","ios":"levelo://app?vid=1a499317-0fc5-4b53-a27c-eaac6150b22b"},"vehicle_type_id":"4","last_reported":1774972669,"current_range_meters":6400,"station_id":"ce4bh0h2rcd13ifvqd40","pricing_plan_id":"cebpf4jnsgd1na2vs0mg"},{"bike_id":"aa0cc8df-20ab-4e27-aef8-77b280cc543b","system_id":"levelo_inurba_marseille","lat":43.25059,"lon":5.37532,"is_reserved":false,"is_disabled":false,"rental_uris":{"android":"levelo://app?vid=aa0cc8df-20ab-4e27-aef8-77b280cc543b","ios":"levelo://app?vid=aa0cc8df-20ab-4e27-aef8-77b280cc543b"},"vehicle_type_id":"4","last_reported":1774972669,"current_range_meters":6400,"station_id":"","pricing_plan_id":"cebpf4jnsgd1na2vs0mg"},{"bike_id":"516dc13e-98d2-4db1-9953-88b33774944d","system_id":"levelo_inurba_marseille","lat":43.29531,"lon":5.38663,"is_reserved":false,"is_disabled":false,"rental_uris":{"android":"levelo://app?vid=516dc13e-98d2-4db1-9953-88b33774944d","ios":"levelo://app?vid=516dc13e-98d2-4db1-9953-88b33774944d"},"vehicle_type_id":"4","last_reported":1774972669,"current_range_meters":6400,"station_id":"","pricing_plan_id":"cebpf4jnsgd1na2vs0mg"},{"bike_id":"41d4cbb2-8033-43aa-b360-048d99db83ea","system_id":"levelo_inurba_marseille","lat":43.26193,"lon":5.37447,"is_reserved":false,"is_disabled":false,"rental_uris":{"android":"levelo://app?vid=41d4cbb2-8033-43aa-b360-048d99db83ea","ios":"levelo://app?vid=41d4cbb2-8033-43aa-b360-048d99db83ea"},"vehicle_type_id":"4","last_reported":1774972669,"current_range_meters":6400,"station_id":"ce4bhgp2rcd13ifvqfc0","pricing_plan_id":"cebpf4jnsgd1na2vs0mg"},{"bike_id":"cf039980-8909-4a03-aa52-b426c9efd4e8","system_id":"levelo_inurba_marseille","lat":43.21735,"lon":5.34583,"is_reserved":false,"is_disabled":false,"rental_uris":{"android":"levelo://app?vid=cf039980-8909-4a03-aa52-b426c9efd4e8","ios":"levelo://app?vid=cf039980-8909-4a03-aa52-b426c9efd4e8"},"vehicle_type_id":"4","last_reported":1774972669,"current_range_meters":6400,"station_id":"st_cvj6r9ubvosntc0bgbag","pricing_plan_id":"cebpf4jnsgd1na2vs0mg"},{"bike_id":"fb0a41e1-e3ae-4e08-afc4-e2b1a2dff15b","system_id":"levelo_inurba_marseille","lat":43.31331,"lon":5.36726,"is_reserved":false,"is_disabled":false,"rental_uris":{"android":"levelo://app?vid=fb0a41e1-e3ae-4e08-afc4-e2b1a2dff15b","ios":"levelo://app?vid=fb0a41e1-e3ae-4e08-afc4-e2b1a2dff15b"},"vehicle_type_id":"4","last_reported":1774972669,"current_range_meters":6400,"station_id":"ce4bgr92rcd13ifvqc6g","pricing_plan_id":"cebpf4jnsgd1na2vs0mg"},{"bike_id":"958ae1aa-92b5-4902-b66f-aee23fd43f5b","system_id":"levelo_inurba_marseille","lat":43.26178,"lon":5.37453,"is_reserved":false,"is_disabled":false,"rental_uris":{"android":"levelo://app?vid=958ae1aa-92b5-4902-b66f-aee23fd43f5b","ios":"levelo://app?vid=958ae1aa-92b5-4902-b66f-aee23fd43f5b"},"vehicle_type_id":"4","last_reported":1774972669,"current_range_meters":6400,"station_id":"ce4bhgp2rcd13ifvqfc0","pricing_plan_id":"cebpf4jnsgd1na2vs0mg"},{"bike_id":"59c65e25-757b-4611-ab19-cc02e6ee8d57","system_id":"levelo_inurba_marseille","lat":43.21752,"lon":5.34604,"is_reserved":false,"is_disabled":false,"rental_uris":{"android":"levelo://app?vid=59c65e25-757b-4611-ab19-cc02e6ee8d57","ios":"levelo://app?vid=59c65e25-757b-4611-ab19-cc02e6ee8d57"},"vehicle_type_id":"4","last_reported":1774972669,"current_range_meters":6400,"station_id":"st_cvj6r9ubvosntc0bgbag","pricing_plan_id":"cebpf4jnsgd1na2vs0mg"},{"bike_id":"4d352239-90dc-44ea-beb4-fe8969f4c230","system_id":"levelo_inurba_marseille","lat":43.29877,"lon":5.38916,"is_reserved":false,"is_disabled":false,"rental_uris":{"android":"levelo://app?vid=4d352239-90dc-44ea-beb4-fe8969f4c230","ios":"levelo://app?vid=4d352239-90dc-44ea-beb4-fe8969f4c230"},"vehicle_type_id":"4","last_reported":1774972669,"current_range_meters":6400,"station_id":"ce4bh392rcd13ifvqdl0","pricing_plan_id":"cebpf4jnsgd1na2vs0mg"},{"bike_id":"d803e2d9-9376-4f1f-85b0-c6f8e1eae86c","system_id":"levelo_inurba_marseille","lat":43.29901,"lon":5.43663,"is_reserved":false,"is_disabled":false,"rental_uris":{"android":"levelo://app?vid=d803e2d9-9376-4f1f-85b0-c6f8e1eae86c","ios":"levelo://app?vid=d803e2d9-9376-4f1f-85b0-c6f8e1eae86c"},"vehicle_type_id":"4","last_reported":1774972669,"current_range_meters":6400,"station_id":"ce4bhpp2rcd13ifvqhfg","pricing_plan_id":"cebpf4jnsgd1na2vs0mg"},{"bike_id":"ff35c77d-54e1-4a32-a444-7382b3f5293d","system_id":"levelo_inurba_marseille","lat":43.26954,"lon":5.38629,"is_reserved":false,"is_disabled":false,"rental_uris":{"android":"levelo://app?vid=ff35c77d-54e1-4a32-a444-7382b3f5293d","ios":"levelo://app?vid=ff35c77d-54e1-4a32-a444-7382b3f5293d"},"vehicle_type_id":"4","last_reported":1774972669,"current_range_meters":6400,"station_id":"ce4bhh92rcd13ifvqfh0","pricing_plan_id":"cebpf4jnsgd1na2vs0mg"},{"bike_id":"aec34a6c-ce9b-42fa-a139-f2733448dfd7","system_id":"levelo_inurba_marseille","lat":43.26204,"lon":5.37934,"is_reserved":false,"is_disabled":false,"rental_uris":{"android":"levelo://app?vid=aec34a6c-ce9b-42fa-a139-f2733448dfd7","ios":"levelo://app?vid=aec34a6c-ce9b-42fa-a139-f2733448dfd7"},"vehicle_type_id":"4","last_reported":1774972669,"current_range_meters":6800,"station_id":"ce4bhjp2rcd13ifvqg90","pricing_plan_id":"cebpf4jnsgd1na2vs0mg"},{"bike_id":"b3466ecc-4c48-4c4d-94a7-8d6040baea0c","system_id":"levelo_inurba_marseille","lat":43.22565,"lon":5.4162,"is_reserved":false,"is_disabled":false,"rental_uris":{"android":"levelo://app?vid=b3466ecc-4c48-4c4d-94a7-8d6040baea0c","ios":"levelo://app?vid=b3466ecc-4c48-4c4d-94a7-8d6040baea0c"},"vehicle_type_id":"4","last_reported":1774972669,"current_range_meters":6800,"station_id":"st_d2o4gvlbi1j2169b742g","pricing_plan_id":"cebpf4jnsgd1na2vs0mg"},{"bike_id":"3af2314f-0c87-4a50-add2-7e597ea34773","system_id":"levelo_inurba_marseille","lat":43.24809,"lon":5.37454,"is_reserved":false,"is_disabled":false,"rental_uris":{"android":"levelo://app?vid=3af2314f-0c87-4a50-add2-7e597ea34773","ios":"levelo://app?vid=3af2314f-0c87-4a50-add2-7e597ea34773"},"vehicle_type_id":"4","last_reported":1774972669,"current_range_meters":6800,"station_id":"ce4bhgh2rcd13ifvqfb0","pricing_plan_id":"cebpf4jnsgd1na2vs0mg"},{"bike_id":"405bedfb-9935-4390-a8a3-f9ddcf9a97e8","system_id":"levelo_inurba_marseille","lat":43.22529,"lon":5.34836,"is_reserved":false,"is_disabled":false,"rental_uris":{"android":"levelo://app?vid=405bedfb-9935-4390-a8a3-f9ddcf9a97e8","ios":"levelo://app?vid=405bedfb-9935-4390-a8a3-f9ddcf9a97e8"},"vehicle_type_id":"4","last_reported":1774972669,"current_range_meters":6800,"station_id":"","pricing_plan_id":"cebpf4jnsgd1na2vs0mg"},{"bike_id":"540e08a8-3c1b-41fd-9344-04335c7837ef","system_id":"levelo_inurba_marseille","lat":43.30797,"lon":5.40011,"is_reserved":false,"is_disabled":false,"rental_uris":{"android":"levelo://app?vid=540e08a8-3c1b-41fd-9344-04335c7837ef","ios":"levelo://app?vid=540e08a8-3c1b-41fd-9344-04335c7837ef"},"vehicle_type_id":"4","last_reported":1774972669,"current_range_meters":6800,"station_id":"","pricing_plan_id":"cebpf4jnsgd1na2vs0mg"},{"bike_id":"aff3ff3f-6b67-4330-8619-cb367673fc13","system_id":"levelo_inurba_marseille","lat":43.24388,"lon":5.37069,"is_reserved":false,"is_disabled":false,"rental_uris":{"android":"levelo://app?vid=aff3ff3f-6b67-4330-8619-cb367673fc13","ios":"levelo://app?vid=aff3ff3f-6b67-4330-8619-cb367673fc13"},"vehicle_type_id":"4","last_reported":1774972669,"current_range_meters":6800,"station_id":"ce4bhhh2rcd13ifvqfk0","pricing_plan_id":"cebpf4jnsgd1na2vs0mg"},{"bike_id":"2af113ee-79ab-43e1-8352-bb07abd51450","system_id":"levelo_inurba_marseille","lat":43.29296,"lon":5.37432,"is_reserved":false,"is_disabled":false,"rental_uris":{"android":"levelo://app?vid=2af113ee-79ab-43e1-8352-bb07abd51450","ios":"levelo://app?vid=2af113ee-79ab-43e1-8352-bb07abd51450"},"vehicle_type_id":"4","last_reported":1774972669,"current_range_meters":6800,"station_id":"ce4bgi12rcd13ifvqb70","pricing_plan_id":"cebpf4jnsgd1na2vs0mg"},{"bike_id":"a4c711ce-c48e-4767-b86f-5d87dcdcc4b7","system_id":"levelo_inurba_marseille","lat":43.2174,"lon":5.34621,"is_reserved":false,"is_disabled":false,"rental_uris":{"android":"levelo://app?vid=a4c711ce-c48e-4767-b86f-5d87dcdcc4b7","ios":"levelo://app?vid=a4c711ce-c48e-4767-b86f-5d87dcdcc4b7"},"vehicle_type_id":"4","last_reported":1774972669,"current_range_meters":6800,"station_id":"st_cvj6r9ubvosntc0bgbag","pricing_plan_id":"cebpf4jnsgd1na2vs0mg"},{"bike_id":"7f22feed-d092-43e1-8b7c-390e4c948e82","system_id":"levelo_inurba_marseille","lat":43.287,"lon":5.37394,"is_reserved":false,"is_disabled":false,"rental_uris":{"android":"levelo://app?vid=7f22feed-d092-43e1-8b7c-390e4c948e82","ios":"levelo://app?vid=7f22feed-d092-43e1-8b7c-390e4c948e82"},"vehicle_type_id":"4","last_reported":1774972669,"current_range_meters":6800,"station_id":"ce4bh3p2rcd13ifvqdq0","pricing_plan_id":"cebpf4jnsgd1na2vs0mg"},{"bike_id":"5acef36b-7445-4bce-ad46-6e78291e3960","system_id":"levelo_inurba_marseille","lat":43.25,"lon":5.3894,"is_reserved":false,"is_disabled":false,"rental_uris":{"android":"levelo://app?vid=5acef36b-7445-4bce-ad46-6e78291e3960","ios":"levelo://app?vid=5acef36b-7445-4bce-ad46-6e78291e3960"},"vehicle_type_id":"4","last_reported":1774972669,"current_range_meters":6800,"station_id":"ce4bhgp2rcd13ifvqfd0","pricing_plan_id":"cebpf4jnsgd1na2vs0mg"},{"bike_id":"c7a24d36-9d1f-4fa4-965d-55d4a433c1bd","system_id":"levelo_inurba_marseille","lat":43.27846,"lon":5.39216,"is_reserved":false,"is_disabled":false,"rental_uris":{"android":"levelo://app?vid=c7a24d36-9d1f-4fa4-965d-55d4a433c1bd","ios":"levelo://app?vid=c7a24d36-9d1f-4fa4-965d-55d4a433c1bd"},"vehicle_type_id":"4","last_reported":1774972669,"current_range_meters":6800,"station_id":"ce4bhjp2rcd13ifvqga0","pricing_plan_id":"cebpf4jnsgd1na2vs0mg"},{"bike_id":"839f391b-feab-427a-b17d-2d524e38c555","system_id":"levelo_inurba_marseille","lat":43.23733,"lon":5.36683,"is_reserved":false,"is_disabled":false,"rental_uris":{"android":"levelo://app?vid=839f391b-feab-427a-b17d-2d524e38c555","ios":"levelo://app?vid=839f391b-feab-427a-b17d-2d524e38c555"},"vehicle_type_id":"4","last_reported":1774972669,"current_range_meters":6800,"station_id":"","pricing_plan_id":"cebpf4jnsgd1na2vs0mg"},{"bike_id":"dd681dd8-36ff-4b2b-80a2-bf15041c4c79","system_id":"levelo_inurba_marseille","lat":43.26939,"lon":5.40255,"is_reserved":false,"is_disabled":false,"rental_uris":{"android":"levelo://app?vid=dd681dd8-36ff-4b2b-80a2-bf15041c4c79","ios":"levelo://app?vid=dd681dd8-36ff-4b2b-80a2-bf15041c4c79"},"vehicle_type_id":"4","last_reported":1774972669,"current_range_meters":6800,"station_id":"cjm6bp8fraef2m0cb0m0","pricing_plan_id":"cebpf4jnsgd1na2vs0mg"},{"bike_id":"0b9bd603-c492-4ca6-8741-19e545661081","system_id":"levelo_inurba_marseille","lat":43.2417,"lon":5.36386,"is_reserved":false,"is_disabled":false,"rental_uris":{"android":"levelo://app?vid=0b9bd603-c492-4ca6-8741-19e545661081","ios":"levelo://app?vid=0b9bd603-c492-4ca6-8741-19e545661081"},"vehicle_type_id":"4","last_reported":1774972669,"current_range_meters":6800,"station_id":"cpo36qri1sfpv3e86is0","pricing_plan_id":"cebpf4jnsgd1na2vs0mg"},{"bike_id":"3010ca9d-c8fb-41d7-ace8-3104f4f63f5d","system_id":"levelo_inurba_marseille","lat":43.232,"lon":5.35554,"is_reserved":false,"is_disabled":false,"rental_uris":{"android":"levelo://app?vid=3010ca9d-c8fb-41d7-ace8-3104f4f63f5d","ios":"levelo://app?vid=3010ca9d-c8fb-41d7-ace8-3104f4f63f5d"},"vehicle_type_id":"4","last_reported":1774972669,"current_range_meters":6800,"station_id":"ce4bhu92rcd13ifvqi70","pricing_plan_id":"cebpf4jnsgd1na2vs0mg"},{"bike_id":"b2d72fd8-9618-48b7-8f8f-0078908bfacf","system_id":"levelo_inurba_marseille","lat":43.30119,"lon":5.43124,"is_reserved":false,"is_disabled":false,"rental_uris":{"android":"levelo://app?vid=b2d72fd8-9618-48b7-8f8f-0078908bfacf","ios":"levelo://app?vid=b2d72fd8-9618-48b7-8f8f-0078908bfacf"},"vehicle_type_id":"4","last_reported":1774972669,"current_range_meters":6800,"station_id":"st_d3js3co5814s73ftftug","pricing_plan_id":"cebpf4jnsgd1na2vs0mg"},{"bike_id":"b69b7ee0-eb68-4e40-9110-6ed5a17a58dc","system_id":"levelo_inurba_marseille","lat":43.28435,"lon":5.35,"is_reserved":false,"is_disabled":false,"rental_uris":{"android":"levelo://app?vid=b69b7ee0-eb68-4e40-9110-6ed5a17a58dc","ios":"levelo://app?vid=b69b7ee0-eb68-4e40-9110-6ed5a17a58dc"},"vehicle_type_id":"4","last_reported":1774972669,"current_range_meters":6800,"station_id":"ce4bhbh2rcd13ifvqepg","pricing_plan_id":"cebpf4jnsgd1na2vs0mg"},{"bike_id":"003c1b56-983c-4b68-b82b-964dcccebb8b","system_id":"levelo_inurba_marseille","lat":43.3043,"lon":5.38896,"is_reserved":false,"is_disabled":false,"rental_uris":{"android":"levelo://app?vid=003c1b56-983c-4b68-b82b-964dcccebb8b","ios":"levelo://app?vid=003c1b56-983c-4b68-b82b-964dcccebb8b"},"vehicle_type_id":"4","last_reported":1774972669,"current_range_meters":6800,"station_id":"ce4bgk12rcd13ifvqbi0","pricing_plan_id":"cebpf4jnsgd1na2vs0mg"},{"bike_id":"32a0924a-8e16-45d1-8492-18bfd7e01b6a","system_id":"levelo_inurba_marseille","lat":43.26676,"lon":5.38265,"is_reserved":false,"is_disabled":false,"rental_uris":{"android":"levelo://app?vid=32a0924a-8e16-45d1-8492-18bfd7e01b6a","ios":"levelo://app?vid=32a0924a-8e16-45d1-8492-18bfd7e01b6a"},"vehicle_type_id":"4","last_reported":1774972669,"current_range_meters":6800,"station_id":"ce4bhg92rcd13ifvqf90","pricing_plan_id":"cebpf4jnsgd1na2vs0mg"},{"bike_id":"92e2a985-edd9-48fd-928c-dd80c53cac98","system_id":"levelo_inurba_marseille","lat":43.23178,"lon":5.43703,"is_reserved":false,"is_disabled":false,"rental_uris":{"android":"levelo://app?vid=92e2a985-edd9-48fd-928c-dd80c53cac98","ios":"levelo://app?vid=92e2a985-edd9-48fd-928c-dd80c53cac98"},"vehicle_type_id":"4","last_reported":1774972669,"current_range_meters":6800,"station_id":"ce4bhmp2rcd13ifvqgog","pricing_plan_id":"cebpf4jnsgd1na2vs0mg"},{"bike_id":"99357e4e-0fd2-4bed-b022-406a548cc7c5","system_id":"levelo_inurba_marseille","lat":43.23966,"lon":5.36628,"is_reserved":false,"is_disabled":false,"rental_uris":{"android":"levelo://app?vid=99357e4e-0fd2-4bed-b022-406a548cc7c5","ios":"levelo://app?vid=99357e4e-0fd2-4bed-b022-406a548cc7c5"},"vehicle_type_id":"4","last_reported":1774972669,"current_range_meters":6800,"station_id":"ce4bhi12rcd13ifvqfp0","pricing_plan_id":"cebpf4jnsgd1na2vs0mg"},{"bike_id":"b542c304-293a-45f1-a562-d7fc7dbf754a","system_id":"levelo_inurba_marseille","lat":43.29492,"lon":5.43309,"is_reserved":false,"is_disabled":false,"rental_uris":{"android":"levelo://app?vid=b542c304-293a-45f1-a562-d7fc7dbf754a","ios":"levelo://app?vid=b542c304-293a-45f1-a562-d7fc7dbf754a"},"vehicle_type_id":"4","last_reported":1774972669,"current_range_meters":7200,"station_id":"st_d3j5ugp08ojc73fj9d10","pricing_plan_id":"cebpf4jnsgd1na2vs0mg"},{"bike_id":"e9bbbb9f-cea5-4c89-8242-e64bbc33be33","system_id":"levelo_inurba_marseille","lat":43.28943,"lon":5.36415,"is_reserved":false,"is_disabled":false,"rental_uris":{"android":"levelo://app?vid=e9bbbb9f-cea5-4c89-8242-e64bbc33be33","ios":"levelo://app?vid=e9bbbb9f-cea5-4c89-8242-e64bbc33be33"},"vehicle_type_id":"4","last_reported":1774972669,"current_range_meters":7200,"station_id":"ce4bhc92rcd13ifvqetg","pricing_plan_id":"cebpf4jnsgd1na2vs0mg"},{"bike_id":"3a922081-a991-4b97-906e-7f7dba00403a","system_id":"levelo_inurba_marseille","lat":43.32358,"lon":5.3674,"is_reserved":false,"is_disabled":false,"rental_uris":{"android":"levelo://app?vid=3a922081-a991-4b97-906e-7f7dba00403a","ios":"levelo://app?vid=3a922081-a991-4b97-906e-7f7dba00403a"},"vehicle_type_id":"4","last_reported":1774972669,"current_range_meters":7200,"station_id":"ce4bhsh2rcd13ifvqi2g","pricing_plan_id":"cebpf4jnsgd1na2vs0mg"},{"bike_id":"816d1509-b6a4-4401-86a1-6ea0eb371364","system_id":"levelo_inurba_marseille","lat":43.23782,"lon":5.36645,"is_reserved":false,"is_disabled":false,"rental_uris":{"android":"levelo://app?vid=816d1509-b6a4-4401-86a1-6ea0eb371364","ios":"levelo://app?vid=816d1509-b6a4-4401-86a1-6ea0eb371364"},"vehicle_type_id":"4","last_reported":1774972669,"current_range_meters":7200,"station_id":"st_d3nk18o9ro0c73en2l3g","pricing_plan_id":"cebpf4jnsgd1na2vs0mg"},{"bike_id":"aac1d201-4604-4928-a1e8-3a9c499870e7","system_id":"levelo_inurba_marseille","lat":43.24653,"lon":5.38905,"is_reserved":false,"is_disabled":false,"rental_uris":{"android":"levelo://app?vid=aac1d201-4604-4928-a1e8-3a9c499870e7","ios":"levelo://app?vid=aac1d201-4604-4928-a1e8-3a9c499870e7"},"vehicle_type_id":"4","last_reported":1774972669,"current_range_meters":7200,"station_id":"ce4bhg12rcd13ifvqf60","pricing_plan_id":"cebpf4jnsgd1na2vs0mg"},{"bike_id":"f1c7cedb-7ca6-425d-bb6e-eba3f64564e5","system_id":"levelo_inurba_marseille","lat":43.24185,"lon":5.39734,"is_reserved":false,"is_disabled":false,"rental_uris":{"android":"levelo://app?vid=f1c7cedb-7ca6-425d-bb6e-eba3f64564e5","ios":"levelo://app?vid=f1c7cedb-7ca6-425d-bb6e-eba3f64564e5"},"vehicle_type_id":"4","last_reported":1774972669,"current_range_meters":7200,"station_id":"ce4bhn12rcd13ifvqgpg","pricing_plan_id":"cebpf4jnsgd1na2vs0mg"},{"bike_id":"fc230a14-954a-4d36-be5c-8f8498288ae5","system_id":"levelo_inurba_marseille","lat":43.28271,"lon":5.35052,"is_reserved":false,"is_disabled":false,"rental_uris":{"android":"levelo://app?vid=fc230a14-954a-4d36-be5c-8f8498288ae5","ios":"levelo://app?vid=fc230a14-954a-4d36-be5c-8f8498288ae5"},"vehicle_type_id":"4","last_reported":1774972669,"current_range_meters":7200,"station_id":"ce4bhbp2rcd13ifvqerg","pricing_plan_id":"cebpf4jnsgd1na2vs0mg"},{"bike_id":"9c1440ce-c955-43db-9800-7794805da744","system_id":"levelo_inurba_marseille","lat":43.23964,"lon":5.3664,"is_reserved":false,"is_disabled":false,"rental_uris":{"android":"levelo://app?vid=9c1440ce-c955-43db-9800-7794805da744","ios":"levelo://app?vid=9c1440ce-c955-43db-9800-7794805da744"},"vehicle_type_id":"4","last_reported":1774972669,"current_range_meters":7200,"station_id":"ce4bhi12rcd13ifvqfp0","pricing_plan_id":"cebpf4jnsgd1na2vs0mg"},{"bike_id":"44557ef4-eefe-40da-9b20-2146e814bef2","system_id":"levelo_inurba_marseille","lat":43.27375,"lon":5.36264,"is_reserved":false,"is_disabled":false,"rental_uris":{"android":"levelo://app?vid=44557ef4-eefe-40da-9b20-2146e814bef2","ios":"levelo://app?vid=44557ef4-eefe-40da-9b20-2146e814bef2"},"vehicle_type_id":"4","last_reported":1774972669,"current_range_meters":7200,"station_id":"ce4bhbh2rcd13ifvqeo0","pricing_plan_id":"cebpf4jnsgd1na2vs0mg"},{"bike_id":"9e8c35a2-3d4d-48a8-87e2-0775e9d3d581","system_id":"levelo_inurba_marseille","lat":43.27488,"lon":5.40811,"is_reserved":false,"is_disabled":false,"rental_uris":{"android":"levelo://app?vid=9e8c35a2-3d4d-48a8-87e2-0775e9d3d581","ios":"levelo://app?vid=9e8c35a2-3d4d-48a8-87e2-0775e9d3d581"},"vehicle_type_id":"4","last_reported":1774972669,"current_range_meters":7200,"station_id":"","pricing_plan_id":"cebpf4jnsgd1na2vs0mg"},{"bike_id":"ba7deb35-b669-454e-ad2d-32596ffa8222","system_id":"levelo_inurba_marseille","lat":43.21747,"lon":5.34607,"is_reserved":false,"is_disabled":false,"rental_uris":{"android":"levelo://app?vid=ba7deb35-b669-454e-ad2d-32596ffa8222","ios":"levelo://app?vid=ba7deb35-b669-454e-ad2d-32596ffa8222"},"vehicle_type_id":"4","last_reported":1774972669,"current_range_meters":7200,"station_id":"st_cvj6r9ubvosntc0bgbag","pricing_plan_id":"cebpf4jnsgd1na2vs0mg"},{"bike_id":"792d7249-89f9-4f4b-bdcd-35ee2f559f92","system_id":"levelo_inurba_marseille","lat":43.30479,"lon":5.36711,"is_reserved":false,"is_disabled":false,"rental_uris":{"android":"levelo://app?vid=792d7249-89f9-4f4b-bdcd-35ee2f559f92","ios":"levelo://app?vid=792d7249-89f9-4f4b-bdcd-35ee2f559f92"},"vehicle_type_id":"4","last_reported":1774972669,"current_range_meters":7200,"station_id":"","pricing_plan_id":"cebpf4jnsgd1na2vs0mg"},{"bike_id":"79129c40-9bd0-4de6-981a-faea7f55c070","system_id":"levelo_inurba_marseille","lat":43.2465,"lon":5.38907,"is_reserved":false,"is_disabled":false,"rental_uris":{"android":"levelo://app?vid=79129c40-9bd0-4de6-981a-faea7f55c070","ios":"levelo://app?vid=79129c40-9bd0-4de6-981a-faea7f55c070"},"vehicle_type_id":"4","last_reported":1774972669,"current_range_meters":7200,"station_id":"ce4bhg12rcd13ifvqf60","pricing_plan_id":"cebpf4jnsgd1na2vs0mg"},{"bike_id":"370e4e08-6d82-4b38-8b87-e7eadfcbd0ed","system_id":"levelo_inurba_marseille","lat":43.24185,"lon":5.39678,"is_reserved":false,"is_disabled":false,"rental_uris":{"android":"levelo://app?vid=370e4e08-6d82-4b38-8b87-e7eadfcbd0ed","ios":"levelo://app?vid=370e4e08-6d82-4b38-8b87-e7eadfcbd0ed"},"vehicle_type_id":"4","last_reported":1774972669,"current_range_meters":7200,"station_id":"ce4bhn12rcd13ifvqgpg","pricing_plan_id":"cebpf4jnsgd1na2vs0mg"},{"bike_id":"10f05ed2-5813-4d4b-a9c2-f44482f892e6","system_id":"levelo_inurba_marseille","lat":43.3149,"lon":5.36923,"is_reserved":false,"is_disabled":false,"rental_uris":{"android":"levelo://app?vid=10f05ed2-5813-4d4b-a9c2-f44482f892e6","ios":"levelo://app?vid=10f05ed2-5813-4d4b-a9c2-f44482f892e6"},"vehicle_type_id":"4","last_reported":1774972669,"current_range_meters":7200,"station_id":"","pricing_plan_id":"cebpf4jnsgd1na2vs0mg"},{"bike_id":"79e9d953-5f39-4fe5-8080-8a24b8a9378a","system_id":"levelo_inurba_marseille","lat":43.25336,"lon":5.42179,"is_reserved":false,"is_disabled":false,"rental_uris":{"android":"levelo://app?vid=79e9d953-5f39-4fe5-8080-8a24b8a9378a","ios":"levelo://app?vid=79e9d953-5f39-4fe5-8080-8a24b8a9378a"},"vehicle_type_id":"4","last_reported":1774972669,"current_range_meters":7200,"station_id":"st_d2m65c5bi1j21697t3ng","pricing_plan_id":"cebpf4jnsgd1na2vs0mg"},{"bike_id":"6f5bd78d-4527-4883-9aec-15170fa68971","system_id":"levelo_inurba_marseille","lat":43.28949,"lon":5.36421,"is_reserved":false,"is_disabled":false,"rental_uris":{"android":"levelo://app?vid=6f5bd78d-4527-4883-9aec-15170fa68971","ios":"levelo://app?vid=6f5bd78d-4527-4883-9aec-15170fa68971"},"vehicle_type_id":"4","last_reported":1774972669,"current_range_meters":7200,"station_id":"ce4bhc92rcd13ifvqetg","pricing_plan_id":"cebpf4jnsgd1na2vs0mg"},{"bike_id":"5f187735-fafb-444d-90d5-88a9f9cbb325","system_id":"levelo_inurba_marseille","lat":43.30312,"lon":5.3787,"is_reserved":false,"is_disabled":false,"rental_uris":{"android":"levelo://app?vid=5f187735-fafb-444d-90d5-88a9f9cbb325","ios":"levelo://app?vid=5f187735-fafb-444d-90d5-88a9f9cbb325"},"vehicle_type_id":"4","last_reported":1774972669,"current_range_meters":7200,"station_id":"","pricing_plan_id":"cebpf4jnsgd1na2vs0mg"},{"bike_id":"9da6f0a0-254f-4937-8243-355fe7b156df","system_id":"levelo_inurba_marseille","lat":43.28554,"lon":5.44097,"is_reserved":false,"is_disabled":false,"rental_uris":{"android":"levelo://app?vid=9da6f0a0-254f-4937-8243-355fe7b156df","ios":"levelo://app?vid=9da6f0a0-254f-4937-8243-355fe7b156df"},"vehicle_type_id":"4","last_reported":1774972669,"current_range_meters":7200,"station_id":"st_d3j3df2ikq2c7380ej80","pricing_plan_id":"cebpf4jnsgd1na2vs0mg"},{"bike_id":"68ef153f-a709-4c80-9ef2-238d9f86b776","system_id":"levelo_inurba_marseille","lat":43.28279,"lon":5.35079,"is_reserved":false,"is_disabled":false,"rental_uris":{"android":"levelo://app?vid=68ef153f-a709-4c80-9ef2-238d9f86b776","ios":"levelo://app?vid=68ef153f-a709-4c80-9ef2-238d9f86b776"},"vehicle_type_id":"4","last_reported":1774972669,"current_range_meters":7200,"station_id":"ce4bhbp2rcd13ifvqerg","pricing_plan_id":"cebpf4jnsgd1na2vs0mg"},{"bike_id":"829c5c52-e00f-4e24-b4b1-46ec3043d526","system_id":"levelo_inurba_marseille","lat":43.29877,"lon":5.42116,"is_reserved":false,"is_disabled":false,"rental_uris":{"android":"levelo://app?vid=829c5c52-e00f-4e24-b4b1-46ec3043d526","ios":"levelo://app?vid=829c5c52-e00f-4e24-b4b1-46ec3043d526"},"vehicle_type_id":"4","last_reported":1774972669,"current_range_meters":7200,"station_id":"st_d6tc004otcvc738tfe70","pricing_plan_id":"cebpf4jnsgd1na2vs0mg"},{"bike_id":"a33e8f21-7a61-44b4-9c82-e121f3401825","system_id":"levelo_inurba_marseille","lat":43.24996,"lon":5.38932,"is_reserved":false,"is_disabled":false,"rental_uris":{"android":"levelo://app?vid=a33e8f21-7a61-44b4-9c82-e121f3401825","ios":"levelo://app?vid=a33e8f21-7a61-44b4-9c82-e121f3401825"},"vehicle_type_id":"4","last_reported":1774972669,"current_range_meters":7200,"station_id":"ce4bhgp2rcd13ifvqfd0","pricing_plan_id":"cebpf4jnsgd1na2vs0mg"},{"bike_id":"43e4bb96-0cd3-4e42-baf5-dd0ee842f69a","system_id":"levelo_inurba_marseille","lat":43.23812,"lon":5.36644,"is_reserved":false,"is_disabled":false,"rental_uris":{"android":"levelo://app?vid=43e4bb96-0cd3-4e42-baf5-dd0ee842f69a","ios":"levelo://app?vid=43e4bb96-0cd3-4e42-baf5-dd0ee842f69a"},"vehicle_type_id":"4","last_reported":1774972669,"current_range_meters":7200,"station_id":"st_d3nk18o9ro0c73en2l3g","pricing_plan_id":"cebpf4jnsgd1na2vs0mg"},{"bike_id":"ebd7b082-b4c0-4123-bddb-debae9f747b4","system_id":"levelo_inurba_marseille","lat":43.23194,"lon":5.35553,"is_reserved":false,"is_disabled":false,"rental_uris":{"android":"levelo://app?vid=ebd7b082-b4c0-4123-bddb-debae9f747b4","ios":"levelo://app?vid=ebd7b082-b4c0-4123-bddb-debae9f747b4"},"vehicle_type_id":"4","last_reported":1774972669,"current_range_meters":7200,"station_id":"ce4bhu92rcd13ifvqi70","pricing_plan_id":"cebpf4jnsgd1na2vs0mg"},{"bike_id":"3681bea9-2900-445c-b2d4-06ae4cedc9b9","system_id":"levelo_inurba_marseille","lat":43.29602,"lon":5.38077,"is_reserved":false,"is_disabled":true,"rental_uris":{"android":"levelo://app?vid=3681bea9-2900-445c-b2d4-06ae4cedc9b9","ios":"levelo://app?vid=3681bea9-2900-445c-b2d4-06ae4cedc9b9"},"vehicle_type_id":"4","last_reported":1774972669,"current_range_meters":8000,"station_id":"ce4bgl12rcd13ifvqbo0","pricing_plan_id":"cebpf4jnsgd1na2vs0mg"},{"bike_id":"8429f855-c4a0-4803-9ce7-0d1fb93dbfe8","system_id":"levelo_inurba_marseille","lat":43.28348,"lon":5.48748,"is_reserved":false,"is_disabled":false,"rental_uris":{"android":"levelo://app?vid=8429f855-c4a0-4803-9ce7-0d1fb93dbfe8","ios":"levelo://app?vid=8429f855-c4a0-4803-9ce7-0d1fb93dbfe8"},"vehicle_type_id":"4","last_reported":1774972669,"current_range_meters":8000,"station_id":"","pricing_plan_id":"cebpf4jnsgd1na2vs0mg"},{"bike_id":"6154ce6a-6063-43ce-9e4a-767e1486eb9e","system_id":"levelo_inurba_marseille","lat":43.23054,"lon":5.35511,"is_reserved":false,"is_disabled":false,"rental_uris":{"android":"levelo://app?vid=6154ce6a-6063-43ce-9e4a-767e1486eb9e","ios":"levelo://app?vid=6154ce6a-6063-43ce-9e4a-767e1486eb9e"},"vehicle_type_id":"4","last_reported":1774972669,"current_range_meters":8000,"station_id":"cpo3342slgdg3j2ifvpg","pricing_plan_id":"cebpf4jnsgd1na2vs0mg"},{"bike_id":"4b2c0f5b-a0a4-4b39-8ba4-08240979d821","system_id":"levelo_inurba_marseille","lat":43.24177,"lon":5.3974,"is_reserved":false,"is_disabled":false,"rental_uris":{"android":"levelo://app?vid=4b2c0f5b-a0a4-4b39-8ba4-08240979d821","ios":"levelo://app?vid=4b2c0f5b-a0a4-4b39-8ba4-08240979d821"},"vehicle_type_id":"4","last_reported":1774972669,"current_range_meters":8000,"station_id":"ce4bhn12rcd13ifvqgpg","pricing_plan_id":"cebpf4jnsgd1na2vs0mg"},{"bike_id":"ace2b5ee-1355-40d7-ba59-bba7c913ea22","system_id":"levelo_inurba_marseille","lat":43.337444,"lon":5.374475,"is_reserved":false,"is_disabled":true,"rental_uris":{"android":"levelo://app?vid=ace2b5ee-1355-40d7-ba59-bba7c913ea22","ios":"levelo://app?vid=ace2b5ee-1355-40d7-ba59-bba7c913ea22"},"vehicle_type_id":"4","last_reported":1774972669,"current_range_meters":8000,"station_id":"","pricing_plan_id":"cebpf4jnsgd1na2vs0mg"},{"bike_id":"50dd00c6-7947-4820-a4c0-c8a42548efd2","system_id":"levelo_inurba_marseille","lat":43.28688,"lon":5.36166,"is_reserved":false,"is_disabled":false,"rental_uris":{"android":"levelo://app?vid=50dd00c6-7947-4820-a4c0-c8a42548efd2","ios":"levelo://app?vid=50dd00c6-7947-4820-a4c0-c8a42548efd2"},"vehicle_type_id":"4","last_reported":1774972669,"current_range_meters":8000,"station_id":"","pricing_plan_id":"cebpf4jnsgd1na2vs0mg"},{"bike_id":"602c7046-3fa2-412f-acea-a5dda9264272","system_id":"levelo_inurba_marseille","lat":43.21184,"lon":5.35077,"is_reserved":false,"is_disabled":false,"rental_uris":{"android":"levelo://app?vid=602c7046-3fa2-412f-acea-a5dda9264272","ios":"levelo://app?vid=602c7046-3fa2-412f-acea-a5dda9264272"},"vehicle_type_id":"4","last_reported":1774972669,"current_range_meters":8000,"station_id":"st_cvj6sg6p6f1abm77japg","pricing_plan_id":"cebpf4jnsgd1na2vs0mg"},{"bike_id":"ba94dc01-239a-45b3-ab74-97fee97d11ad","system_id":"levelo_inurba_marseille","lat":43.29232,"lon":5.36035,"is_reserved":false,"is_disabled":false,"rental_uris":{"android":"levelo://app?vid=ba94dc01-239a-45b3-ab74-97fee97d11ad","ios":"levelo://app?vid=ba94dc01-239a-45b3-ab74-97fee97d11ad"},"vehicle_type_id":"4","last_reported":1774972669,"current_range_meters":8000,"station_id":"ce4bhbh2rcd13ifvqeqg","pricing_plan_id":"cebpf4jnsgd1na2vs0mg"},{"bike_id":"21f87c15-edb4-477e-8bf4-58f311519b25","system_id":"levelo_inurba_marseille","lat":43.28421,"lon":5.34938,"is_reserved":false,"is_disabled":false,"rental_uris":{"android":"levelo://app?vid=21f87c15-edb4-477e-8bf4-58f311519b25","ios":"levelo://app?vid=21f87c15-edb4-477e-8bf4-58f311519b25"},"vehicle_type_id":"4","last_reported":1774972669,"current_range_meters":8000,"station_id":"ce4bhbh2rcd13ifvqepg","pricing_plan_id":"cebpf4jnsgd1na2vs0mg"},{"bike_id":"a3538b5f-d546-4bc5-9308-3687cd84d673","system_id":"levelo_inurba_marseille","lat":43.26517,"lon":5.39557,"is_reserved":false,"is_disabled":false,"rental_uris":{"android":"levelo://app?vid=a3538b5f-d546-4bc5-9308-3687cd84d673","ios":"levelo://app?vid=a3538b5f-d546-4bc5-9308-3687cd84d673"},"vehicle_type_id":"4","last_reported":1774972669,"current_range_meters":8000,"station_id":"ce4bhi12rcd13ifvqfq0","pricing_plan_id":"cebpf4jnsgd1na2vs0mg"},{"bike_id":"16e274d7-7305-4b38-a146-4da91ab01fb2","system_id":"levelo_inurba_marseille","lat":43.21191,"lon":5.35077,"is_reserved":false,"is_disabled":false,"rental_uris":{"android":"levelo://app?vid=16e274d7-7305-4b38-a146-4da91ab01fb2","ios":"levelo://app?vid=16e274d7-7305-4b38-a146-4da91ab01fb2"},"vehicle_type_id":"4","last_reported":1774972669,"current_range_meters":8000,"station_id":"st_cvj6sg6p6f1abm77japg","pricing_plan_id":"cebpf4jnsgd1na2vs0mg"},{"bike_id":"806c5839-096f-4e8b-a898-b4c4a93492b0","system_id":"levelo_inurba_marseille","lat":43.27423,"lon":5.41424,"is_reserved":false,"is_disabled":false,"rental_uris":{"android":"levelo://app?vid=806c5839-096f-4e8b-a898-b4c4a93492b0","ios":"levelo://app?vid=806c5839-096f-4e8b-a898-b4c4a93492b0"},"vehicle_type_id":"4","last_reported":1774972669,"current_range_meters":8000,"station_id":"st_d6im8g6chgec73a5pndg","pricing_plan_id":"cebpf4jnsgd1na2vs0mg"},{"bike_id":"0f20fa83-5694-4393-a47b-7caf9e918801","system_id":"levelo_inurba_marseille","lat":43.29158,"lon":5.42621,"is_reserved":false,"is_disabled":false,"rental_uris":{"android":"levelo://app?vid=0f20fa83-5694-4393-a47b-7caf9e918801","ios":"levelo://app?vid=0f20fa83-5694-4393-a47b-7caf9e918801"},"vehicle_type_id":"4","last_reported":1774972669,"current_range_meters":8000,"station_id":"","pricing_plan_id":"cebpf4jnsgd1na2vs0mg"},{"bike_id":"b1e9f130-d8ae-4858-bc10-b368a2ad0d85","system_id":"levelo_inurba_marseille","lat":43.28479,"lon":5.48409,"is_reserved":false,"is_disabled":false,"rental_uris":{"android":"levelo://app?vid=b1e9f130-d8ae-4858-bc10-b368a2ad0d85","ios":"levelo://app?vid=b1e9f130-d8ae-4858-bc10-b368a2ad0d85"},"vehicle_type_id":"4","last_reported":1774972669,"current_range_meters":8000,"station_id":"","pricing_plan_id":"cebpf4jnsgd1na2vs0mg"},{"bike_id":"ad3dbea0-7082-49b4-9d8f-3003a92f1eba","system_id":"levelo_inurba_marseille","lat":43.28702,"lon":5.37395,"is_reserved":false,"is_disabled":false,"rental_uris":{"android":"levelo://app?vid=ad3dbea0-7082-49b4-9d8f-3003a92f1eba","ios":"levelo://app?vid=ad3dbea0-7082-49b4-9d8f-3003a92f1eba"},"vehicle_type_id":"4","last_reported":1774972669,"current_range_meters":8000,"station_id":"ce4bh3p2rcd13ifvqdq0","pricing_plan_id":"cebpf4jnsgd1na2vs0mg"},{"bike_id":"3ca87e92-ab35-4863-a76f-ab6e68bb2c80","system_id":"levelo_inurba_marseille","lat":43.24393,"lon":5.37068,"is_reserved":false,"is_disabled":false,"rental_uris":{"android":"levelo://app?vid=3ca87e92-ab35-4863-a76f-ab6e68bb2c80","ios":"levelo://app?vid=3ca87e92-ab35-4863-a76f-ab6e68bb2c80"},"vehicle_type_id":"4","last_reported":1774972669,"current_range_meters":8000,"station_id":"ce4bhhh2rcd13ifvqfk0","pricing_plan_id":"cebpf4jnsgd1na2vs0mg"},{"bike_id":"aa363bcf-731a-43c6-a6f8-7c62b12a1925","system_id":"levelo_inurba_marseille","lat":43.28425,"lon":5.34952,"is_reserved":false,"is_disabled":false,"rental_uris":{"android":"levelo://app?vid=aa363bcf-731a-43c6-a6f8-7c62b12a1925","ios":"levelo://app?vid=aa363bcf-731a-43c6-a6f8-7c62b12a1925"},"vehicle_type_id":"4","last_reported":1774972669,"current_range_meters":8000,"station_id":"ce4bhbh2rcd13ifvqepg","pricing_plan_id":"cebpf4jnsgd1na2vs0mg"},{"bike_id":"8b972516-364d-4c36-a2f6-f81da10bf5ee","system_id":"levelo_inurba_marseille","lat":43.30128,"lon":5.4312,"is_reserved":false,"is_disabled":false,"rental_uris":{"android":"levelo://app?vid=8b972516-364d-4c36-a2f6-f81da10bf5ee","ios":"levelo://app?vid=8b972516-364d-4c36-a2f6-f81da10bf5ee"},"vehicle_type_id":"4","last_reported":1774972669,"current_range_meters":8000,"station_id":"st_d3js3co5814s73ftftug","pricing_plan_id":"cebpf4jnsgd1na2vs0mg"},{"bike_id":"812692de-c770-4848-a459-505c4920721f","system_id":"levelo_inurba_marseille","lat":43.24669,"lon":5.38174,"is_reserved":false,"is_disabled":false,"rental_uris":{"android":"levelo://app?vid=812692de-c770-4848-a459-505c4920721f","ios":"levelo://app?vid=812692de-c770-4848-a459-505c4920721f"},"vehicle_type_id":"4","last_reported":1774972669,"current_range_meters":8000,"station_id":"ce4bhih2rcd13ifvqfr0","pricing_plan_id":"cebpf4jnsgd1na2vs0mg"},{"bike_id":"15eb4f4d-a16a-450e-aa13-dca03e151336","system_id":"levelo_inurba_marseille","lat":43.25585,"lon":5.38249,"is_reserved":false,"is_disabled":false,"rental_uris":{"android":"levelo://app?vid=15eb4f4d-a16a-450e-aa13-dca03e151336","ios":"levelo://app?vid=15eb4f4d-a16a-450e-aa13-dca03e151336"},"vehicle_type_id":"4","last_reported":1774972669,"current_range_meters":8000,"station_id":"ce4bhih2rcd13ifvqfs0","pricing_plan_id":"cebpf4jnsgd1na2vs0mg"},{"bike_id":"0ebcc71a-1070-45ee-8791-56ad76c8f07f","system_id":"levelo_inurba_marseille","lat":43.26378,"lon":5.41095,"is_reserved":false,"is_disabled":false,"rental_uris":{"android":"levelo://app?vid=0ebcc71a-1070-45ee-8791-56ad76c8f07f","ios":"levelo://app?vid=0ebcc71a-1070-45ee-8791-56ad76c8f07f"},"vehicle_type_id":"4","last_reported":1774972669,"current_range_meters":8000,"station_id":"st_d4e5ca6na9uc73bfl5fg","pricing_plan_id":"cebpf4jnsgd1na2vs0mg"},{"bike_id":"8a144572-7950-4023-aa3f-12fe2c15a254","system_id":"levelo_inurba_marseille","lat":43.29095,"lon":5.38147,"is_reserved":false,"is_disabled":false,"rental_uris":{"android":"levelo://app?vid=8a144572-7950-4023-aa3f-12fe2c15a254","ios":"levelo://app?vid=8a144572-7950-4023-aa3f-12fe2c15a254"},"vehicle_type_id":"4","last_reported":1774972669,"current_range_meters":8000,"station_id":"ce4bh512rcd13ifvqe2g","pricing_plan_id":"cebpf4jnsgd1na2vs0mg"},{"bike_id":"3c7de47c-3a94-458e-bdb1-8077a5e8d0cc","system_id":"levelo_inurba_marseille","lat":43.28412,"lon":5.34963,"is_reserved":false,"is_disabled":false,"rental_uris":{"android":"levelo://app?vid=3c7de47c-3a94-458e-bdb1-8077a5e8d0cc","ios":"levelo://app?vid=3c7de47c-3a94-458e-bdb1-8077a5e8d0cc"},"vehicle_type_id":"4","last_reported":1774972669,"current_range_meters":8000,"station_id":"ce4bhbh2rcd13ifvqepg","pricing_plan_id":"cebpf4jnsgd1na2vs0mg"},{"bike_id":"6ec1889d-c43d-42d7-9ebb-6d09626d1897","system_id":"levelo_inurba_marseille","lat":43.24646,"lon":5.38957,"is_reserved":false,"is_disabled":false,"rental_uris":{"android":"levelo://app?vid=6ec1889d-c43d-42d7-9ebb-6d09626d1897","ios":"levelo://app?vid=6ec1889d-c43d-42d7-9ebb-6d09626d1897"},"vehicle_type_id":"4","last_reported":1774972669,"current_range_meters":8400,"station_id":"ce4bhg12rcd13ifvqf60","pricing_plan_id":"cebpf4jnsgd1na2vs0mg"},{"bike_id":"dfb946ce-fedb-4e12-8519-cb8fb15a5c14","system_id":"levelo_inurba_marseille","lat":43.24172,"lon":5.36395,"is_reserved":false,"is_disabled":false,"rental_uris":{"android":"levelo://app?vid=dfb946ce-fedb-4e12-8519-cb8fb15a5c14","ios":"levelo://app?vid=dfb946ce-fedb-4e12-8519-cb8fb15a5c14"},"vehicle_type_id":"4","last_reported":1774972669,"current_range_meters":8400,"station_id":"cpo36qri1sfpv3e86is0","pricing_plan_id":"cebpf4jnsgd1na2vs0mg"},{"bike_id":"bcc288dd-6942-4899-95ee-d43aed6e21bd","system_id":"levelo_inurba_marseille","lat":43.31393,"lon":5.36715,"is_reserved":false,"is_disabled":false,"rental_uris":{"android":"levelo://app?vid=bcc288dd-6942-4899-95ee-d43aed6e21bd","ios":"levelo://app?vid=bcc288dd-6942-4899-95ee-d43aed6e21bd"},"vehicle_type_id":"4","last_reported":1774972669,"current_range_meters":8400,"station_id":"","pricing_plan_id":"cebpf4jnsgd1na2vs0mg"},{"bike_id":"e5a7a53a-b267-4440-9c9f-66f6b2ca226b","system_id":"levelo_inurba_marseille","lat":43.29602,"lon":5.37193,"is_reserved":false,"is_disabled":false,"rental_uris":{"android":"levelo://app?vid=e5a7a53a-b267-4440-9c9f-66f6b2ca226b","ios":"levelo://app?vid=e5a7a53a-b267-4440-9c9f-66f6b2ca226b"},"vehicle_type_id":"4","last_reported":1774972669,"current_range_meters":8400,"station_id":"ce4bgnh2rcd13ifvqc0g","pricing_plan_id":"cebpf4jnsgd1na2vs0mg"},{"bike_id":"97911566-b39d-4772-9786-37508c49e45f","system_id":"levelo_inurba_marseille","lat":43.22561,"lon":5.41624,"is_reserved":false,"is_disabled":false,"rental_uris":{"android":"levelo://app?vid=97911566-b39d-4772-9786-37508c49e45f","ios":"levelo://app?vid=97911566-b39d-4772-9786-37508c49e45f"},"vehicle_type_id":"4","last_reported":1774972669,"current_range_meters":8400,"station_id":"st_d2o4gvlbi1j2169b742g","pricing_plan_id":"cebpf4jnsgd1na2vs0mg"},{"bike_id":"1c0157e0-9e7e-40b2-b861-108521d9578d","system_id":"levelo_inurba_marseille","lat":43.29607,"lon":5.3773,"is_reserved":false,"is_disabled":false,"rental_uris":{"android":"levelo://app?vid=1c0157e0-9e7e-40b2-b861-108521d9578d","ios":"levelo://app?vid=1c0157e0-9e7e-40b2-b861-108521d9578d"},"vehicle_type_id":"4","last_reported":1774972669,"current_range_meters":8400,"station_id":"ce4bgi92rcd13ifvqb90","pricing_plan_id":"cebpf4jnsgd1na2vs0mg"},{"bike_id":"d90b30f7-db03-414a-88e2-268b512c6ce2","system_id":"levelo_inurba_marseille","lat":43.24996,"lon":5.38947,"is_reserved":false,"is_disabled":false,"rental_uris":{"android":"levelo://app?vid=d90b30f7-db03-414a-88e2-268b512c6ce2","ios":"levelo://app?vid=d90b30f7-db03-414a-88e2-268b512c6ce2"},"vehicle_type_id":"4","last_reported":1774972669,"current_range_meters":8400,"station_id":"ce4bhgp2rcd13ifvqfd0","pricing_plan_id":"cebpf4jnsgd1na2vs0mg"},{"bike_id":"4521d8e0-0eb6-4078-bd36-d524fb0ea48a","system_id":"levelo_inurba_marseille","lat":43.29624,"lon":5.37729,"is_reserved":false,"is_disabled":false,"rental_uris":{"android":"levelo://app?vid=4521d8e0-0eb6-4078-bd36-d524fb0ea48a","ios":"levelo://app?vid=4521d8e0-0eb6-4078-bd36-d524fb0ea48a"},"vehicle_type_id":"4","last_reported":1774972669,"current_range_meters":8400,"station_id":"ce4bgi92rcd13ifvqb90","pricing_plan_id":"cebpf4jnsgd1na2vs0mg"},{"bike_id":"dd0c2c54-978e-49b8-89a3-9926153b6f8e","system_id":"levelo_inurba_marseille","lat":43.29894,"lon":5.43655,"is_reserved":false,"is_disabled":false,"rental_uris":{"android":"levelo://app?vid=dd0c2c54-978e-49b8-89a3-9926153b6f8e","ios":"levelo://app?vid=dd0c2c54-978e-49b8-89a3-9926153b6f8e"},"vehicle_type_id":"4","last_reported":1774972669,"current_range_meters":8400,"station_id":"ce4bhpp2rcd13ifvqhfg","pricing_plan_id":"cebpf4jnsgd1na2vs0mg"},{"bike_id":"d41d5ff3-651c-4e70-8a12-e8a105b53c64","system_id":"levelo_inurba_marseille","lat":43.31579,"lon":5.4455,"is_reserved":false,"is_disabled":false,"rental_uris":{"android":"levelo://app?vid=d41d5ff3-651c-4e70-8a12-e8a105b53c64","ios":"levelo://app?vid=d41d5ff3-651c-4e70-8a12-e8a105b53c64"},"vehicle_type_id":"4","last_reported":1774972669,"current_range_meters":8400,"station_id":"","pricing_plan_id":"cebpf4jnsgd1na2vs0mg"},{"bike_id":"bbe47512-0bee-4235-aaf4-5e9f39a93bf0","system_id":"levelo_inurba_marseille","lat":43.28409,"lon":5.34995,"is_reserved":false,"is_disabled":false,"rental_uris":{"android":"levelo://app?vid=bbe47512-0bee-4235-aaf4-5e9f39a93bf0","ios":"levelo://app?vid=bbe47512-0bee-4235-aaf4-5e9f39a93bf0"},"vehicle_type_id":"4","last_reported":1774972669,"current_range_meters":8400,"station_id":"ce4bhbh2rcd13ifvqepg","pricing_plan_id":"cebpf4jnsgd1na2vs0mg"},{"bike_id":"4511868c-616f-433d-85eb-230f5aaf2f4e","system_id":"levelo_inurba_marseille","lat":43.25816,"lon":5.39433,"is_reserved":false,"is_disabled":false,"rental_uris":{"android":"levelo://app?vid=4511868c-616f-433d-85eb-230f5aaf2f4e","ios":"levelo://app?vid=4511868c-616f-433d-85eb-230f5aaf2f4e"},"vehicle_type_id":"4","last_reported":1774972669,"current_range_meters":8400,"station_id":"ce4bhip2rcd13ifvqft0","pricing_plan_id":"cebpf4jnsgd1na2vs0mg"},{"bike_id":"fae0b53f-00f1-45b9-a1ad-74d490e431a9","system_id":"levelo_inurba_marseille","lat":43.225307,"lon":5.348402,"is_reserved":false,"is_disabled":false,"rental_uris":{"android":"levelo://app?vid=fae0b53f-00f1-45b9-a1ad-74d490e431a9","ios":"levelo://app?vid=fae0b53f-00f1-45b9-a1ad-74d490e431a9"},"vehicle_type_id":"4","last_reported":1774972669,"current_range_meters":8400,"station_id":"st_cvj5dfep6f1abm77gieg","pricing_plan_id":"cebpf4jnsgd1na2vs0mg"},{"bike_id":"99989140-ecdd-42c6-8e05-6943687e674d","system_id":"levelo_inurba_marseille","lat":43.30122,"lon":5.3899,"is_reserved":false,"is_disabled":false,"rental_uris":{"android":"levelo://app?vid=99989140-ecdd-42c6-8e05-6943687e674d","ios":"levelo://app?vid=99989140-ecdd-42c6-8e05-6943687e674d"},"vehicle_type_id":"4","last_reported":1774972669,"current_range_meters":8400,"station_id":"","pricing_plan_id":"cebpf4jnsgd1na2vs0mg"},{"bike_id":"5f4ae7a4-fe3e-4884-a1ad-c936ba64ec14","system_id":"levelo_inurba_marseille","lat":43.27367,"lon":5.3626,"is_reserved":false,"is_disabled":false,"rental_uris":{"android":"levelo://app?vid=5f4ae7a4-fe3e-4884-a1ad-c936ba64ec14","ios":"levelo://app?vid=5f4ae7a4-fe3e-4884-a1ad-c936ba64ec14"},"vehicle_type_id":"4","last_reported":1774972669,"current_range_meters":8400,"station_id":"ce4bhbh2rcd13ifvqeo0","pricing_plan_id":"cebpf4jnsgd1na2vs0mg"},{"bike_id":"b53f224e-5c2b-47b3-a19b-0c6884245c31","system_id":"levelo_inurba_marseille","lat":43.23968,"lon":5.36646,"is_reserved":false,"is_disabled":false,"rental_uris":{"android":"levelo://app?vid=b53f224e-5c2b-47b3-a19b-0c6884245c31","ios":"levelo://app?vid=b53f224e-5c2b-47b3-a19b-0c6884245c31"},"vehicle_type_id":"4","last_reported":1774972669,"current_range_meters":8400,"station_id":"ce4bhi12rcd13ifvqfp0","pricing_plan_id":"cebpf4jnsgd1na2vs0mg"},{"bike_id":"11bb1366-be60-4f8e-a1aa-5af62a9319d4","system_id":"levelo_inurba_marseille","lat":43.22939,"lon":5.35366,"is_reserved":false,"is_disabled":false,"rental_uris":{"android":"levelo://app?vid=11bb1366-be60-4f8e-a1aa-5af62a9319d4","ios":"levelo://app?vid=11bb1366-be60-4f8e-a1aa-5af62a9319d4"},"vehicle_type_id":"4","last_reported":1774972669,"current_range_meters":8400,"station_id":"cpo3532slgdg3j2ikp40","pricing_plan_id":"cebpf4jnsgd1na2vs0mg"},{"bike_id":"2472a388-2ba6-406a-93b5-09de3d970e91","system_id":"levelo_inurba_marseille","lat":43.24371,"lon":5.37095,"is_reserved":false,"is_disabled":false,"rental_uris":{"android":"levelo://app?vid=2472a388-2ba6-406a-93b5-09de3d970e91","ios":"levelo://app?vid=2472a388-2ba6-406a-93b5-09de3d970e91"},"vehicle_type_id":"4","last_reported":1774972669,"current_range_meters":8400,"station_id":"ce4bhhh2rcd13ifvqfk0","pricing_plan_id":"cebpf4jnsgd1na2vs0mg"},{"bike_id":"82ef25fe-ced1-4b2f-9f5f-f3e9366b70f0","system_id":"levelo_inurba_marseille","lat":43.28477,"lon":5.48397,"is_reserved":false,"is_disabled":false,"rental_uris":{"android":"levelo://app?vid=82ef25fe-ced1-4b2f-9f5f-f3e9366b70f0","ios":"levelo://app?vid=82ef25fe-ced1-4b2f-9f5f-f3e9366b70f0"},"vehicle_type_id":"4","last_reported":1774972669,"current_range_meters":8400,"station_id":"st_d3svhcjqgbts73a3dn0g","pricing_plan_id":"cebpf4jnsgd1na2vs0mg"},{"bike_id":"fbb75834-f22e-4b0c-a13f-b3782403aa38","system_id":"levelo_inurba_marseille","lat":43.2396,"lon":5.36632,"is_reserved":false,"is_disabled":false,"rental_uris":{"android":"levelo://app?vid=fbb75834-f22e-4b0c-a13f-b3782403aa38","ios":"levelo://app?vid=fbb75834-f22e-4b0c-a13f-b3782403aa38"},"vehicle_type_id":"4","last_reported":1774972669,"current_range_meters":8400,"station_id":"ce4bhi12rcd13ifvqfp0","pricing_plan_id":"cebpf4jnsgd1na2vs0mg"},{"bike_id":"42e2fa2e-2abd-4f21-bc0b-5516973efff4","system_id":"levelo_inurba_marseille","lat":43.24551,"lon":5.3951,"is_reserved":false,"is_disabled":false,"rental_uris":{"android":"levelo://app?vid=42e2fa2e-2abd-4f21-bc0b-5516973efff4","ios":"levelo://app?vid=42e2fa2e-2abd-4f21-bc0b-5516973efff4"},"vehicle_type_id":"4","last_reported":1774972669,"current_range_meters":8400,"station_id":"ce4bhlp2rcd13ifvqgjg","pricing_plan_id":"cebpf4jnsgd1na2vs0mg"},{"bike_id":"48e99d23-61ef-4493-837f-d5e9698a5ecf","system_id":"levelo_inurba_marseille","lat":43.2762,"lon":5.36091,"is_reserved":false,"is_disabled":false,"rental_uris":{"android":"levelo://app?vid=48e99d23-61ef-4493-837f-d5e9698a5ecf","ios":"levelo://app?vid=48e99d23-61ef-4493-837f-d5e9698a5ecf"},"vehicle_type_id":"4","last_reported":1774972669,"current_range_meters":8400,"station_id":"ce4bgj92rcd13ifvqbe0","pricing_plan_id":"cebpf4jnsgd1na2vs0mg"},{"bike_id":"72509681-52aa-4782-9de0-820bb878387d","system_id":"levelo_inurba_marseille","lat":43.22561,"lon":5.41645,"is_reserved":false,"is_disabled":false,"rental_uris":{"android":"levelo://app?vid=72509681-52aa-4782-9de0-820bb878387d","ios":"levelo://app?vid=72509681-52aa-4782-9de0-820bb878387d"},"vehicle_type_id":"4","last_reported":1774972669,"current_range_meters":8400,"station_id":"st_d2o4gvlbi1j2169b742g","pricing_plan_id":"cebpf4jnsgd1na2vs0mg"},{"bike_id":"f2a7e3a5-cac5-4b5c-9077-f8604e7b1b43","system_id":"levelo_inurba_marseille","lat":43.29194,"lon":5.42688,"is_reserved":false,"is_disabled":false,"rental_uris":{"android":"levelo://app?vid=f2a7e3a5-cac5-4b5c-9077-f8604e7b1b43","ios":"levelo://app?vid=f2a7e3a5-cac5-4b5c-9077-f8604e7b1b43"},"vehicle_type_id":"4","last_reported":1774972669,"current_range_meters":8400,"station_id":"","pricing_plan_id":"cebpf4jnsgd1na2vs0mg"},{"bike_id":"08e71c86-43a8-4902-86cf-de3f77db33e6","system_id":"levelo_inurba_marseille","lat":43.29691,"lon":5.44437,"is_reserved":false,"is_disabled":false,"rental_uris":{"android":"levelo://app?vid=08e71c86-43a8-4902-86cf-de3f77db33e6","ios":"levelo://app?vid=08e71c86-43a8-4902-86cf-de3f77db33e6"},"vehicle_type_id":"4","last_reported":1774972669,"current_range_meters":8400,"station_id":"","pricing_plan_id":"cebpf4jnsgd1na2vs0mg"},{"bike_id":"2143be35-497d-4c7b-9f85-3e781cd61463","system_id":"levelo_inurba_marseille","lat":43.29899,"lon":5.43659,"is_reserved":false,"is_disabled":false,"rental_uris":{"android":"levelo://app?vid=2143be35-497d-4c7b-9f85-3e781cd61463","ios":"levelo://app?vid=2143be35-497d-4c7b-9f85-3e781cd61463"},"vehicle_type_id":"4","last_reported":1774972669,"current_range_meters":8400,"station_id":"ce4bhpp2rcd13ifvqhfg","pricing_plan_id":"cebpf4jnsgd1na2vs0mg"},{"bike_id":"54b32ec7-ddfd-41e6-ae23-087da91e8924","system_id":"levelo_inurba_marseille","lat":43.29893,"lon":5.43677,"is_reserved":false,"is_disabled":false,"rental_uris":{"android":"levelo://app?vid=54b32ec7-ddfd-41e6-ae23-087da91e8924","ios":"levelo://app?vid=54b32ec7-ddfd-41e6-ae23-087da91e8924"},"vehicle_type_id":"4","last_reported":1774972669,"current_range_meters":8800,"station_id":"ce4bhpp2rcd13ifvqhfg","pricing_plan_id":"cebpf4jnsgd1na2vs0mg"},{"bike_id":"e458a106-03bd-43e1-805a-4e2ea0bec4ed","system_id":"levelo_inurba_marseille","lat":43.31868,"lon":5.38405,"is_reserved":false,"is_disabled":false,"rental_uris":{"android":"levelo://app?vid=e458a106-03bd-43e1-805a-4e2ea0bec4ed","ios":"levelo://app?vid=e458a106-03bd-43e1-805a-4e2ea0bec4ed"},"vehicle_type_id":"4","last_reported":1774972669,"current_range_meters":8800,"station_id":"","pricing_plan_id":"cebpf4jnsgd1na2vs0mg"},{"bike_id":"2b693a47-e048-4d44-98a9-a6a085ac2cde","system_id":"levelo_inurba_marseille","lat":43.28931,"lon":5.36641,"is_reserved":false,"is_disabled":false,"rental_uris":{"android":"levelo://app?vid=2b693a47-e048-4d44-98a9-a6a085ac2cde","ios":"levelo://app?vid=2b693a47-e048-4d44-98a9-a6a085ac2cde"},"vehicle_type_id":"4","last_reported":1774972669,"current_range_meters":8800,"station_id":"ce4bhap2rcd13ifvqek0","pricing_plan_id":"cebpf4jnsgd1na2vs0mg"},{"bike_id":"140d59d9-5fe1-4f30-b8f2-8350c1b6a55b","system_id":"levelo_inurba_marseille","lat":43.28416,"lon":5.34978,"is_reserved":false,"is_disabled":false,"rental_uris":{"android":"levelo://app?vid=140d59d9-5fe1-4f30-b8f2-8350c1b6a55b","ios":"levelo://app?vid=140d59d9-5fe1-4f30-b8f2-8350c1b6a55b"},"vehicle_type_id":"4","last_reported":1774972669,"current_range_meters":8800,"station_id":"ce4bhbh2rcd13ifvqepg","pricing_plan_id":"cebpf4jnsgd1na2vs0mg"},{"bike_id":"1130d409-34d2-42ba-a5d5-ed99d6325005","system_id":"levelo_inurba_marseille","lat":43.2173,"lon":5.34622,"is_reserved":false,"is_disabled":false,"rental_uris":{"android":"levelo://app?vid=1130d409-34d2-42ba-a5d5-ed99d6325005","ios":"levelo://app?vid=1130d409-34d2-42ba-a5d5-ed99d6325005"},"vehicle_type_id":"4","last_reported":1774972669,"current_range_meters":8800,"station_id":"st_cvj6r9ubvosntc0bgbag","pricing_plan_id":"cebpf4jnsgd1na2vs0mg"},{"bike_id":"9c014c21-0814-46e2-9079-4ed86b4000e6","system_id":"levelo_inurba_marseille","lat":43.23843,"lon":5.37255,"is_reserved":false,"is_disabled":false,"rental_uris":{"android":"levelo://app?vid=9c014c21-0814-46e2-9079-4ed86b4000e6","ios":"levelo://app?vid=9c014c21-0814-46e2-9079-4ed86b4000e6"},"vehicle_type_id":"4","last_reported":1774972669,"current_range_meters":8800,"station_id":"","pricing_plan_id":"cebpf4jnsgd1na2vs0mg"},{"bike_id":"14a7a14d-897e-4c77-a3ae-1f964bb6e4d0","system_id":"levelo_inurba_marseille","lat":43.2509,"lon":5.39525,"is_reserved":false,"is_disabled":false,"rental_uris":{"android":"levelo://app?vid=14a7a14d-897e-4c77-a3ae-1f964bb6e4d0","ios":"levelo://app?vid=14a7a14d-897e-4c77-a3ae-1f964bb6e4d0"},"vehicle_type_id":"4","last_reported":1774972669,"current_range_meters":8800,"station_id":"ce4bhm12rcd13ifvqgkg","pricing_plan_id":"cebpf4jnsgd1na2vs0mg"},{"bike_id":"61440877-f954-42f0-a72d-12f419300a5f","system_id":"levelo_inurba_marseille","lat":43.31185,"lon":5.3693,"is_reserved":false,"is_disabled":false,"rental_uris":{"android":"levelo://app?vid=61440877-f954-42f0-a72d-12f419300a5f","ios":"levelo://app?vid=61440877-f954-42f0-a72d-12f419300a5f"},"vehicle_type_id":"4","last_reported":1774972669,"current_range_meters":8800,"station_id":"ce4bgl92rcd13ifvqbq0","pricing_plan_id":"cebpf4jnsgd1na2vs0mg"},{"bike_id":"a7b94be6-84e4-4662-a273-738cf2a448f7","system_id":"levelo_inurba_marseille","lat":43.26027,"lon":5.37545,"is_reserved":false,"is_disabled":false,"rental_uris":{"android":"levelo://app?vid=a7b94be6-84e4-4662-a273-738cf2a448f7","ios":"levelo://app?vid=a7b94be6-84e4-4662-a273-738cf2a448f7"},"vehicle_type_id":"4","last_reported":1774972669,"current_range_meters":8800,"station_id":"ce4bhgh2rcd13ifvqfa0","pricing_plan_id":"cebpf4jnsgd1na2vs0mg"},{"bike_id":"10143625-4f1f-4b98-a23a-f0e119d830ff","system_id":"levelo_inurba_marseille","lat":43.24853,"lon":5.37497,"is_reserved":false,"is_disabled":false,"rental_uris":{"android":"levelo://app?vid=10143625-4f1f-4b98-a23a-f0e119d830ff","ios":"levelo://app?vid=10143625-4f1f-4b98-a23a-f0e119d830ff"},"vehicle_type_id":"4","last_reported":1774972669,"current_range_meters":8800,"station_id":"","pricing_plan_id":"cebpf4jnsgd1na2vs0mg"},{"bike_id":"33f3c10f-22cd-4c73-a574-94b484b74c9e","system_id":"levelo_inurba_marseille","lat":43.28539,"lon":5.44114,"is_reserved":false,"is_disabled":false,"rental_uris":{"android":"levelo://app?vid=33f3c10f-22cd-4c73-a574-94b484b74c9e","ios":"levelo://app?vid=33f3c10f-22cd-4c73-a574-94b484b74c9e"},"vehicle_type_id":"4","last_reported":1774972669,"current_range_meters":8800,"station_id":"st_d3j3df2ikq2c7380ej80","pricing_plan_id":"cebpf4jnsgd1na2vs0mg"},{"bike_id":"0f182db9-a1f9-46fd-9199-275e74a125d7","system_id":"levelo_inurba_marseille","lat":43.24172,"lon":5.36385,"is_reserved":false,"is_disabled":false,"rental_uris":{"android":"levelo://app?vid=0f182db9-a1f9-46fd-9199-275e74a125d7","ios":"levelo://app?vid=0f182db9-a1f9-46fd-9199-275e74a125d7"},"vehicle_type_id":"4","last_reported":1774972669,"current_range_meters":8800,"station_id":"cpo36qri1sfpv3e86is0","pricing_plan_id":"cebpf4jnsgd1na2vs0mg"},{"bike_id":"c1b0a95b-5db8-4a53-901d-d26f9a1cd8b5","system_id":"levelo_inurba_marseille","lat":43.28359,"lon":5.38103,"is_reserved":false,"is_disabled":false,"rental_uris":{"android":"levelo://app?vid=c1b0a95b-5db8-4a53-901d-d26f9a1cd8b5","ios":"levelo://app?vid=c1b0a95b-5db8-4a53-901d-d26f9a1cd8b5"},"vehicle_type_id":"4","last_reported":1774972669,"current_range_meters":8800,"station_id":"ce4bh412rcd13ifvqdr0","pricing_plan_id":"cebpf4jnsgd1na2vs0mg"},{"bike_id":"5da18d2b-0137-469f-8182-9d3e9667e32b","system_id":"levelo_inurba_marseille","lat":43.21191,"lon":5.35078,"is_reserved":false,"is_disabled":false,"rental_uris":{"android":"levelo://app?vid=5da18d2b-0137-469f-8182-9d3e9667e32b","ios":"levelo://app?vid=5da18d2b-0137-469f-8182-9d3e9667e32b"},"vehicle_type_id":"4","last_reported":1774972669,"current_range_meters":8800,"station_id":"st_cvj6sg6p6f1abm77japg","pricing_plan_id":"cebpf4jnsgd1na2vs0mg"},{"bike_id":"1b957733-84d6-4d17-8f2b-ecfa19890447","system_id":"levelo_inurba_marseille","lat":43.33527,"lon":5.37487,"is_reserved":false,"is_disabled":false,"rental_uris":{"android":"levelo://app?vid=1b957733-84d6-4d17-8f2b-ecfa19890447","ios":"levelo://app?vid=1b957733-84d6-4d17-8f2b-ecfa19890447"},"vehicle_type_id":"4","last_reported":1774972669,"current_range_meters":8800,"station_id":"st_d46tts09ee8s73dlu43g","pricing_plan_id":"cebpf4jnsgd1na2vs0mg"},{"bike_id":"d0f57ace-f13e-4dfc-a477-03de0a2c743c","system_id":"levelo_inurba_marseille","lat":43.28425,"lon":5.39225,"is_reserved":false,"is_disabled":false,"rental_uris":{"android":"levelo://app?vid=d0f57ace-f13e-4dfc-a477-03de0a2c743c","ios":"levelo://app?vid=d0f57ace-f13e-4dfc-a477-03de0a2c743c"},"vehicle_type_id":"4","last_reported":1774972669,"current_range_meters":8800,"station_id":"ce4bhoh2rcd13ifvqh5g","pricing_plan_id":"cebpf4jnsgd1na2vs0mg"},{"bike_id":"b1d02504-2c4f-47d1-9d0a-aa3599012e9a","system_id":"levelo_inurba_marseille","lat":43.26817,"lon":5.40241,"is_reserved":false,"is_disabled":false,"rental_uris":{"android":"levelo://app?vid=b1d02504-2c4f-47d1-9d0a-aa3599012e9a","ios":"levelo://app?vid=b1d02504-2c4f-47d1-9d0a-aa3599012e9a"},"vehicle_type_id":"4","last_reported":1774972669,"current_range_meters":8800,"station_id":"ce501612rcd8frsf0b60","pricing_plan_id":"cebpf4jnsgd1na2vs0mg"},{"bike_id":"4f461c12-a839-4112-843e-a559d023da9c","system_id":"levelo_inurba_marseille","lat":43.21187,"lon":5.35105,"is_reserved":false,"is_disabled":false,"rental_uris":{"android":"levelo://app?vid=4f461c12-a839-4112-843e-a559d023da9c","ios":"levelo://app?vid=4f461c12-a839-4112-843e-a559d023da9c"},"vehicle_type_id":"4","last_reported":1774972669,"current_range_meters":8800,"station_id":"st_cvj6sg6p6f1abm77japg","pricing_plan_id":"cebpf4jnsgd1na2vs0mg"},{"bike_id":"fee0e165-d888-4bb6-b1cb-a27e2c823e2b","system_id":"levelo_inurba_marseille","lat":43.27945,"lon":5.4106,"is_reserved":false,"is_disabled":false,"rental_uris":{"android":"levelo://app?vid=fee0e165-d888-4bb6-b1cb-a27e2c823e2b","ios":"levelo://app?vid=fee0e165-d888-4bb6-b1cb-a27e2c823e2b"},"vehicle_type_id":"4","last_reported":1774972669,"current_range_meters":8800,"station_id":"ce4bhnp2rcd13ifvqh0g","pricing_plan_id":"cebpf4jnsgd1na2vs0mg"},{"bike_id":"bb0d11db-19ae-4f1c-8146-45d8cf0530f7","system_id":"levelo_inurba_marseille","lat":43.337444,"lon":5.374475,"is_reserved":false,"is_disabled":true,"rental_uris":{"android":"levelo://app?vid=bb0d11db-19ae-4f1c-8146-45d8cf0530f7","ios":"levelo://app?vid=bb0d11db-19ae-4f1c-8146-45d8cf0530f7"},"vehicle_type_id":"4","last_reported":1774972669,"current_range_meters":8800,"station_id":"","pricing_plan_id":"cebpf4jnsgd1na2vs0mg"},{"bike_id":"8fc970ee-a484-45a1-8680-8f7f28a23ddf","system_id":"levelo_inurba_marseille","lat":43.2176,"lon":5.3462,"is_reserved":false,"is_disabled":false,"rental_uris":{"android":"levelo://app?vid=8fc970ee-a484-45a1-8680-8f7f28a23ddf","ios":"levelo://app?vid=8fc970ee-a484-45a1-8680-8f7f28a23ddf"},"vehicle_type_id":"4","last_reported":1774972669,"current_range_meters":8800,"station_id":"st_cvj6r9ubvosntc0bgbag","pricing_plan_id":"cebpf4jnsgd1na2vs0mg"},{"bike_id":"ec7f1113-7689-4025-9f13-3d4deb94a203","system_id":"levelo_inurba_marseille","lat":43.31059,"lon":5.386,"is_reserved":false,"is_disabled":false,"rental_uris":{"android":"levelo://app?vid=ec7f1113-7689-4025-9f13-3d4deb94a203","ios":"levelo://app?vid=ec7f1113-7689-4025-9f13-3d4deb94a203"},"vehicle_type_id":"4","last_reported":1774972669,"current_range_meters":8800,"station_id":"","pricing_plan_id":"cebpf4jnsgd1na2vs0mg"},{"bike_id":"78151f0b-d096-4bc8-9d04-f28fec21246f","system_id":"levelo_inurba_marseille","lat":43.23184,"lon":5.39984,"is_reserved":false,"is_disabled":false,"rental_uris":{"android":"levelo://app?vid=78151f0b-d096-4bc8-9d04-f28fec21246f","ios":"levelo://app?vid=78151f0b-d096-4bc8-9d04-f28fec21246f"},"vehicle_type_id":"4","last_reported":1774972669,"current_range_meters":9200,"station_id":"ce4bhn12rcd13ifvqgqg","pricing_plan_id":"cebpf4jnsgd1na2vs0mg"},{"bike_id":"a20f850c-d4ca-4157-bd3f-18fda064d36f","system_id":"levelo_inurba_marseille","lat":43.29529,"lon":5.38657,"is_reserved":false,"is_disabled":false,"rental_uris":{"android":"levelo://app?vid=a20f850c-d4ca-4157-bd3f-18fda064d36f","ios":"levelo://app?vid=a20f850c-d4ca-4157-bd3f-18fda064d36f"},"vehicle_type_id":"4","last_reported":1774972669,"current_range_meters":9200,"station_id":"","pricing_plan_id":"cebpf4jnsgd1na2vs0mg"},{"bike_id":"435393ff-9e8e-4fa2-82a4-6ce12bbccbed","system_id":"levelo_inurba_marseille","lat":43.28487,"lon":5.48397,"is_reserved":false,"is_disabled":false,"rental_uris":{"android":"levelo://app?vid=435393ff-9e8e-4fa2-82a4-6ce12bbccbed","ios":"levelo://app?vid=435393ff-9e8e-4fa2-82a4-6ce12bbccbed"},"vehicle_type_id":"4","last_reported":1774972669,"current_range_meters":9200,"station_id":"st_d3svhcjqgbts73a3dn0g","pricing_plan_id":"cebpf4jnsgd1na2vs0mg"},{"bike_id":"bdc08334-6c6e-499f-bedf-15a74693b504","system_id":"levelo_inurba_marseille","lat":43.29541,"lon":5.38548,"is_reserved":false,"is_disabled":false,"rental_uris":{"android":"levelo://app?vid=bdc08334-6c6e-499f-bedf-15a74693b504","ios":"levelo://app?vid=bdc08334-6c6e-499f-bedf-15a74693b504"},"vehicle_type_id":"4","last_reported":1774972669,"current_range_meters":9200,"station_id":"ce4bgih2rcd13ifvqba0","pricing_plan_id":"cebpf4jnsgd1na2vs0mg"},{"bike_id":"1fd14647-60cf-49f0-a971-843beb62395e","system_id":"levelo_inurba_marseille","lat":43.28527,"lon":5.44108,"is_reserved":false,"is_disabled":false,"rental_uris":{"android":"levelo://app?vid=1fd14647-60cf-49f0-a971-843beb62395e","ios":"levelo://app?vid=1fd14647-60cf-49f0-a971-843beb62395e"},"vehicle_type_id":"4","last_reported":1774972669,"current_range_meters":9200,"station_id":"st_d3j3df2ikq2c7380ej80","pricing_plan_id":"cebpf4jnsgd1na2vs0mg"},{"bike_id":"33648313-4a5c-431c-bb9c-3de41b343de6","system_id":"levelo_inurba_marseille","lat":43.29261,"lon":5.36848,"is_reserved":false,"is_disabled":false,"rental_uris":{"android":"levelo://app?vid=33648313-4a5c-431c-bb9c-3de41b343de6","ios":"levelo://app?vid=33648313-4a5c-431c-bb9c-3de41b343de6"},"vehicle_type_id":"4","last_reported":1774972669,"current_range_meters":9200,"station_id":"ce4bhbp2rcd13ifvqesg","pricing_plan_id":"cebpf4jnsgd1na2vs0mg"},{"bike_id":"88bf8cfc-7eb9-42a7-89ad-5722f14136d0","system_id":"levelo_inurba_marseille","lat":43.27637,"lon":5.3613,"is_reserved":false,"is_disabled":false,"rental_uris":{"android":"levelo://app?vid=88bf8cfc-7eb9-42a7-89ad-5722f14136d0","ios":"levelo://app?vid=88bf8cfc-7eb9-42a7-89ad-5722f14136d0"},"vehicle_type_id":"4","last_reported":1774972669,"current_range_meters":9200,"station_id":"ce4bgj92rcd13ifvqbe0","pricing_plan_id":"cebpf4jnsgd1na2vs0mg"},{"bike_id":"f72c056e-6f2a-472b-af06-e0de2f64cbf8","system_id":"levelo_inurba_marseille","lat":43.31357,"lon":5.36686,"is_reserved":false,"is_disabled":false,"rental_uris":{"android":"levelo://app?vid=f72c056e-6f2a-472b-af06-e0de2f64cbf8","ios":"levelo://app?vid=f72c056e-6f2a-472b-af06-e0de2f64cbf8"},"vehicle_type_id":"4","last_reported":1774972669,"current_range_meters":9200,"station_id":"ce4bgr92rcd13ifvqc6g","pricing_plan_id":"cebpf4jnsgd1na2vs0mg"},{"bike_id":"0d0c8f03-48a7-4e97-9825-e79885ed278e","system_id":"levelo_inurba_marseille","lat":43.23046,"lon":5.35491,"is_reserved":false,"is_disabled":false,"rental_uris":{"android":"levelo://app?vid=0d0c8f03-48a7-4e97-9825-e79885ed278e","ios":"levelo://app?vid=0d0c8f03-48a7-4e97-9825-e79885ed278e"},