{"last_updated":1747296916,"ttl":60,"version":"2.2","data":{"bikes":[{"bike_id":"c0b9fd4f-e181-46ce-b0bf-f5119973334f","system_id":"levelo_inurba_marseille","lat":43.33771,"lon":5.37424,"is_reserved":false,"is_disabled":false,"rental_uris":{"android":"levelo://app?vid=c0b9fd4f-e181-46ce-b0bf-f5119973334f","ios":"levelo://app?vid=c0b9fd4f-e181-46ce-b0bf-f5119973334f"},"vehicle_type_id":"4","last_reported":1747296916,"current_range_meters":15200,"station_id":"","pricing_plan_id":"cebpf4jnsgd1na2vs0mg"},{"bike_id":"3fae8334-a9d0-4ed3-aa20-0276813b60f6","system_id":"levelo_inurba_marseille","lat":43.26834,"lon":5.38471,"is_reserved":false,"is_disabled":true,"rental_uris":{"android":"levelo://app?vid=3fae8334-a9d0-4ed3-aa20-0276813b60f6","ios":"levelo://app?vid=3fae8334-a9d0-4ed3-aa20-0276813b60f6"},"vehicle_type_id":"4","last_reported":1747296916,"current_range_meters":0,"station_id":"","pricing_plan_id":"cebpf4jnsgd1na2vs0mg"},{"bike_id":"fc2577e7-1497-425b-9d4f-ab8d7dc843c6","system_id":"levelo_inurba_marseille","lat":43.33771,"lon":5.37485,"is_reserved":false,"is_disabled":true,"rental_uris":{"android":"levelo://app?vid=fc2577e7-1497-425b-9d4f-ab8d7dc843c6","ios":"levelo://app?vid=fc2577e7-1497-425b-9d4f-ab8d7dc843c6"},"vehicle_type_id":"4","last_reported":1747296916,"current_range_meters":0,"station_id":"","pricing_plan_id":"cebpf4jnsgd1na2vs0mg"},{"bike_id":"0fedde00-40eb-40d2-8fc2-e61ecce46b7b","system_id":"levelo_inurba_marseille","lat":43.282966,"lon":5.432682,"is_reserved":false,"is_disabled":true,"rental_uris":{"android":"levelo://app?vid=0fedde00-40eb-40d2-8fc2-e61ecce46b7b","ios":"levelo://app?vid=0fedde00-40eb-40d2-8fc2-e61ecce46b7b"},"vehicle_type_id":"4","last_reported":1747296916,"current_range_meters":0,"station_id":"","pricing_plan_id":"cebpf4jnsgd1na2vs0mg"},{"bike_id":"58759d40-402f-44ad-a9ec-ef71c6f52c01","system_id":"levelo_inurba_marseille","lat":43.27892,"lon":5.35402,"is_reserved":false,"is_disabled":true,"rental_uris":{"android":"levelo://app?vid=58759d40-402f-44ad-a9ec-ef71c6f52c01","ios":"levelo://app?vid=58759d40-402f-44ad-a9ec-ef71c6f52c01"},"vehicle_type_id":"4","last_reported":1747296916,"current_range_meters":0,"station_id":"","pricing_plan_id":"cebpf4jnsgd1na2vs0mg"},{"bike_id":"792567c6-0442-4011-aff0-9c05e25deb48","system_id":"levelo_inurba_marseille","lat":43.337444,"lon":5.374475,"is_reserved":false,"is_disabled":true,"rental_uris":{"android":"levelo://app?vid=792567c6-0442-4011-aff0-9c05e25deb48","ios":"levelo://app?vid=792567c6-0442-4011-aff0-9c05e25deb48"},"vehicle_type_id":"4","last_reported":1747296916,"current_range_meters":0,"station_id":"","pricing_plan_id":"cebpf4jnsgd1na2vs0mg"},{"bike_id":"a8695945-1435-4ced-8332-d707e22799dc","system_id":"levelo_inurba_marseille","lat":43.31332,"lon":5.39686,"is_reserved":false,"is_disabled":true,"rental_uris":{"android":"levelo://app?vid=a8695945-1435-4ced-8332-d707e22799dc","ios":"levelo://app?vid=a8695945-1435-4ced-8332-d707e22799dc"},"vehicle_type_id":"4","last_reported":1747296916,"current_range_meters":0,"station_id":"ce4bgvp2rcd13ifvqcu0","pricing_plan_id":"cebpf4jnsgd1na2vs0mg"},{"bike_id":"e29323d1-10c8-4595-9bed-82d3b7d85ddc","system_id":"levelo_inurba_marseille","lat":43.29182,"lon":5.37146,"is_reserved":false,"is_disabled":true,"rental_uris":{"android":"levelo://app?vid=e29323d1-10c8-4595-9bed-82d3b7d85ddc","ios":"levelo://app?vid=e29323d1-10c8-4595-9bed-82d3b7d85ddc"},"vehicle_type_id":"4","last_reported":1747296916,"current_range_meters":0,"station_id":"ce4bha92rcd13ifvqeh0","pricing_plan_id":"cebpf4jnsgd1na2vs0mg"},{"bike_id":"45d087d4-205c-4d4b-ba7f-2fd27b4e7ea6","system_id":"levelo_inurba_marseille","lat":43.28614,"lon":5.35109,"is_reserved":false,"is_disabled":true,"rental_uris":{"android":"levelo://app?vid=45d087d4-205c-4d4b-ba7f-2fd27b4e7ea6","ios":"levelo://app?vid=45d087d4-205c-4d4b-ba7f-2fd27b4e7ea6"},"vehicle_type_id":"4","last_reported":1747296916,"current_range_meters":0,"station_id":"ce4bhch2rcd13ifvqeug","pricing_plan_id":"cebpf4jnsgd1na2vs0mg"},{"bike_id":"e3e71d0d-697a-4836-a815-463715e50b10","system_id":"levelo_inurba_marseille","lat":43.26553,"lon":5.38951,"is_reserved":false,"is_disabled":true,"rental_uris":{"android":"levelo://app?vid=e3e71d0d-697a-4836-a815-463715e50b10","ios":"levelo://app?vid=e3e71d0d-697a-4836-a815-463715e50b10"},"vehicle_type_id":"4","last_reported":1747296916,"current_range_meters":0,"station_id":"ce4bhe12rcd13ifvqf30","pricing_plan_id":"cebpf4jnsgd1na2vs0mg"},{"bike_id":"a9337882-b5fe-4716-8c22-10d6c9febd36","system_id":"levelo_inurba_marseille","lat":43.25572,"lon":5.38215,"is_reserved":false,"is_disabled":true,"rental_uris":{"android":"levelo://app?vid=a9337882-b5fe-4716-8c22-10d6c9febd36","ios":"levelo://app?vid=a9337882-b5fe-4716-8c22-10d6c9febd36"},"vehicle_type_id":"4","last_reported":1747296916,"current_range_meters":0,"station_id":"ce4bhih2rcd13ifvqfs0","pricing_plan_id":"cebpf4jnsgd1na2vs0mg"},{"bike_id":"bc34f0ee-02f1-4988-92d3-12288d376110","system_id":"levelo_inurba_marseille","lat":43.26202,"lon":5.37932,"is_reserved":false,"is_disabled":true,"rental_uris":{"android":"levelo://app?vid=bc34f0ee-02f1-4988-92d3-12288d376110","ios":"levelo://app?vid=bc34f0ee-02f1-4988-92d3-12288d376110"},"vehicle_type_id":"4","last_reported":1747296916,"current_range_meters":0,"station_id":"ce4bhjp2rcd13ifvqg90","pricing_plan_id":"cebpf4jnsgd1na2vs0mg"},{"bike_id":"85c6a8d5-1c00-4bf6-b151-bed1d76277cf","system_id":"levelo_inurba_marseille","lat":43.27825,"lon":5.40694,"is_reserved":false,"is_disabled":true,"rental_uris":{"android":"levelo://app?vid=85c6a8d5-1c00-4bf6-b151-bed1d76277cf","ios":"levelo://app?vid=85c6a8d5-1c00-4bf6-b151-bed1d76277cf"},"vehicle_type_id":"4","last_reported":1747296916,"current_range_meters":0,"station_id":"ce4bhnh2rcd13ifvqgtg","pricing_plan_id":"cebpf4jnsgd1na2vs0mg"},{"bike_id":"af3ff720-b3e0-4d88-8711-31b4e8951464","system_id":"levelo_inurba_marseille","lat":43.2816,"lon":5.42633,"is_reserved":false,"is_disabled":true,"rental_uris":{"android":"levelo://app?vid=af3ff720-b3e0-4d88-8711-31b4e8951464","ios":"levelo://app?vid=af3ff720-b3e0-4d88-8711-31b4e8951464"},"vehicle_type_id":"4","last_reported":1747296916,"current_range_meters":0,"station_id":"ce4bhnh2rcd13ifvqgug","pricing_plan_id":"cebpf4jnsgd1na2vs0mg"},{"bike_id":"a70ebef5-8857-46a3-a373-d8f10a11e4a0","system_id":"levelo_inurba_marseille","lat":43.21188,"lon":5.35072,"is_reserved":false,"is_disabled":true,"rental_uris":{"android":"levelo://app?vid=a70ebef5-8857-46a3-a373-d8f10a11e4a0","ios":"levelo://app?vid=a70ebef5-8857-46a3-a373-d8f10a11e4a0"},"vehicle_type_id":"4","last_reported":1747296916,"current_range_meters":0,"station_id":"st_cvj6sg6p6f1abm77japg","pricing_plan_id":"cebpf4jnsgd1na2vs0mg"},{"bike_id":"44cb5dd6-71dd-4fbe-8dc2-55077e77d931","system_id":"levelo_inurba_marseille","lat":43.27917,"lon":5.3958,"is_reserved":false,"is_disabled":true,"rental_uris":{"android":"levelo://app?vid=44cb5dd6-71dd-4fbe-8dc2-55077e77d931","ios":"levelo://app?vid=44cb5dd6-71dd-4fbe-8dc2-55077e77d931"},"vehicle_type_id":"4","last_reported":1747296916,"current_range_meters":400,"station_id":"ce4bhf92rcd13ifvqf40","pricing_plan_id":"cebpf4jnsgd1na2vs0mg"},{"bike_id":"a18a5b63-5fcd-4f8a-bca3-f604364709d7","system_id":"levelo_inurba_marseille","lat":43.25919,"lon":5.40889,"is_reserved":false,"is_disabled":true,"rental_uris":{"android":"levelo://app?vid=a18a5b63-5fcd-4f8a-bca3-f604364709d7","ios":"levelo://app?vid=a18a5b63-5fcd-4f8a-bca3-f604364709d7"},"vehicle_type_id":"4","last_reported":1747296916,"current_range_meters":400,"station_id":"ce4bhm92rcd13ifvqglg","pricing_plan_id":"cebpf4jnsgd1na2vs0mg"},{"bike_id":"0d44d20c-5476-4809-b039-e90373358771","system_id":"levelo_inurba_marseille","lat":43.27489,"lon":5.42458,"is_reserved":false,"is_disabled":true,"rental_uris":{"android":"levelo://app?vid=0d44d20c-5476-4809-b039-e90373358771","ios":"levelo://app?vid=0d44d20c-5476-4809-b039-e90373358771"},"vehicle_type_id":"4","last_reported":1747296916,"current_range_meters":400,"station_id":"ce4bhn92rcd13ifvqgrg","pricing_plan_id":"cebpf4jnsgd1na2vs0mg"},{"bike_id":"ef83ace4-97a4-4bd7-8d9d-8603eccf9cab","system_id":"levelo_inurba_marseille","lat":43.33588,"lon":5.41015,"is_reserved":false,"is_disabled":true,"rental_uris":{"android":"levelo://app?vid=ef83ace4-97a4-4bd7-8d9d-8603eccf9cab","ios":"levelo://app?vid=ef83ace4-97a4-4bd7-8d9d-8603eccf9cab"},"vehicle_type_id":"4","last_reported":1747296916,"current_range_meters":400,"station_id":"ce4bhqh2rcd13ifvqhmg","pricing_plan_id":"cebpf4jnsgd1na2vs0mg"},{"bike_id":"e2534897-acbb-496d-8db9-8af52f9d7235","system_id":"levelo_inurba_marseille","lat":43.30279,"lon":5.37719,"is_reserved":false,"is_disabled":true,"rental_uris":{"android":"levelo://app?vid=e2534897-acbb-496d-8db9-8af52f9d7235","ios":"levelo://app?vid=e2534897-acbb-496d-8db9-8af52f9d7235"},"vehicle_type_id":"4","last_reported":1747296916,"current_range_meters":800,"station_id":"ce4bguh2rcd13ifvqcj0","pricing_plan_id":"cebpf4jnsgd1na2vs0mg"},{"bike_id":"fe232322-3cf9-464f-803d-03678ff14737","system_id":"levelo_inurba_marseille","lat":43.28621,"lon":5.35113,"is_reserved":false,"is_disabled":true,"rental_uris":{"android":"levelo://app?vid=fe232322-3cf9-464f-803d-03678ff14737","ios":"levelo://app?vid=fe232322-3cf9-464f-803d-03678ff14737"},"vehicle_type_id":"4","last_reported":1747296916,"current_range_meters":800,"station_id":"ce4bhch2rcd13ifvqeug","pricing_plan_id":"cebpf4jnsgd1na2vs0mg"},{"bike_id":"d82557df-e581-4e7c-a50d-54afec677056","system_id":"levelo_inurba_marseille","lat":43.21746,"lon":5.34604,"is_reserved":false,"is_disabled":true,"rental_uris":{"android":"levelo://app?vid=d82557df-e581-4e7c-a50d-54afec677056","ios":"levelo://app?vid=d82557df-e581-4e7c-a50d-54afec677056"},"vehicle_type_id":"4","last_reported":1747296916,"current_range_meters":800,"station_id":"st_cvj6r9ubvosntc0bgbag","pricing_plan_id":"cebpf4jnsgd1na2vs0mg"},{"bike_id":"6b867450-7291-4697-a199-7ae476a652ac","system_id":"levelo_inurba_marseille","lat":43.29225,"lon":5.36073,"is_reserved":false,"is_disabled":true,"rental_uris":{"android":"levelo://app?vid=6b867450-7291-4697-a199-7ae476a652ac","ios":"levelo://app?vid=6b867450-7291-4697-a199-7ae476a652ac"},"vehicle_type_id":"4","last_reported":1747296916,"current_range_meters":1200,"station_id":"ce4bhbh2rcd13ifvqeqg","pricing_plan_id":"cebpf4jnsgd1na2vs0mg"},{"bike_id":"e7e9708d-222e-420f-93d2-f2a2d91faf65","system_id":"levelo_inurba_marseille","lat":43.25928,"lon":5.40896,"is_reserved":false,"is_disabled":true,"rental_uris":{"android":"levelo://app?vid=e7e9708d-222e-420f-93d2-f2a2d91faf65","ios":"levelo://app?vid=e7e9708d-222e-420f-93d2-f2a2d91faf65"},"vehicle_type_id":"4","last_reported":1747296916,"current_range_meters":1200,"station_id":"ce4bhm92rcd13ifvqglg","pricing_plan_id":"cebpf4jnsgd1na2vs0mg"},{"bike_id":"a33b1d9a-5ec1-4ed8-a536-74b79b4d250f","system_id":"levelo_inurba_marseille","lat":43.32546,"lon":5.41423,"is_reserved":false,"is_disabled":true,"rental_uris":{"android":"levelo://app?vid=a33b1d9a-5ec1-4ed8-a536-74b79b4d250f","ios":"levelo://app?vid=a33b1d9a-5ec1-4ed8-a536-74b79b4d250f"},"vehicle_type_id":"4","last_reported":1747296916,"current_range_meters":1200,"station_id":"ce4bhq12rcd13ifvqhhg","pricing_plan_id":"cebpf4jnsgd1na2vs0mg"},{"bike_id":"203a261a-ff5b-4a50-9018-356aec98646d","system_id":"levelo_inurba_marseille","lat":43.288529,"lon":5.393028,"is_reserved":false,"is_disabled":true,"rental_uris":{"android":"levelo://app?vid=203a261a-ff5b-4a50-9018-356aec98646d","ios":"levelo://app?vid=203a261a-ff5b-4a50-9018-356aec98646d"},"vehicle_type_id":"4","last_reported":1747296916,"current_range_meters":1600,"station_id":"ce4bh2p2rcd13ifvqdi0","pricing_plan_id":"cebpf4jnsgd1na2vs0mg"},{"bike_id":"ce4325af-2448-4172-bdec-81d552ee0b62","system_id":"levelo_inurba_marseille","lat":43.26158,"lon":5.42018,"is_reserved":false,"is_disabled":false,"rental_uris":{"android":"levelo://app?vid=ce4325af-2448-4172-bdec-81d552ee0b62","ios":"levelo://app?vid=ce4325af-2448-4172-bdec-81d552ee0b62"},"vehicle_type_id":"4","last_reported":1747296916,"current_range_meters":2800,"station_id":"","pricing_plan_id":"cebpf4jnsgd1na2vs0mg"},{"bike_id":"ce56dac4-3879-4283-8148-af2b9fd6c04b","system_id":"levelo_inurba_marseille","lat":43.31298,"lon":5.39018,"is_reserved":false,"is_disabled":false,"rental_uris":{"android":"levelo://app?vid=ce56dac4-3879-4283-8148-af2b9fd6c04b","ios":"levelo://app?vid=ce56dac4-3879-4283-8148-af2b9fd6c04b"},"vehicle_type_id":"4","last_reported":1747296916,"current_range_meters":2800,"station_id":"","pricing_plan_id":"cebpf4jnsgd1na2vs0mg"},{"bike_id":"e70df92b-0d77-4071-99bc-51380484d2a0","system_id":"levelo_inurba_marseille","lat":43.30959,"lon":5.39046,"is_reserved":false,"is_disabled":false,"rental_uris":{"android":"levelo://app?vid=e70df92b-0d77-4071-99bc-51380484d2a0","ios":"levelo://app?vid=e70df92b-0d77-4071-99bc-51380484d2a0"},"vehicle_type_id":"4","last_reported":1747296916,"current_range_meters":2800,"station_id":"ce4bgup2rcd13ifvqco0","pricing_plan_id":"cebpf4jnsgd1na2vs0mg"},{"bike_id":"4d975b5f-19ba-4449-b2fb-50c437438d42","system_id":"levelo_inurba_marseille","lat":43.24075,"lon":5.37764,"is_reserved":false,"is_disabled":false,"rental_uris":{"android":"levelo://app?vid=4d975b5f-19ba-4449-b2fb-50c437438d42","ios":"levelo://app?vid=4d975b5f-19ba-4449-b2fb-50c437438d42"},"vehicle_type_id":"4","last_reported":1747296916,"current_range_meters":2800,"station_id":"ce4bhnp2rcd13ifvqgvg","pricing_plan_id":"cebpf4jnsgd1na2vs0mg"},{"bike_id":"6953ca09-b1d0-473e-8b94-d568eb1a7f43","system_id":"levelo_inurba_marseille","lat":43.28855,"lon":5.37132,"is_reserved":false,"is_disabled":false,"rental_uris":{"android":"levelo://app?vid=6953ca09-b1d0-473e-8b94-d568eb1a7f43","ios":"levelo://app?vid=6953ca09-b1d0-473e-8b94-d568eb1a7f43"},"vehicle_type_id":"4","last_reported":1747296916,"current_range_meters":3200,"station_id":"","pricing_plan_id":"cebpf4jnsgd1na2vs0mg"},{"bike_id":"f37b7848-b34f-4203-8cd6-ee4ac88ff930","system_id":"levelo_inurba_marseille","lat":43.23967,"lon":5.36626,"is_reserved":false,"is_disabled":false,"rental_uris":{"android":"levelo://app?vid=f37b7848-b34f-4203-8cd6-ee4ac88ff930","ios":"levelo://app?vid=f37b7848-b34f-4203-8cd6-ee4ac88ff930"},"vehicle_type_id":"4","last_reported":1747296916,"current_range_meters":3200,"station_id":"ce4bhi12rcd13ifvqfp0","pricing_plan_id":"cebpf4jnsgd1na2vs0mg"},{"bike_id":"893cee9f-22ed-4823-82b3-4da288b81784","system_id":"levelo_inurba_marseille","lat":43.318027,"lon":5.369003,"is_reserved":false,"is_disabled":false,"rental_uris":{"android":"levelo://app?vid=893cee9f-22ed-4823-82b3-4da288b81784","ios":"levelo://app?vid=893cee9f-22ed-4823-82b3-4da288b81784"},"vehicle_type_id":"4","last_reported":1747296916,"current_range_meters":3600,"station_id":"","pricing_plan_id":"cebpf4jnsgd1na2vs0mg"},{"bike_id":"7d84cee7-b6f4-4a53-90e0-dd343a5aa526","system_id":"levelo_inurba_marseille","lat":43.29577,"lon":5.36743,"is_reserved":false,"is_disabled":false,"rental_uris":{"android":"levelo://app?vid=7d84cee7-b6f4-4a53-90e0-dd343a5aa526","ios":"levelo://app?vid=7d84cee7-b6f4-4a53-90e0-dd343a5aa526"},"vehicle_type_id":"4","last_reported":1747296916,"current_range_meters":3600,"station_id":"ce4bgph2rcd13ifvqc2g","pricing_plan_id":"cebpf4jnsgd1na2vs0mg"},{"bike_id":"5711bd86-2ae0-49b5-a384-8318be91f7d7","system_id":"levelo_inurba_marseille","lat":43.30631,"lon":5.40091,"is_reserved":false,"is_disabled":false,"rental_uris":{"android":"levelo://app?vid=5711bd86-2ae0-49b5-a384-8318be91f7d7","ios":"levelo://app?vid=5711bd86-2ae0-49b5-a384-8318be91f7d7"},"vehicle_type_id":"4","last_reported":1747296916,"current_range_meters":3600,"station_id":"ce4bh112rcd13ifvqda0","pricing_plan_id":"cebpf4jnsgd1na2vs0mg"},{"bike_id":"6a571a33-80cc-461c-916d-f97fd1d0e403","system_id":"levelo_inurba_marseille","lat":43.26501,"lon":5.39537,"is_reserved":false,"is_disabled":false,"rental_uris":{"android":"levelo://app?vid=6a571a33-80cc-461c-916d-f97fd1d0e403","ios":"levelo://app?vid=6a571a33-80cc-461c-916d-f97fd1d0e403"},"vehicle_type_id":"4","last_reported":1747296916,"current_range_meters":3600,"station_id":"ce4bhi12rcd13ifvqfq0","pricing_plan_id":"cebpf4jnsgd1na2vs0mg"},{"bike_id":"0eafd6dc-c05b-461d-b1f1-7bd53a020765","system_id":"levelo_inurba_marseille","lat":43.301353,"lon":5.374167,"is_reserved":false,"is_disabled":false,"rental_uris":{"android":"levelo://app?vid=0eafd6dc-c05b-461d-b1f1-7bd53a020765","ios":"levelo://app?vid=0eafd6dc-c05b-461d-b1f1-7bd53a020765"},"vehicle_type_id":"4","last_reported":1747296916,"current_range_meters":4000,"station_id":"ce4bgs92rcd13ifvqcc0","pricing_plan_id":"cebpf4jnsgd1na2vs0mg"},{"bike_id":"2e6a0334-7456-43b7-9f49-0aa31187bc7f","system_id":"levelo_inurba_marseille","lat":43.3014,"lon":5.37411,"is_reserved":false,"is_disabled":false,"rental_uris":{"android":"levelo://app?vid=2e6a0334-7456-43b7-9f49-0aa31187bc7f","ios":"levelo://app?vid=2e6a0334-7456-43b7-9f49-0aa31187bc7f"},"vehicle_type_id":"4","last_reported":1747296916,"current_range_meters":4000,"station_id":"ce4bgs92rcd13ifvqcc0","pricing_plan_id":"cebpf4jnsgd1na2vs0mg"},{"bike_id":"35d5ae07-816e-478d-93ec-87807bb37b17","system_id":"levelo_inurba_marseille","lat":43.29165,"lon":5.37154,"is_reserved":false,"is_disabled":false,"rental_uris":{"android":"levelo://app?vid=35d5ae07-816e-478d-93ec-87807bb37b17","ios":"levelo://app?vid=35d5ae07-816e-478d-93ec-87807bb37b17"},"vehicle_type_id":"4","last_reported":1747296916,"current_range_meters":4000,"station_id":"ce4bha92rcd13ifvqeh0","pricing_plan_id":"cebpf4jnsgd1na2vs0mg"},{"bike_id":"91973a79-2e93-4132-9b2b-7b2e4c271e0b","system_id":"levelo_inurba_marseille","lat":43.30135,"lon":5.38045,"is_reserved":false,"is_disabled":false,"rental_uris":{"android":"levelo://app?vid=91973a79-2e93-4132-9b2b-7b2e4c271e0b","ios":"levelo://app?vid=91973a79-2e93-4132-9b2b-7b2e4c271e0b"},"vehicle_type_id":"4","last_reported":1747296916,"current_range_meters":4400,"station_id":"ce4bgjp2rcd13ifvqbh0","pricing_plan_id":"cebpf4jnsgd1na2vs0mg"},{"bike_id":"f69b76cc-8219-4b7a-997d-eafe88d3699c","system_id":"levelo_inurba_marseille","lat":43.24178,"lon":5.39732,"is_reserved":false,"is_disabled":false,"rental_uris":{"android":"levelo://app?vid=f69b76cc-8219-4b7a-997d-eafe88d3699c","ios":"levelo://app?vid=f69b76cc-8219-4b7a-997d-eafe88d3699c"},"vehicle_type_id":"4","last_reported":1747296916,"current_range_meters":4400,"station_id":"ce4bhn12rcd13ifvqgpg","pricing_plan_id":"cebpf4jnsgd1na2vs0mg"},{"bike_id":"e593003e-4453-4b56-af33-c35b7cf7d4ff","system_id":"levelo_inurba_marseille","lat":43.337188,"lon":5.391839,"is_reserved":false,"is_disabled":false,"rental_uris":{"android":"levelo://app?vid=e593003e-4453-4b56-af33-c35b7cf7d4ff","ios":"levelo://app?vid=e593003e-4453-4b56-af33-c35b7cf7d4ff"},"vehicle_type_id":"4","last_reported":1747296916,"current_range_meters":4400,"station_id":"ce4bhr92rcd13ifvqhsg","pricing_plan_id":"cebpf4jnsgd1na2vs0mg"},{"bike_id":"a472b63d-2688-4b7f-b1a6-b2e566f07851","system_id":"levelo_inurba_marseille","lat":43.30313,"lon":5.36885,"is_reserved":false,"is_disabled":false,"rental_uris":{"android":"levelo://app?vid=a472b63d-2688-4b7f-b1a6-b2e566f07851","ios":"levelo://app?vid=a472b63d-2688-4b7f-b1a6-b2e566f07851"},"vehicle_type_id":"4","last_reported":1747296916,"current_range_meters":4800,"station_id":"ce4bgqh2rcd13ifvqc5g","pricing_plan_id":"cebpf4jnsgd1na2vs0mg"},{"bike_id":"88752376-4ac3-48fe-8561-55a69cfcfdf3","system_id":"levelo_inurba_marseille","lat":43.3116,"lon":5.38719,"is_reserved":false,"is_disabled":false,"rental_uris":{"android":"levelo://app?vid=88752376-4ac3-48fe-8561-55a69cfcfdf3","ios":"levelo://app?vid=88752376-4ac3-48fe-8561-55a69cfcfdf3"},"vehicle_type_id":"4","last_reported":1747296916,"current_range_meters":4800,"station_id":"ce4bgv12rcd13ifvqcp0","pricing_plan_id":"cebpf4jnsgd1na2vs0mg"},{"bike_id":"cd5c2073-5368-4d20-a3ab-53667949cdf4","system_id":"levelo_inurba_marseille","lat":43.28357,"lon":5.38109,"is_reserved":false,"is_disabled":false,"rental_uris":{"android":"levelo://app?vid=cd5c2073-5368-4d20-a3ab-53667949cdf4","ios":"levelo://app?vid=cd5c2073-5368-4d20-a3ab-53667949cdf4"},"vehicle_type_id":"4","last_reported":1747296916,"current_range_meters":5600,"station_id":"ce4bh412rcd13ifvqdr0","pricing_plan_id":"cebpf4jnsgd1na2vs0mg"},{"bike_id":"edcdf7ef-cf4e-4769-a1ce-af4c917fc972","system_id":"levelo_inurba_marseille","lat":43.29631,"lon":5.40598,"is_reserved":false,"is_disabled":false,"rental_uris":{"android":"levelo://app?vid=edcdf7ef-cf4e-4769-a1ce-af4c917fc972","ios":"levelo://app?vid=edcdf7ef-cf4e-4769-a1ce-af4c917fc972"},"vehicle_type_id":"4","last_reported":1747296916,"current_range_meters":6000,"station_id":"ce4bh0h2rcd13ifvqd60","pricing_plan_id":"cebpf4jnsgd1na2vs0mg"},{"bike_id":"c0e50a0a-d47d-4ec7-ba5c-4b56053f7d0f","system_id":"levelo_inurba_marseille","lat":43.2315,"lon":5.43728,"is_reserved":false,"is_disabled":false,"rental_uris":{"android":"levelo://app?vid=c0e50a0a-d47d-4ec7-ba5c-4b56053f7d0f","ios":"levelo://app?vid=c0e50a0a-d47d-4ec7-ba5c-4b56053f7d0f"},"vehicle_type_id":"4","last_reported":1747296916,"current_range_meters":6000,"station_id":"ce4bhmp2rcd13ifvqgog","pricing_plan_id":"cebpf4jnsgd1na2vs0mg"},{"bike_id":"3255c134-1f0a-4de5-b001-987aef916fba","system_id":"levelo_inurba_marseille","lat":43.24083,"lon":5.37767,"is_reserved":false,"is_disabled":false,"rental_uris":{"android":"levelo://app?vid=3255c134-1f0a-4de5-b001-987aef916fba","ios":"levelo://app?vid=3255c134-1f0a-4de5-b001-987aef916fba"},"vehicle_type_id":"4","last_reported":1747296916,"current_range_meters":6000,"station_id":"ce4bhnp2rcd13ifvqgvg","pricing_plan_id":"cebpf4jnsgd1na2vs0mg"},{"bike_id":"acb461c7-ce44-463e-b6b1-97c8652528bc","system_id":"levelo_inurba_marseille","lat":43.21744,"lon":5.34604,"is_reserved":false,"is_disabled":false,"rental_uris":{"android":"levelo://app?vid=acb461c7-ce44-463e-b6b1-97c8652528bc","ios":"levelo://app?vid=acb461c7-ce44-463e-b6b1-97c8652528bc"},"vehicle_type_id":"4","last_reported":1747296916,"current_range_meters":6000,"station_id":"st_cvj6r9ubvosntc0bgbag","pricing_plan_id":"cebpf4jnsgd1na2vs0mg"},{"bike_id":"a4475511-dd18-4806-bccd-5e8413de3711","system_id":"levelo_inurba_marseille","lat":43.30536,"lon":5.367,"is_reserved":false,"is_disabled":false,"rental_uris":{"android":"levelo://app?vid=a4475511-dd18-4806-bccd-5e8413de3711","ios":"levelo://app?vid=a4475511-dd18-4806-bccd-5e8413de3711"},"vehicle_type_id":"4","last_reported":1747296916,"current_range_meters":6400,"station_id":"ce4bgrp2rcd13ifvqc9g","pricing_plan_id":"cebpf4jnsgd1na2vs0mg"},{"bike_id":"50cd3151-6866-42fc-9941-cc5e0648a6ba","system_id":"levelo_inurba_marseille","lat":43.23149,"lon":5.43722,"is_reserved":false,"is_disabled":false,"rental_uris":{"android":"levelo://app?vid=50cd3151-6866-42fc-9941-cc5e0648a6ba","ios":"levelo://app?vid=50cd3151-6866-42fc-9941-cc5e0648a6ba"},"vehicle_type_id":"4","last_reported":1747296916,"current_range_meters":6400,"station_id":"ce4bhmp2rcd13ifvqgog","pricing_plan_id":"cebpf4jnsgd1na2vs0mg"},{"bike_id":"47a9c23f-1771-461f-89ed-b94ee9b8ab8a","system_id":"levelo_inurba_marseille","lat":43.27498,"lon":5.42459,"is_reserved":false,"is_disabled":false,"rental_uris":{"android":"levelo://app?vid=47a9c23f-1771-461f-89ed-b94ee9b8ab8a","ios":"levelo://app?vid=47a9c23f-1771-461f-89ed-b94ee9b8ab8a"},"vehicle_type_id":"4","last_reported":1747296916,"current_range_meters":6400,"station_id":"ce4bhn92rcd13ifvqgrg","pricing_plan_id":"cebpf4jnsgd1na2vs0mg"},{"bike_id":"4b07a4dc-0eff-4141-afa9-26cd7af89507","system_id":"levelo_inurba_marseille","lat":43.29584,"lon":5.3674,"is_reserved":false,"is_disabled":false,"rental_uris":{"android":"levelo://app?vid=4b07a4dc-0eff-4141-afa9-26cd7af89507","ios":"levelo://app?vid=4b07a4dc-0eff-4141-afa9-26cd7af89507"},"vehicle_type_id":"4","last_reported":1747296916,"current_range_meters":6800,"station_id":"ce4bgph2rcd13ifvqc2g","pricing_plan_id":"cebpf4jnsgd1na2vs0mg"},{"bike_id":"0fae8473-1029-4d38-a67a-15b945b08784","system_id":"levelo_inurba_marseille","lat":43.337444,"lon":5.374475,"is_reserved":false,"is_disabled":false,"rental_uris":{"android":"levelo://app?vid=0fae8473-1029-4d38-a67a-15b945b08784","ios":"levelo://app?vid=0fae8473-1029-4d38-a67a-15b945b08784"},"vehicle_type_id":"4","last_reported":1747296916,"current_range_meters":7200,"station_id":"","pricing_plan_id":"cebpf4jnsgd1na2vs0mg"},{"bike_id":"32b795b7-31fb-4b27-8f5a-521ce3813fee","system_id":"levelo_inurba_marseille","lat":43.269554,"lon":5.38622,"is_reserved":false,"is_disabled":false,"rental_uris":{"android":"levelo://app?vid=32b795b7-31fb-4b27-8f5a-521ce3813fee","ios":"levelo://app?vid=32b795b7-31fb-4b27-8f5a-521ce3813fee"},"vehicle_type_id":"4","last_reported":1747296916,"current_range_meters":7200,"station_id":"ce4bhh92rcd13ifvqfh0","pricing_plan_id":"cebpf4jnsgd1na2vs0mg"},{"bike_id":"d3adf1de-82ef-485f-b931-44e738c720a9","system_id":"levelo_inurba_marseille","lat":43.32474,"lon":5.3656,"is_reserved":false,"is_disabled":false,"rental_uris":{"android":"levelo://app?vid=d3adf1de-82ef-485f-b931-44e738c720a9","ios":"levelo://app?vid=d3adf1de-82ef-485f-b931-44e738c720a9"},"vehicle_type_id":"4","last_reported":1747296916,"current_range_meters":7200,"station_id":"ce4bhs12rcd13ifvqhvg","pricing_plan_id":"cebpf4jnsgd1na2vs0mg"},{"bike_id":"c8acc5e3-9151-4324-885f-ebfedb20f920","system_id":"levelo_inurba_marseille","lat":43.29717,"lon":5.37693,"is_reserved":false,"is_disabled":false,"rental_uris":{"android":"levelo://app?vid=c8acc5e3-9151-4324-885f-ebfedb20f920","ios":"levelo://app?vid=c8acc5e3-9151-4324-885f-ebfedb20f920"},"vehicle_type_id":"4","last_reported":1747296916,"current_range_meters":8000,"station_id":"ce4bgkh2rcd13ifvqbl0","pricing_plan_id":"cebpf4jnsgd1na2vs0mg"},{"bike_id":"e12530a8-8f4b-45b1-af74-f3750b3152f9","system_id":"levelo_inurba_marseille","lat":43.29867,"lon":5.39737,"is_reserved":false,"is_disabled":false,"rental_uris":{"android":"levelo://app?vid=e12530a8-8f4b-45b1-af74-f3750b3152f9","ios":"levelo://app?vid=e12530a8-8f4b-45b1-af74-f3750b3152f9"},"vehicle_type_id":"4","last_reported":1747296916,"current_range_meters":8000,"station_id":"ce4bh0h2rcd13ifvqd50","pricing_plan_id":"cebpf4jnsgd1na2vs0mg"},{"bike_id":"5ec8f91a-6f8d-4efb-8718-a089d551bcbe","system_id":"levelo_inurba_marseille","lat":43.28715,"lon":5.37936,"is_reserved":false,"is_disabled":false,"rental_uris":{"android":"levelo://app?vid=5ec8f91a-6f8d-4efb-8718-a089d551bcbe","ios":"levelo://app?vid=5ec8f91a-6f8d-4efb-8718-a089d551bcbe"},"vehicle_type_id":"4","last_reported":1747296916,"current_range_meters":8000,"station_id":"ce4bh9p2rcd13ifvqec0","pricing_plan_id":"cebpf4jnsgd1na2vs0mg"},{"bike_id":"3a90d10e-3ea8-4d6d-aa11-297c8916e615","system_id":"levelo_inurba_marseille","lat":43.24055,"lon":5.37758,"is_reserved":false,"is_disabled":false,"rental_uris":{"android":"levelo://app?vid=3a90d10e-3ea8-4d6d-aa11-297c8916e615","ios":"levelo://app?vid=3a90d10e-3ea8-4d6d-aa11-297c8916e615"},"vehicle_type_id":"4","last_reported":1747296916,"current_range_meters":8000,"station_id":"ce4bhnp2rcd13ifvqgvg","pricing_plan_id":"cebpf4jnsgd1na2vs0mg"},{"bike_id":"3faf053c-e846-4d83-83ee-8fd51efc38bb","system_id":"levelo_inurba_marseille","lat":43.3211,"lon":5.3678,"is_reserved":false,"is_disabled":false,"rental_uris":{"android":"levelo://app?vid=3faf053c-e846-4d83-83ee-8fd51efc38bb","ios":"levelo://app?vid=3faf053c-e846-4d83-83ee-8fd51efc38bb"},"vehicle_type_id":"4","last_reported":1747296916,"current_range_meters":8000,"station_id":"ce4bhrh2rcd13ifvqhug","pricing_plan_id":"cebpf4jnsgd1na2vs0mg"},{"bike_id":"d414cc79-093d-4e3c-a0fb-23753cfee462","system_id":"levelo_inurba_marseille","lat":43.30544,"lon":5.36512,"is_reserved":false,"is_disabled":false,"rental_uris":{"android":"levelo://app?vid=d414cc79-093d-4e3c-a0fb-23753cfee462","ios":"levelo://app?vid=d414cc79-093d-4e3c-a0fb-23753cfee462"},"vehicle_type_id":"4","last_reported":1747296916,"current_range_meters":8400,"station_id":"ce4bgs12rcd13ifvqcag","pricing_plan_id":"cebpf4jnsgd1na2vs0mg"},{"bike_id":"0b547bde-9894-4498-a126-c22cd3f7d38e","system_id":"levelo_inurba_marseille","lat":43.28975,"lon":5.37831,"is_reserved":false,"is_disabled":false,"rental_uris":{"android":"levelo://app?vid=0b547bde-9894-4498-a126-c22cd3f7d38e","ios":"levelo://app?vid=0b547bde-9894-4498-a126-c22cd3f7d38e"},"vehicle_type_id":"4","last_reported":1747296916,"current_range_meters":8400,"station_id":"ce4bh9p2rcd13ifvqed0","pricing_plan_id":"cebpf4jnsgd1na2vs0mg"},{"bike_id":"e3faef6f-635a-4b6b-b2b3-c0b918604df6","system_id":"levelo_inurba_marseille","lat":43.29906,"lon":5.43683,"is_reserved":false,"is_disabled":false,"rental_uris":{"android":"levelo://app?vid=e3faef6f-635a-4b6b-b2b3-c0b918604df6","ios":"levelo://app?vid=e3faef6f-635a-4b6b-b2b3-c0b918604df6"},"vehicle_type_id":"4","last_reported":1747296916,"current_range_meters":8400,"station_id":"ce4bhpp2rcd13ifvqhfg","pricing_plan_id":"cebpf4jnsgd1na2vs0mg"},{"bike_id":"dc9002b5-b977-4b03-99e8-ffddfbcfa9fc","system_id":"levelo_inurba_marseille","lat":43.336057,"lon":5.41033,"is_reserved":false,"is_disabled":false,"rental_uris":{"android":"levelo://app?vid=dc9002b5-b977-4b03-99e8-ffddfbcfa9fc","ios":"levelo://app?vid=dc9002b5-b977-4b03-99e8-ffddfbcfa9fc"},"vehicle_type_id":"4","last_reported":1747296916,"current_range_meters":8400,"station_id":"ce4bhqh2rcd13ifvqhmg","pricing_plan_id":"cebpf4jnsgd1na2vs0mg"},{"bike_id":"6a94c510-06e9-4819-80f4-2a1f66907200","system_id":"levelo_inurba_marseille","lat":43.24341,"lon":5.37979,"is_reserved":false,"is_disabled":false,"rental_uris":{"android":"levelo://app?vid=6a94c510-06e9-4819-80f4-2a1f66907200","ios":"levelo://app?vid=6a94c510-06e9-4819-80f4-2a1f66907200"},"vehicle_type_id":"4","last_reported":1747296916,"current_range_meters":8800,"station_id":"","pricing_plan_id":"cebpf4jnsgd1na2vs0mg"},{"bike_id":"267c9e85-5681-4963-84eb-5898f4a618db","system_id":"levelo_inurba_marseille","lat":43.312266,"lon":5.368644,"is_reserved":false,"is_disabled":false,"rental_uris":{"android":"levelo://app?vid=267c9e85-5681-4963-84eb-5898f4a618db","ios":"levelo://app?vid=267c9e85-5681-4963-84eb-5898f4a618db"},"vehicle_type_id":"4","last_reported":1747296916,"current_range_meters":8800,"station_id":"ce4bgl92rcd13ifvqbq0","pricing_plan_id":"cebpf4jnsgd1na2vs0mg"},{"bike_id":"8983af57-2b74-48d8-ac5d-b01434d42f53","system_id":"levelo_inurba_marseille","lat":43.30913,"lon":5.36849,"is_reserved":false,"is_disabled":false,"rental_uris":{"android":"levelo://app?vid=8983af57-2b74-48d8-ac5d-b01434d42f53","ios":"levelo://app?vid=8983af57-2b74-48d8-ac5d-b01434d42f53"},"vehicle_type_id":"4","last_reported":1747296916,"current_range_meters":9200,"station_id":"ce4bgn92rcd13ifvqbvg","pricing_plan_id":"cebpf4jnsgd1na2vs0mg"},{"bike_id":"9a4a6f89-0163-4461-b1d0-f8c7d91b27ec","system_id":"levelo_inurba_marseille","lat":43.30306,"lon":5.36905,"is_reserved":false,"is_disabled":false,"rental_uris":{"android":"levelo://app?vid=9a4a6f89-0163-4461-b1d0-f8c7d91b27ec","ios":"levelo://app?vid=9a4a6f89-0163-4461-b1d0-f8c7d91b27ec"},"vehicle_type_id":"4","last_reported":1747296916,"current_range_meters":9200,"station_id":"ce4bgqh2rcd13ifvqc5g","pricing_plan_id":"cebpf4jnsgd1na2vs0mg"},{"bike_id":"f9f3d72e-85fc-4f6f-9267-8ebbd98e1a23","system_id":"levelo_inurba_marseille","lat":43.28269,"lon":5.3506,"is_reserved":false,"is_disabled":false,"rental_uris":{"android":"levelo://app?vid=f9f3d72e-85fc-4f6f-9267-8ebbd98e1a23","ios":"levelo://app?vid=f9f3d72e-85fc-4f6f-9267-8ebbd98e1a23"},"vehicle_type_id":"4","last_reported":1747296916,"current_range_meters":9200,"station_id":"ce4bhbp2rcd13ifvqerg","pricing_plan_id":"cebpf4jnsgd1na2vs0mg"},{"bike_id":"1073d193-6725-4646-946a-d8c236004f3d","system_id":"levelo_inurba_marseille","lat":43.2408,"lon":5.37745,"is_reserved":false,"is_disabled":false,"rental_uris":{"android":"levelo://app?vid=1073d193-6725-4646-946a-d8c236004f3d","ios":"levelo://app?vid=1073d193-6725-4646-946a-d8c236004f3d"},"vehicle_type_id":"4","last_reported":1747296916,"current_range_meters":9200,"station_id":"ce4bhnp2rcd13ifvqgvg","pricing_plan_id":"cebpf4jnsgd1na2vs0mg"},{"bike_id":"8e6d6451-a415-4b2f-bc73-95ffb29ead42","system_id":"levelo_inurba_marseille","lat":43.23196,"lon":5.35556,"is_reserved":false,"is_disabled":false,"rental_uris":{"android":"levelo://app?vid=8e6d6451-a415-4b2f-bc73-95ffb29ead42","ios":"levelo://app?vid=8e6d6451-a415-4b2f-bc73-95ffb29ead42"},"vehicle_type_id":"4","last_reported":1747296916,"current_range_meters":9200,"station_id":"ce4bhu92rcd13ifvqi70","pricing_plan_id":"cebpf4jnsgd1na2vs0mg"},{"bike_id":"46d8de76-ce03-4a99-b9a9-0e690e273029","system_id":"levelo_inurba_marseille","lat":43.33773,"lon":5.37447,"is_reserved":false,"is_disabled":false,"rental_uris":{"android":"levelo://app?vid=46d8de76-ce03-4a99-b9a9-0e690e273029","ios":"levelo://app?vid=46d8de76-ce03-4a99-b9a9-0e690e273029"},"vehicle_type_id":"4","last_reported":1747296916,"current_range_meters":9600,"station_id":"","pricing_plan_id":"cebpf4jnsgd1na2vs0mg"},{"bike_id":"b4ab39c3-0d60-4245-b87b-09baaec1b976","system_id":"levelo_inurba_marseille","lat":43.29923,"lon":5.38203,"is_reserved":false,"is_disabled":false,"rental_uris":{"android":"levelo://app?vid=b4ab39c3-0d60-4245-b87b-09baaec1b976","ios":"levelo://app?vid=b4ab39c3-0d60-4245-b87b-09baaec1b976"},"vehicle_type_id":"4","last_reported":1747296916,"current_range_meters":9600,"station_id":"ce4bgj12rcd13ifvqbc0","pricing_plan_id":"cebpf4jnsgd1na2vs0mg"},{"bike_id":"ddfd940d-95a7-45bf-9c9c-763900983f9b","system_id":"levelo_inurba_marseille","lat":43.30541,"lon":5.36686,"is_reserved":false,"is_disabled":false,"rental_uris":{"android":"levelo://app?vid=ddfd940d-95a7-45bf-9c9c-763900983f9b","ios":"levelo://app?vid=ddfd940d-95a7-45bf-9c9c-763900983f9b"},"vehicle_type_id":"4","last_reported":1747296916,"current_range_meters":9600,"station_id":"ce4bgrp2rcd13ifvqc9g","pricing_plan_id":"cebpf4jnsgd1na2vs0mg"},{"bike_id":"04a6d723-9769-4793-88af-165a09609e08","system_id":"levelo_inurba_marseille","lat":43.28665,"lon":5.38684,"is_reserved":false,"is_disabled":false,"rental_uris":{"android":"levelo://app?vid=04a6d723-9769-4793-88af-165a09609e08","ios":"levelo://app?vid=04a6d723-9769-4793-88af-165a09609e08"},"vehicle_type_id":"4","last_reported":1747296916,"current_range_meters":9600,"station_id":"ce4bh492rcd13ifvqdug","pricing_plan_id":"cebpf4jnsgd1na2vs0mg"},{"bike_id":"20fcda9d-0115-470e-9652-ba64d3c9d75e","system_id":"levelo_inurba_marseille","lat":43.24391,"lon":5.37054,"is_reserved":false,"is_disabled":false,"rental_uris":{"android":"levelo://app?vid=20fcda9d-0115-470e-9652-ba64d3c9d75e","ios":"levelo://app?vid=20fcda9d-0115-470e-9652-ba64d3c9d75e"},"vehicle_type_id":"4","last_reported":1747296916,"current_range_meters":9600,"station_id":"ce4bhhh2rcd13ifvqfk0","pricing_plan_id":"cebpf4jnsgd1na2vs0mg"},{"bike_id":"3dda9751-f9d9-4e7a-b7e1-c60a60c8753b","system_id":"levelo_inurba_marseille","lat":43.24075,"lon":5.37753,"is_reserved":false,"is_disabled":false,"rental_uris":{"android":"levelo://app?vid=3dda9751-f9d9-4e7a-b7e1-c60a60c8753b","ios":"levelo://app?vid=3dda9751-f9d9-4e7a-b7e1-c60a60c8753b"},"vehicle_type_id":"4","last_reported":1747296916,"current_range_meters":9600,"station_id":"ce4bhnp2rcd13ifvqgvg","pricing_plan_id":"cebpf4jnsgd1na2vs0mg"},{"bike_id":"4d83a49d-a4f7-4140-bff3-bb3633e6dccc","system_id":"levelo_inurba_marseille","lat":43.32351,"lon":5.38894,"is_reserved":false,"is_disabled":false,"rental_uris":{"android":"levelo://app?vid=4d83a49d-a4f7-4140-bff3-bb3633e6dccc","ios":"levelo://app?vid=4d83a49d-a4f7-4140-bff3-bb3633e6dccc"},"vehicle_type_id":"4","last_reported":1747296916,"current_range_meters":9600,"station_id":"ce4bhqp2rcd13ifvqhog","pricing_plan_id":"cebpf4jnsgd1na2vs0mg"},{"bike_id":"9f22b8aa-a9ca-4a2c-ab0b-0a0b10dbe182","system_id":"levelo_inurba_marseille","lat":43.32489,"lon":5.36556,"is_reserved":false,"is_disabled":false,"rental_uris":{"android":"levelo://app?vid=9f22b8aa-a9ca-4a2c-ab0b-0a0b10dbe182","ios":"levelo://app?vid=9f22b8aa-a9ca-4a2c-ab0b-0a0b10dbe182"},"vehicle_type_id":"4","last_reported":1747296916,"current_range_meters":9600,"station_id":"ce4bhs12rcd13ifvqhvg","pricing_plan_id":"cebpf4jnsgd1na2vs0mg"},{"bike_id":"e53c7f18-60cf-4219-9ac8-4254c2f9fe68","system_id":"levelo_inurba_marseille","lat":43.31218,"lon":5.36847,"is_reserved":false,"is_disabled":false,"rental_uris":{"android":"levelo://app?vid=e53c7f18-60cf-4219-9ac8-4254c2f9fe68","ios":"levelo://app?vid=e53c7f18-60cf-4219-9ac8-4254c2f9fe68"},"vehicle_type_id":"4","last_reported":1747296916,"current_range_meters":10000,"station_id":"ce4bgl92rcd13ifvqbq0","pricing_plan_id":"cebpf4jnsgd1na2vs0mg"},{"bike_id":"5feaa45a-9e4b-44a0-b61e-0d92c35a2177","system_id":"levelo_inurba_marseille","lat":43.27917,"lon":5.39579,"is_reserved":false,"is_disabled":false,"rental_uris":{"android":"levelo://app?vid=5feaa45a-9e4b-44a0-b61e-0d92c35a2177","ios":"levelo://app?vid=5feaa45a-9e4b-44a0-b61e-0d92c35a2177"},"vehicle_type_id":"4","last_reported":1747296916,"current_range_meters":10000,"station_id":"ce4bhf92rcd13ifvqf40","pricing_plan_id":"cebpf4jnsgd1na2vs0mg"},{"bike_id":"c68022f0-7be7-4dde-9a51-7a59aed68b2d","system_id":"levelo_inurba_marseille","lat":43.2315,"lon":5.43708,"is_reserved":false,"is_disabled":false,"rental_uris":{"android":"levelo://app?vid=c68022f0-7be7-4dde-9a51-7a59aed68b2d","ios":"levelo://app?vid=c68022f0-7be7-4dde-9a51-7a59aed68b2d"},"vehicle_type_id":"4","last_reported":1747296916,"current_range_meters":10000,"station_id":"ce4bhmp2rcd13ifvqgog","pricing_plan_id":"cebpf4jnsgd1na2vs0mg"},{"bike_id":"49f7b57b-218a-411d-982d-d948553424a0","system_id":"levelo_inurba_marseille","lat":43.2418,"lon":5.39711,"is_reserved":false,"is_disabled":false,"rental_uris":{"android":"levelo://app?vid=49f7b57b-218a-411d-982d-d948553424a0","ios":"levelo://app?vid=49f7b57b-218a-411d-982d-d948553424a0"},"vehicle_type_id":"4","last_reported":1747296916,"current_range_meters":10000,"station_id":"ce4bhn12rcd13ifvqgpg","pricing_plan_id":"cebpf4jnsgd1na2vs0mg"},{"bike_id":"17d57f58-ffb0-4d77-bbe5-7f462887ac74","system_id":"levelo_inurba_marseille","lat":43.2419,"lon":5.39705,"is_reserved":false,"is_disabled":false,"rental_uris":{"android":"levelo://app?vid=17d57f58-ffb0-4d77-bbe5-7f462887ac74","ios":"levelo://app?vid=17d57f58-ffb0-4d77-bbe5-7f462887ac74"},"vehicle_type_id":"4","last_reported":1747296916,"current_range_meters":10000,"station_id":"ce4bhn12rcd13ifvqgpg","pricing_plan_id":"cebpf4jnsgd1na2vs0mg"},{"bike_id":"7cad8bbf-afe9-4767-8543-3e633fd367b9","system_id":"levelo_inurba_marseille","lat":43.27804,"lon":5.40712,"is_reserved":false,"is_disabled":false,"rental_uris":{"android":"levelo://app?vid=7cad8bbf-afe9-4767-8543-3e633fd367b9","ios":"levelo://app?vid=7cad8bbf-afe9-4767-8543-3e633fd367b9"},"vehicle_type_id":"4","last_reported":1747296916,"current_range_meters":10000,"station_id":"ce4bhnh2rcd13ifvqgtg","pricing_plan_id":"cebpf4jnsgd1na2vs0mg"},{"bike_id":"15b66e6f-f5b4-4e63-91d4-0c7c7c64d470","system_id":"levelo_inurba_marseille","lat":43.31374,"lon":5.36687,"is_reserved":false,"is_disabled":false,"rental_uris":{"android":"levelo://app?vid=15b66e6f-f5b4-4e63-91d4-0c7c7c64d470","ios":"levelo://app?vid=15b66e6f-f5b4-4e63-91d4-0c7c7c64d470"},"vehicle_type_id":"4","last_reported":1747296916,"current_range_meters":10800,"station_id":"ce4bgr92rcd13ifvqc6g","pricing_plan_id":"cebpf4jnsgd1na2vs0mg"},{"bike_id":"2b1fb545-c4ae-47b0-a825-ffe05056cf90","system_id":"levelo_inurba_marseille","lat":43.30135,"lon":5.374093,"is_reserved":false,"is_disabled":false,"rental_uris":{"android":"levelo://app?vid=2b1fb545-c4ae-47b0-a825-ffe05056cf90","ios":"levelo://app?vid=2b1fb545-c4ae-47b0-a825-ffe05056cf90"},"vehicle_type_id":"4","last_reported":1747296916,"current_range_meters":10800,"station_id":"ce4bgs92rcd13ifvqcc0","pricing_plan_id":"cebpf4jnsgd1na2vs0mg"},{"bike_id":"a87dac57-f9e3-4d5f-b04a-2760babe40c3","system_id":"levelo_inurba_marseille","lat":43.26197,"lon":5.37934,"is_reserved":false,"is_disabled":false,"rental_uris":{"android":"levelo://app?vid=a87dac57-f9e3-4d5f-b04a-2760babe40c3","ios":"levelo://app?vid=a87dac57-f9e3-4d5f-b04a-2760babe40c3"},"vehicle_type_id":"4","last_reported":1747296916,"current_range_meters":10800,"station_id":"ce4bhjp2rcd13ifvqg90","pricing_plan_id":"cebpf4jnsgd1na2vs0mg"},{"bike_id":"0530a2ed-92a9-4159-924b-fea1b126d795","system_id":"levelo_inurba_marseille","lat":43.27493,"lon":5.42457,"is_reserved":false,"is_disabled":false,"rental_uris":{"android":"levelo://app?vid=0530a2ed-92a9-4159-924b-fea1b126d795","ios":"levelo://app?vid=0530a2ed-92a9-4159-924b-fea1b126d795"},"vehicle_type_id":"4","last_reported":1747296916,"current_range_meters":10800,"station_id":"ce4bhn92rcd13ifvqgrg","pricing_plan_id":"cebpf4jnsgd1na2vs0mg"},{"bike_id":"29f31b6e-00bf-43cf-b902-125abe593de5","system_id":"levelo_inurba_marseille","lat":43.30539,"lon":5.36723,"is_reserved":false,"is_disabled":false,"rental_uris":{"android":"levelo://app?vid=29f31b6e-00bf-43cf-b902-125abe593de5","ios":"levelo://app?vid=29f31b6e-00bf-43cf-b902-125abe593de5"},"vehicle_type_id":"4","last_reported":1747296916,"current_range_meters":11200,"station_id":"ce4bgrp2rcd13ifvqc9g","pricing_plan_id":"cebpf4jnsgd1na2vs0mg"},{"bike_id":"2fbf9af1-2df2-4aeb-8b20-a4c95e106089","system_id":"levelo_inurba_marseille","lat":43.24065,"lon":5.37777,"is_reserved":false,"is_disabled":false,"rental_uris":{"android":"levelo://app?vid=2fbf9af1-2df2-4aeb-8b20-a4c95e106089","ios":"levelo://app?vid=2fbf9af1-2df2-4aeb-8b20-a4c95e106089"},"vehicle_type_id":"4","last_reported":1747296916,"current_range_meters":11200,"station_id":"ce4bhnp2rcd13ifvqgvg","pricing_plan_id":"cebpf4jnsgd1na2vs0mg"},{"bike_id":"8c7308bf-84fd-4edb-9b86-07fbeaf5e51b","system_id":"levelo_inurba_marseille","lat":43.31719,"lon":5.42417,"is_reserved":false,"is_disabled":false,"rental_uris":{"android":"levelo://app?vid=8c7308bf-84fd-4edb-9b86-07fbeaf5e51b","ios":"levelo://app?vid=8c7308bf-84fd-4edb-9b86-07fbeaf5e51b"},"vehicle_type_id":"4","last_reported":1747296916,"current_range_meters":11200,"station_id":"ce4bhp92rcd13ifvqhbg","pricing_plan_id":"cebpf4jnsgd1na2vs0mg"},{"bike_id":"2fcc4300-9147-4a4b-a12c-17076499c238","system_id":"levelo_inurba_marseille","lat":43.3252,"lon":5.4145,"is_reserved":false,"is_disabled":false,"rental_uris":{"android":"levelo://app?vid=2fcc4300-9147-4a4b-a12c-17076499c238","ios":"levelo://app?vid=2fcc4300-9147-4a4b-a12c-17076499c238"},"vehicle_type_id":"4","last_reported":1747296916,"current_range_meters":11600,"station_id":"ce4bhq12rcd13ifvqhhg","pricing_plan_id":"cebpf4jnsgd1na2vs0mg"},{"bike_id":"cc377332-c824-4cf8-bc9d-97d1852f3692","system_id":"levelo_inurba_marseille","lat":43.31708,"lon":5.40461,"is_reserved":false,"is_disabled":false,"rental_uris":{"android":"levelo://app?vid=cc377332-c824-4cf8-bc9d-97d1852f3692","ios":"levelo://app?vid=cc377332-c824-4cf8-bc9d-97d1852f3692"},"vehicle_type_id":"4","last_reported":1747296916,"current_range_meters":12400,"station_id":"ce4bh012rcd13ifvqd00","pricing_plan_id":"cebpf4jnsgd1na2vs0mg"},{"bike_id":"7d4b24cf-88a0-49f6-b6a5-d91d4118010c","system_id":"levelo_inurba_marseille","lat":43.24081,"lon":5.37751,"is_reserved":false,"is_disabled":false,"rental_uris":{"android":"levelo://app?vid=7d4b24cf-88a0-49f6-b6a5-d91d4118010c","ios":"levelo://app?vid=7d4b24cf-88a0-49f6-b6a5-d91d4118010c"},"vehicle_type_id":"4","last_reported":1747296916,"current_range_meters":12400,"station_id":"ce4bhnp2rcd13ifvqgvg","pricing_plan_id":"cebpf4jnsgd1na2vs0mg"},{"bike_id":"c7865c8d-b4b9-4cfd-9247-9549ac886820","system_id":"levelo_inurba_marseille","lat":43.29595,"lon":5.37721,"is_reserved":false,"is_disabled":false,"rental_uris":{"android":"levelo://app?vid=c7865c8d-b4b9-4cfd-9247-9549ac886820","ios":"levelo://app?vid=c7865c8d-b4b9-4cfd-9247-9549ac886820"},"vehicle_type_id":"4","last_reported":1747296916,"current_range_meters":12800,"station_id":"ce4bgi92rcd13ifvqb90","pricing_plan_id":"cebpf4jnsgd1na2vs0mg"},{"bike_id":"51e4e34b-413f-472a-9d21-c2c414963e3e","system_id":"levelo_inurba_marseille","lat":43.23959,"lon":5.36636,"is_reserved":false,"is_disabled":false,"rental_uris":{"android":"levelo://app?vid=51e4e34b-413f-472a-9d21-c2c414963e3e","ios":"levelo://app?vid=51e4e34b-413f-472a-9d21-c2c414963e3e"},"vehicle_type_id":"4","last_reported":1747296916,"current_range_meters":12800,"station_id":"ce4bhi12rcd13ifvqfp0","pricing_plan_id":"cebpf4jnsgd1na2vs0mg"},{"bike_id":"88149604-d019-4a3d-9f17-e03e4f3338c9","system_id":"levelo_inurba_marseille","lat":43.24068,"lon":5.3776,"is_reserved":false,"is_disabled":false,"rental_uris":{"android":"levelo://app?vid=88149604-d019-4a3d-9f17-e03e4f3338c9","ios":"levelo://app?vid=88149604-d019-4a3d-9f17-e03e4f3338c9"},"vehicle_type_id":"4","last_reported":1747296916,"current_range_meters":12800,"station_id":"ce4bhnp2rcd13ifvqgvg","pricing_plan_id":"cebpf4jnsgd1na2vs0mg"},{"bike_id":"94425245-09df-4108-9a30-610dbcaf2585","system_id":"levelo_inurba_marseille","lat":43.317221,"lon":5.424001,"is_reserved":false,"is_disabled":false,"rental_uris":{"android":"levelo://app?vid=94425245-09df-4108-9a30-610dbcaf2585","ios":"levelo://app?vid=94425245-09df-4108-9a30-610dbcaf2585"},"vehicle_type_id":"4","last_reported":1747296916,"current_range_meters":12800,"station_id":"ce4bhp92rcd13ifvqhbg","pricing_plan_id":"cebpf4jnsgd1na2vs0mg"},{"bike_id":"1ede5862-fbb9-4afe-9113-9a2a9c4dee45","system_id":"levelo_inurba_marseille","lat":43.30956,"lon":5.39041,"is_reserved":false,"is_disabled":false,"rental_uris":{"android":"levelo://app?vid=1ede5862-fbb9-4afe-9113-9a2a9c4dee45","ios":"levelo://app?vid=1ede5862-fbb9-4afe-9113-9a2a9c4dee45"},"vehicle_type_id":"4","last_reported":1747296916,"current_range_meters":13600,"station_id":"ce4bgup2rcd13ifvqco0","pricing_plan_id":"cebpf4jnsgd1na2vs0mg"},{"bike_id":"a7a3d8d2-d4c3-469c-b962-d9c90b2eca97","system_id":"levelo_inurba_marseille","lat":43.28421,"lon":5.37511,"is_reserved":false,"is_disabled":false,"rental_uris":{"android":"levelo://app?vid=a7a3d8d2-d4c3-469c-b962-d9c90b2eca97","ios":"levelo://app?vid=a7a3d8d2-d4c3-469c-b962-d9c90b2eca97"},"vehicle_type_id":"4","last_reported":1747296916,"current_range_meters":13600,"station_id":"ce4bh412rcd13ifvqds0","pricing_plan_id":"cebpf4jnsgd1na2vs0mg"},{"bike_id":"d7259419-975f-4238-89b4-32de2be3ca4d","system_id":"levelo_inurba_marseille","lat":43.27571,"lon":5.38413,"is_reserved":false,"is_disabled":false,"rental_uris":{"android":"levelo://app?vid=d7259419-975f-4238-89b4-32de2be3ca4d","ios":"levelo://app?vid=d7259419-975f-4238-89b4-32de2be3ca4d"},"vehicle_type_id":"4","last_reported":1747296916,"current_range_meters":13600,"station_id":"ce4bhh92rcd13ifvqfi0","pricing_plan_id":"cebpf4jnsgd1na2vs0mg"},{"bike_id":"6414c6d0-c577-4b00-8541-05cb008ccfad","system_id":"levelo_inurba_marseille","lat":43.28416,"lon":5.34975,"is_reserved":false,"is_disabled":false,"rental_uris":{"android":"levelo://app?vid=6414c6d0-c577-4b00-8541-05cb008ccfad","ios":"levelo://app?vid=6414c6d0-c577-4b00-8541-05cb008ccfad"},"vehicle_type_id":"4","last_reported":1747296916,"current_range_meters":14000,"station_id":"ce4bhbh2rcd13ifvqepg","pricing_plan_id":"cebpf4jnsgd1na2vs0mg"},{"bike_id":"21f5a1a4-43c5-4049-8a8d-3146c5c35157","system_id":"levelo_inurba_marseille","lat":43.22928,"lon":5.3538,"is_reserved":false,"is_disabled":false,"rental_uris":{"android":"levelo://app?vid=21f5a1a4-43c5-4049-8a8d-3146c5c35157","ios":"levelo://app?vid=21f5a1a4-43c5-4049-8a8d-3146c5c35157"},"vehicle_type_id":"4","last_reported":1747296916,"current_range_meters":14000,"station_id":"cpo3532slgdg3j2ikp40","pricing_plan_id":"cebpf4jnsgd1na2vs0mg"},{"bike_id":"7601429c-0542-4ced-a7e6-a978c94b79db","system_id":"levelo_inurba_marseille","lat":43.31397,"lon":5.36673,"is_reserved":false,"is_disabled":false,"rental_uris":{"android":"levelo://app?vid=7601429c-0542-4ced-a7e6-a978c94b79db","ios":"levelo://app?vid=7601429c-0542-4ced-a7e6-a978c94b79db"},"vehicle_type_id":"4","last_reported":1747296916,"current_range_meters":14400,"station_id":"","pricing_plan_id":"cebpf4jnsgd1na2vs0mg"},{"bike_id":"49f5e08c-8dfa-4303-8db1-a90c2ea2bd03","system_id":"levelo_inurba_marseille","lat":43.27053,"lon":5.40258,"is_reserved":false,"is_disabled":false,"rental_uris":{"android":"levelo://app?vid=49f5e08c-8dfa-4303-8db1-a90c2ea2bd03","ios":"levelo://app?vid=49f5e08c-8dfa-4303-8db1-a90c2ea2bd03"},"vehicle_type_id":"4","last_reported":1747296916,"current_range_meters":14400,"station_id":"ce4bhk92rcd13ifvqgc0","pricing_plan_id":"cebpf4jnsgd1na2vs0mg"},{"bike_id":"d3ac89f6-e29a-454d-b9be-bb409dc4c71a","system_id":"levelo_inurba_marseille","lat":43.23153,"lon":5.43718,"is_reserved":false,"is_disabled":false,"rental_uris":{"android":"levelo://app?vid=d3ac89f6-e29a-454d-b9be-bb409dc4c71a","ios":"levelo://app?vid=d3ac89f6-e29a-454d-b9be-bb409dc4c71a"},"vehicle_type_id":"4","last_reported":1747296916,"current_range_meters":14400,"station_id":"ce4bhmp2rcd13ifvqgog","pricing_plan_id":"cebpf4jnsgd1na2vs0mg"},{"bike_id":"82f7619c-d685-4421-b37f-a5e414b128f3","system_id":"levelo_inurba_marseille","lat":43.240793,"lon":5.377485,"is_reserved":false,"is_disabled":false,"rental_uris":{"android":"levelo://app?vid=82f7619c-d685-4421-b37f-a5e414b128f3","ios":"levelo://app?vid=82f7619c-d685-4421-b37f-a5e414b128f3"},"vehicle_type_id":"4","last_reported":1747296916,"current_range_meters":14400,"station_id":"ce4bhnp2rcd13ifvqgvg","pricing_plan_id":"cebpf4jnsgd1na2vs0mg"},{"bike_id":"270a22cd-c1b9-43a1-9955-6f5aa1718c31","system_id":"levelo_inurba_marseille","lat":43.30551,"lon":5.36735,"is_reserved":false,"is_disabled":false,"rental_uris":{"android":"levelo://app?vid=270a22cd-c1b9-43a1-9955-6f5aa1718c31","ios":"levelo://app?vid=270a22cd-c1b9-43a1-9955-6f5aa1718c31"},"vehicle_type_id":"4","last_reported":1747296916,"current_range_meters":14800,"station_id":"ce4bgrp2rcd13ifvqc9g","pricing_plan_id":"cebpf4jnsgd1na2vs0mg"},{"bike_id":"04f315c8-558e-4313-bd8f-2bb57dce98a8","system_id":"levelo_inurba_marseille","lat":43.2836,"lon":5.38646,"is_reserved":false,"is_disabled":false,"rental_uris":{"android":"levelo://app?vid=04f315c8-558e-4313-bd8f-2bb57dce98a8","ios":"levelo://app?vid=04f315c8-558e-4313-bd8f-2bb57dce98a8"},"vehicle_type_id":"4","last_reported":1747296916,"current_range_meters":14800,"station_id":"ce4bh492rcd13ifvqdvg","pricing_plan_id":"cebpf4jnsgd1na2vs0mg"},{"bike_id":"6512dc23-f60a-488d-a315-f5d48618081a","system_id":"levelo_inurba_marseille","lat":43.265632,"lon":5.390063,"is_reserved":false,"is_disabled":false,"rental_uris":{"android":"levelo://app?vid=6512dc23-f60a-488d-a315-f5d48618081a","ios":"levelo://app?vid=6512dc23-f60a-488d-a315-f5d48618081a"},"vehicle_type_id":"4","last_reported":1747296916,"current_range_meters":14800,"station_id":"ce4bhe12rcd13ifvqf30","pricing_plan_id":"cebpf4jnsgd1na2vs0mg"},{"bike_id":"edb5d163-6c06-44d8-9bc9-f72a24d6fdb8","system_id":"levelo_inurba_marseille","lat":43.274984,"lon":5.424852,"is_reserved":false,"is_disabled":false,"rental_uris":{"android":"levelo://app?vid=edb5d163-6c06-44d8-9bc9-f72a24d6fdb8","ios":"levelo://app?vid=edb5d163-6c06-44d8-9bc9-f72a24d6fdb8"},"vehicle_type_id":"4","last_reported":1747296916,"current_range_meters":14800,"station_id":"ce4bhn92rcd13ifvqgrg","pricing_plan_id":"cebpf4jnsgd1na2vs0mg"},{"bike_id":"9f512cc2-01f7-4069-99f4-70f3877bab7b","system_id":"levelo_inurba_marseille","lat":43.30139,"lon":5.37411,"is_reserved":false,"is_disabled":false,"rental_uris":{"android":"levelo://app?vid=9f512cc2-01f7-4069-99f4-70f3877bab7b","ios":"levelo://app?vid=9f512cc2-01f7-4069-99f4-70f3877bab7b"},"vehicle_type_id":"4","last_reported":1747296916,"current_range_meters":15200,"station_id":"ce4bgs92rcd13ifvqcc0","pricing_plan_id":"cebpf4jnsgd1na2vs0mg"},{"bike_id":"85cb1122-025f-4a87-ba49-918fc3e79b9a","system_id":"levelo_inurba_marseille","lat":43.287175,"lon":5.379392,"is_reserved":false,"is_disabled":false,"rental_uris":{"android":"levelo://app?vid=85cb1122-025f-4a87-ba49-918fc3e79b9a","ios":"levelo://app?vid=85cb1122-025f-4a87-ba49-918fc3e79b9a"},"vehicle_type_id":"4","last_reported":1747296916,"current_range_meters":15200,"station_id":"ce4bh9p2rcd13ifvqec0","pricing_plan_id":"cebpf4jnsgd1na2vs0mg"},{"bike_id":"91cd7809-e5d4-46e2-845b-d691947a2b46","system_id":"levelo_inurba_marseille","lat":43.24066,"lon":5.3776,"is_reserved":false,"is_disabled":false,"rental_uris":{"android":"levelo://app?vid=91cd7809-e5d4-46e2-845b-d691947a2b46","ios":"levelo://app?vid=91cd7809-e5d4-46e2-845b-d691947a2b46"},"vehicle_type_id":"4","last_reported":1747296916,"current_range_meters":15200,"station_id":"ce4bhnp2rcd13ifvqgvg","pricing_plan_id":"cebpf4jnsgd1na2vs0mg"},{"bike_id":"da37da7d-e6b2-4ca0-8fa1-8394e8f93641","system_id":"levelo_inurba_marseille","lat":43.27941,"lon":5.4105,"is_reserved":false,"is_disabled":false,"rental_uris":{"android":"levelo://app?vid=da37da7d-e6b2-4ca0-8fa1-8394e8f93641","ios":"levelo://app?vid=da37da7d-e6b2-4ca0-8fa1-8394e8f93641"},"vehicle_type_id":"4","last_reported":1747296916,"current_range_meters":15200,"station_id":"ce4bhnp2rcd13ifvqh0g","pricing_plan_id":"cebpf4jnsgd1na2vs0mg"},{"bike_id":"c682a571-1b8e-42c7-82ff-72c8d128bd01","system_id":"levelo_inurba_marseille","lat":43.29885,"lon":5.383314,"is_reserved":false,"is_disabled":false,"rental_uris":{"android":"levelo://app?vid=c682a571-1b8e-42c7-82ff-72c8d128bd01","ios":"levelo://app?vid=c682a571-1b8e-42c7-82ff-72c8d128bd01"},"vehicle_type_id":"4","last_reported":1747296916,"current_range_meters":16000,"station_id":"","pricing_plan_id":"cebpf4jnsgd1na2vs0mg"},{"bike_id":"5df5f25e-a346-436e-b3c7-0939f5cb869e","system_id":"levelo_inurba_marseille","lat":43.31257,"lon":5.36888,"is_reserved":false,"is_disabled":false,"rental_uris":{"android":"levelo://app?vid=5df5f25e-a346-436e-b3c7-0939f5cb869e","ios":"levelo://app?vid=5df5f25e-a346-436e-b3c7-0939f5cb869e"},"vehicle_type_id":"4","last_reported":1747296916,"current_range_meters":16000,"station_id":"ce4bgl92rcd13ifvqbq0","pricing_plan_id":"cebpf4jnsgd1na2vs0mg"},{"bike_id":"74f1bfac-c8e3-4d33-addb-0cf97e13d1d0","system_id":"levelo_inurba_marseille","lat":43.31364,"lon":5.36699,"is_reserved":false,"is_disabled":false,"rental_uris":{"android":"levelo://app?vid=74f1bfac-c8e3-4d33-addb-0cf97e13d1d0","ios":"levelo://app?vid=74f1bfac-c8e3-4d33-addb-0cf97e13d1d0"},"vehicle_type_id":"4","last_reported":1747296916,"current_range_meters":16000,"station_id":"ce4bgr92rcd13ifvqc6g","pricing_plan_id":"cebpf4jnsgd1na2vs0mg"},{"bike_id":"05830acd-a597-4649-8fc5-3ccaee82ede9","system_id":"levelo_inurba_marseille","lat":43.30948,"lon":5.39026,"is_reserved":false,"is_disabled":false,"rental_uris":{"android":"levelo://app?vid=05830acd-a597-4649-8fc5-3ccaee82ede9","ios":"levelo://app?vid=05830acd-a597-4649-8fc5-3ccaee82ede9"},"vehicle_type_id":"4","last_reported":1747296916,"current_range_meters":16000,"station_id":"ce4bgup2rcd13ifvqco0","pricing_plan_id":"cebpf4jnsgd1na2vs0mg"},{"bike_id":"e244ee7b-5346-4704-9b46-7fbd06f22e2e","system_id":"levelo_inurba_marseille","lat":43.240811,"lon":5.37753,"is_reserved":false,"is_disabled":false,"rental_uris":{"android":"levelo://app?vid=e244ee7b-5346-4704-9b46-7fbd06f22e2e","ios":"levelo://app?vid=e244ee7b-5346-4704-9b46-7fbd06f22e2e"},"vehicle_type_id":"4","last_reported":1747296916,"current_range_meters":16000,"station_id":"ce4bhh12rcd13ifvqfg0","pricing_plan_id":"cebpf4jnsgd1na2vs0mg"},{"bike_id":"c8d02c18-bd40-4bb6-818a-79780ce795fd","system_id":"levelo_inurba_marseille","lat":43.26493,"lon":5.3954,"is_reserved":false,"is_disabled":false,"rental_uris":{"android":"levelo://app?vid=c8d02c18-bd40-4bb6-818a-79780ce795fd","ios":"levelo://app?vid=c8d02c18-bd40-4bb6-818a-79780ce795fd"},"vehicle_type_id":"4","last_reported":1747296916,"current_range_meters":16000,"station_id":"ce4bhi12rcd13ifvqfq0","pricing_plan_id":"cebpf4jnsgd1na2vs0mg"},{"bike_id":"1b2ca96b-a115-4009-b707-71f4c5b975d8","system_id":"levelo_inurba_marseille","lat":43.324882,"lon":5.365724,"is_reserved":false,"is_disabled":false,"rental_uris":{"android":"levelo://app?vid=1b2ca96b-a115-4009-b707-71f4c5b975d8","ios":"levelo://app?vid=1b2ca96b-a115-4009-b707-71f4c5b975d8"},"vehicle_type_id":"4","last_reported":1747296916,"current_range_meters":16000,"station_id":"ce4bhs12rcd13ifvqhvg","pricing_plan_id":"cebpf4jnsgd1na2vs0mg"},{"bike_id":"c3acc1e9-c036-4520-87a3-7e8466cee4e3","system_id":"levelo_inurba_marseille","lat":43.324927,"lon":5.365553,"is_reserved":false,"is_disabled":false,"rental_uris":{"android":"levelo://app?vid=c3acc1e9-c036-4520-87a3-7e8466cee4e3","ios":"levelo://app?vid=c3acc1e9-c036-4520-87a3-7e8466cee4e3"},"vehicle_type_id":"4","last_reported":1747296916,"current_range_meters":16000,"station_id":"ce4bhs12rcd13ifvqhvg","pricing_plan_id":"cebpf4jnsgd1na2vs0mg"},{"bike_id":"6511801c-19c0-4539-91b9-4750b00b011b","system_id":"levelo_inurba_marseille","lat":43.29572,"lon":5.37519,"is_reserved":false,"is_disabled":false,"rental_uris":{"android":"levelo://app?vid=6511801c-19c0-4539-91b9-4750b00b011b","ios":"levelo://app?vid=6511801c-19c0-4539-91b9-4750b00b011b"},"vehicle_type_id":"4","last_reported":1747296916,"current_range_meters":16400,"station_id":"ce4bgh92rcd13ifvqb50","pricing_plan_id":"cebpf4jnsgd1na2vs0mg"},{"bike_id":"09b92313-3e04-43cf-8c55-888d1ba12370","system_id":"levelo_inurba_marseille","lat":43.29549,"lon":5.42293,"is_reserved":false,"is_disabled":false,"rental_uris":{"android":"levelo://app?vid=09b92313-3e04-43cf-8c55-888d1ba12370","ios":"levelo://app?vid=09b92313-3e04-43cf-8c55-888d1ba12370"},"vehicle_type_id":"4","last_reported":1747296916,"current_range_meters":16400,"station_id":"ce4bhph2rcd13ifvqhdg","pricing_plan_id":"cebpf4jnsgd1na2vs0mg"},{"bike_id":"49d0805d-54be-4ea7-b7d1-1eee24a5c407","system_id":"levelo_inurba_marseille","lat":43.29794,"lon":5.38093,"is_reserved":false,"is_disabled":false,"rental_uris":{"android":"levelo://app?vid=49d0805d-54be-4ea7-b7d1-1eee24a5c407","ios":"levelo://app?vid=49d0805d-54be-4ea7-b7d1-1eee24a5c407"},"vehicle_type_id":"4","last_reported":1747296916,"current_range_meters":16800,"station_id":"ce4bgip2rcd13ifvqbb0","pricing_plan_id":"cebpf4jnsgd1na2vs0mg"},{"bike_id":"23340d87-59f5-4bc6-8602-a0bd649c693b","system_id":"levelo_inurba_marseille","lat":43.27961,"lon":5.38716,"is_reserved":false,"is_disabled":false,"rental_uris":{"android":"levelo://app?vid=23340d87-59f5-4bc6-8602-a0bd649c693b","ios":"levelo://app?vid=23340d87-59f5-4bc6-8602-a0bd649c693b"},"vehicle_type_id":"4","last_reported":1747296916,"current_range_meters":16800,"station_id":"ce4bhg12rcd13ifvqf80","pricing_plan_id":"cebpf4jnsgd1na2vs0mg"},{"bike_id":"600ba6c1-7560-45cb-95ed-24074707e296","system_id":"levelo_inurba_marseille","lat":43.23965,"lon":5.36627,"is_reserved":false,"is_disabled":false,"rental_uris":{"android":"levelo://app?vid=600ba6c1-7560-45cb-95ed-24074707e296","ios":"levelo://app?vid=600ba6c1-7560-45cb-95ed-24074707e296"},"vehicle_type_id":"4","last_reported":1747296916,"current_range_meters":16800,"station_id":"ce4bhi12rcd13ifvqfp0","pricing_plan_id":"cebpf4jnsgd1na2vs0mg"},{"bike_id":"a97e7f2f-a4bd-43dc-a4a3-f47c4b150cbd","system_id":"levelo_inurba_marseille","lat":43.24193,"lon":5.39705,"is_reserved":false,"is_disabled":false,"rental_uris":{"android":"levelo://app?vid=a97e7f2f-a4bd-43dc-a4a3-f47c4b150cbd","ios":"levelo://app?vid=a97e7f2f-a4bd-43dc-a4a3-f47c4b150cbd"},"vehicle_type_id":"4","last_reported":1747296916,"current_range_meters":16800,"station_id":"ce4bhn12rcd13ifvqgpg","pricing_plan_id":"cebpf4jnsgd1na2vs0mg"},{"bike_id":"f27c167c-0593-4bdb-a8a1-e5d0009c2013","system_id":"levelo_inurba_marseille","lat":43.27493,"lon":5.42456,"is_reserved":false,"is_disabled":false,"rental_uris":{"android":"levelo://app?vid=f27c167c-0593-4bdb-a8a1-e5d0009c2013","ios":"levelo://app?vid=f27c167c-0593-4bdb-a8a1-e5d0009c2013"},"vehicle_type_id":"4","last_reported":1747296916,"current_range_meters":16800,"station_id":"ce4bhn92rcd13ifvqgrg","pricing_plan_id":"cebpf4jnsgd1na2vs0mg"},{"bike_id":"27e9a88e-415a-4bca-b9c7-7005fff53b64","system_id":"levelo_inurba_marseille","lat":43.24077,"lon":5.37759,"is_reserved":false,"is_disabled":false,"rental_uris":{"android":"levelo://app?vid=27e9a88e-415a-4bca-b9c7-7005fff53b64","ios":"levelo://app?vid=27e9a88e-415a-4bca-b9c7-7005fff53b64"},"vehicle_type_id":"4","last_reported":1747296916,"current_range_meters":16800,"station_id":"ce4bhnp2rcd13ifvqgvg","pricing_plan_id":"cebpf4jnsgd1na2vs0mg"},{"bike_id":"4b1ee3e0-2175-4959-bad5-9c90ab93a1ec","system_id":"levelo_inurba_marseille","lat":43.24077,"lon":5.37755,"is_reserved":false,"is_disabled":false,"rental_uris":{"android":"levelo://app?vid=4b1ee3e0-2175-4959-bad5-9c90ab93a1ec","ios":"levelo://app?vid=4b1ee3e0-2175-4959-bad5-9c90ab93a1ec"},"vehicle_type_id":"4","last_reported":1747296916,"current_range_meters":16800,"station_id":"ce4bhnp2rcd13ifvqgvg","pricing_plan_id":"cebpf4jnsgd1na2vs0mg"},{"bike_id":"385c5680-aa17-4953-8596-7f0cb64e8bcd","system_id":"levelo_inurba_marseille","lat":43.324771,"lon":5.365753,"is_reserved":false,"is_disabled":false,"rental_uris":{"android":"levelo://app?vid=385c5680-aa17-4953-8596-7f0cb64e8bcd","ios":"levelo://app?vid=385c5680-aa17-4953-8596-7f0cb64e8bcd"},"vehicle_type_id":"4","last_reported":1747296916,"current_range_meters":16800,"station_id":"ce4bhs12rcd13ifvqhvg","pricing_plan_id":"cebpf4jnsgd1na2vs0mg"},{"bike_id":"81a2b9d2-e55e-4cbc-ad41-936b4009b82a","system_id":"levelo_inurba_marseille","lat":43.29843,"lon":5.36283,"is_reserved":false,"is_disabled":false,"rental_uris":{"android":"levelo://app?vid=81a2b9d2-e55e-4cbc-ad41-936b4009b82a","ios":"levelo://app?vid=81a2b9d2-e55e-4cbc-ad41-936b4009b82a"},"vehicle_type_id":"4","last_reported":1747296916,"current_range_meters":17200,"station_id":"ce4bgpp2rcd13ifvqc3g","pricing_plan_id":"cebpf4jnsgd1na2vs0mg"},{"bike_id":"d0d427a5-5b15-433a-a884-a811880ed0aa","system_id":"levelo_inurba_marseille","lat":43.29698,"lon":5.37463,"is_reserved":false,"is_disabled":false,"rental_uris":{"android":"levelo://app?vid=d0d427a5-5b15-433a-a884-a811880ed0aa","ios":"levelo://app?vid=d0d427a5-5b15-433a-a884-a811880ed0aa"},"vehicle_type_id":"4","last_reported":1747296916,"current_range_meters":17200,"station_id":"ce4bgth2rcd13ifvqch0","pricing_plan_id":"cebpf4jnsgd1na2vs0mg"},{"bike_id":"bc997f5b-ce07-476e-841c-3f5b79bd98e0","system_id":"levelo_inurba_marseille","lat":43.23149,"lon":5.43718,"is_reserved":false,"is_disabled":false,"rental_uris":{"android":"levelo://app?vid=bc997f5b-ce07-476e-841c-3f5b79bd98e0","ios":"levelo://app?vid=bc997f5b-ce07-476e-841c-3f5b79bd98e0"},"vehicle_type_id":"4","last_reported":1747296916,"current_range_meters":17200,"station_id":"ce4bhmp2rcd13ifvqgog","pricing_plan_id":"cebpf4jnsgd1na2vs0mg"},{"bike_id":"56ef2fc3-57cd-46fc-8f46-efef3ad0ccfc","system_id":"levelo_inurba_marseille","lat":43.24184,"lon":5.39711,"is_reserved":false,"is_disabled":false,"rental_uris":{"android":"levelo://app?vid=56ef2fc3-57cd-46fc-8f46-efef3ad0ccfc","ios":"levelo://app?vid=56ef2fc3-57cd-46fc-8f46-efef3ad0ccfc"},"vehicle_type_id":"4","last_reported":1747296916,"current_range_meters":17200,"station_id":"ce4bhn12rcd13ifvqgpg","pricing_plan_id":"cebpf4jnsgd1na2vs0mg"},{"bike_id":"da199870-7ef4-4b69-93e0-cadbcc53e94c","system_id":"levelo_inurba_marseille","lat":43.32471,"lon":5.3657,"is_reserved":false,"is_disabled":false,"rental_uris":{"android":"levelo://app?vid=da199870-7ef4-4b69-93e0-cadbcc53e94c","ios":"levelo://app?vid=da199870-7ef4-4b69-93e0-cadbcc53e94c"},"vehicle_type_id":"4","last_reported":1747296916,"current_range_meters":17200,"station_id":"ce4bhs12rcd13ifvqhvg","pricing_plan_id":"cebpf4jnsgd1na2vs0mg"},{"bike_id":"60af0a7f-4cfd-4f77-8f2f-31f09c58ccf0","system_id":"levelo_inurba_marseille","lat":43.21739,"lon":5.34619,"is_reserved":false,"is_disabled":true,"rental_uris":{"android":"levelo://app?vid=60af0a7f-4cfd-4f77-8f2f-31f09c58ccf0","ios":"levelo://app?vid=60af0a7f-4cfd-4f77-8f2f-31f09c58ccf0"},"vehicle_type_id":"4","last_reported":1747296916,"current_range_meters":17200,"station_id":"st_cvj6r9ubvosntc0bgbag","pricing_plan_id":"cebpf4jnsgd1na2vs0mg"},{"bike_id":"8b44f886-59c7-4896-a2ca-0dea931a883f","system_id":"levelo_inurba_marseille","lat":43.21194,"lon":5.3507,"is_reserved":false,"is_disabled":false,"rental_uris":{"android":"levelo://app?vid=8b44f886-59c7-4896-a2ca-0dea931a883f","ios":"levelo://app?vid=8b44f886-59c7-4896-a2ca-0dea931a883f"},"vehicle_type_id":"4","last_reported":1747296916,"current_range_meters":17200,"station_id":"st_cvj6sg6p6f1abm77japg","pricing_plan_id":"cebpf4jnsgd1na2vs0mg"},{"bike_id":"a2d6a384-311c-42f7-acd0-99b54160f604","system_id":"levelo_inurba_marseille","lat":43.30913,"lon":5.36853,"is_reserved":false,"is_disabled":false,"rental_uris":{"android":"levelo://app?vid=a2d6a384-311c-42f7-acd0-99b54160f604","ios":"levelo://app?vid=a2d6a384-311c-42f7-acd0-99b54160f604"},"vehicle_type_id":"4","last_reported":1747296916,"current_range_meters":17600,"station_id":"ce4bgn92rcd13ifvqbvg","pricing_plan_id":"cebpf4jnsgd1na2vs0mg"},{"bike_id":"0c72fe42-5b2c-4971-935e-884451a5bf27","system_id":"levelo_inurba_marseille","lat":43.29869,"lon":5.39731,"is_reserved":false,"is_disabled":false,"rental_uris":{"android":"levelo://app?vid=0c72fe42-5b2c-4971-935e-884451a5bf27","ios":"levelo://app?vid=0c72fe42-5b2c-4971-935e-884451a5bf27"},"vehicle_type_id":"4","last_reported":1747296916,"current_range_meters":17600,"station_id":"ce4bh0h2rcd13ifvqd50","pricing_plan_id":"cebpf4jnsgd1na2vs0mg"},{"bike_id":"7531a930-08ae-46f6-84fa-8fca4c743016","system_id":"levelo_inurba_marseille","lat":43.27373,"lon":5.36259,"is_reserved":false,"is_disabled":false,"rental_uris":{"android":"levelo://app?vid=7531a930-08ae-46f6-84fa-8fca4c743016","ios":"levelo://app?vid=7531a930-08ae-46f6-84fa-8fca4c743016"},"vehicle_type_id":"4","last_reported":1747296916,"current_range_meters":17600,"station_id":"ce4bhbh2rcd13ifvqeo0","pricing_plan_id":"cebpf4jnsgd1na2vs0mg"},{"bike_id":"7d63f300-6324-4261-8cea-1a23bc0a99d1","system_id":"levelo_inurba_marseille","lat":43.24061,"lon":5.37761,"is_reserved":false,"is_disabled":false,"rental_uris":{"android":"levelo://app?vid=7d63f300-6324-4261-8cea-1a23bc0a99d1","ios":"levelo://app?vid=7d63f300-6324-4261-8cea-1a23bc0a99d1"},"vehicle_type_id":"4","last_reported":1747296916,"current_range_meters":17600,"station_id":"ce4bhnp2rcd13ifvqgvg","pricing_plan_id":"cebpf4jnsgd1na2vs0mg"},{"bike_id":"0e642aa4-6b11-42d7-a2d5-23309c013ac1","system_id":"levelo_inurba_marseille","lat":43.30536,"lon":5.36703,"is_reserved":false,"is_disabled":false,"rental_uris":{"android":"levelo://app?vid=0e642aa4-6b11-42d7-a2d5-23309c013ac1","ios":"levelo://app?vid=0e642aa4-6b11-42d7-a2d5-23309c013ac1"},"vehicle_type_id":"4","last_reported":1747296916,"current_range_meters":18000,"station_id":"ce4bgrp2rcd13ifvqc9g","pricing_plan_id":"cebpf4jnsgd1na2vs0mg"},{"bike_id":"a55b35f8-f837-40de-b4a5-d86f8e834dde","system_id":"levelo_inurba_marseille","lat":43.29855,"lon":5.39723,"is_reserved":false,"is_disabled":false,"rental_uris":{"android":"levelo://app?vid=a55b35f8-f837-40de-b4a5-d86f8e834dde","ios":"levelo://app?vid=a55b35f8-f837-40de-b4a5-d86f8e834dde"},"vehicle_type_id":"4","last_reported":1747296916,"current_range_meters":18000,"station_id":"ce4bh0h2rcd13ifvqd50","pricing_plan_id":"cebpf4jnsgd1na2vs0mg"},{"bike_id":"6dd0f9a4-0e3e-4d2b-95f8-2e7dcf73c911","system_id":"levelo_inurba_marseille","lat":43.29863,"lon":5.39733,"is_reserved":false,"is_disabled":false,"rental_uris":{"android":"levelo://app?vid=6dd0f9a4-0e3e-4d2b-95f8-2e7dcf73c911","ios":"levelo://app?vid=6dd0f9a4-0e3e-4d2b-95f8-2e7dcf73c911"},"vehicle_type_id":"4","last_reported":1747296916,"current_range_meters":18000,"station_id":"ce4bh0h2rcd13ifvqd50","pricing_plan_id":"cebpf4jnsgd1na2vs0mg"},{"bike_id":"fda585f2-9c25-43c0-8616-c1d90f0752a3","system_id":"levelo_inurba_marseille","lat":43.26915,"lon":5.38947,"is_reserved":false,"is_disabled":false,"rental_uris":{"android":"levelo://app?vid=fda585f2-9c25-43c0-8616-c1d90f0752a3","ios":"levelo://app?vid=fda585f2-9c25-43c0-8616-c1d90f0752a3"},"vehicle_type_id":"4","last_reported":1747296916,"current_range_meters":18000,"station_id":"ce4bhhh2rcd13ifvqfl0","pricing_plan_id":"cebpf4jnsgd1na2vs0mg"},{"bike_id":"05647ffd-ffa9-4a9c-92e9-9a49dc821811","system_id":"levelo_inurba_marseille","lat":43.3236,"lon":5.36757,"is_reserved":false,"is_disabled":false,"rental_uris":{"android":"levelo://app?vid=05647ffd-ffa9-4a9c-92e9-9a49dc821811","ios":"levelo://app?vid=05647ffd-ffa9-4a9c-92e9-9a49dc821811"},"vehicle_type_id":"4","last_reported":1747296916,"current_range_meters":18000,"station_id":"ce4bhsh2rcd13ifvqi2g","pricing_plan_id":"cebpf4jnsgd1na2vs0mg"},{"bike_id":"54bb4a94-8c03-46f8-a98b-e1017dfaf0f6","system_id":"levelo_inurba_marseille","lat":43.30917,"lon":5.36848,"is_reserved":false,"is_disabled":false,"rental_uris":{"android":"levelo://app?vid=54bb4a94-8c03-46f8-a98b-e1017dfaf0f6","ios":"levelo://app?vid=54bb4a94-8c03-46f8-a98b-e1017dfaf0f6"},"vehicle_type_id":"4","last_reported":1747296916,"current_range_meters":18800,"station_id":"ce4bgn92rcd13ifvqbvg","pricing_plan_id":"cebpf4jnsgd1na2vs0mg"},{"bike_id":"043c20f8-7e2f-44e7-8d9f-e4b851cb59c9","system_id":"levelo_inurba_marseille","lat":43.29262,"lon":5.38441,"is_reserved":false,"is_disabled":false,"rental_uris":{"android":"levelo://app?vid=043c20f8-7e2f-44e7-8d9f-e4b851cb59c9","ios":"levelo://app?vid=043c20f8-7e2f-44e7-8d9f-e4b851cb59c9"},"vehicle_type_id":"4","last_reported":1747296916,"current_range_meters":18800,"station_id":"ce4bh692rcd13ifvqea0","pricing_plan_id":"cebpf4jnsgd1na2vs0mg"},{"bike_id":"b071bff4-e698-4315-9238-45fc22778b61","system_id":"levelo_inurba_marseille","lat":43.23967,"lon":5.36627,"is_reserved":false,"is_disabled":false,"rental_uris":{"android":"levelo://app?vid=b071bff4-e698-4315-9238-45fc22778b61","ios":"levelo://app?vid=b071bff4-e698-4315-9238-45fc22778b61"},"vehicle_type_id":"4","last_reported":1747296916,"current_range_meters":18800,"station_id":"ce4bhi12rcd13ifvqfp0","pricing_plan_id":"cebpf4jnsgd1na2vs0mg"},{"bike_id":"6c28df84-bef2-4cb1-92e7-43ec89e259c7","system_id":"levelo_inurba_marseille","lat":43.24061,"lon":5.3777,"is_reserved":false,"is_disabled":false,"rental_uris":{"android":"levelo://app?vid=6c28df84-bef2-4cb1-92e7-43ec89e259c7","ios":"levelo://app?vid=6c28df84-bef2-4cb1-92e7-43ec89e259c7"},"vehicle_type_id":"4","last_reported":1747296916,"current_range_meters":18800,"station_id":"ce4bhnp2rcd13ifvqgvg","pricing_plan_id":"cebpf4jnsgd1na2vs0mg"},{"bike_id":"7a5b742a-079e-45c9-85bf-80325f4c1eea","system_id":"levelo_inurba_marseille","lat":43.32053,"lon":5.41532,"is_reserved":false,"is_disabled":false,"rental_uris":{"android":"levelo://app?vid=7a5b742a-079e-45c9-85bf-80325f4c1eea","ios":"levelo://app?vid=7a5b742a-079e-45c9-85bf-80325f4c1eea"},"vehicle_type_id":"4","last_reported":1747296916,"current_range_meters":18800,"station_id":"ce4bhq92rcd13ifvqhkg","pricing_plan_id":"cebpf4jnsgd1na2vs0mg"},{"bike_id":"40a1772f-b4a2-474a-b875-d8df9be2c806","system_id":"levelo_inurba_marseille","lat":43.33604,"lon":5.41023,"is_reserved":false,"is_disabled":false,"rental_uris":{"android":"levelo://app?vid=40a1772f-b4a2-474a-b875-d8df9be2c806","ios":"levelo://app?vid=40a1772f-b4a2-474a-b875-d8df9be2c806"},"vehicle_type_id":"4","last_reported":1747296916,"current_range_meters":18800,"station_id":"ce4bhqh2rcd13ifvqhmg","pricing_plan_id":"cebpf4jnsgd1na2vs0mg"},{"bike_id":"ff8c31a0-1c02-41af-992d-f5052b02aea3","system_id":"levelo_inurba_marseille","lat":43.30897,"lon":5.36846,"is_reserved":false,"is_disabled":false,"rental_uris":{"android":"levelo://app?vid=ff8c31a0-1c02-41af-992d-f5052b02aea3","ios":"levelo://app?vid=ff8c31a0-1c02-41af-992d-f5052b02aea3"},"vehicle_type_id":"4","last_reported":1747296916,"current_range_meters":19200,"station_id":"ce4bgn92rcd13ifvqbvg","pricing_plan_id":"cebpf4jnsgd1na2vs0mg"},{"bike_id":"802f5d66-250a-4b2b-8038-4f8896c43506","system_id":"levelo_inurba_marseille","lat":43.25584,"lon":5.38227,"is_reserved":false,"is_disabled":false,"rental_uris":{"android":"levelo://app?vid=802f5d66-250a-4b2b-8038-4f8896c43506","ios":"levelo://app?vid=802f5d66-250a-4b2b-8038-4f8896c43506"},"vehicle_type_id":"4","last_reported":1747296916,"current_range_meters":19200,"station_id":"ce4bhih2rcd13ifvqfs0","pricing_plan_id":"cebpf4jnsgd1na2vs0mg"},{"bike_id":"b01ef8b7-f396-46ca-96b7-e98c863e4a47","system_id":"levelo_inurba_marseille","lat":43.25923,"lon":5.40886,"is_reserved":false,"is_disabled":false,"rental_uris":{"android":"levelo://app?vid=b01ef8b7-f396-46ca-96b7-e98c863e4a47","ios":"levelo://app?vid=b01ef8b7-f396-46ca-96b7-e98c863e4a47"},"vehicle_type_id":"4","last_reported":1747296916,"current_range_meters":19200,"station_id":"ce4bhm92rcd13ifvqglg","pricing_plan_id":"cebpf4jnsgd1na2vs0mg"},{"bike_id":"68bb491c-1d3e-4388-a7f8-cdc52f1b34f9","system_id":"levelo_inurba_marseille","lat":43.24088,"lon":5.37737,"is_reserved":false,"is_disabled":false,"rental_uris":{"android":"levelo://app?vid=68bb491c-1d3e-4388-a7f8-cdc52f1b34f9","ios":"levelo://app?vid=68bb491c-1d3e-4388-a7f8-cdc52f1b34f9"},"vehicle_type_id":"4","last_reported":1747296916,"current_range_meters":19200,"station_id":"ce4bhnp2rcd13ifvqgvg","pricing_plan_id":"cebpf4jnsgd1na2vs0mg"},{"bike_id":"e3746a29-a0db-42b0-9a26-d2dc8f31ba51","system_id":"levelo_inurba_marseille","lat":43.33598,"lon":5.41024,"is_reserved":false,"is_disabled":false,"rental_uris":{"android":"levelo://app?vid=e3746a29-a0db-42b0-9a26-d2dc8f31ba51","ios":"levelo://app?vid=e3746a29-a0db-42b0-9a26-d2dc8f31ba51"},"vehicle_type_id":"4","last_reported":1747296916,"current_range_meters":19200,"station_id":"ce4bhqh2rcd13ifvqhmg","pricing_plan_id":"cebpf4jnsgd1na2vs0mg"},{"bike_id":"9f1b56f9-c986-493d-8d8a-a63af8d1bc1b","system_id":"levelo_inurba_marseille","lat":43.30903,"lon":5.36857,"is_reserved":false,"is_disabled":false,"rental_uris":{"android":"levelo://app?vid=9f1b56f9-c986-493d-8d8a-a63af8d1bc1b","ios":"levelo://app?vid=9f1b56f9-c986-493d-8d8a-a63af8d1bc1b"},"vehicle_type_id":"4","last_reported":1747296916,"current_range_meters":19600,"station_id":"ce4bgn92rcd13ifvqbvg","pricing_plan_id":"cebpf4jnsgd1na2vs0mg"},{"bike_id":"68d5fe89-66c9-420a-850d-3a1e601a1eac","system_id":"levelo_inurba_marseille","lat":43.26568,"lon":5.39007,"is_reserved":false,"is_disabled":false,"rental_uris":{"android":"levelo://app?vid=68d5fe89-66c9-420a-850d-3a1e601a1eac","ios":"levelo://app?vid=68d5fe89-66c9-420a-850d-3a1e601a1eac"},"vehicle_type_id":"4","last_reported":1747296916,"current_range_meters":19600,"station_id":"ce4bhe12rcd13ifvqf30","pricing_plan_id":"cebpf4jnsgd1na2vs0mg"},{"bike_id":"d36c43d6-fb4d-4c8e-b04c-47920efe44fa","system_id":"levelo_inurba_marseille","lat":43.276612,"lon":5.420931,"is_reserved":false,"is_disabled":false,"rental_uris":{"android":"levelo://app?vid=d36c43d6-fb4d-4c8e-b04c-47920efe44fa","ios":"levelo://app?vid=d36c43d6-fb4d-4c8e-b04c-47920efe44fa"},"vehicle_type_id":"4","last_reported":1747296916,"current_range_meters":19600,"station_id":"ce4bhk92rcd13ifvqgc0","pricing_plan_id":"cebpf4jnsgd1na2vs0mg"},{"bike_id":"4e02dbd9-4c35-46b5-9cf5-5edb4a31de2a","system_id":"levelo_inurba_marseille","lat":43.33601,"lon":5.41028,"is_reserved":false,"is_disabled":false,"rental_uris":{"android":"levelo://app?vid=4e02dbd9-4c35-46b5-9cf5-5edb4a31de2a","ios":"levelo://app?vid=4e02dbd9-4c35-46b5-9cf5-5edb4a31de2a"},"vehicle_type_id":"4","last_reported":1747296916,"current_range_meters":19600,"station_id":"ce4bhqh2rcd13ifvqhmg","pricing_plan_id":"cebpf4jnsgd1na2vs0mg"},{"bike_id":"f8e0164e-343d-4762-8888-72d6dbc7c8a0","system_id":"levelo_inurba_marseille","lat":43.33598,"lon":5.4102,"is_reserved":false,"is_disabled":false,"rental_uris":{"android":"levelo://app?vid=f8e0164e-343d-4762-8888-72d6dbc7c8a0","ios":"levelo://app?vid=f8e0164e-343d-4762-8888-72d6dbc7c8a0"},"vehicle_type_id":"4","last_reported":1747296916,"current_range_meters":19600,"station_id":"ce4bhqh2rcd13ifvqhmg","pricing_plan_id":"cebpf4jnsgd1na2vs0mg"},{"bike_id":"082294fb-f20c-4489-b207-edf6dc0b86f0","system_id":"levelo_inurba_marseille","lat":43.24162,"lon":5.36411,"is_reserved":false,"is_disabled":false,"rental_uris":{"android":"levelo://app?vid=082294fb-f20c-4489-b207-edf6dc0b86f0","ios":"levelo://app?vid=082294fb-f20c-4489-b207-edf6dc0b86f0"},"vehicle_type_id":"4","last_reported":1747296916,"current_range_meters":19600,"station_id":"cpo36qri1sfpv3e86is0","pricing_plan_id":"cebpf4jnsgd1na2vs0mg"},{"bike_id":"5e87a7ac-8e04-44a3-aa85-afbf7cf1b847","system_id":"levelo_inurba_marseille","lat":43.30909,"lon":5.36839,"is_reserved":false,"is_disabled":false,"rental_uris":{"android":"levelo://app?vid=5e87a7ac-8e04-44a3-aa85-afbf7cf1b847","ios":"levelo://app?vid=5e87a7ac-8e04-44a3-aa85-afbf7cf1b847"},"vehicle_type_id":"4","last_reported":1747296916,"current_range_meters":20000,"station_id":"ce4bgn92rcd13ifvqbvg","pricing_plan_id":"cebpf4jnsgd1na2vs0mg"},{"bike_id":"c0e0fd84-4c7c-420a-b641-45b7066ef9a9","system_id":"levelo_inurba_marseille","lat":43.31361,"lon":5.36666,"is_reserved":false,"is_disabled":false,"rental_uris":{"android":"levelo://app?vid=c0e0fd84-4c7c-420a-b641-45b7066ef9a9","ios":"levelo://app?vid=c0e0fd84-4c7c-420a-b641-45b7066ef9a9"},"vehicle_type_id":"4","last_reported":1747296916,"current_range_meters":20000,"station_id":"ce4bgr92rcd13ifvqc6g","pricing_plan_id":"cebpf4jnsgd1na2vs0mg"},{"bike_id":"53255f06-7299-45fa-bc69-8e61557bf5d6","system_id":"levelo_inurba_marseille","lat":43.24065,"lon":5.37761,"is_reserved":false,"is_disabled":false,"rental_uris":{"android":"levelo://app?vid=53255f06-7299-45fa-bc69-8e61557bf5d6","ios":"levelo://app?vid=53255f06-7299-45fa-bc69-8e61557bf5d6"},"vehicle_type_id":"4","last_reported":1747296916,"current_range_meters":20000,"station_id":"ce4bhnp2rcd13ifvqgvg","pricing_plan_id":"cebpf4jnsgd1na2vs0mg"},{"bike_id":"54a1a73b-9f7a-414c-a48f-eeace73bd9b0","system_id":"levelo_inurba_marseille","lat":43.22506,"lon":5.34779,"is_reserved":false,"is_disabled":false,"rental_uris":{"android":"levelo://app?vid=54a1a73b-9f7a-414c-a48f-eeace73bd9b0","ios":"levelo://app?vid=54a1a73b-9f7a-414c-a48f-eeace73bd9b0"},"vehicle_type_id":"4","last_reported":1747296916,"current_range_meters":20000,"station_id":"st_cvj5dfep6f1abm77gieg","pricing_plan_id":"cebpf4jnsgd1na2vs0mg"},{"bike_id":"4f433c6e-f98b-4750-8b46-5052de4a4918","system_id":"levelo_inurba_marseille","lat":43.29606,"lon":5.3773,"is_reserved":false,"is_disabled":false,"rental_uris":{"android":"levelo://app?vid=4f433c6e-f98b-4750-8b46-5052de4a4918","ios":"levelo://app?vid=4f433c6e-f98b-4750-8b46-5052de4a4918"},"vehicle_type_id":"4","last_reported":1747296916,"current_range_meters":20400,"station_id":"ce4bgi92rcd13ifvqb90","pricing_plan_id":"cebpf4jnsgd1na2vs0mg"},{"bike_id":"89826c89-e953-4315-b957-82bcb5aefb13","system_id":"levelo_inurba_marseille","lat":43.30888,"lon":5.37204,"is_reserved":false,"is_disabled":false,"rental_uris":{"android":"levelo://app?vid=89826c89-e953-4315-b957-82bcb5aefb13","ios":"levelo://app?vid=89826c89-e953-4315-b957-82bcb5aefb13"},"vehicle_type_id":"4","last_reported":1747296916,"current_range_meters":20400,"station_id":"ce4bguh2rcd13ifvqckg","pricing_plan_id":"cebpf4jnsgd1na2vs0mg"},{"bike_id":"794106d7-7850-4d4a-ad5d-617e662da330","system_id":"levelo_inurba_marseille","lat":43.2988,"lon":5.39729,"is_reserved":false,"is_disabled":false,"rental_uris":{"android":"levelo://app?vid=794106d7-7850-4d4a-ad5d-617e662da330","ios":"levelo://app?vid=794106d7-7850-4d4a-ad5d-617e662da330"},"vehicle_type_id":"4","last_reported":1747296916,"current_range_meters":20400,"station_id":"ce4bh0h2rcd13ifvqd50","pricing_plan_id":"cebpf4jnsgd1na2vs0mg"},{"bike_id":"236b0f79-dd19-421b-b8b6-ae04161d0d7d","system_id":"levelo_inurba_marseille","lat":43.24077,"lon":5.37754,"is_reserved":false,"is_disabled":false,"rental_uris":{"android":"levelo://app?vid=236b0f79-dd19-421b-b8b6-ae04161d0d7d","ios":"levelo://app?vid=236b0f79-dd19-421b-b8b6-ae04161d0d7d"},"vehicle_type_id":"4","last_reported":1747296916,"current_range_meters":20400,"station_id":"ce4bhnp2rcd13ifvqgvg","pricing_plan_id":"cebpf4jnsgd1na2vs0mg"},{"bike_id":"54c80718-1468-47f9-9877-bc44f5940722","system_id":"levelo_inurba_marseille","lat":43.21188,"lon":5.35064,"is_reserved":false,"is_disabled":false,"rental_uris":{"android":"levelo://app?vid=54c80718-1468-47f9-9877-bc44f5940722","ios":"levelo://app?vid=54c80718-1468-47f9-9877-bc44f5940722"},"vehicle_type_id":"4","last_reported":1747296916,"current_range_meters":20400,"station_id":"st_cvj6sg6p6f1abm77japg","pricing_plan_id":"cebpf4jnsgd1na2vs0mg"},{"bike_id":"3b1fdba3-3da5-46d6-b5c8-afa752c13b6c","system_id":"levelo_inurba_marseille","lat":43.30902,"lon":5.36861,"is_reserved":false,"is_disabled":false,"rental_uris":{"android":"levelo://app?vid=3b1fdba3-3da5-46d6-b5c8-afa752c13b6c","ios":"levelo://app?vid=3b1fdba3-3da5-46d6-b5c8-afa752c13b6c"},"vehicle_type_id":"4","last_reported":1747296916,"current_range_meters":20800,"station_id":"ce4bgn92rcd13ifvqbvg","pricing_plan_id":"cebpf4jnsgd1na2vs0mg"},{"bike_id":"69adc5b2-d802-49c4-a8ec-a7c6eeda7260","system_id":"levelo_inurba_marseille","lat":43.30537,"lon":5.36703,"is_reserved":false,"is_disabled":false,"rental_uris":{"android":"levelo://app?vid=69adc5b2-d802-49c4-a8ec-a7c6eeda7260","ios":"levelo://app?vid=69adc5b2-d802-49c4-a8ec-a7c6eeda7260"},"vehicle_type_id":"4","last_reported":1747296916,"current_range_meters":20800,"station_id":"ce4bgrp2rcd13ifvqc9g","pricing_plan_id":"cebpf4jnsgd1na2vs0mg"},{"bike_id":"3d46183d-e421-4498-8767-0e257c53394b","system_id":"levelo_inurba_marseille","lat":43.325493,"lon":5.414353,"is_reserved":false,"is_disabled":false,"rental_uris":{"android":"levelo://app?vid=3d46183d-e421-4498-8767-0e257c53394b","ios":"levelo://app?vid=3d46183d-e421-4498-8767-0e257c53394b"},"vehicle_type_id":"4","last_reported":1747296916,"current_range_meters":20800,"station_id":"ce4bhq12rcd13ifvqhhg","pricing_plan_id":"cebpf4jnsgd1na2vs0mg"},{"bike_id":"b4d1483e-f3b5-4a20-abde-8a6afdb2fce0","system_id":"levelo_inurba_marseille","lat":43.30538,"lon":5.36711,"is_reserved":false,"is_disabled":false,"rental_uris":{"android":"levelo://app?vid=b4d1483e-f3b5-4a20-abde-8a6afdb2fce0","ios":"levelo://app?vid=b4d1483e-f3b5-4a20-abde-8a6afdb2fce0"},"vehicle_type_id":"4","last_reported":1747296916,"current_range_meters":21600,"station_id":"ce4bgrp2rcd13ifvqc9g","pricing_plan_id":"cebpf4jnsgd1na2vs0mg"},{"bike_id":"13fb7c0c-f7ea-4d7b-bdcd-c94492777a0b","system_id":"levelo_inurba_marseille","lat":43.30555,"lon":5.36524,"is_reserved":false,"is_disabled":false,"rental_uris":{"android":"levelo://app?vid=13fb7c0c-f7ea-4d7b-bdcd-c94492777a0b","ios":"levelo://app?vid=13fb7c0c-f7ea-4d7b-bdcd-c94492777a0b"},"vehicle_type_id":"4","last_reported":1747296916,"current_range_meters":21600,"station_id":"ce4bgs12rcd13ifvqcag","pricing_plan_id":"cebpf4jnsgd1na2vs0mg"},{"bike_id":"cc7da888-9eb6-4980-bc77-b50fcc8ef5d7","system_id":"levelo_inurba_marseille","lat":43.25931,"lon":5.40909,"is_reserved":false,"is_disabled":false,"rental_uris":{"android":"levelo://app?vid=cc7da888-9eb6-4980-bc77-b50fcc8ef5d7","ios":"levelo://app?vid=cc7da888-9eb6-4980-bc77-b50fcc8ef5d7"},"vehicle_type_id":"4","last_reported":1747296916,"current_range_meters":21600,"station_id":"ce4bhm92rcd13ifvqglg","pricing_plan_id":"cebpf4jnsgd1na2vs0mg"},{"bike_id":"c41abff9-2506-47e6-9902-a67c3ce73da3","system_id":"levelo_inurba_marseille","lat":43.24174,"lon":5.39731,"is_reserved":false,"is_disabled":false,"rental_uris":{"android":"levelo://app?vid=c41abff9-2506-47e6-9902-a67c3ce73da3","ios":"levelo://app?vid=c41abff9-2506-47e6-9902-a67c3ce73da3"},"vehicle_type_id":"4","last_reported":1747296916,"current_range_meters":21600,"station_id":"ce4bhn12rcd13ifvqgpg","pricing_plan_id":"cebpf4jnsgd1na2vs0mg"},{"bike_id":"dced9071-855b-49c6-87c1-bdf6670af6fd","system_id":"levelo_inurba_marseille","lat":43.24187,"lon":5.39731,"is_reserved":false,"is_disabled":false,"rental_uris":{"android":"levelo://app?vid=dced9071-855b-49c6-87c1-bdf6670af6fd","ios":"levelo://app?vid=dced9071-855b-49c6-87c1-bdf6670af6fd"},"vehicle_type_id":"4","last_reported":1747296916,"current_range_meters":21600,"station_id":"ce4bhn12rcd13ifvqgpg","pricing_plan_id":"cebpf4jnsgd1na2vs0mg"},{"bike_id":"d2b358fa-3af4-4c03-a2ca-467ddd00ddbc","system_id":"levelo_inurba_marseille","lat":43.32471,"lon":5.36556,"is_reserved":false,"is_disabled":false,"rental_uris":{"android":"levelo://app?vid=d2b358fa-3af4-4c03-a2ca-467ddd00ddbc","ios":"levelo://app?vid=d2b358fa-3af4-4c03-a2ca-467ddd00ddbc"},"vehicle_type_id":"4","last_reported":1747296916,"current_range_meters":21600,"station_id":"ce4bhs12rcd13ifvqhvg","pricing_plan_id":"cebpf4jnsgd1na2vs0mg"},{"bike_id":"0934cb3f-1cb2-4e34-9efb-abd0c06d8272","system_id":"levelo_inurba_marseille","lat":43.30539,"lon":5.3669,"is_reserved":false,"is_disabled":false,"rental_uris":{"android":"levelo://app?vid=0934cb3f-1cb2-4e34-9efb-abd0c06d8272","ios":"levelo://app?vid=0934cb3f-1cb2-4e34-9efb-abd0c06d8272"},"vehicle_type_id":"4","last_reported":1747296916,"current_range_meters":22000,"station_id":"ce4bgrp2rcd13ifvqc9g","pricing_plan_id":"cebpf4jnsgd1na2vs0mg"},{"bike_id":"8b0b5d86-e287-4bb2-b343-71de0af7d914","system_id":"levelo_inurba_marseille","lat":43.309031,"lon":5.368508,"is_reserved":false,"is_disabled":false,"rental_uris":{"android":"levelo://app?vid=8b0b5d86-e287-4bb2-b343-71de0af7d914","ios":"levelo://app?vid=8b0b5d86-e287-4bb2-b343-71de0af7d914"},"vehicle_type_id":"4","last_reported":1747296916,"current_range_meters":22000,"station_id":"ce4bhbp2rcd13ifvqerg","pricing_plan_id":"cebpf4jnsgd1na2vs0mg"},{"bike_id":"08457c69-dec9-462b-97bc-77f0ab716802","system_id":"levelo_inurba_marseille","lat":43.25816,"lon":5.39436,"is_reserved":false,"is_disabled":false,"rental_uris":{"android":"levelo://app?vid=08457c69-dec9-462b-97bc-77f0ab716802","ios":"levelo://app?vid=08457c69-dec9-462b-97bc-77f0ab716802"},"vehicle_type_id":"4","last_reported":1747296916,"current_range_meters":22000,"station_id":"ce4bhip2rcd13ifvqft0","pricing_plan_id":"cebpf4jnsgd1na2vs0mg"},{"bike_id":"6e91d17a-2ced-4b9d-ab66-67d5071de241","system_id":"levelo_inurba_marseille","lat":43.30909,"lon":5.36854,"is_reserved":false,"is_disabled":false,"rental_uris":{"android":"levelo://app?vid=6e91d17a-2ced-4b9d-ab66-67d5071de241","ios":"levelo://app?vid=6e91d17a-2ced-4b9d-ab66-67d5071de241"},"vehicle_type_id":"4","last_reported":1747296916,"current_range_meters":22400,"station_id":"ce4bgn92rcd13ifvqbvg","pricing_plan_id":"cebpf4jnsgd1na2vs0mg"},{"bike_id":"018bee10-78bd-49fa-853b-5d6c8e6e1261","system_id":"levelo_inurba_marseille","lat":43.30193,"lon":5.36627,"is_reserved":false,"is_disabled":false,"rental_uris":{"android":"levelo://app?vid=018bee10-78bd-49fa-853b-5d6c8e6e1261","ios":"levelo://app?vid=018bee10-78bd-49fa-853b-5d6c8e6e1261"},"vehicle_type_id":"4","last_reported":1747296916,"current_range_meters":22400,"station_id":"ce4bgrh2rcd13ifvqc8g","pricing_plan_id":"cebpf4jnsgd1na2vs0mg"},{"bike_id":"af9ecdd5-a575-4cff-b5e8-a5f62ea7f4dd","system_id":"levelo_inurba_marseille","lat":43.30277,"lon":5.37703,"is_reserved":false,"is_disabled":false,"rental_uris":{"android":"levelo://app?vid=af9ecdd5-a575-4cff-b5e8-a5f62ea7f4dd","ios":"levelo://app?vid=af9ecdd5-a575-4cff-b5e8-a5f62ea7f4dd"},"vehicle_type_id":"4","last_reported":1747296916,"current_range_meters":22400,"station_id":"ce4bguh2rcd13ifvqcj0","pricing_plan_id":"cebpf4jnsgd1na2vs0mg"},{"bike_id":"b4769445-4d12-48ca-a42e-e826aedd0d2b","system_id":"levelo_inurba_marseille","lat":43.2693,"lon":5.38927,"is_reserved":false,"is_disabled":false,"rental_uris":{"android":"levelo://app?vid=b4769445-4d12-48ca-a42e-e826aedd0d2b","ios":"levelo://app?vid=b4769445-4d12-48ca-a42e-e826aedd0d2b"},"vehicle_type_id":"4","last_reported":1747296916,"current_range_meters":22400,"station_id":"ce4bhhh2rcd13ifvqfl0","pricing_plan_id":"cebpf4jnsgd1na2vs0mg"},{"bike_id":"5483e08b-825c-4e6b-980e-ba5090a04627","system_id":"levelo_inurba_marseille","lat":43.24074,"lon":5.37758,"is_reserved":false,"is_disabled":false,"rental_uris":{"android":"levelo://app?vid=5483e08b-825c-4e6b-980e-ba5090a04627","ios":"levelo://app?vid=5483e08b-825c-4e6b-980e-ba5090a04627"},"vehicle_type_id":"4","last_reported":1747296916,"current_range_meters":22400,"station_id":"ce4bhnp2rcd13ifvqgvg","pricing_plan_id":"cebpf4jnsgd1na2vs0mg"},{"bike_id":"7b12674a-cab5-4d1e-a7eb-5c5a561f1e01","system_id":"levelo_inurba_marseille","lat":43.28435,"lon":5.39202,"is_reserved":false,"is_disabled":false,"rental_uris":{"android":"levelo://app?vid=7b12674a-cab5-4d1e-a7eb-5c5a561f1e01","ios":"levelo://app?vid=7b12674a-cab5-4d1e-a7eb-5c5a561f1e01"},"vehicle_type_id":"4","last_reported":1747296916,"current_range_meters":22400,"station_id":"ce4bhoh2rcd13ifvqh5g","pricing_plan_id":"cebpf4jnsgd1na2vs0mg"},{"bike_id":"05584ee2-64b4-4564-9bfb-249b44cffc9a","system_id":"levelo_inurba_marseille","lat":43.27426,"lon":5.39421,"is_reserved":false,"is_disabled":false,"rental_uris":{"android":"levelo://app?vid=05584ee2-64b4-4564-9bfb-249b44cffc9a","ios":"levelo://app?vid=05584ee2-64b4-4564-9bfb-249b44cffc9a"},"vehicle_type_id":"4","last_reported":1747296916,"current_range_meters":22800,"station_id":"","pricing_plan_id":"cebpf4jnsgd1na2vs0mg"},{"bike_id":"30739857-c22e-4292-938e-e25f1ce44afb","system_id":"levelo_inurba_marseille","lat":43.30905,"lon":5.36838,"is_reserved":false,"is_disabled":false,"rental_uris":{"android":"levelo://app?vid=30739857-c22e-4292-938e-e25f1ce44afb","ios":"levelo://app?vid=30739857-c22e-4292-938e-e25f1ce44afb"},"vehicle_type_id":"4","last_reported":1747296916,"current_range_meters":22800,"station_id":"ce4bgn92rcd13ifvqbvg","pricing_plan_id":"cebpf4jnsgd1na2vs0mg"},{"bike_id":"9a82b547-68ad-4121-9885-47161bdc577e","system_id":"levelo_inurba_marseille","lat":43.30552,"lon":5.36698,"is_reserved":false,"is_disabled":false,"rental_uris":{"android":"levelo://app?vid=9a82b547-68ad-4121-9885-47161bdc577e","ios":"levelo://app?vid=9a82b547-68ad-4121-9885-47161bdc577e"},"vehicle_type_id":"4","last_reported":1747296916,"current_range_meters":22800,"station_id":"ce4bgrp2rcd13ifvqc9g","pricing_plan_id":"cebpf4jnsgd1na2vs0mg"},{"bike_id":"03312a69-05a5-48a1-b29d-ec6c4f466166","system_id":"levelo_inurba_marseille","lat":43.30577,"lon":5.36519,"is_reserved":false,"is_disabled":false,"rental_uris":{"android":"levelo://app?vid=03312a69-05a5-48a1-b29d-ec6c4f466166","ios":"levelo://app?vid=03312a69-05a5-48a1-b29d-ec6c4f466166"},"vehicle_type_id":"4","last_reported":1747296916,"current_range_meters":22800,"station_id":"ce4bgs12rcd13ifvqcag","pricing_plan_id":"cebpf4jnsgd1na2vs0mg"},{"bike_id":"06be7454-cedf-4c70-8187-d848c8490f94","system_id":"levelo_inurba_marseille","lat":43.31328,"lon":5.39693,"is_reserved":false,"is_disabled":false,"rental_uris":{"android":"levelo://app?vid=06be7454-cedf-4c70-8187-d848c8490f94","ios":"levelo://app?vid=06be7454-cedf-4c70-8187-d848c8490f94"},"vehicle_type_id":"4","last_reported":1747296916,"current_range_meters":22800,"station_id":"ce4bgvp2rcd13ifvqcu0","pricing_plan_id":"cebpf4jnsgd1na2vs0mg"},{"bike_id":"2c74e920-6cc2-4a77-ab63-b5f659541f9e","system_id":"levelo_inurba_marseille","lat":43.2798,"lon":5.38739,"is_reserved":false,"is_disabled":false,"rental_uris":{"android":"levelo://app?vid=2c74e920-6cc2-4a77-ab63-b5f659541f9e","ios":"levelo://app?vid=2c74e920-6cc2-4a77-ab63-b5f659541f9e"},"vehicle_type_id":"4","last_reported":1747296916,"current_range_meters":22800,"station_id":"ce4bhg12rcd13ifvqf80","pricing_plan_id":"cebpf4jnsgd1na2vs0mg"},{"bike_id":"9a5cd817-6f5d-407b-bb70-7de79bc57d00","system_id":"levelo_inurba_marseille","lat":43.25934,"lon":5.40908,"is_reserved":false,"is_disabled":false,"rental_uris":{"android":"levelo://app?vid=9a5cd817-6f5d-407b-bb70-7de79bc57d00","ios":"levelo://app?vid=9a5cd817-6f5d-407b-bb70-7de79bc57d00"},"vehicle_type_id":"4","last_reported":1747296916,"current_range_meters":22800,"station_id":"ce4bhm92rcd13ifvqglg","pricing_plan_id":"cebpf4jnsgd1na2vs0mg"},{"bike_id":"6d46ab71-ee0d-445f-8501-9c9efc27704a","system_id":"levelo_inurba_marseille","lat":43.24176,"lon":5.39721,"is_reserved":false,"is_disabled":false,"rental_uris":{"android":"levelo://app?vid=6d46ab71-ee0d-445f-8501-9c9efc27704a","ios":"levelo://app?vid=6d46ab71-ee0d-445f-8501-9c9efc27704a"},"vehicle_type_id":"4","last_reported":1747296916,"current_range_meters":22800,"station_id":"ce4bhn12rcd13ifvqgpg","pricing_plan_id":"cebpf4jnsgd1na2vs0mg"},{"bike_id":"e8104d9b-8522-4681-90e8-f93e731e5b01","system_id":"levelo_inurba_marseille","lat":43.24076,"lon":5.37755,"is_reserved":false,"is_disabled":false,"rental_uris":{"android":"levelo://app?vid=e8104d9b-8522-4681-90e8-f93e731e5b01","ios":"levelo://app?vid=e8104d9b-8522-4681-90e8-f93e731e5b01"},"vehicle_type_id":"4","last_reported":1747296916,"current_range_meters":22800,"station_id":"ce4bhnp2rcd13ifvqgvg","pricing_plan_id":"cebpf4jnsgd1na2vs0mg"},{"bike_id":"7bfa850e-d1f8-4633-8140-5a3010650b99","system_id":"levelo_inurba_marseille","lat":43.3108,"lon":5.42432,"is_reserved":false,"is_disabled":false,"rental_uris":{"android":"levelo://app?vid=7bfa850e-d1f8-4633-8140-5a3010650b99","ios":"levelo://app?vid=7bfa850e-d1f8-4633-8140-5a3010650b99"},"vehicle_type_id":"4","last_reported":1747296916,"current_range_meters":22800,"station_id":"ce4bhp92rcd13ifvqhag","pricing_plan_id":"cebpf4jnsgd1na2vs0mg"},{"bike_id":"f2ce0a18-73fa-4232-a56a-0e46dc76e2d5","system_id":"levelo_inurba_marseille","lat":43.31876,"lon":5.40739,"is_reserved":false,"is_disabled":false,"rental_uris":{"android":"levelo://app?vid=f2ce0a18-73fa-4232-a56a-0e46dc76e2d5","ios":"levelo://app?vid=f2ce0a18-73fa-4232-a56a-0e46dc76e2d5"},"vehicle_type_id":"4","last_reported":1747296916,"current_range_meters":22800,"station_id":"ce4bhq12rcd13ifvqhig","pricing_plan_id":"cebpf4jnsgd1na2vs0mg"},{"bike_id":"b68c6ff7-1f1c-4f7d-9041-9d51ea43e3d5","system_id":"levelo_inurba_marseille","lat":43.32478,"lon":5.36547,"is_reserved":false,"is_disabled":false,"rental_uris":{"android":"levelo://app?vid=b68c6ff7-1f1c-4f7d-9041-9d51ea43e3d5","ios":"levelo://app?vid=b68c6ff7-1f1c-4f7d-9041-9d51ea43e3d5"},"vehicle_type_id":"4","last_reported":1747296916,"current_range_meters":22800,"station_id":"ce4bhs12rcd13ifvqhvg","pricing_plan_id":"cebpf4jnsgd1na2vs0mg"},{"bike_id":"222e640d-4309-4e36-a781-2dad2f594c15","system_id":"levelo_inurba_marseille","lat":43.225,"lon":5.34778,"is_reserved":false,"is_disabled":false,"rental_uris":{"android":"levelo://app?vid=222e640d-4309-4e36-a781-2dad2f594c15","ios":"levelo://app?vid=222e640d-4309-4e36-a781-2dad2f594c15"},"vehicle_type_id":"4","last_reported":1747296916,"current_range_meters":22800,"station_id":"st_cvj5dfep6f1abm77gieg","pricing_plan_id":"cebpf4jnsgd1na2vs0mg"},{"bike_id":"605a8236-fd7f-4027-b64d-a8ad28e80b72","system_id":"levelo_inurba_marseille","lat":43.29909,"lon":5.38142,"is_reserved":false,"is_disabled":false,"rental_uris":{"android":"levelo://app?vid=605a8236-fd7f-4027-b64d-a8ad28e80b72","ios":"levelo://app?vid=605a8236-fd7f-4027-b64d-a8ad28e80b72"},"vehicle_type_id":"4","last_reported":1747296916,"current_range_meters":23200,"station_id":"ce4bgj12rcd13ifvqbc0","pricing_plan_id":"cebpf4jnsgd1na2vs0mg"},{"bike_id":"eea2a12e-131a-4bbc-84e3-f725994018fb","system_id":"levelo_inurba_marseille","lat":43.312318,"lon":5.368227,"is_reserved":false,"is_disabled":false,"rental_uris":{"android":"levelo://app?vid=eea2a12e-131a-4bbc-84e3-f725994018fb","ios":"levelo://app?vid=eea2a12e-131a-4bbc-84e3-f725994018fb"},"vehicle_type_id":"4","last_reported":1747296916,"current_range_meters":23200,"station_id":"ce4bgl92rcd13ifvqbq0","pricing_plan_id":"cebpf4jnsgd1na2vs0mg"},{"bike_id":"7bfe3070-8935-4c63-9e5f-e953d5dfb638","system_id":"levelo_inurba_marseille","lat":43.31261,"lon":5.36844,"is_reserved":false,"is_disabled":false,"rental_uris":{"android":"levelo://app?vid=7bfe3070-8935-4c63-9e5f-e953d5dfb638","ios":"levelo://app?vid=7bfe3070-8935-4c63-9e5f-e953d5dfb638"},"vehicle_type_id":"4","last_reported":1747296916,"current_range_meters":23200,"station_id":"ce4bgl92rcd13ifvqbq0","pricing_plan_id":"cebpf4jnsgd1na2vs0mg"},{"bike_id":"602851f4-bbed-435a-b60e-0d62ddc6dc54","system_id":"levelo_inurba_marseille","lat":43.30522,"lon":5.36696,"is_reserved":false,"is_disabled":false,"rental_uris":{"android":"levelo://app?vid=602851f4-bbed-435a-b60e-0d62ddc6dc54","ios":"levelo://app?vid=602851f4-bbed-435a-b60e-0d62ddc6dc54"},"vehicle_type_id":"4","last_reported":1747296916,"current_range_meters":23200,"station_id":"ce4bgrp2rcd13ifvqc9g","pricing_plan_id":"cebpf4jnsgd1na2vs0mg"},{"bike_id":"816e5abd-7b32-4a49-b5fc-bd35bb53923f","system_id":"levelo_inurba_marseille","lat":43.3079,"lon":5.38155,"is_reserved":false,"is_disabled":false,"rental_uris":{"android":"levelo://app?vid=816e5abd-7b32-4a49-b5fc-bd35bb53923f","ios":"levelo://app?vid=816e5abd-7b32-4a49-b5fc-bd35bb53923f"},"vehicle_type_id":"4","last_reported":1747296916,"current_range_meters":23200,"station_id":"ce4bgt12rcd13ifvqce0","pricing_plan_id":"cebpf4jnsgd1na2vs0mg"},{"bike_id":"a7afff4c-a9bb-49da-a9e5-0ef4c14ee598","system_id":"levelo_inurba_marseille","lat":43.291018,"lon":5.381348,"is_reserved":false,"is_disabled":false,"rental_uris":{"android":"levelo://app?vid=a7afff4c-a9bb-49da-a9e5-0ef4c14ee598","ios":"levelo://app?vid=a7afff4c-a9bb-49da-a9e5-0ef4c14ee598"},"vehicle_type_id":"4","last_reported":1747296916,"current_range_meters":23200,"station_id":"ce4bh512rcd13ifvqe2g","pricing_plan_id":"cebpf4jnsgd1na2vs0mg"},{"bike_id":"4ce0641f-e22d-4d4a-af00-714365851fb9","system_id":"levelo_inurba_marseille","lat":43.26687,"lon":5.38275,"is_reserved":false,"is_disabled":false,"rental_uris":{"android":"levelo://app?vid=4ce0641f-e22d-4d4a-af00-714365851fb9","ios":"levelo://app?vid=4ce0641f-e22d-4d4a-af00-714365851fb9"},"vehicle_type_id":"4","last_reported":1747296916,"current_range_meters":23200,"station_id":"ce4bhg92rcd13ifvqf90","pricing_plan_id":"cebpf4jnsgd1na2vs0mg"},{"bike_id":"16c04f0e-1469-4484-a2bf-6839c25190d2","system_id":"levelo_inurba_marseille","lat":43.2315,"lon":5.43719,"is_reserved":false,"is_disabled":false,"rental_uris":{"android":"levelo://app?vid=16c04f0e-1469-4484-a2bf-6839c25190d2","ios":"levelo://app?vid=16c04f0e-1469-4484-a2bf-6839c25190d2"},"vehicle_type_id":"4","last_reported":1747296916,"current_range_meters":23200,"station_id":"ce4bhmp2rcd13ifvqgog","pricing_plan_id":"cebpf4jnsgd1na2vs0mg"},{"bike_id":"c078b2fc-f367-4ad3-81ec-126aae64440d","system_id":"levelo_inurba_marseille","lat":43.231506,"lon":5.437264,"is_reserved":false,"is_disabled":false,"rental_uris":{"android":"levelo://app?vid=c078b2fc-f367-4ad3-81ec-126aae64440d","ios":"levelo://app?vid=c078b2fc-f367-4ad3-81ec-126aae64440d"},"vehicle_type_id":"4","last_reported":1747296916,"current_range_meters":23200,"station_id":"ce4bhmp2rcd13ifvqgog","pricing_plan_id":"cebpf4jnsgd1na2vs0mg"},{"bike_id":"2be3e8c9-d2c3-4767-a27b-6d9b4d9a6494","system_id":"levelo_inurba_marseille","lat":43.27496,"lon":5.42454,"is_reserved":false,"is_disabled":false,"rental_uris":{"android":"levelo://app?vid=2be3e8c9-d2c3-4767-a27b-6d9b4d9a6494","ios":"levelo://app?vid=2be3e8c9-d2c3-4767-a27b-6d9b4d9a6494"},"vehicle_type_id":"4","last_reported":1747296916,"current_range_meters":23200,"station_id":"ce4bhn92rcd13ifvqgrg","pricing_plan_id":"cebpf4jnsgd1na2vs0mg"},{"bike_id":"cb36dca1-30c0-4a72-bead-2ad4f65ad08b","system_id":"levelo_inurba_marseille","lat":43.2407,"lon":5.37762,"is_reserved":false,"is_disabled":false,"rental_uris":{"android":"levelo://app?vid=cb36dca1-30c0-4a72-bead-2ad4f65ad08b","ios":"levelo://app?vid=cb36dca1-30c0-4a72-bead-2ad4f65ad08b"},"vehicle_type_id":"4","last_reported":1747296916,"current_range_meters":23200,"station_id":"ce4bhnp2rcd13ifvqgvg","pricing_plan_id":"cebpf4jnsgd1na2vs0mg"},