{"last_updated":1713982146,"ttl":30,"version":"2.2","data":{"bikes":[{"bike_id":"428c22d3-133d-4dfe-8af1-7c77b528f3b8","system_id":"levelo_inurba_marseille","lat":43.312239,"lon":5.368562,"is_reserved":false,"is_disabled":false,"rental_uris":{"android":"levelo://app?vid=428c22d3-133d-4dfe-8af1-7c77b528f3b8","ios":"levelo://app?vid=428c22d3-133d-4dfe-8af1-7c77b528f3b8"},"vehicle_type_id":"4","last_reported":1713982146,"current_range_meters":21600,"station_id":"ce4bgl92rcd13ifvqbq0","pricing_plan_id":"cebpf4jnsgd1na2vs0mg"},{"bike_id":"b9b337f6-be67-4a5a-a12c-d0ab17adb992","system_id":"levelo_inurba_marseille","lat":43.314811,"lon":5.373103,"is_reserved":false,"is_disabled":false,"rental_uris":{"android":"levelo://app?vid=b9b337f6-be67-4a5a-a12c-d0ab17adb992","ios":"levelo://app?vid=b9b337f6-be67-4a5a-a12c-d0ab17adb992"},"vehicle_type_id":"4","last_reported":1713982146,"current_range_meters":8000,"station_id":"ce4bgt12rcd13ifvqcd0","pricing_plan_id":"cebpf4jnsgd1na2vs0mg"},{"bike_id":"b0c1f2f3-1c49-4e9c-bef5-9e3c5cccfa2a","system_id":"levelo_inurba_marseille","lat":43.314811,"lon":5.373103,"is_reserved":false,"is_disabled":false,"rental_uris":{"android":"levelo://app?vid=b0c1f2f3-1c49-4e9c-bef5-9e3c5cccfa2a","ios":"levelo://app?vid=b0c1f2f3-1c49-4e9c-bef5-9e3c5cccfa2a"},"vehicle_type_id":"4","last_reported":1713982146,"current_range_meters":16000,"station_id":"ce4bgt12rcd13ifvqcd0","pricing_plan_id":"cebpf4jnsgd1na2vs0mg"},{"bike_id":"5419c4b2-bbe5-485c-959f-0b865ab3fd83","system_id":"levelo_inurba_marseille","lat":43.314811,"lon":5.373103,"is_reserved":false,"is_disabled":false,"rental_uris":{"android":"levelo://app?vid=5419c4b2-bbe5-485c-959f-0b865ab3fd83","ios":"levelo://app?vid=5419c4b2-bbe5-485c-959f-0b865ab3fd83"},"vehicle_type_id":"4","last_reported":1713982146,"current_range_meters":7200,"station_id":"ce4bgt12rcd13ifvqcd0","pricing_plan_id":"cebpf4jnsgd1na2vs0mg"},{"bike_id":"ae2c728d-eb34-4f40-85fe-65912ee35997","system_id":"levelo_inurba_marseille","lat":43.314811,"lon":5.373103,"is_reserved":false,"is_disabled":false,"rental_uris":{"android":"levelo://app?vid=ae2c728d-eb34-4f40-85fe-65912ee35997","ios":"levelo://app?vid=ae2c728d-eb34-4f40-85fe-65912ee35997"},"vehicle_type_id":"4","last_reported":1713982146,"current_range_meters":28400,"station_id":"ce4bgt12rcd13ifvqcd0","pricing_plan_id":"cebpf4jnsgd1na2vs0mg"},{"bike_id":"c95f7271-0cfe-4112-a861-a783e421de61","system_id":"levelo_inurba_marseille","lat":43.314811,"lon":5.373103,"is_reserved":false,"is_disabled":false,"rental_uris":{"android":"levelo://app?vid=c95f7271-0cfe-4112-a861-a783e421de61","ios":"levelo://app?vid=c95f7271-0cfe-4112-a861-a783e421de61"},"vehicle_type_id":"4","last_reported":1713982146,"current_range_meters":17600,"station_id":"ce4bgt12rcd13ifvqcd0","pricing_plan_id":"cebpf4jnsgd1na2vs0mg"},{"bike_id":"3525d61b-e048-4e0e-8462-00fc7a8df936","system_id":"levelo_inurba_marseille","lat":43.314811,"lon":5.373103,"is_reserved":false,"is_disabled":false,"rental_uris":{"android":"levelo://app?vid=3525d61b-e048-4e0e-8462-00fc7a8df936","ios":"levelo://app?vid=3525d61b-e048-4e0e-8462-00fc7a8df936"},"vehicle_type_id":"4","last_reported":1713982146,"current_range_meters":400,"station_id":"ce4bgt12rcd13ifvqcd0","pricing_plan_id":"cebpf4jnsgd1na2vs0mg"},{"bike_id":"a113567c-45b1-4474-b745-21e3e9f60288","system_id":"levelo_inurba_marseille","lat":43.314811,"lon":5.373104,"is_reserved":false,"is_disabled":false,"rental_uris":{"android":"levelo://app?vid=a113567c-45b1-4474-b745-21e3e9f60288","ios":"levelo://app?vid=a113567c-45b1-4474-b745-21e3e9f60288"},"vehicle_type_id":"4","last_reported":1713982146,"current_range_meters":17600,"station_id":"ce4bgt12rcd13ifvqcd0","pricing_plan_id":"cebpf4jnsgd1na2vs0mg"},{"bike_id":"aa2879a2-1874-4feb-a376-91de2da5e811","system_id":"levelo_inurba_marseille","lat":43.308875,"lon":5.371915,"is_reserved":false,"is_disabled":false,"rental_uris":{"android":"levelo://app?vid=aa2879a2-1874-4feb-a376-91de2da5e811","ios":"levelo://app?vid=aa2879a2-1874-4feb-a376-91de2da5e811"},"vehicle_type_id":"4","last_reported":1713982146,"current_range_meters":0,"station_id":"ce4bguh2rcd13ifvqckg","pricing_plan_id":"cebpf4jnsgd1na2vs0mg"},{"bike_id":"a1e6c13f-da0a-4707-babb-43ff0789a407","system_id":"levelo_inurba_marseille","lat":43.311131,"lon":5.377651,"is_reserved":false,"is_disabled":false,"rental_uris":{"android":"levelo://app?vid=a1e6c13f-da0a-4707-babb-43ff0789a407","ios":"levelo://app?vid=a1e6c13f-da0a-4707-babb-43ff0789a407"},"vehicle_type_id":"4","last_reported":1713982146,"current_range_meters":28400,"station_id":"ce4bgt92rcd13ifvqcg0","pricing_plan_id":"cebpf4jnsgd1na2vs0mg"},{"bike_id":"ee1d9cb6-8377-4b46-9350-d3c1eece8f89","system_id":"levelo_inurba_marseille","lat":43.30539,"lon":5.36557,"is_reserved":false,"is_disabled":false,"rental_uris":{"android":"levelo://app?vid=ee1d9cb6-8377-4b46-9350-d3c1eece8f89","ios":"levelo://app?vid=ee1d9cb6-8377-4b46-9350-d3c1eece8f89"},"vehicle_type_id":"4","last_reported":1713982146,"current_range_meters":5200,"station_id":"ce4bhg12rcd13ifvqf60","pricing_plan_id":"cebpf4jnsgd1na2vs0mg"},{"bike_id":"6e0029d6-dd8d-4687-98e2-7232279a09cd","system_id":"levelo_inurba_marseille","lat":43.310613,"lon":5.376974,"is_reserved":false,"is_disabled":false,"rental_uris":{"android":"levelo://app?vid=6e0029d6-dd8d-4687-98e2-7232279a09cd","ios":"levelo://app?vid=6e0029d6-dd8d-4687-98e2-7232279a09cd"},"vehicle_type_id":"4","last_reported":1713982146,"current_range_meters":8400,"station_id":"","pricing_plan_id":"cebpf4jnsgd1na2vs0mg"},{"bike_id":"0cbf6091-7da1-4e7b-81da-11090b34306f","system_id":"levelo_inurba_marseille","lat":43.311125,"lon":5.377624,"is_reserved":false,"is_disabled":false,"rental_uris":{"android":"levelo://app?vid=0cbf6091-7da1-4e7b-81da-11090b34306f","ios":"levelo://app?vid=0cbf6091-7da1-4e7b-81da-11090b34306f"},"vehicle_type_id":"4","last_reported":1713982146,"current_range_meters":24400,"station_id":"ce4bgt92rcd13ifvqcg0","pricing_plan_id":"cebpf4jnsgd1na2vs0mg"},{"bike_id":"bcf8f624-cbff-4d6b-bea5-1afdcf732905","system_id":"levelo_inurba_marseille","lat":43.311125,"lon":5.377624,"is_reserved":false,"is_disabled":false,"rental_uris":{"android":"levelo://app?vid=bcf8f624-cbff-4d6b-bea5-1afdcf732905","ios":"levelo://app?vid=bcf8f624-cbff-4d6b-bea5-1afdcf732905"},"vehicle_type_id":"4","last_reported":1713982146,"current_range_meters":25200,"station_id":"ce4bgt92rcd13ifvqcg0","pricing_plan_id":"cebpf4jnsgd1na2vs0mg"},{"bike_id":"fd4340d1-484c-46ba-9282-ae50fd3ef3ce","system_id":"levelo_inurba_marseille","lat":43.317075,"lon":5.377367,"is_reserved":false,"is_disabled":false,"rental_uris":{"android":"levelo://app?vid=fd4340d1-484c-46ba-9282-ae50fd3ef3ce","ios":"levelo://app?vid=fd4340d1-484c-46ba-9282-ae50fd3ef3ce"},"vehicle_type_id":"4","last_reported":1713982146,"current_range_meters":12800,"station_id":"ce4bgth2rcd13ifvqch0","pricing_plan_id":"cebpf4jnsgd1na2vs0mg"},{"bike_id":"429fca6f-8ab1-47d3-8299-01861bd1cc6a","system_id":"levelo_inurba_marseille","lat":43.317075,"lon":5.377367,"is_reserved":false,"is_disabled":false,"rental_uris":{"android":"levelo://app?vid=429fca6f-8ab1-47d3-8299-01861bd1cc6a","ios":"levelo://app?vid=429fca6f-8ab1-47d3-8299-01861bd1cc6a"},"vehicle_type_id":"4","last_reported":1713982146,"current_range_meters":27200,"station_id":"ce4bgth2rcd13ifvqch0","pricing_plan_id":"cebpf4jnsgd1na2vs0mg"},{"bike_id":"c0f6efc7-9010-4fc7-b148-2fbe5ea2ec1f","system_id":"levelo_inurba_marseille","lat":43.317075,"lon":5.377367,"is_reserved":false,"is_disabled":false,"rental_uris":{"android":"levelo://app?vid=c0f6efc7-9010-4fc7-b148-2fbe5ea2ec1f","ios":"levelo://app?vid=c0f6efc7-9010-4fc7-b148-2fbe5ea2ec1f"},"vehicle_type_id":"4","last_reported":1713982146,"current_range_meters":29200,"station_id":"ce4bgth2rcd13ifvqch0","pricing_plan_id":"cebpf4jnsgd1na2vs0mg"},{"bike_id":"1b302725-7e5f-477f-ae3c-4d1b88ddee56","system_id":"levelo_inurba_marseille","lat":43.315293,"lon":5.380349,"is_reserved":false,"is_disabled":false,"rental_uris":{"android":"levelo://app?vid=1b302725-7e5f-477f-ae3c-4d1b88ddee56","ios":"levelo://app?vid=1b302725-7e5f-477f-ae3c-4d1b88ddee56"},"vehicle_type_id":"4","last_reported":1713982146,"current_range_meters":1600,"station_id":"ce4bhsp2rcd13ifvqi50","pricing_plan_id":"cebpf4jnsgd1na2vs0mg"},{"bike_id":"44613a41-e9a6-4622-b03f-9aaa32d62c61","system_id":"levelo_inurba_marseille","lat":43.314811,"lon":5.373103,"is_reserved":false,"is_disabled":false,"rental_uris":{"android":"levelo://app?vid=44613a41-e9a6-4622-b03f-9aaa32d62c61","ios":"levelo://app?vid=44613a41-e9a6-4622-b03f-9aaa32d62c61"},"vehicle_type_id":"4","last_reported":1713982146,"current_range_meters":5200,"station_id":"ce4bgt12rcd13ifvqcd0","pricing_plan_id":"cebpf4jnsgd1na2vs0mg"},{"bike_id":"c2e1bbf5-063b-48f4-81da-0c1d8e4b6928","system_id":"levelo_inurba_marseille","lat":43.315289,"lon":5.380349,"is_reserved":false,"is_disabled":false,"rental_uris":{"android":"levelo://app?vid=c2e1bbf5-063b-48f4-81da-0c1d8e4b6928","ios":"levelo://app?vid=c2e1bbf5-063b-48f4-81da-0c1d8e4b6928"},"vehicle_type_id":"4","last_reported":1713982146,"current_range_meters":16800,"station_id":"ce4bhsp2rcd13ifvqi50","pricing_plan_id":"cebpf4jnsgd1na2vs0mg"},{"bike_id":"f82abc93-8401-4d4c-b760-b35ce10d19a1","system_id":"levelo_inurba_marseille","lat":43.315293,"lon":5.380349,"is_reserved":false,"is_disabled":false,"rental_uris":{"android":"levelo://app?vid=f82abc93-8401-4d4c-b760-b35ce10d19a1","ios":"levelo://app?vid=f82abc93-8401-4d4c-b760-b35ce10d19a1"},"vehicle_type_id":"4","last_reported":1713982146,"current_range_meters":30400,"station_id":"ce4bhsp2rcd13ifvqi50","pricing_plan_id":"cebpf4jnsgd1na2vs0mg"},{"bike_id":"98bf3e86-aa0a-447a-91be-940394f7a5fe","system_id":"levelo_inurba_marseille","lat":43.315293,"lon":5.380349,"is_reserved":false,"is_disabled":false,"rental_uris":{"android":"levelo://app?vid=98bf3e86-aa0a-447a-91be-940394f7a5fe","ios":"levelo://app?vid=98bf3e86-aa0a-447a-91be-940394f7a5fe"},"vehicle_type_id":"4","last_reported":1713982146,"current_range_meters":16800,"station_id":"ce4bhsp2rcd13ifvqi50","pricing_plan_id":"cebpf4jnsgd1na2vs0mg"},{"bike_id":"c532d4c8-81ce-47c3-adde-43140421b024","system_id":"levelo_inurba_marseille","lat":43.315289,"lon":5.380349,"is_reserved":false,"is_disabled":false,"rental_uris":{"android":"levelo://app?vid=c532d4c8-81ce-47c3-adde-43140421b024","ios":"levelo://app?vid=c532d4c8-81ce-47c3-adde-43140421b024"},"vehicle_type_id":"4","last_reported":1713982146,"current_range_meters":24000,"station_id":"ce4bhsp2rcd13ifvqi50","pricing_plan_id":"cebpf4jnsgd1na2vs0mg"},{"bike_id":"1b890700-62f6-4b75-94de-fcf2f19bc218","system_id":"levelo_inurba_marseille","lat":43.315289,"lon":5.380349,"is_reserved":false,"is_disabled":false,"rental_uris":{"android":"levelo://app?vid=1b890700-62f6-4b75-94de-fcf2f19bc218","ios":"levelo://app?vid=1b890700-62f6-4b75-94de-fcf2f19bc218"},"vehicle_type_id":"4","last_reported":1713982146,"current_range_meters":2800,"station_id":"ce4bhsp2rcd13ifvqi50","pricing_plan_id":"cebpf4jnsgd1na2vs0mg"},{"bike_id":"57756cfe-16b0-4d52-ad7d-deca9364c2dd","system_id":"levelo_inurba_marseille","lat":43.313571,"lon":5.384829,"is_reserved":false,"is_disabled":false,"rental_uris":{"android":"levelo://app?vid=57756cfe-16b0-4d52-ad7d-deca9364c2dd","ios":"levelo://app?vid=57756cfe-16b0-4d52-ad7d-deca9364c2dd"},"vehicle_type_id":"4","last_reported":1713982146,"current_range_meters":5200,"station_id":"ce4bgt92rcd13ifvqcf0","pricing_plan_id":"cebpf4jnsgd1na2vs0mg"},{"bike_id":"07999ec4-a15c-47d3-989b-40dcfb01d019","system_id":"levelo_inurba_marseille","lat":43.308012,"lon":5.381511,"is_reserved":false,"is_disabled":false,"rental_uris":{"android":"levelo://app?vid=07999ec4-a15c-47d3-989b-40dcfb01d019","ios":"levelo://app?vid=07999ec4-a15c-47d3-989b-40dcfb01d019"},"vehicle_type_id":"4","last_reported":1713982146,"current_range_meters":3200,"station_id":"ce4bgt12rcd13ifvqce0","pricing_plan_id":"cebpf4jnsgd1na2vs0mg"},{"bike_id":"58b77dff-3e02-489f-9fbd-10f8e0951c32","system_id":"levelo_inurba_marseille","lat":43.324771,"lon":5.36557,"is_reserved":false,"is_disabled":false,"rental_uris":{"android":"levelo://app?vid=58b77dff-3e02-489f-9fbd-10f8e0951c32","ios":"levelo://app?vid=58b77dff-3e02-489f-9fbd-10f8e0951c32"},"vehicle_type_id":"4","last_reported":1713982146,"current_range_meters":6400,"station_id":"ce4bhs12rcd13ifvqhvg","pricing_plan_id":"cebpf4jnsgd1na2vs0mg"},{"bike_id":"4e361820-13f4-49d6-b8ed-2e2c4b4e5acc","system_id":"levelo_inurba_marseille","lat":43.304606,"lon":5.379026,"is_reserved":false,"is_disabled":false,"rental_uris":{"android":"levelo://app?vid=4e361820-13f4-49d6-b8ed-2e2c4b4e5acc","ios":"levelo://app?vid=4e361820-13f4-49d6-b8ed-2e2c4b4e5acc"},"vehicle_type_id":"4","last_reported":1713982146,"current_range_meters":0,"station_id":"ce4bgup2rcd13ifvqcn0","pricing_plan_id":"cebpf4jnsgd1na2vs0mg"},{"bike_id":"57123f3b-0f3e-4e36-8d01-f70e6d005086","system_id":"levelo_inurba_marseille","lat":43.324771,"lon":5.36557,"is_reserved":false,"is_disabled":false,"rental_uris":{"android":"levelo://app?vid=57123f3b-0f3e-4e36-8d01-f70e6d005086","ios":"levelo://app?vid=57123f3b-0f3e-4e36-8d01-f70e6d005086"},"vehicle_type_id":"4","last_reported":1713982146,"current_range_meters":0,"station_id":"ce4bhs12rcd13ifvqhvg","pricing_plan_id":"cebpf4jnsgd1na2vs0mg"},{"bike_id":"aa735bb1-5fa4-4c47-8e08-b490300108c0","system_id":"levelo_inurba_marseille","lat":43.324771,"lon":5.36557,"is_reserved":false,"is_disabled":false,"rental_uris":{"android":"levelo://app?vid=aa735bb1-5fa4-4c47-8e08-b490300108c0","ios":"levelo://app?vid=aa735bb1-5fa4-4c47-8e08-b490300108c0"},"vehicle_type_id":"4","last_reported":1713982146,"current_range_meters":16000,"station_id":"ce4bhs12rcd13ifvqhvg","pricing_plan_id":"cebpf4jnsgd1na2vs0mg"},{"bike_id":"ee29d8bc-6673-4fe8-812a-51e8bcf1b9ef","system_id":"levelo_inurba_marseille","lat":43.272124,"lon":5.391768,"is_reserved":false,"is_disabled":false,"rental_uris":{"android":"levelo://app?vid=ee29d8bc-6673-4fe8-812a-51e8bcf1b9ef","ios":"levelo://app?vid=ee29d8bc-6673-4fe8-812a-51e8bcf1b9ef"},"vehicle_type_id":"4","last_reported":1713982146,"current_range_meters":7200,"station_id":"ce4bhhp2rcd13ifvqfm0","pricing_plan_id":"cebpf4jnsgd1na2vs0mg"},{"bike_id":"dea28083-d92d-4f3b-9f85-66961a9dcc09","system_id":"levelo_inurba_marseille","lat":43.3107,"lon":5.38356,"is_reserved":false,"is_disabled":false,"rental_uris":{"android":"levelo://app?vid=dea28083-d92d-4f3b-9f85-66961a9dcc09","ios":"levelo://app?vid=dea28083-d92d-4f3b-9f85-66961a9dcc09"},"vehicle_type_id":"4","last_reported":1713982146,"current_range_meters":0,"station_id":"ce4bgv92rcd13ifvqcr0","pricing_plan_id":"cebpf4jnsgd1na2vs0mg"},{"bike_id":"da38b3fe-7d0a-4add-ad95-8723215f86ff","system_id":"levelo_inurba_marseille","lat":43.30286,"lon":5.377,"is_reserved":false,"is_disabled":false,"rental_uris":{"android":"levelo://app?vid=da38b3fe-7d0a-4add-ad95-8723215f86ff","ios":"levelo://app?vid=da38b3fe-7d0a-4add-ad95-8723215f86ff"},"vehicle_type_id":"4","last_reported":1713982146,"current_range_meters":0,"station_id":"ce4bguh2rcd13ifvqcj0","pricing_plan_id":"cebpf4jnsgd1na2vs0mg"},{"bike_id":"22378714-76c2-46f0-9619-bdbeae4cd8df","system_id":"levelo_inurba_marseille","lat":43.319935,"lon":5.381699,"is_reserved":false,"is_disabled":false,"rental_uris":{"android":"levelo://app?vid=22378714-76c2-46f0-9619-bdbeae4cd8df","ios":"levelo://app?vid=22378714-76c2-46f0-9619-bdbeae4cd8df"},"vehicle_type_id":"4","last_reported":1713982146,"current_range_meters":24000,"station_id":"ce4bhr12rcd13ifvqhpg","pricing_plan_id":"cebpf4jnsgd1na2vs0mg"},{"bike_id":"12cf1fda-5190-40c5-b284-97f064be11c3","system_id":"levelo_inurba_marseille","lat":43.319935,"lon":5.381699,"is_reserved":false,"is_disabled":false,"rental_uris":{"android":"levelo://app?vid=12cf1fda-5190-40c5-b284-97f064be11c3","ios":"levelo://app?vid=12cf1fda-5190-40c5-b284-97f064be11c3"},"vehicle_type_id":"4","last_reported":1713982146,"current_range_meters":7200,"station_id":"ce4bhr12rcd13ifvqhpg","pricing_plan_id":"cebpf4jnsgd1na2vs0mg"},{"bike_id":"0d298d88-138b-469f-b4e2-ca91f165c25e","system_id":"levelo_inurba_marseille","lat":43.313571,"lon":5.384829,"is_reserved":false,"is_disabled":false,"rental_uris":{"android":"levelo://app?vid=0d298d88-138b-469f-b4e2-ca91f165c25e","ios":"levelo://app?vid=0d298d88-138b-469f-b4e2-ca91f165c25e"},"vehicle_type_id":"4","last_reported":1713982146,"current_range_meters":12800,"station_id":"ce4bgt92rcd13ifvqcf0","pricing_plan_id":"cebpf4jnsgd1na2vs0mg"},{"bike_id":"f01e9e51-0f35-41f9-b003-25419c5df645","system_id":"levelo_inurba_marseille","lat":43.313571,"lon":5.384829,"is_reserved":false,"is_disabled":false,"rental_uris":{"android":"levelo://app?vid=f01e9e51-0f35-41f9-b003-25419c5df645","ios":"levelo://app?vid=f01e9e51-0f35-41f9-b003-25419c5df645"},"vehicle_type_id":"4","last_reported":1713982146,"current_range_meters":15600,"station_id":"ce4bgt92rcd13ifvqcf0","pricing_plan_id":"cebpf4jnsgd1na2vs0mg"},{"bike_id":"efa9854a-3874-4cf6-9847-96bf1e02c252","system_id":"levelo_inurba_marseille","lat":43.313571,"lon":5.384829,"is_reserved":false,"is_disabled":false,"rental_uris":{"android":"levelo://app?vid=efa9854a-3874-4cf6-9847-96bf1e02c252","ios":"levelo://app?vid=efa9854a-3874-4cf6-9847-96bf1e02c252"},"vehicle_type_id":"4","last_reported":1713982146,"current_range_meters":20400,"station_id":"ce4bgt92rcd13ifvqcf0","pricing_plan_id":"cebpf4jnsgd1na2vs0mg"},{"bike_id":"f5364423-52f0-47a2-85f3-f869ed8b50ea","system_id":"levelo_inurba_marseille","lat":43.313571,"lon":5.384829,"is_reserved":false,"is_disabled":false,"rental_uris":{"android":"levelo://app?vid=f5364423-52f0-47a2-85f3-f869ed8b50ea","ios":"levelo://app?vid=f5364423-52f0-47a2-85f3-f869ed8b50ea"},"vehicle_type_id":"4","last_reported":1713982146,"current_range_meters":28000,"station_id":"ce4bgt92rcd13ifvqcf0","pricing_plan_id":"cebpf4jnsgd1na2vs0mg"},{"bike_id":"d872f89f-f493-4aa5-8ad9-d28020398d1e","system_id":"levelo_inurba_marseille","lat":43.313571,"lon":5.384829,"is_reserved":false,"is_disabled":false,"rental_uris":{"android":"levelo://app?vid=d872f89f-f493-4aa5-8ad9-d28020398d1e","ios":"levelo://app?vid=d872f89f-f493-4aa5-8ad9-d28020398d1e"},"vehicle_type_id":"4","last_reported":1713982146,"current_range_meters":11600,"station_id":"ce4bgt92rcd13ifvqcf0","pricing_plan_id":"cebpf4jnsgd1na2vs0mg"},{"bike_id":"eedd7ee4-4e9b-47f9-a451-40b6ec7654de","system_id":"levelo_inurba_marseille","lat":43.299222,"lon":5.365554,"is_reserved":false,"is_disabled":false,"rental_uris":{"android":"levelo://app?vid=eedd7ee4-4e9b-47f9-a451-40b6ec7654de","ios":"levelo://app?vid=eedd7ee4-4e9b-47f9-a451-40b6ec7654de"},"vehicle_type_id":"4","last_reported":1713982146,"current_range_meters":28400,"station_id":"ce4bgm92rcd13ifvqbr0","pricing_plan_id":"cebpf4jnsgd1na2vs0mg"},{"bike_id":"1381bd0e-f916-4cfd-a2dd-cb4e14e5637d","system_id":"levelo_inurba_marseille","lat":43.299222,"lon":5.365554,"is_reserved":false,"is_disabled":false,"rental_uris":{"android":"levelo://app?vid=1381bd0e-f916-4cfd-a2dd-cb4e14e5637d","ios":"levelo://app?vid=1381bd0e-f916-4cfd-a2dd-cb4e14e5637d"},"vehicle_type_id":"4","last_reported":1713982146,"current_range_meters":10400,"station_id":"ce4bgm92rcd13ifvqbr0","pricing_plan_id":"cebpf4jnsgd1na2vs0mg"},{"bike_id":"39ba2e1c-a45d-457a-a570-79f8bece37d3","system_id":"levelo_inurba_marseille","lat":43.299222,"lon":5.365554,"is_reserved":false,"is_disabled":false,"rental_uris":{"android":"levelo://app?vid=39ba2e1c-a45d-457a-a570-79f8bece37d3","ios":"levelo://app?vid=39ba2e1c-a45d-457a-a570-79f8bece37d3"},"vehicle_type_id":"4","last_reported":1713982146,"current_range_meters":0,"station_id":"ce4bgm92rcd13ifvqbr0","pricing_plan_id":"cebpf4jnsgd1na2vs0mg"},{"bike_id":"d89845bc-ed50-4e49-9c05-161a71078821","system_id":"levelo_inurba_marseille","lat":43.299222,"lon":5.365554,"is_reserved":false,"is_disabled":false,"rental_uris":{"android":"levelo://app?vid=d89845bc-ed50-4e49-9c05-161a71078821","ios":"levelo://app?vid=d89845bc-ed50-4e49-9c05-161a71078821"},"vehicle_type_id":"4","last_reported":1713982146,"current_range_meters":15200,"station_id":"ce4bgm92rcd13ifvqbr0","pricing_plan_id":"cebpf4jnsgd1na2vs0mg"},{"bike_id":"b7d3c793-e7cb-4386-90d0-e59e88139f88","system_id":"levelo_inurba_marseille","lat":43.299624,"lon":5.372395,"is_reserved":false,"is_disabled":false,"rental_uris":{"android":"levelo://app?vid=b7d3c793-e7cb-4386-90d0-e59e88139f88","ios":"levelo://app?vid=b7d3c793-e7cb-4386-90d0-e59e88139f88"},"vehicle_type_id":"4","last_reported":1713982146,"current_range_meters":3200,"station_id":"ce4bgr92rcd13ifvqc7g","pricing_plan_id":"cebpf4jnsgd1na2vs0mg"},{"bike_id":"ed3f7130-9b06-4bd1-ad74-65c609c59b78","system_id":"levelo_inurba_marseille","lat":43.267959,"lon":5.402687,"is_reserved":false,"is_disabled":false,"rental_uris":{"android":"levelo://app?vid=ed3f7130-9b06-4bd1-ad74-65c609c59b78","ios":"levelo://app?vid=ed3f7130-9b06-4bd1-ad74-65c609c59b78"},"vehicle_type_id":"4","last_reported":1713982146,"current_range_meters":0,"station_id":"ce501612rcd8frsf0b60","pricing_plan_id":"cebpf4jnsgd1na2vs0mg"},{"bike_id":"7e3c069e-e00c-4d5a-89ca-8a63fbc8e2bd","system_id":"levelo_inurba_marseille","lat":43.313571,"lon":5.384829,"is_reserved":false,"is_disabled":false,"rental_uris":{"android":"levelo://app?vid=7e3c069e-e00c-4d5a-89ca-8a63fbc8e2bd","ios":"levelo://app?vid=7e3c069e-e00c-4d5a-89ca-8a63fbc8e2bd"},"vehicle_type_id":"4","last_reported":1713982146,"current_range_meters":3600,"station_id":"ce4bgt92rcd13ifvqcf0","pricing_plan_id":"cebpf4jnsgd1na2vs0mg"},{"bike_id":"d5604663-bcaa-49e7-9731-72195026b858","system_id":"levelo_inurba_marseille","lat":43.298433,"lon":5.362774,"is_reserved":false,"is_disabled":false,"rental_uris":{"android":"levelo://app?vid=d5604663-bcaa-49e7-9731-72195026b858","ios":"levelo://app?vid=d5604663-bcaa-49e7-9731-72195026b858"},"vehicle_type_id":"4","last_reported":1713982146,"current_range_meters":26400,"station_id":"ce4bgpp2rcd13ifvqc3g","pricing_plan_id":"cebpf4jnsgd1na2vs0mg"},{"bike_id":"ad0b7891-0970-4ca5-b4b2-808fad6764e5","system_id":"levelo_inurba_marseille","lat":43.298433,"lon":5.362774,"is_reserved":false,"is_disabled":false,"rental_uris":{"android":"levelo://app?vid=ad0b7891-0970-4ca5-b4b2-808fad6764e5","ios":"levelo://app?vid=ad0b7891-0970-4ca5-b4b2-808fad6764e5"},"vehicle_type_id":"4","last_reported":1713982146,"current_range_meters":26000,"station_id":"ce4bgpp2rcd13ifvqc3g","pricing_plan_id":"cebpf4jnsgd1na2vs0mg"},{"bike_id":"57e4318d-3e67-486c-a8fb-219e417975f3","system_id":"levelo_inurba_marseille","lat":43.298433,"lon":5.362774,"is_reserved":false,"is_disabled":false,"rental_uris":{"android":"levelo://app?vid=57e4318d-3e67-486c-a8fb-219e417975f3","ios":"levelo://app?vid=57e4318d-3e67-486c-a8fb-219e417975f3"},"vehicle_type_id":"4","last_reported":1713982146,"current_range_meters":24800,"station_id":"ce4bgpp2rcd13ifvqc3g","pricing_plan_id":"cebpf4jnsgd1na2vs0mg"},{"bike_id":"4e2cbf49-fe37-484a-bed3-4fa82814adbe","system_id":"levelo_inurba_marseille","lat":43.299243,"lon":5.37481,"is_reserved":false,"is_disabled":false,"rental_uris":{"android":"levelo://app?vid=4e2cbf49-fe37-484a-bed3-4fa82814adbe","ios":"levelo://app?vid=4e2cbf49-fe37-484a-bed3-4fa82814adbe"},"vehicle_type_id":"4","last_reported":1713982146,"current_range_meters":0,"station_id":"ce4bgjh2rcd13ifvqbg0","pricing_plan_id":"cebpf4jnsgd1na2vs0mg"},{"bike_id":"ed725a0a-029e-4b14-883c-ac16f9d193eb","system_id":"levelo_inurba_marseille","lat":43.311691,"lon":5.387102,"is_reserved":false,"is_disabled":false,"rental_uris":{"android":"levelo://app?vid=ed725a0a-029e-4b14-883c-ac16f9d193eb","ios":"levelo://app?vid=ed725a0a-029e-4b14-883c-ac16f9d193eb"},"vehicle_type_id":"4","last_reported":1713982146,"current_range_meters":2000,"station_id":"ce4bgv92rcd13ifvqcr0","pricing_plan_id":"cebpf4jnsgd1na2vs0mg"},{"bike_id":"7fcf2166-fc71-4544-8353-92f5c527e3f6","system_id":"levelo_inurba_marseille","lat":43.311722,"lon":5.387247,"is_reserved":false,"is_disabled":false,"rental_uris":{"android":"levelo://app?vid=7fcf2166-fc71-4544-8353-92f5c527e3f6","ios":"levelo://app?vid=7fcf2166-fc71-4544-8353-92f5c527e3f6"},"vehicle_type_id":"4","last_reported":1713982146,"current_range_meters":19600,"station_id":"ce4bgv12rcd13ifvqcp0","pricing_plan_id":"cebpf4jnsgd1na2vs0mg"},{"bike_id":"9254d1de-daa5-4b92-ad95-06d88146a474","system_id":"levelo_inurba_marseille","lat":43.311722,"lon":5.387247,"is_reserved":false,"is_disabled":false,"rental_uris":{"android":"levelo://app?vid=9254d1de-daa5-4b92-ad95-06d88146a474","ios":"levelo://app?vid=9254d1de-daa5-4b92-ad95-06d88146a474"},"vehicle_type_id":"4","last_reported":1713982146,"current_range_meters":18400,"station_id":"ce4bgv12rcd13ifvqcp0","pricing_plan_id":"cebpf4jnsgd1na2vs0mg"},{"bike_id":"2bfa5fbc-ffcb-4d94-b1be-9bdc3a74c82d","system_id":"levelo_inurba_marseille","lat":43.311722,"lon":5.387247,"is_reserved":false,"is_disabled":false,"rental_uris":{"android":"levelo://app?vid=2bfa5fbc-ffcb-4d94-b1be-9bdc3a74c82d","ios":"levelo://app?vid=2bfa5fbc-ffcb-4d94-b1be-9bdc3a74c82d"},"vehicle_type_id":"4","last_reported":1713982146,"current_range_meters":2800,"station_id":"ce4bgv12rcd13ifvqcp0","pricing_plan_id":"cebpf4jnsgd1na2vs0mg"},{"bike_id":"1154c9ce-9427-4b30-8a01-55a4771e362c","system_id":"levelo_inurba_marseille","lat":43.3121,"lon":5.38739,"is_reserved":false,"is_disabled":false,"rental_uris":{"android":"levelo://app?vid=1154c9ce-9427-4b30-8a01-55a4771e362c","ios":"levelo://app?vid=1154c9ce-9427-4b30-8a01-55a4771e362c"},"vehicle_type_id":"4","last_reported":1713982146,"current_range_meters":4800,"station_id":"ce4bgv12rcd13ifvqcp0","pricing_plan_id":"cebpf4jnsgd1na2vs0mg"},{"bike_id":"3048abed-de1d-45e2-a4a8-6ee4a8e86457","system_id":"levelo_inurba_marseille","lat":43.297794,"lon":5.370888,"is_reserved":false,"is_disabled":false,"rental_uris":{"android":"levelo://app?vid=3048abed-de1d-45e2-a4a8-6ee4a8e86457","ios":"levelo://app?vid=3048abed-de1d-45e2-a4a8-6ee4a8e86457"},"vehicle_type_id":"4","last_reported":1713982146,"current_range_meters":2000,"station_id":"ce4bgop2rcd13ifvqc1g","pricing_plan_id":"cebpf4jnsgd1na2vs0mg"},{"bike_id":"81ccee9a-3557-4ce4-b523-bdf6994db9b9","system_id":"levelo_inurba_marseille","lat":43.297774,"lon":5.370875,"is_reserved":false,"is_disabled":false,"rental_uris":{"android":"levelo://app?vid=81ccee9a-3557-4ce4-b523-bdf6994db9b9","ios":"levelo://app?vid=81ccee9a-3557-4ce4-b523-bdf6994db9b9"},"vehicle_type_id":"4","last_reported":1713982146,"current_range_meters":8800,"station_id":"ce4bgop2rcd13ifvqc1g","pricing_plan_id":"cebpf4jnsgd1na2vs0mg"},{"bike_id":"501882ab-f3f1-4055-a5f0-2af0d2546ab9","system_id":"levelo_inurba_marseille","lat":43.32292,"lon":5.38281,"is_reserved":false,"is_disabled":false,"rental_uris":{"android":"levelo://app?vid=501882ab-f3f1-4055-a5f0-2af0d2546ab9","ios":"levelo://app?vid=501882ab-f3f1-4055-a5f0-2af0d2546ab9"},"vehicle_type_id":"4","last_reported":1713982146,"current_range_meters":13200,"station_id":"ce4bhr12rcd13ifvqhqg","pricing_plan_id":"cebpf4jnsgd1na2vs0mg"},{"bike_id":"9b9365e5-7e7c-4d39-9089-fab60774a284","system_id":"levelo_inurba_marseille","lat":43.297163,"lon":5.365866,"is_reserved":false,"is_disabled":false,"rental_uris":{"android":"levelo://app?vid=9b9365e5-7e7c-4d39-9089-fab60774a284","ios":"levelo://app?vid=9b9365e5-7e7c-4d39-9089-fab60774a284"},"vehicle_type_id":"4","last_reported":1713982146,"current_range_meters":3600,"station_id":"ce4bgn12rcd13ifvqbt0","pricing_plan_id":"cebpf4jnsgd1na2vs0mg"},{"bike_id":"f0944935-ebf4-4b4f-af8d-672a1db31d4b","system_id":"levelo_inurba_marseille","lat":43.296129,"lon":5.370777,"is_reserved":false,"is_disabled":false,"rental_uris":{"android":"levelo://app?vid=f0944935-ebf4-4b4f-af8d-672a1db31d4b","ios":"levelo://app?vid=f0944935-ebf4-4b4f-af8d-672a1db31d4b"},"vehicle_type_id":"4","last_reported":1713982146,"current_range_meters":20800,"station_id":"ce4bgnh2rcd13ifvqc0g","pricing_plan_id":"cebpf4jnsgd1na2vs0mg"},{"bike_id":"8e3011fa-54fa-4664-ae78-a8e156448281","system_id":"levelo_inurba_marseille","lat":43.2968,"lon":5.37291,"is_reserved":false,"is_disabled":false,"rental_uris":{"android":"levelo://app?vid=8e3011fa-54fa-4664-ae78-a8e156448281","ios":"levelo://app?vid=8e3011fa-54fa-4664-ae78-a8e156448281"},"vehicle_type_id":"4","last_reported":1713982146,"current_range_meters":6400,"station_id":"ce4bgk12rcd13ifvqbj0","pricing_plan_id":"cebpf4jnsgd1na2vs0mg"},{"bike_id":"5105483f-6dd9-4141-846b-ab65ee2a9d5c","system_id":"levelo_inurba_marseille","lat":43.296131,"lon":5.370791,"is_reserved":false,"is_disabled":false,"rental_uris":{"android":"levelo://app?vid=5105483f-6dd9-4141-846b-ab65ee2a9d5c","ios":"levelo://app?vid=5105483f-6dd9-4141-846b-ab65ee2a9d5c"},"vehicle_type_id":"4","last_reported":1713982146,"current_range_meters":18800,"station_id":"ce4bgnh2rcd13ifvqc0g","pricing_plan_id":"cebpf4jnsgd1na2vs0mg"},{"bike_id":"66e8f54f-4320-43a7-8a92-0070bc3d0b54","system_id":"levelo_inurba_marseille","lat":43.29573,"lon":5.367355,"is_reserved":false,"is_disabled":false,"rental_uris":{"android":"levelo://app?vid=66e8f54f-4320-43a7-8a92-0070bc3d0b54","ios":"levelo://app?vid=66e8f54f-4320-43a7-8a92-0070bc3d0b54"},"vehicle_type_id":"4","last_reported":1713982146,"current_range_meters":19600,"station_id":"ce4bgph2rcd13ifvqc2g","pricing_plan_id":"cebpf4jnsgd1na2vs0mg"},{"bike_id":"213f5603-4c4a-4287-abee-33ee1525ecb2","system_id":"levelo_inurba_marseille","lat":43.29573,"lon":5.367355,"is_reserved":false,"is_disabled":false,"rental_uris":{"android":"levelo://app?vid=213f5603-4c4a-4287-abee-33ee1525ecb2","ios":"levelo://app?vid=213f5603-4c4a-4287-abee-33ee1525ecb2"},"vehicle_type_id":"4","last_reported":1713982146,"current_range_meters":14400,"station_id":"ce4bgph2rcd13ifvqc2g","pricing_plan_id":"cebpf4jnsgd1na2vs0mg"},{"bike_id":"22ee16ca-a245-4dc1-ad8a-db06da73955c","system_id":"levelo_inurba_marseille","lat":43.29585,"lon":5.36878,"is_reserved":false,"is_disabled":false,"rental_uris":{"android":"levelo://app?vid=22ee16ca-a245-4dc1-ad8a-db06da73955c","ios":"levelo://app?vid=22ee16ca-a245-4dc1-ad8a-db06da73955c"},"vehicle_type_id":"4","last_reported":1713982146,"current_range_meters":7600,"station_id":"","pricing_plan_id":"cebpf4jnsgd1na2vs0mg"},{"bike_id":"c7eaefbf-bef7-48ff-bcb8-2fd1be3d793b","system_id":"levelo_inurba_marseille","lat":43.29573,"lon":5.367355,"is_reserved":false,"is_disabled":false,"rental_uris":{"android":"levelo://app?vid=c7eaefbf-bef7-48ff-bcb8-2fd1be3d793b","ios":"levelo://app?vid=c7eaefbf-bef7-48ff-bcb8-2fd1be3d793b"},"vehicle_type_id":"4","last_reported":1713982146,"current_range_meters":8800,"station_id":"ce4bgph2rcd13ifvqc2g","pricing_plan_id":"cebpf4jnsgd1na2vs0mg"},{"bike_id":"c221d810-eae3-479a-8e34-854d1ece031f","system_id":"levelo_inurba_marseille","lat":43.299028,"lon":5.381509,"is_reserved":false,"is_disabled":false,"rental_uris":{"android":"levelo://app?vid=c221d810-eae3-479a-8e34-854d1ece031f","ios":"levelo://app?vid=c221d810-eae3-479a-8e34-854d1ece031f"},"vehicle_type_id":"4","last_reported":1713982146,"current_range_meters":26800,"station_id":"ce4bgj12rcd13ifvqbc0","pricing_plan_id":"cebpf4jnsgd1na2vs0mg"},{"bike_id":"45fbd840-d62a-4568-83ad-bdace77533fa","system_id":"levelo_inurba_marseille","lat":43.299028,"lon":5.381509,"is_reserved":false,"is_disabled":false,"rental_uris":{"android":"levelo://app?vid=45fbd840-d62a-4568-83ad-bdace77533fa","ios":"levelo://app?vid=45fbd840-d62a-4568-83ad-bdace77533fa"},"vehicle_type_id":"4","last_reported":1713982146,"current_range_meters":15200,"station_id":"ce4bgj12rcd13ifvqbc0","pricing_plan_id":"cebpf4jnsgd1na2vs0mg"},{"bike_id":"5c58c24f-7e26-4552-ada9-d1bf16ee3c6f","system_id":"levelo_inurba_marseille","lat":43.299028,"lon":5.381509,"is_reserved":false,"is_disabled":false,"rental_uris":{"android":"levelo://app?vid=5c58c24f-7e26-4552-ada9-d1bf16ee3c6f","ios":"levelo://app?vid=5c58c24f-7e26-4552-ada9-d1bf16ee3c6f"},"vehicle_type_id":"4","last_reported":1713982146,"current_range_meters":26000,"station_id":"ce4bgj12rcd13ifvqbc0","pricing_plan_id":"cebpf4jnsgd1na2vs0mg"},{"bike_id":"f88e1c60-70c5-4dc4-9948-8f6f355d4ecf","system_id":"levelo_inurba_marseille","lat":43.309589,"lon":5.390258,"is_reserved":false,"is_disabled":false,"rental_uris":{"android":"levelo://app?vid=f88e1c60-70c5-4dc4-9948-8f6f355d4ecf","ios":"levelo://app?vid=f88e1c60-70c5-4dc4-9948-8f6f355d4ecf"},"vehicle_type_id":"4","last_reported":1713982146,"current_range_meters":15600,"station_id":"ce4bgup2rcd13ifvqco0","pricing_plan_id":"cebpf4jnsgd1na2vs0mg"},{"bike_id":"be22e4f8-4b3c-4b26-be34-f102440801b1","system_id":"levelo_inurba_marseille","lat":43.299028,"lon":5.381509,"is_reserved":false,"is_disabled":false,"rental_uris":{"android":"levelo://app?vid=be22e4f8-4b3c-4b26-be34-f102440801b1","ios":"levelo://app?vid=be22e4f8-4b3c-4b26-be34-f102440801b1"},"vehicle_type_id":"4","last_reported":1713982146,"current_range_meters":11200,"station_id":"ce4bgj12rcd13ifvqbc0","pricing_plan_id":"cebpf4jnsgd1na2vs0mg"},{"bike_id":"37f14daa-b6be-48c3-ae3d-a1f1081cc473","system_id":"levelo_inurba_marseille","lat":43.319935,"lon":5.381699,"is_reserved":false,"is_disabled":false,"rental_uris":{"android":"levelo://app?vid=37f14daa-b6be-48c3-ae3d-a1f1081cc473","ios":"levelo://app?vid=37f14daa-b6be-48c3-ae3d-a1f1081cc473"},"vehicle_type_id":"4","last_reported":1713982146,"current_range_meters":19200,"station_id":"ce4bhr12rcd13ifvqhpg","pricing_plan_id":"cebpf4jnsgd1na2vs0mg"},{"bike_id":"e824456e-036e-4b18-b44c-8969db260303","system_id":"levelo_inurba_marseille","lat":43.290327,"lon":5.375711,"is_reserved":false,"is_disabled":false,"rental_uris":{"android":"levelo://app?vid=e824456e-036e-4b18-b44c-8969db260303","ios":"levelo://app?vid=e824456e-036e-4b18-b44c-8969db260303"},"vehicle_type_id":"4","last_reported":1713982146,"current_range_meters":14800,"station_id":"ce4bh692rcd13ifvqe90","pricing_plan_id":"cebpf4jnsgd1na2vs0mg"},{"bike_id":"f52eb590-7c9d-4ee9-afda-aeb836bdd3dc","system_id":"levelo_inurba_marseille","lat":43.317557,"lon":5.390173,"is_reserved":false,"is_disabled":false,"rental_uris":{"android":"levelo://app?vid=f52eb590-7c9d-4ee9-afda-aeb836bdd3dc","ios":"levelo://app?vid=f52eb590-7c9d-4ee9-afda-aeb836bdd3dc"},"vehicle_type_id":"4","last_reported":1713982146,"current_range_meters":28400,"station_id":"ce4bhqp2rcd13ifvqhng","pricing_plan_id":"cebpf4jnsgd1na2vs0mg"},{"bike_id":"e9dfb1c9-0c46-4624-a0e0-15fafe4e7c9e","system_id":"levelo_inurba_marseille","lat":43.299028,"lon":5.381509,"is_reserved":false,"is_disabled":false,"rental_uris":{"android":"levelo://app?vid=e9dfb1c9-0c46-4624-a0e0-15fafe4e7c9e","ios":"levelo://app?vid=e9dfb1c9-0c46-4624-a0e0-15fafe4e7c9e"},"vehicle_type_id":"4","last_reported":1713982146,"current_range_meters":28000,"station_id":"ce4bgj12rcd13ifvqbc0","pricing_plan_id":"cebpf4jnsgd1na2vs0mg"},{"bike_id":"d6213df5-f7f0-489b-9697-46e5867896cc","system_id":"levelo_inurba_marseille","lat":43.317557,"lon":5.390173,"is_reserved":false,"is_disabled":false,"rental_uris":{"android":"levelo://app?vid=d6213df5-f7f0-489b-9697-46e5867896cc","ios":"levelo://app?vid=d6213df5-f7f0-489b-9697-46e5867896cc"},"vehicle_type_id":"4","last_reported":1713982146,"current_range_meters":8000,"station_id":"ce4bhqp2rcd13ifvqhng","pricing_plan_id":"cebpf4jnsgd1na2vs0mg"},{"bike_id":"c007bef9-8802-41bb-8338-c0ddc6a2a353","system_id":"levelo_inurba_marseille","lat":43.317557,"lon":5.390173,"is_reserved":false,"is_disabled":false,"rental_uris":{"android":"levelo://app?vid=c007bef9-8802-41bb-8338-c0ddc6a2a353","ios":"levelo://app?vid=c007bef9-8802-41bb-8338-c0ddc6a2a353"},"vehicle_type_id":"4","last_reported":1713982146,"current_range_meters":14000,"station_id":"ce4bhqp2rcd13ifvqhng","pricing_plan_id":"cebpf4jnsgd1na2vs0mg"},{"bike_id":"009b6dbe-f06a-410e-9507-c1ecba6e1674","system_id":"levelo_inurba_marseille","lat":43.317557,"lon":5.390173,"is_reserved":false,"is_disabled":false,"rental_uris":{"android":"levelo://app?vid=009b6dbe-f06a-410e-9507-c1ecba6e1674","ios":"levelo://app?vid=009b6dbe-f06a-410e-9507-c1ecba6e1674"},"vehicle_type_id":"4","last_reported":1713982146,"current_range_meters":22400,"station_id":"ce4bhqp2rcd13ifvqhng","pricing_plan_id":"cebpf4jnsgd1na2vs0mg"},{"bike_id":"3ddd29e4-7600-43e5-b6d0-b2af8c40141a","system_id":"levelo_inurba_marseille","lat":43.317557,"lon":5.390173,"is_reserved":false,"is_disabled":false,"rental_uris":{"android":"levelo://app?vid=3ddd29e4-7600-43e5-b6d0-b2af8c40141a","ios":"levelo://app?vid=3ddd29e4-7600-43e5-b6d0-b2af8c40141a"},"vehicle_type_id":"4","last_reported":1713982146,"current_range_meters":21200,"station_id":"ce4bhqp2rcd13ifvqhng","pricing_plan_id":"cebpf4jnsgd1na2vs0mg"},{"bike_id":"d33fc83a-f4db-405b-b97e-fe2135cdbea9","system_id":"levelo_inurba_marseille","lat":43.29688,"lon":5.37744,"is_reserved":false,"is_disabled":false,"rental_uris":{"android":"levelo://app?vid=d33fc83a-f4db-405b-b97e-fe2135cdbea9","ios":"levelo://app?vid=d33fc83a-f4db-405b-b97e-fe2135cdbea9"},"vehicle_type_id":"4","last_reported":1713982146,"current_range_meters":4000,"station_id":"ce4bgkh2rcd13ifvqbl0","pricing_plan_id":"cebpf4jnsgd1na2vs0mg"},{"bike_id":"a75fb000-0694-44c5-affd-0dc93610d2c9","system_id":"levelo_inurba_marseille","lat":43.317557,"lon":5.390173,"is_reserved":false,"is_disabled":false,"rental_uris":{"android":"levelo://app?vid=a75fb000-0694-44c5-affd-0dc93610d2c9","ios":"levelo://app?vid=a75fb000-0694-44c5-affd-0dc93610d2c9"},"vehicle_type_id":"4","last_reported":1713982146,"current_range_meters":21600,"station_id":"ce4bhqp2rcd13ifvqhng","pricing_plan_id":"cebpf4jnsgd1na2vs0mg"},{"bike_id":"c210510a-5bce-4404-bc62-dece7f87043b","system_id":"levelo_inurba_marseille","lat":43.317557,"lon":5.390173,"is_reserved":false,"is_disabled":false,"rental_uris":{"android":"levelo://app?vid=c210510a-5bce-4404-bc62-dece7f87043b","ios":"levelo://app?vid=c210510a-5bce-4404-bc62-dece7f87043b"},"vehicle_type_id":"4","last_reported":1713982146,"current_range_meters":13600,"station_id":"ce4bhqp2rcd13ifvqhng","pricing_plan_id":"cebpf4jnsgd1na2vs0mg"},{"bike_id":"7cc61156-595f-4e4e-a33e-89f91602f767","system_id":"levelo_inurba_marseille","lat":43.317555,"lon":5.39022,"is_reserved":false,"is_disabled":false,"rental_uris":{"android":"levelo://app?vid=7cc61156-595f-4e4e-a33e-89f91602f767","ios":"levelo://app?vid=7cc61156-595f-4e4e-a33e-89f91602f767"},"vehicle_type_id":"4","last_reported":1713982146,"current_range_meters":12400,"station_id":"ce4bhqp2rcd13ifvqhng","pricing_plan_id":"cebpf4jnsgd1na2vs0mg"},{"bike_id":"8e8cccfd-3e5f-4762-a870-90b549a32291","system_id":"levelo_inurba_marseille","lat":43.317557,"lon":5.390173,"is_reserved":false,"is_disabled":false,"rental_uris":{"android":"levelo://app?vid=8e8cccfd-3e5f-4762-a870-90b549a32291","ios":"levelo://app?vid=8e8cccfd-3e5f-4762-a870-90b549a32291"},"vehicle_type_id":"4","last_reported":1713982146,"current_range_meters":6800,"station_id":"ce4bhqp2rcd13ifvqhng","pricing_plan_id":"cebpf4jnsgd1na2vs0mg"},{"bike_id":"d8999397-2820-410c-af08-d19814cd6251","system_id":"levelo_inurba_marseille","lat":43.300216,"lon":5.384141,"is_reserved":false,"is_disabled":false,"rental_uris":{"android":"levelo://app?vid=d8999397-2820-410c-af08-d19814cd6251","ios":"levelo://app?vid=d8999397-2820-410c-af08-d19814cd6251"},"vehicle_type_id":"4","last_reported":1713982146,"current_range_meters":4000,"station_id":"ce4bgj92rcd13ifvqbd0","pricing_plan_id":"cebpf4jnsgd1na2vs0mg"},{"bike_id":"f1611e25-ab17-489a-95f7-901ef41595ac","system_id":"levelo_inurba_marseille","lat":43.298102,"lon":5.380972,"is_reserved":false,"is_disabled":false,"rental_uris":{"android":"levelo://app?vid=f1611e25-ab17-489a-95f7-901ef41595ac","ios":"levelo://app?vid=f1611e25-ab17-489a-95f7-901ef41595ac"},"vehicle_type_id":"4","last_reported":1713982146,"current_range_meters":25600,"station_id":"ce4bgip2rcd13ifvqbb0","pricing_plan_id":"cebpf4jnsgd1na2vs0mg"},{"bike_id":"8a16dd87-7097-4be4-922b-60a37ee54c61","system_id":"levelo_inurba_marseille","lat":43.298037,"lon":5.381066,"is_reserved":false,"is_disabled":false,"rental_uris":{"android":"levelo://app?vid=8a16dd87-7097-4be4-922b-60a37ee54c61","ios":"levelo://app?vid=8a16dd87-7097-4be4-922b-60a37ee54c61"},"vehicle_type_id":"4","last_reported":1713982146,"current_range_meters":29600,"station_id":"ce4bgip2rcd13ifvqbb0","pricing_plan_id":"cebpf4jnsgd1na2vs0mg"},{"bike_id":"e176d8d7-b260-4094-bfab-2f20185a29ca","system_id":"levelo_inurba_marseille","lat":43.298037,"lon":5.381066,"is_reserved":false,"is_disabled":false,"rental_uris":{"android":"levelo://app?vid=e176d8d7-b260-4094-bfab-2f20185a29ca","ios":"levelo://app?vid=e176d8d7-b260-4094-bfab-2f20185a29ca"},"vehicle_type_id":"4","last_reported":1713982146,"current_range_meters":14000,"station_id":"ce4bgip2rcd13ifvqbb0","pricing_plan_id":"cebpf4jnsgd1na2vs0mg"},{"bike_id":"1df51914-f0f1-4339-b36a-18d989592ad2","system_id":"levelo_inurba_marseille","lat":43.298037,"lon":5.381066,"is_reserved":false,"is_disabled":false,"rental_uris":{"android":"levelo://app?vid=1df51914-f0f1-4339-b36a-18d989592ad2","ios":"levelo://app?vid=1df51914-f0f1-4339-b36a-18d989592ad2"},"vehicle_type_id":"4","last_reported":1713982146,"current_range_meters":19600,"station_id":"ce4bgip2rcd13ifvqbb0","pricing_plan_id":"cebpf4jnsgd1na2vs0mg"},{"bike_id":"a2c2d3d3-ea63-483e-8728-4fa6faaff914","system_id":"levelo_inurba_marseille","lat":43.298037,"lon":5.381066,"is_reserved":false,"is_disabled":false,"rental_uris":{"android":"levelo://app?vid=a2c2d3d3-ea63-483e-8728-4fa6faaff914","ios":"levelo://app?vid=a2c2d3d3-ea63-483e-8728-4fa6faaff914"},"vehicle_type_id":"4","last_reported":1713982146,"current_range_meters":20400,"station_id":"ce4bgip2rcd13ifvqbb0","pricing_plan_id":"cebpf4jnsgd1na2vs0mg"},{"bike_id":"ea522bff-76e8-42cf-9cd2-0f21be8b1591","system_id":"levelo_inurba_marseille","lat":43.298028,"lon":5.380976,"is_reserved":false,"is_disabled":false,"rental_uris":{"android":"levelo://app?vid=ea522bff-76e8-42cf-9cd2-0f21be8b1591","ios":"levelo://app?vid=ea522bff-76e8-42cf-9cd2-0f21be8b1591"},"vehicle_type_id":"4","last_reported":1713982146,"current_range_meters":16000,"station_id":"ce4bgip2rcd13ifvqbb0","pricing_plan_id":"cebpf4jnsgd1na2vs0mg"},{"bike_id":"240a5259-2544-4564-adcf-2414286d6799","system_id":"levelo_inurba_marseille","lat":43.298037,"lon":5.381066,"is_reserved":false,"is_disabled":false,"rental_uris":{"android":"levelo://app?vid=240a5259-2544-4564-adcf-2414286d6799","ios":"levelo://app?vid=240a5259-2544-4564-adcf-2414286d6799"},"vehicle_type_id":"4","last_reported":1713982146,"current_range_meters":31600,"station_id":"ce4bgip2rcd13ifvqbb0","pricing_plan_id":"cebpf4jnsgd1na2vs0mg"},{"bike_id":"b9ea30e1-2ca8-404b-a9b7-e21fb67e22ff","system_id":"levelo_inurba_marseille","lat":43.298037,"lon":5.381066,"is_reserved":false,"is_disabled":false,"rental_uris":{"android":"levelo://app?vid=b9ea30e1-2ca8-404b-a9b7-e21fb67e22ff","ios":"levelo://app?vid=b9ea30e1-2ca8-404b-a9b7-e21fb67e22ff"},"vehicle_type_id":"4","last_reported":1713982146,"current_range_meters":30000,"station_id":"ce4bgip2rcd13ifvqbb0","pricing_plan_id":"cebpf4jnsgd1na2vs0mg"},{"bike_id":"60702650-3072-4965-9ad6-473b0f792a82","system_id":"levelo_inurba_marseille","lat":43.298037,"lon":5.381066,"is_reserved":false,"is_disabled":false,"rental_uris":{"android":"levelo://app?vid=60702650-3072-4965-9ad6-473b0f792a82","ios":"levelo://app?vid=60702650-3072-4965-9ad6-473b0f792a82"},"vehicle_type_id":"4","last_reported":1713982146,"current_range_meters":28000,"station_id":"ce4bgip2rcd13ifvqbb0","pricing_plan_id":"cebpf4jnsgd1na2vs0mg"},{"bike_id":"94191512-70fa-49a5-b34f-3a0eaf408ec2","system_id":"levelo_inurba_marseille","lat":43.298037,"lon":5.381066,"is_reserved":false,"is_disabled":false,"rental_uris":{"android":"levelo://app?vid=94191512-70fa-49a5-b34f-3a0eaf408ec2","ios":"levelo://app?vid=94191512-70fa-49a5-b34f-3a0eaf408ec2"},"vehicle_type_id":"4","last_reported":1713982146,"current_range_meters":25200,"station_id":"ce4bgip2rcd13ifvqbb0","pricing_plan_id":"cebpf4jnsgd1na2vs0mg"},{"bike_id":"3fe14f1c-b70c-4a66-8704-6e3e7444f610","system_id":"levelo_inurba_marseille","lat":43.298037,"lon":5.381066,"is_reserved":false,"is_disabled":false,"rental_uris":{"android":"levelo://app?vid=3fe14f1c-b70c-4a66-8704-6e3e7444f610","ios":"levelo://app?vid=3fe14f1c-b70c-4a66-8704-6e3e7444f610"},"vehicle_type_id":"4","last_reported":1713982146,"current_range_meters":19600,"station_id":"ce4bgip2rcd13ifvqbb0","pricing_plan_id":"cebpf4jnsgd1na2vs0mg"},{"bike_id":"dd464ad1-5508-44ab-ba07-bb8a67869a59","system_id":"levelo_inurba_marseille","lat":43.298037,"lon":5.381066,"is_reserved":false,"is_disabled":false,"rental_uris":{"android":"levelo://app?vid=dd464ad1-5508-44ab-ba07-bb8a67869a59","ios":"levelo://app?vid=dd464ad1-5508-44ab-ba07-bb8a67869a59"},"vehicle_type_id":"4","last_reported":1713982146,"current_range_meters":22000,"station_id":"ce4bgip2rcd13ifvqbb0","pricing_plan_id":"cebpf4jnsgd1na2vs0mg"},{"bike_id":"e89d0b4e-bcec-4053-97b5-ba43378dc2ed","system_id":"levelo_inurba_marseille","lat":43.298037,"lon":5.381066,"is_reserved":false,"is_disabled":false,"rental_uris":{"android":"levelo://app?vid=e89d0b4e-bcec-4053-97b5-ba43378dc2ed","ios":"levelo://app?vid=e89d0b4e-bcec-4053-97b5-ba43378dc2ed"},"vehicle_type_id":"4","last_reported":1713982146,"current_range_meters":16000,"station_id":"ce4bgip2rcd13ifvqbb0","pricing_plan_id":"cebpf4jnsgd1na2vs0mg"},{"bike_id":"b6935ed5-ba60-4f70-b415-6c86b4dcc9fd","system_id":"levelo_inurba_marseille","lat":43.298037,"lon":5.381066,"is_reserved":false,"is_disabled":false,"rental_uris":{"android":"levelo://app?vid=b6935ed5-ba60-4f70-b415-6c86b4dcc9fd","ios":"levelo://app?vid=b6935ed5-ba60-4f70-b415-6c86b4dcc9fd"},"vehicle_type_id":"4","last_reported":1713982146,"current_range_meters":15200,"station_id":"ce4bgip2rcd13ifvqbb0","pricing_plan_id":"cebpf4jnsgd1na2vs0mg"},{"bike_id":"7b41680c-98f6-4baf-a42e-04ea25018d54","system_id":"levelo_inurba_marseille","lat":43.298037,"lon":5.381066,"is_reserved":false,"is_disabled":false,"rental_uris":{"android":"levelo://app?vid=7b41680c-98f6-4baf-a42e-04ea25018d54","ios":"levelo://app?vid=7b41680c-98f6-4baf-a42e-04ea25018d54"},"vehicle_type_id":"4","last_reported":1713982146,"current_range_meters":26800,"station_id":"ce4bgip2rcd13ifvqbb0","pricing_plan_id":"cebpf4jnsgd1na2vs0mg"},{"bike_id":"00909e30-6070-4a1b-a5e4-7ff5b1e00f6f","system_id":"levelo_inurba_marseille","lat":43.298037,"lon":5.381066,"is_reserved":false,"is_disabled":false,"rental_uris":{"android":"levelo://app?vid=00909e30-6070-4a1b-a5e4-7ff5b1e00f6f","ios":"levelo://app?vid=00909e30-6070-4a1b-a5e4-7ff5b1e00f6f"},"vehicle_type_id":"4","last_reported":1713982146,"current_range_meters":31200,"station_id":"ce4bgip2rcd13ifvqbb0","pricing_plan_id":"cebpf4jnsgd1na2vs0mg"},{"bike_id":"c3a56c2b-bd49-48cd-876a-68c47efea700","system_id":"levelo_inurba_marseille","lat":43.298037,"lon":5.381066,"is_reserved":false,"is_disabled":false,"rental_uris":{"android":"levelo://app?vid=c3a56c2b-bd49-48cd-876a-68c47efea700","ios":"levelo://app?vid=c3a56c2b-bd49-48cd-876a-68c47efea700"},"vehicle_type_id":"4","last_reported":1713982146,"current_range_meters":9200,"station_id":"ce4bgip2rcd13ifvqbb0","pricing_plan_id":"cebpf4jnsgd1na2vs0mg"},{"bike_id":"9a31c00b-d57e-43b1-a262-8a1410340aa1","system_id":"levelo_inurba_marseille","lat":43.29795,"lon":5.381038,"is_reserved":false,"is_disabled":false,"rental_uris":{"android":"levelo://app?vid=9a31c00b-d57e-43b1-a262-8a1410340aa1","ios":"levelo://app?vid=9a31c00b-d57e-43b1-a262-8a1410340aa1"},"vehicle_type_id":"4","last_reported":1713982146,"current_range_meters":31200,"station_id":"ce4bgip2rcd13ifvqbb0","pricing_plan_id":"cebpf4jnsgd1na2vs0mg"},{"bike_id":"c79e1b10-3818-41e0-b4ee-8d169c5fb0b1","system_id":"levelo_inurba_marseille","lat":43.29797,"lon":5.38108,"is_reserved":false,"is_disabled":false,"rental_uris":{"android":"levelo://app?vid=c79e1b10-3818-41e0-b4ee-8d169c5fb0b1","ios":"levelo://app?vid=c79e1b10-3818-41e0-b4ee-8d169c5fb0b1"},"vehicle_type_id":"4","last_reported":1713982146,"current_range_meters":27600,"station_id":"ce4bgip2rcd13ifvqbb0","pricing_plan_id":"cebpf4jnsgd1na2vs0mg"},{"bike_id":"7c2a91fc-05f5-4b35-a38b-f694233c531f","system_id":"levelo_inurba_marseille","lat":43.304274,"lon":5.388873,"is_reserved":false,"is_disabled":false,"rental_uris":{"android":"levelo://app?vid=7c2a91fc-05f5-4b35-a38b-f694233c531f","ios":"levelo://app?vid=7c2a91fc-05f5-4b35-a38b-f694233c531f"},"vehicle_type_id":"4","last_reported":1713982146,"current_range_meters":20800,"station_id":"ce4bgk12rcd13ifvqbi0","pricing_plan_id":"cebpf4jnsgd1na2vs0mg"},{"bike_id":"adb2ec82-edb0-4893-9ed0-e0e5afaec84d","system_id":"levelo_inurba_marseille","lat":43.30441,"lon":5.38898,"is_reserved":false,"is_disabled":false,"rental_uris":{"android":"levelo://app?vid=adb2ec82-edb0-4893-9ed0-e0e5afaec84d","ios":"levelo://app?vid=adb2ec82-edb0-4893-9ed0-e0e5afaec84d"},"vehicle_type_id":"4","last_reported":1713982146,"current_range_meters":31200,"station_id":"ce4bgk12rcd13ifvqbi0","pricing_plan_id":"cebpf4jnsgd1na2vs0mg"},{"bike_id":"8454ad8f-f198-4e17-8632-35596701224a","system_id":"levelo_inurba_marseille","lat":43.30432,"lon":5.38892,"is_reserved":false,"is_disabled":false,"rental_uris":{"android":"levelo://app?vid=8454ad8f-f198-4e17-8632-35596701224a","ios":"levelo://app?vid=8454ad8f-f198-4e17-8632-35596701224a"},"vehicle_type_id":"4","last_reported":1713982146,"current_range_meters":16400,"station_id":"ce4bgk12rcd13ifvqbi0","pricing_plan_id":"cebpf4jnsgd1na2vs0mg"},{"bike_id":"567a49ea-de01-4363-91c6-7b450512053d","system_id":"levelo_inurba_marseille","lat":43.30432,"lon":5.38893,"is_reserved":false,"is_disabled":false,"rental_uris":{"android":"levelo://app?vid=567a49ea-de01-4363-91c6-7b450512053d","ios":"levelo://app?vid=567a49ea-de01-4363-91c6-7b450512053d"},"vehicle_type_id":"4","last_reported":1713982146,"current_range_meters":30400,"station_id":"ce4bgk12rcd13ifvqbi0","pricing_plan_id":"cebpf4jnsgd1na2vs0mg"},{"bike_id":"f5d953f9-f4fb-4eb2-91f2-40d9c4dc04b3","system_id":"levelo_inurba_marseille","lat":43.29795,"lon":5.404086,"is_reserved":false,"is_disabled":false,"rental_uris":{"android":"levelo://app?vid=f5d953f9-f4fb-4eb2-91f2-40d9c4dc04b3","ios":"levelo://app?vid=f5d953f9-f4fb-4eb2-91f2-40d9c4dc04b3"},"vehicle_type_id":"4","last_reported":1713982146,"current_range_meters":3600,"station_id":"ce4bh112rcd13ifvqd90","pricing_plan_id":"cebpf4jnsgd1na2vs0mg"},{"bike_id":"1cb6ce32-05fe-450d-80ce-017c8c552b3c","system_id":"levelo_inurba_marseille","lat":43.29561,"lon":5.37504,"is_reserved":false,"is_disabled":false,"rental_uris":{"android":"levelo://app?vid=1cb6ce32-05fe-450d-80ce-017c8c552b3c","ios":"levelo://app?vid=1cb6ce32-05fe-450d-80ce-017c8c552b3c"},"vehicle_type_id":"4","last_reported":1713982146,"current_range_meters":10000,"station_id":"ce4bgh92rcd13ifvqb50","pricing_plan_id":"cebpf4jnsgd1na2vs0mg"},{"bike_id":"f676db58-0dcf-4c6e-a9e2-464b9f59c2a4","system_id":"levelo_inurba_marseille","lat":43.29786,"lon":5.38119,"is_reserved":false,"is_disabled":false,"rental_uris":{"android":"levelo://app?vid=f676db58-0dcf-4c6e-a9e2-464b9f59c2a4","ios":"levelo://app?vid=f676db58-0dcf-4c6e-a9e2-464b9f59c2a4"},"vehicle_type_id":"4","last_reported":1713982146,"current_range_meters":26800,"station_id":"ce4bgip2rcd13ifvqbb0","pricing_plan_id":"cebpf4jnsgd1na2vs0mg"},{"bike_id":"4bcce2aa-b7bb-4974-a220-b664e7c42c6b","system_id":"levelo_inurba_marseille","lat":43.292005,"lon":5.357875,"is_reserved":false,"is_disabled":false,"rental_uris":{"android":"levelo://app?vid=4bcce2aa-b7bb-4974-a220-b664e7c42c6b","ios":"levelo://app?vid=4bcce2aa-b7bb-4974-a220-b664e7c42c6b"},"vehicle_type_id":"4","last_reported":1713982146,"current_range_meters":26800,"station_id":"ce4bhb12rcd13ifvqel0","pricing_plan_id":"cebpf4jnsgd1na2vs0mg"},{"bike_id":"8cdc2e51-6108-48f1-9ee8-2e89450171b3","system_id":"levelo_inurba_marseille","lat":43.296263,"lon":5.377094,"is_reserved":false,"is_disabled":false,"rental_uris":{"android":"levelo://app?vid=8cdc2e51-6108-48f1-9ee8-2e89450171b3","ios":"levelo://app?vid=8cdc2e51-6108-48f1-9ee8-2e89450171b3"},"vehicle_type_id":"4","last_reported":1713982146,"current_range_meters":21600,"station_id":"ce4bgi92rcd13ifvqb90","pricing_plan_id":"cebpf4jnsgd1na2vs0mg"},{"bike_id":"bcab07ad-36d2-4022-ac4d-9858848c1cc5","system_id":"levelo_inurba_marseille","lat":43.299707,"lon":5.384859,"is_reserved":false,"is_disabled":false,"rental_uris":{"android":"levelo://app?vid=bcab07ad-36d2-4022-ac4d-9858848c1cc5","ios":"levelo://app?vid=bcab07ad-36d2-4022-ac4d-9858848c1cc5"},"vehicle_type_id":"4","last_reported":1713982146,"current_range_meters":31200,"station_id":"ce4bgj92rcd13ifvqbd0","pricing_plan_id":"cebpf4jnsgd1na2vs0mg"},{"bike_id":"abcfb6d4-bea5-40b6-8f4b-b660ed7505cf","system_id":"levelo_inurba_marseille","lat":43.295279,"lon":5.375048,"is_reserved":false,"is_disabled":false,"rental_uris":{"android":"levelo://app?vid=abcfb6d4-bea5-40b6-8f4b-b660ed7505cf","ios":"levelo://app?vid=abcfb6d4-bea5-40b6-8f4b-b660ed7505cf"},"vehicle_type_id":"4","last_reported":1713982146,"current_range_meters":0,"station_id":"ce4bgkp2rcd13ifvqbmg","pricing_plan_id":"cebpf4jnsgd1na2vs0mg"},{"bike_id":"b7f1f9d8-c41e-4769-bc2b-089629323f66","system_id":"levelo_inurba_marseille","lat":43.299717,"lon":5.384845,"is_reserved":false,"is_disabled":false,"rental_uris":{"android":"levelo://app?vid=b7f1f9d8-c41e-4769-bc2b-089629323f66","ios":"levelo://app?vid=b7f1f9d8-c41e-4769-bc2b-089629323f66"},"vehicle_type_id":"4","last_reported":1713982146,"current_range_meters":20000,"station_id":"ce4bgj92rcd13ifvqbd0","pricing_plan_id":"cebpf4jnsgd1na2vs0mg"},{"bike_id":"4f0234bc-4a5d-4612-94bf-623a48e9ad59","system_id":"levelo_inurba_marseille","lat":43.295279,"lon":5.375048,"is_reserved":false,"is_disabled":false,"rental_uris":{"android":"levelo://app?vid=4f0234bc-4a5d-4612-94bf-623a48e9ad59","ios":"levelo://app?vid=4f0234bc-4a5d-4612-94bf-623a48e9ad59"},"vehicle_type_id":"4","last_reported":1713982146,"current_range_meters":11600,"station_id":"ce4bgkp2rcd13ifvqbmg","pricing_plan_id":"cebpf4jnsgd1na2vs0mg"},{"bike_id":"da9987eb-3420-419f-a34b-f2ed37b18f39","system_id":"levelo_inurba_marseille","lat":43.299717,"lon":5.384845,"is_reserved":false,"is_disabled":false,"rental_uris":{"android":"levelo://app?vid=da9987eb-3420-419f-a34b-f2ed37b18f39","ios":"levelo://app?vid=da9987eb-3420-419f-a34b-f2ed37b18f39"},"vehicle_type_id":"4","last_reported":1713982146,"current_range_meters":19200,"station_id":"ce4bgj92rcd13ifvqbd0","pricing_plan_id":"cebpf4jnsgd1na2vs0mg"},{"bike_id":"8d15aa91-8b97-43cb-a5e1-96356376f042","system_id":"levelo_inurba_marseille","lat":43.2997,"lon":5.38492,"is_reserved":false,"is_disabled":false,"rental_uris":{"android":"levelo://app?vid=8d15aa91-8b97-43cb-a5e1-96356376f042","ios":"levelo://app?vid=8d15aa91-8b97-43cb-a5e1-96356376f042"},"vehicle_type_id":"4","last_reported":1713982146,"current_range_meters":19600,"station_id":"ce4bgj92rcd13ifvqbd0","pricing_plan_id":"cebpf4jnsgd1na2vs0mg"},{"bike_id":"48c27deb-d264-4e05-af13-9de53cab2214","system_id":"levelo_inurba_marseille","lat":43.299707,"lon":5.384859,"is_reserved":false,"is_disabled":false,"rental_uris":{"android":"levelo://app?vid=48c27deb-d264-4e05-af13-9de53cab2214","ios":"levelo://app?vid=48c27deb-d264-4e05-af13-9de53cab2214"},"vehicle_type_id":"4","last_reported":1713982146,"current_range_meters":26800,"station_id":"ce4bgj92rcd13ifvqbd0","pricing_plan_id":"cebpf4jnsgd1na2vs0mg"},{"bike_id":"6c917764-5c51-4148-b422-542fed3eeaf5","system_id":"levelo_inurba_marseille","lat":43.290094,"lon":5.381264,"is_reserved":false,"is_disabled":false,"rental_uris":{"android":"levelo://app?vid=6c917764-5c51-4148-b422-542fed3eeaf5","ios":"levelo://app?vid=6c917764-5c51-4148-b422-542fed3eeaf5"},"vehicle_type_id":"4","last_reported":1713982146,"current_range_meters":21200,"station_id":"ce4bh4p2rcd13ifvqe1g","pricing_plan_id":"cebpf4jnsgd1na2vs0mg"},{"bike_id":"80a65f33-5749-4e86-ae74-319c9c93f8ed","system_id":"levelo_inurba_marseille","lat":43.299724,"lon":5.384848,"is_reserved":false,"is_disabled":false,"rental_uris":{"android":"levelo://app?vid=80a65f33-5749-4e86-ae74-319c9c93f8ed","ios":"levelo://app?vid=80a65f33-5749-4e86-ae74-319c9c93f8ed"},"vehicle_type_id":"4","last_reported":1713982146,"current_range_meters":31200,"station_id":"ce4bgj92rcd13ifvqbd0","pricing_plan_id":"cebpf4jnsgd1na2vs0mg"},{"bike_id":"62d65d5e-7dc9-4eb7-b1ef-2e796138b1c1","system_id":"levelo_inurba_marseille","lat":43.297163,"lon":5.365866,"is_reserved":false,"is_disabled":false,"rental_uris":{"android":"levelo://app?vid=62d65d5e-7dc9-4eb7-b1ef-2e796138b1c1","ios":"levelo://app?vid=62d65d5e-7dc9-4eb7-b1ef-2e796138b1c1"},"vehicle_type_id":"4","last_reported":1713982146,"current_range_meters":7200,"station_id":"ce4bgn12rcd13ifvqbt0","pricing_plan_id":"cebpf4jnsgd1na2vs0mg"},{"bike_id":"3ebc6ab6-c1b8-4e74-a6ab-161aa4c66fe2","system_id":"levelo_inurba_marseille","lat":43.299724,"lon":5.384848,"is_reserved":false,"is_disabled":false,"rental_uris":{"android":"levelo://app?vid=3ebc6ab6-c1b8-4e74-a6ab-161aa4c66fe2","ios":"levelo://app?vid=3ebc6ab6-c1b8-4e74-a6ab-161aa4c66fe2"},"vehicle_type_id":"4","last_reported":1713982146,"current_range_meters":6000,"station_id":"ce4bgj92rcd13ifvqbd0","pricing_plan_id":"cebpf4jnsgd1na2vs0mg"},{"bike_id":"438b05b5-750f-4c02-86ce-4db00cc31a91","system_id":"levelo_inurba_marseille","lat":43.299724,"lon":5.384848,"is_reserved":false,"is_disabled":false,"rental_uris":{"android":"levelo://app?vid=438b05b5-750f-4c02-86ce-4db00cc31a91","ios":"levelo://app?vid=438b05b5-750f-4c02-86ce-4db00cc31a91"},"vehicle_type_id":"4","last_reported":1713982146,"current_range_meters":26800,"station_id":"ce4bgj92rcd13ifvqbd0","pricing_plan_id":"cebpf4jnsgd1na2vs0mg"},{"bike_id":"40f956f4-b0d4-42af-a70a-f4c07a5a057a","system_id":"levelo_inurba_marseille","lat":43.299724,"lon":5.384848,"is_reserved":false,"is_disabled":false,"rental_uris":{"android":"levelo://app?vid=40f956f4-b0d4-42af-a70a-f4c07a5a057a","ios":"levelo://app?vid=40f956f4-b0d4-42af-a70a-f4c07a5a057a"},"vehicle_type_id":"4","last_reported":1713982146,"current_range_meters":16000,"station_id":"ce4bgj92rcd13ifvqbd0","pricing_plan_id":"cebpf4jnsgd1na2vs0mg"},{"bike_id":"19e66640-89f6-439d-93d0-d48228eac6cb","system_id":"levelo_inurba_marseille","lat":43.295,"lon":5.375122,"is_reserved":false,"is_disabled":false,"rental_uris":{"android":"levelo://app?vid=19e66640-89f6-439d-93d0-d48228eac6cb","ios":"levelo://app?vid=19e66640-89f6-439d-93d0-d48228eac6cb"},"vehicle_type_id":"4","last_reported":1713982146,"current_range_meters":25600,"station_id":"ce4bgkp2rcd13ifvqbmg","pricing_plan_id":"cebpf4jnsgd1na2vs0mg"},{"bike_id":"2e8cfebd-46e7-495b-9715-f35bdd0e280e","system_id":"levelo_inurba_marseille","lat":43.32367,"lon":5.388836,"is_reserved":false,"is_disabled":false,"rental_uris":{"android":"levelo://app?vid=2e8cfebd-46e7-495b-9715-f35bdd0e280e","ios":"levelo://app?vid=2e8cfebd-46e7-495b-9715-f35bdd0e280e"},"vehicle_type_id":"4","last_reported":1713982146,"current_range_meters":12400,"station_id":"ce4bhqp2rcd13ifvqhog","pricing_plan_id":"cebpf4jnsgd1na2vs0mg"},{"bike_id":"6eee273b-f2f7-42a7-b189-a5b0926a269f","system_id":"levelo_inurba_marseille","lat":43.32367,"lon":5.388836,"is_reserved":false,"is_disabled":false,"rental_uris":{"android":"levelo://app?vid=6eee273b-f2f7-42a7-b189-a5b0926a269f","ios":"levelo://app?vid=6eee273b-f2f7-42a7-b189-a5b0926a269f"},"vehicle_type_id":"4","last_reported":1713982146,"current_range_meters":800,"station_id":"ce4bhqp2rcd13ifvqhog","pricing_plan_id":"cebpf4jnsgd1na2vs0mg"},{"bike_id":"b9f8ff0d-36c7-4667-ac19-88a5ab18a0a8","system_id":"levelo_inurba_marseille","lat":43.287154,"lon":5.399979,"is_reserved":false,"is_disabled":false,"rental_uris":{"android":"levelo://app?vid=b9f8ff0d-36c7-4667-ac19-88a5ab18a0a8","ios":"levelo://app?vid=b9f8ff0d-36c7-4667-ac19-88a5ab18a0a8"},"vehicle_type_id":"4","last_reported":1713982146,"current_range_meters":400,"station_id":"ce4bho92rcd13ifvqh3g","pricing_plan_id":"cebpf4jnsgd1na2vs0mg"},{"bike_id":"f8856e15-5550-416f-b9d8-c11d7464bdd6","system_id":"levelo_inurba_marseille","lat":43.305364,"lon":5.384119,"is_reserved":false,"is_disabled":false,"rental_uris":{"android":"levelo://app?vid=f8856e15-5550-416f-b9d8-c11d7464bdd6","ios":"levelo://app?vid=f8856e15-5550-416f-b9d8-c11d7464bdd6"},"vehicle_type_id":"4","last_reported":1713982146,"current_range_meters":1200,"station_id":"ce4bgg92rcd13ifvqb30","pricing_plan_id":"cebpf4jnsgd1na2vs0mg"},{"bike_id":"ac6ae74a-2db8-4630-a3cc-86f0c8dcd21e","system_id":"levelo_inurba_marseille","lat":43.29602,"lon":5.381084,"is_reserved":false,"is_disabled":false,"rental_uris":{"android":"levelo://app?vid=ac6ae74a-2db8-4630-a3cc-86f0c8dcd21e","ios":"levelo://app?vid=ac6ae74a-2db8-4630-a3cc-86f0c8dcd21e"},"vehicle_type_id":"4","last_reported":1713982146,"current_range_meters":26000,"station_id":"ce4bgl12rcd13ifvqbo0","pricing_plan_id":"cebpf4jnsgd1na2vs0mg"},{"bike_id":"9876ba6a-f557-49c6-afe9-d3a2a8215ef8","system_id":"levelo_inurba_marseille","lat":43.293249,"lon":5.371578,"is_reserved":false,"is_disabled":false,"rental_uris":{"android":"levelo://app?vid=9876ba6a-f557-49c6-afe9-d3a2a8215ef8","ios":"levelo://app?vid=9876ba6a-f557-49c6-afe9-d3a2a8215ef8"},"vehicle_type_id":"4","last_reported":1713982146,"current_range_meters":14800,"station_id":"ce4bgh92rcd13ifvqb40","pricing_plan_id":"cebpf4jnsgd1na2vs0mg"},{"bike_id":"79b7ae42-2469-41cc-b049-d2e41181d368","system_id":"levelo_inurba_marseille","lat":43.293259,"lon":5.371586,"is_reserved":false,"is_disabled":false,"rental_uris":{"android":"levelo://app?vid=79b7ae42-2469-41cc-b049-d2e41181d368","ios":"levelo://app?vid=79b7ae42-2469-41cc-b049-d2e41181d368"},"vehicle_type_id":"4","last_reported":1713982146,"current_range_meters":8400,"station_id":"ce4bgh92rcd13ifvqb40","pricing_plan_id":"cebpf4jnsgd1na2vs0mg"},{"bike_id":"d63c03b9-edc0-43bd-843d-91f0556eed6a","system_id":"levelo_inurba_marseille","lat":43.293259,"lon":5.371586,"is_reserved":false,"is_disabled":false,"rental_uris":{"android":"levelo://app?vid=d63c03b9-edc0-43bd-843d-91f0556eed6a","ios":"levelo://app?vid=d63c03b9-edc0-43bd-843d-91f0556eed6a"},"vehicle_type_id":"4","last_reported":1713982146,"current_range_meters":29200,"station_id":"ce4bgh92rcd13ifvqb40","pricing_plan_id":"cebpf4jnsgd1na2vs0mg"},{"bike_id":"2775e294-d3cf-4341-a2a0-059a7ff281a9","system_id":"levelo_inurba_marseille","lat":43.29315,"lon":5.37179,"is_reserved":false,"is_disabled":false,"rental_uris":{"android":"levelo://app?vid=2775e294-d3cf-4341-a2a0-059a7ff281a9","ios":"levelo://app?vid=2775e294-d3cf-4341-a2a0-059a7ff281a9"},"vehicle_type_id":"4","last_reported":1713982146,"current_range_meters":23200,"station_id":"ce4bgh92rcd13ifvqb40","pricing_plan_id":"cebpf4jnsgd1na2vs0mg"},{"bike_id":"be9a743d-3937-4ff1-b5ba-dab3f8c78263","system_id":"levelo_inurba_marseille","lat":43.293249,"lon":5.371578,"is_reserved":false,"is_disabled":false,"rental_uris":{"android":"levelo://app?vid=be9a743d-3937-4ff1-b5ba-dab3f8c78263","ios":"levelo://app?vid=be9a743d-3937-4ff1-b5ba-dab3f8c78263"},"vehicle_type_id":"4","last_reported":1713982146,"current_range_meters":10400,"station_id":"ce4bgh92rcd13ifvqb40","pricing_plan_id":"cebpf4jnsgd1na2vs0mg"},{"bike_id":"e8f5e7cf-038a-4fca-af4b-3f807bea875f","system_id":"levelo_inurba_marseille","lat":43.29311,"lon":5.37174,"is_reserved":false,"is_disabled":false,"rental_uris":{"android":"levelo://app?vid=e8f5e7cf-038a-4fca-af4b-3f807bea875f","ios":"levelo://app?vid=e8f5e7cf-038a-4fca-af4b-3f807bea875f"},"vehicle_type_id":"4","last_reported":1713982146,"current_range_meters":9200,"station_id":"ce4bgh92rcd13ifvqb40","pricing_plan_id":"cebpf4jnsgd1na2vs0mg"},{"bike_id":"002a3e1a-e5da-4dca-8c7b-345f689b81ab","system_id":"levelo_inurba_marseille","lat":43.293113,"lon":5.371846,"is_reserved":false,"is_disabled":false,"rental_uris":{"android":"levelo://app?vid=002a3e1a-e5da-4dca-8c7b-345f689b81ab","ios":"levelo://app?vid=002a3e1a-e5da-4dca-8c7b-345f689b81ab"},"vehicle_type_id":"4","last_reported":1713982146,"current_range_meters":15200,"station_id":"ce4bgh92rcd13ifvqb40","pricing_plan_id":"cebpf4jnsgd1na2vs0mg"},{"bike_id":"2311a26d-3f80-46bc-937e-0767c7fbba8c","system_id":"levelo_inurba_marseille","lat":43.292749,"lon":5.368402,"is_reserved":false,"is_disabled":false,"rental_uris":{"android":"levelo://app?vid=2311a26d-3f80-46bc-937e-0767c7fbba8c","ios":"levelo://app?vid=2311a26d-3f80-46bc-937e-0767c7fbba8c"},"vehicle_type_id":"4","last_reported":1713982146,"current_range_meters":29200,"station_id":"ce4bhbp2rcd13ifvqesg","pricing_plan_id":"cebpf4jnsgd1na2vs0mg"},{"bike_id":"3294f086-7799-44ae-a276-3c0dd5e216ea","system_id":"levelo_inurba_marseille","lat":43.293249,"lon":5.371578,"is_reserved":false,"is_disabled":false,"rental_uris":{"android":"levelo://app?vid=3294f086-7799-44ae-a276-3c0dd5e216ea","ios":"levelo://app?vid=3294f086-7799-44ae-a276-3c0dd5e216ea"},"vehicle_type_id":"4","last_reported":1713982146,"current_range_meters":15600,"station_id":"ce4bgh92rcd13ifvqb40","pricing_plan_id":"cebpf4jnsgd1na2vs0mg"},{"bike_id":"0023e829-5649-4e24-8872-b8f239d15662","system_id":"levelo_inurba_marseille","lat":43.29305,"lon":5.37184,"is_reserved":false,"is_disabled":false,"rental_uris":{"android":"levelo://app?vid=0023e829-5649-4e24-8872-b8f239d15662","ios":"levelo://app?vid=0023e829-5649-4e24-8872-b8f239d15662"},"vehicle_type_id":"4","last_reported":1713982146,"current_range_meters":2400,"station_id":"ce4bgh92rcd13ifvqb40","pricing_plan_id":"cebpf4jnsgd1na2vs0mg"},{"bike_id":"563e2c5a-be40-4a45-9797-6bd5b575596d","system_id":"levelo_inurba_marseille","lat":43.292749,"lon":5.368402,"is_reserved":false,"is_disabled":false,"rental_uris":{"android":"levelo://app?vid=563e2c5a-be40-4a45-9797-6bd5b575596d","ios":"levelo://app?vid=563e2c5a-be40-4a45-9797-6bd5b575596d"},"vehicle_type_id":"4","last_reported":1713982146,"current_range_meters":800,"station_id":"ce4bhbp2rcd13ifvqesg","pricing_plan_id":"cebpf4jnsgd1na2vs0mg"},{"bike_id":"3190e011-9d54-48c3-8df4-24c375041388","system_id":"levelo_inurba_marseille","lat":43.292749,"lon":5.368402,"is_reserved":false,"is_disabled":false,"rental_uris":{"android":"levelo://app?vid=3190e011-9d54-48c3-8df4-24c375041388","ios":"levelo://app?vid=3190e011-9d54-48c3-8df4-24c375041388"},"vehicle_type_id":"4","last_reported":1713982146,"current_range_meters":23200,"station_id":"ce4bhbp2rcd13ifvqesg","pricing_plan_id":"cebpf4jnsgd1na2vs0mg"},{"bike_id":"36e2739b-43a9-45f4-9f57-84bb4d7d7bb0","system_id":"levelo_inurba_marseille","lat":43.293009,"lon":5.374584,"is_reserved":false,"is_disabled":false,"rental_uris":{"android":"levelo://app?vid=36e2739b-43a9-45f4-9f57-84bb4d7d7bb0","ios":"levelo://app?vid=36e2739b-43a9-45f4-9f57-84bb4d7d7bb0"},"vehicle_type_id":"4","last_reported":1713982146,"current_range_meters":2800,"station_id":"ce4bgi12rcd13ifvqb70","pricing_plan_id":"cebpf4jnsgd1na2vs0mg"},{"bike_id":"97162b9b-ad98-4f36-a9a9-89f73ee2c0c3","system_id":"levelo_inurba_marseille","lat":43.297163,"lon":5.365866,"is_reserved":false,"is_disabled":false,"rental_uris":{"android":"levelo://app?vid=97162b9b-ad98-4f36-a9a9-89f73ee2c0c3","ios":"levelo://app?vid=97162b9b-ad98-4f36-a9a9-89f73ee2c0c3"},"vehicle_type_id":"4","last_reported":1713982146,"current_range_meters":13600,"station_id":"ce4bgn12rcd13ifvqbt0","pricing_plan_id":"cebpf4jnsgd1na2vs0mg"},{"bike_id":"b9b71557-7b08-4786-a3e1-d89a0e9568dc","system_id":"levelo_inurba_marseille","lat":43.293009,"lon":5.374584,"is_reserved":false,"is_disabled":false,"rental_uris":{"android":"levelo://app?vid=b9b71557-7b08-4786-a3e1-d89a0e9568dc","ios":"levelo://app?vid=b9b71557-7b08-4786-a3e1-d89a0e9568dc"},"vehicle_type_id":"4","last_reported":1713982146,"current_range_meters":2800,"station_id":"ce4bgi12rcd13ifvqb70","pricing_plan_id":"cebpf4jnsgd1na2vs0mg"},{"bike_id":"5d82be2e-3f17-43b9-9c92-8ac343601543","system_id":"levelo_inurba_marseille","lat":43.293009,"lon":5.374584,"is_reserved":false,"is_disabled":false,"rental_uris":{"android":"levelo://app?vid=5d82be2e-3f17-43b9-9c92-8ac343601543","ios":"levelo://app?vid=5d82be2e-3f17-43b9-9c92-8ac343601543"},"vehicle_type_id":"4","last_reported":1713982146,"current_range_meters":0,"station_id":"ce4bgi12rcd13ifvqb70","pricing_plan_id":"cebpf4jnsgd1na2vs0mg"},{"bike_id":"b9e62fbc-16f4-4dac-b029-d035e23b06c8","system_id":"levelo_inurba_marseille","lat":43.292327,"lon":5.369055,"is_reserved":false,"is_disabled":false,"rental_uris":{"android":"levelo://app?vid=b9e62fbc-16f4-4dac-b029-d035e23b06c8","ios":"levelo://app?vid=b9e62fbc-16f4-4dac-b029-d035e23b06c8"},"vehicle_type_id":"4","last_reported":1713982146,"current_range_meters":4000,"station_id":"ce4bhbp2rcd13ifvqesg","pricing_plan_id":"cebpf4jnsgd1na2vs0mg"},{"bike_id":"d4e77909-4f01-4583-ac20-894f63bd1ab9","system_id":"levelo_inurba_marseille","lat":43.304096,"lon":5.425385,"is_reserved":false,"is_disabled":false,"rental_uris":{"android":"levelo://app?vid=d4e77909-4f01-4583-ac20-894f63bd1ab9","ios":"levelo://app?vid=d4e77909-4f01-4583-ac20-894f63bd1ab9"},"vehicle_type_id":"4","last_reported":1713982146,"current_range_meters":15200,"station_id":"ce4bhoh2rcd13ifvqh6g","pricing_plan_id":"cebpf4jnsgd1na2vs0mg"},{"bike_id":"4e80bd65-489a-4fb3-800d-9fcae8d400fb","system_id":"levelo_inurba_marseille","lat":43.294162,"lon":5.386292,"is_reserved":false,"is_disabled":false,"rental_uris":{"android":"levelo://app?vid=4e80bd65-489a-4fb3-800d-9fcae8d400fb","ios":"levelo://app?vid=4e80bd65-489a-4fb3-800d-9fcae8d400fb"},"vehicle_type_id":"4","last_reported":1713982146,"current_range_meters":23200,"station_id":"ce4bh2h2rcd13ifvqdh0","pricing_plan_id":"cebpf4jnsgd1na2vs0mg"},{"bike_id":"adcfac25-0054-490b-8fba-619add2b7fc3","system_id":"levelo_inurba_marseille","lat":43.293009,"lon":5.374584,"is_reserved":false,"is_disabled":false,"rental_uris":{"android":"levelo://app?vid=adcfac25-0054-490b-8fba-619add2b7fc3","ios":"levelo://app?vid=adcfac25-0054-490b-8fba-619add2b7fc3"},"vehicle_type_id":"4","last_reported":1713982146,"current_range_meters":13600,"station_id":"ce4bgi12rcd13ifvqb70","pricing_plan_id":"cebpf4jnsgd1na2vs0mg"},{"bike_id":"1fc80ce1-af4b-402c-bfde-a7bd18e36839","system_id":"levelo_inurba_marseille","lat":43.326605,"lon":5.409903,"is_reserved":false,"is_disabled":false,"rental_uris":{"android":"levelo://app?vid=1fc80ce1-af4b-402c-bfde-a7bd18e36839","ios":"levelo://app?vid=1fc80ce1-af4b-402c-bfde-a7bd18e36839"},"vehicle_type_id":"4","last_reported":1713982146,"current_range_meters":14800,"station_id":"ce4bhpp2rcd13ifvqhgg","pricing_plan_id":"cebpf4jnsgd1na2vs0mg"},{"bike_id":"a50683f5-2f29-4801-83b2-80aee5f41158","system_id":"levelo_inurba_marseille","lat":43.305994,"lon":5.393687,"is_reserved":false,"is_disabled":false,"rental_uris":{"android":"levelo://app?vid=a50683f5-2f29-4801-83b2-80aee5f41158","ios":"levelo://app?vid=a50683f5-2f29-4801-83b2-80aee5f41158"},"vehicle_type_id":"4","last_reported":1713982146,"current_range_meters":27600,"station_id":"ce4bh0p2rcd13ifvqd80","pricing_plan_id":"cebpf4jnsgd1na2vs0mg"},{"bike_id":"d74bac33-ad2b-4cd0-ad25-9af6b4801911","system_id":"levelo_inurba_marseille","lat":43.293009,"lon":5.374584,"is_reserved":false,"is_disabled":false,"rental_uris":{"android":"levelo://app?vid=d74bac33-ad2b-4cd0-ad25-9af6b4801911","ios":"levelo://app?vid=d74bac33-ad2b-4cd0-ad25-9af6b4801911"},"vehicle_type_id":"4","last_reported":1713982146,"current_range_meters":2000,"station_id":"ce4bgi12rcd13ifvqb70","pricing_plan_id":"cebpf4jnsgd1na2vs0mg"},{"bike_id":"5be12598-f5a4-42a4-b926-37c659e1e44f","system_id":"levelo_inurba_marseille","lat":43.303002,"lon":5.392142,"is_reserved":false,"is_disabled":false,"rental_uris":{"android":"levelo://app?vid=5be12598-f5a4-42a4-b926-37c659e1e44f","ios":"levelo://app?vid=5be12598-f5a4-42a4-b926-37c659e1e44f"},"vehicle_type_id":"4","last_reported":1713982146,"current_range_meters":10400,"station_id":"ce4bgkh2rcd13ifvqbk0","pricing_plan_id":"cebpf4jnsgd1na2vs0mg"},{"bike_id":"ad627836-c35a-4ec9-b572-d3dd09750beb","system_id":"levelo_inurba_marseille","lat":43.292311,"lon":5.360731,"is_reserved":false,"is_disabled":false,"rental_uris":{"android":"levelo://app?vid=ad627836-c35a-4ec9-b572-d3dd09750beb","ios":"levelo://app?vid=ad627836-c35a-4ec9-b572-d3dd09750beb"},"vehicle_type_id":"4","last_reported":1713982146,"current_range_meters":23200,"station_id":"ce4bhbh2rcd13ifvqeqg","pricing_plan_id":"cebpf4jnsgd1na2vs0mg"},{"bike_id":"b35e557c-1d3a-48bb-8e4d-7e36a32da5aa","system_id":"levelo_inurba_marseille","lat":43.302992,"lon":5.392136,"is_reserved":false,"is_disabled":false,"rental_uris":{"android":"levelo://app?vid=b35e557c-1d3a-48bb-8e4d-7e36a32da5aa","ios":"levelo://app?vid=b35e557c-1d3a-48bb-8e4d-7e36a32da5aa"},"vehicle_type_id":"4","last_reported":1713982146,"current_range_meters":2400,"station_id":"ce4bgkh2rcd13ifvqbk0","pricing_plan_id":"cebpf4jnsgd1na2vs0mg"},{"bike_id":"9ed9693f-9e25-496d-84da-3a98dc8ed957","system_id":"levelo_inurba_marseille","lat":43.30104,"lon":5.39079,"is_reserved":false,"is_disabled":false,"rental_uris":{"android":"levelo://app?vid=9ed9693f-9e25-496d-84da-3a98dc8ed957","ios":"levelo://app?vid=9ed9693f-9e25-496d-84da-3a98dc8ed957"},"vehicle_type_id":"4","last_reported":1713982146,"current_range_meters":25600,"station_id":"ce4bh192rcd13ifvqdb0","pricing_plan_id":"cebpf4jnsgd1na2vs0mg"},{"bike_id":"cd982510-18b8-4d25-93b5-228a3c8d6bbc","system_id":"levelo_inurba_marseille","lat":43.292311,"lon":5.360731,"is_reserved":false,"is_disabled":false,"rental_uris":{"android":"levelo://app?vid=cd982510-18b8-4d25-93b5-228a3c8d6bbc","ios":"levelo://app?vid=cd982510-18b8-4d25-93b5-228a3c8d6bbc"},"vehicle_type_id":"4","last_reported":1713982146,"current_range_meters":20400,"station_id":"ce4bhbh2rcd13ifvqeqg","pricing_plan_id":"cebpf4jnsgd1na2vs0mg"},{"bike_id":"5019467a-44df-4ec4-8e67-d31b973d1ac4","system_id":"levelo_inurba_marseille","lat":43.292311,"lon":5.360731,"is_reserved":false,"is_disabled":false,"rental_uris":{"android":"levelo://app?vid=5019467a-44df-4ec4-8e67-d31b973d1ac4","ios":"levelo://app?vid=5019467a-44df-4ec4-8e67-d31b973d1ac4"},"vehicle_type_id":"4","last_reported":1713982146,"current_range_meters":4000,"station_id":"ce4bhbh2rcd13ifvqeqg","pricing_plan_id":"cebpf4jnsgd1na2vs0mg"},{"bike_id":"bd2de9f1-76eb-4954-9f42-81edbb9d81df","system_id":"levelo_inurba_marseille","lat":43.30085,"lon":5.390856,"is_reserved":false,"is_disabled":false,"rental_uris":{"android":"levelo://app?vid=bd2de9f1-76eb-4954-9f42-81edbb9d81df","ios":"levelo://app?vid=bd2de9f1-76eb-4954-9f42-81edbb9d81df"},"vehicle_type_id":"4","last_reported":1713982146,"current_range_meters":31200,"station_id":"ce4bh192rcd13ifvqdb0","pricing_plan_id":"cebpf4jnsgd1na2vs0mg"},{"bike_id":"6af279aa-07df-40ea-beef-f245f90ff211","system_id":"levelo_inurba_marseille","lat":43.292311,"lon":5.360731,"is_reserved":false,"is_disabled":false,"rental_uris":{"android":"levelo://app?vid=6af279aa-07df-40ea-beef-f245f90ff211","ios":"levelo://app?vid=6af279aa-07df-40ea-beef-f245f90ff211"},"vehicle_type_id":"4","last_reported":1713982146,"current_range_meters":16000,"station_id":"ce4bhbh2rcd13ifvqeqg","pricing_plan_id":"cebpf4jnsgd1na2vs0mg"},{"bike_id":"c966738e-de65-42ac-b01e-e7a0af8a0099","system_id":"levelo_inurba_marseille","lat":43.300912,"lon":5.390778,"is_reserved":false,"is_disabled":false,"rental_uris":{"android":"levelo://app?vid=c966738e-de65-42ac-b01e-e7a0af8a0099","ios":"levelo://app?vid=c966738e-de65-42ac-b01e-e7a0af8a0099"},"vehicle_type_id":"4","last_reported":1713982146,"current_range_meters":20000,"station_id":"ce4bh192rcd13ifvqdb0","pricing_plan_id":"cebpf4jnsgd1na2vs0mg"},{"bike_id":"5e0c56d0-4656-481a-b651-4ea1ada72998","system_id":"levelo_inurba_marseille","lat":43.2936,"lon":5.37835,"is_reserved":false,"is_disabled":false,"rental_uris":{"android":"levelo://app?vid=5e0c56d0-4656-481a-b651-4ea1ada72998","ios":"levelo://app?vid=5e0c56d0-4656-481a-b651-4ea1ada72998"},"vehicle_type_id":"4","last_reported":1713982146,"current_range_meters":0,"station_id":"ce4bgjh2rcd13ifvqbf0","pricing_plan_id":"cebpf4jnsgd1na2vs0mg"},{"bike_id":"95e594ef-9ebb-4097-9fb4-e4990ff0fbfc","system_id":"levelo_inurba_marseille","lat":43.293009,"lon":5.374584,"is_reserved":false,"is_disabled":false,"rental_uris":{"android":"levelo://app?vid=95e594ef-9ebb-4097-9fb4-e4990ff0fbfc","ios":"levelo://app?vid=95e594ef-9ebb-4097-9fb4-e4990ff0fbfc"},"vehicle_type_id":"4","last_reported":1713982146,"current_range_meters":17600,"station_id":"ce4bgi12rcd13ifvqb70","pricing_plan_id":"cebpf4jnsgd1na2vs0mg"},{"bike_id":"c39ff52f-5e90-49ae-99b5-6c39b50712b8","system_id":"levelo_inurba_marseille","lat":43.30099,"lon":5.39092,"is_reserved":false,"is_disabled":false,"rental_uris":{"android":"levelo://app?vid=c39ff52f-5e90-49ae-99b5-6c39b50712b8","ios":"levelo://app?vid=c39ff52f-5e90-49ae-99b5-6c39b50712b8"},"vehicle_type_id":"4","last_reported":1713982146,"current_range_meters":8000,"station_id":"ce4bh192rcd13ifvqdb0","pricing_plan_id":"cebpf4jnsgd1na2vs0mg"},{"bike_id":"9d5500a3-e4a5-464c-8526-e07d7b04f239","system_id":"levelo_inurba_marseille","lat":43.286039,"lon":5.370679,"is_reserved":false,"is_disabled":false,"rental_uris":{"android":"levelo://app?vid=9d5500a3-e4a5-464c-8526-e07d7b04f239","ios":"levelo://app?vid=9d5500a3-e4a5-464c-8526-e07d7b04f239"},"vehicle_type_id":"4","last_reported":1713982146,"current_range_meters":0,"station_id":"ce4bht12rcd13ifvqi60","pricing_plan_id":"cebpf4jnsgd1na2vs0mg"},{"bike_id":"69c7607e-3a38-4db3-9017-af22f724ab79","system_id":"levelo_inurba_marseille","lat":43.292311,"lon":5.360731,"is_reserved":false,"is_disabled":false,"rental_uris":{"android":"levelo://app?vid=69c7607e-3a38-4db3-9017-af22f724ab79","ios":"levelo://app?vid=69c7607e-3a38-4db3-9017-af22f724ab79"},"vehicle_type_id":"4","last_reported":1713982146,"current_range_meters":6000,"station_id":"ce4bhbh2rcd13ifvqeqg","pricing_plan_id":"cebpf4jnsgd1na2vs0mg"},{"bike_id":"87d9417b-8837-4566-a696-fa8b9f22e71b","system_id":"levelo_inurba_marseille","lat":43.29897,"lon":5.38899,"is_reserved":false,"is_disabled":false,"rental_uris":{"android":"levelo://app?vid=87d9417b-8837-4566-a696-fa8b9f22e71b","ios":"levelo://app?vid=87d9417b-8837-4566-a696-fa8b9f22e71b"},"vehicle_type_id":"4","last_reported":1713982146,"current_range_meters":14400,"station_id":"ce4bh392rcd13ifvqdl0","pricing_plan_id":"cebpf4jnsgd1na2vs0mg"},{"bike_id":"92fe6c37-9401-4397-9811-c69e5b97fbe2","system_id":"levelo_inurba_marseille","lat":43.2989,"lon":5.38891,"is_reserved":false,"is_disabled":false,"rental_uris":{"android":"levelo://app?vid=92fe6c37-9401-4397-9811-c69e5b97fbe2","ios":"levelo://app?vid=92fe6c37-9401-4397-9811-c69e5b97fbe2"},"vehicle_type_id":"4","last_reported":1713982146,"current_range_meters":8800,"station_id":"ce4bh392rcd13ifvqdl0","pricing_plan_id":"cebpf4jnsgd1na2vs0mg"},{"bike_id":"4ae2cbb1-e979-4392-81a4-643ee5325b69","system_id":"levelo_inurba_marseille","lat":43.29885,"lon":5.38901,"is_reserved":false,"is_disabled":false,"rental_uris":{"android":"levelo://app?vid=4ae2cbb1-e979-4392-81a4-643ee5325b69","ios":"levelo://app?vid=4ae2cbb1-e979-4392-81a4-643ee5325b69"},"vehicle_type_id":"4","last_reported":1713982146,"current_range_meters":28000,"station_id":"ce4bh392rcd13ifvqdl0","pricing_plan_id":"cebpf4jnsgd1na2vs0mg"},{"bike_id":"98a43146-e9fe-4468-a3df-2f39f959fae5","system_id":"levelo_inurba_marseille","lat":43.298764,"lon":5.388973,"is_reserved":false,"is_disabled":false,"rental_uris":{"android":"levelo://app?vid=98a43146-e9fe-4468-a3df-2f39f959fae5","ios":"levelo://app?vid=98a43146-e9fe-4468-a3df-2f39f959fae5"},"vehicle_type_id":"4","last_reported":1713982146,"current_range_meters":23200,"station_id":"ce4bh392rcd13ifvqdl0","pricing_plan_id":"cebpf4jnsgd1na2vs0mg"},{"bike_id":"1c9b5e4a-3f8f-47fd-a3d2-49ced7fcc7ae","system_id":"levelo_inurba_marseille","lat":43.29887,"lon":5.38905,"is_reserved":false,"is_disabled":false,"rental_uris":{"android":"levelo://app?vid=1c9b5e4a-3f8f-47fd-a3d2-49ced7fcc7ae","ios":"levelo://app?vid=1c9b5e4a-3f8f-47fd-a3d2-49ced7fcc7ae"},"vehicle_type_id":"4","last_reported":1713982146,"current_range_meters":12800,"station_id":"ce4bh392rcd13ifvqdl0","pricing_plan_id":"cebpf4jnsgd1na2vs0mg"},{"bike_id":"f748ddbc-3406-4ab7-b3a5-814f112a2aa2","system_id":"levelo_inurba_marseille","lat":43.298764,"lon":5.388973,"is_reserved":false,"is_disabled":false,"rental_uris":{"android":"levelo://app?vid=f748ddbc-3406-4ab7-b3a5-814f112a2aa2","ios":"levelo://app?vid=f748ddbc-3406-4ab7-b3a5-814f112a2aa2"},"vehicle_type_id":"4","last_reported":1713982146,"current_range_meters":11200,"station_id":"ce4bh392rcd13ifvqdl0","pricing_plan_id":"cebpf4jnsgd1na2vs0mg"},{"bike_id":"7e141e3b-22ad-4d57-9ef2-7df34c90b2e9","system_id":"levelo_inurba_marseille","lat":43.291671,"lon":5.371575,"is_reserved":false,"is_disabled":false,"rental_uris":{"android":"levelo://app?vid=7e141e3b-22ad-4d57-9ef2-7df34c90b2e9","ios":"levelo://app?vid=7e141e3b-22ad-4d57-9ef2-7df34c90b2e9"},"vehicle_type_id":"4","last_reported":1713982146,"current_range_meters":8800,"station_id":"ce4bha92rcd13ifvqeh0","pricing_plan_id":"cebpf4jnsgd1na2vs0mg"},{"bike_id":"e4a2f833-d1b7-49a7-94e9-386f8d2235ee","system_id":"levelo_inurba_marseille","lat":43.29885,"lon":5.38907,"is_reserved":false,"is_disabled":false,"rental_uris":{"android":"levelo://app?vid=e4a2f833-d1b7-49a7-94e9-386f8d2235ee","ios":"levelo://app?vid=e4a2f833-d1b7-49a7-94e9-386f8d2235ee"},"vehicle_type_id":"4","last_reported":1713982146,"current_range_meters":21200,"station_id":"ce4bh392rcd13ifvqdl0","pricing_plan_id":"cebpf4jnsgd1na2vs0mg"},{"bike_id":"ac7f6c03-1127-4052-b8c7-917e81b12e4f","system_id":"levelo_inurba_marseille","lat":43.290104,"lon":5.356111,"is_reserved":false,"is_disabled":false,"rental_uris":{"android":"levelo://app?vid=ac7f6c03-1127-4052-b8c7-917e81b12e4f","ios":"levelo://app?vid=ac7f6c03-1127-4052-b8c7-917e81b12e4f"},"vehicle_type_id":"4","last_reported":1713982146,"current_range_meters":14400,"station_id":"ce4bhb92rcd13ifvqen0","pricing_plan_id":"cebpf4jnsgd1na2vs0mg"},{"bike_id":"3abefe89-f5a0-4803-a466-95ddc2cf9b0a","system_id":"levelo_inurba_marseille","lat":43.29883,"lon":5.38906,"is_reserved":false,"is_disabled":false,"rental_uris":{"android":"levelo://app?vid=3abefe89-f5a0-4803-a466-95ddc2cf9b0a","ios":"levelo://app?vid=3abefe89-f5a0-4803-a466-95ddc2cf9b0a"},"vehicle_type_id":"4","last_reported":1713982146,"current_range_meters":10800,"station_id":"ce4bh392rcd13ifvqdl0","pricing_plan_id":"cebpf4jnsgd1na2vs0mg"},{"bike_id":"3c956c24-d10a-4f5b-9ffd-3bf9297db600","system_id":"levelo_inurba_marseille","lat":43.29883,"lon":5.38908,"is_reserved":false,"is_disabled":false,"rental_uris":{"android":"levelo://app?vid=3c956c24-d10a-4f5b-9ffd-3bf9297db600","ios":"levelo://app?vid=3c956c24-d10a-4f5b-9ffd-3bf9297db600"},"vehicle_type_id":"4","last_reported":1713982146,"current_range_meters":14800,"station_id":"ce4bh392rcd13ifvqdl0","pricing_plan_id":"cebpf4jnsgd1na2vs0mg"},{"bike_id":"e7453f34-e1d5-4fe4-9df6-47281bee97c6","system_id":"levelo_inurba_marseille","lat":43.298764,"lon":5.388973,"is_reserved":false,"is_disabled":false,"rental_uris":{"android":"levelo://app?vid=e7453f34-e1d5-4fe4-9df6-47281bee97c6","ios":"levelo://app?vid=e7453f34-e1d5-4fe4-9df6-47281bee97c6"},"vehicle_type_id":"4","last_reported":1713982146,"current_range_meters":27200,"station_id":"ce4bh392rcd13ifvqdl0","pricing_plan_id":"cebpf4jnsgd1na2vs0mg"},{"bike_id":"812ae96e-d1a3-4433-acaa-4118defcc53f","system_id":"levelo_inurba_marseille","lat":43.298764,"lon":5.388973,"is_reserved":false,"is_disabled":false,"rental_uris":{"android":"levelo://app?vid=812ae96e-d1a3-4433-acaa-4118defcc53f","ios":"levelo://app?vid=812ae96e-d1a3-4433-acaa-4118defcc53f"},"vehicle_type_id":"4","last_reported":1713982146,"current_range_meters":25200,"station_id":"ce4bh392rcd13ifvqdl0","pricing_plan_id":"cebpf4jnsgd1na2vs0mg"},{"bike_id":"c7021719-7316-4037-908e-62d6cfd26306","system_id":"levelo_inurba_marseille","lat":43.29876,"lon":5.38904,"is_reserved":false,"is_disabled":false,"rental_uris":{"android":"levelo://app?vid=c7021719-7316-4037-908e-62d6cfd26306","ios":"levelo://app?vid=c7021719-7316-4037-908e-62d6cfd26306"},"vehicle_type_id":"4","last_reported":1713982146,"current_range_meters":8400,"station_id":"ce4bh392rcd13ifvqdl0","pricing_plan_id":"cebpf4jnsgd1na2vs0mg"},{"bike_id":"2105827c-3251-43cd-9bf3-e202c97fe6a1","system_id":"levelo_inurba_marseille","lat":43.291994,"lon":5.357886,"is_reserved":false,"is_disabled":false,"rental_uris":{"android":"levelo://app?vid=2105827c-3251-43cd-9bf3-e202c97fe6a1","ios":"levelo://app?vid=2105827c-3251-43cd-9bf3-e202c97fe6a1"},"vehicle_type_id":"4","last_reported":1713982146,"current_range_meters":12000,"station_id":"ce4bhb12rcd13ifvqel0","pricing_plan_id":"cebpf4jnsgd1na2vs0mg"},{"bike_id":"8152205b-23ed-4696-9afc-09923b9062c0","system_id":"levelo_inurba_marseille","lat":43.298764,"lon":5.388973,"is_reserved":false,"is_disabled":false,"rental_uris":{"android":"levelo://app?vid=8152205b-23ed-4696-9afc-09923b9062c0","ios":"levelo://app?vid=8152205b-23ed-4696-9afc-09923b9062c0"},"vehicle_type_id":"4","last_reported":1713982146,"current_range_meters":26400,"station_id":"ce4bh392rcd13ifvqdl0","pricing_plan_id":"cebpf4jnsgd1na2vs0mg"},{"bike_id":"1004d042-9599-432a-8492-c22f5d9a763c","system_id":"levelo_inurba_marseille","lat":43.292005,"lon":5.357875,"is_reserved":false,"is_disabled":false,"rental_uris":{"android":"levelo://app?vid=1004d042-9599-432a-8492-c22f5d9a763c","ios":"levelo://app?vid=1004d042-9599-432a-8492-c22f5d9a763c"},"vehicle_type_id":"4","last_reported":1713982146,"current_range_meters":5600,"station_id":"ce4bhb12rcd13ifvqel0","pricing_plan_id":"cebpf4jnsgd1na2vs0mg"},{"bike_id":"b16389dc-5033-4df4-b7c8-e88b83722a58","system_id":"levelo_inurba_marseille","lat":43.29203,"lon":5.35886,"is_reserved":false,"is_disabled":false,"rental_uris":{"android":"levelo://app?vid=b16389dc-5033-4df4-b7c8-e88b83722a58","ios":"levelo://app?vid=b16389dc-5033-4df4-b7c8-e88b83722a58"},"vehicle_type_id":"4","last_reported":1713982146,"current_range_meters":17600,"station_id":"","pricing_plan_id":"cebpf4jnsgd1na2vs0mg"},{"bike_id":"c3978124-6ee7-4d67-9753-55f8d4c38c3a","system_id":"levelo_inurba_marseille","lat":43.29529,"lon":5.385581,"is_reserved":false,"is_disabled":false,"rental_uris":{"android":"levelo://app?vid=c3978124-6ee7-4d67-9753-55f8d4c38c3a","ios":"levelo://app?vid=c3978124-6ee7-4d67-9753-55f8d4c38c3a"},"vehicle_type_id":"4","last_reported":1713982146,"current_range_meters":26400,"station_id":"ce4bgih2rcd13ifvqba0","pricing_plan_id":"cebpf4jnsgd1na2vs0mg"},{"bike_id":"ce67a636-89a2-4436-bd37-4adc0ebc7649","system_id":"levelo_inurba_marseille","lat":43.292005,"lon":5.357875,"is_reserved":false,"is_disabled":false,"rental_uris":{"android":"levelo://app?vid=ce67a636-89a2-4436-bd37-4adc0ebc7649","ios":"levelo://app?vid=ce67a636-89a2-4436-bd37-4adc0ebc7649"},"vehicle_type_id":"4","last_reported":1713982146,"current_range_meters":22800,"station_id":"ce4bhb12rcd13ifvqel0","pricing_plan_id":"cebpf4jnsgd1na2vs0mg"},{"bike_id":"e2397925-7676-4692-8901-d440c077a4c9","system_id":"levelo_inurba_marseille","lat":43.309038,"lon":5.396546,"is_reserved":false,"is_disabled":false,"rental_uris":{"android":"levelo://app?vid=e2397925-7676-4692-8901-d440c077a4c9","ios":"levelo://app?vid=e2397925-7676-4692-8901-d440c077a4c9"},"vehicle_type_id":"4","last_reported":1713982146,"current_range_meters":31200,"station_id":"ce4bh012rcd13ifvqcv0","pricing_plan_id":"cebpf4jnsgd1na2vs0mg"},{"bike_id":"b8a8d3ba-dfc5-4a35-b28d-aa75f897e30b","system_id":"levelo_inurba_marseille","lat":43.292005,"lon":5.357875,"is_reserved":false,"is_disabled":false,"rental_uris":{"android":"levelo://app?vid=b8a8d3ba-dfc5-4a35-b28d-aa75f897e30b","ios":"levelo://app?vid=b8a8d3ba-dfc5-4a35-b28d-aa75f897e30b"},"vehicle_type_id":"4","last_reported":1713982146,"current_range_meters":13200,"station_id":"ce4bhb12rcd13ifvqel0","pricing_plan_id":"cebpf4jnsgd1na2vs0mg"},{"bike_id":"4ab6b4fa-5254-4010-b048-e6aa8ebba463","system_id":"levelo_inurba_marseille","lat":43.291999,"lon":5.358008,"is_reserved":false,"is_disabled":false,"rental_uris":{"android":"levelo://app?vid=4ab6b4fa-5254-4010-b048-e6aa8ebba463","ios":"levelo://app?vid=4ab6b4fa-5254-4010-b048-e6aa8ebba463"},"vehicle_type_id":"4","last_reported":1713982146,"current_range_meters":13600,"station_id":"","pricing_plan_id":"cebpf4jnsgd1na2vs0mg"},{"bike_id":"49b07811-4533-4e13-bed3-510b00badefe","system_id":"levelo_inurba_marseille","lat":43.309047,"lon":5.396551,"is_reserved":false,"is_disabled":false,"rental_uris":{"android":"levelo://app?vid=49b07811-4533-4e13-bed3-510b00badefe","ios":"levelo://app?vid=49b07811-4533-4e13-bed3-510b00badefe"},"vehicle_type_id":"4","last_reported":1713982146,"current_range_meters":28800,"station_id":"ce4bh012rcd13ifvqcv0","pricing_plan_id":"cebpf4jnsgd1na2vs0mg"},{"bike_id":"e541da65-93a5-4d81-969d-3aa8cef842d1","system_id":"levelo_inurba_marseille","lat":43.291994,"lon":5.357886,"is_reserved":false,"is_disabled":false,"rental_uris":{"android":"levelo://app?vid=e541da65-93a5-4d81-969d-3aa8cef842d1","ios":"levelo://app?vid=e541da65-93a5-4d81-969d-3aa8cef842d1"},"vehicle_type_id":"4","last_reported":1713982146,"current_range_meters":14800,"station_id":"ce4bhb12rcd13ifvqel0","pricing_plan_id":"cebpf4jnsgd1na2vs0mg"},{"bike_id":"8b1ab277-cc22-4e4a-b9a7-04e1628a5211","system_id":"levelo_inurba_marseille","lat":43.292005,"lon":5.357875,"is_reserved":false,"is_disabled":false,"rental_uris":{"android":"levelo://app?vid=8b1ab277-cc22-4e4a-b9a7-04e1628a5211","ios":"levelo://app?vid=8b1ab277-cc22-4e4a-b9a7-04e1628a5211"},"vehicle_type_id":"4","last_reported":1713982146,"current_range_meters":18400,"station_id":"ce4bhb12rcd13ifvqel0","pricing_plan_id":"cebpf4jnsgd1na2vs0mg"},{"bike_id":"e86d1b7e-c627-43a2-8848-a2a2d87d6769","system_id":"levelo_inurba_marseille","lat":43.291944,"lon":5.357996,"is_reserved":false,"is_disabled":false,"rental_uris":{"android":"levelo://app?vid=e86d1b7e-c627-43a2-8848-a2a2d87d6769","ios":"levelo://app?vid=e86d1b7e-c627-43a2-8848-a2a2d87d6769"},"vehicle_type_id":"4","last_reported":1713982146,"current_range_meters":12800,"station_id":"","pricing_plan_id":"cebpf4jnsgd1na2vs0mg"},{"bike_id":"153e4fd2-46b8-4abf-9ea6-5db61c4071ed","system_id":"levelo_inurba_marseille","lat":43.291994,"lon":5.357886,"is_reserved":false,"is_disabled":false,"rental_uris":{"android":"levelo://app?vid=153e4fd2-46b8-4abf-9ea6-5db61c4071ed","ios":"levelo://app?vid=153e4fd2-46b8-4abf-9ea6-5db61c4071ed"},"vehicle_type_id":"4","last_reported":1713982146,"current_range_meters":20000,"station_id":"ce4bhb12rcd13ifvqel0","pricing_plan_id":"cebpf4jnsgd1na2vs0mg"},{"bike_id":"6a3e5ee4-3098-4985-9da5-c681d03fc84d","system_id":"levelo_inurba_marseille","lat":43.291994,"lon":5.357886,"is_reserved":false,"is_disabled":false,"rental_uris":{"android":"levelo://app?vid=6a3e5ee4-3098-4985-9da5-c681d03fc84d","ios":"levelo://app?vid=6a3e5ee4-3098-4985-9da5-c681d03fc84d"},"vehicle_type_id":"4","last_reported":1713982146,"current_range_meters":0,"station_id":"ce4bhb12rcd13ifvqel0","pricing_plan_id":"cebpf4jnsgd1na2vs0mg"},{"bike_id":"c1d6f5f3-88bf-4f68-8585-8ee20dfbcdaf","system_id":"levelo_inurba_marseille","lat":43.309038,"lon":5.396546,"is_reserved":false,"is_disabled":false,"rental_uris":{"android":"levelo://app?vid=c1d6f5f3-88bf-4f68-8585-8ee20dfbcdaf","ios":"levelo://app?vid=c1d6f5f3-88bf-4f68-8585-8ee20dfbcdaf"},"vehicle_type_id":"4","last_reported":1713982146,"current_range_meters":7200,"station_id":"ce4bh012rcd13ifvqcv0","pricing_plan_id":"cebpf4jnsgd1na2vs0mg"},{"bike_id":"d95dd86d-d929-4073-9da9-4a84a772ec79","system_id":"levelo_inurba_marseille","lat":43.291994,"lon":5.357886,"is_reserved":false,"is_disabled":false,"rental_uris":{"android":"levelo://app?vid=d95dd86d-d929-4073-9da9-4a84a772ec79","ios":"levelo://app?vid=d95dd86d-d929-4073-9da9-4a84a772ec79"},"vehicle_type_id":"4","last_reported":1713982146,"current_range_meters":0,"station_id":"ce4bhb12rcd13ifvqel0","pricing_plan_id":"cebpf4jnsgd1na2vs0mg"},{"bike_id":"82807e4f-39f2-4fbf-8431-560a2f2f992d","system_id":"levelo_inurba_marseille","lat":43.30889,"lon":5.39645,"is_reserved":false,"is_disabled":false,"rental_uris":{"android":"levelo://app?vid=82807e4f-39f2-4fbf-8431-560a2f2f992d","ios":"levelo://app?vid=82807e4f-39f2-4fbf-8431-560a2f2f992d"},"vehicle_type_id":"4","last_reported":1713982146,"current_range_meters":6800,"station_id":"ce4bh012rcd13ifvqcv0","pricing_plan_id":"cebpf4jnsgd1na2vs0mg"},{"bike_id":"a6543812-72f8-4259-8e2d-e0dfc60af540","system_id":"levelo_inurba_marseille","lat":43.313291,"lon":5.396838,"is_reserved":false,"is_disabled":false,"rental_uris":{"android":"levelo://app?vid=a6543812-72f8-4259-8e2d-e0dfc60af540","ios":"levelo://app?vid=a6543812-72f8-4259-8e2d-e0dfc60af540"},"vehicle_type_id":"4","last_reported":1713982146,"current_range_meters":4400,"station_id":"ce4bgvp2rcd13ifvqcu0","pricing_plan_id":"cebpf4jnsgd1na2vs0mg"},{"bike_id":"1a7b78bf-907e-4212-a7ba-acabfc8308b2","system_id":"levelo_inurba_marseille","lat":43.292005,"lon":5.357875,"is_reserved":false,"is_disabled":false,"rental_uris":{"android":"levelo://app?vid=1a7b78bf-907e-4212-a7ba-acabfc8308b2","ios":"levelo://app?vid=1a7b78bf-907e-4212-a7ba-acabfc8308b2"},"vehicle_type_id":"4","last_reported":1713982146,"current_range_meters":8000,"station_id":"ce4bhb12rcd13ifvqel0","pricing_plan_id":"cebpf4jnsgd1na2vs0mg"},{"bike_id":"7ceb74a2-b9a5-4274-9f83-2eec8625af90","system_id":"levelo_inurba_marseille","lat":43.313291,"lon":5.396838,"is_reserved":false,"is_disabled":false,"rental_uris":{"android":"levelo://app?vid=7ceb74a2-b9a5-4274-9f83-2eec8625af90","ios":"levelo://app?vid=7ceb74a2-b9a5-4274-9f83-2eec8625af90"},"vehicle_type_id":"4","last_reported":1713982146,"current_range_meters":15600,"station_id":"ce4bgvp2rcd13ifvqcu0","pricing_plan_id":"cebpf4jnsgd1na2vs0mg"},{"bike_id":"5dddb448-8924-4227-bae3-3324f2eac20a","system_id":"levelo_inurba_marseille","lat":43.291994,"lon":5.357886,"is_reserved":false,"is_disabled":false,"rental_uris":{"android":"levelo://app?vid=5dddb448-8924-4227-bae3-3324f2eac20a","ios":"levelo://app?vid=5dddb448-8924-4227-bae3-3324f2eac20a"},"vehicle_type_id":"4","last_reported":1713982146,"current_range_meters":31200,"station_id":"ce4bhb12rcd13ifvqel0","pricing_plan_id":"cebpf4jnsgd1na2vs0mg"},{"bike_id":"e42d19ce-4649-4d3c-b783-975b2f77d338","system_id":"levelo_inurba_marseille","lat":43.313291,"lon":5.396838,"is_reserved":false,"is_disabled":false,"rental_uris":{"android":"levelo://app?vid=e42d19ce-4649-4d3c-b783-975b2f77d338","ios":"levelo://app?vid=e42d19ce-4649-4d3c-b783-975b2f77d338"},"vehicle_type_id":"4","last_reported":1713982146,"current_range_meters":20400,"station_id":"ce4bgvp2rcd13ifvqcu0","pricing_plan_id":"cebpf4jnsgd1na2vs0mg"},{"bike_id":"173d1821-0afb-411a-9f3f-8fa507ae178e","system_id":"levelo_inurba_marseille","lat":43.31331,"lon":5.39695,"is_reserved":false,"is_disabled":false,"rental_uris":{"android":"levelo://app?vid=173d1821-0afb-411a-9f3f-8fa507ae178e","ios":"levelo://app?vid=173d1821-0afb-411a-9f3f-8fa507ae178e"},"vehicle_type_id":"4","last_reported":1713982146,"current_range_meters":8400,"station_id":"ce4bgvp2rcd13ifvqcu0","pricing_plan_id":"cebpf4jnsgd1na2vs0mg"},{"bike_id":"6815b8fa-8a86-4195-8059-9b2c3635a2cd","system_id":"levelo_inurba_marseille","lat":43.308863,"lon":5.396487,"is_reserved":false,"is_disabled":false,"rental_uris":{"android":"levelo://app?vid=6815b8fa-8a86-4195-8059-9b2c3635a2cd","ios":"levelo://app?vid=6815b8fa-8a86-4195-8059-9b2c3635a2cd"},"vehicle_type_id":"4","last_reported":1713982146,"current_range_meters":4000,"station_id":"ce4bh012rcd13ifvqcv0","pricing_plan_id":"cebpf4jnsgd1na2vs0mg"},{"bike_id":"2cbd2ea9-7736-4940-a3a7-061d8134a3ad","system_id":"levelo_inurba_marseille","lat":43.308896,"lon":5.396504,"is_reserved":false,"is_disabled":false,"rental_uris":{"android":"levelo://app?vid=2cbd2ea9-7736-4940-a3a7-061d8134a3ad","ios":"levelo://app?vid=2cbd2ea9-7736-4940-a3a7-061d8134a3ad"},"vehicle_type_id":"4","last_reported":1713982146,"current_range_meters":18400,"station_id":"ce4bh012rcd13ifvqcv0","pricing_plan_id":"cebpf4jnsgd1na2vs0mg"},{"bike_id":"13d1dc38-9ae8-4ba0-b724-614d59ab163c","system_id":"levelo_inurba_marseille","lat":43.291994,"lon":5.357886,"is_reserved":false,"is_disabled":false,"rental_uris":{"android":"levelo://app?vid=13d1dc38-9ae8-4ba0-b724-614d59ab163c","ios":"levelo://app?vid=13d1dc38-9ae8-4ba0-b724-614d59ab163c"},"vehicle_type_id":"4","last_reported":1713982146,"current_range_meters":12800,"station_id":"ce4bhb12rcd13ifvqel0","pricing_plan_id":"cebpf4jnsgd1na2vs0mg"},{"bike_id":"44dc9a9a-00ba-4994-a3ab-9ca5bf79f211","system_id":"levelo_inurba_marseille","lat":43.3133,"lon":5.39699,"is_reserved":false,"is_disabled":false,"rental_uris":{"android":"levelo://app?vid=44dc9a9a-00ba-4994-a3ab-9ca5bf79f211","ios":"levelo://app?vid=44dc9a9a-00ba-4994-a3ab-9ca5bf79f211"},"vehicle_type_id":"4","last_reported":1713982146,"current_range_meters":26800,"station_id":"ce4bgvp2rcd13ifvqcu0","pricing_plan_id":"cebpf4jnsgd1na2vs0mg"},{"bike_id":"199c3715-d5a4-4f84-b56f-772be581a284","system_id":"levelo_inurba_marseille","lat":43.313291,"lon":5.396838,"is_reserved":false,"is_disabled":false,"rental_uris":{"android":"levelo://app?vid=199c3715-d5a4-4f84-b56f-772be581a284","ios":"levelo://app?vid=199c3715-d5a4-4f84-b56f-772be581a284"},"vehicle_type_id":"4","last_reported":1713982146,"current_range_meters":31200,"station_id":"ce4bgvp2rcd13ifvqcu0","pricing_plan_id":"cebpf4jnsgd1na2vs0mg"},{"bike_id":"463e0fb3-3a70-45bf-8b13-7e80637b1529","system_id":"levelo_inurba_marseille","lat":43.313253,"lon":5.397035,"is_reserved":false,"is_disabled":false,"rental_uris":{"android":"levelo://app?vid=463e0fb3-3a70-45bf-8b13-7e80637b1529","ios":"levelo://app?vid=463e0fb3-3a70-45bf-8b13-7e80637b1529"},"vehicle_type_id":"4","last_reported":1713982146,"current_range_meters":7200,"station_id":"ce4bgvp2rcd13ifvqcu0","pricing_plan_id":"cebpf4jnsgd1na2vs0mg"},{"bike_id":"a377a648-65ea-4939-8a15-0f15541269ad","system_id":"levelo_inurba_marseille","lat":43.29529,"lon":5.385581,"is_reserved":false,"is_disabled":false,"rental_uris":{"android":"levelo://app?vid=a377a648-65ea-4939-8a15-0f15541269ad","ios":"levelo://app?vid=a377a648-65ea-4939-8a15-0f15541269ad"},"vehicle_type_id":"4","last_reported":1713982146,"current_range_meters":31200,"station_id":"ce4bgih2rcd13ifvqba0","pricing_plan_id":"cebpf4jnsgd1na2vs0mg"},{"bike_id":"b0a9a739-9cca-42a3-bbea-dc6c591b5483","system_id":"levelo_inurba_marseille","lat":43.29529,"lon":5.385581,"is_reserved":false,"is_disabled":false,"rental_uris":{"android":"levelo://app?vid=b0a9a739-9cca-42a3-bbea-dc6c591b5483","ios":"levelo://app?vid=b0a9a739-9cca-42a3-bbea-dc6c591b5483"},"vehicle_type_id":"4","last_reported":1713982146,"current_range_meters":12800,"station_id":"ce4bgih2rcd13ifvqba0","pricing_plan_id":"cebpf4jnsgd1na2vs0mg"},{"bike_id":"51a89aae-9bf1-42e9-ba1f-19afa28d7055","system_id":"levelo_inurba_marseille","lat":43.308757,"lon":5.396588,"is_reserved":false,"is_disabled":false,"rental_uris":{"android":"levelo://app?vid=51a89aae-9bf1-42e9-ba1f-19afa28d7055","ios":"levelo://app?vid=51a89aae-9bf1-42e9-ba1f-19afa28d7055"},"vehicle_type_id":"4","last_reported":1713982146,"current_range_meters":5600,"station_id":"","pricing_plan_id":"cebpf4jnsgd1na2vs0mg"},{"bike_id":"64f33f53-b45e-4793-8b4b-db06f8986938","system_id":"levelo_inurba_marseille","lat":43.29529,"lon":5.385581,"is_reserved":false,"is_disabled":false,"rental_uris":{"android":"levelo://app?vid=64f33f53-b45e-4793-8b4b-db06f8986938","ios":"levelo://app?vid=64f33f53-b45e-4793-8b4b-db06f8986938"},"vehicle_type_id":"4","last_reported":1713982146,"current_range_meters":17600,"station_id":"ce4bgih2rcd13ifvqba0","pricing_plan_id":"cebpf4jnsgd1na2vs0mg"},