{"last_updated":1716491203,"ttl":30,"version":"2.2","data":{"bikes":[{"bike_id":"efdf0042-33b1-43ed-9a3d-76e5fe15e655","system_id":"levelo_inurba_marseille","lat":43.312239,"lon":5.368562,"is_reserved":false,"is_disabled":false,"rental_uris":{"android":"levelo://app?vid=efdf0042-33b1-43ed-9a3d-76e5fe15e655","ios":"levelo://app?vid=efdf0042-33b1-43ed-9a3d-76e5fe15e655"},"vehicle_type_id":"4","last_reported":1716491203,"current_range_meters":21200,"station_id":"ce4bgl92rcd13ifvqbq0","pricing_plan_id":"cebpf4jnsgd1na2vs0mg"},{"bike_id":"50dd5e21-1a38-471c-a0ea-5884c0e3d73e","system_id":"levelo_inurba_marseille","lat":43.309076,"lon":5.368465,"is_reserved":false,"is_disabled":false,"rental_uris":{"android":"levelo://app?vid=50dd5e21-1a38-471c-a0ea-5884c0e3d73e","ios":"levelo://app?vid=50dd5e21-1a38-471c-a0ea-5884c0e3d73e"},"vehicle_type_id":"4","last_reported":1716491203,"current_range_meters":15200,"station_id":"ce4bgn92rcd13ifvqbvg","pricing_plan_id":"cebpf4jnsgd1na2vs0mg"},{"bike_id":"df2fe891-528c-47d3-88bc-aad0a447cc3a","system_id":"levelo_inurba_marseille","lat":43.309076,"lon":5.368465,"is_reserved":false,"is_disabled":false,"rental_uris":{"android":"levelo://app?vid=df2fe891-528c-47d3-88bc-aad0a447cc3a","ios":"levelo://app?vid=df2fe891-528c-47d3-88bc-aad0a447cc3a"},"vehicle_type_id":"4","last_reported":1716491203,"current_range_meters":12800,"station_id":"ce4bgn92rcd13ifvqbvg","pricing_plan_id":"cebpf4jnsgd1na2vs0mg"},{"bike_id":"ab6ce438-f1ad-460d-b8f0-28470da6245f","system_id":"levelo_inurba_marseille","lat":43.314811,"lon":5.373104,"is_reserved":false,"is_disabled":false,"rental_uris":{"android":"levelo://app?vid=ab6ce438-f1ad-460d-b8f0-28470da6245f","ios":"levelo://app?vid=ab6ce438-f1ad-460d-b8f0-28470da6245f"},"vehicle_type_id":"4","last_reported":1716491203,"current_range_meters":18400,"station_id":"ce4bgt12rcd13ifvqcd0","pricing_plan_id":"cebpf4jnsgd1na2vs0mg"},{"bike_id":"12ce15c4-596b-4a7d-b2d0-e172ee1ffdd1","system_id":"levelo_inurba_marseille","lat":43.309039,"lon":5.371797,"is_reserved":false,"is_disabled":false,"rental_uris":{"android":"levelo://app?vid=12ce15c4-596b-4a7d-b2d0-e172ee1ffdd1","ios":"levelo://app?vid=12ce15c4-596b-4a7d-b2d0-e172ee1ffdd1"},"vehicle_type_id":"4","last_reported":1716491203,"current_range_meters":9600,"station_id":"ce4bguh2rcd13ifvqckg","pricing_plan_id":"cebpf4jnsgd1na2vs0mg"},{"bike_id":"968495b3-d4e7-45bc-87a0-4af2ca477ed8","system_id":"levelo_inurba_marseille","lat":43.309034,"lon":5.371783,"is_reserved":false,"is_disabled":false,"rental_uris":{"android":"levelo://app?vid=968495b3-d4e7-45bc-87a0-4af2ca477ed8","ios":"levelo://app?vid=968495b3-d4e7-45bc-87a0-4af2ca477ed8"},"vehicle_type_id":"4","last_reported":1716491203,"current_range_meters":0,"station_id":"ce4bguh2rcd13ifvqckg","pricing_plan_id":"cebpf4jnsgd1na2vs0mg"},{"bike_id":"22191c28-8c20-4507-b659-9263a53a741d","system_id":"levelo_inurba_marseille","lat":43.30876,"lon":5.3719,"is_reserved":false,"is_disabled":false,"rental_uris":{"android":"levelo://app?vid=22191c28-8c20-4507-b659-9263a53a741d","ios":"levelo://app?vid=22191c28-8c20-4507-b659-9263a53a741d"},"vehicle_type_id":"4","last_reported":1716491203,"current_range_meters":24000,"station_id":"ce4bguh2rcd13ifvqckg","pricing_plan_id":"cebpf4jnsgd1na2vs0mg"},{"bike_id":"c085775d-cd1d-4532-807b-245386054af8","system_id":"levelo_inurba_marseille","lat":43.309034,"lon":5.371783,"is_reserved":false,"is_disabled":false,"rental_uris":{"android":"levelo://app?vid=c085775d-cd1d-4532-807b-245386054af8","ios":"levelo://app?vid=c085775d-cd1d-4532-807b-245386054af8"},"vehicle_type_id":"4","last_reported":1716491203,"current_range_meters":24400,"station_id":"ce4bguh2rcd13ifvqckg","pricing_plan_id":"cebpf4jnsgd1na2vs0mg"},{"bike_id":"e4632e7a-2deb-48a7-808d-6c5307f12802","system_id":"levelo_inurba_marseille","lat":43.31672,"lon":5.3722,"is_reserved":false,"is_disabled":false,"rental_uris":{"android":"levelo://app?vid=e4632e7a-2deb-48a7-808d-6c5307f12802","ios":"levelo://app?vid=e4632e7a-2deb-48a7-808d-6c5307f12802"},"vehicle_type_id":"4","last_reported":1716491203,"current_range_meters":6000,"station_id":"","pricing_plan_id":"cebpf4jnsgd1na2vs0mg"},{"bike_id":"085f8808-1d82-4a31-a42a-8e58df7e3717","system_id":"levelo_inurba_marseille","lat":43.305989,"lon":5.37225,"is_reserved":false,"is_disabled":false,"rental_uris":{"android":"levelo://app?vid=085f8808-1d82-4a31-a42a-8e58df7e3717","ios":"levelo://app?vid=085f8808-1d82-4a31-a42a-8e58df7e3717"},"vehicle_type_id":"4","last_reported":1716491203,"current_range_meters":31200,"station_id":"ce4bgqh2rcd13ifvqc4g","pricing_plan_id":"cebpf4jnsgd1na2vs0mg"},{"bike_id":"5ce2d0e8-7d8f-4f0d-addf-06cb752e4394","system_id":"levelo_inurba_marseille","lat":43.305989,"lon":5.37225,"is_reserved":false,"is_disabled":false,"rental_uris":{"android":"levelo://app?vid=5ce2d0e8-7d8f-4f0d-addf-06cb752e4394","ios":"levelo://app?vid=5ce2d0e8-7d8f-4f0d-addf-06cb752e4394"},"vehicle_type_id":"4","last_reported":1716491203,"current_range_meters":0,"station_id":"ce4bgqh2rcd13ifvqc4g","pricing_plan_id":"cebpf4jnsgd1na2vs0mg"},{"bike_id":"919d1921-3c01-4f01-b1b8-ded2b087b667","system_id":"levelo_inurba_marseille","lat":43.311125,"lon":5.377624,"is_reserved":false,"is_disabled":false,"rental_uris":{"android":"levelo://app?vid=919d1921-3c01-4f01-b1b8-ded2b087b667","ios":"levelo://app?vid=919d1921-3c01-4f01-b1b8-ded2b087b667"},"vehicle_type_id":"4","last_reported":1716491203,"current_range_meters":14400,"station_id":"ce4bgt92rcd13ifvqcg0","pricing_plan_id":"cebpf4jnsgd1na2vs0mg"},{"bike_id":"59705796-7c3e-4ef0-b1eb-7e3159bf08bd","system_id":"levelo_inurba_marseille","lat":43.311131,"lon":5.377651,"is_reserved":false,"is_disabled":false,"rental_uris":{"android":"levelo://app?vid=59705796-7c3e-4ef0-b1eb-7e3159bf08bd","ios":"levelo://app?vid=59705796-7c3e-4ef0-b1eb-7e3159bf08bd"},"vehicle_type_id":"4","last_reported":1716491203,"current_range_meters":0,"station_id":"ce4bgt92rcd13ifvqcg0","pricing_plan_id":"cebpf4jnsgd1na2vs0mg"},{"bike_id":"68fee5b5-4750-401c-a31a-2bbb61cb0a79","system_id":"levelo_inurba_marseille","lat":43.311125,"lon":5.377624,"is_reserved":false,"is_disabled":false,"rental_uris":{"android":"levelo://app?vid=68fee5b5-4750-401c-a31a-2bbb61cb0a79","ios":"levelo://app?vid=68fee5b5-4750-401c-a31a-2bbb61cb0a79"},"vehicle_type_id":"4","last_reported":1716491203,"current_range_meters":1200,"station_id":"ce4bgt92rcd13ifvqcg0","pricing_plan_id":"cebpf4jnsgd1na2vs0mg"},{"bike_id":"23834caf-997d-465c-ad0e-ae85e6ff96ca","system_id":"levelo_inurba_marseille","lat":43.311131,"lon":5.377651,"is_reserved":false,"is_disabled":false,"rental_uris":{"android":"levelo://app?vid=23834caf-997d-465c-ad0e-ae85e6ff96ca","ios":"levelo://app?vid=23834caf-997d-465c-ad0e-ae85e6ff96ca"},"vehicle_type_id":"4","last_reported":1716491203,"current_range_meters":2800,"station_id":"ce4bgt92rcd13ifvqcg0","pricing_plan_id":"cebpf4jnsgd1na2vs0mg"},{"bike_id":"cddb03a2-11d9-4f78-8bbe-fb0ba2b585a3","system_id":"levelo_inurba_marseille","lat":43.305822,"lon":5.372498,"is_reserved":false,"is_disabled":false,"rental_uris":{"android":"levelo://app?vid=cddb03a2-11d9-4f78-8bbe-fb0ba2b585a3","ios":"levelo://app?vid=cddb03a2-11d9-4f78-8bbe-fb0ba2b585a3"},"vehicle_type_id":"4","last_reported":1716491203,"current_range_meters":1200,"station_id":"ce4bguh2rcd13ifvqckg","pricing_plan_id":"cebpf4jnsgd1na2vs0mg"},{"bike_id":"3dfedd7f-b599-486e-9673-ab9184ee7d92","system_id":"levelo_inurba_marseille","lat":43.311283,"lon":5.37781,"is_reserved":false,"is_disabled":false,"rental_uris":{"android":"levelo://app?vid=3dfedd7f-b599-486e-9673-ab9184ee7d92","ios":"levelo://app?vid=3dfedd7f-b599-486e-9673-ab9184ee7d92"},"vehicle_type_id":"4","last_reported":1716491203,"current_range_meters":0,"station_id":"ce4bgt92rcd13ifvqcg0","pricing_plan_id":"cebpf4jnsgd1na2vs0mg"},{"bike_id":"980a0099-576e-41aa-99e6-251b2f096dc0","system_id":"levelo_inurba_marseille","lat":43.307945,"lon":5.376487,"is_reserved":false,"is_disabled":false,"rental_uris":{"android":"levelo://app?vid=980a0099-576e-41aa-99e6-251b2f096dc0","ios":"levelo://app?vid=980a0099-576e-41aa-99e6-251b2f096dc0"},"vehicle_type_id":"4","last_reported":1716491203,"current_range_meters":12800,"station_id":"ce4bgv92rcd13ifvqcq0","pricing_plan_id":"cebpf4jnsgd1na2vs0mg"},{"bike_id":"49026ce9-79d6-4979-8e07-fcc8bdf42947","system_id":"levelo_inurba_marseille","lat":43.307945,"lon":5.376487,"is_reserved":false,"is_disabled":false,"rental_uris":{"android":"levelo://app?vid=49026ce9-79d6-4979-8e07-fcc8bdf42947","ios":"levelo://app?vid=49026ce9-79d6-4979-8e07-fcc8bdf42947"},"vehicle_type_id":"4","last_reported":1716491203,"current_range_meters":9600,"station_id":"ce4bgv92rcd13ifvqcq0","pricing_plan_id":"cebpf4jnsgd1na2vs0mg"},{"bike_id":"d4f3beca-461b-4b02-a4a1-080740438150","system_id":"levelo_inurba_marseille","lat":43.307945,"lon":5.376487,"is_reserved":false,"is_disabled":false,"rental_uris":{"android":"levelo://app?vid=d4f3beca-461b-4b02-a4a1-080740438150","ios":"levelo://app?vid=d4f3beca-461b-4b02-a4a1-080740438150"},"vehicle_type_id":"4","last_reported":1716491203,"current_range_meters":22400,"station_id":"ce4bgv92rcd13ifvqcq0","pricing_plan_id":"cebpf4jnsgd1na2vs0mg"},{"bike_id":"7386c8bd-dc03-458f-8731-b6a10ed8f487","system_id":"levelo_inurba_marseille","lat":43.315289,"lon":5.380349,"is_reserved":false,"is_disabled":false,"rental_uris":{"android":"levelo://app?vid=7386c8bd-dc03-458f-8731-b6a10ed8f487","ios":"levelo://app?vid=7386c8bd-dc03-458f-8731-b6a10ed8f487"},"vehicle_type_id":"4","last_reported":1716491203,"current_range_meters":26400,"station_id":"ce4bhsp2rcd13ifvqi50","pricing_plan_id":"cebpf4jnsgd1na2vs0mg"},{"bike_id":"8c5dec91-690f-44ff-8aa2-742bf1b6b534","system_id":"levelo_inurba_marseille","lat":43.298433,"lon":5.362774,"is_reserved":false,"is_disabled":false,"rental_uris":{"android":"levelo://app?vid=8c5dec91-690f-44ff-8aa2-742bf1b6b534","ios":"levelo://app?vid=8c5dec91-690f-44ff-8aa2-742bf1b6b534"},"vehicle_type_id":"4","last_reported":1716491203,"current_range_meters":12400,"station_id":"ce4bgpp2rcd13ifvqc3g","pricing_plan_id":"cebpf4jnsgd1na2vs0mg"},{"bike_id":"374db631-8359-48da-9bc7-270a9743c0f9","system_id":"levelo_inurba_marseille","lat":43.315293,"lon":5.380349,"is_reserved":false,"is_disabled":false,"rental_uris":{"android":"levelo://app?vid=374db631-8359-48da-9bc7-270a9743c0f9","ios":"levelo://app?vid=374db631-8359-48da-9bc7-270a9743c0f9"},"vehicle_type_id":"4","last_reported":1716491203,"current_range_meters":0,"station_id":"ce4bhsp2rcd13ifvqi50","pricing_plan_id":"cebpf4jnsgd1na2vs0mg"},{"bike_id":"3327d5e1-9b84-4263-9c52-c6e2665bb526","system_id":"levelo_inurba_marseille","lat":43.315289,"lon":5.380349,"is_reserved":false,"is_disabled":false,"rental_uris":{"android":"levelo://app?vid=3327d5e1-9b84-4263-9c52-c6e2665bb526","ios":"levelo://app?vid=3327d5e1-9b84-4263-9c52-c6e2665bb526"},"vehicle_type_id":"4","last_reported":1716491203,"current_range_meters":29600,"station_id":"ce4bhsp2rcd13ifvqi50","pricing_plan_id":"cebpf4jnsgd1na2vs0mg"},{"bike_id":"50b38bc0-c4de-42f2-8d9c-31e3661974ea","system_id":"levelo_inurba_marseille","lat":43.301939,"lon":5.366286,"is_reserved":false,"is_disabled":false,"rental_uris":{"android":"levelo://app?vid=50b38bc0-c4de-42f2-8d9c-31e3661974ea","ios":"levelo://app?vid=50b38bc0-c4de-42f2-8d9c-31e3661974ea"},"vehicle_type_id":"4","last_reported":1716491203,"current_range_meters":3600,"station_id":"ce4bgrh2rcd13ifvqc8g","pricing_plan_id":"cebpf4jnsgd1na2vs0mg"},{"bike_id":"898faf29-2c08-4418-be24-5e6f998b653b","system_id":"levelo_inurba_marseille","lat":43.307986,"lon":5.381571,"is_reserved":false,"is_disabled":false,"rental_uris":{"android":"levelo://app?vid=898faf29-2c08-4418-be24-5e6f998b653b","ios":"levelo://app?vid=898faf29-2c08-4418-be24-5e6f998b653b"},"vehicle_type_id":"4","last_reported":1716491203,"current_range_meters":800,"station_id":"ce4bgt12rcd13ifvqce0","pricing_plan_id":"cebpf4jnsgd1na2vs0mg"},{"bike_id":"c2d3df3e-9a6c-49eb-b941-13f27c7442d4","system_id":"levelo_inurba_marseille","lat":43.308012,"lon":5.381511,"is_reserved":false,"is_disabled":false,"rental_uris":{"android":"levelo://app?vid=c2d3df3e-9a6c-49eb-b941-13f27c7442d4","ios":"levelo://app?vid=c2d3df3e-9a6c-49eb-b941-13f27c7442d4"},"vehicle_type_id":"4","last_reported":1716491203,"current_range_meters":3600,"station_id":"ce4bgt12rcd13ifvqce0","pricing_plan_id":"cebpf4jnsgd1na2vs0mg"},{"bike_id":"03b2d0ac-4855-463a-a2f0-be21041dc802","system_id":"levelo_inurba_marseille","lat":43.304606,"lon":5.379026,"is_reserved":false,"is_disabled":false,"rental_uris":{"android":"levelo://app?vid=03b2d0ac-4855-463a-a2f0-be21041dc802","ios":"levelo://app?vid=03b2d0ac-4855-463a-a2f0-be21041dc802"},"vehicle_type_id":"4","last_reported":1716491203,"current_range_meters":31200,"station_id":"ce4bgup2rcd13ifvqcn0","pricing_plan_id":"cebpf4jnsgd1na2vs0mg"},{"bike_id":"19426f56-7860-40a4-bab9-ea94bd07ad46","system_id":"levelo_inurba_marseille","lat":43.324771,"lon":5.36557,"is_reserved":false,"is_disabled":false,"rental_uris":{"android":"levelo://app?vid=19426f56-7860-40a4-bab9-ea94bd07ad46","ios":"levelo://app?vid=19426f56-7860-40a4-bab9-ea94bd07ad46"},"vehicle_type_id":"4","last_reported":1716491203,"current_range_meters":15600,"station_id":"ce4bhs12rcd13ifvqhvg","pricing_plan_id":"cebpf4jnsgd1na2vs0mg"},{"bike_id":"42eb0216-486f-426c-8689-af60469d2531","system_id":"levelo_inurba_marseille","lat":43.324771,"lon":5.36557,"is_reserved":false,"is_disabled":false,"rental_uris":{"android":"levelo://app?vid=42eb0216-486f-426c-8689-af60469d2531","ios":"levelo://app?vid=42eb0216-486f-426c-8689-af60469d2531"},"vehicle_type_id":"4","last_reported":1716491203,"current_range_meters":8000,"station_id":"ce4bhs12rcd13ifvqhvg","pricing_plan_id":"cebpf4jnsgd1na2vs0mg"},{"bike_id":"ee31fd60-0692-46a7-a2a3-0cbd05db7acf","system_id":"levelo_inurba_marseille","lat":43.32485,"lon":5.36554,"is_reserved":false,"is_disabled":false,"rental_uris":{"android":"levelo://app?vid=ee31fd60-0692-46a7-a2a3-0cbd05db7acf","ios":"levelo://app?vid=ee31fd60-0692-46a7-a2a3-0cbd05db7acf"},"vehicle_type_id":"4","last_reported":1716491203,"current_range_meters":0,"station_id":"ce4bhs12rcd13ifvqhvg","pricing_plan_id":"cebpf4jnsgd1na2vs0mg"},{"bike_id":"7d06b7c9-08aa-4be2-bbc8-dc21c222c64a","system_id":"levelo_inurba_marseille","lat":43.32486,"lon":5.36563,"is_reserved":false,"is_disabled":false,"rental_uris":{"android":"levelo://app?vid=7d06b7c9-08aa-4be2-bbc8-dc21c222c64a","ios":"levelo://app?vid=7d06b7c9-08aa-4be2-bbc8-dc21c222c64a"},"vehicle_type_id":"4","last_reported":1716491203,"current_range_meters":1200,"station_id":"ce4bhs12rcd13ifvqhvg","pricing_plan_id":"cebpf4jnsgd1na2vs0mg"},{"bike_id":"5e274dbe-d20c-40a5-8922-6cca5516c00b","system_id":"levelo_inurba_marseille","lat":43.310701,"lon":5.383415,"is_reserved":false,"is_disabled":false,"rental_uris":{"android":"levelo://app?vid=5e274dbe-d20c-40a5-8922-6cca5516c00b","ios":"levelo://app?vid=5e274dbe-d20c-40a5-8922-6cca5516c00b"},"vehicle_type_id":"4","last_reported":1716491203,"current_range_meters":2000,"station_id":"ce4bgv92rcd13ifvqcr0","pricing_plan_id":"cebpf4jnsgd1na2vs0mg"},{"bike_id":"95471e62-00db-4f55-9d2e-1d4248223c6b","system_id":"levelo_inurba_marseille","lat":43.324771,"lon":5.36557,"is_reserved":false,"is_disabled":false,"rental_uris":{"android":"levelo://app?vid=95471e62-00db-4f55-9d2e-1d4248223c6b","ios":"levelo://app?vid=95471e62-00db-4f55-9d2e-1d4248223c6b"},"vehicle_type_id":"4","last_reported":1716491203,"current_range_meters":9600,"station_id":"ce4bhs12rcd13ifvqhvg","pricing_plan_id":"cebpf4jnsgd1na2vs0mg"},{"bike_id":"62dcb469-4347-4b6b-a9eb-ec2c75219fc2","system_id":"levelo_inurba_marseille","lat":43.310804,"lon":5.38359,"is_reserved":false,"is_disabled":false,"rental_uris":{"android":"levelo://app?vid=62dcb469-4347-4b6b-a9eb-ec2c75219fc2","ios":"levelo://app?vid=62dcb469-4347-4b6b-a9eb-ec2c75219fc2"},"vehicle_type_id":"4","last_reported":1716491203,"current_range_meters":18400,"station_id":"ce4bgv92rcd13ifvqcr0","pricing_plan_id":"cebpf4jnsgd1na2vs0mg"},{"bike_id":"71c2afe7-aef0-45f1-abd8-07f7e80a11c7","system_id":"levelo_inurba_marseille","lat":43.310804,"lon":5.38359,"is_reserved":false,"is_disabled":false,"rental_uris":{"android":"levelo://app?vid=71c2afe7-aef0-45f1-abd8-07f7e80a11c7","ios":"levelo://app?vid=71c2afe7-aef0-45f1-abd8-07f7e80a11c7"},"vehicle_type_id":"4","last_reported":1716491203,"current_range_meters":2000,"station_id":"ce4bgv92rcd13ifvqcr0","pricing_plan_id":"cebpf4jnsgd1na2vs0mg"},{"bike_id":"a57de94a-4703-4d07-a4bc-e43f2cb2f7a0","system_id":"levelo_inurba_marseille","lat":43.310804,"lon":5.38359,"is_reserved":false,"is_disabled":false,"rental_uris":{"android":"levelo://app?vid=a57de94a-4703-4d07-a4bc-e43f2cb2f7a0","ios":"levelo://app?vid=a57de94a-4703-4d07-a4bc-e43f2cb2f7a0"},"vehicle_type_id":"4","last_reported":1716491203,"current_range_meters":5600,"station_id":"ce4bgv92rcd13ifvqcr0","pricing_plan_id":"cebpf4jnsgd1na2vs0mg"},{"bike_id":"552a6c7f-6b1e-4bd2-8939-e95c347346b8","system_id":"levelo_inurba_marseille","lat":43.31061,"lon":5.38358,"is_reserved":false,"is_disabled":false,"rental_uris":{"android":"levelo://app?vid=552a6c7f-6b1e-4bd2-8939-e95c347346b8","ios":"levelo://app?vid=552a6c7f-6b1e-4bd2-8939-e95c347346b8"},"vehicle_type_id":"4","last_reported":1716491203,"current_range_meters":13600,"station_id":"ce4bgv92rcd13ifvqcr0","pricing_plan_id":"cebpf4jnsgd1na2vs0mg"},{"bike_id":"f5af61ba-ff1b-4f3c-9e05-ddb456a9f2f0","system_id":"levelo_inurba_marseille","lat":43.310804,"lon":5.38359,"is_reserved":false,"is_disabled":false,"rental_uris":{"android":"levelo://app?vid=f5af61ba-ff1b-4f3c-9e05-ddb456a9f2f0","ios":"levelo://app?vid=f5af61ba-ff1b-4f3c-9e05-ddb456a9f2f0"},"vehicle_type_id":"4","last_reported":1716491203,"current_range_meters":3600,"station_id":"ce4bgv92rcd13ifvqcr0","pricing_plan_id":"cebpf4jnsgd1na2vs0mg"},{"bike_id":"27b2f821-205e-4339-8c41-dc716dda6077","system_id":"levelo_inurba_marseille","lat":43.30143,"lon":5.37413,"is_reserved":false,"is_disabled":false,"rental_uris":{"android":"levelo://app?vid=27b2f821-205e-4339-8c41-dc716dda6077","ios":"levelo://app?vid=27b2f821-205e-4339-8c41-dc716dda6077"},"vehicle_type_id":"4","last_reported":1716491203,"current_range_meters":26800,"station_id":"ce4bgs92rcd13ifvqcc0","pricing_plan_id":"cebpf4jnsgd1na2vs0mg"},{"bike_id":"30959d62-c43d-4aea-86f5-032386424133","system_id":"levelo_inurba_marseille","lat":43.30143,"lon":5.37413,"is_reserved":false,"is_disabled":false,"rental_uris":{"android":"levelo://app?vid=30959d62-c43d-4aea-86f5-032386424133","ios":"levelo://app?vid=30959d62-c43d-4aea-86f5-032386424133"},"vehicle_type_id":"4","last_reported":1716491203,"current_range_meters":1600,"station_id":"ce4bgs92rcd13ifvqcc0","pricing_plan_id":"cebpf4jnsgd1na2vs0mg"},{"bike_id":"de619929-8b4c-4e00-9568-d06d2878bfd9","system_id":"levelo_inurba_marseille","lat":43.320019,"lon":5.381466,"is_reserved":false,"is_disabled":false,"rental_uris":{"android":"levelo://app?vid=de619929-8b4c-4e00-9568-d06d2878bfd9","ios":"levelo://app?vid=de619929-8b4c-4e00-9568-d06d2878bfd9"},"vehicle_type_id":"4","last_reported":1716491203,"current_range_meters":15200,"station_id":"ce4bhr12rcd13ifvqhpg","pricing_plan_id":"cebpf4jnsgd1na2vs0mg"},{"bike_id":"0fbe5198-f394-4686-a086-9ac196b8caea","system_id":"levelo_inurba_marseille","lat":43.320001,"lon":5.381484,"is_reserved":false,"is_disabled":false,"rental_uris":{"android":"levelo://app?vid=0fbe5198-f394-4686-a086-9ac196b8caea","ios":"levelo://app?vid=0fbe5198-f394-4686-a086-9ac196b8caea"},"vehicle_type_id":"4","last_reported":1716491203,"current_range_meters":26800,"station_id":"ce4bhr12rcd13ifvqhpg","pricing_plan_id":"cebpf4jnsgd1na2vs0mg"},{"bike_id":"71369abf-e394-4940-97da-986f25abee8b","system_id":"levelo_inurba_marseille","lat":43.320013,"lon":5.381476,"is_reserved":false,"is_disabled":false,"rental_uris":{"android":"levelo://app?vid=71369abf-e394-4940-97da-986f25abee8b","ios":"levelo://app?vid=71369abf-e394-4940-97da-986f25abee8b"},"vehicle_type_id":"4","last_reported":1716491203,"current_range_meters":400,"station_id":"ce4bhr12rcd13ifvqhpg","pricing_plan_id":"cebpf4jnsgd1na2vs0mg"},{"bike_id":"2ee98f44-7a43-459f-84cc-94a663da20ff","system_id":"levelo_inurba_marseille","lat":43.31991,"lon":5.38172,"is_reserved":false,"is_disabled":false,"rental_uris":{"android":"levelo://app?vid=2ee98f44-7a43-459f-84cc-94a663da20ff","ios":"levelo://app?vid=2ee98f44-7a43-459f-84cc-94a663da20ff"},"vehicle_type_id":"4","last_reported":1716491203,"current_range_meters":11200,"station_id":"ce4bhr12rcd13ifvqhpg","pricing_plan_id":"cebpf4jnsgd1na2vs0mg"},{"bike_id":"7fc14ccf-223b-4c4f-b1e6-e073d04ae84d","system_id":"levelo_inurba_marseille","lat":43.320009,"lon":5.381706,"is_reserved":false,"is_disabled":false,"rental_uris":{"android":"levelo://app?vid=7fc14ccf-223b-4c4f-b1e6-e073d04ae84d","ios":"levelo://app?vid=7fc14ccf-223b-4c4f-b1e6-e073d04ae84d"},"vehicle_type_id":"4","last_reported":1716491203,"current_range_meters":4800,"station_id":"ce4bhr12rcd13ifvqhpg","pricing_plan_id":"cebpf4jnsgd1na2vs0mg"},{"bike_id":"6ead9ff1-e04a-46e1-b71c-6339824dd6d4","system_id":"levelo_inurba_marseille","lat":43.313621,"lon":5.384961,"is_reserved":false,"is_disabled":false,"rental_uris":{"android":"levelo://app?vid=6ead9ff1-e04a-46e1-b71c-6339824dd6d4","ios":"levelo://app?vid=6ead9ff1-e04a-46e1-b71c-6339824dd6d4"},"vehicle_type_id":"4","last_reported":1716491203,"current_range_meters":0,"station_id":"ce4bgt92rcd13ifvqcf0","pricing_plan_id":"cebpf4jnsgd1na2vs0mg"},{"bike_id":"164498cd-c8ab-4c6d-8717-bc903cf3ae6c","system_id":"levelo_inurba_marseille","lat":43.322872,"lon":5.382756,"is_reserved":false,"is_disabled":false,"rental_uris":{"android":"levelo://app?vid=164498cd-c8ab-4c6d-8717-bc903cf3ae6c","ios":"levelo://app?vid=164498cd-c8ab-4c6d-8717-bc903cf3ae6c"},"vehicle_type_id":"4","last_reported":1716491203,"current_range_meters":0,"station_id":"ce4bhr12rcd13ifvqhqg","pricing_plan_id":"cebpf4jnsgd1na2vs0mg"},{"bike_id":"7dbe939a-8229-4303-8f8f-d400aa06f399","system_id":"levelo_inurba_marseille","lat":43.31365,"lon":5.38501,"is_reserved":false,"is_disabled":false,"rental_uris":{"android":"levelo://app?vid=7dbe939a-8229-4303-8f8f-d400aa06f399","ios":"levelo://app?vid=7dbe939a-8229-4303-8f8f-d400aa06f399"},"vehicle_type_id":"4","last_reported":1716491203,"current_range_meters":5600,"station_id":"ce4bgt92rcd13ifvqcf0","pricing_plan_id":"cebpf4jnsgd1na2vs0mg"},{"bike_id":"d467974e-bf78-436a-a1b4-e91409b13690","system_id":"levelo_inurba_marseille","lat":43.310804,"lon":5.38359,"is_reserved":false,"is_disabled":false,"rental_uris":{"android":"levelo://app?vid=d467974e-bf78-436a-a1b4-e91409b13690","ios":"levelo://app?vid=d467974e-bf78-436a-a1b4-e91409b13690"},"vehicle_type_id":"4","last_reported":1716491203,"current_range_meters":800,"station_id":"ce4bgv92rcd13ifvqcr0","pricing_plan_id":"cebpf4jnsgd1na2vs0mg"},{"bike_id":"7081edb9-796b-43a5-a986-0e12761b6cd5","system_id":"levelo_inurba_marseille","lat":43.29992,"lon":5.37193,"is_reserved":false,"is_disabled":false,"rental_uris":{"android":"levelo://app?vid=7081edb9-796b-43a5-a986-0e12761b6cd5","ios":"levelo://app?vid=7081edb9-796b-43a5-a986-0e12761b6cd5"},"vehicle_type_id":"4","last_reported":1716491203,"current_range_meters":0,"station_id":"ce4bgr92rcd13ifvqc7g","pricing_plan_id":"cebpf4jnsgd1na2vs0mg"},{"bike_id":"b81252b0-0dcf-4f96-8bb8-5076cd013b9f","system_id":"levelo_inurba_marseille","lat":43.299222,"lon":5.365554,"is_reserved":false,"is_disabled":false,"rental_uris":{"android":"levelo://app?vid=b81252b0-0dcf-4f96-8bb8-5076cd013b9f","ios":"levelo://app?vid=b81252b0-0dcf-4f96-8bb8-5076cd013b9f"},"vehicle_type_id":"4","last_reported":1716491203,"current_range_meters":2400,"station_id":"ce4bgm92rcd13ifvqbr0","pricing_plan_id":"cebpf4jnsgd1na2vs0mg"},{"bike_id":"34530668-036e-49bc-9922-253c2416c034","system_id":"levelo_inurba_marseille","lat":43.299724,"lon":5.371829,"is_reserved":false,"is_disabled":false,"rental_uris":{"android":"levelo://app?vid=34530668-036e-49bc-9922-253c2416c034","ios":"levelo://app?vid=34530668-036e-49bc-9922-253c2416c034"},"vehicle_type_id":"4","last_reported":1716491203,"current_range_meters":0,"station_id":"ce4bgr92rcd13ifvqc7g","pricing_plan_id":"cebpf4jnsgd1na2vs0mg"},{"bike_id":"23d07d3b-dc7b-4f18-9346-07af1dfec9c9","system_id":"levelo_inurba_marseille","lat":43.31281,"lon":5.38546,"is_reserved":false,"is_disabled":false,"rental_uris":{"android":"levelo://app?vid=23d07d3b-dc7b-4f18-9346-07af1dfec9c9","ios":"levelo://app?vid=23d07d3b-dc7b-4f18-9346-07af1dfec9c9"},"vehicle_type_id":"4","last_reported":1716491203,"current_range_meters":0,"station_id":"","pricing_plan_id":"cebpf4jnsgd1na2vs0mg"},{"bike_id":"215594b6-cac2-4362-ba14-fde58c529055","system_id":"levelo_inurba_marseille","lat":43.299222,"lon":5.365554,"is_reserved":false,"is_disabled":false,"rental_uris":{"android":"levelo://app?vid=215594b6-cac2-4362-ba14-fde58c529055","ios":"levelo://app?vid=215594b6-cac2-4362-ba14-fde58c529055"},"vehicle_type_id":"4","last_reported":1716491203,"current_range_meters":1200,"station_id":"ce4bgm92rcd13ifvqbr0","pricing_plan_id":"cebpf4jnsgd1na2vs0mg"},{"bike_id":"1e354665-b332-4ebd-a8b0-e13b84b35121","system_id":"levelo_inurba_marseille","lat":43.30642,"lon":5.401031,"is_reserved":false,"is_disabled":false,"rental_uris":{"android":"levelo://app?vid=1e354665-b332-4ebd-a8b0-e13b84b35121","ios":"levelo://app?vid=1e354665-b332-4ebd-a8b0-e13b84b35121"},"vehicle_type_id":"4","last_reported":1716491203,"current_range_meters":2400,"station_id":"ce4bh112rcd13ifvqda0","pricing_plan_id":"cebpf4jnsgd1na2vs0mg"},{"bike_id":"c09cb75e-89e6-4a0e-b6d4-65c8519af906","system_id":"levelo_inurba_marseille","lat":43.299222,"lon":5.365554,"is_reserved":false,"is_disabled":false,"rental_uris":{"android":"levelo://app?vid=c09cb75e-89e6-4a0e-b6d4-65c8519af906","ios":"levelo://app?vid=c09cb75e-89e6-4a0e-b6d4-65c8519af906"},"vehicle_type_id":"4","last_reported":1716491203,"current_range_meters":2000,"station_id":"ce4bgm92rcd13ifvqbr0","pricing_plan_id":"cebpf4jnsgd1na2vs0mg"},{"bike_id":"e0ee20a9-439f-48c7-b919-7c420b1aab17","system_id":"levelo_inurba_marseille","lat":43.305364,"lon":5.384119,"is_reserved":false,"is_disabled":false,"rental_uris":{"android":"levelo://app?vid=e0ee20a9-439f-48c7-b919-7c420b1aab17","ios":"levelo://app?vid=e0ee20a9-439f-48c7-b919-7c420b1aab17"},"vehicle_type_id":"4","last_reported":1716491203,"current_range_meters":16000,"station_id":"ce4bgg92rcd13ifvqb30","pricing_plan_id":"cebpf4jnsgd1na2vs0mg"},{"bike_id":"efa7002e-79f9-4851-a263-6e95f48ba0af","system_id":"levelo_inurba_marseille","lat":43.311596,"lon":5.38679,"is_reserved":false,"is_disabled":false,"rental_uris":{"android":"levelo://app?vid=efa7002e-79f9-4851-a263-6e95f48ba0af","ios":"levelo://app?vid=efa7002e-79f9-4851-a263-6e95f48ba0af"},"vehicle_type_id":"4","last_reported":1716491203,"current_range_meters":2800,"station_id":"ce4bgv12rcd13ifvqcp0","pricing_plan_id":"cebpf4jnsgd1na2vs0mg"},{"bike_id":"3c9ff354-5199-4f67-a4e6-52686f32a2fe","system_id":"levelo_inurba_marseille","lat":43.298433,"lon":5.362774,"is_reserved":false,"is_disabled":false,"rental_uris":{"android":"levelo://app?vid=3c9ff354-5199-4f67-a4e6-52686f32a2fe","ios":"levelo://app?vid=3c9ff354-5199-4f67-a4e6-52686f32a2fe"},"vehicle_type_id":"4","last_reported":1716491203,"current_range_meters":0,"station_id":"ce4bgpp2rcd13ifvqc3g","pricing_plan_id":"cebpf4jnsgd1na2vs0mg"},{"bike_id":"b42e5368-6fb5-466b-8223-9af46044b449","system_id":"levelo_inurba_marseille","lat":43.298433,"lon":5.362774,"is_reserved":false,"is_disabled":false,"rental_uris":{"android":"levelo://app?vid=b42e5368-6fb5-466b-8223-9af46044b449","ios":"levelo://app?vid=b42e5368-6fb5-466b-8223-9af46044b449"},"vehicle_type_id":"4","last_reported":1716491203,"current_range_meters":0,"station_id":"ce4bgpp2rcd13ifvqc3g","pricing_plan_id":"cebpf4jnsgd1na2vs0mg"},{"bike_id":"8eeef390-0218-49f2-8c3b-7afa0c4cc554","system_id":"levelo_inurba_marseille","lat":43.310804,"lon":5.38359,"is_reserved":false,"is_disabled":false,"rental_uris":{"android":"levelo://app?vid=8eeef390-0218-49f2-8c3b-7afa0c4cc554","ios":"levelo://app?vid=8eeef390-0218-49f2-8c3b-7afa0c4cc554"},"vehicle_type_id":"4","last_reported":1716491203,"current_range_meters":400,"station_id":"ce4bgv92rcd13ifvqcr0","pricing_plan_id":"cebpf4jnsgd1na2vs0mg"},{"bike_id":"470803d8-a163-416e-b50e-2e2f41555743","system_id":"levelo_inurba_marseille","lat":43.298433,"lon":5.362774,"is_reserved":false,"is_disabled":false,"rental_uris":{"android":"levelo://app?vid=470803d8-a163-416e-b50e-2e2f41555743","ios":"levelo://app?vid=470803d8-a163-416e-b50e-2e2f41555743"},"vehicle_type_id":"4","last_reported":1716491203,"current_range_meters":27600,"station_id":"ce4bgpp2rcd13ifvqc3g","pricing_plan_id":"cebpf4jnsgd1na2vs0mg"},{"bike_id":"769b7cbd-ccfa-42d8-9a7a-ee1e4d1f720c","system_id":"levelo_inurba_marseille","lat":43.298433,"lon":5.362774,"is_reserved":false,"is_disabled":false,"rental_uris":{"android":"levelo://app?vid=769b7cbd-ccfa-42d8-9a7a-ee1e4d1f720c","ios":"levelo://app?vid=769b7cbd-ccfa-42d8-9a7a-ee1e4d1f720c"},"vehicle_type_id":"4","last_reported":1716491203,"current_range_meters":4400,"station_id":"ce4bgpp2rcd13ifvqc3g","pricing_plan_id":"cebpf4jnsgd1na2vs0mg"},{"bike_id":"712c6249-8cb9-4fd6-987e-d8a1223e7270","system_id":"levelo_inurba_marseille","lat":43.311722,"lon":5.387247,"is_reserved":false,"is_disabled":false,"rental_uris":{"android":"levelo://app?vid=712c6249-8cb9-4fd6-987e-d8a1223e7270","ios":"levelo://app?vid=712c6249-8cb9-4fd6-987e-d8a1223e7270"},"vehicle_type_id":"4","last_reported":1716491203,"current_range_meters":16400,"station_id":"ce4bgv12rcd13ifvqcp0","pricing_plan_id":"cebpf4jnsgd1na2vs0mg"},{"bike_id":"32144925-226c-47ea-967c-ae8ade78f6b7","system_id":"levelo_inurba_marseille","lat":43.311722,"lon":5.387247,"is_reserved":false,"is_disabled":false,"rental_uris":{"android":"levelo://app?vid=32144925-226c-47ea-967c-ae8ade78f6b7","ios":"levelo://app?vid=32144925-226c-47ea-967c-ae8ade78f6b7"},"vehicle_type_id":"4","last_reported":1716491203,"current_range_meters":0,"station_id":"ce4bgv12rcd13ifvqcp0","pricing_plan_id":"cebpf4jnsgd1na2vs0mg"},{"bike_id":"1cd9cb40-01bc-466c-83dd-26c3d9a0de90","system_id":"levelo_inurba_marseille","lat":43.311722,"lon":5.387247,"is_reserved":false,"is_disabled":false,"rental_uris":{"android":"levelo://app?vid=1cd9cb40-01bc-466c-83dd-26c3d9a0de90","ios":"levelo://app?vid=1cd9cb40-01bc-466c-83dd-26c3d9a0de90"},"vehicle_type_id":"4","last_reported":1716491203,"current_range_meters":6800,"station_id":"ce4bgv12rcd13ifvqcp0","pricing_plan_id":"cebpf4jnsgd1na2vs0mg"},{"bike_id":"457788d3-db7a-4c0c-a0ca-852369fbfafd","system_id":"levelo_inurba_marseille","lat":43.31161,"lon":5.38717,"is_reserved":false,"is_disabled":false,"rental_uris":{"android":"levelo://app?vid=457788d3-db7a-4c0c-a0ca-852369fbfafd","ios":"levelo://app?vid=457788d3-db7a-4c0c-a0ca-852369fbfafd"},"vehicle_type_id":"4","last_reported":1716491203,"current_range_meters":23200,"station_id":"ce4bgv12rcd13ifvqcp0","pricing_plan_id":"cebpf4jnsgd1na2vs0mg"},{"bike_id":"0b270662-f261-4342-ba0b-13d713b83cb2","system_id":"levelo_inurba_marseille","lat":43.311722,"lon":5.387247,"is_reserved":false,"is_disabled":false,"rental_uris":{"android":"levelo://app?vid=0b270662-f261-4342-ba0b-13d713b83cb2","ios":"levelo://app?vid=0b270662-f261-4342-ba0b-13d713b83cb2"},"vehicle_type_id":"4","last_reported":1716491203,"current_range_meters":31200,"station_id":"ce4bgv12rcd13ifvqcp0","pricing_plan_id":"cebpf4jnsgd1na2vs0mg"},{"bike_id":"0d25400c-06b6-40aa-8809-1fe1adf0a7e3","system_id":"levelo_inurba_marseille","lat":43.299243,"lon":5.374807,"is_reserved":false,"is_disabled":false,"rental_uris":{"android":"levelo://app?vid=0d25400c-06b6-40aa-8809-1fe1adf0a7e3","ios":"levelo://app?vid=0d25400c-06b6-40aa-8809-1fe1adf0a7e3"},"vehicle_type_id":"4","last_reported":1716491203,"current_range_meters":2400,"station_id":"ce4bgjh2rcd13ifvqbg0","pricing_plan_id":"cebpf4jnsgd1na2vs0mg"},{"bike_id":"26fe6b7f-c783-41f2-be49-3b50c3eb96c4","system_id":"levelo_inurba_marseille","lat":43.311722,"lon":5.387247,"is_reserved":false,"is_disabled":false,"rental_uris":{"android":"levelo://app?vid=26fe6b7f-c783-41f2-be49-3b50c3eb96c4","ios":"levelo://app?vid=26fe6b7f-c783-41f2-be49-3b50c3eb96c4"},"vehicle_type_id":"4","last_reported":1716491203,"current_range_meters":25200,"station_id":"ce4bgv12rcd13ifvqcp0","pricing_plan_id":"cebpf4jnsgd1na2vs0mg"},{"bike_id":"2e7728b2-6a8c-4342-90ab-7d46734b2f29","system_id":"levelo_inurba_marseille","lat":43.311722,"lon":5.387247,"is_reserved":false,"is_disabled":false,"rental_uris":{"android":"levelo://app?vid=2e7728b2-6a8c-4342-90ab-7d46734b2f29","ios":"levelo://app?vid=2e7728b2-6a8c-4342-90ab-7d46734b2f29"},"vehicle_type_id":"4","last_reported":1716491203,"current_range_meters":24400,"station_id":"ce4bgv12rcd13ifvqcp0","pricing_plan_id":"cebpf4jnsgd1na2vs0mg"},{"bike_id":"88e90cb2-1162-4da0-8836-45043e78dffe","system_id":"levelo_inurba_marseille","lat":43.311722,"lon":5.387247,"is_reserved":false,"is_disabled":false,"rental_uris":{"android":"levelo://app?vid=88e90cb2-1162-4da0-8836-45043e78dffe","ios":"levelo://app?vid=88e90cb2-1162-4da0-8836-45043e78dffe"},"vehicle_type_id":"4","last_reported":1716491203,"current_range_meters":9600,"station_id":"ce4bgv12rcd13ifvqcp0","pricing_plan_id":"cebpf4jnsgd1na2vs0mg"},{"bike_id":"f66af558-6a15-4a57-92d7-1e4ce0bd83de","system_id":"levelo_inurba_marseille","lat":43.311722,"lon":5.387247,"is_reserved":false,"is_disabled":false,"rental_uris":{"android":"levelo://app?vid=f66af558-6a15-4a57-92d7-1e4ce0bd83de","ios":"levelo://app?vid=f66af558-6a15-4a57-92d7-1e4ce0bd83de"},"vehicle_type_id":"4","last_reported":1716491203,"current_range_meters":22400,"station_id":"ce4bgv12rcd13ifvqcp0","pricing_plan_id":"cebpf4jnsgd1na2vs0mg"},{"bike_id":"39de77eb-92e7-44b4-99db-3bc9b1ca4501","system_id":"levelo_inurba_marseille","lat":43.31174,"lon":5.38721,"is_reserved":false,"is_disabled":false,"rental_uris":{"android":"levelo://app?vid=39de77eb-92e7-44b4-99db-3bc9b1ca4501","ios":"levelo://app?vid=39de77eb-92e7-44b4-99db-3bc9b1ca4501"},"vehicle_type_id":"4","last_reported":1716491203,"current_range_meters":17200,"station_id":"ce4bgv12rcd13ifvqcp0","pricing_plan_id":"cebpf4jnsgd1na2vs0mg"},{"bike_id":"2ddb4a5f-cd18-4d4e-a9b1-edf636a302a2","system_id":"levelo_inurba_marseille","lat":43.311711,"lon":5.387214,"is_reserved":false,"is_disabled":false,"rental_uris":{"android":"levelo://app?vid=2ddb4a5f-cd18-4d4e-a9b1-edf636a302a2","ios":"levelo://app?vid=2ddb4a5f-cd18-4d4e-a9b1-edf636a302a2"},"vehicle_type_id":"4","last_reported":1716491203,"current_range_meters":11600,"station_id":"ce4bgv12rcd13ifvqcp0","pricing_plan_id":"cebpf4jnsgd1na2vs0mg"},{"bike_id":"377cd8a9-98cc-4375-88cd-26d2d6e23513","system_id":"levelo_inurba_marseille","lat":43.299243,"lon":5.37481,"is_reserved":false,"is_disabled":false,"rental_uris":{"android":"levelo://app?vid=377cd8a9-98cc-4375-88cd-26d2d6e23513","ios":"levelo://app?vid=377cd8a9-98cc-4375-88cd-26d2d6e23513"},"vehicle_type_id":"4","last_reported":1716491203,"current_range_meters":15600,"station_id":"ce4bgjh2rcd13ifvqbg0","pricing_plan_id":"cebpf4jnsgd1na2vs0mg"},{"bike_id":"99087abd-ec89-424f-a8da-e26fd00b6820","system_id":"levelo_inurba_marseille","lat":43.311722,"lon":5.387247,"is_reserved":false,"is_disabled":false,"rental_uris":{"android":"levelo://app?vid=99087abd-ec89-424f-a8da-e26fd00b6820","ios":"levelo://app?vid=99087abd-ec89-424f-a8da-e26fd00b6820"},"vehicle_type_id":"4","last_reported":1716491203,"current_range_meters":2400,"station_id":"ce4bgv12rcd13ifvqcp0","pricing_plan_id":"cebpf4jnsgd1na2vs0mg"},{"bike_id":"d193e3a1-3f76-4a21-acb6-175446e50302","system_id":"levelo_inurba_marseille","lat":43.311722,"lon":5.387247,"is_reserved":false,"is_disabled":false,"rental_uris":{"android":"levelo://app?vid=d193e3a1-3f76-4a21-acb6-175446e50302","ios":"levelo://app?vid=d193e3a1-3f76-4a21-acb6-175446e50302"},"vehicle_type_id":"4","last_reported":1716491203,"current_range_meters":5600,"station_id":"ce4bgv12rcd13ifvqcp0","pricing_plan_id":"cebpf4jnsgd1na2vs0mg"},{"bike_id":"d6cd07a2-c722-496d-ade0-343984aeb7e6","system_id":"levelo_inurba_marseille","lat":43.311722,"lon":5.387247,"is_reserved":false,"is_disabled":false,"rental_uris":{"android":"levelo://app?vid=d6cd07a2-c722-496d-ade0-343984aeb7e6","ios":"levelo://app?vid=d6cd07a2-c722-496d-ade0-343984aeb7e6"},"vehicle_type_id":"4","last_reported":1716491203,"current_range_meters":8000,"station_id":"ce4bgv12rcd13ifvqcp0","pricing_plan_id":"cebpf4jnsgd1na2vs0mg"},{"bike_id":"38809253-03c2-4053-b17d-a9f9a4b16dab","system_id":"levelo_inurba_marseille","lat":43.31168,"lon":5.38724,"is_reserved":false,"is_disabled":false,"rental_uris":{"android":"levelo://app?vid=38809253-03c2-4053-b17d-a9f9a4b16dab","ios":"levelo://app?vid=38809253-03c2-4053-b17d-a9f9a4b16dab"},"vehicle_type_id":"4","last_reported":1716491203,"current_range_meters":22400,"station_id":"ce4bgv12rcd13ifvqcp0","pricing_plan_id":"cebpf4jnsgd1na2vs0mg"},{"bike_id":"42efb643-79d5-4591-9c67-d96a80693632","system_id":"levelo_inurba_marseille","lat":43.311722,"lon":5.387247,"is_reserved":false,"is_disabled":false,"rental_uris":{"android":"levelo://app?vid=42efb643-79d5-4591-9c67-d96a80693632","ios":"levelo://app?vid=42efb643-79d5-4591-9c67-d96a80693632"},"vehicle_type_id":"4","last_reported":1716491203,"current_range_meters":10000,"station_id":"ce4bgv12rcd13ifvqcp0","pricing_plan_id":"cebpf4jnsgd1na2vs0mg"},{"bike_id":"399484ad-f298-40b5-8996-aa8f9f5cbed8","system_id":"levelo_inurba_marseille","lat":43.311722,"lon":5.387247,"is_reserved":false,"is_disabled":false,"rental_uris":{"android":"levelo://app?vid=399484ad-f298-40b5-8996-aa8f9f5cbed8","ios":"levelo://app?vid=399484ad-f298-40b5-8996-aa8f9f5cbed8"},"vehicle_type_id":"4","last_reported":1716491203,"current_range_meters":9200,"station_id":"ce4bgv12rcd13ifvqcp0","pricing_plan_id":"cebpf4jnsgd1na2vs0mg"},{"bike_id":"35ee78e8-9b10-4de6-8b21-5450a34c82ef","system_id":"levelo_inurba_marseille","lat":43.311722,"lon":5.387247,"is_reserved":false,"is_disabled":false,"rental_uris":{"android":"levelo://app?vid=35ee78e8-9b10-4de6-8b21-5450a34c82ef","ios":"levelo://app?vid=35ee78e8-9b10-4de6-8b21-5450a34c82ef"},"vehicle_type_id":"4","last_reported":1716491203,"current_range_meters":14400,"station_id":"ce4bgv12rcd13ifvqcp0","pricing_plan_id":"cebpf4jnsgd1na2vs0mg"},{"bike_id":"dd1d866e-b54e-4878-b9f0-a2a6605015e2","system_id":"levelo_inurba_marseille","lat":43.311722,"lon":5.387247,"is_reserved":false,"is_disabled":false,"rental_uris":{"android":"levelo://app?vid=dd1d866e-b54e-4878-b9f0-a2a6605015e2","ios":"levelo://app?vid=dd1d866e-b54e-4878-b9f0-a2a6605015e2"},"vehicle_type_id":"4","last_reported":1716491203,"current_range_meters":5600,"station_id":"ce4bgv12rcd13ifvqcp0","pricing_plan_id":"cebpf4jnsgd1na2vs0mg"},{"bike_id":"44cff658-618b-4a97-b3b3-17633933fa8c","system_id":"levelo_inurba_marseille","lat":43.311722,"lon":5.387247,"is_reserved":false,"is_disabled":false,"rental_uris":{"android":"levelo://app?vid=44cff658-618b-4a97-b3b3-17633933fa8c","ios":"levelo://app?vid=44cff658-618b-4a97-b3b3-17633933fa8c"},"vehicle_type_id":"4","last_reported":1716491203,"current_range_meters":5200,"station_id":"ce4bgv12rcd13ifvqcp0","pricing_plan_id":"cebpf4jnsgd1na2vs0mg"},{"bike_id":"f839a5b5-727f-4f90-864d-57708556760b","system_id":"levelo_inurba_marseille","lat":43.311722,"lon":5.387247,"is_reserved":false,"is_disabled":false,"rental_uris":{"android":"levelo://app?vid=f839a5b5-727f-4f90-864d-57708556760b","ios":"levelo://app?vid=f839a5b5-727f-4f90-864d-57708556760b"},"vehicle_type_id":"4","last_reported":1716491203,"current_range_meters":24800,"station_id":"ce4bgv12rcd13ifvqcp0","pricing_plan_id":"cebpf4jnsgd1na2vs0mg"},{"bike_id":"5cb90bb0-636a-4e35-a32d-775c87fc7526","system_id":"levelo_inurba_marseille","lat":43.315407,"lon":5.387415,"is_reserved":false,"is_disabled":false,"rental_uris":{"android":"levelo://app?vid=5cb90bb0-636a-4e35-a32d-775c87fc7526","ios":"levelo://app?vid=5cb90bb0-636a-4e35-a32d-775c87fc7526"},"vehicle_type_id":"4","last_reported":1716491203,"current_range_meters":30000,"station_id":"","pricing_plan_id":"cebpf4jnsgd1na2vs0mg"},{"bike_id":"ed492a4e-944e-43b3-bd26-4581a8e6f7a8","system_id":"levelo_inurba_marseille","lat":43.297794,"lon":5.370888,"is_reserved":false,"is_disabled":false,"rental_uris":{"android":"levelo://app?vid=ed492a4e-944e-43b3-bd26-4581a8e6f7a8","ios":"levelo://app?vid=ed492a4e-944e-43b3-bd26-4581a8e6f7a8"},"vehicle_type_id":"4","last_reported":1716491203,"current_range_meters":30000,"station_id":"ce4bgop2rcd13ifvqc1g","pricing_plan_id":"cebpf4jnsgd1na2vs0mg"},{"bike_id":"de0c0091-9194-4356-ae85-77ba88e21fe6","system_id":"levelo_inurba_marseille","lat":43.29785,"lon":5.371,"is_reserved":false,"is_disabled":false,"rental_uris":{"android":"levelo://app?vid=de0c0091-9194-4356-ae85-77ba88e21fe6","ios":"levelo://app?vid=de0c0091-9194-4356-ae85-77ba88e21fe6"},"vehicle_type_id":"4","last_reported":1716491203,"current_range_meters":6800,"station_id":"ce4bgop2rcd13ifvqc1g","pricing_plan_id":"cebpf4jnsgd1na2vs0mg"},{"bike_id":"5d5fce2b-6c1a-41ee-ac17-f947e8b0b3f0","system_id":"levelo_inurba_marseille","lat":43.297774,"lon":5.370875,"is_reserved":false,"is_disabled":false,"rental_uris":{"android":"levelo://app?vid=5d5fce2b-6c1a-41ee-ac17-f947e8b0b3f0","ios":"levelo://app?vid=5d5fce2b-6c1a-41ee-ac17-f947e8b0b3f0"},"vehicle_type_id":"4","last_reported":1716491203,"current_range_meters":3200,"station_id":"ce4bgop2rcd13ifvqc1g","pricing_plan_id":"cebpf4jnsgd1na2vs0mg"},{"bike_id":"50d75059-8f2d-4202-bd6b-6278338dae25","system_id":"levelo_inurba_marseille","lat":43.297794,"lon":5.370888,"is_reserved":false,"is_disabled":false,"rental_uris":{"android":"levelo://app?vid=50d75059-8f2d-4202-bd6b-6278338dae25","ios":"levelo://app?vid=50d75059-8f2d-4202-bd6b-6278338dae25"},"vehicle_type_id":"4","last_reported":1716491203,"current_range_meters":24000,"station_id":"ce4bgop2rcd13ifvqc1g","pricing_plan_id":"cebpf4jnsgd1na2vs0mg"},{"bike_id":"df7fc417-1be5-4ac1-957b-99d5756afe2a","system_id":"levelo_inurba_marseille","lat":43.297774,"lon":5.370875,"is_reserved":false,"is_disabled":false,"rental_uris":{"android":"levelo://app?vid=df7fc417-1be5-4ac1-957b-99d5756afe2a","ios":"levelo://app?vid=df7fc417-1be5-4ac1-957b-99d5756afe2a"},"vehicle_type_id":"4","last_reported":1716491203,"current_range_meters":8000,"station_id":"ce4bgop2rcd13ifvqc1g","pricing_plan_id":"cebpf4jnsgd1na2vs0mg"},{"bike_id":"10e01bef-2346-46d1-bbd2-becbcd091977","system_id":"levelo_inurba_marseille","lat":43.322872,"lon":5.382756,"is_reserved":false,"is_disabled":false,"rental_uris":{"android":"levelo://app?vid=10e01bef-2346-46d1-bbd2-becbcd091977","ios":"levelo://app?vid=10e01bef-2346-46d1-bbd2-becbcd091977"},"vehicle_type_id":"4","last_reported":1716491203,"current_range_meters":2000,"station_id":"ce4bhr12rcd13ifvqhqg","pricing_plan_id":"cebpf4jnsgd1na2vs0mg"},{"bike_id":"a9c38c7c-2f1a-4bff-a9ae-be2146643247","system_id":"levelo_inurba_marseille","lat":43.322872,"lon":5.382756,"is_reserved":false,"is_disabled":false,"rental_uris":{"android":"levelo://app?vid=a9c38c7c-2f1a-4bff-a9ae-be2146643247","ios":"levelo://app?vid=a9c38c7c-2f1a-4bff-a9ae-be2146643247"},"vehicle_type_id":"4","last_reported":1716491203,"current_range_meters":27600,"station_id":"ce4bhr12rcd13ifvqhqg","pricing_plan_id":"cebpf4jnsgd1na2vs0mg"},{"bike_id":"1ce4b9e2-37fe-4fcd-a1fe-10c58b18da50","system_id":"levelo_inurba_marseille","lat":43.322872,"lon":5.382756,"is_reserved":false,"is_disabled":false,"rental_uris":{"android":"levelo://app?vid=1ce4b9e2-37fe-4fcd-a1fe-10c58b18da50","ios":"levelo://app?vid=1ce4b9e2-37fe-4fcd-a1fe-10c58b18da50"},"vehicle_type_id":"4","last_reported":1716491203,"current_range_meters":31200,"station_id":"ce4bhr12rcd13ifvqhqg","pricing_plan_id":"cebpf4jnsgd1na2vs0mg"},{"bike_id":"79f33001-a651-4b0f-b82e-f19ee71b8d0f","system_id":"levelo_inurba_marseille","lat":43.322872,"lon":5.382756,"is_reserved":false,"is_disabled":false,"rental_uris":{"android":"levelo://app?vid=79f33001-a651-4b0f-b82e-f19ee71b8d0f","ios":"levelo://app?vid=79f33001-a651-4b0f-b82e-f19ee71b8d0f"},"vehicle_type_id":"4","last_reported":1716491203,"current_range_meters":29600,"station_id":"ce4bhr12rcd13ifvqhqg","pricing_plan_id":"cebpf4jnsgd1na2vs0mg"},{"bike_id":"bae7f842-e0eb-4ee0-921a-85dced9e7036","system_id":"levelo_inurba_marseille","lat":43.297774,"lon":5.370875,"is_reserved":false,"is_disabled":false,"rental_uris":{"android":"levelo://app?vid=bae7f842-e0eb-4ee0-921a-85dced9e7036","ios":"levelo://app?vid=bae7f842-e0eb-4ee0-921a-85dced9e7036"},"vehicle_type_id":"4","last_reported":1716491203,"current_range_meters":1200,"station_id":"ce4bgop2rcd13ifvqc1g","pricing_plan_id":"cebpf4jnsgd1na2vs0mg"},{"bike_id":"b7e65937-d359-4e99-90dd-1a3c07193938","system_id":"levelo_inurba_marseille","lat":43.322872,"lon":5.382756,"is_reserved":false,"is_disabled":false,"rental_uris":{"android":"levelo://app?vid=b7e65937-d359-4e99-90dd-1a3c07193938","ios":"levelo://app?vid=b7e65937-d359-4e99-90dd-1a3c07193938"},"vehicle_type_id":"4","last_reported":1716491203,"current_range_meters":30800,"station_id":"ce4bhr12rcd13ifvqhqg","pricing_plan_id":"cebpf4jnsgd1na2vs0mg"},{"bike_id":"63580225-b279-44fc-a5b2-120f29ee9d52","system_id":"levelo_inurba_marseille","lat":43.29766,"lon":5.37102,"is_reserved":false,"is_disabled":false,"rental_uris":{"android":"levelo://app?vid=63580225-b279-44fc-a5b2-120f29ee9d52","ios":"levelo://app?vid=63580225-b279-44fc-a5b2-120f29ee9d52"},"vehicle_type_id":"4","last_reported":1716491203,"current_range_meters":12400,"station_id":"ce4bgop2rcd13ifvqc1g","pricing_plan_id":"cebpf4jnsgd1na2vs0mg"},{"bike_id":"46028fe0-bf0f-467e-96fd-01272ec47d37","system_id":"levelo_inurba_marseille","lat":43.297794,"lon":5.370888,"is_reserved":false,"is_disabled":false,"rental_uris":{"android":"levelo://app?vid=46028fe0-bf0f-467e-96fd-01272ec47d37","ios":"levelo://app?vid=46028fe0-bf0f-467e-96fd-01272ec47d37"},"vehicle_type_id":"4","last_reported":1716491203,"current_range_meters":16400,"station_id":"ce4bgop2rcd13ifvqc1g","pricing_plan_id":"cebpf4jnsgd1na2vs0mg"},{"bike_id":"68d829c0-de91-42cb-b843-e1d760cc2bcc","system_id":"levelo_inurba_marseille","lat":43.297163,"lon":5.365866,"is_reserved":false,"is_disabled":false,"rental_uris":{"android":"levelo://app?vid=68d829c0-de91-42cb-b843-e1d760cc2bcc","ios":"levelo://app?vid=68d829c0-de91-42cb-b843-e1d760cc2bcc"},"vehicle_type_id":"4","last_reported":1716491203,"current_range_meters":26400,"station_id":"ce4bgn12rcd13ifvqbt0","pricing_plan_id":"cebpf4jnsgd1na2vs0mg"},{"bike_id":"cab32ebc-66db-4e7a-85ad-30b0ce2e2fb9","system_id":"levelo_inurba_marseille","lat":43.297794,"lon":5.370888,"is_reserved":false,"is_disabled":false,"rental_uris":{"android":"levelo://app?vid=cab32ebc-66db-4e7a-85ad-30b0ce2e2fb9","ios":"levelo://app?vid=cab32ebc-66db-4e7a-85ad-30b0ce2e2fb9"},"vehicle_type_id":"4","last_reported":1716491203,"current_range_meters":3600,"station_id":"ce4bgop2rcd13ifvqc1g","pricing_plan_id":"cebpf4jnsgd1na2vs0mg"},{"bike_id":"507d2e06-93e0-4597-81ea-863ea2567569","system_id":"levelo_inurba_marseille","lat":43.297163,"lon":5.365866,"is_reserved":false,"is_disabled":false,"rental_uris":{"android":"levelo://app?vid=507d2e06-93e0-4597-81ea-863ea2567569","ios":"levelo://app?vid=507d2e06-93e0-4597-81ea-863ea2567569"},"vehicle_type_id":"4","last_reported":1716491203,"current_range_meters":26800,"station_id":"ce4bgn12rcd13ifvqbt0","pricing_plan_id":"cebpf4jnsgd1na2vs0mg"},{"bike_id":"9c2bb4de-356b-4a35-81ca-6f3564525ebf","system_id":"levelo_inurba_marseille","lat":43.297794,"lon":5.370888,"is_reserved":false,"is_disabled":false,"rental_uris":{"android":"levelo://app?vid=9c2bb4de-356b-4a35-81ca-6f3564525ebf","ios":"levelo://app?vid=9c2bb4de-356b-4a35-81ca-6f3564525ebf"},"vehicle_type_id":"4","last_reported":1716491203,"current_range_meters":4400,"station_id":"ce4bgop2rcd13ifvqc1g","pricing_plan_id":"cebpf4jnsgd1na2vs0mg"},{"bike_id":"1e6c71fb-8d91-413a-9cc5-39733354e004","system_id":"levelo_inurba_marseille","lat":43.297163,"lon":5.365866,"is_reserved":false,"is_disabled":false,"rental_uris":{"android":"levelo://app?vid=1e6c71fb-8d91-413a-9cc5-39733354e004","ios":"levelo://app?vid=1e6c71fb-8d91-413a-9cc5-39733354e004"},"vehicle_type_id":"4","last_reported":1716491203,"current_range_meters":26400,"station_id":"ce4bgn12rcd13ifvqbt0","pricing_plan_id":"cebpf4jnsgd1na2vs0mg"},{"bike_id":"fef19b85-e841-42d1-9cad-a8ea3c9523a5","system_id":"levelo_inurba_marseille","lat":43.29851,"lon":5.37698,"is_reserved":false,"is_disabled":false,"rental_uris":{"android":"levelo://app?vid=fef19b85-e841-42d1-9cad-a8ea3c9523a5","ios":"levelo://app?vid=fef19b85-e841-42d1-9cad-a8ea3c9523a5"},"vehicle_type_id":"4","last_reported":1716491203,"current_range_meters":14800,"station_id":"","pricing_plan_id":"cebpf4jnsgd1na2vs0mg"},{"bike_id":"ba2e0079-3e8f-4adb-a0bb-3472d29d27eb","system_id":"levelo_inurba_marseille","lat":43.303636,"lon":5.385941,"is_reserved":false,"is_disabled":false,"rental_uris":{"android":"levelo://app?vid=ba2e0079-3e8f-4adb-a0bb-3472d29d27eb","ios":"levelo://app?vid=ba2e0079-3e8f-4adb-a0bb-3472d29d27eb"},"vehicle_type_id":"4","last_reported":1716491203,"current_range_meters":400,"station_id":"ce4bgv12rcd13ifvqcp0","pricing_plan_id":"cebpf4jnsgd1na2vs0mg"},{"bike_id":"b0181dbd-d16d-4347-9382-b450da867146","system_id":"levelo_inurba_marseille","lat":43.29657,"lon":5.36162,"is_reserved":false,"is_disabled":false,"rental_uris":{"android":"levelo://app?vid=b0181dbd-d16d-4347-9382-b450da867146","ios":"levelo://app?vid=b0181dbd-d16d-4347-9382-b450da867146"},"vehicle_type_id":"4","last_reported":1716491203,"current_range_meters":15200,"station_id":"","pricing_plan_id":"cebpf4jnsgd1na2vs0mg"},{"bike_id":"38fb7ce0-684b-4756-9345-b64bab9d179f","system_id":"levelo_inurba_marseille","lat":43.29573,"lon":5.367355,"is_reserved":false,"is_disabled":false,"rental_uris":{"android":"levelo://app?vid=38fb7ce0-684b-4756-9345-b64bab9d179f","ios":"levelo://app?vid=38fb7ce0-684b-4756-9345-b64bab9d179f"},"vehicle_type_id":"4","last_reported":1716491203,"current_range_meters":25200,"station_id":"ce4bgph2rcd13ifvqc2g","pricing_plan_id":"cebpf4jnsgd1na2vs0mg"},{"bike_id":"fb6fa8d6-21e5-42ff-8229-4d1b06b154d3","system_id":"levelo_inurba_marseille","lat":43.296131,"lon":5.370773,"is_reserved":false,"is_disabled":false,"rental_uris":{"android":"levelo://app?vid=fb6fa8d6-21e5-42ff-8229-4d1b06b154d3","ios":"levelo://app?vid=fb6fa8d6-21e5-42ff-8229-4d1b06b154d3"},"vehicle_type_id":"4","last_reported":1716491203,"current_range_meters":4400,"station_id":"ce4bgnh2rcd13ifvqc0g","pricing_plan_id":"cebpf4jnsgd1na2vs0mg"},{"bike_id":"0ed458b3-85ad-4d16-b4a4-4f63c3c479da","system_id":"levelo_inurba_marseille","lat":43.29573,"lon":5.367355,"is_reserved":false,"is_disabled":false,"rental_uris":{"android":"levelo://app?vid=0ed458b3-85ad-4d16-b4a4-4f63c3c479da","ios":"levelo://app?vid=0ed458b3-85ad-4d16-b4a4-4f63c3c479da"},"vehicle_type_id":"4","last_reported":1716491203,"current_range_meters":17200,"station_id":"ce4bgph2rcd13ifvqc2g","pricing_plan_id":"cebpf4jnsgd1na2vs0mg"},{"bike_id":"7d79c206-d29e-4102-9ae7-de7ee816a063","system_id":"levelo_inurba_marseille","lat":43.29573,"lon":5.367355,"is_reserved":false,"is_disabled":false,"rental_uris":{"android":"levelo://app?vid=7d79c206-d29e-4102-9ae7-de7ee816a063","ios":"levelo://app?vid=7d79c206-d29e-4102-9ae7-de7ee816a063"},"vehicle_type_id":"4","last_reported":1716491203,"current_range_meters":20400,"station_id":"ce4bgph2rcd13ifvqc2g","pricing_plan_id":"cebpf4jnsgd1na2vs0mg"},{"bike_id":"75bf6b08-eb41-4d1f-9d3b-4d66b64793e9","system_id":"levelo_inurba_marseille","lat":43.29573,"lon":5.367355,"is_reserved":false,"is_disabled":false,"rental_uris":{"android":"levelo://app?vid=75bf6b08-eb41-4d1f-9d3b-4d66b64793e9","ios":"levelo://app?vid=75bf6b08-eb41-4d1f-9d3b-4d66b64793e9"},"vehicle_type_id":"4","last_reported":1716491203,"current_range_meters":7200,"station_id":"ce4bgph2rcd13ifvqc2g","pricing_plan_id":"cebpf4jnsgd1na2vs0mg"},{"bike_id":"59ac80ad-47d4-4b5a-ad21-43ba06614df6","system_id":"levelo_inurba_marseille","lat":43.29573,"lon":5.367355,"is_reserved":false,"is_disabled":false,"rental_uris":{"android":"levelo://app?vid=59ac80ad-47d4-4b5a-ad21-43ba06614df6","ios":"levelo://app?vid=59ac80ad-47d4-4b5a-ad21-43ba06614df6"},"vehicle_type_id":"4","last_reported":1716491203,"current_range_meters":13600,"station_id":"ce4bgph2rcd13ifvqc2g","pricing_plan_id":"cebpf4jnsgd1na2vs0mg"},{"bike_id":"4d8161a3-b990-4d17-9bd6-7a666ffb5a43","system_id":"levelo_inurba_marseille","lat":43.29573,"lon":5.367355,"is_reserved":false,"is_disabled":false,"rental_uris":{"android":"levelo://app?vid=4d8161a3-b990-4d17-9bd6-7a666ffb5a43","ios":"levelo://app?vid=4d8161a3-b990-4d17-9bd6-7a666ffb5a43"},"vehicle_type_id":"4","last_reported":1716491203,"current_range_meters":0,"station_id":"ce4bgph2rcd13ifvqc2g","pricing_plan_id":"cebpf4jnsgd1na2vs0mg"},{"bike_id":"7f636bcf-e721-4ea2-9f0e-ec2a338712f3","system_id":"levelo_inurba_marseille","lat":43.29573,"lon":5.367355,"is_reserved":false,"is_disabled":false,"rental_uris":{"android":"levelo://app?vid=7f636bcf-e721-4ea2-9f0e-ec2a338712f3","ios":"levelo://app?vid=7f636bcf-e721-4ea2-9f0e-ec2a338712f3"},"vehicle_type_id":"4","last_reported":1716491203,"current_range_meters":16000,"station_id":"ce4bgph2rcd13ifvqc2g","pricing_plan_id":"cebpf4jnsgd1na2vs0mg"},{"bike_id":"5284a35a-217d-4964-bb22-45c2b606cf8e","system_id":"levelo_inurba_marseille","lat":43.296935,"lon":5.376544,"is_reserved":false,"is_disabled":false,"rental_uris":{"android":"levelo://app?vid=5284a35a-217d-4964-bb22-45c2b606cf8e","ios":"levelo://app?vid=5284a35a-217d-4964-bb22-45c2b606cf8e"},"vehicle_type_id":"4","last_reported":1716491203,"current_range_meters":0,"station_id":"ce4bgkh2rcd13ifvqbl0","pricing_plan_id":"cebpf4jnsgd1na2vs0mg"},{"bike_id":"2f106198-3432-406a-b7ad-6ba64dada140","system_id":"levelo_inurba_marseille","lat":43.299028,"lon":5.381509,"is_reserved":false,"is_disabled":false,"rental_uris":{"android":"levelo://app?vid=2f106198-3432-406a-b7ad-6ba64dada140","ios":"levelo://app?vid=2f106198-3432-406a-b7ad-6ba64dada140"},"vehicle_type_id":"4","last_reported":1716491203,"current_range_meters":7600,"station_id":"ce4bgj12rcd13ifvqbc0","pricing_plan_id":"cebpf4jnsgd1na2vs0mg"},{"bike_id":"86481aea-af69-4593-ba15-3c4095d8b44b","system_id":"levelo_inurba_marseille","lat":43.309491,"lon":5.39019,"is_reserved":false,"is_disabled":false,"rental_uris":{"android":"levelo://app?vid=86481aea-af69-4593-ba15-3c4095d8b44b","ios":"levelo://app?vid=86481aea-af69-4593-ba15-3c4095d8b44b"},"vehicle_type_id":"4","last_reported":1716491203,"current_range_meters":5200,"station_id":"ce4bgup2rcd13ifvqco0","pricing_plan_id":"cebpf4jnsgd1na2vs0mg"},{"bike_id":"f50934f6-bd93-4a4c-b49d-7f314249633d","system_id":"levelo_inurba_marseille","lat":43.3095,"lon":5.39023,"is_reserved":false,"is_disabled":false,"rental_uris":{"android":"levelo://app?vid=f50934f6-bd93-4a4c-b49d-7f314249633d","ios":"levelo://app?vid=f50934f6-bd93-4a4c-b49d-7f314249633d"},"vehicle_type_id":"4","last_reported":1716491203,"current_range_meters":8400,"station_id":"ce4bgup2rcd13ifvqco0","pricing_plan_id":"cebpf4jnsgd1na2vs0mg"},{"bike_id":"2657d56b-0111-472f-9915-029b21a12ee6","system_id":"levelo_inurba_marseille","lat":43.30948,"lon":5.39023,"is_reserved":false,"is_disabled":false,"rental_uris":{"android":"levelo://app?vid=2657d56b-0111-472f-9915-029b21a12ee6","ios":"levelo://app?vid=2657d56b-0111-472f-9915-029b21a12ee6"},"vehicle_type_id":"4","last_reported":1716491203,"current_range_meters":0,"station_id":"ce4bgup2rcd13ifvqco0","pricing_plan_id":"cebpf4jnsgd1na2vs0mg"},{"bike_id":"cf233b81-d61c-4d69-b115-c99a024966de","system_id":"levelo_inurba_marseille","lat":43.309589,"lon":5.390258,"is_reserved":false,"is_disabled":false,"rental_uris":{"android":"levelo://app?vid=cf233b81-d61c-4d69-b115-c99a024966de","ios":"levelo://app?vid=cf233b81-d61c-4d69-b115-c99a024966de"},"vehicle_type_id":"4","last_reported":1716491203,"current_range_meters":31600,"station_id":"ce4bgup2rcd13ifvqco0","pricing_plan_id":"cebpf4jnsgd1na2vs0mg"},{"bike_id":"da2e83a5-878c-419b-b943-8993862cf430","system_id":"levelo_inurba_marseille","lat":43.309589,"lon":5.390258,"is_reserved":false,"is_disabled":false,"rental_uris":{"android":"levelo://app?vid=da2e83a5-878c-419b-b943-8993862cf430","ios":"levelo://app?vid=da2e83a5-878c-419b-b943-8993862cf430"},"vehicle_type_id":"4","last_reported":1716491203,"current_range_meters":8000,"station_id":"ce4bgup2rcd13ifvqco0","pricing_plan_id":"cebpf4jnsgd1na2vs0mg"},{"bike_id":"7acb1262-fcbe-4e69-b777-cbf243e058b6","system_id":"levelo_inurba_marseille","lat":43.309521,"lon":5.390269,"is_reserved":false,"is_disabled":false,"rental_uris":{"android":"levelo://app?vid=7acb1262-fcbe-4e69-b777-cbf243e058b6","ios":"levelo://app?vid=7acb1262-fcbe-4e69-b777-cbf243e058b6"},"vehicle_type_id":"4","last_reported":1716491203,"current_range_meters":1200,"station_id":"","pricing_plan_id":"cebpf4jnsgd1na2vs0mg"},{"bike_id":"f089c8f8-811d-4252-9ef8-2d25384d584d","system_id":"levelo_inurba_marseille","lat":43.309589,"lon":5.390258,"is_reserved":false,"is_disabled":false,"rental_uris":{"android":"levelo://app?vid=f089c8f8-811d-4252-9ef8-2d25384d584d","ios":"levelo://app?vid=f089c8f8-811d-4252-9ef8-2d25384d584d"},"vehicle_type_id":"4","last_reported":1716491203,"current_range_meters":19600,"station_id":"ce4bgup2rcd13ifvqco0","pricing_plan_id":"cebpf4jnsgd1na2vs0mg"},{"bike_id":"6669f3f4-460d-4681-97d8-fe8611f7c67f","system_id":"levelo_inurba_marseille","lat":43.30941,"lon":5.39025,"is_reserved":false,"is_disabled":false,"rental_uris":{"android":"levelo://app?vid=6669f3f4-460d-4681-97d8-fe8611f7c67f","ios":"levelo://app?vid=6669f3f4-460d-4681-97d8-fe8611f7c67f"},"vehicle_type_id":"4","last_reported":1716491203,"current_range_meters":5600,"station_id":"ce4bgup2rcd13ifvqco0","pricing_plan_id":"cebpf4jnsgd1na2vs0mg"},{"bike_id":"881c9f86-0251-48cf-803f-648e84cfa2c2","system_id":"levelo_inurba_marseille","lat":43.309589,"lon":5.390258,"is_reserved":false,"is_disabled":false,"rental_uris":{"android":"levelo://app?vid=881c9f86-0251-48cf-803f-648e84cfa2c2","ios":"levelo://app?vid=881c9f86-0251-48cf-803f-648e84cfa2c2"},"vehicle_type_id":"4","last_reported":1716491203,"current_range_meters":0,"station_id":"ce4bgup2rcd13ifvqco0","pricing_plan_id":"cebpf4jnsgd1na2vs0mg"},{"bike_id":"fefec322-1bdc-42f8-b7fe-dd5fd84d95e3","system_id":"levelo_inurba_marseille","lat":43.309447,"lon":5.390283,"is_reserved":false,"is_disabled":false,"rental_uris":{"android":"levelo://app?vid=fefec322-1bdc-42f8-b7fe-dd5fd84d95e3","ios":"levelo://app?vid=fefec322-1bdc-42f8-b7fe-dd5fd84d95e3"},"vehicle_type_id":"4","last_reported":1716491203,"current_range_meters":23600,"station_id":"","pricing_plan_id":"cebpf4jnsgd1na2vs0mg"},{"bike_id":"ce0769cf-e20d-4692-831b-1c84a02a4fea","system_id":"levelo_inurba_marseille","lat":43.309589,"lon":5.390258,"is_reserved":false,"is_disabled":false,"rental_uris":{"android":"levelo://app?vid=ce0769cf-e20d-4692-831b-1c84a02a4fea","ios":"levelo://app?vid=ce0769cf-e20d-4692-831b-1c84a02a4fea"},"vehicle_type_id":"4","last_reported":1716491203,"current_range_meters":18400,"station_id":"ce4bgup2rcd13ifvqco0","pricing_plan_id":"cebpf4jnsgd1na2vs0mg"},{"bike_id":"1b14db9a-d70a-493d-a757-c656db5ad589","system_id":"levelo_inurba_marseille","lat":43.309589,"lon":5.390258,"is_reserved":false,"is_disabled":false,"rental_uris":{"android":"levelo://app?vid=1b14db9a-d70a-493d-a757-c656db5ad589","ios":"levelo://app?vid=1b14db9a-d70a-493d-a757-c656db5ad589"},"vehicle_type_id":"4","last_reported":1716491203,"current_range_meters":14400,"station_id":"ce4bgup2rcd13ifvqco0","pricing_plan_id":"cebpf4jnsgd1na2vs0mg"},{"bike_id":"d2137021-e2d8-4661-a147-17cede521088","system_id":"levelo_inurba_marseille","lat":43.309523,"lon":5.390336,"is_reserved":false,"is_disabled":false,"rental_uris":{"android":"levelo://app?vid=d2137021-e2d8-4661-a147-17cede521088","ios":"levelo://app?vid=d2137021-e2d8-4661-a147-17cede521088"},"vehicle_type_id":"4","last_reported":1716491203,"current_range_meters":0,"station_id":"ce4bgup2rcd13ifvqco0","pricing_plan_id":"cebpf4jnsgd1na2vs0mg"},{"bike_id":"3d944abe-768c-46d0-aad4-78aeddf080e2","system_id":"levelo_inurba_marseille","lat":43.309589,"lon":5.390258,"is_reserved":false,"is_disabled":false,"rental_uris":{"android":"levelo://app?vid=3d944abe-768c-46d0-aad4-78aeddf080e2","ios":"levelo://app?vid=3d944abe-768c-46d0-aad4-78aeddf080e2"},"vehicle_type_id":"4","last_reported":1716491203,"current_range_meters":4000,"station_id":"ce4bgup2rcd13ifvqco0","pricing_plan_id":"cebpf4jnsgd1na2vs0mg"},{"bike_id":"3b0ee6c2-d2fd-474b-925b-4756ee18a452","system_id":"levelo_inurba_marseille","lat":43.309589,"lon":5.390258,"is_reserved":false,"is_disabled":false,"rental_uris":{"android":"levelo://app?vid=3b0ee6c2-d2fd-474b-925b-4756ee18a452","ios":"levelo://app?vid=3b0ee6c2-d2fd-474b-925b-4756ee18a452"},"vehicle_type_id":"4","last_reported":1716491203,"current_range_meters":4800,"station_id":"ce4bgup2rcd13ifvqco0","pricing_plan_id":"cebpf4jnsgd1na2vs0mg"},{"bike_id":"5b0c74c7-76d2-4a98-b9b1-b29f9abbedc5","system_id":"levelo_inurba_marseille","lat":43.309589,"lon":5.390258,"is_reserved":false,"is_disabled":false,"rental_uris":{"android":"levelo://app?vid=5b0c74c7-76d2-4a98-b9b1-b29f9abbedc5","ios":"levelo://app?vid=5b0c74c7-76d2-4a98-b9b1-b29f9abbedc5"},"vehicle_type_id":"4","last_reported":1716491203,"current_range_meters":19200,"station_id":"ce4bgup2rcd13ifvqco0","pricing_plan_id":"cebpf4jnsgd1na2vs0mg"},{"bike_id":"ec35b573-0b8e-4fe6-95a3-643ce412806e","system_id":"levelo_inurba_marseille","lat":43.309589,"lon":5.390258,"is_reserved":false,"is_disabled":false,"rental_uris":{"android":"levelo://app?vid=ec35b573-0b8e-4fe6-95a3-643ce412806e","ios":"levelo://app?vid=ec35b573-0b8e-4fe6-95a3-643ce412806e"},"vehicle_type_id":"4","last_reported":1716491203,"current_range_meters":0,"station_id":"ce4bgup2rcd13ifvqco0","pricing_plan_id":"cebpf4jnsgd1na2vs0mg"},{"bike_id":"475b34bf-ccaf-42e4-8d14-5604636f9ec7","system_id":"levelo_inurba_marseille","lat":43.309589,"lon":5.390258,"is_reserved":false,"is_disabled":false,"rental_uris":{"android":"levelo://app?vid=475b34bf-ccaf-42e4-8d14-5604636f9ec7","ios":"levelo://app?vid=475b34bf-ccaf-42e4-8d14-5604636f9ec7"},"vehicle_type_id":"4","last_reported":1716491203,"current_range_meters":6400,"station_id":"ce4bgup2rcd13ifvqco0","pricing_plan_id":"cebpf4jnsgd1na2vs0mg"},{"bike_id":"39a28f78-8848-4e56-909e-afba0e9158da","system_id":"levelo_inurba_marseille","lat":43.309589,"lon":5.390258,"is_reserved":false,"is_disabled":false,"rental_uris":{"android":"levelo://app?vid=39a28f78-8848-4e56-909e-afba0e9158da","ios":"levelo://app?vid=39a28f78-8848-4e56-909e-afba0e9158da"},"vehicle_type_id":"4","last_reported":1716491203,"current_range_meters":20400,"station_id":"ce4bgup2rcd13ifvqco0","pricing_plan_id":"cebpf4jnsgd1na2vs0mg"},{"bike_id":"11cdb246-59a1-4d20-a6de-d85b8bc4ab6e","system_id":"levelo_inurba_marseille","lat":43.296921,"lon":5.376579,"is_reserved":false,"is_disabled":false,"rental_uris":{"android":"levelo://app?vid=11cdb246-59a1-4d20-a6de-d85b8bc4ab6e","ios":"levelo://app?vid=11cdb246-59a1-4d20-a6de-d85b8bc4ab6e"},"vehicle_type_id":"4","last_reported":1716491203,"current_range_meters":0,"station_id":"ce4bgkh2rcd13ifvqbl0","pricing_plan_id":"cebpf4jnsgd1na2vs0mg"},{"bike_id":"9bf59994-7f2b-4cdc-a535-9a557403830c","system_id":"levelo_inurba_marseille","lat":43.309589,"lon":5.390258,"is_reserved":false,"is_disabled":false,"rental_uris":{"android":"levelo://app?vid=9bf59994-7f2b-4cdc-a535-9a557403830c","ios":"levelo://app?vid=9bf59994-7f2b-4cdc-a535-9a557403830c"},"vehicle_type_id":"4","last_reported":1716491203,"current_range_meters":400,"station_id":"ce4bgup2rcd13ifvqco0","pricing_plan_id":"cebpf4jnsgd1na2vs0mg"},{"bike_id":"806e4c15-17db-498c-aba1-6f56392d4080","system_id":"levelo_inurba_marseille","lat":43.31764,"lon":5.39009,"is_reserved":false,"is_disabled":false,"rental_uris":{"android":"levelo://app?vid=806e4c15-17db-498c-aba1-6f56392d4080","ios":"levelo://app?vid=806e4c15-17db-498c-aba1-6f56392d4080"},"vehicle_type_id":"4","last_reported":1716491203,"current_range_meters":4000,"station_id":"ce4bhqp2rcd13ifvqhng","pricing_plan_id":"cebpf4jnsgd1na2vs0mg"},{"bike_id":"8db5a9f5-2f77-4b0b-9d0c-e1af389cf339","system_id":"levelo_inurba_marseille","lat":43.317613,"lon":5.390137,"is_reserved":false,"is_disabled":false,"rental_uris":{"android":"levelo://app?vid=8db5a9f5-2f77-4b0b-9d0c-e1af389cf339","ios":"levelo://app?vid=8db5a9f5-2f77-4b0b-9d0c-e1af389cf339"},"vehicle_type_id":"4","last_reported":1716491203,"current_range_meters":12400,"station_id":"ce4bhqp2rcd13ifvqhng","pricing_plan_id":"cebpf4jnsgd1na2vs0mg"},{"bike_id":"e7b4747b-b7e5-4e4b-aa74-4ecc3072fd3e","system_id":"levelo_inurba_marseille","lat":43.31756,"lon":5.39016,"is_reserved":false,"is_disabled":false,"rental_uris":{"android":"levelo://app?vid=e7b4747b-b7e5-4e4b-aa74-4ecc3072fd3e","ios":"levelo://app?vid=e7b4747b-b7e5-4e4b-aa74-4ecc3072fd3e"},"vehicle_type_id":"4","last_reported":1716491203,"current_range_meters":5600,"station_id":"ce4bhqp2rcd13ifvqhng","pricing_plan_id":"cebpf4jnsgd1na2vs0mg"},{"bike_id":"6cac2dfe-6798-4aa5-9a85-f018b8810c3d","system_id":"levelo_inurba_marseille","lat":43.31762,"lon":5.390154,"is_reserved":false,"is_disabled":false,"rental_uris":{"android":"levelo://app?vid=6cac2dfe-6798-4aa5-9a85-f018b8810c3d","ios":"levelo://app?vid=6cac2dfe-6798-4aa5-9a85-f018b8810c3d"},"vehicle_type_id":"4","last_reported":1716491203,"current_range_meters":28400,"station_id":"ce4bhqp2rcd13ifvqhng","pricing_plan_id":"cebpf4jnsgd1na2vs0mg"},{"bike_id":"2614689c-a599-406a-b740-f45b4e8408c0","system_id":"levelo_inurba_marseille","lat":43.31755,"lon":5.39019,"is_reserved":false,"is_disabled":false,"rental_uris":{"android":"levelo://app?vid=2614689c-a599-406a-b740-f45b4e8408c0","ios":"levelo://app?vid=2614689c-a599-406a-b740-f45b4e8408c0"},"vehicle_type_id":"4","last_reported":1716491203,"current_range_meters":22400,"station_id":"ce4bhqp2rcd13ifvqhng","pricing_plan_id":"cebpf4jnsgd1na2vs0mg"},{"bike_id":"479d27be-e495-481d-a778-d9421fba5d20","system_id":"levelo_inurba_marseille","lat":43.31767,"lon":5.39015,"is_reserved":false,"is_disabled":false,"rental_uris":{"android":"levelo://app?vid=479d27be-e495-481d-a778-d9421fba5d20","ios":"levelo://app?vid=479d27be-e495-481d-a778-d9421fba5d20"},"vehicle_type_id":"4","last_reported":1716491203,"current_range_meters":22400,"station_id":"ce4bhqp2rcd13ifvqhng","pricing_plan_id":"cebpf4jnsgd1na2vs0mg"},{"bike_id":"0621d829-061f-4233-9a28-e552b984af66","system_id":"levelo_inurba_marseille","lat":43.317599,"lon":5.390203,"is_reserved":false,"is_disabled":false,"rental_uris":{"android":"levelo://app?vid=0621d829-061f-4233-9a28-e552b984af66","ios":"levelo://app?vid=0621d829-061f-4233-9a28-e552b984af66"},"vehicle_type_id":"4","last_reported":1716491203,"current_range_meters":24000,"station_id":"ce4bhqp2rcd13ifvqhng","pricing_plan_id":"cebpf4jnsgd1na2vs0mg"},{"bike_id":"e7df118b-7786-450a-a148-d1db7b6d1e1a","system_id":"levelo_inurba_marseille","lat":43.31764,"lon":5.3902,"is_reserved":false,"is_disabled":false,"rental_uris":{"android":"levelo://app?vid=e7df118b-7786-450a-a148-d1db7b6d1e1a","ios":"levelo://app?vid=e7df118b-7786-450a-a148-d1db7b6d1e1a"},"vehicle_type_id":"4","last_reported":1716491203,"current_range_meters":13600,"station_id":"ce4bhqp2rcd13ifvqhng","pricing_plan_id":"cebpf4jnsgd1na2vs0mg"},{"bike_id":"2905dd0c-8934-4d48-89ec-aed621961c79","system_id":"levelo_inurba_marseille","lat":43.31762,"lon":5.39021,"is_reserved":false,"is_disabled":false,"rental_uris":{"android":"levelo://app?vid=2905dd0c-8934-4d48-89ec-aed621961c79","ios":"levelo://app?vid=2905dd0c-8934-4d48-89ec-aed621961c79"},"vehicle_type_id":"4","last_reported":1716491203,"current_range_meters":6000,"station_id":"ce4bhqp2rcd13ifvqhng","pricing_plan_id":"cebpf4jnsgd1na2vs0mg"},{"bike_id":"e4205d3e-4bca-45f6-ae69-9d8704a34499","system_id":"levelo_inurba_marseille","lat":43.309589,"lon":5.390258,"is_reserved":false,"is_disabled":false,"rental_uris":{"android":"levelo://app?vid=e4205d3e-4bca-45f6-ae69-9d8704a34499","ios":"levelo://app?vid=e4205d3e-4bca-45f6-ae69-9d8704a34499"},"vehicle_type_id":"4","last_reported":1716491203,"current_range_meters":0,"station_id":"ce4bgup2rcd13ifvqco0","pricing_plan_id":"cebpf4jnsgd1na2vs0mg"},{"bike_id":"fc8dc158-bc98-42a5-ba75-d58bac695c63","system_id":"levelo_inurba_marseille","lat":43.3176,"lon":5.39033,"is_reserved":false,"is_disabled":false,"rental_uris":{"android":"levelo://app?vid=fc8dc158-bc98-42a5-ba75-d58bac695c63","ios":"levelo://app?vid=fc8dc158-bc98-42a5-ba75-d58bac695c63"},"vehicle_type_id":"4","last_reported":1716491203,"current_range_meters":0,"station_id":"ce4bhqp2rcd13ifvqhng","pricing_plan_id":"cebpf4jnsgd1na2vs0mg"},{"bike_id":"b7790380-7cbd-4b6c-8527-a4aec9887b1e","system_id":"levelo_inurba_marseille","lat":43.304278,"lon":5.388868,"is_reserved":false,"is_disabled":false,"rental_uris":{"android":"levelo://app?vid=b7790380-7cbd-4b6c-8527-a4aec9887b1e","ios":"levelo://app?vid=b7790380-7cbd-4b6c-8527-a4aec9887b1e"},"vehicle_type_id":"4","last_reported":1716491203,"current_range_meters":5200,"station_id":"ce4bgk12rcd13ifvqbi0","pricing_plan_id":"cebpf4jnsgd1na2vs0mg"},{"bike_id":"849d82d2-c325-47e9-9229-34960ad48c54","system_id":"levelo_inurba_marseille","lat":43.309589,"lon":5.390258,"is_reserved":false,"is_disabled":false,"rental_uris":{"android":"levelo://app?vid=849d82d2-c325-47e9-9229-34960ad48c54","ios":"levelo://app?vid=849d82d2-c325-47e9-9229-34960ad48c54"},"vehicle_type_id":"4","last_reported":1716491203,"current_range_meters":24000,"station_id":"ce4bgup2rcd13ifvqco0","pricing_plan_id":"cebpf4jnsgd1na2vs0mg"},{"bike_id":"26817afc-8ccd-4b82-a264-fbe5c991b7e8","system_id":"levelo_inurba_marseille","lat":43.298085,"lon":5.38099,"is_reserved":false,"is_disabled":false,"rental_uris":{"android":"levelo://app?vid=26817afc-8ccd-4b82-a264-fbe5c991b7e8","ios":"levelo://app?vid=26817afc-8ccd-4b82-a264-fbe5c991b7e8"},"vehicle_type_id":"4","last_reported":1716491203,"current_range_meters":0,"station_id":"ce4bgip2rcd13ifvqbb0","pricing_plan_id":"cebpf4jnsgd1na2vs0mg"},{"bike_id":"fb7c6a4a-d9bc-47f1-af00-bdbf274e4fe3","system_id":"levelo_inurba_marseille","lat":43.309589,"lon":5.390258,"is_reserved":false,"is_disabled":false,"rental_uris":{"android":"levelo://app?vid=fb7c6a4a-d9bc-47f1-af00-bdbf274e4fe3","ios":"levelo://app?vid=fb7c6a4a-d9bc-47f1-af00-bdbf274e4fe3"},"vehicle_type_id":"4","last_reported":1716491203,"current_range_meters":24400,"station_id":"ce4bgup2rcd13ifvqco0","pricing_plan_id":"cebpf4jnsgd1na2vs0mg"},{"bike_id":"4a39ab9e-b8c4-463f-9031-e46428645470","system_id":"levelo_inurba_marseille","lat":43.304274,"lon":5.388873,"is_reserved":false,"is_disabled":false,"rental_uris":{"android":"levelo://app?vid=4a39ab9e-b8c4-463f-9031-e46428645470","ios":"levelo://app?vid=4a39ab9e-b8c4-463f-9031-e46428645470"},"vehicle_type_id":"4","last_reported":1716491203,"current_range_meters":1600,"station_id":"ce4bgk12rcd13ifvqbi0","pricing_plan_id":"cebpf4jnsgd1na2vs0mg"},{"bike_id":"b06a03bd-2b0b-4f33-a4ad-156ba47f7d9b","system_id":"levelo_inurba_marseille","lat":43.298037,"lon":5.381066,"is_reserved":false,"is_disabled":false,"rental_uris":{"android":"levelo://app?vid=b06a03bd-2b0b-4f33-a4ad-156ba47f7d9b","ios":"levelo://app?vid=b06a03bd-2b0b-4f33-a4ad-156ba47f7d9b"},"vehicle_type_id":"4","last_reported":1716491203,"current_range_meters":26800,"station_id":"ce4bgip2rcd13ifvqbb0","pricing_plan_id":"cebpf4jnsgd1na2vs0mg"},{"bike_id":"ff14b872-2bb1-4748-b0ca-1b15fbee4f16","system_id":"levelo_inurba_marseille","lat":43.295748,"lon":5.37522,"is_reserved":false,"is_disabled":false,"rental_uris":{"android":"levelo://app?vid=ff14b872-2bb1-4748-b0ca-1b15fbee4f16","ios":"levelo://app?vid=ff14b872-2bb1-4748-b0ca-1b15fbee4f16"},"vehicle_type_id":"4","last_reported":1716491203,"current_range_meters":23600,"station_id":"ce4bgh92rcd13ifvqb50","pricing_plan_id":"cebpf4jnsgd1na2vs0mg"},{"bike_id":"3c741646-2e4c-4978-bd2d-35c763c86ae9","system_id":"levelo_inurba_marseille","lat":43.289184,"lon":5.366408,"is_reserved":false,"is_disabled":false,"rental_uris":{"android":"levelo://app?vid=3c741646-2e4c-4978-bd2d-35c763c86ae9","ios":"levelo://app?vid=3c741646-2e4c-4978-bd2d-35c763c86ae9"},"vehicle_type_id":"4","last_reported":1716491203,"current_range_meters":2800,"station_id":"ce4bhap2rcd13ifvqek0","pricing_plan_id":"cebpf4jnsgd1na2vs0mg"},{"bike_id":"d10f72e4-6dfd-4bfd-9591-24fb16203645","system_id":"levelo_inurba_marseille","lat":43.295279,"lon":5.375048,"is_reserved":false,"is_disabled":false,"rental_uris":{"android":"levelo://app?vid=d10f72e4-6dfd-4bfd-9591-24fb16203645","ios":"levelo://app?vid=d10f72e4-6dfd-4bfd-9591-24fb16203645"},"vehicle_type_id":"4","last_reported":1716491203,"current_range_meters":0,"station_id":"ce4bgkp2rcd13ifvqbmg","pricing_plan_id":"cebpf4jnsgd1na2vs0mg"},{"bike_id":"540f5035-1fdb-4282-891d-4f1f8b4e5fe1","system_id":"levelo_inurba_marseille","lat":43.299707,"lon":5.384859,"is_reserved":false,"is_disabled":false,"rental_uris":{"android":"levelo://app?vid=540f5035-1fdb-4282-891d-4f1f8b4e5fe1","ios":"levelo://app?vid=540f5035-1fdb-4282-891d-4f1f8b4e5fe1"},"vehicle_type_id":"4","last_reported":1716491203,"current_range_meters":31200,"station_id":"ce4bgj92rcd13ifvqbd0","pricing_plan_id":"cebpf4jnsgd1na2vs0mg"},{"bike_id":"c9cd1cf3-3480-43ca-bdc1-b79d5763e77c","system_id":"levelo_inurba_marseille","lat":43.299717,"lon":5.384845,"is_reserved":false,"is_disabled":false,"rental_uris":{"android":"levelo://app?vid=c9cd1cf3-3480-43ca-bdc1-b79d5763e77c","ios":"levelo://app?vid=c9cd1cf3-3480-43ca-bdc1-b79d5763e77c"},"vehicle_type_id":"4","last_reported":1716491203,"current_range_meters":0,"station_id":"ce4bgj92rcd13ifvqbd0","pricing_plan_id":"cebpf4jnsgd1na2vs0mg"},{"bike_id":"d014cf3e-048b-41f0-8f75-4b7171a47831","system_id":"levelo_inurba_marseille","lat":43.299724,"lon":5.384848,"is_reserved":false,"is_disabled":false,"rental_uris":{"android":"levelo://app?vid=d014cf3e-048b-41f0-8f75-4b7171a47831","ios":"levelo://app?vid=d014cf3e-048b-41f0-8f75-4b7171a47831"},"vehicle_type_id":"4","last_reported":1716491203,"current_range_meters":31200,"station_id":"ce4bgj92rcd13ifvqbd0","pricing_plan_id":"cebpf4jnsgd1na2vs0mg"},{"bike_id":"a55f8ac2-38e2-419e-90db-ceb40e97dc06","system_id":"levelo_inurba_marseille","lat":43.295279,"lon":5.375048,"is_reserved":false,"is_disabled":false,"rental_uris":{"android":"levelo://app?vid=a55f8ac2-38e2-419e-90db-ceb40e97dc06","ios":"levelo://app?vid=a55f8ac2-38e2-419e-90db-ceb40e97dc06"},"vehicle_type_id":"4","last_reported":1716491203,"current_range_meters":3200,"station_id":"ce4bgkp2rcd13ifvqbmg","pricing_plan_id":"cebpf4jnsgd1na2vs0mg"},{"bike_id":"78252e3e-8eff-4ccb-a142-6526e4cc39f4","system_id":"levelo_inurba_marseille","lat":43.30089,"lon":5.38729,"is_reserved":false,"is_disabled":false,"rental_uris":{"android":"levelo://app?vid=78252e3e-8eff-4ccb-a142-6526e4cc39f4","ios":"levelo://app?vid=78252e3e-8eff-4ccb-a142-6526e4cc39f4"},"vehicle_type_id":"4","last_reported":1716491203,"current_range_meters":7200,"station_id":"","pricing_plan_id":"cebpf4jnsgd1na2vs0mg"},{"bike_id":"c692fd75-9972-42e1-92a8-4ac7cce47a41","system_id":"levelo_inurba_marseille","lat":43.299243,"lon":5.37481,"is_reserved":false,"is_disabled":false,"rental_uris":{"android":"levelo://app?vid=c692fd75-9972-42e1-92a8-4ac7cce47a41","ios":"levelo://app?vid=c692fd75-9972-42e1-92a8-4ac7cce47a41"},"vehicle_type_id":"4","last_reported":1716491203,"current_range_meters":19200,"station_id":"ce4bgjh2rcd13ifvqbg0","pricing_plan_id":"cebpf4jnsgd1na2vs0mg"},{"bike_id":"9dcf1bea-1a00-47ba-aa07-b457ade4d661","system_id":"levelo_inurba_marseille","lat":43.301241,"lon":5.387937,"is_reserved":false,"is_disabled":false,"rental_uris":{"android":"levelo://app?vid=9dcf1bea-1a00-47ba-aa07-b457ade4d661","ios":"levelo://app?vid=9dcf1bea-1a00-47ba-aa07-b457ade4d661"},"vehicle_type_id":"4","last_reported":1716491203,"current_range_meters":2000,"station_id":"","pricing_plan_id":"cebpf4jnsgd1na2vs0mg"},{"bike_id":"25321725-ba8e-4666-b6ea-c28f67db71b5","system_id":"levelo_inurba_marseille","lat":43.32367,"lon":5.388836,"is_reserved":false,"is_disabled":false,"rental_uris":{"android":"levelo://app?vid=25321725-ba8e-4666-b6ea-c28f67db71b5","ios":"levelo://app?vid=25321725-ba8e-4666-b6ea-c28f67db71b5"},"vehicle_type_id":"4","last_reported":1716491203,"current_range_meters":3200,"station_id":"ce4bhqp2rcd13ifvqhog","pricing_plan_id":"cebpf4jnsgd1na2vs0mg"},{"bike_id":"72317f8c-de3d-4297-952a-65104e66150e","system_id":"levelo_inurba_marseille","lat":43.29354,"lon":5.37188,"is_reserved":false,"is_disabled":false,"rental_uris":{"android":"levelo://app?vid=72317f8c-de3d-4297-952a-65104e66150e","ios":"levelo://app?vid=72317f8c-de3d-4297-952a-65104e66150e"},"vehicle_type_id":"4","last_reported":1716491203,"current_range_meters":5600,"station_id":"","pricing_plan_id":"cebpf4jnsgd1na2vs0mg"},{"bike_id":"d987e0b4-58cf-40f9-b65b-0136a10defbb","system_id":"levelo_inurba_marseille","lat":43.295872,"lon":5.380526,"is_reserved":false,"is_disabled":false,"rental_uris":{"android":"levelo://app?vid=d987e0b4-58cf-40f9-b65b-0136a10defbb","ios":"levelo://app?vid=d987e0b4-58cf-40f9-b65b-0136a10defbb"},"vehicle_type_id":"4","last_reported":1716491203,"current_range_meters":3600,"station_id":"","pricing_plan_id":"cebpf4jnsgd1na2vs0mg"},{"bike_id":"857b5f2b-4826-43f2-b558-af2004d7dac1","system_id":"levelo_inurba_marseille","lat":43.295957,"lon":5.380992,"is_reserved":false,"is_disabled":false,"rental_uris":{"android":"levelo://app?vid=857b5f2b-4826-43f2-b558-af2004d7dac1","ios":"levelo://app?vid=857b5f2b-4826-43f2-b558-af2004d7dac1"},"vehicle_type_id":"4","last_reported":1716491203,"current_range_meters":0,"station_id":"ce4bgl12rcd13ifvqbo0","pricing_plan_id":"cebpf4jnsgd1na2vs0mg"},{"bike_id":"104b6456-b966-44c0-ad2a-d4f8a12e47e9","system_id":"levelo_inurba_marseille","lat":43.29375,"lon":5.37412,"is_reserved":false,"is_disabled":false,"rental_uris":{"android":"levelo://app?vid=104b6456-b966-44c0-ad2a-d4f8a12e47e9","ios":"levelo://app?vid=104b6456-b966-44c0-ad2a-d4f8a12e47e9"},"vehicle_type_id":"4","last_reported":1716491203,"current_range_meters":1200,"station_id":"","pricing_plan_id":"cebpf4jnsgd1na2vs0mg"},{"bike_id":"685b87a0-420a-4e7b-9f47-18e89d0f0bdd","system_id":"levelo_inurba_marseille","lat":43.2936,"lon":5.37835,"is_reserved":false,"is_disabled":false,"rental_uris":{"android":"levelo://app?vid=685b87a0-420a-4e7b-9f47-18e89d0f0bdd","ios":"levelo://app?vid=685b87a0-420a-4e7b-9f47-18e89d0f0bdd"},"vehicle_type_id":"4","last_reported":1716491203,"current_range_meters":0,"station_id":"ce4bgjh2rcd13ifvqbf0","pricing_plan_id":"cebpf4jnsgd1na2vs0mg"},{"bike_id":"654e9ffd-248d-4419-9184-3355cea9d49e","system_id":"levelo_inurba_marseille","lat":43.29277,"lon":5.36842,"is_reserved":false,"is_disabled":false,"rental_uris":{"android":"levelo://app?vid=654e9ffd-248d-4419-9184-3355cea9d49e","ios":"levelo://app?vid=654e9ffd-248d-4419-9184-3355cea9d49e"},"vehicle_type_id":"4","last_reported":1716491203,"current_range_meters":1200,"station_id":"ce4bhbp2rcd13ifvqesg","pricing_plan_id":"cebpf4jnsgd1na2vs0mg"},{"bike_id":"218c9232-a02d-4c8e-ba00-2e79fe9d55c0","system_id":"levelo_inurba_marseille","lat":43.292749,"lon":5.368398,"is_reserved":false,"is_disabled":false,"rental_uris":{"android":"levelo://app?vid=218c9232-a02d-4c8e-ba00-2e79fe9d55c0","ios":"levelo://app?vid=218c9232-a02d-4c8e-ba00-2e79fe9d55c0"},"vehicle_type_id":"4","last_reported":1716491203,"current_range_meters":400,"station_id":"ce4bhbp2rcd13ifvqesg","pricing_plan_id":"cebpf4jnsgd1na2vs0mg"},{"bike_id":"79a2b202-bfa6-40aa-afb4-f3942429a128","system_id":"levelo_inurba_marseille","lat":43.29301,"lon":5.37169,"is_reserved":false,"is_disabled":false,"rental_uris":{"android":"levelo://app?vid=79a2b202-bfa6-40aa-afb4-f3942429a128","ios":"levelo://app?vid=79a2b202-bfa6-40aa-afb4-f3942429a128"},"vehicle_type_id":"4","last_reported":1716491203,"current_range_meters":400,"station_id":"ce4bgh92rcd13ifvqb40","pricing_plan_id":"cebpf4jnsgd1na2vs0mg"},{"bike_id":"f4fb1f44-ab11-49ee-ac16-4133d4e99b99","system_id":"levelo_inurba_marseille","lat":43.293,"lon":5.3717,"is_reserved":false,"is_disabled":false,"rental_uris":{"android":"levelo://app?vid=f4fb1f44-ab11-49ee-ac16-4133d4e99b99","ios":"levelo://app?vid=f4fb1f44-ab11-49ee-ac16-4133d4e99b99"},"vehicle_type_id":"4","last_reported":1716491203,"current_range_meters":8400,"station_id":"ce4bgh92rcd13ifvqb40","pricing_plan_id":"cebpf4jnsgd1na2vs0mg"},{"bike_id":"86bbe953-44b5-4f05-a268-7f570ebf9c45","system_id":"levelo_inurba_marseille","lat":43.29272,"lon":5.36841,"is_reserved":false,"is_disabled":false,"rental_uris":{"android":"levelo://app?vid=86bbe953-44b5-4f05-a268-7f570ebf9c45","ios":"levelo://app?vid=86bbe953-44b5-4f05-a268-7f570ebf9c45"},"vehicle_type_id":"4","last_reported":1716491203,"current_range_meters":6400,"station_id":"ce4bhbp2rcd13ifvqesg","pricing_plan_id":"cebpf4jnsgd1na2vs0mg"},{"bike_id":"638108d1-1d98-4a93-b645-e75343d5c248","system_id":"levelo_inurba_marseille","lat":43.29522,"lon":5.38045,"is_reserved":false,"is_disabled":false,"rental_uris":{"android":"levelo://app?vid=638108d1-1d98-4a93-b645-e75343d5c248","ios":"levelo://app?vid=638108d1-1d98-4a93-b645-e75343d5c248"},"vehicle_type_id":"4","last_reported":1716491203,"current_range_meters":0,"station_id":"","pricing_plan_id":"cebpf4jnsgd1na2vs0mg"},{"bike_id":"2d524dfc-988e-414c-8399-1366776751c3","system_id":"levelo_inurba_marseille","lat":43.292749,"lon":5.368402,"is_reserved":false,"is_disabled":false,"rental_uris":{"android":"levelo://app?vid=2d524dfc-988e-414c-8399-1366776751c3","ios":"levelo://app?vid=2d524dfc-988e-414c-8399-1366776751c3"},"vehicle_type_id":"4","last_reported":1716491203,"current_range_meters":0,"station_id":"ce4bhbp2rcd13ifvqesg","pricing_plan_id":"cebpf4jnsgd1na2vs0mg"},{"bike_id":"48aefa4c-223c-4925-b4a1-1f63de486b3d","system_id":"levelo_inurba_marseille","lat":43.305994,"lon":5.393687,"is_reserved":false,"is_disabled":false,"rental_uris":{"android":"levelo://app?vid=48aefa4c-223c-4925-b4a1-1f63de486b3d","ios":"levelo://app?vid=48aefa4c-223c-4925-b4a1-1f63de486b3d"},"vehicle_type_id":"4","last_reported":1716491203,"current_range_meters":2000,"station_id":"ce4bh0p2rcd13ifvqd80","pricing_plan_id":"cebpf4jnsgd1na2vs0mg"},{"bike_id":"7eaae42c-5736-44c7-8d4d-2a783a5eedb0","system_id":"levelo_inurba_marseille","lat":43.293009,"lon":5.374584,"is_reserved":false,"is_disabled":false,"rental_uris":{"android":"levelo://app?vid=7eaae42c-5736-44c7-8d4d-2a783a5eedb0","ios":"levelo://app?vid=7eaae42c-5736-44c7-8d4d-2a783a5eedb0"},"vehicle_type_id":"4","last_reported":1716491203,"current_range_meters":0,"station_id":"ce4bgi12rcd13ifvqb70","pricing_plan_id":"cebpf4jnsgd1na2vs0mg"},{"bike_id":"3a0fb2f9-ed96-45c8-bd52-d49322cad626","system_id":"levelo_inurba_marseille","lat":43.293009,"lon":5.374584,"is_reserved":false,"is_disabled":false,"rental_uris":{"android":"levelo://app?vid=3a0fb2f9-ed96-45c8-bd52-d49322cad626","ios":"levelo://app?vid=3a0fb2f9-ed96-45c8-bd52-d49322cad626"},"vehicle_type_id":"4","last_reported":1716491203,"current_range_meters":0,"station_id":"ce4bgi12rcd13ifvqb70","pricing_plan_id":"cebpf4jnsgd1na2vs0mg"},{"bike_id":"fc739778-6775-4620-a6e6-badb637796f8","system_id":"levelo_inurba_marseille","lat":43.293009,"lon":5.374584,"is_reserved":false,"is_disabled":false,"rental_uris":{"android":"levelo://app?vid=fc739778-6775-4620-a6e6-badb637796f8","ios":"levelo://app?vid=fc739778-6775-4620-a6e6-badb637796f8"},"vehicle_type_id":"4","last_reported":1716491203,"current_range_meters":0,"station_id":"ce4bgi12rcd13ifvqb70","pricing_plan_id":"cebpf4jnsgd1na2vs0mg"},{"bike_id":"3869d8fd-fa5d-4705-b39b-c5dd75d5f0dc","system_id":"levelo_inurba_marseille","lat":43.293009,"lon":5.374584,"is_reserved":false,"is_disabled":false,"rental_uris":{"android":"levelo://app?vid=3869d8fd-fa5d-4705-b39b-c5dd75d5f0dc","ios":"levelo://app?vid=3869d8fd-fa5d-4705-b39b-c5dd75d5f0dc"},"vehicle_type_id":"4","last_reported":1716491203,"current_range_meters":6000,"station_id":"ce4bgi12rcd13ifvqb70","pricing_plan_id":"cebpf4jnsgd1na2vs0mg"},{"bike_id":"b63520de-acab-4983-a89e-0e70f1f2cae6","system_id":"levelo_inurba_marseille","lat":43.29303,"lon":5.374615,"is_reserved":false,"is_disabled":false,"rental_uris":{"android":"levelo://app?vid=b63520de-acab-4983-a89e-0e70f1f2cae6","ios":"levelo://app?vid=b63520de-acab-4983-a89e-0e70f1f2cae6"},"vehicle_type_id":"4","last_reported":1716491203,"current_range_meters":0,"station_id":"ce4bgi12rcd13ifvqb70","pricing_plan_id":"cebpf4jnsgd1na2vs0mg"},{"bike_id":"2c090642-4961-45fd-8fe9-959172406eda","system_id":"levelo_inurba_marseille","lat":43.293009,"lon":5.374584,"is_reserved":false,"is_disabled":false,"rental_uris":{"android":"levelo://app?vid=2c090642-4961-45fd-8fe9-959172406eda","ios":"levelo://app?vid=2c090642-4961-45fd-8fe9-959172406eda"},"vehicle_type_id":"4","last_reported":1716491203,"current_range_meters":8000,"station_id":"ce4bgi12rcd13ifvqb70","pricing_plan_id":"cebpf4jnsgd1na2vs0mg"},{"bike_id":"5e33dc0f-9398-41d7-8e2b-be8b65d44abf","system_id":"levelo_inurba_marseille","lat":43.293,"lon":5.37459,"is_reserved":false,"is_disabled":false,"rental_uris":{"android":"levelo://app?vid=5e33dc0f-9398-41d7-8e2b-be8b65d44abf","ios":"levelo://app?vid=5e33dc0f-9398-41d7-8e2b-be8b65d44abf"},"vehicle_type_id":"4","last_reported":1716491203,"current_range_meters":26000,"station_id":"ce4bgi12rcd13ifvqb70","pricing_plan_id":"cebpf4jnsgd1na2vs0mg"},{"bike_id":"dda6971b-429c-4a74-a820-b7eb5f0fbc56","system_id":"levelo_inurba_marseille","lat":43.305994,"lon":5.393687,"is_reserved":false,"is_disabled":false,"rental_uris":{"android":"levelo://app?vid=dda6971b-429c-4a74-a820-b7eb5f0fbc56","ios":"levelo://app?vid=dda6971b-429c-4a74-a820-b7eb5f0fbc56"},"vehicle_type_id":"4","last_reported":1716491203,"current_range_meters":8000,"station_id":"ce4bh0p2rcd13ifvqd80","pricing_plan_id":"cebpf4jnsgd1na2vs0mg"},{"bike_id":"e1b5628d-6212-4ed0-8154-49e5e18f4a26","system_id":"levelo_inurba_marseille","lat":43.309589,"lon":5.390258,"is_reserved":false,"is_disabled":false,"rental_uris":{"android":"levelo://app?vid=e1b5628d-6212-4ed0-8154-49e5e18f4a26","ios":"levelo://app?vid=e1b5628d-6212-4ed0-8154-49e5e18f4a26"},"vehicle_type_id":"4","last_reported":1716491203,"current_range_meters":4800,"station_id":"ce4bgup2rcd13ifvqco0","pricing_plan_id":"cebpf4jnsgd1na2vs0mg"},{"bike_id":"5ee4bb49-3664-4959-a9a6-7a45c74ea820","system_id":"levelo_inurba_marseille","lat":43.305994,"lon":5.393687,"is_reserved":false,"is_disabled":false,"rental_uris":{"android":"levelo://app?vid=5ee4bb49-3664-4959-a9a6-7a45c74ea820","ios":"levelo://app?vid=5ee4bb49-3664-4959-a9a6-7a45c74ea820"},"vehicle_type_id":"4","last_reported":1716491203,"current_range_meters":14000,"station_id":"ce4bh0p2rcd13ifvqd80","pricing_plan_id":"cebpf4jnsgd1na2vs0mg"},{"bike_id":"87354ac8-68ee-4457-a775-3033a98a06d7","system_id":"levelo_inurba_marseille","lat":43.29285,"lon":5.3748,"is_reserved":false,"is_disabled":false,"rental_uris":{"android":"levelo://app?vid=87354ac8-68ee-4457-a775-3033a98a06d7","ios":"levelo://app?vid=87354ac8-68ee-4457-a775-3033a98a06d7"},"vehicle_type_id":"4","last_reported":1716491203,"current_range_meters":3600,"station_id":"","pricing_plan_id":"cebpf4jnsgd1na2vs0mg"},{"bike_id":"66595f1c-1d0f-4c37-b0a0-6a46ea06e5b9","system_id":"levelo_inurba_marseille","lat":43.29269,"lon":5.37478,"is_reserved":false,"is_disabled":false,"rental_uris":{"android":"levelo://app?vid=66595f1c-1d0f-4c37-b0a0-6a46ea06e5b9","ios":"levelo://app?vid=66595f1c-1d0f-4c37-b0a0-6a46ea06e5b9"},"vehicle_type_id":"4","last_reported":1716491203,"current_range_meters":0,"station_id":"","pricing_plan_id":"cebpf4jnsgd1na2vs0mg"},{"bike_id":"e14b0743-f307-41af-b1ff-42264edfe583","system_id":"levelo_inurba_marseille","lat":43.295194,"lon":5.39397,"is_reserved":false,"is_disabled":false,"rental_uris":{"android":"levelo://app?vid=e14b0743-f307-41af-b1ff-42264edfe583","ios":"levelo://app?vid=e14b0743-f307-41af-b1ff-42264edfe583"},"vehicle_type_id":"4","last_reported":1716491203,"current_range_meters":0,"station_id":"ce4bh292rcd13ifvqdf0","pricing_plan_id":"cebpf4jnsgd1na2vs0mg"},{"bike_id":"e60fe712-bae4-4bae-9f48-7420f3d613d1","system_id":"levelo_inurba_marseille","lat":43.29245,"lon":5.37495,"is_reserved":false,"is_disabled":false,"rental_uris":{"android":"levelo://app?vid=e60fe712-bae4-4bae-9f48-7420f3d613d1","ios":"levelo://app?vid=e60fe712-bae4-4bae-9f48-7420f3d613d1"},"vehicle_type_id":"4","last_reported":1716491203,"current_range_meters":2400,"station_id":"","pricing_plan_id":"cebpf4jnsgd1na2vs0mg"},{"bike_id":"23f79f2d-e349-413b-ae78-c3b7f633e079","system_id":"levelo_inurba_marseille","lat":43.3008,"lon":5.39097,"is_reserved":false,"is_disabled":false,"rental_uris":{"android":"levelo://app?vid=23f79f2d-e349-413b-ae78-c3b7f633e079","ios":"levelo://app?vid=23f79f2d-e349-413b-ae78-c3b7f633e079"},"vehicle_type_id":"4","last_reported":1716491203,"current_range_meters":21600,"station_id":"ce4bh192rcd13ifvqdb0","pricing_plan_id":"cebpf4jnsgd1na2vs0mg"},{"bike_id":"f4ecd82b-5e28-4281-be20-7068045367a9","system_id":"levelo_inurba_marseille","lat":43.293009,"lon":5.374584,"is_reserved":false,"is_disabled":false,"rental_uris":{"android":"levelo://app?vid=f4ecd82b-5e28-4281-be20-7068045367a9","ios":"levelo://app?vid=f4ecd82b-5e28-4281-be20-7068045367a9"},"vehicle_type_id":"4","last_reported":1716491203,"current_range_meters":30000,"station_id":"ce4bgi12rcd13ifvqb70","pricing_plan_id":"cebpf4jnsgd1na2vs0mg"},{"bike_id":"30496813-ca7a-4fe0-97be-715112af42c5","system_id":"levelo_inurba_marseille","lat":43.298764,"lon":5.388973,"is_reserved":false,"is_disabled":false,"rental_uris":{"android":"levelo://app?vid=30496813-ca7a-4fe0-97be-715112af42c5","ios":"levelo://app?vid=30496813-ca7a-4fe0-97be-715112af42c5"},"vehicle_type_id":"4","last_reported":1716491203,"current_range_meters":22000,"station_id":"ce4bh392rcd13ifvqdl0","pricing_plan_id":"cebpf4jnsgd1na2vs0mg"},{"bike_id":"16bb64bf-ad10-4415-ba5a-717e2677120a","system_id":"levelo_inurba_marseille","lat":43.291671,"lon":5.371575,"is_reserved":false,"is_disabled":false,"rental_uris":{"android":"levelo://app?vid=16bb64bf-ad10-4415-ba5a-717e2677120a","ios":"levelo://app?vid=16bb64bf-ad10-4415-ba5a-717e2677120a"},"vehicle_type_id":"4","last_reported":1716491203,"current_range_meters":0,"station_id":"ce4bha92rcd13ifvqeh0","pricing_plan_id":"cebpf4jnsgd1na2vs0mg"},{"bike_id":"5791134c-05e2-4c37-882a-fc9c609d215a","system_id":"levelo_inurba_marseille","lat":43.29865,"lon":5.38897,"is_reserved":false,"is_disabled":false,"rental_uris":{"android":"levelo://app?vid=5791134c-05e2-4c37-882a-fc9c609d215a","ios":"levelo://app?vid=5791134c-05e2-4c37-882a-fc9c609d215a"},"vehicle_type_id":"4","last_reported":1716491203,"current_range_meters":1600,"station_id":"ce4bh392rcd13ifvqdl0","pricing_plan_id":"cebpf4jnsgd1na2vs0mg"},{"bike_id":"7479ad1a-e4a7-4f9d-b92b-3326f3b54dfd","system_id":"levelo_inurba_marseille","lat":43.292005,"lon":5.357875,"is_reserved":false,"is_disabled":false,"rental_uris":{"android":"levelo://app?vid=7479ad1a-e4a7-4f9d-b92b-3326f3b54dfd","ios":"levelo://app?vid=7479ad1a-e4a7-4f9d-b92b-3326f3b54dfd"},"vehicle_type_id":"4","last_reported":1716491203,"current_range_meters":20400,"station_id":"ce4bhb12rcd13ifvqel0","pricing_plan_id":"cebpf4jnsgd1na2vs0mg"},{"bike_id":"8f01103c-f594-4387-b462-6e0fbd34ab89","system_id":"levelo_inurba_marseille","lat":43.29524,"lon":5.384552,"is_reserved":false,"is_disabled":false,"rental_uris":{"android":"levelo://app?vid=8f01103c-f594-4387-b462-6e0fbd34ab89","ios":"levelo://app?vid=8f01103c-f594-4387-b462-6e0fbd34ab89"},"vehicle_type_id":"4","last_reported":1716491203,"current_range_meters":0,"station_id":"ce4bgih2rcd13ifvqba0","pricing_plan_id":"cebpf4jnsgd1na2vs0mg"},{"bike_id":"2fba42c8-c8e1-4847-8670-b9905739722f","system_id":"levelo_inurba_marseille","lat":43.29579,"lon":5.38558,"is_reserved":false,"is_disabled":false,"rental_uris":{"android":"levelo://app?vid=2fba42c8-c8e1-4847-8670-b9905739722f","ios":"levelo://app?vid=2fba42c8-c8e1-4847-8670-b9905739722f"},"vehicle_type_id":"4","last_reported":1716491203,"current_range_meters":0,"station_id":"","pricing_plan_id":"cebpf4jnsgd1na2vs0mg"},{"bike_id":"9d09be6b-274a-40cc-b463-1d680c95e9db","system_id":"levelo_inurba_marseille","lat":43.292005,"lon":5.357875,"is_reserved":false,"is_disabled":false,"rental_uris":{"android":"levelo://app?vid=9d09be6b-274a-40cc-b463-1d680c95e9db","ios":"levelo://app?vid=9d09be6b-274a-40cc-b463-1d680c95e9db"},"vehicle_type_id":"4","last_reported":1716491203,"current_range_meters":26800,"station_id":"ce4bhb12rcd13ifvqel0","pricing_plan_id":"cebpf4jnsgd1na2vs0mg"},{"bike_id":"ef5077c6-f14e-495c-8caa-7e65d521d835","system_id":"levelo_inurba_marseille","lat":43.291994,"lon":5.357886,"is_reserved":false,"is_disabled":false,"rental_uris":{"android":"levelo://app?vid=ef5077c6-f14e-495c-8caa-7e65d521d835","ios":"levelo://app?vid=ef5077c6-f14e-495c-8caa-7e65d521d835"},"vehicle_type_id":"4","last_reported":1716491203,"current_range_meters":15600,"station_id":"ce4bhb12rcd13ifvqel0","pricing_plan_id":"cebpf4jnsgd1na2vs0mg"},{"bike_id":"435fb30c-a495-44c6-b0aa-09eaf56d501e","system_id":"levelo_inurba_marseille","lat":43.291994,"lon":5.357886,"is_reserved":false,"is_disabled":false,"rental_uris":{"android":"levelo://app?vid=435fb30c-a495-44c6-b0aa-09eaf56d501e","ios":"levelo://app?vid=435fb30c-a495-44c6-b0aa-09eaf56d501e"},"vehicle_type_id":"4","last_reported":1716491203,"current_range_meters":3200,"station_id":"ce4bhb12rcd13ifvqel0","pricing_plan_id":"cebpf4jnsgd1na2vs0mg"},{"bike_id":"7dce8c9f-da4d-4c4b-ae04-d6cbb20b147c","system_id":"levelo_inurba_marseille","lat":43.292005,"lon":5.357875,"is_reserved":false,"is_disabled":false,"rental_uris":{"android":"levelo://app?vid=7dce8c9f-da4d-4c4b-ae04-d6cbb20b147c","ios":"levelo://app?vid=7dce8c9f-da4d-4c4b-ae04-d6cbb20b147c"},"vehicle_type_id":"4","last_reported":1716491203,"current_range_meters":20000,"station_id":"ce4bhb12rcd13ifvqel0","pricing_plan_id":"cebpf4jnsgd1na2vs0mg"},{"bike_id":"25edc082-b10b-4c98-a418-1f7ba4b18681","system_id":"levelo_inurba_marseille","lat":43.292005,"lon":5.357875,"is_reserved":false,"is_disabled":false,"rental_uris":{"android":"levelo://app?vid=25edc082-b10b-4c98-a418-1f7ba4b18681","ios":"levelo://app?vid=25edc082-b10b-4c98-a418-1f7ba4b18681"},"vehicle_type_id":"4","last_reported":1716491203,"current_range_meters":0,"station_id":"ce4bhb12rcd13ifvqel0","pricing_plan_id":"cebpf4jnsgd1na2vs0mg"},{"bike_id":"8f52557c-7e3c-4a66-98d1-0ba6c2f0af84","system_id":"levelo_inurba_marseille","lat":43.292005,"lon":5.357875,"is_reserved":false,"is_disabled":false,"rental_uris":{"android":"levelo://app?vid=8f52557c-7e3c-4a66-98d1-0ba6c2f0af84","ios":"levelo://app?vid=8f52557c-7e3c-4a66-98d1-0ba6c2f0af84"},"vehicle_type_id":"4","last_reported":1716491203,"current_range_meters":32000,"station_id":"ce4bhb12rcd13ifvqel0","pricing_plan_id":"cebpf4jnsgd1na2vs0mg"},{"bike_id":"d77ff89b-703d-4e67-8844-ff2b66b236a1","system_id":"levelo_inurba_marseille","lat":43.292005,"lon":5.357875,"is_reserved":false,"is_disabled":false,"rental_uris":{"android":"levelo://app?vid=d77ff89b-703d-4e67-8844-ff2b66b236a1","ios":"levelo://app?vid=d77ff89b-703d-4e67-8844-ff2b66b236a1"},"vehicle_type_id":"4","last_reported":1716491203,"current_range_meters":17600,"station_id":"ce4bhb12rcd13ifvqel0","pricing_plan_id":"cebpf4jnsgd1na2vs0mg"},{"bike_id":"90a8f782-1ca9-4c0f-b3fb-93b968f7686f","system_id":"levelo_inurba_marseille","lat":43.309038,"lon":5.396546,"is_reserved":false,"is_disabled":false,"rental_uris":{"android":"levelo://app?vid=90a8f782-1ca9-4c0f-b3fb-93b968f7686f","ios":"levelo://app?vid=90a8f782-1ca9-4c0f-b3fb-93b968f7686f"},"vehicle_type_id":"4","last_reported":1716491203,"current_range_meters":0,"station_id":"ce4bh012rcd13ifvqcv0","pricing_plan_id":"cebpf4jnsgd1na2vs0mg"},{"bike_id":"5fcd530f-6994-4568-936f-1a423c6a694f","system_id":"levelo_inurba_marseille","lat":43.309038,"lon":5.396546,"is_reserved":false,"is_disabled":false,"rental_uris":{"android":"levelo://app?vid=5fcd530f-6994-4568-936f-1a423c6a694f","ios":"levelo://app?vid=5fcd530f-6994-4568-936f-1a423c6a694f"},"vehicle_type_id":"4","last_reported":1716491203,"current_range_meters":0,"station_id":"ce4bh012rcd13ifvqcv0","pricing_plan_id":"cebpf4jnsgd1na2vs0mg"},{"bike_id":"43ee9b26-de3b-4a49-abbe-f7034eccf2d5","system_id":"levelo_inurba_marseille","lat":43.291994,"lon":5.357886,"is_reserved":false,"is_disabled":false,"rental_uris":{"android":"levelo://app?vid=43ee9b26-de3b-4a49-abbe-f7034eccf2d5","ios":"levelo://app?vid=43ee9b26-de3b-4a49-abbe-f7034eccf2d5"},"vehicle_type_id":"4","last_reported":1716491203,"current_range_meters":8800,"station_id":"ce4bhb12rcd13ifvqel0","pricing_plan_id":"cebpf4jnsgd1na2vs0mg"},{"bike_id":"824dbf07-3692-4606-94f0-909feb057f6f","system_id":"levelo_inurba_marseille","lat":43.291994,"lon":5.357886,"is_reserved":false,"is_disabled":false,"rental_uris":{"android":"levelo://app?vid=824dbf07-3692-4606-94f0-909feb057f6f","ios":"levelo://app?vid=824dbf07-3692-4606-94f0-909feb057f6f"},"vehicle_type_id":"4","last_reported":1716491203,"current_range_meters":25200,"station_id":"ce4bhb12rcd13ifvqel0","pricing_plan_id":"cebpf4jnsgd1na2vs0mg"},{"bike_id":"02b45189-9a15-407c-8309-0294780e5fc8","system_id":"levelo_inurba_marseille","lat":43.291994,"lon":5.357886,"is_reserved":false,"is_disabled":false,"rental_uris":{"android":"levelo://app?vid=02b45189-9a15-407c-8309-0294780e5fc8","ios":"levelo://app?vid=02b45189-9a15-407c-8309-0294780e5fc8"},"vehicle_type_id":"4","last_reported":1716491203,"current_range_meters":24400,"station_id":"ce4bhb12rcd13ifvqel0","pricing_plan_id":"cebpf4jnsgd1na2vs0mg"},{"bike_id":"a6735cdd-a90d-4727-a8a8-5b5a05fc098c","system_id":"levelo_inurba_marseille","lat":43.309038,"lon":5.396546,"is_reserved":false,"is_disabled":false,"rental_uris":{"android":"levelo://app?vid=a6735cdd-a90d-4727-a8a8-5b5a05fc098c","ios":"levelo://app?vid=a6735cdd-a90d-4727-a8a8-5b5a05fc098c"},"vehicle_type_id":"4","last_reported":1716491203,"current_range_meters":1200,"station_id":"ce4bh012rcd13ifvqcv0","pricing_plan_id":"cebpf4jnsgd1na2vs0mg"},{"bike_id":"3093439d-cebf-4092-b3d2-814ea3ff3c7e","system_id":"levelo_inurba_marseille","lat":43.309038,"lon":5.396546,"is_reserved":false,"is_disabled":false,"rental_uris":{"android":"levelo://app?vid=3093439d-cebf-4092-b3d2-814ea3ff3c7e","ios":"levelo://app?vid=3093439d-cebf-4092-b3d2-814ea3ff3c7e"},"vehicle_type_id":"4","last_reported":1716491203,"current_range_meters":20000,"station_id":"ce4bh012rcd13ifvqcv0","pricing_plan_id":"cebpf4jnsgd1na2vs0mg"},{"bike_id":"aadc4f7c-c3d5-4077-99f6-2e4c54fd389e","system_id":"levelo_inurba_marseille","lat":43.292005,"lon":5.357875,"is_reserved":false,"is_disabled":false,"rental_uris":{"android":"levelo://app?vid=aadc4f7c-c3d5-4077-99f6-2e4c54fd389e","ios":"levelo://app?vid=aadc4f7c-c3d5-4077-99f6-2e4c54fd389e"},"vehicle_type_id":"4","last_reported":1716491203,"current_range_meters":26000,"station_id":"ce4bhb12rcd13ifvqel0","pricing_plan_id":"cebpf4jnsgd1na2vs0mg"},{"bike_id":"8d4fb88e-eada-4e26-980a-9ce3ccea1d43","system_id":"levelo_inurba_marseille","lat":43.291994,"lon":5.357886,"is_reserved":false,"is_disabled":false,"rental_uris":{"android":"levelo://app?vid=8d4fb88e-eada-4e26-980a-9ce3ccea1d43","ios":"levelo://app?vid=8d4fb88e-eada-4e26-980a-9ce3ccea1d43"},"vehicle_type_id":"4","last_reported":1716491203,"current_range_meters":23600,"station_id":"ce4bhb12rcd13ifvqel0","pricing_plan_id":"cebpf4jnsgd1na2vs0mg"},