{"last_updated":1744556950,"ttl":60,"version":"2.2","data":{"bikes":[{"bike_id":"e4380e13-6ea1-432c-b547-badeba89c1b3","system_id":"levelo_inurba_marseille","lat":43.28849,"lon":5.39322,"is_reserved":false,"is_disabled":true,"rental_uris":{"android":"levelo://app?vid=e4380e13-6ea1-432c-b547-badeba89c1b3","ios":"levelo://app?vid=e4380e13-6ea1-432c-b547-badeba89c1b3"},"vehicle_type_id":"4","last_reported":1744556950,"current_range_meters":2800,"station_id":"ce4bh2p2rcd13ifvqdi0","pricing_plan_id":"cebpf4jnsgd1na2vs0mg"},{"bike_id":"3f08cc69-711e-4264-b923-68891203ffa4","system_id":"levelo_inurba_marseille","lat":43.32285,"lon":5.38243,"is_reserved":false,"is_disabled":true,"rental_uris":{"android":"levelo://app?vid=3f08cc69-711e-4264-b923-68891203ffa4","ios":"levelo://app?vid=3f08cc69-711e-4264-b923-68891203ffa4"},"vehicle_type_id":"4","last_reported":1744556950,"current_range_meters":2800,"station_id":"ce4bhr12rcd13ifvqhqg","pricing_plan_id":"cebpf4jnsgd1na2vs0mg"},{"bike_id":"3312043b-d20e-4f7c-881f-5e803731d960","system_id":"levelo_inurba_marseille","lat":43.21196,"lon":5.35079,"is_reserved":false,"is_disabled":true,"rental_uris":{"android":"levelo://app?vid=3312043b-d20e-4f7c-881f-5e803731d960","ios":"levelo://app?vid=3312043b-d20e-4f7c-881f-5e803731d960"},"vehicle_type_id":"4","last_reported":1744556950,"current_range_meters":2800,"station_id":"st_cvj6sg6p6f1abm77japg","pricing_plan_id":"cebpf4jnsgd1na2vs0mg"},{"bike_id":"f96c0c65-7fce-4b6c-8bb2-232128e93959","system_id":"levelo_inurba_marseille","lat":43.30507,"lon":5.39294,"is_reserved":false,"is_disabled":false,"rental_uris":{"android":"levelo://app?vid=f96c0c65-7fce-4b6c-8bb2-232128e93959","ios":"levelo://app?vid=f96c0c65-7fce-4b6c-8bb2-232128e93959"},"vehicle_type_id":"4","last_reported":1744556950,"current_range_meters":3200,"station_id":"","pricing_plan_id":"cebpf4jnsgd1na2vs0mg"},{"bike_id":"b6ff7e66-b821-4f07-a3cf-b9f4abde04e1","system_id":"levelo_inurba_marseille","lat":43.27997,"lon":5.40019,"is_reserved":false,"is_disabled":true,"rental_uris":{"android":"levelo://app?vid=b6ff7e66-b821-4f07-a3cf-b9f4abde04e1","ios":"levelo://app?vid=b6ff7e66-b821-4f07-a3cf-b9f4abde04e1"},"vehicle_type_id":"4","last_reported":1744556950,"current_range_meters":3200,"station_id":"ce4bho92rcd13ifvqh4g","pricing_plan_id":"cebpf4jnsgd1na2vs0mg"},{"bike_id":"adfb08db-ad3d-4a60-889b-8e3a7bf8e1c1","system_id":"levelo_inurba_marseille","lat":43.23141,"lon":5.43702,"is_reserved":false,"is_disabled":false,"rental_uris":{"android":"levelo://app?vid=adfb08db-ad3d-4a60-889b-8e3a7bf8e1c1","ios":"levelo://app?vid=adfb08db-ad3d-4a60-889b-8e3a7bf8e1c1"},"vehicle_type_id":"4","last_reported":1744556950,"current_range_meters":3200,"station_id":"ce4bhmp2rcd13ifvqgog","pricing_plan_id":"cebpf4jnsgd1na2vs0mg"},{"bike_id":"91c02467-e0a8-47ce-ac5d-372909c4cd47","system_id":"levelo_inurba_marseille","lat":43.29091,"lon":5.38138,"is_reserved":false,"is_disabled":false,"rental_uris":{"android":"levelo://app?vid=91c02467-e0a8-47ce-ac5d-372909c4cd47","ios":"levelo://app?vid=91c02467-e0a8-47ce-ac5d-372909c4cd47"},"vehicle_type_id":"4","last_reported":1744556950,"current_range_meters":3600,"station_id":"ce4bh512rcd13ifvqe2g","pricing_plan_id":"cebpf4jnsgd1na2vs0mg"},{"bike_id":"2dadc256-f6a2-4972-aefe-65d37cdc0e98","system_id":"levelo_inurba_marseille","lat":43.30261,"lon":5.40072,"is_reserved":false,"is_disabled":false,"rental_uris":{"android":"levelo://app?vid=2dadc256-f6a2-4972-aefe-65d37cdc0e98","ios":"levelo://app?vid=2dadc256-f6a2-4972-aefe-65d37cdc0e98"},"vehicle_type_id":"4","last_reported":1744556950,"current_range_meters":3600,"station_id":"ce4bgvh2rcd13ifvqcs0","pricing_plan_id":"cebpf4jnsgd1na2vs0mg"},{"bike_id":"d53fbffe-dc4a-4afc-a9e0-61e8f22aa874","system_id":"levelo_inurba_marseille","lat":43.29017,"lon":5.38642,"is_reserved":false,"is_disabled":false,"rental_uris":{"android":"levelo://app?vid=d53fbffe-dc4a-4afc-a9e0-61e8f22aa874","ios":"levelo://app?vid=d53fbffe-dc4a-4afc-a9e0-61e8f22aa874"},"vehicle_type_id":"4","last_reported":1744556950,"current_range_meters":3600,"station_id":"ce4bh4p2rcd13ifvqe0g","pricing_plan_id":"cebpf4jnsgd1na2vs0mg"},{"bike_id":"efad8a7a-d21a-4569-b8a9-1fe3280a63f0","system_id":"levelo_inurba_marseille","lat":43.299677,"lon":5.397814,"is_reserved":false,"is_disabled":false,"rental_uris":{"android":"levelo://app?vid=efad8a7a-d21a-4569-b8a9-1fe3280a63f0","ios":"levelo://app?vid=efad8a7a-d21a-4569-b8a9-1fe3280a63f0"},"vehicle_type_id":"4","last_reported":1744556950,"current_range_meters":4000,"station_id":"ce4bh0h2rcd13ifvqd40","pricing_plan_id":"cebpf4jnsgd1na2vs0mg"},{"bike_id":"8708dd08-3274-46ab-b322-809752473736","system_id":"levelo_inurba_marseille","lat":43.30314,"lon":5.40437,"is_reserved":false,"is_disabled":false,"rental_uris":{"android":"levelo://app?vid=8708dd08-3274-46ab-b322-809752473736","ios":"levelo://app?vid=8708dd08-3274-46ab-b322-809752473736"},"vehicle_type_id":"4","last_reported":1744556950,"current_range_meters":4000,"station_id":"ce4bh012rcd13ifvqd10","pricing_plan_id":"cebpf4jnsgd1na2vs0mg"},{"bike_id":"3438c5bd-1787-489f-9a0e-5eb33ff8500a","system_id":"levelo_inurba_marseille","lat":43.29583,"lon":5.42337,"is_reserved":false,"is_disabled":true,"rental_uris":{"android":"levelo://app?vid=3438c5bd-1787-489f-9a0e-5eb33ff8500a","ios":"levelo://app?vid=3438c5bd-1787-489f-9a0e-5eb33ff8500a"},"vehicle_type_id":"4","last_reported":1744556950,"current_range_meters":4400,"station_id":"ce4bhph2rcd13ifvqhdg","pricing_plan_id":"cebpf4jnsgd1na2vs0mg"},{"bike_id":"4c893399-b4ed-40ed-a49f-713da320f269","system_id":"levelo_inurba_marseille","lat":43.29861,"lon":5.37841,"is_reserved":false,"is_disabled":false,"rental_uris":{"android":"levelo://app?vid=4c893399-b4ed-40ed-a49f-713da320f269","ios":"levelo://app?vid=4c893399-b4ed-40ed-a49f-713da320f269"},"vehicle_type_id":"4","last_reported":1744556950,"current_range_meters":5600,"station_id":"","pricing_plan_id":"cebpf4jnsgd1na2vs0mg"},{"bike_id":"b520d9a6-e365-4019-b0b8-d28edb529c81","system_id":"levelo_inurba_marseille","lat":43.27837,"lon":5.39211,"is_reserved":false,"is_disabled":false,"rental_uris":{"android":"levelo://app?vid=b520d9a6-e365-4019-b0b8-d28edb529c81","ios":"levelo://app?vid=b520d9a6-e365-4019-b0b8-d28edb529c81"},"vehicle_type_id":"4","last_reported":1744556950,"current_range_meters":5600,"station_id":"ce4bhjp2rcd13ifvqga0","pricing_plan_id":"cebpf4jnsgd1na2vs0mg"},{"bike_id":"f915ac58-55ab-4ba3-b885-a6a3dc326f9d","system_id":"levelo_inurba_marseille","lat":43.26851,"lon":5.4019,"is_reserved":false,"is_disabled":false,"rental_uris":{"android":"levelo://app?vid=f915ac58-55ab-4ba3-b885-a6a3dc326f9d","ios":"levelo://app?vid=f915ac58-55ab-4ba3-b885-a6a3dc326f9d"},"vehicle_type_id":"4","last_reported":1744556950,"current_range_meters":5600,"station_id":"ce501612rcd8frsf0b60","pricing_plan_id":"cebpf4jnsgd1na2vs0mg"},{"bike_id":"cfadcc33-5bb8-4f29-9a84-ae98565bb4a2","system_id":"levelo_inurba_marseille","lat":43.24115,"lon":5.37826,"is_reserved":false,"is_disabled":false,"rental_uris":{"android":"levelo://app?vid=cfadcc33-5bb8-4f29-9a84-ae98565bb4a2","ios":"levelo://app?vid=cfadcc33-5bb8-4f29-9a84-ae98565bb4a2"},"vehicle_type_id":"4","last_reported":1744556950,"current_range_meters":6000,"station_id":"","pricing_plan_id":"cebpf4jnsgd1na2vs0mg"},{"bike_id":"3d701879-1219-4529-825d-cf9d81ada302","system_id":"levelo_inurba_marseille","lat":43.28354,"lon":5.38626,"is_reserved":false,"is_disabled":false,"rental_uris":{"android":"levelo://app?vid=3d701879-1219-4529-825d-cf9d81ada302","ios":"levelo://app?vid=3d701879-1219-4529-825d-cf9d81ada302"},"vehicle_type_id":"4","last_reported":1744556950,"current_range_meters":6000,"station_id":"ce4bh492rcd13ifvqdvg","pricing_plan_id":"cebpf4jnsgd1na2vs0mg"},{"bike_id":"4f8c8c97-8de8-4aac-becb-3c97e4708f22","system_id":"levelo_inurba_marseille","lat":43.23962,"lon":5.36643,"is_reserved":false,"is_disabled":false,"rental_uris":{"android":"levelo://app?vid=4f8c8c97-8de8-4aac-becb-3c97e4708f22","ios":"levelo://app?vid=4f8c8c97-8de8-4aac-becb-3c97e4708f22"},"vehicle_type_id":"4","last_reported":1744556950,"current_range_meters":6000,"station_id":"ce4bhi12rcd13ifvqfp0","pricing_plan_id":"cebpf4jnsgd1na2vs0mg"},{"bike_id":"6e53f594-5255-49d8-9d11-e5abc5e982b6","system_id":"levelo_inurba_marseille","lat":43.28036,"lon":5.36952,"is_reserved":false,"is_disabled":false,"rental_uris":{"android":"levelo://app?vid=6e53f594-5255-49d8-9d11-e5abc5e982b6","ios":"levelo://app?vid=6e53f594-5255-49d8-9d11-e5abc5e982b6"},"vehicle_type_id":"4","last_reported":1744556950,"current_range_meters":6000,"station_id":"ce4bha12rcd13ifvqef0","pricing_plan_id":"cebpf4jnsgd1na2vs0mg"},{"bike_id":"fb3bf63f-cb8b-4e2d-97b5-e2bd30164ab5","system_id":"levelo_inurba_marseille","lat":43.31089,"lon":5.36661,"is_reserved":false,"is_disabled":false,"rental_uris":{"android":"levelo://app?vid=fb3bf63f-cb8b-4e2d-97b5-e2bd30164ab5","ios":"levelo://app?vid=fb3bf63f-cb8b-4e2d-97b5-e2bd30164ab5"},"vehicle_type_id":"4","last_reported":1744556950,"current_range_meters":6000,"station_id":"","pricing_plan_id":"cebpf4jnsgd1na2vs0mg"},{"bike_id":"18506e12-317a-4226-9c67-109d24ffea03","system_id":"levelo_inurba_marseille","lat":43.30433,"lon":5.38891,"is_reserved":false,"is_disabled":false,"rental_uris":{"android":"levelo://app?vid=18506e12-317a-4226-9c67-109d24ffea03","ios":"levelo://app?vid=18506e12-317a-4226-9c67-109d24ffea03"},"vehicle_type_id":"4","last_reported":1744556950,"current_range_meters":6000,"station_id":"ce4bgk12rcd13ifvqbi0","pricing_plan_id":"cebpf4jnsgd1na2vs0mg"},{"bike_id":"838ca8e1-258f-4b3d-9595-7e6e7177882a","system_id":"levelo_inurba_marseille","lat":43.30321,"lon":5.40429,"is_reserved":false,"is_disabled":false,"rental_uris":{"android":"levelo://app?vid=838ca8e1-258f-4b3d-9595-7e6e7177882a","ios":"levelo://app?vid=838ca8e1-258f-4b3d-9595-7e6e7177882a"},"vehicle_type_id":"4","last_reported":1744556950,"current_range_meters":6000,"station_id":"ce4bh012rcd13ifvqd10","pricing_plan_id":"cebpf4jnsgd1na2vs0mg"},{"bike_id":"7382b2dd-a95b-4bd8-aaab-71f0e655d747","system_id":"levelo_inurba_marseille","lat":43.30533,"lon":5.36538,"is_reserved":false,"is_disabled":false,"rental_uris":{"android":"levelo://app?vid=7382b2dd-a95b-4bd8-aaab-71f0e655d747","ios":"levelo://app?vid=7382b2dd-a95b-4bd8-aaab-71f0e655d747"},"vehicle_type_id":"4","last_reported":1744556950,"current_range_meters":6000,"station_id":"ce4bgs12rcd13ifvqcag","pricing_plan_id":"cebpf4jnsgd1na2vs0mg"},{"bike_id":"3befb93c-45ba-4006-8aba-da3fee6179dc","system_id":"levelo_inurba_marseille","lat":43.2582,"lon":5.39429,"is_reserved":false,"is_disabled":false,"rental_uris":{"android":"levelo://app?vid=3befb93c-45ba-4006-8aba-da3fee6179dc","ios":"levelo://app?vid=3befb93c-45ba-4006-8aba-da3fee6179dc"},"vehicle_type_id":"4","last_reported":1744556950,"current_range_meters":6400,"station_id":"ce4bhip2rcd13ifvqft0","pricing_plan_id":"cebpf4jnsgd1na2vs0mg"},{"bike_id":"93d0edb4-46be-43c7-bb98-9ffe08caf198","system_id":"levelo_inurba_marseille","lat":43.26026,"lon":5.37551,"is_reserved":false,"is_disabled":false,"rental_uris":{"android":"levelo://app?vid=93d0edb4-46be-43c7-bb98-9ffe08caf198","ios":"levelo://app?vid=93d0edb4-46be-43c7-bb98-9ffe08caf198"},"vehicle_type_id":"4","last_reported":1744556950,"current_range_meters":6400,"station_id":"ce4bhgh2rcd13ifvqfa0","pricing_plan_id":"cebpf4jnsgd1na2vs0mg"},{"bike_id":"c0bf6caf-7269-40b8-ba14-e38f49a96d38","system_id":"levelo_inurba_marseille","lat":43.29278,"lon":5.4012,"is_reserved":false,"is_disabled":false,"rental_uris":{"android":"levelo://app?vid=c0bf6caf-7269-40b8-ba14-e38f49a96d38","ios":"levelo://app?vid=c0bf6caf-7269-40b8-ba14-e38f49a96d38"},"vehicle_type_id":"4","last_reported":1744556950,"current_range_meters":6400,"station_id":"ce4bh312rcd13ifvqdk0","pricing_plan_id":"cebpf4jnsgd1na2vs0mg"},{"bike_id":"ee37d139-b142-4b50-a9e7-ebe3a284e80c","system_id":"levelo_inurba_marseille","lat":43.22934,"lon":5.35384,"is_reserved":false,"is_disabled":false,"rental_uris":{"android":"levelo://app?vid=ee37d139-b142-4b50-a9e7-ebe3a284e80c","ios":"levelo://app?vid=ee37d139-b142-4b50-a9e7-ebe3a284e80c"},"vehicle_type_id":"4","last_reported":1744556950,"current_range_meters":6400,"station_id":"cpo3532slgdg3j2ikp40","pricing_plan_id":"cebpf4jnsgd1na2vs0mg"},{"bike_id":"ef291804-1477-432e-b153-82ea15725418","system_id":"levelo_inurba_marseille","lat":43.33742,"lon":5.37454,"is_reserved":false,"is_disabled":false,"rental_uris":{"android":"levelo://app?vid=ef291804-1477-432e-b153-82ea15725418","ios":"levelo://app?vid=ef291804-1477-432e-b153-82ea15725418"},"vehicle_type_id":"4","last_reported":1744556950,"current_range_meters":6400,"station_id":"","pricing_plan_id":"cebpf4jnsgd1na2vs0mg"},{"bike_id":"6db4ebe9-d19c-49a8-bfc0-4798c825640a","system_id":"levelo_inurba_marseille","lat":43.26552,"lon":5.37286,"is_reserved":false,"is_disabled":false,"rental_uris":{"android":"levelo://app?vid=6db4ebe9-d19c-49a8-bfc0-4798c825640a","ios":"levelo://app?vid=6db4ebe9-d19c-49a8-bfc0-4798c825640a"},"vehicle_type_id":"4","last_reported":1744556950,"current_range_meters":6400,"station_id":"ce4bhg12rcd13ifvqf70","pricing_plan_id":"cebpf4jnsgd1na2vs0mg"},{"bike_id":"21af2984-add3-4798-978d-b24701f00867","system_id":"levelo_inurba_marseille","lat":43.30953,"lon":5.39038,"is_reserved":false,"is_disabled":false,"rental_uris":{"android":"levelo://app?vid=21af2984-add3-4798-978d-b24701f00867","ios":"levelo://app?vid=21af2984-add3-4798-978d-b24701f00867"},"vehicle_type_id":"4","last_reported":1744556950,"current_range_meters":6400,"station_id":"ce4bgup2rcd13ifvqco0","pricing_plan_id":"cebpf4jnsgd1na2vs0mg"},{"bike_id":"922d31d1-8143-4810-ad78-ced66ece92a4","system_id":"levelo_inurba_marseille","lat":43.27574,"lon":5.38445,"is_reserved":false,"is_disabled":true,"rental_uris":{"android":"levelo://app?vid=922d31d1-8143-4810-ad78-ced66ece92a4","ios":"levelo://app?vid=922d31d1-8143-4810-ad78-ced66ece92a4"},"vehicle_type_id":"4","last_reported":1744556950,"current_range_meters":6400,"station_id":"ce4bhh92rcd13ifvqfi0","pricing_plan_id":"cebpf4jnsgd1na2vs0mg"},{"bike_id":"a0d18c10-69a4-482b-a623-16aec6cce161","system_id":"levelo_inurba_marseille","lat":43.300994,"lon":5.375281,"is_reserved":false,"is_disabled":false,"rental_uris":{"android":"levelo://app?vid=a0d18c10-69a4-482b-a623-16aec6cce161","ios":"levelo://app?vid=a0d18c10-69a4-482b-a623-16aec6cce161"},"vehicle_type_id":"4","last_reported":1744556950,"current_range_meters":6800,"station_id":"ce4bgs92rcd13ifvqcc0","pricing_plan_id":"cebpf4jnsgd1na2vs0mg"},{"bike_id":"d53356ed-34e7-4ce0-8d94-e073954cdd85","system_id":"levelo_inurba_marseille","lat":43.27064,"lon":5.40265,"is_reserved":false,"is_disabled":true,"rental_uris":{"android":"levelo://app?vid=d53356ed-34e7-4ce0-8d94-e073954cdd85","ios":"levelo://app?vid=d53356ed-34e7-4ce0-8d94-e073954cdd85"},"vehicle_type_id":"4","last_reported":1744556950,"current_range_meters":6800,"station_id":"ce4bhk92rcd13ifvqgc0","pricing_plan_id":"cebpf4jnsgd1na2vs0mg"},{"bike_id":"1130922e-9ccc-463b-9207-aadecd794edb","system_id":"levelo_inurba_marseille","lat":43.31989,"lon":5.38132,"is_reserved":false,"is_disabled":true,"rental_uris":{"android":"levelo://app?vid=1130922e-9ccc-463b-9207-aadecd794edb","ios":"levelo://app?vid=1130922e-9ccc-463b-9207-aadecd794edb"},"vehicle_type_id":"4","last_reported":1744556950,"current_range_meters":6800,"station_id":"ce4bhr12rcd13ifvqhpg","pricing_plan_id":"cebpf4jnsgd1na2vs0mg"},{"bike_id":"c013d600-5e08-48f0-830e-8c965978436b","system_id":"levelo_inurba_marseille","lat":43.30448,"lon":5.38905,"is_reserved":false,"is_disabled":true,"rental_uris":{"android":"levelo://app?vid=c013d600-5e08-48f0-830e-8c965978436b","ios":"levelo://app?vid=c013d600-5e08-48f0-830e-8c965978436b"},"vehicle_type_id":"4","last_reported":1744556950,"current_range_meters":6800,"station_id":"ce4bgk12rcd13ifvqbi0","pricing_plan_id":"cebpf4jnsgd1na2vs0mg"},{"bike_id":"e780cd0f-b00a-45c4-af28-8127a97db6df","system_id":"levelo_inurba_marseille","lat":43.29265,"lon":5.38432,"is_reserved":false,"is_disabled":false,"rental_uris":{"android":"levelo://app?vid=e780cd0f-b00a-45c4-af28-8127a97db6df","ios":"levelo://app?vid=e780cd0f-b00a-45c4-af28-8127a97db6df"},"vehicle_type_id":"4","last_reported":1744556950,"current_range_meters":6800,"station_id":"ce4bh692rcd13ifvqea0","pricing_plan_id":"cebpf4jnsgd1na2vs0mg"},{"bike_id":"00fea045-3c47-4142-a992-83b23f578805","system_id":"levelo_inurba_marseille","lat":43.25076,"lon":5.39516,"is_reserved":false,"is_disabled":false,"rental_uris":{"android":"levelo://app?vid=00fea045-3c47-4142-a992-83b23f578805","ios":"levelo://app?vid=00fea045-3c47-4142-a992-83b23f578805"},"vehicle_type_id":"4","last_reported":1744556950,"current_range_meters":6800,"station_id":"ce4bhm12rcd13ifvqgkg","pricing_plan_id":"cebpf4jnsgd1na2vs0mg"},{"bike_id":"d87208d6-38c3-4146-82bf-b0b84118bc03","system_id":"levelo_inurba_marseille","lat":43.33603,"lon":5.41034,"is_reserved":false,"is_disabled":false,"rental_uris":{"android":"levelo://app?vid=d87208d6-38c3-4146-82bf-b0b84118bc03","ios":"levelo://app?vid=d87208d6-38c3-4146-82bf-b0b84118bc03"},"vehicle_type_id":"4","last_reported":1744556950,"current_range_meters":6800,"station_id":"ce4bhqh2rcd13ifvqhmg","pricing_plan_id":"cebpf4jnsgd1na2vs0mg"},{"bike_id":"88802da1-90f2-4aff-90a1-c3598e933096","system_id":"levelo_inurba_marseille","lat":43.30292,"lon":5.39143,"is_reserved":false,"is_disabled":false,"rental_uris":{"android":"levelo://app?vid=88802da1-90f2-4aff-90a1-c3598e933096","ios":"levelo://app?vid=88802da1-90f2-4aff-90a1-c3598e933096"},"vehicle_type_id":"4","last_reported":1744556950,"current_range_meters":6800,"station_id":"","pricing_plan_id":"cebpf4jnsgd1na2vs0mg"},{"bike_id":"d185f7a2-6136-496a-83f6-3acf32292f4c","system_id":"levelo_inurba_marseille","lat":43.29301,"lon":5.37176,"is_reserved":false,"is_disabled":true,"rental_uris":{"android":"levelo://app?vid=d185f7a2-6136-496a-83f6-3acf32292f4c","ios":"levelo://app?vid=d185f7a2-6136-496a-83f6-3acf32292f4c"},"vehicle_type_id":"4","last_reported":1744556950,"current_range_meters":7200,"station_id":"ce4bgh92rcd13ifvqb40","pricing_plan_id":"cebpf4jnsgd1na2vs0mg"},{"bike_id":"d8f603cd-3b83-4148-bab8-3a185ad2a59f","system_id":"levelo_inurba_marseille","lat":43.32416,"lon":5.3913,"is_reserved":false,"is_disabled":false,"rental_uris":{"android":"levelo://app?vid=d8f603cd-3b83-4148-bab8-3a185ad2a59f","ios":"levelo://app?vid=d8f603cd-3b83-4148-bab8-3a185ad2a59f"},"vehicle_type_id":"4","last_reported":1744556950,"current_range_meters":7200,"station_id":"","pricing_plan_id":"cebpf4jnsgd1na2vs0mg"},{"bike_id":"019576dd-4d5b-449f-bee3-6016e550c1da","system_id":"levelo_inurba_marseille","lat":43.303803,"lon":5.424793,"is_reserved":false,"is_disabled":false,"rental_uris":{"android":"levelo://app?vid=019576dd-4d5b-449f-bee3-6016e550c1da","ios":"levelo://app?vid=019576dd-4d5b-449f-bee3-6016e550c1da"},"vehicle_type_id":"4","last_reported":1744556950,"current_range_meters":7200,"station_id":"ce4bhoh2rcd13ifvqh6g","pricing_plan_id":"cebpf4jnsgd1na2vs0mg"},{"bike_id":"48304a08-5a69-4a32-a932-369007df2aca","system_id":"levelo_inurba_marseille","lat":43.28612,"lon":5.35098,"is_reserved":false,"is_disabled":true,"rental_uris":{"android":"levelo://app?vid=48304a08-5a69-4a32-a932-369007df2aca","ios":"levelo://app?vid=48304a08-5a69-4a32-a932-369007df2aca"},"vehicle_type_id":"4","last_reported":1744556950,"current_range_meters":7200,"station_id":"ce4bhch2rcd13ifvqeug","pricing_plan_id":"cebpf4jnsgd1na2vs0mg"},{"bike_id":"826c0beb-b859-44fc-9e3b-2569fdc20685","system_id":"levelo_inurba_marseille","lat":43.31072,"lon":5.42532,"is_reserved":false,"is_disabled":false,"rental_uris":{"android":"levelo://app?vid=826c0beb-b859-44fc-9e3b-2569fdc20685","ios":"levelo://app?vid=826c0beb-b859-44fc-9e3b-2569fdc20685"},"vehicle_type_id":"4","last_reported":1744556950,"current_range_meters":7200,"station_id":"","pricing_plan_id":"cebpf4jnsgd1na2vs0mg"},{"bike_id":"4a0973b0-92a0-41e8-9b0d-a99e944bafe0","system_id":"levelo_inurba_marseille","lat":43.344776,"lon":5.412843,"is_reserved":false,"is_disabled":false,"rental_uris":{"android":"levelo://app?vid=4a0973b0-92a0-41e8-9b0d-a99e944bafe0","ios":"levelo://app?vid=4a0973b0-92a0-41e8-9b0d-a99e944bafe0"},"vehicle_type_id":"4","last_reported":1744556950,"current_range_meters":7200,"station_id":"","pricing_plan_id":"cebpf4jnsgd1na2vs0mg"},{"bike_id":"e223f2cc-3c77-417b-a4be-ee314715e0d4","system_id":"levelo_inurba_marseille","lat":43.30466,"lon":5.37893,"is_reserved":false,"is_disabled":false,"rental_uris":{"android":"levelo://app?vid=e223f2cc-3c77-417b-a4be-ee314715e0d4","ios":"levelo://app?vid=e223f2cc-3c77-417b-a4be-ee314715e0d4"},"vehicle_type_id":"4","last_reported":1744556950,"current_range_meters":7200,"station_id":"ce4bgup2rcd13ifvqcn0","pricing_plan_id":"cebpf4jnsgd1na2vs0mg"},{"bike_id":"5b77a833-8185-45c2-9fe3-07eb40df54ca","system_id":"levelo_inurba_marseille","lat":43.33995,"lon":5.38057,"is_reserved":false,"is_disabled":false,"rental_uris":{"android":"levelo://app?vid=5b77a833-8185-45c2-9fe3-07eb40df54ca","ios":"levelo://app?vid=5b77a833-8185-45c2-9fe3-07eb40df54ca"},"vehicle_type_id":"4","last_reported":1744556950,"current_range_meters":7200,"station_id":"","pricing_plan_id":"cebpf4jnsgd1na2vs0mg"},{"bike_id":"55a3f829-aadf-4109-9c51-40c561fe7a94","system_id":"levelo_inurba_marseille","lat":43.2621,"lon":5.37936,"is_reserved":false,"is_disabled":false,"rental_uris":{"android":"levelo://app?vid=55a3f829-aadf-4109-9c51-40c561fe7a94","ios":"levelo://app?vid=55a3f829-aadf-4109-9c51-40c561fe7a94"},"vehicle_type_id":"4","last_reported":1744556950,"current_range_meters":8000,"station_id":"ce4bhjp2rcd13ifvqg90","pricing_plan_id":"cebpf4jnsgd1na2vs0mg"},{"bike_id":"f7d1eee0-1715-419d-beac-1b98ec9e62ed","system_id":"levelo_inurba_marseille","lat":43.3097,"lon":5.39058,"is_reserved":false,"is_disabled":true,"rental_uris":{"android":"levelo://app?vid=f7d1eee0-1715-419d-beac-1b98ec9e62ed","ios":"levelo://app?vid=f7d1eee0-1715-419d-beac-1b98ec9e62ed"},"vehicle_type_id":"4","last_reported":1744556950,"current_range_meters":8000,"station_id":"ce4bgup2rcd13ifvqco0","pricing_plan_id":"cebpf4jnsgd1na2vs0mg"},{"bike_id":"52076ca0-557d-4f5f-9665-2d64a6d4d3d9","system_id":"levelo_inurba_marseille","lat":43.29271,"lon":5.37623,"is_reserved":false,"is_disabled":false,"rental_uris":{"android":"levelo://app?vid=52076ca0-557d-4f5f-9665-2d64a6d4d3d9","ios":"levelo://app?vid=52076ca0-557d-4f5f-9665-2d64a6d4d3d9"},"vehicle_type_id":"4","last_reported":1744556950,"current_range_meters":8000,"station_id":"ce4bgi12rcd13ifvqb80","pricing_plan_id":"cebpf4jnsgd1na2vs0mg"},{"bike_id":"0e7bf4ae-5aed-4055-a1f8-96debbb9847e","system_id":"levelo_inurba_marseille","lat":43.241699,"lon":5.364031,"is_reserved":false,"is_disabled":false,"rental_uris":{"android":"levelo://app?vid=0e7bf4ae-5aed-4055-a1f8-96debbb9847e","ios":"levelo://app?vid=0e7bf4ae-5aed-4055-a1f8-96debbb9847e"},"vehicle_type_id":"4","last_reported":1744556950,"current_range_meters":8000,"station_id":"cpo36qri1sfpv3e86is0","pricing_plan_id":"cebpf4jnsgd1na2vs0mg"},{"bike_id":"8609ec5b-db31-4682-89f6-95794d251c5e","system_id":"levelo_inurba_marseille","lat":43.23155,"lon":5.43701,"is_reserved":false,"is_disabled":false,"rental_uris":{"android":"levelo://app?vid=8609ec5b-db31-4682-89f6-95794d251c5e","ios":"levelo://app?vid=8609ec5b-db31-4682-89f6-95794d251c5e"},"vehicle_type_id":"4","last_reported":1744556950,"current_range_meters":8000,"station_id":"ce4bhmp2rcd13ifvqgog","pricing_plan_id":"cebpf4jnsgd1na2vs0mg"},{"bike_id":"d66109f0-0468-4c1d-94c3-e100435b1735","system_id":"levelo_inurba_marseille","lat":43.31272,"lon":5.36866,"is_reserved":false,"is_disabled":false,"rental_uris":{"android":"levelo://app?vid=d66109f0-0468-4c1d-94c3-e100435b1735","ios":"levelo://app?vid=d66109f0-0468-4c1d-94c3-e100435b1735"},"vehicle_type_id":"4","last_reported":1744556950,"current_range_meters":8400,"station_id":"","pricing_plan_id":"cebpf4jnsgd1na2vs0mg"},{"bike_id":"b078f152-7e68-4338-972f-bfd4064ec8f5","system_id":"levelo_inurba_marseille","lat":43.25505,"lon":5.37648,"is_reserved":false,"is_disabled":false,"rental_uris":{"android":"levelo://app?vid=b078f152-7e68-4338-972f-bfd4064ec8f5","ios":"levelo://app?vid=b078f152-7e68-4338-972f-bfd4064ec8f5"},"vehicle_type_id":"4","last_reported":1744556950,"current_range_meters":8400,"station_id":"ce4bhh12rcd13ifvqff0","pricing_plan_id":"cebpf4jnsgd1na2vs0mg"},{"bike_id":"493cde9e-7859-4c26-a2e6-f744ee5d8553","system_id":"levelo_inurba_marseille","lat":43.31806,"lon":5.36798,"is_reserved":false,"is_disabled":false,"rental_uris":{"android":"levelo://app?vid=493cde9e-7859-4c26-a2e6-f744ee5d8553","ios":"levelo://app?vid=493cde9e-7859-4c26-a2e6-f744ee5d8553"},"vehicle_type_id":"4","last_reported":1744556950,"current_range_meters":8400,"station_id":"","pricing_plan_id":"cebpf4jnsgd1na2vs0mg"},{"bike_id":"97c5290c-6dcd-4f81-953a-f5953018fa5b","system_id":"levelo_inurba_marseille","lat":43.31086,"lon":5.37535,"is_reserved":false,"is_disabled":false,"rental_uris":{"android":"levelo://app?vid=97c5290c-6dcd-4f81-953a-f5953018fa5b","ios":"levelo://app?vid=97c5290c-6dcd-4f81-953a-f5953018fa5b"},"vehicle_type_id":"4","last_reported":1744556950,"current_range_meters":8400,"station_id":"","pricing_plan_id":"cebpf4jnsgd1na2vs0mg"},{"bike_id":"58eb859e-e212-4e30-a06a-b8930239cc96","system_id":"levelo_inurba_marseille","lat":43.30379,"lon":5.42485,"is_reserved":false,"is_disabled":false,"rental_uris":{"android":"levelo://app?vid=58eb859e-e212-4e30-a06a-b8930239cc96","ios":"levelo://app?vid=58eb859e-e212-4e30-a06a-b8930239cc96"},"vehicle_type_id":"4","last_reported":1744556950,"current_range_meters":8800,"station_id":"ce4bhoh2rcd13ifvqh6g","pricing_plan_id":"cebpf4jnsgd1na2vs0mg"},{"bike_id":"2f5bc015-0a98-4a0d-a50f-f7181e1d6abe","system_id":"levelo_inurba_marseille","lat":43.23436,"lon":5.41256,"is_reserved":false,"is_disabled":false,"rental_uris":{"android":"levelo://app?vid=2f5bc015-0a98-4a0d-a50f-f7181e1d6abe","ios":"levelo://app?vid=2f5bc015-0a98-4a0d-a50f-f7181e1d6abe"},"vehicle_type_id":"4","last_reported":1744556950,"current_range_meters":8800,"station_id":"","pricing_plan_id":"cebpf4jnsgd1na2vs0mg"},{"bike_id":"4f38e127-be9f-468e-8871-e9cd4f365dca","system_id":"levelo_inurba_marseille","lat":43.24676,"lon":5.41172,"is_reserved":false,"is_disabled":false,"rental_uris":{"android":"levelo://app?vid=4f38e127-be9f-468e-8871-e9cd4f365dca","ios":"levelo://app?vid=4f38e127-be9f-468e-8871-e9cd4f365dca"},"vehicle_type_id":"4","last_reported":1744556950,"current_range_meters":8800,"station_id":"","pricing_plan_id":"cebpf4jnsgd1na2vs0mg"},{"bike_id":"b7e965ff-4854-44fc-8e2a-103893462049","system_id":"levelo_inurba_marseille","lat":43.337444,"lon":5.374475,"is_reserved":false,"is_disabled":true,"rental_uris":{"android":"levelo://app?vid=b7e965ff-4854-44fc-8e2a-103893462049","ios":"levelo://app?vid=b7e965ff-4854-44fc-8e2a-103893462049"},"vehicle_type_id":"4","last_reported":1744556950,"current_range_meters":8800,"station_id":"","pricing_plan_id":"cebpf4jnsgd1na2vs0mg"},{"bike_id":"64ca3ed6-b8d4-468e-bca5-ce01e39f59b5","system_id":"levelo_inurba_marseille","lat":43.2793,"lon":5.39604,"is_reserved":false,"is_disabled":false,"rental_uris":{"android":"levelo://app?vid=64ca3ed6-b8d4-468e-bca5-ce01e39f59b5","ios":"levelo://app?vid=64ca3ed6-b8d4-468e-bca5-ce01e39f59b5"},"vehicle_type_id":"4","last_reported":1744556950,"current_range_meters":8800,"station_id":"ce4bhf92rcd13ifvqf40","pricing_plan_id":"cebpf4jnsgd1na2vs0mg"},{"bike_id":"30cc8b33-f5d2-402b-bc22-73b6e88b3714","system_id":"levelo_inurba_marseille","lat":43.24663,"lon":5.38158,"is_reserved":false,"is_disabled":false,"rental_uris":{"android":"levelo://app?vid=30cc8b33-f5d2-402b-bc22-73b6e88b3714","ios":"levelo://app?vid=30cc8b33-f5d2-402b-bc22-73b6e88b3714"},"vehicle_type_id":"4","last_reported":1744556950,"current_range_meters":8800,"station_id":"ce4bhih2rcd13ifvqfr0","pricing_plan_id":"cebpf4jnsgd1na2vs0mg"},{"bike_id":"adc8eb0e-4b05-4885-b85c-64143fe439d2","system_id":"levelo_inurba_marseille","lat":43.29438,"lon":5.39748,"is_reserved":false,"is_disabled":false,"rental_uris":{"android":"levelo://app?vid=adc8eb0e-4b05-4885-b85c-64143fe439d2","ios":"levelo://app?vid=adc8eb0e-4b05-4885-b85c-64143fe439d2"},"vehicle_type_id":"4","last_reported":1744556950,"current_range_meters":8800,"station_id":"ce4bh3h2rcd13ifvqdo0","pricing_plan_id":"cebpf4jnsgd1na2vs0mg"},{"bike_id":"76450c2c-888f-4d08-a5c0-d825237615aa","system_id":"levelo_inurba_marseille","lat":43.27076,"lon":5.42273,"is_reserved":false,"is_disabled":false,"rental_uris":{"android":"levelo://app?vid=76450c2c-888f-4d08-a5c0-d825237615aa","ios":"levelo://app?vid=76450c2c-888f-4d08-a5c0-d825237615aa"},"vehicle_type_id":"4","last_reported":1744556950,"current_range_meters":9200,"station_id":"ce4bhk92rcd13ifvqgb0","pricing_plan_id":"cebpf4jnsgd1na2vs0mg"},{"bike_id":"f7843f46-58aa-4cf6-a1d0-1b94b16f71c2","system_id":"levelo_inurba_marseille","lat":43.29852,"lon":5.39675,"is_reserved":false,"is_disabled":false,"rental_uris":{"android":"levelo://app?vid=f7843f46-58aa-4cf6-a1d0-1b94b16f71c2","ios":"levelo://app?vid=f7843f46-58aa-4cf6-a1d0-1b94b16f71c2"},"vehicle_type_id":"4","last_reported":1744556950,"current_range_meters":9200,"station_id":"ce4bh0h2rcd13ifvqd50","pricing_plan_id":"cebpf4jnsgd1na2vs0mg"},{"bike_id":"49ee7a2d-b87d-42ef-bdb3-cf1b5b3fae9b","system_id":"levelo_inurba_marseille","lat":43.24179,"lon":5.36409,"is_reserved":false,"is_disabled":false,"rental_uris":{"android":"levelo://app?vid=49ee7a2d-b87d-42ef-bdb3-cf1b5b3fae9b","ios":"levelo://app?vid=49ee7a2d-b87d-42ef-bdb3-cf1b5b3fae9b"},"vehicle_type_id":"4","last_reported":1744556950,"current_range_meters":9200,"station_id":"cpo36qri1sfpv3e86is0","pricing_plan_id":"cebpf4jnsgd1na2vs0mg"},{"bike_id":"0a72316a-658e-4de0-b445-a4adbd7869dc","system_id":"levelo_inurba_marseille","lat":43.265639,"lon":5.389937,"is_reserved":false,"is_disabled":false,"rental_uris":{"android":"levelo://app?vid=0a72316a-658e-4de0-b445-a4adbd7869dc","ios":"levelo://app?vid=0a72316a-658e-4de0-b445-a4adbd7869dc"},"vehicle_type_id":"4","last_reported":1744556950,"current_range_meters":9200,"station_id":"ce4bhe12rcd13ifvqf30","pricing_plan_id":"cebpf4jnsgd1na2vs0mg"},{"bike_id":"6e2ac28e-dfb7-46b8-8016-b7ae92b2a4f0","system_id":"levelo_inurba_marseille","lat":43.27996,"lon":5.40011,"is_reserved":false,"is_disabled":false,"rental_uris":{"android":"levelo://app?vid=6e2ac28e-dfb7-46b8-8016-b7ae92b2a4f0","ios":"levelo://app?vid=6e2ac28e-dfb7-46b8-8016-b7ae92b2a4f0"},"vehicle_type_id":"4","last_reported":1744556950,"current_range_meters":9200,"station_id":"ce4bho92rcd13ifvqh4g","pricing_plan_id":"cebpf4jnsgd1na2vs0mg"},{"bike_id":"eef662bd-49fa-4185-a5f5-5664aa402854","system_id":"levelo_inurba_marseille","lat":43.2293,"lon":5.35386,"is_reserved":false,"is_disabled":false,"rental_uris":{"android":"levelo://app?vid=eef662bd-49fa-4185-a5f5-5664aa402854","ios":"levelo://app?vid=eef662bd-49fa-4185-a5f5-5664aa402854"},"vehicle_type_id":"4","last_reported":1744556950,"current_range_meters":9200,"station_id":"cpo3532slgdg3j2ikp40","pricing_plan_id":"cebpf4jnsgd1na2vs0mg"},{"bike_id":"998bf81d-ad9f-4ed4-abc9-e0d2ed6ed276","system_id":"levelo_inurba_marseille","lat":43.23187,"lon":5.35566,"is_reserved":false,"is_disabled":true,"rental_uris":{"android":"levelo://app?vid=998bf81d-ad9f-4ed4-abc9-e0d2ed6ed276","ios":"levelo://app?vid=998bf81d-ad9f-4ed4-abc9-e0d2ed6ed276"},"vehicle_type_id":"4","last_reported":1744556950,"current_range_meters":9200,"station_id":"ce4bhu92rcd13ifvqi70","pricing_plan_id":"cebpf4jnsgd1na2vs0mg"},{"bike_id":"c14a3d0e-03f7-430a-80a8-18644645ea89","system_id":"levelo_inurba_marseille","lat":43.3235,"lon":5.40637,"is_reserved":false,"is_disabled":false,"rental_uris":{"android":"levelo://app?vid=c14a3d0e-03f7-430a-80a8-18644645ea89","ios":"levelo://app?vid=c14a3d0e-03f7-430a-80a8-18644645ea89"},"vehicle_type_id":"4","last_reported":1744556950,"current_range_meters":9200,"station_id":"ce4bhq92rcd13ifvqhjg","pricing_plan_id":"cebpf4jnsgd1na2vs0mg"},{"bike_id":"e34b9b18-c54a-4f25-88af-6f8e0d08c8e2","system_id":"levelo_inurba_marseille","lat":43.2509,"lon":5.39521,"is_reserved":false,"is_disabled":false,"rental_uris":{"android":"levelo://app?vid=e34b9b18-c54a-4f25-88af-6f8e0d08c8e2","ios":"levelo://app?vid=e34b9b18-c54a-4f25-88af-6f8e0d08c8e2"},"vehicle_type_id":"4","last_reported":1744556950,"current_range_meters":9200,"station_id":"ce4bhm12rcd13ifvqgkg","pricing_plan_id":"cebpf4jnsgd1na2vs0mg"},{"bike_id":"4cfa513f-0b66-4d2d-9de7-085fdc68cb44","system_id":"levelo_inurba_marseille","lat":43.283647,"lon":5.386415,"is_reserved":false,"is_disabled":false,"rental_uris":{"android":"levelo://app?vid=4cfa513f-0b66-4d2d-9de7-085fdc68cb44","ios":"levelo://app?vid=4cfa513f-0b66-4d2d-9de7-085fdc68cb44"},"vehicle_type_id":"4","last_reported":1744556950,"current_range_meters":9600,"station_id":"ce4bh492rcd13ifvqdvg","pricing_plan_id":"cebpf4jnsgd1na2vs0mg"},{"bike_id":"72c6aab6-3a44-430e-a84d-843d2a93e616","system_id":"levelo_inurba_marseille","lat":43.21199,"lon":5.35094,"is_reserved":false,"is_disabled":true,"rental_uris":{"android":"levelo://app?vid=72c6aab6-3a44-430e-a84d-843d2a93e616","ios":"levelo://app?vid=72c6aab6-3a44-430e-a84d-843d2a93e616"},"vehicle_type_id":"4","last_reported":1744556950,"current_range_meters":9600,"station_id":"st_cvj6sg6p6f1abm77japg","pricing_plan_id":"cebpf4jnsgd1na2vs0mg"},{"bike_id":"4ac39bfc-aa90-4705-813f-7fb8b8624ba7","system_id":"levelo_inurba_marseille","lat":43.264404,"lon":5.373439,"is_reserved":false,"is_disabled":false,"rental_uris":{"android":"levelo://app?vid=4ac39bfc-aa90-4705-813f-7fb8b8624ba7","ios":"levelo://app?vid=4ac39bfc-aa90-4705-813f-7fb8b8624ba7"},"vehicle_type_id":"4","last_reported":1744556950,"current_range_meters":9600,"station_id":"ce4bhgh2rcd13ifvqfa0","pricing_plan_id":"cebpf4jnsgd1na2vs0mg"},{"bike_id":"fecb5e2e-ba6c-4f29-9893-46dd69a583b2","system_id":"levelo_inurba_marseille","lat":43.30107,"lon":5.39097,"is_reserved":false,"is_disabled":false,"rental_uris":{"android":"levelo://app?vid=fecb5e2e-ba6c-4f29-9893-46dd69a583b2","ios":"levelo://app?vid=fecb5e2e-ba6c-4f29-9893-46dd69a583b2"},"vehicle_type_id":"4","last_reported":1744556950,"current_range_meters":9600,"station_id":"ce4bh192rcd13ifvqdb0","pricing_plan_id":"cebpf4jnsgd1na2vs0mg"},{"bike_id":"0c30a5d7-82b9-4bb2-9032-224893c69d2f","system_id":"levelo_inurba_marseille","lat":43.26493,"lon":5.39555,"is_reserved":false,"is_disabled":true,"rental_uris":{"android":"levelo://app?vid=0c30a5d7-82b9-4bb2-9032-224893c69d2f","ios":"levelo://app?vid=0c30a5d7-82b9-4bb2-9032-224893c69d2f"},"vehicle_type_id":"4","last_reported":1744556950,"current_range_meters":9600,"station_id":"ce4bhi12rcd13ifvqfq0","pricing_plan_id":"cebpf4jnsgd1na2vs0mg"},{"bike_id":"91fffdcd-2fa7-4f34-b242-95e7e93ac05b","system_id":"levelo_inurba_marseille","lat":43.26307,"lon":5.397524,"is_reserved":false,"is_disabled":false,"rental_uris":{"android":"levelo://app?vid=91fffdcd-2fa7-4f34-b242-95e7e93ac05b","ios":"levelo://app?vid=91fffdcd-2fa7-4f34-b242-95e7e93ac05b"},"vehicle_type_id":"4","last_reported":1744556950,"current_range_meters":9600,"station_id":"","pricing_plan_id":"cebpf4jnsgd1na2vs0mg"},{"bike_id":"f7cd819f-b752-47cc-848d-ff43c669ccb8","system_id":"levelo_inurba_marseille","lat":43.30984,"lon":5.41741,"is_reserved":false,"is_disabled":false,"rental_uris":{"android":"levelo://app?vid=f7cd819f-b752-47cc-848d-ff43c669ccb8","ios":"levelo://app?vid=f7cd819f-b752-47cc-848d-ff43c669ccb8"},"vehicle_type_id":"4","last_reported":1744556950,"current_range_meters":10000,"station_id":"","pricing_plan_id":"cebpf4jnsgd1na2vs0mg"},{"bike_id":"1d70af5a-0636-412c-9046-91946d9f9ac5","system_id":"levelo_inurba_marseille","lat":43.30219,"lon":5.39467,"is_reserved":false,"is_disabled":false,"rental_uris":{"android":"levelo://app?vid=1d70af5a-0636-412c-9046-91946d9f9ac5","ios":"levelo://app?vid=1d70af5a-0636-412c-9046-91946d9f9ac5"},"vehicle_type_id":"4","last_reported":1744556950,"current_range_meters":10000,"station_id":"ce4bh0p2rcd13ifvqd70","pricing_plan_id":"cebpf4jnsgd1na2vs0mg"},{"bike_id":"05af708c-2a48-4331-9d1b-91dc06dee35d","system_id":"levelo_inurba_marseille","lat":43.30558,"lon":5.36529,"is_reserved":false,"is_disabled":false,"rental_uris":{"android":"levelo://app?vid=05af708c-2a48-4331-9d1b-91dc06dee35d","ios":"levelo://app?vid=05af708c-2a48-4331-9d1b-91dc06dee35d"},"vehicle_type_id":"4","last_reported":1744556950,"current_range_meters":10000,"station_id":"ce4bgs12rcd13ifvqcag","pricing_plan_id":"cebpf4jnsgd1na2vs0mg"},{"bike_id":"82d38bd3-c046-4f55-aec8-4eb686f05e29","system_id":"levelo_inurba_marseille","lat":43.22926,"lon":5.35372,"is_reserved":false,"is_disabled":true,"rental_uris":{"android":"levelo://app?vid=82d38bd3-c046-4f55-aec8-4eb686f05e29","ios":"levelo://app?vid=82d38bd3-c046-4f55-aec8-4eb686f05e29"},"vehicle_type_id":"4","last_reported":1744556950,"current_range_meters":10000,"station_id":"cpo3532slgdg3j2ikp40","pricing_plan_id":"cebpf4jnsgd1na2vs0mg"},{"bike_id":"ff0406e8-06b7-4533-bb08-e10e8b78e259","system_id":"levelo_inurba_marseille","lat":43.24807,"lon":5.37456,"is_reserved":false,"is_disabled":false,"rental_uris":{"android":"levelo://app?vid=ff0406e8-06b7-4533-bb08-e10e8b78e259","ios":"levelo://app?vid=ff0406e8-06b7-4533-bb08-e10e8b78e259"},"vehicle_type_id":"4","last_reported":1744556950,"current_range_meters":10000,"station_id":"ce4bhgh2rcd13ifvqfb0","pricing_plan_id":"cebpf4jnsgd1na2vs0mg"},{"bike_id":"4d49d7bf-c387-4802-8134-39419f66ab07","system_id":"levelo_inurba_marseille","lat":43.2511,"lon":5.39502,"is_reserved":false,"is_disabled":false,"rental_uris":{"android":"levelo://app?vid=4d49d7bf-c387-4802-8134-39419f66ab07","ios":"levelo://app?vid=4d49d7bf-c387-4802-8134-39419f66ab07"},"vehicle_type_id":"4","last_reported":1744556950,"current_range_meters":10000,"station_id":"ce4bhm12rcd13ifvqgkg","pricing_plan_id":"cebpf4jnsgd1na2vs0mg"},{"bike_id":"efd328ca-f8bf-4550-bd94-c2fd75978f3c","system_id":"levelo_inurba_marseille","lat":43.33056,"lon":5.38078,"is_reserved":false,"is_disabled":false,"rental_uris":{"android":"levelo://app?vid=efd328ca-f8bf-4550-bd94-c2fd75978f3c","ios":"levelo://app?vid=efd328ca-f8bf-4550-bd94-c2fd75978f3c"},"vehicle_type_id":"4","last_reported":1744556950,"current_range_meters":10000,"station_id":"","pricing_plan_id":"cebpf4jnsgd1na2vs0mg"},{"bike_id":"12aec038-db5e-4d5d-a5cf-e01dc2e28ea3","system_id":"levelo_inurba_marseille","lat":43.3011,"lon":5.40506,"is_reserved":false,"is_disabled":true,"rental_uris":{"android":"levelo://app?vid=12aec038-db5e-4d5d-a5cf-e01dc2e28ea3","ios":"levelo://app?vid=12aec038-db5e-4d5d-a5cf-e01dc2e28ea3"},"vehicle_type_id":"4","last_reported":1744556950,"current_range_meters":10800,"station_id":"","pricing_plan_id":"cebpf4jnsgd1na2vs0mg"},{"bike_id":"f31e628a-163e-43f4-9860-948d1fff3e67","system_id":"levelo_inurba_marseille","lat":43.2608,"lon":5.39354,"is_reserved":false,"is_disabled":false,"rental_uris":{"android":"levelo://app?vid=f31e628a-163e-43f4-9860-948d1fff3e67","ios":"levelo://app?vid=f31e628a-163e-43f4-9860-948d1fff3e67"},"vehicle_type_id":"4","last_reported":1744556950,"current_range_meters":10800,"station_id":"ce4bhh92rcd13ifvqfj0","pricing_plan_id":"cebpf4jnsgd1na2vs0mg"},{"bike_id":"1578cdda-fa32-4486-ac62-617f457b0927","system_id":"levelo_inurba_marseille","lat":43.28997,"lon":5.35601,"is_reserved":false,"is_disabled":true,"rental_uris":{"android":"levelo://app?vid=1578cdda-fa32-4486-ac62-617f457b0927","ios":"levelo://app?vid=1578cdda-fa32-4486-ac62-617f457b0927"},"vehicle_type_id":"4","last_reported":1744556950,"current_range_meters":10800,"station_id":"ce4bhb92rcd13ifvqen0","pricing_plan_id":"cebpf4jnsgd1na2vs0mg"},{"bike_id":"5bd83869-317c-4f7d-93ed-182a084c5a24","system_id":"levelo_inurba_marseille","lat":43.25693,"lon":5.4111,"is_reserved":false,"is_disabled":false,"rental_uris":{"android":"levelo://app?vid=5bd83869-317c-4f7d-93ed-182a084c5a24","ios":"levelo://app?vid=5bd83869-317c-4f7d-93ed-182a084c5a24"},"vehicle_type_id":"4","last_reported":1744556950,"current_range_meters":10800,"station_id":"ce4bhkp2rcd13ifvqgd0","pricing_plan_id":"cebpf4jnsgd1na2vs0mg"},{"bike_id":"982bb1bc-457f-43d7-ae21-85035c856353","system_id":"levelo_inurba_marseille","lat":43.22501,"lon":5.34779,"is_reserved":false,"is_disabled":true,"rental_uris":{"android":"levelo://app?vid=982bb1bc-457f-43d7-ae21-85035c856353","ios":"levelo://app?vid=982bb1bc-457f-43d7-ae21-85035c856353"},"vehicle_type_id":"4","last_reported":1744556950,"current_range_meters":10800,"station_id":"st_cvj5dfep6f1abm77gieg","pricing_plan_id":"cebpf4jnsgd1na2vs0mg"},{"bike_id":"020e9999-d552-48d0-ae5f-b725af0dbea2","system_id":"levelo_inurba_marseille","lat":43.29908,"lon":5.43752,"is_reserved":false,"is_disabled":false,"rental_uris":{"android":"levelo://app?vid=020e9999-d552-48d0-ae5f-b725af0dbea2","ios":"levelo://app?vid=020e9999-d552-48d0-ae5f-b725af0dbea2"},"vehicle_type_id":"4","last_reported":1744556950,"current_range_meters":10800,"station_id":"","pricing_plan_id":"cebpf4jnsgd1na2vs0mg"},{"bike_id":"ae9514ed-581b-4e4c-9b9e-3a9a8b60dd7a","system_id":"levelo_inurba_marseille","lat":43.31277,"lon":5.40167,"is_reserved":false,"is_disabled":false,"rental_uris":{"android":"levelo://app?vid=ae9514ed-581b-4e4c-9b9e-3a9a8b60dd7a","ios":"levelo://app?vid=ae9514ed-581b-4e4c-9b9e-3a9a8b60dd7a"},"vehicle_type_id":"4","last_reported":1744556950,"current_range_meters":10800,"station_id":"ce4bh092rcd13ifvqd30","pricing_plan_id":"cebpf4jnsgd1na2vs0mg"},{"bike_id":"a3bf51d9-08b7-458c-9b6d-ef5680cc95d6","system_id":"levelo_inurba_marseille","lat":43.21752,"lon":5.34613,"is_reserved":false,"is_disabled":true,"rental_uris":{"android":"levelo://app?vid=a3bf51d9-08b7-458c-9b6d-ef5680cc95d6","ios":"levelo://app?vid=a3bf51d9-08b7-458c-9b6d-ef5680cc95d6"},"vehicle_type_id":"4","last_reported":1744556950,"current_range_meters":10800,"station_id":"st_cvj6r9ubvosntc0bgbag","pricing_plan_id":"cebpf4jnsgd1na2vs0mg"},{"bike_id":"73bbc97d-2b39-4276-bc22-fd7aa78f429c","system_id":"levelo_inurba_marseille","lat":43.29911,"lon":5.437,"is_reserved":false,"is_disabled":false,"rental_uris":{"android":"levelo://app?vid=73bbc97d-2b39-4276-bc22-fd7aa78f429c","ios":"levelo://app?vid=73bbc97d-2b39-4276-bc22-fd7aa78f429c"},"vehicle_type_id":"4","last_reported":1744556950,"current_range_meters":10800,"station_id":"","pricing_plan_id":"cebpf4jnsgd1na2vs0mg"},{"bike_id":"c70dc66c-d4a1-4e50-81d7-22e212eff3e3","system_id":"levelo_inurba_marseille","lat":43.24715,"lon":5.3818,"is_reserved":false,"is_disabled":false,"rental_uris":{"android":"levelo://app?vid=c70dc66c-d4a1-4e50-81d7-22e212eff3e3","ios":"levelo://app?vid=c70dc66c-d4a1-4e50-81d7-22e212eff3e3"},"vehicle_type_id":"4","last_reported":1744556950,"current_range_meters":11200,"station_id":"ce4bhih2rcd13ifvqfr0","pricing_plan_id":"cebpf4jnsgd1na2vs0mg"},{"bike_id":"b55dd5e7-54b2-4035-b945-7b626dd7afc7","system_id":"levelo_inurba_marseille","lat":43.27628,"lon":5.40837,"is_reserved":false,"is_disabled":false,"rental_uris":{"android":"levelo://app?vid=b55dd5e7-54b2-4035-b945-7b626dd7afc7","ios":"levelo://app?vid=b55dd5e7-54b2-4035-b945-7b626dd7afc7"},"vehicle_type_id":"4","last_reported":1744556950,"current_range_meters":11200,"station_id":"","pricing_plan_id":"cebpf4jnsgd1na2vs0mg"},{"bike_id":"fe2167ad-d19d-4458-866d-2e91d9e32a9b","system_id":"levelo_inurba_marseille","lat":43.29907,"lon":5.38145,"is_reserved":false,"is_disabled":false,"rental_uris":{"android":"levelo://app?vid=fe2167ad-d19d-4458-866d-2e91d9e32a9b","ios":"levelo://app?vid=fe2167ad-d19d-4458-866d-2e91d9e32a9b"},"vehicle_type_id":"4","last_reported":1744556950,"current_range_meters":11200,"station_id":"ce4bgj12rcd13ifvqbc0","pricing_plan_id":"cebpf4jnsgd1na2vs0mg"},{"bike_id":"71d758d9-e1f9-440e-be18-d9a62c8ebcd3","system_id":"levelo_inurba_marseille","lat":43.2792,"lon":5.39587,"is_reserved":false,"is_disabled":false,"rental_uris":{"android":"levelo://app?vid=71d758d9-e1f9-440e-be18-d9a62c8ebcd3","ios":"levelo://app?vid=71d758d9-e1f9-440e-be18-d9a62c8ebcd3"},"vehicle_type_id":"4","last_reported":1744556950,"current_range_meters":11200,"station_id":"ce4bhf92rcd13ifvqf40","pricing_plan_id":"cebpf4jnsgd1na2vs0mg"},{"bike_id":"46bb0eec-eab8-4b06-9f6f-ce12867ad2d3","system_id":"levelo_inurba_marseille","lat":43.28357,"lon":5.38628,"is_reserved":false,"is_disabled":false,"rental_uris":{"android":"levelo://app?vid=46bb0eec-eab8-4b06-9f6f-ce12867ad2d3","ios":"levelo://app?vid=46bb0eec-eab8-4b06-9f6f-ce12867ad2d3"},"vehicle_type_id":"4","last_reported":1744556950,"current_range_meters":11200,"station_id":"ce4bh492rcd13ifvqdvg","pricing_plan_id":"cebpf4jnsgd1na2vs0mg"},{"bike_id":"4bbe6e48-9bfa-4dec-aab0-5597477f7da1","system_id":"levelo_inurba_marseille","lat":43.32412,"lon":5.39141,"is_reserved":false,"is_disabled":false,"rental_uris":{"android":"levelo://app?vid=4bbe6e48-9bfa-4dec-aab0-5597477f7da1","ios":"levelo://app?vid=4bbe6e48-9bfa-4dec-aab0-5597477f7da1"},"vehicle_type_id":"4","last_reported":1744556950,"current_range_meters":11200,"station_id":"","pricing_plan_id":"cebpf4jnsgd1na2vs0mg"},{"bike_id":"e457802a-9b9e-4fd1-a9a4-fe7d9111a616","system_id":"levelo_inurba_marseille","lat":43.28023,"lon":5.36938,"is_reserved":false,"is_disabled":false,"rental_uris":{"android":"levelo://app?vid=e457802a-9b9e-4fd1-a9a4-fe7d9111a616","ios":"levelo://app?vid=e457802a-9b9e-4fd1-a9a4-fe7d9111a616"},"vehicle_type_id":"4","last_reported":1744556950,"current_range_meters":11600,"station_id":"ce4bha12rcd13ifvqef0","pricing_plan_id":"cebpf4jnsgd1na2vs0mg"},{"bike_id":"c5de9f04-a68c-4314-9995-789e3d717983","system_id":"levelo_inurba_marseille","lat":43.24394,"lon":5.3706,"is_reserved":false,"is_disabled":true,"rental_uris":{"android":"levelo://app?vid=c5de9f04-a68c-4314-9995-789e3d717983","ios":"levelo://app?vid=c5de9f04-a68c-4314-9995-789e3d717983"},"vehicle_type_id":"4","last_reported":1744556950,"current_range_meters":11600,"station_id":"ce4bhhh2rcd13ifvqfk0","pricing_plan_id":"cebpf4jnsgd1na2vs0mg"},{"bike_id":"d8b9884b-4022-4710-9f87-50e0dbfd421d","system_id":"levelo_inurba_marseille","lat":43.24168,"lon":5.36392,"is_reserved":false,"is_disabled":false,"rental_uris":{"android":"levelo://app?vid=d8b9884b-4022-4710-9f87-50e0dbfd421d","ios":"levelo://app?vid=d8b9884b-4022-4710-9f87-50e0dbfd421d"},"vehicle_type_id":"4","last_reported":1744556950,"current_range_meters":11600,"station_id":"cpo36qri1sfpv3e86is0","pricing_plan_id":"cebpf4jnsgd1na2vs0mg"},{"bike_id":"d49ed5f3-63dd-41d8-a7c3-7b7860b035b1","system_id":"levelo_inurba_marseille","lat":43.24821,"lon":5.37467,"is_reserved":false,"is_disabled":true,"rental_uris":{"android":"levelo://app?vid=d49ed5f3-63dd-41d8-a7c3-7b7860b035b1","ios":"levelo://app?vid=d49ed5f3-63dd-41d8-a7c3-7b7860b035b1"},"vehicle_type_id":"4","last_reported":1744556950,"current_range_meters":11600,"station_id":"ce4bhgh2rcd13ifvqfb0","pricing_plan_id":"cebpf4jnsgd1na2vs0mg"},{"bike_id":"5591936e-ca63-41c7-89f3-9c9493c86f89","system_id":"levelo_inurba_marseille","lat":43.24174,"lon":5.36397,"is_reserved":false,"is_disabled":false,"rental_uris":{"android":"levelo://app?vid=5591936e-ca63-41c7-89f3-9c9493c86f89","ios":"levelo://app?vid=5591936e-ca63-41c7-89f3-9c9493c86f89"},"vehicle_type_id":"4","last_reported":1744556950,"current_range_meters":11600,"station_id":"cpo36qri1sfpv3e86is0","pricing_plan_id":"cebpf4jnsgd1na2vs0mg"},{"bike_id":"fb809669-15f6-4b17-8215-99a33bd0574c","system_id":"levelo_inurba_marseille","lat":43.28464,"lon":5.35876,"is_reserved":false,"is_disabled":false,"rental_uris":{"android":"levelo://app?vid=fb809669-15f6-4b17-8215-99a33bd0574c","ios":"levelo://app?vid=fb809669-15f6-4b17-8215-99a33bd0574c"},"vehicle_type_id":"4","last_reported":1744556950,"current_range_meters":11600,"station_id":"ce4bhah2rcd13ifvqei0","pricing_plan_id":"cebpf4jnsgd1na2vs0mg"},{"bike_id":"578ed75c-ac7c-4cce-a91d-84ec0beb45a3","system_id":"levelo_inurba_marseille","lat":43.32685,"lon":5.41013,"is_reserved":false,"is_disabled":false,"rental_uris":{"android":"levelo://app?vid=578ed75c-ac7c-4cce-a91d-84ec0beb45a3","ios":"levelo://app?vid=578ed75c-ac7c-4cce-a91d-84ec0beb45a3"},"vehicle_type_id":"4","last_reported":1744556950,"current_range_meters":12000,"station_id":"ce4bhpp2rcd13ifvqhgg","pricing_plan_id":"cebpf4jnsgd1na2vs0mg"},{"bike_id":"670350e7-8b16-4095-8222-1a9ab089eb5a","system_id":"levelo_inurba_marseille","lat":43.2795,"lon":5.41034,"is_reserved":false,"is_disabled":false,"rental_uris":{"android":"levelo://app?vid=670350e7-8b16-4095-8222-1a9ab089eb5a","ios":"levelo://app?vid=670350e7-8b16-4095-8222-1a9ab089eb5a"},"vehicle_type_id":"4","last_reported":1744556950,"current_range_meters":12000,"station_id":"ce4bhnp2rcd13ifvqh0g","pricing_plan_id":"cebpf4jnsgd1na2vs0mg"},{"bike_id":"d7a1af26-2e79-4cdc-a443-1ec7881b3017","system_id":"levelo_inurba_marseille","lat":43.29861,"lon":5.36296,"is_reserved":false,"is_disabled":false,"rental_uris":{"android":"levelo://app?vid=d7a1af26-2e79-4cdc-a443-1ec7881b3017","ios":"levelo://app?vid=d7a1af26-2e79-4cdc-a443-1ec7881b3017"},"vehicle_type_id":"4","last_reported":1744556950,"current_range_meters":12000,"station_id":"ce4bgpp2rcd13ifvqc3g","pricing_plan_id":"cebpf4jnsgd1na2vs0mg"},{"bike_id":"dc6aad21-ae61-4621-9ef0-c9bd2b9caa5a","system_id":"levelo_inurba_marseille","lat":43.225031,"lon":5.347893,"is_reserved":false,"is_disabled":false,"rental_uris":{"android":"levelo://app?vid=dc6aad21-ae61-4621-9ef0-c9bd2b9caa5a","ios":"levelo://app?vid=dc6aad21-ae61-4621-9ef0-c9bd2b9caa5a"},"vehicle_type_id":"4","last_reported":1744556950,"current_range_meters":12000,"station_id":"st_cvj5dfep6f1abm77gieg","pricing_plan_id":"cebpf4jnsgd1na2vs0mg"},{"bike_id":"eeecd2fe-6254-4002-abf4-dbb4c5b284dc","system_id":"levelo_inurba_marseille","lat":43.28004,"lon":5.41677,"is_reserved":false,"is_disabled":true,"rental_uris":{"android":"levelo://app?vid=eeecd2fe-6254-4002-abf4-dbb4c5b284dc","ios":"levelo://app?vid=eeecd2fe-6254-4002-abf4-dbb4c5b284dc"},"vehicle_type_id":"4","last_reported":1744556950,"current_range_meters":12400,"station_id":"ce4bho12rcd13ifvqh1g","pricing_plan_id":"cebpf4jnsgd1na2vs0mg"},{"bike_id":"5e120263-75d5-4027-bdcc-a11e2bb1686a","system_id":"levelo_inurba_marseille","lat":43.30305,"lon":5.36892,"is_reserved":false,"is_disabled":false,"rental_uris":{"android":"levelo://app?vid=5e120263-75d5-4027-bdcc-a11e2bb1686a","ios":"levelo://app?vid=5e120263-75d5-4027-bdcc-a11e2bb1686a"},"vehicle_type_id":"4","last_reported":1744556950,"current_range_meters":12400,"station_id":"ce4bgqh2rcd13ifvqc5g","pricing_plan_id":"cebpf4jnsgd1na2vs0mg"},{"bike_id":"4d874086-2615-45ee-92bb-518b7ad00a4d","system_id":"levelo_inurba_marseille","lat":43.30957,"lon":5.3903,"is_reserved":false,"is_disabled":true,"rental_uris":{"android":"levelo://app?vid=4d874086-2615-45ee-92bb-518b7ad00a4d","ios":"levelo://app?vid=4d874086-2615-45ee-92bb-518b7ad00a4d"},"vehicle_type_id":"4","last_reported":1744556950,"current_range_meters":12400,"station_id":"ce4bgup2rcd13ifvqco0","pricing_plan_id":"cebpf4jnsgd1na2vs0mg"},{"bike_id":"230a4c73-8417-4150-a84e-192a5762f86a","system_id":"levelo_inurba_marseille","lat":43.27438,"lon":5.39408,"is_reserved":false,"is_disabled":false,"rental_uris":{"android":"levelo://app?vid=230a4c73-8417-4150-a84e-192a5762f86a","ios":"levelo://app?vid=230a4c73-8417-4150-a84e-192a5762f86a"},"vehicle_type_id":"4","last_reported":1744556950,"current_range_meters":12400,"station_id":"ce4bhdp2rcd13ifvqf20","pricing_plan_id":"cebpf4jnsgd1na2vs0mg"},{"bike_id":"cb918d5b-8793-4d93-bf83-5042608ad86c","system_id":"levelo_inurba_marseille","lat":43.33214,"lon":5.3956,"is_reserved":false,"is_disabled":false,"rental_uris":{"android":"levelo://app?vid=cb918d5b-8793-4d93-bf83-5042608ad86c","ios":"levelo://app?vid=cb918d5b-8793-4d93-bf83-5042608ad86c"},"vehicle_type_id":"4","last_reported":1744556950,"current_range_meters":12400,"station_id":"","pricing_plan_id":"cebpf4jnsgd1na2vs0mg"},{"bike_id":"e77161a0-fed5-4b15-b3cd-ec08847c57aa","system_id":"levelo_inurba_marseille","lat":43.299469,"lon":5.384955,"is_reserved":false,"is_disabled":false,"rental_uris":{"android":"levelo://app?vid=e77161a0-fed5-4b15-b3cd-ec08847c57aa","ios":"levelo://app?vid=e77161a0-fed5-4b15-b3cd-ec08847c57aa"},"vehicle_type_id":"4","last_reported":1744556950,"current_range_meters":12400,"station_id":"ce4bgjp2rcd13ifvqbh0","pricing_plan_id":"cebpf4jnsgd1na2vs0mg"},{"bike_id":"239b457a-7da8-49b2-9197-3c47133b2b7d","system_id":"levelo_inurba_marseille","lat":43.29093,"lon":5.40017,"is_reserved":false,"is_disabled":true,"rental_uris":{"android":"levelo://app?vid=239b457a-7da8-49b2-9197-3c47133b2b7d","ios":"levelo://app?vid=239b457a-7da8-49b2-9197-3c47133b2b7d"},"vehicle_type_id":"4","last_reported":1744556950,"current_range_meters":12400,"station_id":"","pricing_plan_id":"cebpf4jnsgd1na2vs0mg"},{"bike_id":"200af73b-2937-4e81-98d0-ccd616c3a62a","system_id":"levelo_inurba_marseille","lat":43.30539,"lon":5.36526,"is_reserved":false,"is_disabled":false,"rental_uris":{"android":"levelo://app?vid=200af73b-2937-4e81-98d0-ccd616c3a62a","ios":"levelo://app?vid=200af73b-2937-4e81-98d0-ccd616c3a62a"},"vehicle_type_id":"4","last_reported":1744556950,"current_range_meters":12800,"station_id":"ce4bgs12rcd13ifvqcag","pricing_plan_id":"cebpf4jnsgd1na2vs0mg"},{"bike_id":"523286d2-2ca4-4675-8c29-ae9b85a6e4f4","system_id":"levelo_inurba_marseille","lat":43.28927,"lon":5.38391,"is_reserved":false,"is_disabled":false,"rental_uris":{"android":"levelo://app?vid=523286d2-2ca4-4675-8c29-ae9b85a6e4f4","ios":"levelo://app?vid=523286d2-2ca4-4675-8c29-ae9b85a6e4f4"},"vehicle_type_id":"4","last_reported":1744556950,"current_range_meters":12400,"station_id":"ce4bh612rcd13ifvqe6g","pricing_plan_id":"cebpf4jnsgd1na2vs0mg"},{"bike_id":"b3f3521b-7e92-446f-96b8-3e4e5bbfc11e","system_id":"levelo_inurba_marseille","lat":43.26569,"lon":5.39011,"is_reserved":false,"is_disabled":false,"rental_uris":{"android":"levelo://app?vid=b3f3521b-7e92-446f-96b8-3e4e5bbfc11e","ios":"levelo://app?vid=b3f3521b-7e92-446f-96b8-3e4e5bbfc11e"},"vehicle_type_id":"4","last_reported":1744556950,"current_range_meters":12800,"station_id":"ce4bhe12rcd13ifvqf30","pricing_plan_id":"cebpf4jnsgd1na2vs0mg"},{"bike_id":"54f95021-ece3-4c1e-a98d-33e005a5619a","system_id":"levelo_inurba_marseille","lat":43.21242,"lon":5.35108,"is_reserved":false,"is_disabled":false,"rental_uris":{"android":"levelo://app?vid=54f95021-ece3-4c1e-a98d-33e005a5619a","ios":"levelo://app?vid=54f95021-ece3-4c1e-a98d-33e005a5619a"},"vehicle_type_id":"4","last_reported":1744556950,"current_range_meters":12800,"station_id":"","pricing_plan_id":"cebpf4jnsgd1na2vs0mg"},{"bike_id":"3c690836-a3a6-46ea-bbe2-34a9888f4bfb","system_id":"levelo_inurba_marseille","lat":43.29909,"lon":5.37471,"is_reserved":false,"is_disabled":false,"rental_uris":{"android":"levelo://app?vid=3c690836-a3a6-46ea-bbe2-34a9888f4bfb","ios":"levelo://app?vid=3c690836-a3a6-46ea-bbe2-34a9888f4bfb"},"vehicle_type_id":"4","last_reported":1744556950,"current_range_meters":13600,"station_id":"ce4bgjh2rcd13ifvqbg0","pricing_plan_id":"cebpf4jnsgd1na2vs0mg"},{"bike_id":"cde91917-5f6d-4e53-b35e-263f1f20b71f","system_id":"levelo_inurba_marseille","lat":43.28465,"lon":5.35899,"is_reserved":false,"is_disabled":false,"rental_uris":{"android":"levelo://app?vid=cde91917-5f6d-4e53-b35e-263f1f20b71f","ios":"levelo://app?vid=cde91917-5f6d-4e53-b35e-263f1f20b71f"},"vehicle_type_id":"4","last_reported":1744556950,"current_range_meters":13600,"station_id":"ce4bhah2rcd13ifvqei0","pricing_plan_id":"cebpf4jnsgd1na2vs0mg"},{"bike_id":"6a003e47-a1cc-4c38-b762-6e37af426d05","system_id":"levelo_inurba_marseille","lat":43.3236,"lon":5.36761,"is_reserved":false,"is_disabled":false,"rental_uris":{"android":"levelo://app?vid=6a003e47-a1cc-4c38-b762-6e37af426d05","ios":"levelo://app?vid=6a003e47-a1cc-4c38-b762-6e37af426d05"},"vehicle_type_id":"4","last_reported":1744556950,"current_range_meters":13600,"station_id":"ce4bhsh2rcd13ifvqi2g","pricing_plan_id":"cebpf4jnsgd1na2vs0mg"},{"bike_id":"c2a31b7c-37b8-460a-a9ba-47af7e49c6b9","system_id":"levelo_inurba_marseille","lat":43.27493,"lon":5.42451,"is_reserved":false,"is_disabled":false,"rental_uris":{"android":"levelo://app?vid=c2a31b7c-37b8-460a-a9ba-47af7e49c6b9","ios":"levelo://app?vid=c2a31b7c-37b8-460a-a9ba-47af7e49c6b9"},"vehicle_type_id":"4","last_reported":1744556950,"current_range_meters":13600,"station_id":"ce4bhn92rcd13ifvqgrg","pricing_plan_id":"cebpf4jnsgd1na2vs0mg"},{"bike_id":"0dc917e6-f729-44d1-a1a6-286b4abaeb8e","system_id":"levelo_inurba_marseille","lat":43.29258,"lon":5.38434,"is_reserved":false,"is_disabled":false,"rental_uris":{"android":"levelo://app?vid=0dc917e6-f729-44d1-a1a6-286b4abaeb8e","ios":"levelo://app?vid=0dc917e6-f729-44d1-a1a6-286b4abaeb8e"},"vehicle_type_id":"4","last_reported":1744556950,"current_range_meters":14000,"station_id":"ce4bh692rcd13ifvqea0","pricing_plan_id":"cebpf4jnsgd1na2vs0mg"},{"bike_id":"7fb15d56-77aa-4d12-9908-5e4bc02b73f0","system_id":"levelo_inurba_marseille","lat":43.30555,"lon":5.36541,"is_reserved":false,"is_disabled":false,"rental_uris":{"android":"levelo://app?vid=7fb15d56-77aa-4d12-9908-5e4bc02b73f0","ios":"levelo://app?vid=7fb15d56-77aa-4d12-9908-5e4bc02b73f0"},"vehicle_type_id":"4","last_reported":1744556950,"current_range_meters":14000,"station_id":"ce4bgs12rcd13ifvqcag","pricing_plan_id":"cebpf4jnsgd1na2vs0mg"},{"bike_id":"410c776d-8fb6-43df-b403-13ebbd71b4ba","system_id":"levelo_inurba_marseille","lat":43.3108,"lon":5.38356,"is_reserved":false,"is_disabled":false,"rental_uris":{"android":"levelo://app?vid=410c776d-8fb6-43df-b403-13ebbd71b4ba","ios":"levelo://app?vid=410c776d-8fb6-43df-b403-13ebbd71b4ba"},"vehicle_type_id":"4","last_reported":1744556950,"current_range_meters":14000,"station_id":"ce4bgv92rcd13ifvqcr0","pricing_plan_id":"cebpf4jnsgd1na2vs0mg"},{"bike_id":"375eff88-61cd-4a3b-b52d-fb74de6ee638","system_id":"levelo_inurba_marseille","lat":43.30131,"lon":5.39865,"is_reserved":false,"is_disabled":false,"rental_uris":{"android":"levelo://app?vid=375eff88-61cd-4a3b-b52d-fb74de6ee638","ios":"levelo://app?vid=375eff88-61cd-4a3b-b52d-fb74de6ee638"},"vehicle_type_id":"4","last_reported":1744556950,"current_range_meters":14400,"station_id":"ce4bh0h2rcd13ifvqd40","pricing_plan_id":"cebpf4jnsgd1na2vs0mg"},{"bike_id":"435a6d96-2d7f-4276-9b86-231be0e13c7f","system_id":"levelo_inurba_marseille","lat":43.30148,"lon":5.38081,"is_reserved":false,"is_disabled":false,"rental_uris":{"android":"levelo://app?vid=435a6d96-2d7f-4276-9b86-231be0e13c7f","ios":"levelo://app?vid=435a6d96-2d7f-4276-9b86-231be0e13c7f"},"vehicle_type_id":"4","last_reported":1744556950,"current_range_meters":14400,"station_id":"ce4bgjp2rcd13ifvqbh0","pricing_plan_id":"cebpf4jnsgd1na2vs0mg"},{"bike_id":"4671866b-1b85-46bf-bb2d-6ddf168622b9","system_id":"levelo_inurba_marseille","lat":43.29544,"lon":5.38533,"is_reserved":false,"is_disabled":false,"rental_uris":{"android":"levelo://app?vid=4671866b-1b85-46bf-bb2d-6ddf168622b9","ios":"levelo://app?vid=4671866b-1b85-46bf-bb2d-6ddf168622b9"},"vehicle_type_id":"4","last_reported":1744556950,"current_range_meters":14400,"station_id":"ce4bgih2rcd13ifvqba0","pricing_plan_id":"cebpf4jnsgd1na2vs0mg"},{"bike_id":"168fce45-e056-4131-aec3-91d6ae1e3554","system_id":"levelo_inurba_marseille","lat":43.23196,"lon":5.3998,"is_reserved":false,"is_disabled":false,"rental_uris":{"android":"levelo://app?vid=168fce45-e056-4131-aec3-91d6ae1e3554","ios":"levelo://app?vid=168fce45-e056-4131-aec3-91d6ae1e3554"},"vehicle_type_id":"4","last_reported":1744556950,"current_range_meters":14000,"station_id":"ce4bhn12rcd13ifvqgqg","pricing_plan_id":"cebpf4jnsgd1na2vs0mg"},{"bike_id":"d578bf74-d112-40c4-b39c-b0fd2e62c9b7","system_id":"levelo_inurba_marseille","lat":43.28066,"lon":5.368925,"is_reserved":false,"is_disabled":false,"rental_uris":{"android":"levelo://app?vid=d578bf74-d112-40c4-b39c-b0fd2e62c9b7","ios":"levelo://app?vid=d578bf74-d112-40c4-b39c-b0fd2e62c9b7"},"vehicle_type_id":"4","last_reported":1744556950,"current_range_meters":14400,"station_id":"","pricing_plan_id":"cebpf4jnsgd1na2vs0mg"},{"bike_id":"fbcffd98-9af3-437e-a238-670cf1dcb555","system_id":"levelo_inurba_marseille","lat":43.289452,"lon":5.366347,"is_reserved":false,"is_disabled":true,"rental_uris":{"android":"levelo://app?vid=fbcffd98-9af3-437e-a238-670cf1dcb555","ios":"levelo://app?vid=fbcffd98-9af3-437e-a238-670cf1dcb555"},"vehicle_type_id":"4","last_reported":1744556950,"current_range_meters":14400,"station_id":"ce4bhap2rcd13ifvqek0","pricing_plan_id":"cebpf4jnsgd1na2vs0mg"},{"bike_id":"59790fdf-1ea1-455c-92c2-962c077501dc","system_id":"levelo_inurba_marseille","lat":43.24194,"lon":5.39737,"is_reserved":false,"is_disabled":false,"rental_uris":{"android":"levelo://app?vid=59790fdf-1ea1-455c-92c2-962c077501dc","ios":"levelo://app?vid=59790fdf-1ea1-455c-92c2-962c077501dc"},"vehicle_type_id":"4","last_reported":1744556950,"current_range_meters":14400,"station_id":"ce4bhn12rcd13ifvqgpg","pricing_plan_id":"cebpf4jnsgd1na2vs0mg"},{"bike_id":"ef809b90-75d2-4c0e-b6ae-bac8151551c2","system_id":"levelo_inurba_marseille","lat":43.27954,"lon":5.41051,"is_reserved":false,"is_disabled":false,"rental_uris":{"android":"levelo://app?vid=ef809b90-75d2-4c0e-b6ae-bac8151551c2","ios":"levelo://app?vid=ef809b90-75d2-4c0e-b6ae-bac8151551c2"},"vehicle_type_id":"4","last_reported":1744556950,"current_range_meters":14400,"station_id":"ce4bhnp2rcd13ifvqh0g","pricing_plan_id":"cebpf4jnsgd1na2vs0mg"},{"bike_id":"8dc9d675-ce88-4c62-b6d7-8b5f49d4044c","system_id":"levelo_inurba_marseille","lat":43.3112,"lon":5.37758,"is_reserved":false,"is_disabled":false,"rental_uris":{"android":"levelo://app?vid=8dc9d675-ce88-4c62-b6d7-8b5f49d4044c","ios":"levelo://app?vid=8dc9d675-ce88-4c62-b6d7-8b5f49d4044c"},"vehicle_type_id":"4","last_reported":1744556950,"current_range_meters":14400,"station_id":"ce4bgt92rcd13ifvqcg0","pricing_plan_id":"cebpf4jnsgd1na2vs0mg"},{"bike_id":"40db408a-38a4-4965-98ea-8165724e4fbb","system_id":"levelo_inurba_marseille","lat":43.25873,"lon":5.39894,"is_reserved":false,"is_disabled":false,"rental_uris":{"android":"levelo://app?vid=40db408a-38a4-4965-98ea-8165724e4fbb","ios":"levelo://app?vid=40db408a-38a4-4965-98ea-8165724e4fbb"},"vehicle_type_id":"4","last_reported":1744556950,"current_range_meters":14400,"station_id":"ce4bhl92rcd13ifvqghg","pricing_plan_id":"cebpf4jnsgd1na2vs0mg"},{"bike_id":"41e3f531-f934-4f90-8ee0-fe2b758fdc78","system_id":"levelo_inurba_marseille","lat":43.27495,"lon":5.4245,"is_reserved":false,"is_disabled":false,"rental_uris":{"android":"levelo://app?vid=41e3f531-f934-4f90-8ee0-fe2b758fdc78","ios":"levelo://app?vid=41e3f531-f934-4f90-8ee0-fe2b758fdc78"},"vehicle_type_id":"4","last_reported":1744556950,"current_range_meters":14400,"station_id":"ce4bhn92rcd13ifvqgrg","pricing_plan_id":"cebpf4jnsgd1na2vs0mg"},{"bike_id":"d14731e5-7415-47b4-a7a5-e8d3fa572982","system_id":"levelo_inurba_marseille","lat":43.29556,"lon":5.4229,"is_reserved":false,"is_disabled":false,"rental_uris":{"android":"levelo://app?vid=d14731e5-7415-47b4-a7a5-e8d3fa572982","ios":"levelo://app?vid=d14731e5-7415-47b4-a7a5-e8d3fa572982"},"vehicle_type_id":"4","last_reported":1744556950,"current_range_meters":14400,"station_id":"ce4bhph2rcd13ifvqhdg","pricing_plan_id":"cebpf4jnsgd1na2vs0mg"},{"bike_id":"1ac094ce-82e9-45d6-bd32-15b6246bfbdf","system_id":"levelo_inurba_marseille","lat":43.28373,"lon":5.3863,"is_reserved":false,"is_disabled":false,"rental_uris":{"android":"levelo://app?vid=1ac094ce-82e9-45d6-bd32-15b6246bfbdf","ios":"levelo://app?vid=1ac094ce-82e9-45d6-bd32-15b6246bfbdf"},"vehicle_type_id":"4","last_reported":1744556950,"current_range_meters":14800,"station_id":"ce4bh492rcd13ifvqdvg","pricing_plan_id":"cebpf4jnsgd1na2vs0mg"},{"bike_id":"105e10ed-15c6-4ee2-a209-78b379922a25","system_id":"levelo_inurba_marseille","lat":43.29795,"lon":5.38183,"is_reserved":false,"is_disabled":false,"rental_uris":{"android":"levelo://app?vid=105e10ed-15c6-4ee2-a209-78b379922a25","ios":"levelo://app?vid=105e10ed-15c6-4ee2-a209-78b379922a25"},"vehicle_type_id":"4","last_reported":1744556950,"current_range_meters":15200,"station_id":"","pricing_plan_id":"cebpf4jnsgd1na2vs0mg"},{"bike_id":"d9214e74-30ad-45b9-bf16-f3f0709b1cbf","system_id":"levelo_inurba_marseille","lat":43.2319,"lon":5.35556,"is_reserved":false,"is_disabled":false,"rental_uris":{"android":"levelo://app?vid=d9214e74-30ad-45b9-bf16-f3f0709b1cbf","ios":"levelo://app?vid=d9214e74-30ad-45b9-bf16-f3f0709b1cbf"},"vehicle_type_id":"4","last_reported":1744556950,"current_range_meters":15200,"station_id":"ce4bhu92rcd13ifvqi70","pricing_plan_id":"cebpf4jnsgd1na2vs0mg"},{"bike_id":"751c8486-e822-493a-9d72-2dea04055e9d","system_id":"levelo_inurba_marseille","lat":43.28423,"lon":5.34983,"is_reserved":false,"is_disabled":false,"rental_uris":{"android":"levelo://app?vid=751c8486-e822-493a-9d72-2dea04055e9d","ios":"levelo://app?vid=751c8486-e822-493a-9d72-2dea04055e9d"},"vehicle_type_id":"4","last_reported":1744556950,"current_range_meters":15200,"station_id":"ce4bhbh2rcd13ifvqepg","pricing_plan_id":"cebpf4jnsgd1na2vs0mg"},{"bike_id":"1cb1c7bd-e557-4727-a0e7-d61b7d142c95","system_id":"levelo_inurba_marseille","lat":43.297784,"lon":5.389392,"is_reserved":false,"is_disabled":false,"rental_uris":{"android":"levelo://app?vid=1cb1c7bd-e557-4727-a0e7-d61b7d142c95","ios":"levelo://app?vid=1cb1c7bd-e557-4727-a0e7-d61b7d142c95"},"vehicle_type_id":"4","last_reported":1744556950,"current_range_meters":15200,"station_id":"ce4bh292rcd13ifvqdf0","pricing_plan_id":"cebpf4jnsgd1na2vs0mg"},{"bike_id":"e617923d-5e38-4ab5-9f0a-d006b9dcc88d","system_id":"levelo_inurba_marseille","lat":43.29536,"lon":5.38555,"is_reserved":false,"is_disabled":true,"rental_uris":{"android":"levelo://app?vid=e617923d-5e38-4ab5-9f0a-d006b9dcc88d","ios":"levelo://app?vid=e617923d-5e38-4ab5-9f0a-d006b9dcc88d"},"vehicle_type_id":"4","last_reported":1744556950,"current_range_meters":15200,"station_id":"ce4bgih2rcd13ifvqba0","pricing_plan_id":"cebpf4jnsgd1na2vs0mg"},{"bike_id":"6730ebac-a4e7-4ffe-80ec-f558e649b608","system_id":"levelo_inurba_marseille","lat":43.29273,"lon":5.38426,"is_reserved":false,"is_disabled":false,"rental_uris":{"android":"levelo://app?vid=6730ebac-a4e7-4ffe-80ec-f558e649b608","ios":"levelo://app?vid=6730ebac-a4e7-4ffe-80ec-f558e649b608"},"vehicle_type_id":"4","last_reported":1744556950,"current_range_meters":15200,"station_id":"ce4bh692rcd13ifvqea0","pricing_plan_id":"cebpf4jnsgd1na2vs0mg"},{"bike_id":"969c4e3f-bc35-4f64-90f4-40a20fb2bb0f","system_id":"levelo_inurba_marseille","lat":43.29793,"lon":5.3711,"is_reserved":false,"is_disabled":false,"rental_uris":{"android":"levelo://app?vid=969c4e3f-bc35-4f64-90f4-40a20fb2bb0f","ios":"levelo://app?vid=969c4e3f-bc35-4f64-90f4-40a20fb2bb0f"},"vehicle_type_id":"4","last_reported":1744556950,"current_range_meters":15200,"station_id":"ce4bgop2rcd13ifvqc1g","pricing_plan_id":"cebpf4jnsgd1na2vs0mg"},{"bike_id":"19f1a155-cbf4-4731-aa23-4c460950b294","system_id":"levelo_inurba_marseille","lat":43.28667,"lon":5.36356,"is_reserved":false,"is_disabled":false,"rental_uris":{"android":"levelo://app?vid=19f1a155-cbf4-4731-aa23-4c460950b294","ios":"levelo://app?vid=19f1a155-cbf4-4731-aa23-4c460950b294"},"vehicle_type_id":"4","last_reported":1744556950,"current_range_meters":16000,"station_id":"ce4bhah2rcd13ifvqej0","pricing_plan_id":"cebpf4jnsgd1na2vs0mg"},{"bike_id":"d2fbb035-5ad4-48ab-a161-0ae656eaba57","system_id":"levelo_inurba_marseille","lat":43.26812,"lon":5.40234,"is_reserved":false,"is_disabled":false,"rental_uris":{"android":"levelo://app?vid=d2fbb035-5ad4-48ab-a161-0ae656eaba57","ios":"levelo://app?vid=d2fbb035-5ad4-48ab-a161-0ae656eaba57"},"vehicle_type_id":"4","last_reported":1744556950,"current_range_meters":16000,"station_id":"ce501612rcd8frsf0b60","pricing_plan_id":"cebpf4jnsgd1na2vs0mg"},{"bike_id":"d701c701-b47b-4c5e-a5af-aad5afc08bf4","system_id":"levelo_inurba_marseille","lat":43.276167,"lon":5.361088,"is_reserved":false,"is_disabled":false,"rental_uris":{"android":"levelo://app?vid=d701c701-b47b-4c5e-a5af-aad5afc08bf4","ios":"levelo://app?vid=d701c701-b47b-4c5e-a5af-aad5afc08bf4"},"vehicle_type_id":"4","last_reported":1744556950,"current_range_meters":16000,"station_id":"ce4bgj92rcd13ifvqbe0","pricing_plan_id":"cebpf4jnsgd1na2vs0mg"},{"bike_id":"1cb8d673-2b7e-4f47-97d0-0236015fde7a","system_id":"levelo_inurba_marseille","lat":43.26199,"lon":5.37451,"is_reserved":false,"is_disabled":false,"rental_uris":{"android":"levelo://app?vid=1cb8d673-2b7e-4f47-97d0-0236015fde7a","ios":"levelo://app?vid=1cb8d673-2b7e-4f47-97d0-0236015fde7a"},"vehicle_type_id":"4","last_reported":1744556950,"current_range_meters":16400,"station_id":"ce4bhgp2rcd13ifvqfc0","pricing_plan_id":"cebpf4jnsgd1na2vs0mg"},{"bike_id":"84cc931f-53d5-479e-b0d8-aab96bd52b38","system_id":"levelo_inurba_marseille","lat":43.29978,"lon":5.36885,"is_reserved":false,"is_disabled":false,"rental_uris":{"android":"levelo://app?vid=84cc931f-53d5-479e-b0d8-aab96bd52b38","ios":"levelo://app?vid=84cc931f-53d5-479e-b0d8-aab96bd52b38"},"vehicle_type_id":"4","last_reported":1744556950,"current_range_meters":16400,"station_id":"","pricing_plan_id":"cebpf4jnsgd1na2vs0mg"},{"bike_id":"2551df23-46eb-4dc9-b328-33c9a95ff7ca","system_id":"levelo_inurba_marseille","lat":43.292315,"lon":5.360525,"is_reserved":false,"is_disabled":true,"rental_uris":{"android":"levelo://app?vid=2551df23-46eb-4dc9-b328-33c9a95ff7ca","ios":"levelo://app?vid=2551df23-46eb-4dc9-b328-33c9a95ff7ca"},"vehicle_type_id":"4","last_reported":1744556950,"current_range_meters":16400,"station_id":"ce4bhbh2rcd13ifvqeqg","pricing_plan_id":"cebpf4jnsgd1na2vs0mg"},{"bike_id":"9697f3a6-130b-4257-b823-a5058a9d593c","system_id":"levelo_inurba_marseille","lat":43.25841,"lon":5.39443,"is_reserved":false,"is_disabled":false,"rental_uris":{"android":"levelo://app?vid=9697f3a6-130b-4257-b823-a5058a9d593c","ios":"levelo://app?vid=9697f3a6-130b-4257-b823-a5058a9d593c"},"vehicle_type_id":"4","last_reported":1744556950,"current_range_meters":16400,"station_id":"ce4bhip2rcd13ifvqft0","pricing_plan_id":"cebpf4jnsgd1na2vs0mg"},{"bike_id":"0a5d9bc0-332d-45f0-8b24-b5b86f8cfb13","system_id":"levelo_inurba_marseille","lat":43.29527,"lon":5.39029,"is_reserved":false,"is_disabled":false,"rental_uris":{"android":"levelo://app?vid=0a5d9bc0-332d-45f0-8b24-b5b86f8cfb13","ios":"levelo://app?vid=0a5d9bc0-332d-45f0-8b24-b5b86f8cfb13"},"vehicle_type_id":"4","last_reported":1744556950,"current_range_meters":16800,"station_id":"ce4bh3p2rcd13ifvqdp0","pricing_plan_id":"cebpf4jnsgd1na2vs0mg"},{"bike_id":"ca64aa6c-3b2c-4db7-a891-fd4c0149a934","system_id":"levelo_inurba_marseille","lat":43.31724,"lon":5.42401,"is_reserved":false,"is_disabled":false,"rental_uris":{"android":"levelo://app?vid=ca64aa6c-3b2c-4db7-a891-fd4c0149a934","ios":"levelo://app?vid=ca64aa6c-3b2c-4db7-a891-fd4c0149a934"},"vehicle_type_id":"4","last_reported":1744556950,"current_range_meters":16800,"station_id":"ce4bhp92rcd13ifvqhbg","pricing_plan_id":"cebpf4jnsgd1na2vs0mg"},{"bike_id":"72795014-e60d-4831-88a1-e24f7bb1743d","system_id":"levelo_inurba_marseille","lat":43.32367,"lon":5.38886,"is_reserved":false,"is_disabled":false,"rental_uris":{"android":"levelo://app?vid=72795014-e60d-4831-88a1-e24f7bb1743d","ios":"levelo://app?vid=72795014-e60d-4831-88a1-e24f7bb1743d"},"vehicle_type_id":"4","last_reported":1744556950,"current_range_meters":16800,"station_id":"ce4bhqp2rcd13ifvqhog","pricing_plan_id":"cebpf4jnsgd1na2vs0mg"},{"bike_id":"50f3a6ca-1b32-4e17-a21b-a50e16960e96","system_id":"levelo_inurba_marseille","lat":43.337766,"lon":5.374441,"is_reserved":false,"is_disabled":false,"rental_uris":{"android":"levelo://app?vid=50f3a6ca-1b32-4e17-a21b-a50e16960e96","ios":"levelo://app?vid=50f3a6ca-1b32-4e17-a21b-a50e16960e96"},"vehicle_type_id":"4","last_reported":1744556950,"current_range_meters":16800,"station_id":"","pricing_plan_id":"cebpf4jnsgd1na2vs0mg"},{"bike_id":"fba700d3-5c16-415f-9e80-2d0f9aa491d2","system_id":"levelo_inurba_marseille","lat":43.3038,"lon":5.42484,"is_reserved":false,"is_disabled":false,"rental_uris":{"android":"levelo://app?vid=fba700d3-5c16-415f-9e80-2d0f9aa491d2","ios":"levelo://app?vid=fba700d3-5c16-415f-9e80-2d0f9aa491d2"},"vehicle_type_id":"4","last_reported":1744556950,"current_range_meters":16800,"station_id":"ce4bhoh2rcd13ifvqh6g","pricing_plan_id":"cebpf4jnsgd1na2vs0mg"},{"bike_id":"0d748fae-4ddf-482c-93ce-3a0c1307a932","system_id":"levelo_inurba_marseille","lat":43.29417,"lon":5.38628,"is_reserved":false,"is_disabled":false,"rental_uris":{"android":"levelo://app?vid=0d748fae-4ddf-482c-93ce-3a0c1307a932","ios":"levelo://app?vid=0d748fae-4ddf-482c-93ce-3a0c1307a932"},"vehicle_type_id":"4","last_reported":1744556950,"current_range_meters":16800,"station_id":"ce4bh2h2rcd13ifvqdh0","pricing_plan_id":"cebpf4jnsgd1na2vs0mg"},{"bike_id":"421e5915-0cd4-488d-a62a-2cae48c46f02","system_id":"levelo_inurba_marseille","lat":43.27948,"lon":5.41045,"is_reserved":false,"is_disabled":false,"rental_uris":{"android":"levelo://app?vid=421e5915-0cd4-488d-a62a-2cae48c46f02","ios":"levelo://app?vid=421e5915-0cd4-488d-a62a-2cae48c46f02"},"vehicle_type_id":"4","last_reported":1744556950,"current_range_meters":16800,"station_id":"ce4bhnp2rcd13ifvqh0g","pricing_plan_id":"cebpf4jnsgd1na2vs0mg"},{"bike_id":"78779e85-7fcc-4754-ac41-fa7f07d35c67","system_id":"levelo_inurba_marseille","lat":43.30261,"lon":5.40081,"is_reserved":false,"is_disabled":false,"rental_uris":{"android":"levelo://app?vid=78779e85-7fcc-4754-ac41-fa7f07d35c67","ios":"levelo://app?vid=78779e85-7fcc-4754-ac41-fa7f07d35c67"},"vehicle_type_id":"4","last_reported":1744556950,"current_range_meters":16800,"station_id":"ce4bgvh2rcd13ifvqcs0","pricing_plan_id":"cebpf4jnsgd1na2vs0mg"},{"bike_id":"935a7e55-4cea-4394-8ed2-15f7e1ee706c","system_id":"levelo_inurba_marseille","lat":43.27241,"lon":5.43178,"is_reserved":false,"is_disabled":false,"rental_uris":{"android":"levelo://app?vid=935a7e55-4cea-4394-8ed2-15f7e1ee706c","ios":"levelo://app?vid=935a7e55-4cea-4394-8ed2-15f7e1ee706c"},"vehicle_type_id":"4","last_reported":1744556950,"current_range_meters":17200,"station_id":"","pricing_plan_id":"cebpf4jnsgd1na2vs0mg"},{"bike_id":"bfbb13a2-0d83-4836-b3ec-ca262c666cea","system_id":"levelo_inurba_marseille","lat":43.31514,"lon":5.37325,"is_reserved":false,"is_disabled":false,"rental_uris":{"android":"levelo://app?vid=bfbb13a2-0d83-4836-b3ec-ca262c666cea","ios":"levelo://app?vid=bfbb13a2-0d83-4836-b3ec-ca262c666cea"},"vehicle_type_id":"4","last_reported":1744556950,"current_range_meters":17200,"station_id":"ce4bgt12rcd13ifvqcd0","pricing_plan_id":"cebpf4jnsgd1na2vs0mg"},{"bike_id":"da48e56b-5b98-4592-a2ea-cf5907cac18b","system_id":"levelo_inurba_marseille","lat":43.337652,"lon":5.374374,"is_reserved":false,"is_disabled":false,"rental_uris":{"android":"levelo://app?vid=da48e56b-5b98-4592-a2ea-cf5907cac18b","ios":"levelo://app?vid=da48e56b-5b98-4592-a2ea-cf5907cac18b"},"vehicle_type_id":"4","last_reported":1744556950,"current_range_meters":17200,"station_id":"","pricing_plan_id":"cebpf4jnsgd1na2vs0mg"},{"bike_id":"e23a2fbf-390c-4634-8902-fbe9c490d2fe","system_id":"levelo_inurba_marseille","lat":43.25916,"lon":5.40901,"is_reserved":false,"is_disabled":false,"rental_uris":{"android":"levelo://app?vid=e23a2fbf-390c-4634-8902-fbe9c490d2fe","ios":"levelo://app?vid=e23a2fbf-390c-4634-8902-fbe9c490d2fe"},"vehicle_type_id":"4","last_reported":1744556950,"current_range_meters":17200,"station_id":"ce4bhm92rcd13ifvqglg","pricing_plan_id":"cebpf4jnsgd1na2vs0mg"},{"bike_id":"6f9cf811-1927-4a51-a336-b458bdfafc6f","system_id":"levelo_inurba_marseille","lat":43.3003,"lon":5.3841,"is_reserved":false,"is_disabled":false,"rental_uris":{"android":"levelo://app?vid=6f9cf811-1927-4a51-a336-b458bdfafc6f","ios":"levelo://app?vid=6f9cf811-1927-4a51-a336-b458bdfafc6f"},"vehicle_type_id":"4","last_reported":1744556950,"current_range_meters":17200,"station_id":"","pricing_plan_id":"cebpf4jnsgd1na2vs0mg"},{"bike_id":"7107203b-c4df-4146-83cd-1dc2a3ff5674","system_id":"levelo_inurba_marseille","lat":43.3065,"lon":5.40084,"is_reserved":false,"is_disabled":false,"rental_uris":{"android":"levelo://app?vid=7107203b-c4df-4146-83cd-1dc2a3ff5674","ios":"levelo://app?vid=7107203b-c4df-4146-83cd-1dc2a3ff5674"},"vehicle_type_id":"4","last_reported":1744556950,"current_range_meters":17200,"station_id":"ce4bh112rcd13ifvqda0","pricing_plan_id":"cebpf4jnsgd1na2vs0mg"},{"bike_id":"42a092d4-3d19-4a7d-bdf9-22ae5f9f0dc7","system_id":"levelo_inurba_marseille","lat":43.25824,"lon":5.39433,"is_reserved":false,"is_disabled":false,"rental_uris":{"android":"levelo://app?vid=42a092d4-3d19-4a7d-bdf9-22ae5f9f0dc7","ios":"levelo://app?vid=42a092d4-3d19-4a7d-bdf9-22ae5f9f0dc7"},"vehicle_type_id":"4","last_reported":1744556950,"current_range_meters":17200,"station_id":"ce4bhip2rcd13ifvqft0","pricing_plan_id":"cebpf4jnsgd1na2vs0mg"},{"bike_id":"67868cb0-fe57-4755-a0f4-83fc5971e42b","system_id":"levelo_inurba_marseille","lat":43.26813,"lon":5.40267,"is_reserved":false,"is_disabled":false,"rental_uris":{"android":"levelo://app?vid=67868cb0-fe57-4755-a0f4-83fc5971e42b","ios":"levelo://app?vid=67868cb0-fe57-4755-a0f4-83fc5971e42b"},"vehicle_type_id":"4","last_reported":1744556950,"current_range_meters":17600,"station_id":"ce501612rcd8frsf0b60","pricing_plan_id":"cebpf4jnsgd1na2vs0mg"},{"bike_id":"fdfef1d6-8e78-415a-9d0a-effaa44dc97a","system_id":"levelo_inurba_marseille","lat":43.28407,"lon":5.37513,"is_reserved":false,"is_disabled":false,"rental_uris":{"android":"levelo://app?vid=fdfef1d6-8e78-415a-9d0a-effaa44dc97a","ios":"levelo://app?vid=fdfef1d6-8e78-415a-9d0a-effaa44dc97a"},"vehicle_type_id":"4","last_reported":1744556950,"current_range_meters":17600,"station_id":"ce4bh412rcd13ifvqds0","pricing_plan_id":"cebpf4jnsgd1na2vs0mg"},{"bike_id":"b66768d5-29fb-4e77-9423-404d9e785106","system_id":"levelo_inurba_marseille","lat":43.27846,"lon":5.39204,"is_reserved":false,"is_disabled":false,"rental_uris":{"android":"levelo://app?vid=b66768d5-29fb-4e77-9423-404d9e785106","ios":"levelo://app?vid=b66768d5-29fb-4e77-9423-404d9e785106"},"vehicle_type_id":"4","last_reported":1744556950,"current_range_meters":17600,"station_id":"ce4bhjp2rcd13ifvqga0","pricing_plan_id":"cebpf4jnsgd1na2vs0mg"},{"bike_id":"86ac3ad7-4349-4b45-82d1-b61ad882a2f6","system_id":"levelo_inurba_marseille","lat":43.21743,"lon":5.34602,"is_reserved":false,"is_disabled":true,"rental_uris":{"android":"levelo://app?vid=86ac3ad7-4349-4b45-82d1-b61ad882a2f6","ios":"levelo://app?vid=86ac3ad7-4349-4b45-82d1-b61ad882a2f6"},"vehicle_type_id":"4","last_reported":1744556950,"current_range_meters":17600,"station_id":"st_cvj6r9ubvosntc0bgbag","pricing_plan_id":"cebpf4jnsgd1na2vs0mg"},{"bike_id":"6e15864d-d2f7-4a1c-8a13-697c3ed4a684","system_id":"levelo_inurba_marseille","lat":43.21201,"lon":5.3507,"is_reserved":false,"is_disabled":false,"rental_uris":{"android":"levelo://app?vid=6e15864d-d2f7-4a1c-8a13-697c3ed4a684","ios":"levelo://app?vid=6e15864d-d2f7-4a1c-8a13-697c3ed4a684"},"vehicle_type_id":"4","last_reported":1744556950,"current_range_meters":18000,"station_id":"st_cvj6sg6p6f1abm77japg","pricing_plan_id":"cebpf4jnsgd1na2vs0mg"},{"bike_id":"518e8220-89de-4d51-804e-5c8337c2e983","system_id":"levelo_inurba_marseille","lat":43.25581,"lon":5.38227,"is_reserved":false,"is_disabled":false,"rental_uris":{"android":"levelo://app?vid=518e8220-89de-4d51-804e-5c8337c2e983","ios":"levelo://app?vid=518e8220-89de-4d51-804e-5c8337c2e983"},"vehicle_type_id":"4","last_reported":1744556950,"current_range_meters":18000,"station_id":"ce4bhih2rcd13ifvqfs0","pricing_plan_id":"cebpf4jnsgd1na2vs0mg"},{"bike_id":"25428f12-74cf-4a27-98d8-08535842e45f","system_id":"levelo_inurba_marseille","lat":43.30124,"lon":5.3985,"is_reserved":false,"is_disabled":false,"rental_uris":{"android":"levelo://app?vid=25428f12-74cf-4a27-98d8-08535842e45f","ios":"levelo://app?vid=25428f12-74cf-4a27-98d8-08535842e45f"},"vehicle_type_id":"4","last_reported":1744556950,"current_range_meters":18000,"station_id":"ce4bh0h2rcd13ifvqd40","pricing_plan_id":"cebpf4jnsgd1na2vs0mg"},{"bike_id":"da27b599-cdb3-4198-b616-72f0b42a3ad1","system_id":"levelo_inurba_marseille","lat":43.27817,"lon":5.40717,"is_reserved":false,"is_disabled":false,"rental_uris":{"android":"levelo://app?vid=da27b599-cdb3-4198-b616-72f0b42a3ad1","ios":"levelo://app?vid=da27b599-cdb3-4198-b616-72f0b42a3ad1"},"vehicle_type_id":"4","last_reported":1744556950,"current_range_meters":18000,"station_id":"ce4bhnh2rcd13ifvqgtg","pricing_plan_id":"cebpf4jnsgd1na2vs0mg"},{"bike_id":"b685ddfd-dae1-4f83-8180-4c8c75cc6933","system_id":"levelo_inurba_marseille","lat":43.280017,"lon":5.399963,"is_reserved":false,"is_disabled":true,"rental_uris":{"android":"levelo://app?vid=b685ddfd-dae1-4f83-8180-4c8c75cc6933","ios":"levelo://app?vid=b685ddfd-dae1-4f83-8180-4c8c75cc6933"},"vehicle_type_id":"4","last_reported":1744556950,"current_range_meters":18000,"station_id":"ce4bho92rcd13ifvqh4g","pricing_plan_id":"cebpf4jnsgd1na2vs0mg"},{"bike_id":"3cc4770a-0f44-4af1-aa01-0d827942890d","system_id":"levelo_inurba_marseille","lat":43.28845,"lon":5.39318,"is_reserved":false,"is_disabled":false,"rental_uris":{"android":"levelo://app?vid=3cc4770a-0f44-4af1-aa01-0d827942890d","ios":"levelo://app?vid=3cc4770a-0f44-4af1-aa01-0d827942890d"},"vehicle_type_id":"4","last_reported":1744556950,"current_range_meters":18800,"station_id":"ce4bh2p2rcd13ifvqdi0","pricing_plan_id":"cebpf4jnsgd1na2vs0mg"},{"bike_id":"34104bf2-cedc-4458-acf8-20d442991ea0","system_id":"levelo_inurba_marseille","lat":43.30475,"lon":5.37895,"is_reserved":false,"is_disabled":false,"rental_uris":{"android":"levelo://app?vid=34104bf2-cedc-4458-acf8-20d442991ea0","ios":"levelo://app?vid=34104bf2-cedc-4458-acf8-20d442991ea0"},"vehicle_type_id":"4","last_reported":1744556950,"current_range_meters":18800,"station_id":"ce4bgup2rcd13ifvqcn0","pricing_plan_id":"cebpf4jnsgd1na2vs0mg"},{"bike_id":"a9780a69-cd1a-408c-9e66-47d65271a1ae","system_id":"levelo_inurba_marseille","lat":43.30907,"lon":5.36847,"is_reserved":false,"is_disabled":false,"rental_uris":{"android":"levelo://app?vid=a9780a69-cd1a-408c-9e66-47d65271a1ae","ios":"levelo://app?vid=a9780a69-cd1a-408c-9e66-47d65271a1ae"},"vehicle_type_id":"4","last_reported":1744556950,"current_range_meters":18000,"station_id":"ce4bgn92rcd13ifvqbvg","pricing_plan_id":"cebpf4jnsgd1na2vs0mg"},{"bike_id":"df49f249-4aa5-4aa6-9193-27ea889ed0d0","system_id":"levelo_inurba_marseille","lat":43.3046,"lon":5.38909,"is_reserved":false,"is_disabled":true,"rental_uris":{"android":"levelo://app?vid=df49f249-4aa5-4aa6-9193-27ea889ed0d0","ios":"levelo://app?vid=df49f249-4aa5-4aa6-9193-27ea889ed0d0"},"vehicle_type_id":"4","last_reported":1744556950,"current_range_meters":18800,"station_id":"ce4bgk12rcd13ifvqbi0","pricing_plan_id":"cebpf4jnsgd1na2vs0mg"},{"bike_id":"27a55245-8dd2-4f1a-af63-95a9d7b71690","system_id":"levelo_inurba_marseille","lat":43.310684,"lon":5.378551,"is_reserved":false,"is_disabled":true,"rental_uris":{"android":"levelo://app?vid=27a55245-8dd2-4f1a-af63-95a9d7b71690","ios":"levelo://app?vid=27a55245-8dd2-4f1a-af63-95a9d7b71690"},"vehicle_type_id":"4","last_reported":1744556950,"current_range_meters":18800,"station_id":"","pricing_plan_id":"cebpf4jnsgd1na2vs0mg"},{"bike_id":"8e84781a-82c3-4b14-a541-78f95f1999c0","system_id":"levelo_inurba_marseille","lat":43.27457,"lon":5.3944,"is_reserved":false,"is_disabled":true,"rental_uris":{"android":"levelo://app?vid=8e84781a-82c3-4b14-a541-78f95f1999c0","ios":"levelo://app?vid=8e84781a-82c3-4b14-a541-78f95f1999c0"},"vehicle_type_id":"4","last_reported":1744556950,"current_range_meters":19200,"station_id":"ce4bhdp2rcd13ifvqf20","pricing_plan_id":"cebpf4jnsgd1na2vs0mg"},{"bike_id":"59c7d7f9-492d-4240-b3d4-e8d1015f1ebd","system_id":"levelo_inurba_marseille","lat":43.21743,"lon":5.34602,"is_reserved":false,"is_disabled":true,"rental_uris":{"android":"levelo://app?vid=59c7d7f9-492d-4240-b3d4-e8d1015f1ebd","ios":"levelo://app?vid=59c7d7f9-492d-4240-b3d4-e8d1015f1ebd"},"vehicle_type_id":"4","last_reported":1744556950,"current_range_meters":19200,"station_id":"st_cvj6r9ubvosntc0bgbag","pricing_plan_id":"cebpf4jnsgd1na2vs0mg"},{"bike_id":"3d7029d3-0142-4af8-807c-cc73d6da8ab1","system_id":"levelo_inurba_marseille","lat":43.26549,"lon":5.39031,"is_reserved":false,"is_disabled":false,"rental_uris":{"android":"levelo://app?vid=3d7029d3-0142-4af8-807c-cc73d6da8ab1","ios":"levelo://app?vid=3d7029d3-0142-4af8-807c-cc73d6da8ab1"},"vehicle_type_id":"4","last_reported":1744556950,"current_range_meters":19200,"station_id":"ce4bhe12rcd13ifvqf30","pricing_plan_id":"cebpf4jnsgd1na2vs0mg"},{"bike_id":"6440e71c-05c9-4dc1-98a7-affcc2551c35","system_id":"levelo_inurba_marseille","lat":43.29867,"lon":5.38899,"is_reserved":false,"is_disabled":false,"rental_uris":{"android":"levelo://app?vid=6440e71c-05c9-4dc1-98a7-affcc2551c35","ios":"levelo://app?vid=6440e71c-05c9-4dc1-98a7-affcc2551c35"},"vehicle_type_id":"4","last_reported":1744556950,"current_range_meters":19200,"station_id":"ce4bh392rcd13ifvqdl0","pricing_plan_id":"cebpf4jnsgd1na2vs0mg"},{"bike_id":"607b9ab3-cb8b-4340-a8ef-422c4dc752bc","system_id":"levelo_inurba_marseille","lat":43.27996,"lon":5.40039,"is_reserved":false,"is_disabled":false,"rental_uris":{"android":"levelo://app?vid=607b9ab3-cb8b-4340-a8ef-422c4dc752bc","ios":"levelo://app?vid=607b9ab3-cb8b-4340-a8ef-422c4dc752bc"},"vehicle_type_id":"4","last_reported":1744556950,"current_range_meters":19200,"station_id":"ce4bho92rcd13ifvqh4g","pricing_plan_id":"cebpf4jnsgd1na2vs0mg"},{"bike_id":"b01cfc93-b544-4ec8-94c2-4dc0f4a8e379","system_id":"levelo_inurba_marseille","lat":43.30386,"lon":5.42494,"is_reserved":false,"is_disabled":false,"rental_uris":{"android":"levelo://app?vid=b01cfc93-b544-4ec8-94c2-4dc0f4a8e379","ios":"levelo://app?vid=b01cfc93-b544-4ec8-94c2-4dc0f4a8e379"},"vehicle_type_id":"4","last_reported":1744556950,"current_range_meters":19200,"station_id":"ce4bhoh2rcd13ifvqh6g","pricing_plan_id":"cebpf4jnsgd1na2vs0mg"},{"bike_id":"15f2349a-a2a1-43c4-b45d-eb9ce601b994","system_id":"levelo_inurba_marseille","lat":43.28464,"lon":5.35878,"is_reserved":false,"is_disabled":false,"rental_uris":{"android":"levelo://app?vid=15f2349a-a2a1-43c4-b45d-eb9ce601b994","ios":"levelo://app?vid=15f2349a-a2a1-43c4-b45d-eb9ce601b994"},"vehicle_type_id":"4","last_reported":1744556950,"current_range_meters":19200,"station_id":"ce4bhah2rcd13ifvqei0","pricing_plan_id":"cebpf4jnsgd1na2vs0mg"},{"bike_id":"b72c6d84-2480-4efc-9e0a-4bb9ddedaa45","system_id":"levelo_inurba_marseille","lat":43.30167,"lon":5.3808,"is_reserved":false,"is_disabled":false,"rental_uris":{"android":"levelo://app?vid=b72c6d84-2480-4efc-9e0a-4bb9ddedaa45","ios":"levelo://app?vid=b72c6d84-2480-4efc-9e0a-4bb9ddedaa45"},"vehicle_type_id":"4","last_reported":1744556950,"current_range_meters":19200,"station_id":"ce4bgjp2rcd13ifvqbh0","pricing_plan_id":"cebpf4jnsgd1na2vs0mg"},{"bike_id":"a6535ba8-9ced-4cad-b71b-a79f16af244f","system_id":"levelo_inurba_marseille","lat":43.24696,"lon":5.38157,"is_reserved":false,"is_disabled":false,"rental_uris":{"android":"levelo://app?vid=a6535ba8-9ced-4cad-b71b-a79f16af244f","ios":"levelo://app?vid=a6535ba8-9ced-4cad-b71b-a79f16af244f"},"vehicle_type_id":"4","last_reported":1744556950,"current_range_meters":19600,"station_id":"ce4bhih2rcd13ifvqfr0","pricing_plan_id":"cebpf4jnsgd1na2vs0mg"},{"bike_id":"8f34def4-bc64-4072-9bb4-e22c4eae21bf","system_id":"levelo_inurba_marseille","lat":43.23964,"lon":5.36648,"is_reserved":false,"is_disabled":false,"rental_uris":{"android":"levelo://app?vid=8f34def4-bc64-4072-9bb4-e22c4eae21bf","ios":"levelo://app?vid=8f34def4-bc64-4072-9bb4-e22c4eae21bf"},"vehicle_type_id":"4","last_reported":1744556950,"current_range_meters":19600,"station_id":"ce4bhi12rcd13ifvqfp0","pricing_plan_id":"cebpf4jnsgd1na2vs0mg"},{"bike_id":"5168aa94-848e-49f7-91fe-016757b2049e","system_id":"levelo_inurba_marseille","lat":43.23197,"lon":5.3555,"is_reserved":false,"is_disabled":false,"rental_uris":{"android":"levelo://app?vid=5168aa94-848e-49f7-91fe-016757b2049e","ios":"levelo://app?vid=5168aa94-848e-49f7-91fe-016757b2049e"},"vehicle_type_id":"4","last_reported":1744556950,"current_range_meters":19600,"station_id":"ce4bhu92rcd13ifvqi70","pricing_plan_id":"cebpf4jnsgd1na2vs0mg"},{"bike_id":"7fa935a2-6c32-4761-99d9-a4efcda5c379","system_id":"levelo_inurba_marseille","lat":43.30555,"lon":5.36556,"is_reserved":false,"is_disabled":false,"rental_uris":{"android":"levelo://app?vid=7fa935a2-6c32-4761-99d9-a4efcda5c379","ios":"levelo://app?vid=7fa935a2-6c32-4761-99d9-a4efcda5c379"},"vehicle_type_id":"4","last_reported":1744556950,"current_range_meters":19600,"station_id":"ce4bgs12rcd13ifvqcag","pricing_plan_id":"cebpf4jnsgd1na2vs0mg"},{"bike_id":"fb13c941-1858-46a4-86ad-2a5e302996c3","system_id":"levelo_inurba_marseille","lat":43.25861,"lon":5.39904,"is_reserved":false,"is_disabled":true,"rental_uris":{"android":"levelo://app?vid=fb13c941-1858-46a4-86ad-2a5e302996c3","ios":"levelo://app?vid=fb13c941-1858-46a4-86ad-2a5e302996c3"},"vehicle_type_id":"4","last_reported":1744556950,"current_range_meters":19600,"station_id":"ce4bhl92rcd13ifvqghg","pricing_plan_id":"cebpf4jnsgd1na2vs0mg"},{"bike_id":"4fda6bcf-47b7-4fcc-8c5e-0db67d55de89","system_id":"levelo_inurba_marseille","lat":43.297363,"lon":5.362851,"is_reserved":false,"is_disabled":false,"rental_uris":{"android":"levelo://app?vid=4fda6bcf-47b7-4fcc-8c5e-0db67d55de89","ios":"levelo://app?vid=4fda6bcf-47b7-4fcc-8c5e-0db67d55de89"},"vehicle_type_id":"4","last_reported":1744556950,"current_range_meters":19600,"station_id":"ce4bgpp2rcd13ifvqc3g","pricing_plan_id":"cebpf4jnsgd1na2vs0mg"},{"bike_id":"bc83c55f-b42a-4a99-8810-f14265e4b009","system_id":"levelo_inurba_marseille","lat":43.30793,"lon":5.37642,"is_reserved":false,"is_disabled":false,"rental_uris":{"android":"levelo://app?vid=bc83c55f-b42a-4a99-8810-f14265e4b009","ios":"levelo://app?vid=bc83c55f-b42a-4a99-8810-f14265e4b009"},"vehicle_type_id":"4","last_reported":1744556950,"current_range_meters":19200,"station_id":"ce4bgv92rcd13ifvqcq0","pricing_plan_id":"cebpf4jnsgd1na2vs0mg"},{"bike_id":"b13a3dc4-72f0-4917-9f1f-d4af0619a7d4","system_id":"levelo_inurba_marseille","lat":43.30304,"lon":5.39201,"is_reserved":false,"is_disabled":false,"rental_uris":{"android":"levelo://app?vid=b13a3dc4-72f0-4917-9f1f-d4af0619a7d4","ios":"levelo://app?vid=b13a3dc4-72f0-4917-9f1f-d4af0619a7d4"},"vehicle_type_id":"4","last_reported":1744556950,"current_range_meters":19600,"station_id":"ce4bgkh2rcd13ifvqbk0","pricing_plan_id":"cebpf4jnsgd1na2vs0mg"},{"bike_id":"88b26b4d-ac87-4ee6-8baa-1f2bc352ff44","system_id":"levelo_inurba_marseille","lat":43.27903,"lon":5.38015,"is_reserved":false,"is_disabled":false,"rental_uris":{"android":"levelo://app?vid=88b26b4d-ac87-4ee6-8baa-1f2bc352ff44","ios":"levelo://app?vid=88b26b4d-ac87-4ee6-8baa-1f2bc352ff44"},"vehicle_type_id":"4","last_reported":1744556950,"current_range_meters":19600,"station_id":"ce4bhf92rcd13ifvqf50","pricing_plan_id":"cebpf4jnsgd1na2vs0mg"},{"bike_id":"42c9be30-96b6-455b-a4cf-6c7730925bcf","system_id":"levelo_inurba_marseille","lat":43.30377,"lon":5.42497,"is_reserved":false,"is_disabled":false,"rental_uris":{"android":"levelo://app?vid=42c9be30-96b6-455b-a4cf-6c7730925bcf","ios":"levelo://app?vid=42c9be30-96b6-455b-a4cf-6c7730925bcf"},"vehicle_type_id":"4","last_reported":1744556950,"current_range_meters":19600,"station_id":"ce4bhoh2rcd13ifvqh6g","pricing_plan_id":"cebpf4jnsgd1na2vs0mg"},{"bike_id":"b456b85c-8928-4a5a-9171-1132c2572ebe","system_id":"levelo_inurba_marseille","lat":43.26793,"lon":5.40254,"is_reserved":false,"is_disabled":false,"rental_uris":{"android":"levelo://app?vid=b456b85c-8928-4a5a-9171-1132c2572ebe","ios":"levelo://app?vid=b456b85c-8928-4a5a-9171-1132c2572ebe"},"vehicle_type_id":"4","last_reported":1744556950,"current_range_meters":20000,"station_id":"ce501612rcd8frsf0b60","pricing_plan_id":"cebpf4jnsgd1na2vs0mg"},{"bike_id":"c718959b-bf62-436d-bb8e-6cf66a3f9056","system_id":"levelo_inurba_marseille","lat":43.2804,"lon":5.36949,"is_reserved":false,"is_disabled":false,"rental_uris":{"android":"levelo://app?vid=c718959b-bf62-436d-bb8e-6cf66a3f9056","ios":"levelo://app?vid=c718959b-bf62-436d-bb8e-6cf66a3f9056"},"vehicle_type_id":"4","last_reported":1744556950,"current_range_meters":20000,"station_id":"ce4bha12rcd13ifvqef0","pricing_plan_id":"cebpf4jnsgd1na2vs0mg"},{"bike_id":"407a54c4-ce42-4e1a-bc9b-9b8f2ef8a27a","system_id":"levelo_inurba_marseille","lat":43.32413,"lon":5.39122,"is_reserved":false,"is_disabled":false,"rental_uris":{"android":"levelo://app?vid=407a54c4-ce42-4e1a-bc9b-9b8f2ef8a27a","ios":"levelo://app?vid=407a54c4-ce42-4e1a-bc9b-9b8f2ef8a27a"},"vehicle_type_id":"4","last_reported":1744556950,"current_range_meters":20000,"station_id":"","pricing_plan_id":"cebpf4jnsgd1na2vs0mg"},{"bike_id":"95794a80-c801-4e52-8c9a-bbef0170c8f2","system_id":"levelo_inurba_marseille","lat":43.24817,"lon":5.37456,"is_reserved":false,"is_disabled":false,"rental_uris":{"android":"levelo://app?vid=95794a80-c801-4e52-8c9a-bbef0170c8f2","ios":"levelo://app?vid=95794a80-c801-4e52-8c9a-bbef0170c8f2"},"vehicle_type_id":"4","last_reported":1744556950,"current_range_meters":20000,"station_id":"ce4bhgh2rcd13ifvqfb0","pricing_plan_id":"cebpf4jnsgd1na2vs0mg"},{"bike_id":"626065a0-5dba-4dd3-94f8-76bb3800d58f","system_id":"levelo_inurba_marseille","lat":43.25721,"lon":5.41108,"is_reserved":false,"is_disabled":false,"rental_uris":{"android":"levelo://app?vid=626065a0-5dba-4dd3-94f8-76bb3800d58f","ios":"levelo://app?vid=626065a0-5dba-4dd3-94f8-76bb3800d58f"},"vehicle_type_id":"4","last_reported":1744556950,"current_range_meters":20000,"station_id":"ce4bhkp2rcd13ifvqgd0","pricing_plan_id":"cebpf4jnsgd1na2vs0mg"},{"bike_id":"56135a82-d19f-45ea-a72c-58b1131d0fcb","system_id":"levelo_inurba_marseille","lat":43.280834,"lon":5.396653,"is_reserved":false,"is_disabled":true,"rental_uris":{"android":"levelo://app?vid=56135a82-d19f-45ea-a72c-58b1131d0fcb","ios":"levelo://app?vid=56135a82-d19f-45ea-a72c-58b1131d0fcb"},"vehicle_type_id":"4","last_reported":1744556950,"current_range_meters":20000,"station_id":"ce4bho12rcd13ifvqh2g","pricing_plan_id":"cebpf4jnsgd1na2vs0mg"},{"bike_id":"7cba4596-790d-4e15-b64d-8100dc212bd5","system_id":"levelo_inurba_marseille","lat":43.320255,"lon":5.383092,"is_reserved":false,"is_disabled":false,"rental_uris":{"android":"levelo://app?vid=7cba4596-790d-4e15-b64d-8100dc212bd5","ios":"levelo://app?vid=7cba4596-790d-4e15-b64d-8100dc212bd5"},"vehicle_type_id":"4","last_reported":1744556950,"current_range_meters":20000,"station_id":"ce4bhr12rcd13ifvqhqg","pricing_plan_id":"cebpf4jnsgd1na2vs0mg"},{"bike_id":"a818834f-725d-4dbb-9bab-d3518b1b13c4","system_id":"levelo_inurba_marseille","lat":43.32306,"lon":5.36617,"is_reserved":false,"is_disabled":false,"rental_uris":{"android":"levelo://app?vid=a818834f-725d-4dbb-9bab-d3518b1b13c4","ios":"levelo://app?vid=a818834f-725d-4dbb-9bab-d3518b1b13c4"},"vehicle_type_id":"4","last_reported":1744556950,"current_range_meters":20400,"station_id":"ce4bhsh2rcd13ifvqi2g","pricing_plan_id":"cebpf4jnsgd1na2vs0mg"},{"bike_id":"9ec32510-85fd-4ca1-b0df-f103e7bd2451","system_id":"levelo_inurba_marseille","lat":43.25769,"lon":5.41135,"is_reserved":false,"is_disabled":false,"rental_uris":{"android":"levelo://app?vid=9ec32510-85fd-4ca1-b0df-f103e7bd2451","ios":"levelo://app?vid=9ec32510-85fd-4ca1-b0df-f103e7bd2451"},"vehicle_type_id":"4","last_reported":1744556950,"current_range_meters":20400,"station_id":"","pricing_plan_id":"cebpf4jnsgd1na2vs0mg"},{"bike_id":"08e69920-6699-44a2-bf5e-065531bec167","system_id":"levelo_inurba_marseille","lat":43.29281,"lon":5.40175,"is_reserved":false,"is_disabled":true,"rental_uris":{"android":"levelo://app?vid=08e69920-6699-44a2-bf5e-065531bec167","ios":"levelo://app?vid=08e69920-6699-44a2-bf5e-065531bec167"},"vehicle_type_id":"4","last_reported":1744556950,"current_range_meters":20400,"station_id":"ce4bh312rcd13ifvqdk0","pricing_plan_id":"cebpf4jnsgd1na2vs0mg"},{"bike_id":"2feb3e45-ff33-43cf-b0fa-04f4891675e9","system_id":"levelo_inurba_marseille","lat":43.314189,"lon":5.373783,"is_reserved":false,"is_disabled":false,"rental_uris":{"android":"levelo://app?vid=2feb3e45-ff33-43cf-b0fa-04f4891675e9","ios":"levelo://app?vid=2feb3e45-ff33-43cf-b0fa-04f4891675e9"},"vehicle_type_id":"4","last_reported":1744556950,"current_range_meters":20400,"station_id":"ce4bgt12rcd13ifvqcd0","pricing_plan_id":"cebpf4jnsgd1na2vs0mg"},{"bike_id":"22c20bf5-70f5-4946-8fd0-28f160d0605f","system_id":"levelo_inurba_marseille","lat":43.29532,"lon":5.38544,"is_reserved":false,"is_disabled":false,"rental_uris":{"android":"levelo://app?vid=22c20bf5-70f5-4946-8fd0-28f160d0605f","ios":"levelo://app?vid=22c20bf5-70f5-4946-8fd0-28f160d0605f"},"vehicle_type_id":"4","last_reported":1744556950,"current_range_meters":20800,"station_id":"ce4bgih2rcd13ifvqba0","pricing_plan_id":"cebpf4jnsgd1na2vs0mg"},{"bike_id":"7c81d9b6-a44d-42e5-b1a0-5b32ef0e4e6a","system_id":"levelo_inurba_marseille","lat":43.28614,"lon":5.35105,"is_reserved":false,"is_disabled":false,"rental_uris":{"android":"levelo://app?vid=7c81d9b6-a44d-42e5-b1a0-5b32ef0e4e6a","ios":"levelo://app?vid=7c81d9b6-a44d-42e5-b1a0-5b32ef0e4e6a"},"vehicle_type_id":"4","last_reported":1744556950,"current_range_meters":20800,"station_id":"ce4bhch2rcd13ifvqeug","pricing_plan_id":"cebpf4jnsgd1na2vs0mg"},{"bike_id":"9ccaf1e8-d14c-4218-be36-430bac425c11","system_id":"levelo_inurba_marseille","lat":43.30631,"lon":5.39366,"is_reserved":false,"is_disabled":true,"rental_uris":{"android":"levelo://app?vid=9ccaf1e8-d14c-4218-be36-430bac425c11","ios":"levelo://app?vid=9ccaf1e8-d14c-4218-be36-430bac425c11"},"vehicle_type_id":"4","last_reported":1744556950,"current_range_meters":21600,"station_id":"ce4bh0p2rcd13ifvqd80","pricing_plan_id":"cebpf4jnsgd1na2vs0mg"},{"bike_id":"86c06b03-5d3d-487a-bec3-c7d20381f28b","system_id":"levelo_inurba_marseille","lat":43.29036,"lon":5.38148,"is_reserved":false,"is_disabled":true,"rental_uris":{"android":"levelo://app?vid=86c06b03-5d3d-487a-bec3-c7d20381f28b","ios":"levelo://app?vid=86c06b03-5d3d-487a-bec3-c7d20381f28b"},"vehicle_type_id":"4","last_reported":1744556950,"current_range_meters":21600,"station_id":"ce4bh4p2rcd13ifvqe1g","pricing_plan_id":"cebpf4jnsgd1na2vs0mg"},{"bike_id":"86507adb-43c1-4a89-acc7-c74cd80a099f","system_id":"levelo_inurba_marseille","lat":43.23123,"lon":5.36672,"is_reserved":false,"is_disabled":false,"rental_uris":{"android":"levelo://app?vid=86507adb-43c1-4a89-acc7-c74cd80a099f","ios":"levelo://app?vid=86507adb-43c1-4a89-acc7-c74cd80a099f"},"vehicle_type_id":"4","last_reported":1744556950,"current_range_meters":21600,"station_id":"","pricing_plan_id":"cebpf4jnsgd1na2vs0mg"},{"bike_id":"205a676e-388e-4b5d-b5d4-92bca6b76c07","system_id":"levelo_inurba_marseille","lat":43.31162,"lon":5.37991,"is_reserved":false,"is_disabled":false,"rental_uris":{"android":"levelo://app?vid=205a676e-388e-4b5d-b5d4-92bca6b76c07","ios":"levelo://app?vid=205a676e-388e-4b5d-b5d4-92bca6b76c07"},"vehicle_type_id":"4","last_reported":1744556950,"current_range_meters":21600,"station_id":"","pricing_plan_id":"cebpf4jnsgd1na2vs0mg"},{"bike_id":"16804fc3-54db-498d-9d1c-2833b9eba208","system_id":"levelo_inurba_marseille","lat":43.27211,"lon":5.39172,"is_reserved":false,"is_disabled":false,"rental_uris":{"android":"levelo://app?vid=16804fc3-54db-498d-9d1c-2833b9eba208","ios":"levelo://app?vid=16804fc3-54db-498d-9d1c-2833b9eba208"},"vehicle_type_id":"4","last_reported":1744556950,"current_range_meters":21600,"station_id":"ce4bhhp2rcd13ifvqfm0","pricing_plan_id":"cebpf4jnsgd1na2vs0mg"},