{"last_updated":1745897470,"ttl":60,"version":"2.2","data":{"bikes":[{"bike_id":"5c634152-8612-498f-bc6f-93b4d5da1eff","system_id":"levelo_inurba_marseille","lat":43.28021,"lon":5.3694,"is_reserved":false,"is_disabled":false,"rental_uris":{"android":"levelo://app?vid=5c634152-8612-498f-bc6f-93b4d5da1eff","ios":"levelo://app?vid=5c634152-8612-498f-bc6f-93b4d5da1eff"},"vehicle_type_id":"4","last_reported":1745897470,"current_range_meters":2800,"station_id":"ce4bha12rcd13ifvqef0","pricing_plan_id":"cebpf4jnsgd1na2vs0mg"},{"bike_id":"d9cd1294-5d0b-43d3-9258-deda946961d1","system_id":"levelo_inurba_marseille","lat":43.22496,"lon":5.34791,"is_reserved":false,"is_disabled":true,"rental_uris":{"android":"levelo://app?vid=d9cd1294-5d0b-43d3-9258-deda946961d1","ios":"levelo://app?vid=d9cd1294-5d0b-43d3-9258-deda946961d1"},"vehicle_type_id":"4","last_reported":1745897470,"current_range_meters":3200,"station_id":"st_cvj5dfep6f1abm77gieg","pricing_plan_id":"cebpf4jnsgd1na2vs0mg"},{"bike_id":"eabc659d-49bd-4061-af98-20052a80f1d8","system_id":"levelo_inurba_marseille","lat":43.24653,"lon":5.38177,"is_reserved":false,"is_disabled":false,"rental_uris":{"android":"levelo://app?vid=eabc659d-49bd-4061-af98-20052a80f1d8","ios":"levelo://app?vid=eabc659d-49bd-4061-af98-20052a80f1d8"},"vehicle_type_id":"4","last_reported":1745897470,"current_range_meters":3200,"station_id":"ce4bhih2rcd13ifvqfr0","pricing_plan_id":"cebpf4jnsgd1na2vs0mg"},{"bike_id":"ef5a622e-aa0a-4359-b3fd-ef466748c455","system_id":"levelo_inurba_marseille","lat":43.231897,"lon":5.355561,"is_reserved":false,"is_disabled":false,"rental_uris":{"android":"levelo://app?vid=ef5a622e-aa0a-4359-b3fd-ef466748c455","ios":"levelo://app?vid=ef5a622e-aa0a-4359-b3fd-ef466748c455"},"vehicle_type_id":"4","last_reported":1745897470,"current_range_meters":3200,"station_id":"ce4bhu92rcd13ifvqi70","pricing_plan_id":"cebpf4jnsgd1na2vs0mg"},{"bike_id":"51b53575-57df-4abd-8822-9c96772390fb","system_id":"levelo_inurba_marseille","lat":43.26556,"lon":5.37301,"is_reserved":false,"is_disabled":false,"rental_uris":{"android":"levelo://app?vid=51b53575-57df-4abd-8822-9c96772390fb","ios":"levelo://app?vid=51b53575-57df-4abd-8822-9c96772390fb"},"vehicle_type_id":"4","last_reported":1745897470,"current_range_meters":3600,"station_id":"ce4bhg12rcd13ifvqf70","pricing_plan_id":"cebpf4jnsgd1na2vs0mg"},{"bike_id":"cbec0076-95d0-4f8f-8339-66de29997492","system_id":"levelo_inurba_marseille","lat":43.255735,"lon":5.382281,"is_reserved":false,"is_disabled":false,"rental_uris":{"android":"levelo://app?vid=cbec0076-95d0-4f8f-8339-66de29997492","ios":"levelo://app?vid=cbec0076-95d0-4f8f-8339-66de29997492"},"vehicle_type_id":"4","last_reported":1745897470,"current_range_meters":3600,"station_id":"ce4bhih2rcd13ifvqfs0","pricing_plan_id":"cebpf4jnsgd1na2vs0mg"},{"bike_id":"476d5457-f8ed-4790-ba4f-941ab585cf7b","system_id":"levelo_inurba_marseille","lat":43.2656,"lon":5.372816,"is_reserved":false,"is_disabled":false,"rental_uris":{"android":"levelo://app?vid=476d5457-f8ed-4790-ba4f-941ab585cf7b","ios":"levelo://app?vid=476d5457-f8ed-4790-ba4f-941ab585cf7b"},"vehicle_type_id":"4","last_reported":1745897470,"current_range_meters":3600,"station_id":"ce4bhg12rcd13ifvqf70","pricing_plan_id":"cebpf4jnsgd1na2vs0mg"},{"bike_id":"8ae79fb7-0582-444e-8dab-1d22e31e0f2e","system_id":"levelo_inurba_marseille","lat":43.23953,"lon":5.3663,"is_reserved":false,"is_disabled":false,"rental_uris":{"android":"levelo://app?vid=8ae79fb7-0582-444e-8dab-1d22e31e0f2e","ios":"levelo://app?vid=8ae79fb7-0582-444e-8dab-1d22e31e0f2e"},"vehicle_type_id":"4","last_reported":1745897470,"current_range_meters":4400,"station_id":"ce4bhi12rcd13ifvqfp0","pricing_plan_id":"cebpf4jnsgd1na2vs0mg"},{"bike_id":"4bedb4d8-0071-4dfb-a08a-28b6cf93bd3f","system_id":"levelo_inurba_marseille","lat":43.30443,"lon":5.388994,"is_reserved":false,"is_disabled":true,"rental_uris":{"android":"levelo://app?vid=4bedb4d8-0071-4dfb-a08a-28b6cf93bd3f","ios":"levelo://app?vid=4bedb4d8-0071-4dfb-a08a-28b6cf93bd3f"},"vehicle_type_id":"4","last_reported":1745897470,"current_range_meters":4000,"station_id":"ce4bgk12rcd13ifvqbi0","pricing_plan_id":"cebpf4jnsgd1na2vs0mg"},{"bike_id":"5cf37c7e-c3ed-4a02-b872-ba1b00adc3b4","system_id":"levelo_inurba_marseille","lat":43.24654,"lon":5.38927,"is_reserved":false,"is_disabled":false,"rental_uris":{"android":"levelo://app?vid=5cf37c7e-c3ed-4a02-b872-ba1b00adc3b4","ios":"levelo://app?vid=5cf37c7e-c3ed-4a02-b872-ba1b00adc3b4"},"vehicle_type_id":"4","last_reported":1745897470,"current_range_meters":4400,"station_id":"ce4bhg12rcd13ifvqf60","pricing_plan_id":"cebpf4jnsgd1na2vs0mg"},{"bike_id":"61ffaa74-f23c-450f-a9ee-eb45d749f9a5","system_id":"levelo_inurba_marseille","lat":43.24659,"lon":5.3816,"is_reserved":false,"is_disabled":false,"rental_uris":{"android":"levelo://app?vid=61ffaa74-f23c-450f-a9ee-eb45d749f9a5","ios":"levelo://app?vid=61ffaa74-f23c-450f-a9ee-eb45d749f9a5"},"vehicle_type_id":"4","last_reported":1745897470,"current_range_meters":4400,"station_id":"ce4bhih2rcd13ifvqfr0","pricing_plan_id":"cebpf4jnsgd1na2vs0mg"},{"bike_id":"59ca24f2-2a70-4347-b369-ba9243e29662","system_id":"levelo_inurba_marseille","lat":43.3073,"lon":5.424384,"is_reserved":false,"is_disabled":false,"rental_uris":{"android":"levelo://app?vid=59ca24f2-2a70-4347-b369-ba9243e29662","ios":"levelo://app?vid=59ca24f2-2a70-4347-b369-ba9243e29662"},"vehicle_type_id":"4","last_reported":1745897470,"current_range_meters":4800,"station_id":"st_cvj6ca6bvosntc0bfgr0","pricing_plan_id":"cebpf4jnsgd1na2vs0mg"},{"bike_id":"1db14274-463d-4180-bece-00dba6656848","system_id":"levelo_inurba_marseille","lat":43.239617,"lon":5.366279,"is_reserved":false,"is_disabled":false,"rental_uris":{"android":"levelo://app?vid=1db14274-463d-4180-bece-00dba6656848","ios":"levelo://app?vid=1db14274-463d-4180-bece-00dba6656848"},"vehicle_type_id":"4","last_reported":1745897470,"current_range_meters":5600,"station_id":"ce4bhi12rcd13ifvqfp0","pricing_plan_id":"cebpf4jnsgd1na2vs0mg"},{"bike_id":"2170e8a2-0b50-454a-a8c3-90edc68a4e7f","system_id":"levelo_inurba_marseille","lat":43.2292,"lon":5.35399,"is_reserved":false,"is_disabled":false,"rental_uris":{"android":"levelo://app?vid=2170e8a2-0b50-454a-a8c3-90edc68a4e7f","ios":"levelo://app?vid=2170e8a2-0b50-454a-a8c3-90edc68a4e7f"},"vehicle_type_id":"4","last_reported":1745897470,"current_range_meters":6000,"station_id":"cpo3532slgdg3j2ikp40","pricing_plan_id":"cebpf4jnsgd1na2vs0mg"},{"bike_id":"59f6b8a5-9a4d-4f93-882c-fa6684eb7537","system_id":"levelo_inurba_marseille","lat":43.27675,"lon":5.38914,"is_reserved":false,"is_disabled":true,"rental_uris":{"android":"levelo://app?vid=59f6b8a5-9a4d-4f93-882c-fa6684eb7537","ios":"levelo://app?vid=59f6b8a5-9a4d-4f93-882c-fa6684eb7537"},"vehicle_type_id":"4","last_reported":1745897470,"current_range_meters":6400,"station_id":"ce4bhi12rcd13ifvqfo0","pricing_plan_id":"cebpf4jnsgd1na2vs0mg"},{"bike_id":"4141a4ac-c499-4bea-ac60-899e617d90d3","system_id":"levelo_inurba_marseille","lat":43.243922,"lon":5.370629,"is_reserved":false,"is_disabled":false,"rental_uris":{"android":"levelo://app?vid=4141a4ac-c499-4bea-ac60-899e617d90d3","ios":"levelo://app?vid=4141a4ac-c499-4bea-ac60-899e617d90d3"},"vehicle_type_id":"4","last_reported":1745897470,"current_range_meters":6400,"station_id":"ce4bhhh2rcd13ifvqfk0","pricing_plan_id":"cebpf4jnsgd1na2vs0mg"},{"bike_id":"a4c8a335-745b-4d95-97e0-7bac3cb18549","system_id":"levelo_inurba_marseille","lat":43.28095,"lon":5.39881,"is_reserved":false,"is_disabled":false,"rental_uris":{"android":"levelo://app?vid=a4c8a335-745b-4d95-97e0-7bac3cb18549","ios":"levelo://app?vid=a4c8a335-745b-4d95-97e0-7bac3cb18549"},"vehicle_type_id":"4","last_reported":1745897470,"current_range_meters":6400,"station_id":"","pricing_plan_id":"cebpf4jnsgd1na2vs0mg"},{"bike_id":"06b5ace7-f5f7-4090-82a9-b0bedb4f32f3","system_id":"levelo_inurba_marseille","lat":43.27197,"lon":5.40973,"is_reserved":false,"is_disabled":false,"rental_uris":{"android":"levelo://app?vid=06b5ace7-f5f7-4090-82a9-b0bedb4f32f3","ios":"levelo://app?vid=06b5ace7-f5f7-4090-82a9-b0bedb4f32f3"},"vehicle_type_id":"4","last_reported":1745897470,"current_range_meters":6800,"station_id":"ce4bhl12rcd13ifvqgf0","pricing_plan_id":"cebpf4jnsgd1na2vs0mg"},{"bike_id":"aec336d6-9939-4bb1-9969-16430941df15","system_id":"levelo_inurba_marseille","lat":43.279169,"lon":5.39582,"is_reserved":false,"is_disabled":false,"rental_uris":{"android":"levelo://app?vid=aec336d6-9939-4bb1-9969-16430941df15","ios":"levelo://app?vid=aec336d6-9939-4bb1-9969-16430941df15"},"vehicle_type_id":"4","last_reported":1745897470,"current_range_meters":6800,"station_id":"ce4bhf92rcd13ifvqf40","pricing_plan_id":"cebpf4jnsgd1na2vs0mg"},{"bike_id":"caa3c169-4893-4207-a47b-db2543c3e67f","system_id":"levelo_inurba_marseille","lat":43.27805,"lon":5.39215,"is_reserved":false,"is_disabled":false,"rental_uris":{"android":"levelo://app?vid=caa3c169-4893-4207-a47b-db2543c3e67f","ios":"levelo://app?vid=caa3c169-4893-4207-a47b-db2543c3e67f"},"vehicle_type_id":"4","last_reported":1745897470,"current_range_meters":7200,"station_id":"ce4bhjp2rcd13ifvqga0","pricing_plan_id":"cebpf4jnsgd1na2vs0mg"},{"bike_id":"c6b81f33-8a4a-4d90-9b7a-b61623090b82","system_id":"levelo_inurba_marseille","lat":43.24365,"lon":5.37079,"is_reserved":false,"is_disabled":false,"rental_uris":{"android":"levelo://app?vid=c6b81f33-8a4a-4d90-9b7a-b61623090b82","ios":"levelo://app?vid=c6b81f33-8a4a-4d90-9b7a-b61623090b82"},"vehicle_type_id":"4","last_reported":1745897470,"current_range_meters":7200,"station_id":"ce4bhhh2rcd13ifvqfk0","pricing_plan_id":"cebpf4jnsgd1na2vs0mg"},{"bike_id":"c9a86ac7-7b19-40e0-8204-2ba2f18392ef","system_id":"levelo_inurba_marseille","lat":43.298635,"lon":5.397258,"is_reserved":false,"is_disabled":true,"rental_uris":{"android":"levelo://app?vid=c9a86ac7-7b19-40e0-8204-2ba2f18392ef","ios":"levelo://app?vid=c9a86ac7-7b19-40e0-8204-2ba2f18392ef"},"vehicle_type_id":"4","last_reported":1745897470,"current_range_meters":7200,"station_id":"","pricing_plan_id":"cebpf4jnsgd1na2vs0mg"},{"bike_id":"679a1104-bb2f-4313-81ae-490e909d7dd6","system_id":"levelo_inurba_marseille","lat":43.296016,"lon":5.377033,"is_reserved":false,"is_disabled":true,"rental_uris":{"android":"levelo://app?vid=679a1104-bb2f-4313-81ae-490e909d7dd6","ios":"levelo://app?vid=679a1104-bb2f-4313-81ae-490e909d7dd6"},"vehicle_type_id":"4","last_reported":1745897470,"current_range_meters":7200,"station_id":"ce4bgi92rcd13ifvqb90","pricing_plan_id":"cebpf4jnsgd1na2vs0mg"},{"bike_id":"26deac1f-c435-40bc-9469-9ae0b266bb77","system_id":"levelo_inurba_marseille","lat":43.30182,"lon":5.38527,"is_reserved":false,"is_disabled":false,"rental_uris":{"android":"levelo://app?vid=26deac1f-c435-40bc-9469-9ae0b266bb77","ios":"levelo://app?vid=26deac1f-c435-40bc-9469-9ae0b266bb77"},"vehicle_type_id":"4","last_reported":1745897470,"current_range_meters":7200,"station_id":"","pricing_plan_id":"cebpf4jnsgd1na2vs0mg"},{"bike_id":"a927ad15-b129-4085-9072-8cc54f2c8cf2","system_id":"levelo_inurba_marseille","lat":43.321051,"lon":5.367841,"is_reserved":false,"is_disabled":false,"rental_uris":{"android":"levelo://app?vid=a927ad15-b129-4085-9072-8cc54f2c8cf2","ios":"levelo://app?vid=a927ad15-b129-4085-9072-8cc54f2c8cf2"},"vehicle_type_id":"4","last_reported":1745897470,"current_range_meters":7200,"station_id":"ce4bhrh2rcd13ifvqhug","pricing_plan_id":"cebpf4jnsgd1na2vs0mg"},{"bike_id":"af4f0c69-e62d-4155-b1d1-a67b45271ae1","system_id":"levelo_inurba_marseille","lat":43.247251,"lon":5.411805,"is_reserved":false,"is_disabled":false,"rental_uris":{"android":"levelo://app?vid=af4f0c69-e62d-4155-b1d1-a67b45271ae1","ios":"levelo://app?vid=af4f0c69-e62d-4155-b1d1-a67b45271ae1"},"vehicle_type_id":"4","last_reported":1745897470,"current_range_meters":8000,"station_id":"","pricing_plan_id":"cebpf4jnsgd1na2vs0mg"},{"bike_id":"37462fd3-bd44-40e0-8a59-f04677802edf","system_id":"levelo_inurba_marseille","lat":43.24695,"lon":5.38134,"is_reserved":false,"is_disabled":false,"rental_uris":{"android":"levelo://app?vid=37462fd3-bd44-40e0-8a59-f04677802edf","ios":"levelo://app?vid=37462fd3-bd44-40e0-8a59-f04677802edf"},"vehicle_type_id":"4","last_reported":1745897470,"current_range_meters":8000,"station_id":"ce4bhih2rcd13ifvqfr0","pricing_plan_id":"cebpf4jnsgd1na2vs0mg"},{"bike_id":"57a41005-dba4-4995-a65d-3cc07a95ba9a","system_id":"levelo_inurba_marseille","lat":43.30204,"lon":5.39458,"is_reserved":false,"is_disabled":true,"rental_uris":{"android":"levelo://app?vid=57a41005-dba4-4995-a65d-3cc07a95ba9a","ios":"levelo://app?vid=57a41005-dba4-4995-a65d-3cc07a95ba9a"},"vehicle_type_id":"4","last_reported":1745897470,"current_range_meters":8000,"station_id":"ce4bh0p2rcd13ifvqd70","pricing_plan_id":"cebpf4jnsgd1na2vs0mg"},{"bike_id":"1f60866e-1eaf-44dc-8e9a-4dca75cf6c04","system_id":"levelo_inurba_marseille","lat":43.323586,"lon":5.388861,"is_reserved":false,"is_disabled":false,"rental_uris":{"android":"levelo://app?vid=1f60866e-1eaf-44dc-8e9a-4dca75cf6c04","ios":"levelo://app?vid=1f60866e-1eaf-44dc-8e9a-4dca75cf6c04"},"vehicle_type_id":"4","last_reported":1745897470,"current_range_meters":8000,"station_id":"ce4bhqp2rcd13ifvqhog","pricing_plan_id":"cebpf4jnsgd1na2vs0mg"},{"bike_id":"32eca611-111c-4689-bb0d-8c20e0341828","system_id":"levelo_inurba_marseille","lat":43.255786,"lon":5.38231,"is_reserved":false,"is_disabled":false,"rental_uris":{"android":"levelo://app?vid=32eca611-111c-4689-bb0d-8c20e0341828","ios":"levelo://app?vid=32eca611-111c-4689-bb0d-8c20e0341828"},"vehicle_type_id":"4","last_reported":1745897470,"current_range_meters":8400,"station_id":"ce4bhih2rcd13ifvqfs0","pricing_plan_id":"cebpf4jnsgd1na2vs0mg"},{"bike_id":"a60f666b-e5da-4a0d-b43e-0df9b2e5a2ac","system_id":"levelo_inurba_marseille","lat":43.25545,"lon":5.38259,"is_reserved":false,"is_disabled":false,"rental_uris":{"android":"levelo://app?vid=a60f666b-e5da-4a0d-b43e-0df9b2e5a2ac","ios":"levelo://app?vid=a60f666b-e5da-4a0d-b43e-0df9b2e5a2ac"},"vehicle_type_id":"4","last_reported":1745897470,"current_range_meters":8400,"station_id":"ce4bhih2rcd13ifvqfs0","pricing_plan_id":"cebpf4jnsgd1na2vs0mg"},{"bike_id":"e6d77530-cec4-4eb5-8c74-cac47d4adfa9","system_id":"levelo_inurba_marseille","lat":43.2793,"lon":5.41058,"is_reserved":false,"is_disabled":false,"rental_uris":{"android":"levelo://app?vid=e6d77530-cec4-4eb5-8c74-cac47d4adfa9","ios":"levelo://app?vid=e6d77530-cec4-4eb5-8c74-cac47d4adfa9"},"vehicle_type_id":"4","last_reported":1745897470,"current_range_meters":8400,"station_id":"ce4bhnp2rcd13ifvqh0g","pricing_plan_id":"cebpf4jnsgd1na2vs0mg"},{"bike_id":"a7163810-2fee-4f07-bc17-d96aabf9a498","system_id":"levelo_inurba_marseille","lat":43.308,"lon":5.43538,"is_reserved":false,"is_disabled":false,"rental_uris":{"android":"levelo://app?vid=a7163810-2fee-4f07-bc17-d96aabf9a498","ios":"levelo://app?vid=a7163810-2fee-4f07-bc17-d96aabf9a498"},"vehicle_type_id":"4","last_reported":1745897470,"current_range_meters":8400,"station_id":"ce4bhph2rcd13ifvqheg","pricing_plan_id":"cebpf4jnsgd1na2vs0mg"},{"bike_id":"114074cb-6bca-4123-b1e8-66d0b2aadd4b","system_id":"levelo_inurba_marseille","lat":43.29502,"lon":5.39411,"is_reserved":false,"is_disabled":false,"rental_uris":{"android":"levelo://app?vid=114074cb-6bca-4123-b1e8-66d0b2aadd4b","ios":"levelo://app?vid=114074cb-6bca-4123-b1e8-66d0b2aadd4b"},"vehicle_type_id":"4","last_reported":1745897470,"current_range_meters":9200,"station_id":"ce4bh292rcd13ifvqdf0","pricing_plan_id":"cebpf4jnsgd1na2vs0mg"},{"bike_id":"b9022854-efe3-4bc0-8b29-6580553b1d4b","system_id":"levelo_inurba_marseille","lat":43.269466,"lon":5.402709,"is_reserved":false,"is_disabled":false,"rental_uris":{"android":"levelo://app?vid=b9022854-efe3-4bc0-8b29-6580553b1d4b","ios":"levelo://app?vid=b9022854-efe3-4bc0-8b29-6580553b1d4b"},"vehicle_type_id":"4","last_reported":1745897470,"current_range_meters":8800,"station_id":"cjm6bp8fraef2m0cb0m0","pricing_plan_id":"cebpf4jnsgd1na2vs0mg"},{"bike_id":"1f19ae80-a633-40e2-944b-c9ca822ccc97","system_id":"levelo_inurba_marseille","lat":43.330981,"lon":5.407379,"is_reserved":false,"is_disabled":false,"rental_uris":{"android":"levelo://app?vid=1f19ae80-a633-40e2-944b-c9ca822ccc97","ios":"levelo://app?vid=1f19ae80-a633-40e2-944b-c9ca822ccc97"},"vehicle_type_id":"4","last_reported":1745897470,"current_range_meters":8800,"station_id":"","pricing_plan_id":"cebpf4jnsgd1na2vs0mg"},{"bike_id":"0601db71-6a78-497f-b205-23cf0bd13a21","system_id":"levelo_inurba_marseille","lat":43.276221,"lon":5.361101,"is_reserved":false,"is_disabled":false,"rental_uris":{"android":"levelo://app?vid=0601db71-6a78-497f-b205-23cf0bd13a21","ios":"levelo://app?vid=0601db71-6a78-497f-b205-23cf0bd13a21"},"vehicle_type_id":"4","last_reported":1745897470,"current_range_meters":8800,"station_id":"ce4bgj92rcd13ifvqbe0","pricing_plan_id":"cebpf4jnsgd1na2vs0mg"},{"bike_id":"05145c84-b9e3-47c2-91f6-efba0dd3a65c","system_id":"levelo_inurba_marseille","lat":43.250115,"lon":5.389222,"is_reserved":false,"is_disabled":true,"rental_uris":{"android":"levelo://app?vid=05145c84-b9e3-47c2-91f6-efba0dd3a65c","ios":"levelo://app?vid=05145c84-b9e3-47c2-91f6-efba0dd3a65c"},"vehicle_type_id":"4","last_reported":1745897470,"current_range_meters":8800,"station_id":"ce4bhgp2rcd13ifvqfd0","pricing_plan_id":"cebpf4jnsgd1na2vs0mg"},{"bike_id":"e0fe11ff-3615-47db-8f84-f7a3a3e04b01","system_id":"levelo_inurba_marseille","lat":43.240738,"lon":5.377548,"is_reserved":false,"is_disabled":false,"rental_uris":{"android":"levelo://app?vid=e0fe11ff-3615-47db-8f84-f7a3a3e04b01","ios":"levelo://app?vid=e0fe11ff-3615-47db-8f84-f7a3a3e04b01"},"vehicle_type_id":"4","last_reported":1745897470,"current_range_meters":8800,"station_id":"ce4bhnp2rcd13ifvqgvg","pricing_plan_id":"cebpf4jnsgd1na2vs0mg"},{"bike_id":"25f7b21a-e2b1-4889-9f8f-662577f39d62","system_id":"levelo_inurba_marseille","lat":43.27944,"lon":5.410459,"is_reserved":false,"is_disabled":false,"rental_uris":{"android":"levelo://app?vid=25f7b21a-e2b1-4889-9f8f-662577f39d62","ios":"levelo://app?vid=25f7b21a-e2b1-4889-9f8f-662577f39d62"},"vehicle_type_id":"4","last_reported":1745897470,"current_range_meters":8800,"station_id":"ce4bhnp2rcd13ifvqh0g","pricing_plan_id":"cebpf4jnsgd1na2vs0mg"},{"bike_id":"ce2acb9b-3791-4000-822d-c542d629429b","system_id":"levelo_inurba_marseille","lat":43.26098,"lon":5.41481,"is_reserved":false,"is_disabled":false,"rental_uris":{"android":"levelo://app?vid=ce2acb9b-3791-4000-822d-c542d629429b","ios":"levelo://app?vid=ce2acb9b-3791-4000-822d-c542d629429b"},"vehicle_type_id":"4","last_reported":1745897470,"current_range_meters":9200,"station_id":"","pricing_plan_id":"cebpf4jnsgd1na2vs0mg"},{"bike_id":"ed7e5b95-3704-45ee-bd5f-f228b35ce1a9","system_id":"levelo_inurba_marseille","lat":43.324775,"lon":5.365746,"is_reserved":false,"is_disabled":false,"rental_uris":{"android":"levelo://app?vid=ed7e5b95-3704-45ee-bd5f-f228b35ce1a9","ios":"levelo://app?vid=ed7e5b95-3704-45ee-bd5f-f228b35ce1a9"},"vehicle_type_id":"4","last_reported":1745897470,"current_range_meters":9200,"station_id":"ce4bhs12rcd13ifvqhvg","pricing_plan_id":"cebpf4jnsgd1na2vs0mg"},{"bike_id":"1cf63bd9-d13d-4781-8167-f45afc711709","system_id":"levelo_inurba_marseille","lat":43.262232,"lon":5.404474,"is_reserved":false,"is_disabled":false,"rental_uris":{"android":"levelo://app?vid=1cf63bd9-d13d-4781-8167-f45afc711709","ios":"levelo://app?vid=1cf63bd9-d13d-4781-8167-f45afc711709"},"vehicle_type_id":"4","last_reported":1745897470,"current_range_meters":9200,"station_id":"ce4bhmh2rcd13ifvqgmg","pricing_plan_id":"cebpf4jnsgd1na2vs0mg"},{"bike_id":"20d410f8-8f48-44fc-b81f-a6598afbfddb","system_id":"levelo_inurba_marseille","lat":43.323435,"lon":5.406161,"is_reserved":false,"is_disabled":false,"rental_uris":{"android":"levelo://app?vid=20d410f8-8f48-44fc-b81f-a6598afbfddb","ios":"levelo://app?vid=20d410f8-8f48-44fc-b81f-a6598afbfddb"},"vehicle_type_id":"4","last_reported":1745897470,"current_range_meters":9600,"station_id":"ce4bhq92rcd13ifvqhjg","pricing_plan_id":"cebpf4jnsgd1na2vs0mg"},{"bike_id":"c2380613-1576-47db-9817-a29fad74989f","system_id":"levelo_inurba_marseille","lat":43.292783,"lon":5.401345,"is_reserved":false,"is_disabled":false,"rental_uris":{"android":"levelo://app?vid=c2380613-1576-47db-9817-a29fad74989f","ios":"levelo://app?vid=c2380613-1576-47db-9817-a29fad74989f"},"vehicle_type_id":"4","last_reported":1745897470,"current_range_meters":9600,"station_id":"ce4bh312rcd13ifvqdk0","pricing_plan_id":"cebpf4jnsgd1na2vs0mg"},{"bike_id":"e5b4b90d-e268-4de2-98f4-f6d0513f8801","system_id":"levelo_inurba_marseille","lat":43.265442,"lon":5.422009,"is_reserved":false,"is_disabled":false,"rental_uris":{"android":"levelo://app?vid=e5b4b90d-e268-4de2-98f4-f6d0513f8801","ios":"levelo://app?vid=e5b4b90d-e268-4de2-98f4-f6d0513f8801"},"vehicle_type_id":"4","last_reported":1745897470,"current_range_meters":9600,"station_id":"","pricing_plan_id":"cebpf4jnsgd1na2vs0mg"},{"bike_id":"b9bdb62f-7270-47bb-a192-f7f104501227","system_id":"levelo_inurba_marseille","lat":43.23147,"lon":5.43723,"is_reserved":false,"is_disabled":false,"rental_uris":{"android":"levelo://app?vid=b9bdb62f-7270-47bb-a192-f7f104501227","ios":"levelo://app?vid=b9bdb62f-7270-47bb-a192-f7f104501227"},"vehicle_type_id":"4","last_reported":1745897470,"current_range_meters":10000,"station_id":"ce4bhmp2rcd13ifvqgog","pricing_plan_id":"cebpf4jnsgd1na2vs0mg"},{"bike_id":"86c0598b-4818-471f-9a8b-081ecdc96572","system_id":"levelo_inurba_marseille","lat":43.25566,"lon":5.38247,"is_reserved":false,"is_disabled":false,"rental_uris":{"android":"levelo://app?vid=86c0598b-4818-471f-9a8b-081ecdc96572","ios":"levelo://app?vid=86c0598b-4818-471f-9a8b-081ecdc96572"},"vehicle_type_id":"4","last_reported":1745897470,"current_range_meters":10000,"station_id":"ce4bhih2rcd13ifvqfs0","pricing_plan_id":"cebpf4jnsgd1na2vs0mg"},{"bike_id":"f8527f98-9dba-4767-9c49-2ee5632fd2af","system_id":"levelo_inurba_marseille","lat":43.27796,"lon":5.40721,"is_reserved":false,"is_disabled":true,"rental_uris":{"android":"levelo://app?vid=f8527f98-9dba-4767-9c49-2ee5632fd2af","ios":"levelo://app?vid=f8527f98-9dba-4767-9c49-2ee5632fd2af"},"vehicle_type_id":"4","last_reported":1745897470,"current_range_meters":10000,"station_id":"ce4bhnh2rcd13ifvqgtg","pricing_plan_id":"cebpf4jnsgd1na2vs0mg"},{"bike_id":"3566469e-5adf-4ae7-9fad-25ede3e08c1b","system_id":"levelo_inurba_marseille","lat":43.29226,"lon":5.38477,"is_reserved":false,"is_disabled":true,"rental_uris":{"android":"levelo://app?vid=3566469e-5adf-4ae7-9fad-25ede3e08c1b","ios":"levelo://app?vid=3566469e-5adf-4ae7-9fad-25ede3e08c1b"},"vehicle_type_id":"4","last_reported":1745897470,"current_range_meters":10000,"station_id":"ce4bh692rcd13ifvqea0","pricing_plan_id":"cebpf4jnsgd1na2vs0mg"},{"bike_id":"6242f143-06d6-4fad-bae2-f8138a179039","system_id":"levelo_inurba_marseille","lat":43.262151,"lon":5.40464,"is_reserved":false,"is_disabled":false,"rental_uris":{"android":"levelo://app?vid=6242f143-06d6-4fad-bae2-f8138a179039","ios":"levelo://app?vid=6242f143-06d6-4fad-bae2-f8138a179039"},"vehicle_type_id":"4","last_reported":1745897470,"current_range_meters":10800,"station_id":"ce4bhmh2rcd13ifvqgmg","pricing_plan_id":"cebpf4jnsgd1na2vs0mg"},{"bike_id":"dacbba50-691c-4c1b-8e2b-35e4dc6754f9","system_id":"levelo_inurba_marseille","lat":43.239621,"lon":5.366395,"is_reserved":false,"is_disabled":false,"rental_uris":{"android":"levelo://app?vid=dacbba50-691c-4c1b-8e2b-35e4dc6754f9","ios":"levelo://app?vid=dacbba50-691c-4c1b-8e2b-35e4dc6754f9"},"vehicle_type_id":"4","last_reported":1745897470,"current_range_meters":10800,"station_id":"ce4bhi12rcd13ifvqfp0","pricing_plan_id":"cebpf4jnsgd1na2vs0mg"},{"bike_id":"a6c80b0c-536c-4a45-884f-2e1d125500ab","system_id":"levelo_inurba_marseille","lat":43.22479,"lon":5.34794,"is_reserved":false,"is_disabled":false,"rental_uris":{"android":"levelo://app?vid=a6c80b0c-536c-4a45-884f-2e1d125500ab","ios":"levelo://app?vid=a6c80b0c-536c-4a45-884f-2e1d125500ab"},"vehicle_type_id":"4","last_reported":1745897470,"current_range_meters":11200,"station_id":"st_cvj5dfep6f1abm77gieg","pricing_plan_id":"cebpf4jnsgd1na2vs0mg"},{"bike_id":"4a059a2d-b3a6-4e0b-9fd3-b714abc8d3bb","system_id":"levelo_inurba_marseille","lat":43.31985,"lon":5.3816,"is_reserved":false,"is_disabled":true,"rental_uris":{"android":"levelo://app?vid=4a059a2d-b3a6-4e0b-9fd3-b714abc8d3bb","ios":"levelo://app?vid=4a059a2d-b3a6-4e0b-9fd3-b714abc8d3bb"},"vehicle_type_id":"4","last_reported":1745897470,"current_range_meters":10800,"station_id":"ce4bhr12rcd13ifvqhpg","pricing_plan_id":"cebpf4jnsgd1na2vs0mg"},{"bike_id":"ab4612c3-85f5-4cb4-9ce2-46373d9c1c69","system_id":"levelo_inurba_marseille","lat":43.257966,"lon":5.385871,"is_reserved":false,"is_disabled":false,"rental_uris":{"android":"levelo://app?vid=ab4612c3-85f5-4cb4-9ce2-46373d9c1c69","ios":"levelo://app?vid=ab4612c3-85f5-4cb4-9ce2-46373d9c1c69"},"vehicle_type_id":"4","last_reported":1745897470,"current_range_meters":10800,"station_id":"","pricing_plan_id":"cebpf4jnsgd1na2vs0mg"},{"bike_id":"8cd85716-a509-4766-b987-23098bf3b099","system_id":"levelo_inurba_marseille","lat":43.3133,"lon":5.39691,"is_reserved":false,"is_disabled":false,"rental_uris":{"android":"levelo://app?vid=8cd85716-a509-4766-b987-23098bf3b099","ios":"levelo://app?vid=8cd85716-a509-4766-b987-23098bf3b099"},"vehicle_type_id":"4","last_reported":1745897470,"current_range_meters":10800,"station_id":"ce4bgvp2rcd13ifvqcu0","pricing_plan_id":"cebpf4jnsgd1na2vs0mg"},{"bike_id":"4f33f1fd-20a3-4897-9777-19066388bb99","system_id":"levelo_inurba_marseille","lat":43.299013,"lon":5.382861,"is_reserved":false,"is_disabled":true,"rental_uris":{"android":"levelo://app?vid=4f33f1fd-20a3-4897-9777-19066388bb99","ios":"levelo://app?vid=4f33f1fd-20a3-4897-9777-19066388bb99"},"vehicle_type_id":"4","last_reported":1745897470,"current_range_meters":10800,"station_id":"","pricing_plan_id":"cebpf4jnsgd1na2vs0mg"},{"bike_id":"a273dd95-99e2-4bb8-bee8-19cb9b13f516","system_id":"levelo_inurba_marseille","lat":43.299038,"lon":5.436643,"is_reserved":false,"is_disabled":false,"rental_uris":{"android":"levelo://app?vid=a273dd95-99e2-4bb8-bee8-19cb9b13f516","ios":"levelo://app?vid=a273dd95-99e2-4bb8-bee8-19cb9b13f516"},"vehicle_type_id":"4","last_reported":1745897470,"current_range_meters":11200,"station_id":"ce4bhpp2rcd13ifvqhfg","pricing_plan_id":"cebpf4jnsgd1na2vs0mg"},{"bike_id":"6b88ae52-4470-4609-9540-2ec7e9358c2c","system_id":"levelo_inurba_marseille","lat":43.239629,"lon":5.366346,"is_reserved":false,"is_disabled":false,"rental_uris":{"android":"levelo://app?vid=6b88ae52-4470-4609-9540-2ec7e9358c2c","ios":"levelo://app?vid=6b88ae52-4470-4609-9540-2ec7e9358c2c"},"vehicle_type_id":"4","last_reported":1745897470,"current_range_meters":11600,"station_id":"ce4bhi12rcd13ifvqfp0","pricing_plan_id":"cebpf4jnsgd1na2vs0mg"},{"bike_id":"9bfd4295-c6bd-452c-97b4-81cdfd7cd911","system_id":"levelo_inurba_marseille","lat":43.24063,"lon":5.3779,"is_reserved":false,"is_disabled":false,"rental_uris":{"android":"levelo://app?vid=9bfd4295-c6bd-452c-97b4-81cdfd7cd911","ios":"levelo://app?vid=9bfd4295-c6bd-452c-97b4-81cdfd7cd911"},"vehicle_type_id":"4","last_reported":1745897470,"current_range_meters":11600,"station_id":"ce4bhnp2rcd13ifvqgvg","pricing_plan_id":"cebpf4jnsgd1na2vs0mg"},{"bike_id":"99e160df-8dd3-49ed-a48b-c9d5787c4dfe","system_id":"levelo_inurba_marseille","lat":43.286979,"lon":5.373888,"is_reserved":false,"is_disabled":false,"rental_uris":{"android":"levelo://app?vid=99e160df-8dd3-49ed-a48b-c9d5787c4dfe","ios":"levelo://app?vid=99e160df-8dd3-49ed-a48b-c9d5787c4dfe"},"vehicle_type_id":"4","last_reported":1745897470,"current_range_meters":12000,"station_id":"ce4bh3p2rcd13ifvqdq0","pricing_plan_id":"cebpf4jnsgd1na2vs0mg"},{"bike_id":"c46b40a1-b20d-4a98-b574-27e682349f4d","system_id":"levelo_inurba_marseille","lat":43.32277,"lon":5.38299,"is_reserved":false,"is_disabled":false,"rental_uris":{"android":"levelo://app?vid=c46b40a1-b20d-4a98-b574-27e682349f4d","ios":"levelo://app?vid=c46b40a1-b20d-4a98-b574-27e682349f4d"},"vehicle_type_id":"4","last_reported":1745897470,"current_range_meters":12000,"station_id":"ce4bhr12rcd13ifvqhqg","pricing_plan_id":"cebpf4jnsgd1na2vs0mg"},{"bike_id":"56d3126a-5caf-4303-83cc-6be1581e9786","system_id":"levelo_inurba_marseille","lat":43.248133,"lon":5.37458,"is_reserved":false,"is_disabled":false,"rental_uris":{"android":"levelo://app?vid=56d3126a-5caf-4303-83cc-6be1581e9786","ios":"levelo://app?vid=56d3126a-5caf-4303-83cc-6be1581e9786"},"vehicle_type_id":"4","last_reported":1745897470,"current_range_meters":12000,"station_id":"ce4bhgh2rcd13ifvqfb0","pricing_plan_id":"cebpf4jnsgd1na2vs0mg"},{"bike_id":"d7f47121-b2fe-4c56-a9ea-2d5e9d309b60","system_id":"levelo_inurba_marseille","lat":43.31485,"lon":5.37321,"is_reserved":false,"is_disabled":false,"rental_uris":{"android":"levelo://app?vid=d7f47121-b2fe-4c56-a9ea-2d5e9d309b60","ios":"levelo://app?vid=d7f47121-b2fe-4c56-a9ea-2d5e9d309b60"},"vehicle_type_id":"4","last_reported":1745897470,"current_range_meters":12000,"station_id":"ce4bgt12rcd13ifvqcd0","pricing_plan_id":"cebpf4jnsgd1na2vs0mg"},{"bike_id":"b02d0ff3-3eae-4c6b-86b8-c9be8dce5c33","system_id":"levelo_inurba_marseille","lat":43.312743,"lon":5.401637,"is_reserved":false,"is_disabled":false,"rental_uris":{"android":"levelo://app?vid=b02d0ff3-3eae-4c6b-86b8-c9be8dce5c33","ios":"levelo://app?vid=b02d0ff3-3eae-4c6b-86b8-c9be8dce5c33"},"vehicle_type_id":"4","last_reported":1745897470,"current_range_meters":12000,"station_id":"ce4bh092rcd13ifvqd30","pricing_plan_id":"cebpf4jnsgd1na2vs0mg"},{"bike_id":"a17dfbc6-c24a-4f6f-a28a-8c7675d89f62","system_id":"levelo_inurba_marseille","lat":43.304066,"lon":5.412859,"is_reserved":false,"is_disabled":true,"rental_uris":{"android":"levelo://app?vid=a17dfbc6-c24a-4f6f-a28a-8c7675d89f62","ios":"levelo://app?vid=a17dfbc6-c24a-4f6f-a28a-8c7675d89f62"},"vehicle_type_id":"4","last_reported":1745897470,"current_range_meters":12000,"station_id":"ce4bhop2rcd13ifvqh8g","pricing_plan_id":"cebpf4jnsgd1na2vs0mg"},{"bike_id":"64b4a0f6-eb4e-4a58-a49c-c2fdffc72cda","system_id":"levelo_inurba_marseille","lat":43.27566,"lon":5.38436,"is_reserved":false,"is_disabled":true,"rental_uris":{"android":"levelo://app?vid=64b4a0f6-eb4e-4a58-a49c-c2fdffc72cda","ios":"levelo://app?vid=64b4a0f6-eb4e-4a58-a49c-c2fdffc72cda"},"vehicle_type_id":"4","last_reported":1745897470,"current_range_meters":12400,"station_id":"ce4bhh92rcd13ifvqfi0","pricing_plan_id":"cebpf4jnsgd1na2vs0mg"},{"bike_id":"b3d7cca2-7d35-4030-8d40-4a8257616573","system_id":"levelo_inurba_marseille","lat":43.224889,"lon":5.347624,"is_reserved":false,"is_disabled":false,"rental_uris":{"android":"levelo://app?vid=b3d7cca2-7d35-4030-8d40-4a8257616573","ios":"levelo://app?vid=b3d7cca2-7d35-4030-8d40-4a8257616573"},"vehicle_type_id":"4","last_reported":1745897470,"current_range_meters":12800,"station_id":"st_cvj5dfep6f1abm77gieg","pricing_plan_id":"cebpf4jnsgd1na2vs0mg"},{"bike_id":"f7de7479-45c0-4c25-bdd1-a2c17c0f8b8f","system_id":"levelo_inurba_marseille","lat":43.23963,"lon":5.366351,"is_reserved":false,"is_disabled":false,"rental_uris":{"android":"levelo://app?vid=f7de7479-45c0-4c25-bdd1-a2c17c0f8b8f","ios":"levelo://app?vid=f7de7479-45c0-4c25-bdd1-a2c17c0f8b8f"},"vehicle_type_id":"4","last_reported":1745897470,"current_range_meters":12400,"station_id":"ce4bhi12rcd13ifvqfp0","pricing_plan_id":"cebpf4jnsgd1na2vs0mg"},{"bike_id":"b13f9913-27dd-4197-ba83-0d6b671b36d4","system_id":"levelo_inurba_marseille","lat":43.32468,"lon":5.3659,"is_reserved":false,"is_disabled":false,"rental_uris":{"android":"levelo://app?vid=b13f9913-27dd-4197-ba83-0d6b671b36d4","ios":"levelo://app?vid=b13f9913-27dd-4197-ba83-0d6b671b36d4"},"vehicle_type_id":"4","last_reported":1745897470,"current_range_meters":12800,"station_id":"ce4bhs12rcd13ifvqhvg","pricing_plan_id":"cebpf4jnsgd1na2vs0mg"},{"bike_id":"923f8501-7d40-44db-85bf-a51b2ea797ac","system_id":"levelo_inurba_marseille","lat":43.26941,"lon":5.402846,"is_reserved":false,"is_disabled":true,"rental_uris":{"android":"levelo://app?vid=923f8501-7d40-44db-85bf-a51b2ea797ac","ios":"levelo://app?vid=923f8501-7d40-44db-85bf-a51b2ea797ac"},"vehicle_type_id":"4","last_reported":1745897470,"current_range_meters":12400,"station_id":"cjm6bp8fraef2m0cb0m0","pricing_plan_id":"cebpf4jnsgd1na2vs0mg"},{"bike_id":"d58e03bb-19b9-469a-bcd7-0c3ce91d40b5","system_id":"levelo_inurba_marseille","lat":43.213435,"lon":5.349638,"is_reserved":false,"is_disabled":false,"rental_uris":{"android":"levelo://app?vid=d58e03bb-19b9-469a-bcd7-0c3ce91d40b5","ios":"levelo://app?vid=d58e03bb-19b9-469a-bcd7-0c3ce91d40b5"},"vehicle_type_id":"4","last_reported":1745897470,"current_range_meters":12800,"station_id":"","pricing_plan_id":"cebpf4jnsgd1na2vs0mg"},{"bike_id":"5d96e4d9-b66f-4960-8c93-098b0b1b2e41","system_id":"levelo_inurba_marseille","lat":43.311652,"lon":5.387153,"is_reserved":false,"is_disabled":false,"rental_uris":{"android":"levelo://app?vid=5d96e4d9-b66f-4960-8c93-098b0b1b2e41","ios":"levelo://app?vid=5d96e4d9-b66f-4960-8c93-098b0b1b2e41"},"vehicle_type_id":"4","last_reported":1745897470,"current_range_meters":12800,"station_id":"ce4bgv12rcd13ifvqcp0","pricing_plan_id":"cebpf4jnsgd1na2vs0mg"},{"bike_id":"4b895ffc-93de-4c0a-9a5a-22699c8c0ef4","system_id":"levelo_inurba_marseille","lat":43.30733,"lon":5.42438,"is_reserved":false,"is_disabled":false,"rental_uris":{"android":"levelo://app?vid=4b895ffc-93de-4c0a-9a5a-22699c8c0ef4","ios":"levelo://app?vid=4b895ffc-93de-4c0a-9a5a-22699c8c0ef4"},"vehicle_type_id":"4","last_reported":1745897470,"current_range_meters":12800,"station_id":"st_cvj6ca6bvosntc0bfgr0","pricing_plan_id":"cebpf4jnsgd1na2vs0mg"},{"bike_id":"b7ca510d-1171-4ecc-996c-224d46372e70","system_id":"levelo_inurba_marseille","lat":43.323584,"lon":5.388906,"is_reserved":false,"is_disabled":false,"rental_uris":{"android":"levelo://app?vid=b7ca510d-1171-4ecc-996c-224d46372e70","ios":"levelo://app?vid=b7ca510d-1171-4ecc-996c-224d46372e70"},"vehicle_type_id":"4","last_reported":1745897470,"current_range_meters":14000,"station_id":"ce4bhqp2rcd13ifvqhog","pricing_plan_id":"cebpf4jnsgd1na2vs0mg"},{"bike_id":"264214da-5697-451d-88c6-76e042fc7d8d","system_id":"levelo_inurba_marseille","lat":43.27318,"lon":5.39067,"is_reserved":false,"is_disabled":false,"rental_uris":{"android":"levelo://app?vid=264214da-5697-451d-88c6-76e042fc7d8d","ios":"levelo://app?vid=264214da-5697-451d-88c6-76e042fc7d8d"},"vehicle_type_id":"4","last_reported":1745897470,"current_range_meters":12800,"station_id":"ce4bhgp2rcd13ifvqfe0","pricing_plan_id":"cebpf4jnsgd1na2vs0mg"},{"bike_id":"d09dd09b-ed8d-4486-91fc-c0b74741be12","system_id":"levelo_inurba_marseille","lat":43.311719,"lon":5.387124,"is_reserved":false,"is_disabled":false,"rental_uris":{"android":"levelo://app?vid=d09dd09b-ed8d-4486-91fc-c0b74741be12","ios":"levelo://app?vid=d09dd09b-ed8d-4486-91fc-c0b74741be12"},"vehicle_type_id":"4","last_reported":1745897470,"current_range_meters":13600,"station_id":"ce4bgv12rcd13ifvqcp0","pricing_plan_id":"cebpf4jnsgd1na2vs0mg"},{"bike_id":"28894e81-ede6-4351-84e3-e6b48081a345","system_id":"levelo_inurba_marseille","lat":43.33465,"lon":5.400537,"is_reserved":false,"is_disabled":false,"rental_uris":{"android":"levelo://app?vid=28894e81-ede6-4351-84e3-e6b48081a345","ios":"levelo://app?vid=28894e81-ede6-4351-84e3-e6b48081a345"},"vehicle_type_id":"4","last_reported":1745897470,"current_range_meters":14000,"station_id":"","pricing_plan_id":"cebpf4jnsgd1na2vs0mg"},{"bike_id":"43e6b8ea-4fb3-4e0e-8c12-a4bb8339f040","system_id":"levelo_inurba_marseille","lat":43.2649,"lon":5.39541,"is_reserved":false,"is_disabled":false,"rental_uris":{"android":"levelo://app?vid=43e6b8ea-4fb3-4e0e-8c12-a4bb8339f040","ios":"levelo://app?vid=43e6b8ea-4fb3-4e0e-8c12-a4bb8339f040"},"vehicle_type_id":"4","last_reported":1745897470,"current_range_meters":14000,"station_id":"ce4bhi12rcd13ifvqfq0","pricing_plan_id":"cebpf4jnsgd1na2vs0mg"},{"bike_id":"a640b5aa-9396-4827-8f57-dd7ffd2f1a84","system_id":"levelo_inurba_marseille","lat":43.29781,"lon":5.38161,"is_reserved":false,"is_disabled":true,"rental_uris":{"android":"levelo://app?vid=a640b5aa-9396-4827-8f57-dd7ffd2f1a84","ios":"levelo://app?vid=a640b5aa-9396-4827-8f57-dd7ffd2f1a84"},"vehicle_type_id":"4","last_reported":1745897470,"current_range_meters":14000,"station_id":"","pricing_plan_id":"cebpf4jnsgd1na2vs0mg"},{"bike_id":"a958bd06-9a50-497e-aef9-55e910bf12d1","system_id":"levelo_inurba_marseille","lat":43.299137,"lon":5.381403,"is_reserved":false,"is_disabled":true,"rental_uris":{"android":"levelo://app?vid=a958bd06-9a50-497e-aef9-55e910bf12d1","ios":"levelo://app?vid=a958bd06-9a50-497e-aef9-55e910bf12d1"},"vehicle_type_id":"4","last_reported":1745897470,"current_range_meters":14000,"station_id":"ce4bgj12rcd13ifvqbc0","pricing_plan_id":"cebpf4jnsgd1na2vs0mg"},{"bike_id":"5d12ee4a-52f1-4f1a-af38-ad7a19a5a489","system_id":"levelo_inurba_marseille","lat":43.305474,"lon":5.365421,"is_reserved":false,"is_disabled":true,"rental_uris":{"android":"levelo://app?vid=5d12ee4a-52f1-4f1a-af38-ad7a19a5a489","ios":"levelo://app?vid=5d12ee4a-52f1-4f1a-af38-ad7a19a5a489"},"vehicle_type_id":"4","last_reported":1745897470,"current_range_meters":14000,"station_id":"ce4bgs12rcd13ifvqcag","pricing_plan_id":"cebpf4jnsgd1na2vs0mg"},{"bike_id":"a4a783f9-a7ce-4e74-abf5-1388cb9377a4","system_id":"levelo_inurba_marseille","lat":43.2835,"lon":5.38112,"is_reserved":false,"is_disabled":false,"rental_uris":{"android":"levelo://app?vid=a4a783f9-a7ce-4e74-abf5-1388cb9377a4","ios":"levelo://app?vid=a4a783f9-a7ce-4e74-abf5-1388cb9377a4"},"vehicle_type_id":"4","last_reported":1745897470,"current_range_meters":14000,"station_id":"ce4bh412rcd13ifvqdr0","pricing_plan_id":"cebpf4jnsgd1na2vs0mg"},{"bike_id":"a6117330-746b-475e-a4ba-370d1f809cb2","system_id":"levelo_inurba_marseille","lat":43.27838,"lon":5.39233,"is_reserved":false,"is_disabled":false,"rental_uris":{"android":"levelo://app?vid=a6117330-746b-475e-a4ba-370d1f809cb2","ios":"levelo://app?vid=a6117330-746b-475e-a4ba-370d1f809cb2"},"vehicle_type_id":"4","last_reported":1745897470,"current_range_meters":14000,"station_id":"ce4bhjp2rcd13ifvqga0","pricing_plan_id":"cebpf4jnsgd1na2vs0mg"},{"bike_id":"c561163e-a003-49a9-bf4f-8ad31b0bbaac","system_id":"levelo_inurba_marseille","lat":43.25717,"lon":5.41834,"is_reserved":false,"is_disabled":false,"rental_uris":{"android":"levelo://app?vid=c561163e-a003-49a9-bf4f-8ad31b0bbaac","ios":"levelo://app?vid=c561163e-a003-49a9-bf4f-8ad31b0bbaac"},"vehicle_type_id":"4","last_reported":1745897470,"current_range_meters":14800,"station_id":"","pricing_plan_id":"cebpf4jnsgd1na2vs0mg"},{"bike_id":"1c71dd62-5c1a-42e0-8da7-81eceebfb73e","system_id":"levelo_inurba_marseille","lat":43.21194,"lon":5.35068,"is_reserved":false,"is_disabled":false,"rental_uris":{"android":"levelo://app?vid=1c71dd62-5c1a-42e0-8da7-81eceebfb73e","ios":"levelo://app?vid=1c71dd62-5c1a-42e0-8da7-81eceebfb73e"},"vehicle_type_id":"4","last_reported":1745897470,"current_range_meters":14400,"station_id":"st_cvj6sg6p6f1abm77japg","pricing_plan_id":"cebpf4jnsgd1na2vs0mg"},{"bike_id":"19577cbf-2a55-4ce1-9416-c81046bbac9f","system_id":"levelo_inurba_marseille","lat":43.30433,"lon":5.38899,"is_reserved":false,"is_disabled":false,"rental_uris":{"android":"levelo://app?vid=19577cbf-2a55-4ce1-9416-c81046bbac9f","ios":"levelo://app?vid=19577cbf-2a55-4ce1-9416-c81046bbac9f"},"vehicle_type_id":"4","last_reported":1745897470,"current_range_meters":14800,"station_id":"ce4bgk12rcd13ifvqbi0","pricing_plan_id":"cebpf4jnsgd1na2vs0mg"},{"bike_id":"53c5c8dd-fe15-4077-b48a-b489ee28763b","system_id":"levelo_inurba_marseille","lat":43.28401,"lon":5.37535,"is_reserved":false,"is_disabled":false,"rental_uris":{"android":"levelo://app?vid=53c5c8dd-fe15-4077-b48a-b489ee28763b","ios":"levelo://app?vid=53c5c8dd-fe15-4077-b48a-b489ee28763b"},"vehicle_type_id":"4","last_reported":1745897470,"current_range_meters":15200,"station_id":"ce4bh412rcd13ifvqds0","pricing_plan_id":"cebpf4jnsgd1na2vs0mg"},{"bike_id":"d62ddf27-5b02-45fd-bd0c-48edab448e0e","system_id":"levelo_inurba_marseille","lat":43.323668,"lon":5.388873,"is_reserved":false,"is_disabled":false,"rental_uris":{"android":"levelo://app?vid=d62ddf27-5b02-45fd-bd0c-48edab448e0e","ios":"levelo://app?vid=d62ddf27-5b02-45fd-bd0c-48edab448e0e"},"vehicle_type_id":"4","last_reported":1745897470,"current_range_meters":14800,"station_id":"ce4bhqp2rcd13ifvqhog","pricing_plan_id":"cebpf4jnsgd1na2vs0mg"},{"bike_id":"3d8b5600-c249-47ec-9a2e-850e68bd4577","system_id":"levelo_inurba_marseille","lat":43.28397,"lon":5.37536,"is_reserved":false,"is_disabled":false,"rental_uris":{"android":"levelo://app?vid=3d8b5600-c249-47ec-9a2e-850e68bd4577","ios":"levelo://app?vid=3d8b5600-c249-47ec-9a2e-850e68bd4577"},"vehicle_type_id":"4","last_reported":1745897470,"current_range_meters":14800,"station_id":"ce4bh412rcd13ifvqds0","pricing_plan_id":"cebpf4jnsgd1na2vs0mg"},{"bike_id":"90ec756e-7d75-44ae-9837-bcc6f8c453df","system_id":"levelo_inurba_marseille","lat":43.231954,"lon":5.355559,"is_reserved":false,"is_disabled":false,"rental_uris":{"android":"levelo://app?vid=90ec756e-7d75-44ae-9837-bcc6f8c453df","ios":"levelo://app?vid=90ec756e-7d75-44ae-9837-bcc6f8c453df"},"vehicle_type_id":"4","last_reported":1745897470,"current_range_meters":14800,"station_id":"ce4bhu92rcd13ifvqi70","pricing_plan_id":"cebpf4jnsgd1na2vs0mg"},{"bike_id":"888538ce-4dc3-4f2e-8404-8ea4d633e1aa","system_id":"levelo_inurba_marseille","lat":43.261832,"lon":5.374489,"is_reserved":false,"is_disabled":true,"rental_uris":{"android":"levelo://app?vid=888538ce-4dc3-4f2e-8404-8ea4d633e1aa","ios":"levelo://app?vid=888538ce-4dc3-4f2e-8404-8ea4d633e1aa"},"vehicle_type_id":"4","last_reported":1745897470,"current_range_meters":14800,"station_id":"ce4bhgp2rcd13ifvqfc0","pricing_plan_id":"cebpf4jnsgd1na2vs0mg"},{"bike_id":"756382b5-ff4f-4389-b460-2667f1020a0b","system_id":"levelo_inurba_marseille","lat":43.298058,"lon":5.404049,"is_reserved":false,"is_disabled":false,"rental_uris":{"android":"levelo://app?vid=756382b5-ff4f-4389-b460-2667f1020a0b","ios":"levelo://app?vid=756382b5-ff4f-4389-b460-2667f1020a0b"},"vehicle_type_id":"4","last_reported":1745897470,"current_range_meters":14800,"station_id":"ce4bh112rcd13ifvqd90","pricing_plan_id":"cebpf4jnsgd1na2vs0mg"},{"bike_id":"9366d0f7-d227-4995-badb-e85de9ed01d7","system_id":"levelo_inurba_marseille","lat":43.317,"lon":5.377785,"is_reserved":false,"is_disabled":true,"rental_uris":{"android":"levelo://app?vid=9366d0f7-d227-4995-badb-e85de9ed01d7","ios":"levelo://app?vid=9366d0f7-d227-4995-badb-e85de9ed01d7"},"vehicle_type_id":"4","last_reported":1745897470,"current_range_meters":16000,"station_id":"ce4bgth2rcd13ifvqch0","pricing_plan_id":"cebpf4jnsgd1na2vs0mg"},{"bike_id":"9173922a-f107-41af-a094-25f7cf17a35b","system_id":"levelo_inurba_marseille","lat":43.24083,"lon":5.37768,"is_reserved":false,"is_disabled":true,"rental_uris":{"android":"levelo://app?vid=9173922a-f107-41af-a094-25f7cf17a35b","ios":"levelo://app?vid=9173922a-f107-41af-a094-25f7cf17a35b"},"vehicle_type_id":"4","last_reported":1745897470,"current_range_meters":15200,"station_id":"ce4bhnp2rcd13ifvqgvg","pricing_plan_id":"cebpf4jnsgd1na2vs0mg"},{"bike_id":"0152c1f9-7fe0-4ca8-baa7-28760592a88b","system_id":"levelo_inurba_marseille","lat":43.251073,"lon":5.403149,"is_reserved":false,"is_disabled":false,"rental_uris":{"android":"levelo://app?vid=0152c1f9-7fe0-4ca8-baa7-28760592a88b","ios":"levelo://app?vid=0152c1f9-7fe0-4ca8-baa7-28760592a88b"},"vehicle_type_id":"4","last_reported":1745897470,"current_range_meters":16000,"station_id":"ce4bhlh2rcd13ifvqgig","pricing_plan_id":"cebpf4jnsgd1na2vs0mg"},{"bike_id":"489415b8-9254-45c1-b00c-e7554d56755c","system_id":"levelo_inurba_marseille","lat":43.24517,"lon":5.412125,"is_reserved":false,"is_disabled":false,"rental_uris":{"android":"levelo://app?vid=489415b8-9254-45c1-b00c-e7554d56755c","ios":"levelo://app?vid=489415b8-9254-45c1-b00c-e7554d56755c"},"vehicle_type_id":"4","last_reported":1745897470,"current_range_meters":16000,"station_id":"","pricing_plan_id":"cebpf4jnsgd1na2vs0mg"},{"bike_id":"8d7d861b-aae8-4bc8-8426-739cae3ce664","system_id":"levelo_inurba_marseille","lat":43.279379,"lon":5.410446,"is_reserved":false,"is_disabled":false,"rental_uris":{"android":"levelo://app?vid=8d7d861b-aae8-4bc8-8426-739cae3ce664","ios":"levelo://app?vid=8d7d861b-aae8-4bc8-8426-739cae3ce664"},"vehicle_type_id":"4","last_reported":1745897470,"current_range_meters":16000,"station_id":"ce4bhnp2rcd13ifvqh0g","pricing_plan_id":"cebpf4jnsgd1na2vs0mg"},{"bike_id":"d7179719-66f8-48f3-8013-d8cc9295cd89","system_id":"levelo_inurba_marseille","lat":43.27943,"lon":5.41043,"is_reserved":false,"is_disabled":false,"rental_uris":{"android":"levelo://app?vid=d7179719-66f8-48f3-8013-d8cc9295cd89","ios":"levelo://app?vid=d7179719-66f8-48f3-8013-d8cc9295cd89"},"vehicle_type_id":"4","last_reported":1745897470,"current_range_meters":16000,"station_id":"ce4bhnp2rcd13ifvqh0g","pricing_plan_id":"cebpf4jnsgd1na2vs0mg"},{"bike_id":"56931cd4-0350-4151-af9a-c478ec6276e2","system_id":"levelo_inurba_marseille","lat":43.31301,"lon":5.39742,"is_reserved":false,"is_disabled":false,"rental_uris":{"android":"levelo://app?vid=56931cd4-0350-4151-af9a-c478ec6276e2","ios":"levelo://app?vid=56931cd4-0350-4151-af9a-c478ec6276e2"},"vehicle_type_id":"4","last_reported":1745897470,"current_range_meters":16000,"station_id":"","pricing_plan_id":"cebpf4jnsgd1na2vs0mg"},{"bike_id":"39f18c8b-df43-4308-a98e-40efc694b971","system_id":"levelo_inurba_marseille","lat":43.240781,"lon":5.377481,"is_reserved":false,"is_disabled":false,"rental_uris":{"android":"levelo://app?vid=39f18c8b-df43-4308-a98e-40efc694b971","ios":"levelo://app?vid=39f18c8b-df43-4308-a98e-40efc694b971"},"vehicle_type_id":"4","last_reported":1745897470,"current_range_meters":16000,"station_id":"ce4bhnp2rcd13ifvqgvg","pricing_plan_id":"cebpf4jnsgd1na2vs0mg"},{"bike_id":"70fbc956-14ce-4f94-8c06-1dcde704840a","system_id":"levelo_inurba_marseille","lat":43.27655,"lon":5.38905,"is_reserved":false,"is_disabled":true,"rental_uris":{"android":"levelo://app?vid=70fbc956-14ce-4f94-8c06-1dcde704840a","ios":"levelo://app?vid=70fbc956-14ce-4f94-8c06-1dcde704840a"},"vehicle_type_id":"4","last_reported":1745897470,"current_range_meters":16400,"station_id":"ce4bhi12rcd13ifvqfo0","pricing_plan_id":"cebpf4jnsgd1na2vs0mg"},{"bike_id":"d3c96024-51de-4bd6-bef7-7b8a21a42f98","system_id":"levelo_inurba_marseille","lat":43.313265,"lon":5.396969,"is_reserved":false,"is_disabled":false,"rental_uris":{"android":"levelo://app?vid=d3c96024-51de-4bd6-bef7-7b8a21a42f98","ios":"levelo://app?vid=d3c96024-51de-4bd6-bef7-7b8a21a42f98"},"vehicle_type_id":"4","last_reported":1745897470,"current_range_meters":16400,"station_id":"ce4bgvp2rcd13ifvqcu0","pricing_plan_id":"cebpf4jnsgd1na2vs0mg"},{"bike_id":"fcdb5fc6-3e38-4cc7-8692-5340ac27ff4b","system_id":"levelo_inurba_marseille","lat":43.240716,"lon":5.377473,"is_reserved":false,"is_disabled":false,"rental_uris":{"android":"levelo://app?vid=fcdb5fc6-3e38-4cc7-8692-5340ac27ff4b","ios":"levelo://app?vid=fcdb5fc6-3e38-4cc7-8692-5340ac27ff4b"},"vehicle_type_id":"4","last_reported":1745897470,"current_range_meters":16800,"station_id":"ce4bhnp2rcd13ifvqgvg","pricing_plan_id":"cebpf4jnsgd1na2vs0mg"},{"bike_id":"f0e3aec9-922a-4fa0-87ae-130851eefc1a","system_id":"levelo_inurba_marseille","lat":43.3126,"lon":5.40188,"is_reserved":false,"is_disabled":false,"rental_uris":{"android":"levelo://app?vid=f0e3aec9-922a-4fa0-87ae-130851eefc1a","ios":"levelo://app?vid=f0e3aec9-922a-4fa0-87ae-130851eefc1a"},"vehicle_type_id":"4","last_reported":1745897470,"current_range_meters":16400,"station_id":"ce4bh092rcd13ifvqd30","pricing_plan_id":"cebpf4jnsgd1na2vs0mg"},{"bike_id":"b228c03a-244c-4a66-90aa-d8e86b552f96","system_id":"levelo_inurba_marseille","lat":43.29184,"lon":5.39338,"is_reserved":false,"is_disabled":false,"rental_uris":{"android":"levelo://app?vid=b228c03a-244c-4a66-90aa-d8e86b552f96","ios":"levelo://app?vid=b228c03a-244c-4a66-90aa-d8e86b552f96"},"vehicle_type_id":"4","last_reported":1745897470,"current_range_meters":16400,"station_id":"ce4bh192rcd13ifvqdd0","pricing_plan_id":"cebpf4jnsgd1na2vs0mg"},{"bike_id":"c8673d37-7e5f-49af-8ca0-6c3b2740db0e","system_id":"levelo_inurba_marseille","lat":43.31132,"lon":5.37736,"is_reserved":false,"is_disabled":false,"rental_uris":{"android":"levelo://app?vid=c8673d37-7e5f-49af-8ca0-6c3b2740db0e","ios":"levelo://app?vid=c8673d37-7e5f-49af-8ca0-6c3b2740db0e"},"vehicle_type_id":"4","last_reported":1745897470,"current_range_meters":16400,"station_id":"ce4bgt92rcd13ifvqcg0","pricing_plan_id":"cebpf4jnsgd1na2vs0mg"},{"bike_id":"ab566342-f92c-435a-a238-04939b89345b","system_id":"levelo_inurba_marseille","lat":43.295979,"lon":5.381017,"is_reserved":false,"is_disabled":true,"rental_uris":{"android":"levelo://app?vid=ab566342-f92c-435a-a238-04939b89345b","ios":"levelo://app?vid=ab566342-f92c-435a-a238-04939b89345b"},"vehicle_type_id":"4","last_reported":1745897470,"current_range_meters":16800,"station_id":"ce4bgl12rcd13ifvqbo0","pricing_plan_id":"cebpf4jnsgd1na2vs0mg"},{"bike_id":"c46fbe5f-8330-40b5-9f5c-628a73545d10","system_id":"levelo_inurba_marseille","lat":43.33586,"lon":5.40997,"is_reserved":false,"is_disabled":false,"rental_uris":{"android":"levelo://app?vid=c46fbe5f-8330-40b5-9f5c-628a73545d10","ios":"levelo://app?vid=c46fbe5f-8330-40b5-9f5c-628a73545d10"},"vehicle_type_id":"4","last_reported":1745897470,"current_range_meters":16400,"station_id":"ce4bhqh2rcd13ifvqhmg","pricing_plan_id":"cebpf4jnsgd1na2vs0mg"},{"bike_id":"30e585b6-a1a7-4d47-a9c6-d0ac4b00d0db","system_id":"levelo_inurba_marseille","lat":43.321119,"lon":5.367862,"is_reserved":false,"is_disabled":false,"rental_uris":{"android":"levelo://app?vid=30e585b6-a1a7-4d47-a9c6-d0ac4b00d0db","ios":"levelo://app?vid=30e585b6-a1a7-4d47-a9c6-d0ac4b00d0db"},"vehicle_type_id":"4","last_reported":1745897470,"current_range_meters":17200,"station_id":"ce4bhrh2rcd13ifvqhug","pricing_plan_id":"cebpf4jnsgd1na2vs0mg"},{"bike_id":"a439637d-dbae-491d-93f2-642ad200cd8c","system_id":"levelo_inurba_marseille","lat":43.28342,"lon":5.38903,"is_reserved":false,"is_disabled":false,"rental_uris":{"android":"levelo://app?vid=a439637d-dbae-491d-93f2-642ad200cd8c","ios":"levelo://app?vid=a439637d-dbae-491d-93f2-642ad200cd8c"},"vehicle_type_id":"4","last_reported":1745897470,"current_range_meters":16800,"station_id":"","pricing_plan_id":"cebpf4jnsgd1na2vs0mg"},{"bike_id":"d314eac0-6a53-48b5-940b-52b183db42eb","system_id":"levelo_inurba_marseille","lat":43.2988,"lon":5.39752,"is_reserved":false,"is_disabled":false,"rental_uris":{"android":"levelo://app?vid=d314eac0-6a53-48b5-940b-52b183db42eb","ios":"levelo://app?vid=d314eac0-6a53-48b5-940b-52b183db42eb"},"vehicle_type_id":"4","last_reported":1745897470,"current_range_meters":16800,"station_id":"ce4bh0h2rcd13ifvqd50","pricing_plan_id":"cebpf4jnsgd1na2vs0mg"},{"bike_id":"0e029be7-dc71-4b12-9a63-21358668bf5b","system_id":"levelo_inurba_marseille","lat":43.32668,"lon":5.40959,"is_reserved":false,"is_disabled":false,"rental_uris":{"android":"levelo://app?vid=0e029be7-dc71-4b12-9a63-21358668bf5b","ios":"levelo://app?vid=0e029be7-dc71-4b12-9a63-21358668bf5b"},"vehicle_type_id":"4","last_reported":1745897470,"current_range_meters":16800,"station_id":"ce4bhpp2rcd13ifvqhgg","pricing_plan_id":"cebpf4jnsgd1na2vs0mg"},{"bike_id":"62ea5d5b-ee6f-42b7-9cd0-c945fcac7364","system_id":"levelo_inurba_marseille","lat":43.30778,"lon":5.43541,"is_reserved":false,"is_disabled":false,"rental_uris":{"android":"levelo://app?vid=62ea5d5b-ee6f-42b7-9cd0-c945fcac7364","ios":"levelo://app?vid=62ea5d5b-ee6f-42b7-9cd0-c945fcac7364"},"vehicle_type_id":"4","last_reported":1745897470,"current_range_meters":17200,"station_id":"ce4bhph2rcd13ifvqheg","pricing_plan_id":"cebpf4jnsgd1na2vs0mg"},{"bike_id":"0660ccf6-0004-4fb7-a5bc-632b512e7c76","system_id":"levelo_inurba_marseille","lat":43.279146,"lon":5.395758,"is_reserved":false,"is_disabled":false,"rental_uris":{"android":"levelo://app?vid=0660ccf6-0004-4fb7-a5bc-632b512e7c76","ios":"levelo://app?vid=0660ccf6-0004-4fb7-a5bc-632b512e7c76"},"vehicle_type_id":"4","last_reported":1745897470,"current_range_meters":17200,"station_id":"ce4bhf92rcd13ifvqf40","pricing_plan_id":"cebpf4jnsgd1na2vs0mg"},{"bike_id":"1cb3da76-f497-49e4-a8a6-5a0629444d60","system_id":"levelo_inurba_marseille","lat":43.29938,"lon":5.36687,"is_reserved":false,"is_disabled":false,"rental_uris":{"android":"levelo://app?vid=1cb3da76-f497-49e4-a8a6-5a0629444d60","ios":"levelo://app?vid=1cb3da76-f497-49e4-a8a6-5a0629444d60"},"vehicle_type_id":"4","last_reported":1745897470,"current_range_meters":17200,"station_id":"","pricing_plan_id":"cebpf4jnsgd1na2vs0mg"},{"bike_id":"ae50c1de-8c80-4ad2-a1d9-2fbb08d50e7b","system_id":"levelo_inurba_marseille","lat":43.25702,"lon":5.41136,"is_reserved":false,"is_disabled":true,"rental_uris":{"android":"levelo://app?vid=ae50c1de-8c80-4ad2-a1d9-2fbb08d50e7b","ios":"levelo://app?vid=ae50c1de-8c80-4ad2-a1d9-2fbb08d50e7b"},"vehicle_type_id":"4","last_reported":1745897470,"current_range_meters":17600,"station_id":"ce4bhkp2rcd13ifvqgd0","pricing_plan_id":"cebpf4jnsgd1na2vs0mg"},{"bike_id":"41f0b59b-bd70-46d9-9c9e-1051382cd978","system_id":"levelo_inurba_marseille","lat":43.27984,"lon":5.41637,"is_reserved":false,"is_disabled":true,"rental_uris":{"android":"levelo://app?vid=41f0b59b-bd70-46d9-9c9e-1051382cd978","ios":"levelo://app?vid=41f0b59b-bd70-46d9-9c9e-1051382cd978"},"vehicle_type_id":"4","last_reported":1745897470,"current_range_meters":17200,"station_id":"ce4bho12rcd13ifvqh1g","pricing_plan_id":"cebpf4jnsgd1na2vs0mg"},{"bike_id":"3a7f6ce1-05cf-4b62-8be2-0e0e6392f98c","system_id":"levelo_inurba_marseille","lat":43.29196,"lon":5.39338,"is_reserved":false,"is_disabled":false,"rental_uris":{"android":"levelo://app?vid=3a7f6ce1-05cf-4b62-8be2-0e0e6392f98c","ios":"levelo://app?vid=3a7f6ce1-05cf-4b62-8be2-0e0e6392f98c"},"vehicle_type_id":"4","last_reported":1745897470,"current_range_meters":17200,"station_id":"ce4bh192rcd13ifvqdd0","pricing_plan_id":"cebpf4jnsgd1na2vs0mg"},{"bike_id":"4f793177-3c41-4f88-96d3-b9a7ceb41fe6","system_id":"levelo_inurba_marseille","lat":43.32363,"lon":5.38858,"is_reserved":false,"is_disabled":false,"rental_uris":{"android":"levelo://app?vid=4f793177-3c41-4f88-96d3-b9a7ceb41fe6","ios":"levelo://app?vid=4f793177-3c41-4f88-96d3-b9a7ceb41fe6"},"vehicle_type_id":"4","last_reported":1745897470,"current_range_meters":17200,"station_id":"ce4bhqp2rcd13ifvqhog","pricing_plan_id":"cebpf4jnsgd1na2vs0mg"},{"bike_id":"07693e24-7000-4fd3-8fe1-8644dd3f1e08","system_id":"levelo_inurba_marseille","lat":43.274044,"lon":5.389671,"is_reserved":false,"is_disabled":false,"rental_uris":{"android":"levelo://app?vid=07693e24-7000-4fd3-8fe1-8644dd3f1e08","ios":"levelo://app?vid=07693e24-7000-4fd3-8fe1-8644dd3f1e08"},"vehicle_type_id":"4","last_reported":1745897470,"current_range_meters":17200,"station_id":"","pricing_plan_id":"cebpf4jnsgd1na2vs0mg"},{"bike_id":"61144dfe-675f-4e9a-9e34-e211c9859fc4","system_id":"levelo_inurba_marseille","lat":43.25087,"lon":5.395157,"is_reserved":false,"is_disabled":false,"rental_uris":{"android":"levelo://app?vid=61144dfe-675f-4e9a-9e34-e211c9859fc4","ios":"levelo://app?vid=61144dfe-675f-4e9a-9e34-e211c9859fc4"},"vehicle_type_id":"4","last_reported":1745897470,"current_range_meters":18000,"station_id":"ce4bhm12rcd13ifvqgkg","pricing_plan_id":"cebpf4jnsgd1na2vs0mg"},{"bike_id":"50b5da2f-3a79-425d-9a03-6248036b4ea9","system_id":"levelo_inurba_marseille","lat":43.250839,"lon":5.395234,"is_reserved":false,"is_disabled":false,"rental_uris":{"android":"levelo://app?vid=50b5da2f-3a79-425d-9a03-6248036b4ea9","ios":"levelo://app?vid=50b5da2f-3a79-425d-9a03-6248036b4ea9"},"vehicle_type_id":"4","last_reported":1745897470,"current_range_meters":18000,"station_id":"ce4bhm12rcd13ifvqgkg","pricing_plan_id":"cebpf4jnsgd1na2vs0mg"},{"bike_id":"a9e73118-aca0-4279-a09d-0250c87a2cbd","system_id":"levelo_inurba_marseille","lat":43.251079,"lon":5.403113,"is_reserved":false,"is_disabled":false,"rental_uris":{"android":"levelo://app?vid=a9e73118-aca0-4279-a09d-0250c87a2cbd","ios":"levelo://app?vid=a9e73118-aca0-4279-a09d-0250c87a2cbd"},"vehicle_type_id":"4","last_reported":1745897470,"current_range_meters":18000,"station_id":"ce4bhlh2rcd13ifvqgig","pricing_plan_id":"cebpf4jnsgd1na2vs0mg"},{"bike_id":"9b40f4bc-eea4-40c3-8685-925a7d071f39","system_id":"levelo_inurba_marseille","lat":43.30428,"lon":5.38884,"is_reserved":false,"is_disabled":false,"rental_uris":{"android":"levelo://app?vid=9b40f4bc-eea4-40c3-8685-925a7d071f39","ios":"levelo://app?vid=9b40f4bc-eea4-40c3-8685-925a7d071f39"},"vehicle_type_id":"4","last_reported":1745897470,"current_range_meters":18000,"station_id":"ce4bgk12rcd13ifvqbi0","pricing_plan_id":"cebpf4jnsgd1na2vs0mg"},{"bike_id":"f771a545-16b0-41dd-b3bf-3d33a3b0b762","system_id":"levelo_inurba_marseille","lat":43.323403,"lon":5.406195,"is_reserved":false,"is_disabled":false,"rental_uris":{"android":"levelo://app?vid=f771a545-16b0-41dd-b3bf-3d33a3b0b762","ios":"levelo://app?vid=f771a545-16b0-41dd-b3bf-3d33a3b0b762"},"vehicle_type_id":"4","last_reported":1745897470,"current_range_meters":18000,"station_id":"ce4bhq92rcd13ifvqhjg","pricing_plan_id":"cebpf4jnsgd1na2vs0mg"},{"bike_id":"1ff7221b-8e1e-4dce-9e57-4aed861ca4b9","system_id":"levelo_inurba_marseille","lat":43.33734,"lon":5.39198,"is_reserved":false,"is_disabled":false,"rental_uris":{"android":"levelo://app?vid=1ff7221b-8e1e-4dce-9e57-4aed861ca4b9","ios":"levelo://app?vid=1ff7221b-8e1e-4dce-9e57-4aed861ca4b9"},"vehicle_type_id":"4","last_reported":1745897470,"current_range_meters":18800,"station_id":"ce4bhr92rcd13ifvqhsg","pricing_plan_id":"cebpf4jnsgd1na2vs0mg"},{"bike_id":"de795570-c9a3-4d67-8ccc-d8ae59f399fb","system_id":"levelo_inurba_marseille","lat":43.30436,"lon":5.38898,"is_reserved":false,"is_disabled":false,"rental_uris":{"android":"levelo://app?vid=de795570-c9a3-4d67-8ccc-d8ae59f399fb","ios":"levelo://app?vid=de795570-c9a3-4d67-8ccc-d8ae59f399fb"},"vehicle_type_id":"4","last_reported":1745897470,"current_range_meters":18800,"station_id":"ce4bgk12rcd13ifvqbi0","pricing_plan_id":"cebpf4jnsgd1na2vs0mg"},{"bike_id":"e902df82-3f4e-4be2-82fa-374a8ba1fc49","system_id":"levelo_inurba_marseille","lat":43.299551,"lon":5.397778,"is_reserved":false,"is_disabled":false,"rental_uris":{"android":"levelo://app?vid=e902df82-3f4e-4be2-82fa-374a8ba1fc49","ios":"levelo://app?vid=e902df82-3f4e-4be2-82fa-374a8ba1fc49"},"vehicle_type_id":"4","last_reported":1745897470,"current_range_meters":18800,"station_id":"","pricing_plan_id":"cebpf4jnsgd1na2vs0mg"},{"bike_id":"8022040d-94cd-48b0-a9d8-7bae0ce9d7ea","system_id":"levelo_inurba_marseille","lat":43.31525,"lon":5.38029,"is_reserved":false,"is_disabled":false,"rental_uris":{"android":"levelo://app?vid=8022040d-94cd-48b0-a9d8-7bae0ce9d7ea","ios":"levelo://app?vid=8022040d-94cd-48b0-a9d8-7bae0ce9d7ea"},"vehicle_type_id":"4","last_reported":1745897470,"current_range_meters":18800,"station_id":"ce4bhsp2rcd13ifvqi50","pricing_plan_id":"cebpf4jnsgd1na2vs0mg"},{"bike_id":"6a08f3bf-5429-499e-92b3-602788dffc24","system_id":"levelo_inurba_marseille","lat":43.29202,"lon":5.36042,"is_reserved":false,"is_disabled":true,"rental_uris":{"android":"levelo://app?vid=6a08f3bf-5429-499e-92b3-602788dffc24","ios":"levelo://app?vid=6a08f3bf-5429-499e-92b3-602788dffc24"},"vehicle_type_id":"4","last_reported":1745897470,"current_range_meters":19200,"station_id":"ce4bhbh2rcd13ifvqeqg","pricing_plan_id":"cebpf4jnsgd1na2vs0mg"},{"bike_id":"37630d4f-abe1-4ef3-97e2-22868d113cc0","system_id":"levelo_inurba_marseille","lat":43.29522,"lon":5.394081,"is_reserved":false,"is_disabled":false,"rental_uris":{"android":"levelo://app?vid=37630d4f-abe1-4ef3-97e2-22868d113cc0","ios":"levelo://app?vid=37630d4f-abe1-4ef3-97e2-22868d113cc0"},"vehicle_type_id":"4","last_reported":1745897470,"current_range_meters":19600,"station_id":"ce4bh292rcd13ifvqdf0","pricing_plan_id":"cebpf4jnsgd1na2vs0mg"},{"bike_id":"73bdaf62-584c-4aef-b388-35b847199721","system_id":"levelo_inurba_marseille","lat":43.28034,"lon":5.36947,"is_reserved":false,"is_disabled":false,"rental_uris":{"android":"levelo://app?vid=73bdaf62-584c-4aef-b388-35b847199721","ios":"levelo://app?vid=73bdaf62-584c-4aef-b388-35b847199721"},"vehicle_type_id":"4","last_reported":1745897470,"current_range_meters":19200,"station_id":"ce4bha12rcd13ifvqef0","pricing_plan_id":"cebpf4jnsgd1na2vs0mg"},{"bike_id":"b400b635-ddfb-4fc0-8874-f9394f1d48a5","system_id":"levelo_inurba_marseille","lat":43.28448,"lon":5.35921,"is_reserved":false,"is_disabled":false,"rental_uris":{"android":"levelo://app?vid=b400b635-ddfb-4fc0-8874-f9394f1d48a5","ios":"levelo://app?vid=b400b635-ddfb-4fc0-8874-f9394f1d48a5"},"vehicle_type_id":"4","last_reported":1745897470,"current_range_meters":19200,"station_id":"ce4bhah2rcd13ifvqei0","pricing_plan_id":"cebpf4jnsgd1na2vs0mg"},{"bike_id":"cf0a6d6b-93fc-4b28-ab69-696fa3b835c9","system_id":"levelo_inurba_marseille","lat":43.29602,"lon":5.38096,"is_reserved":false,"is_disabled":false,"rental_uris":{"android":"levelo://app?vid=cf0a6d6b-93fc-4b28-ab69-696fa3b835c9","ios":"levelo://app?vid=cf0a6d6b-93fc-4b28-ab69-696fa3b835c9"},"vehicle_type_id":"4","last_reported":1745897470,"current_range_meters":19200,"station_id":"ce4bgl12rcd13ifvqbo0","pricing_plan_id":"cebpf4jnsgd1na2vs0mg"},{"bike_id":"d768fc81-ef3c-45b5-bca5-b3b9757bb982","system_id":"levelo_inurba_marseille","lat":43.22927,"lon":5.35377,"is_reserved":false,"is_disabled":false,"rental_uris":{"android":"levelo://app?vid=d768fc81-ef3c-45b5-bca5-b3b9757bb982","ios":"levelo://app?vid=d768fc81-ef3c-45b5-bca5-b3b9757bb982"},"vehicle_type_id":"4","last_reported":1745897470,"current_range_meters":19200,"station_id":"cpo3532slgdg3j2ikp40","pricing_plan_id":"cebpf4jnsgd1na2vs0mg"},{"bike_id":"bf3dbc16-a8a7-42a9-a13c-7d55eb791e58","system_id":"levelo_inurba_marseille","lat":43.324794,"lon":5.365749,"is_reserved":false,"is_disabled":false,"rental_uris":{"android":"levelo://app?vid=bf3dbc16-a8a7-42a9-a13c-7d55eb791e58","ios":"levelo://app?vid=bf3dbc16-a8a7-42a9-a13c-7d55eb791e58"},"vehicle_type_id":"4","last_reported":1745897470,"current_range_meters":19200,"station_id":"ce4bhs12rcd13ifvqhvg","pricing_plan_id":"cebpf4jnsgd1na2vs0mg"},{"bike_id":"4373719c-83cc-4e04-8f48-8c0c45de6196","system_id":"levelo_inurba_marseille","lat":43.29295,"lon":5.401,"is_reserved":false,"is_disabled":false,"rental_uris":{"android":"levelo://app?vid=4373719c-83cc-4e04-8f48-8c0c45de6196","ios":"levelo://app?vid=4373719c-83cc-4e04-8f48-8c0c45de6196"},"vehicle_type_id":"4","last_reported":1745897470,"current_range_meters":19200,"station_id":"ce4bh312rcd13ifvqdk0","pricing_plan_id":"cebpf4jnsgd1na2vs0mg"},{"bike_id":"3fc4c7b9-ef4d-443b-8449-7892c1e90782","system_id":"levelo_inurba_marseille","lat":43.30147,"lon":5.38094,"is_reserved":false,"is_disabled":false,"rental_uris":{"android":"levelo://app?vid=3fc4c7b9-ef4d-443b-8449-7892c1e90782","ios":"levelo://app?vid=3fc4c7b9-ef4d-443b-8449-7892c1e90782"},"vehicle_type_id":"4","last_reported":1745897470,"current_range_meters":19200,"station_id":"ce4bgjp2rcd13ifvqbh0","pricing_plan_id":"cebpf4jnsgd1na2vs0mg"},{"bike_id":"438cfb8a-bbfe-4245-807d-6848f46c7045","system_id":"levelo_inurba_marseille","lat":43.28039,"lon":5.36939,"is_reserved":false,"is_disabled":false,"rental_uris":{"android":"levelo://app?vid=438cfb8a-bbfe-4245-807d-6848f46c7045","ios":"levelo://app?vid=438cfb8a-bbfe-4245-807d-6848f46c7045"},"vehicle_type_id":"4","last_reported":1745897470,"current_range_meters":19600,"station_id":"ce4bha12rcd13ifvqef0","pricing_plan_id":"cebpf4jnsgd1na2vs0mg"},{"bike_id":"ec39f74a-f9d7-49fa-b961-97420ac55e71","system_id":"levelo_inurba_marseille","lat":43.26961,"lon":5.40225,"is_reserved":false,"is_disabled":false,"rental_uris":{"android":"levelo://app?vid=ec39f74a-f9d7-49fa-b961-97420ac55e71","ios":"levelo://app?vid=ec39f74a-f9d7-49fa-b961-97420ac55e71"},"vehicle_type_id":"4","last_reported":1745897470,"current_range_meters":19200,"station_id":"cjm6bp8fraef2m0cb0m0","pricing_plan_id":"cebpf4jnsgd1na2vs0mg"},{"bike_id":"940b7320-b328-4afe-85a6-d4d069ced16a","system_id":"levelo_inurba_marseille","lat":43.30888,"lon":5.40204,"is_reserved":false,"is_disabled":true,"rental_uris":{"android":"levelo://app?vid=940b7320-b328-4afe-85a6-d4d069ced16a","ios":"levelo://app?vid=940b7320-b328-4afe-85a6-d4d069ced16a"},"vehicle_type_id":"4","last_reported":1745897470,"current_range_meters":20000,"station_id":"","pricing_plan_id":"cebpf4jnsgd1na2vs0mg"},{"bike_id":"0200abdd-06d0-46c2-a10c-d26c9d82513f","system_id":"levelo_inurba_marseille","lat":43.29878,"lon":5.39723,"is_reserved":false,"is_disabled":false,"rental_uris":{"android":"levelo://app?vid=0200abdd-06d0-46c2-a10c-d26c9d82513f","ios":"levelo://app?vid=0200abdd-06d0-46c2-a10c-d26c9d82513f"},"vehicle_type_id":"4","last_reported":1745897470,"current_range_meters":20000,"station_id":"ce4bh0h2rcd13ifvqd50","pricing_plan_id":"cebpf4jnsgd1na2vs0mg"},{"bike_id":"b26a0b33-650f-4f7b-8536-58a942167ba4","system_id":"levelo_inurba_marseille","lat":43.231854,"lon":5.355513,"is_reserved":false,"is_disabled":false,"rental_uris":{"android":"levelo://app?vid=b26a0b33-650f-4f7b-8536-58a942167ba4","ios":"levelo://app?vid=b26a0b33-650f-4f7b-8536-58a942167ba4"},"vehicle_type_id":"4","last_reported":1745897470,"current_range_meters":20400,"station_id":"ce4bhu92rcd13ifvqi70","pricing_plan_id":"cebpf4jnsgd1na2vs0mg"},{"bike_id":"970ca27d-d309-4b80-9af0-28a6e0441237","system_id":"levelo_inurba_marseille","lat":43.311684,"lon":5.387092,"is_reserved":false,"is_disabled":false,"rental_uris":{"android":"levelo://app?vid=970ca27d-d309-4b80-9af0-28a6e0441237","ios":"levelo://app?vid=970ca27d-d309-4b80-9af0-28a6e0441237"},"vehicle_type_id":"4","last_reported":1745897470,"current_range_meters":20000,"station_id":"ce4bgv12rcd13ifvqcp0","pricing_plan_id":"cebpf4jnsgd1na2vs0mg"},{"bike_id":"4678f98c-9605-485e-9f52-d38650b7e3f9","system_id":"levelo_inurba_marseille","lat":43.32487,"lon":5.36573,"is_reserved":false,"is_disabled":false,"rental_uris":{"android":"levelo://app?vid=4678f98c-9605-485e-9f52-d38650b7e3f9","ios":"levelo://app?vid=4678f98c-9605-485e-9f52-d38650b7e3f9"},"vehicle_type_id":"4","last_reported":1745897470,"current_range_meters":20000,"station_id":"ce4bhs12rcd13ifvqhvg","pricing_plan_id":"cebpf4jnsgd1na2vs0mg"},{"bike_id":"aa8d6287-b95a-4e16-8b3a-83cecfb5c05d","system_id":"levelo_inurba_marseille","lat":43.241674,"lon":5.363923,"is_reserved":false,"is_disabled":false,"rental_uris":{"android":"levelo://app?vid=aa8d6287-b95a-4e16-8b3a-83cecfb5c05d","ios":"levelo://app?vid=aa8d6287-b95a-4e16-8b3a-83cecfb5c05d"},"vehicle_type_id":"4","last_reported":1745897470,"current_range_meters":20000,"station_id":"cpo36qri1sfpv3e86is0","pricing_plan_id":"cebpf4jnsgd1na2vs0mg"},{"bike_id":"7d5a37e6-0e33-435e-86cf-30b34c213a12","system_id":"levelo_inurba_marseille","lat":43.279138,"lon":5.395771,"is_reserved":false,"is_disabled":false,"rental_uris":{"android":"levelo://app?vid=7d5a37e6-0e33-435e-86cf-30b34c213a12","ios":"levelo://app?vid=7d5a37e6-0e33-435e-86cf-30b34c213a12"},"vehicle_type_id":"4","last_reported":1745897470,"current_range_meters":20400,"station_id":"ce4bhf92rcd13ifvqf40","pricing_plan_id":"cebpf4jnsgd1na2vs0mg"},{"bike_id":"991af426-9c93-4d4c-bd36-cbc53f7ba46c","system_id":"levelo_inurba_marseille","lat":43.2396,"lon":5.36638,"is_reserved":false,"is_disabled":false,"rental_uris":{"android":"levelo://app?vid=991af426-9c93-4d4c-bd36-cbc53f7ba46c","ios":"levelo://app?vid=991af426-9c93-4d4c-bd36-cbc53f7ba46c"},"vehicle_type_id":"4","last_reported":1745897470,"current_range_meters":20800,"station_id":"ce4bhi12rcd13ifvqfp0","pricing_plan_id":"cebpf4jnsgd1na2vs0mg"},{"bike_id":"639a8685-dd60-4055-9b8b-8e5783c51e7a","system_id":"levelo_inurba_marseille","lat":43.291915,"lon":5.393331,"is_reserved":false,"is_disabled":false,"rental_uris":{"android":"levelo://app?vid=639a8685-dd60-4055-9b8b-8e5783c51e7a","ios":"levelo://app?vid=639a8685-dd60-4055-9b8b-8e5783c51e7a"},"vehicle_type_id":"4","last_reported":1745897470,"current_range_meters":20400,"station_id":"ce4bh192rcd13ifvqdd0","pricing_plan_id":"cebpf4jnsgd1na2vs0mg"},{"bike_id":"e4e76b6b-2fc7-4916-aa21-7cec24c0e4e8","system_id":"levelo_inurba_marseille","lat":43.279939,"lon":5.387544,"is_reserved":false,"is_disabled":true,"rental_uris":{"android":"levelo://app?vid=e4e76b6b-2fc7-4916-aa21-7cec24c0e4e8","ios":"levelo://app?vid=e4e76b6b-2fc7-4916-aa21-7cec24c0e4e8"},"vehicle_type_id":"4","last_reported":1745897470,"current_range_meters":20400,"station_id":"ce4bhg12rcd13ifvqf80","pricing_plan_id":"cebpf4jnsgd1na2vs0mg"},{"bike_id":"86c2979e-8cf6-48ed-bdb1-835ff11e3adc","system_id":"levelo_inurba_marseille","lat":43.253899,"lon":5.418556,"is_reserved":false,"is_disabled":false,"rental_uris":{"android":"levelo://app?vid=86c2979e-8cf6-48ed-bdb1-835ff11e3adc","ios":"levelo://app?vid=86c2979e-8cf6-48ed-bdb1-835ff11e3adc"},"vehicle_type_id":"4","last_reported":1745897470,"current_range_meters":20800,"station_id":"","pricing_plan_id":"cebpf4jnsgd1na2vs0mg"},{"bike_id":"a4d84cb8-6860-44ea-85de-d66185be58e0","system_id":"levelo_inurba_marseille","lat":43.305444,"lon":5.384324,"is_reserved":false,"is_disabled":true,"rental_uris":{"android":"levelo://app?vid=a4d84cb8-6860-44ea-85de-d66185be58e0","ios":"levelo://app?vid=a4d84cb8-6860-44ea-85de-d66185be58e0"},"vehicle_type_id":"4","last_reported":1745897470,"current_range_meters":20400,"station_id":"ce4bgg92rcd13ifvqb30","pricing_plan_id":"cebpf4jnsgd1na2vs0mg"},{"bike_id":"fce2c520-92d3-4d18-810b-8d643fc15a1a","system_id":"levelo_inurba_marseille","lat":43.23052,"lon":5.35505,"is_reserved":false,"is_disabled":false,"rental_uris":{"android":"levelo://app?vid=fce2c520-92d3-4d18-810b-8d643fc15a1a","ios":"levelo://app?vid=fce2c520-92d3-4d18-810b-8d643fc15a1a"},"vehicle_type_id":"4","last_reported":1745897470,"current_range_meters":20400,"station_id":"cpo3342slgdg3j2ifvpg","pricing_plan_id":"cebpf4jnsgd1na2vs0mg"},{"bike_id":"2767110b-46f6-461f-9053-309ad1bd2e5a","system_id":"levelo_inurba_marseille","lat":43.2293,"lon":5.35381,"is_reserved":false,"is_disabled":false,"rental_uris":{"android":"levelo://app?vid=2767110b-46f6-461f-9053-309ad1bd2e5a","ios":"levelo://app?vid=2767110b-46f6-461f-9053-309ad1bd2e5a"},"vehicle_type_id":"4","last_reported":1745897470,"current_range_meters":20400,"station_id":"cpo3532slgdg3j2ikp40","pricing_plan_id":"cebpf4jnsgd1na2vs0mg"},{"bike_id":"5b58391e-c391-4329-8400-dfb17c4b320d","system_id":"levelo_inurba_marseille","lat":43.279158,"lon":5.39577,"is_reserved":false,"is_disabled":false,"rental_uris":{"android":"levelo://app?vid=5b58391e-c391-4329-8400-dfb17c4b320d","ios":"levelo://app?vid=5b58391e-c391-4329-8400-dfb17c4b320d"},"vehicle_type_id":"4","last_reported":1745897470,"current_range_meters":20800,"station_id":"ce4bhf92rcd13ifvqf40","pricing_plan_id":"cebpf4jnsgd1na2vs0mg"},{"bike_id":"1eecfb39-b550-4ec7-bb58-e2d9ab82678d","system_id":"levelo_inurba_marseille","lat":43.23197,"lon":5.35571,"is_reserved":false,"is_disabled":false,"rental_uris":{"android":"levelo://app?vid=1eecfb39-b550-4ec7-bb58-e2d9ab82678d","ios":"levelo://app?vid=1eecfb39-b550-4ec7-bb58-e2d9ab82678d"},"vehicle_type_id":"4","last_reported":1745897470,"current_range_meters":20800,"station_id":"ce4bhu92rcd13ifvqi70","pricing_plan_id":"cebpf4jnsgd1na2vs0mg"},{"bike_id":"b2861b2d-3b9e-4211-a006-ecf419331232","system_id":"levelo_inurba_marseille","lat":43.29512,"lon":5.39413,"is_reserved":false,"is_disabled":false,"rental_uris":{"android":"levelo://app?vid=b2861b2d-3b9e-4211-a006-ecf419331232","ios":"levelo://app?vid=b2861b2d-3b9e-4211-a006-ecf419331232"},"vehicle_type_id":"4","last_reported":1745897470,"current_range_meters":20800,"station_id":"ce4bh292rcd13ifvqdf0","pricing_plan_id":"cebpf4jnsgd1na2vs0mg"},{"bike_id":"36589065-9777-4275-9498-24a04bf80734","system_id":"levelo_inurba_marseille","lat":43.229283,"lon":5.353899,"is_reserved":false,"is_disabled":false,"rental_uris":{"android":"levelo://app?vid=36589065-9777-4275-9498-24a04bf80734","ios":"levelo://app?vid=36589065-9777-4275-9498-24a04bf80734"},"vehicle_type_id":"4","last_reported":1745897470,"current_range_meters":21600,"station_id":"cpo3532slgdg3j2ikp40","pricing_plan_id":"cebpf4jnsgd1na2vs0mg"},{"bike_id":"2792008d-ab0b-4a87-900d-2ba575e691be","system_id":"levelo_inurba_marseille","lat":43.287014,"lon":5.399819,"is_reserved":false,"is_disabled":false,"rental_uris":{"android":"levelo://app?vid=2792008d-ab0b-4a87-900d-2ba575e691be","ios":"levelo://app?vid=2792008d-ab0b-4a87-900d-2ba575e691be"},"vehicle_type_id":"4","last_reported":1745897470,"current_range_meters":22000,"station_id":"ce4bho92rcd13ifvqh3g","pricing_plan_id":"cebpf4jnsgd1na2vs0mg"},{"bike_id":"6cf435b6-7657-4d5d-b1a3-17d16b147917","system_id":"levelo_inurba_marseille","lat":43.30467,"lon":5.39778,"is_reserved":false,"is_disabled":false,"rental_uris":{"android":"levelo://app?vid=6cf435b6-7657-4d5d-b1a3-17d16b147917","ios":"levelo://app?vid=6cf435b6-7657-4d5d-b1a3-17d16b147917"},"vehicle_type_id":"4","last_reported":1745897470,"current_range_meters":22000,"station_id":"ce4bh092rcd13ifvqd20","pricing_plan_id":"cebpf4jnsgd1na2vs0mg"},{"bike_id":"dc28fc6e-d680-4477-bbc1-f4611ff292f9","system_id":"levelo_inurba_marseille","lat":43.2466,"lon":5.38185,"is_reserved":false,"is_disabled":false,"rental_uris":{"android":"levelo://app?vid=dc28fc6e-d680-4477-bbc1-f4611ff292f9","ios":"levelo://app?vid=dc28fc6e-d680-4477-bbc1-f4611ff292f9"},"vehicle_type_id":"4","last_reported":1745897470,"current_range_meters":22000,"station_id":"ce4bhih2rcd13ifvqfr0","pricing_plan_id":"cebpf4jnsgd1na2vs0mg"},{"bike_id":"8074d6d0-e7ba-4452-8c1f-9937cd62ff0a","system_id":"levelo_inurba_marseille","lat":43.284,"lon":5.37531,"is_reserved":false,"is_disabled":false,"rental_uris":{"android":"levelo://app?vid=8074d6d0-e7ba-4452-8c1f-9937cd62ff0a","ios":"levelo://app?vid=8074d6d0-e7ba-4452-8c1f-9937cd62ff0a"},"vehicle_type_id":"4","last_reported":1745897470,"current_range_meters":22000,"station_id":"ce4bh412rcd13ifvqds0","pricing_plan_id":"cebpf4jnsgd1na2vs0mg"},{"bike_id":"62bc10f9-8bc6-4b8f-a2c6-c9500cdd5250","system_id":"levelo_inurba_marseille","lat":43.243923,"lon":5.370578,"is_reserved":false,"is_disabled":false,"rental_uris":{"android":"levelo://app?vid=62bc10f9-8bc6-4b8f-a2c6-c9500cdd5250","ios":"levelo://app?vid=62bc10f9-8bc6-4b8f-a2c6-c9500cdd5250"},"vehicle_type_id":"4","last_reported":1745897470,"current_range_meters":22000,"station_id":"ce4bhhh2rcd13ifvqfk0","pricing_plan_id":"cebpf4jnsgd1na2vs0mg"},{"bike_id":"334f0609-b51b-492a-8482-a689c46d4ff0","system_id":"levelo_inurba_marseille","lat":43.284791,"lon":5.384349,"is_reserved":false,"is_disabled":true,"rental_uris":{"android":"levelo://app?vid=334f0609-b51b-492a-8482-a689c46d4ff0","ios":"levelo://app?vid=334f0609-b51b-492a-8482-a689c46d4ff0"},"vehicle_type_id":"4","last_reported":1745897470,"current_range_meters":22000,"station_id":"ce4bh512rcd13ifvqe3g","pricing_plan_id":"cebpf4jnsgd1na2vs0mg"},{"bike_id":"ddb8316e-1365-448a-a8aa-0cbad9411035","system_id":"levelo_inurba_marseille","lat":43.2879,"lon":5.35865,"is_reserved":false,"is_disabled":false,"rental_uris":{"android":"levelo://app?vid=ddb8316e-1365-448a-a8aa-0cbad9411035","ios":"levelo://app?vid=ddb8316e-1365-448a-a8aa-0cbad9411035"},"vehicle_type_id":"4","last_reported":1745897470,"current_range_meters":22000,"station_id":"","pricing_plan_id":"cebpf4jnsgd1na2vs0mg"},{"bike_id":"adc44d8b-db45-47a0-b0cb-74959fb103db","system_id":"levelo_inurba_marseille","lat":43.311741,"lon":5.387174,"is_reserved":false,"is_disabled":false,"rental_uris":{"android":"levelo://app?vid=adc44d8b-db45-47a0-b0cb-74959fb103db","ios":"levelo://app?vid=adc44d8b-db45-47a0-b0cb-74959fb103db"},"vehicle_type_id":"4","last_reported":1745897470,"current_range_meters":22400,"station_id":"ce4bgv12rcd13ifvqcp0","pricing_plan_id":"cebpf4jnsgd1na2vs0mg"},{"bike_id":"ae23a65e-7234-4b38-b7da-e11c7dcd230c","system_id":"levelo_inurba_marseille","lat":43.251153,"lon":5.403315,"is_reserved":false,"is_disabled":false,"rental_uris":{"android":"levelo://app?vid=ae23a65e-7234-4b38-b7da-e11c7dcd230c","ios":"levelo://app?vid=ae23a65e-7234-4b38-b7da-e11c7dcd230c"},"vehicle_type_id":"4","last_reported":1745897470,"current_range_meters":22400,"station_id":"ce4bhlh2rcd13ifvqgig","pricing_plan_id":"cebpf4jnsgd1na2vs0mg"},{"bike_id":"476d6e23-e0d6-4515-acd8-e9a58c14fa45","system_id":"levelo_inurba_marseille","lat":43.32654,"lon":5.41006,"is_reserved":false,"is_disabled":false,"rental_uris":{"android":"levelo://app?vid=476d6e23-e0d6-4515-acd8-e9a58c14fa45","ios":"levelo://app?vid=476d6e23-e0d6-4515-acd8-e9a58c14fa45"},"vehicle_type_id":"4","last_reported":1745897470,"current_range_meters":22400,"station_id":"ce4bhpp2rcd13ifvqhgg","pricing_plan_id":"cebpf4jnsgd1na2vs0mg"},{"bike_id":"5305078a-127d-4e22-a2af-62a613566d20","system_id":"levelo_inurba_marseille","lat":43.284609,"lon":5.358916,"is_reserved":false,"is_disabled":false,"rental_uris":{"android":"levelo://app?vid=5305078a-127d-4e22-a2af-62a613566d20","ios":"levelo://app?vid=5305078a-127d-4e22-a2af-62a613566d20"},"vehicle_type_id":"4","last_reported":1745897470,"current_range_meters":22800,"station_id":"ce4bhah2rcd13ifvqei0","pricing_plan_id":"cebpf4jnsgd1na2vs0mg"},{"bike_id":"84d6be6e-7ab9-4c40-85ad-0b661d79af0d","system_id":"levelo_inurba_marseille","lat":43.23194,"lon":5.3556,"is_reserved":false,"is_disabled":false,"rental_uris":{"android":"levelo://app?vid=84d6be6e-7ab9-4c40-85ad-0b661d79af0d","ios":"levelo://app?vid=84d6be6e-7ab9-4c40-85ad-0b661d79af0d"},"vehicle_type_id":"4","last_reported":1745897470,"current_range_meters":22800,"station_id":"ce4bhu92rcd13ifvqi70","pricing_plan_id":"cebpf4jnsgd1na2vs0mg"},{"bike_id":"f73ebae7-7d33-4937-bf07-2f6d4e7b035a","system_id":"levelo_inurba_marseille","lat":43.286981,"lon":5.399759,"is_reserved":false,"is_disabled":false,"rental_uris":{"android":"levelo://app?vid=f73ebae7-7d33-4937-bf07-2f6d4e7b035a","ios":"levelo://app?vid=f73ebae7-7d33-4937-bf07-2f6d4e7b035a"},"vehicle_type_id":"4","last_reported":1745897470,"current_range_meters":22800,"station_id":"ce4bho92rcd13ifvqh3g","pricing_plan_id":"cebpf4jnsgd1na2vs0mg"},{"bike_id":"f1554015-1333-46b5-8c38-f6ed8d6276bb","system_id":"levelo_inurba_marseille","lat":43.292646,"lon":5.376233,"is_reserved":false,"is_disabled":false,"rental_uris":{"android":"levelo://app?vid=f1554015-1333-46b5-8c38-f6ed8d6276bb","ios":"levelo://app?vid=f1554015-1333-46b5-8c38-f6ed8d6276bb"},"vehicle_type_id":"4","last_reported":1745897470,"current_range_meters":23200,"station_id":"ce4bgi12rcd13ifvqb80","pricing_plan_id":"cebpf4jnsgd1na2vs0mg"},{"bike_id":"2a4f5dfa-513d-46a0-923b-e5be40c3c2bc","system_id":"levelo_inurba_marseille","lat":43.284379,"lon":5.391871,"is_reserved":false,"is_disabled":true,"rental_uris":{"android":"levelo://app?vid=2a4f5dfa-513d-46a0-923b-e5be40c3c2bc","ios":"levelo://app?vid=2a4f5dfa-513d-46a0-923b-e5be40c3c2bc"},"vehicle_type_id":"4","last_reported":1745897470,"current_range_meters":23200,"station_id":"ce4bhoh2rcd13ifvqh5g","pricing_plan_id":"cebpf4jnsgd1na2vs0mg"},{"bike_id":"44ff7261-e51a-4419-8ffa-a0d39d5b60ba","system_id":"levelo_inurba_marseille","lat":43.28339,"lon":5.381079,"is_reserved":false,"is_disabled":true,"rental_uris":{"android":"levelo://app?vid=44ff7261-e51a-4419-8ffa-a0d39d5b60ba","ios":"levelo://app?vid=44ff7261-e51a-4419-8ffa-a0d39d5b60ba"},"vehicle_type_id":"4","last_reported":1745897470,"current_range_meters":22800,"station_id":"ce4bh412rcd13ifvqdr0","pricing_plan_id":"cebpf4jnsgd1na2vs0mg"},{"bike_id":"c904117e-23c8-4f08-b0bb-a929630f1d54","system_id":"levelo_inurba_marseille","lat":43.28074,"lon":5.37873,"is_reserved":false,"is_disabled":false,"rental_uris":{"android":"levelo://app?vid=c904117e-23c8-4f08-b0bb-a929630f1d54","ios":"levelo://app?vid=c904117e-23c8-4f08-b0bb-a929630f1d54"},"vehicle_type_id":"4","last_reported":1745897470,"current_range_meters":22800,"station_id":"ce4bha12rcd13ifvqee0","pricing_plan_id":"cebpf4jnsgd1na2vs0mg"},{"bike_id":"fdd1b7d2-a2df-4cad-8f9f-356c6d307cd1","system_id":"levelo_inurba_marseille","lat":43.30252,"lon":5.40082,"is_reserved":false,"is_disabled":false,"rental_uris":{"android":"levelo://app?vid=fdd1b7d2-a2df-4cad-8f9f-356c6d307cd1","ios":"levelo://app?vid=fdd1b7d2-a2df-4cad-8f9f-356c6d307cd1"},"vehicle_type_id":"4","last_reported":1745897470,"current_range_meters":22800,"station_id":"ce4bgvh2rcd13ifvqcs0","pricing_plan_id":"cebpf4jnsgd1na2vs0mg"},{"bike_id":"4561fee1-0e59-47fa-8a60-d713b55bd720","system_id":"levelo_inurba_marseille","lat":43.29457,"lon":5.39763,"is_reserved":false,"is_disabled":false,"rental_uris":{"android":"levelo://app?vid=4561fee1-0e59-47fa-8a60-d713b55bd720","ios":"levelo://app?vid=4561fee1-0e59-47fa-8a60-d713b55bd720"},"vehicle_type_id":"4","last_reported":1745897470,"current_range_meters":22800,"station_id":"ce4bh3h2rcd13ifvqdo0","pricing_plan_id":"cebpf4jnsgd1na2vs0mg"},{"bike_id":"cfc035fb-b338-45e7-9d5a-22dfe937685e","system_id":"levelo_inurba_marseille","lat":43.262276,"lon":5.404636,"is_reserved":false,"is_disabled":false,"rental_uris":{"android":"levelo://app?vid=cfc035fb-b338-45e7-9d5a-22dfe937685e","ios":"levelo://app?vid=cfc035fb-b338-45e7-9d5a-22dfe937685e"},"vehicle_type_id":"4","last_reported":1745897470,"current_range_meters":22800,"station_id":"ce4bhmh2rcd13ifvqgmg","pricing_plan_id":"cebpf4jnsgd1na2vs0mg"},{"bike_id":"a5236b1c-ebbf-468c-a0ef-8cc8f74238a6","system_id":"levelo_inurba_marseille","lat":43.288426,"lon":5.358511,"is_reserved":false,"is_disabled":false,"rental_uris":{"android":"levelo://app?vid=a5236b1c-ebbf-468c-a0ef-8cc8f74238a6","ios":"levelo://app?vid=a5236b1c-ebbf-468c-a0ef-8cc8f74238a6"},"vehicle_type_id":"4","last_reported":1745897470,"current_range_meters":22800,"station_id":"ce4bhb12rcd13ifvqem0","pricing_plan_id":"cebpf4jnsgd1na2vs0mg"},{"bike_id":"750b37f4-0312-424d-8787-8c7fa359a8d6","system_id":"levelo_inurba_marseille","lat":43.336008,"lon":5.410173,"is_reserved":false,"is_disabled":false,"rental_uris":{"android":"levelo://app?vid=750b37f4-0312-424d-8787-8c7fa359a8d6","ios":"levelo://app?vid=750b37f4-0312-424d-8787-8c7fa359a8d6"},"vehicle_type_id":"4","last_reported":1745897470,"current_range_meters":23200,"station_id":"ce4bhqh2rcd13ifvqhmg","pricing_plan_id":"cebpf4jnsgd1na2vs0mg"},{"bike_id":"2372f7c6-1089-4c13-bafe-c3d7862aadcc","system_id":"levelo_inurba_marseille","lat":43.31699,"lon":5.43702,"is_reserved":false,"is_disabled":false,"rental_uris":{"android":"levelo://app?vid=2372f7c6-1089-4c13-bafe-c3d7862aadcc","ios":"levelo://app?vid=2372f7c6-1089-4c13-bafe-c3d7862aadcc"},"vehicle_type_id":"4","last_reported":1745897470,"current_range_meters":23200,"station_id":"ce4bhp92rcd13ifvqhcg","pricing_plan_id":"cebpf4jnsgd1na2vs0mg"},{"bike_id":"e796717e-f02b-4f67-b159-56cb2ccc13bc","system_id":"levelo_inurba_marseille","lat":43.324821,"lon":5.365691,"is_reserved":false,"is_disabled":false,"rental_uris":{"android":"levelo://app?vid=e796717e-f02b-4f67-b159-56cb2ccc13bc","ios":"levelo://app?vid=e796717e-f02b-4f67-b159-56cb2ccc13bc"},"vehicle_type_id":"4","last_reported":1745897470,"current_range_meters":24000,"station_id":"ce4bhs12rcd13ifvqhvg","pricing_plan_id":"cebpf4jnsgd1na2vs0mg"},{"bike_id":"9eac9edc-c3d5-43dc-8ebc-c05868539cb4","system_id":"levelo_inurba_marseille","lat":43.24999,"lon":5.37971,"is_reserved":false,"is_disabled":false,"rental_uris":{"android":"levelo://app?vid=9eac9edc-c3d5-43dc-8ebc-c05868539cb4","ios":"levelo://app?vid=9eac9edc-c3d5-43dc-8ebc-c05868539cb4"},"vehicle_type_id":"4","last_reported":1745897470,"current_range_meters":23200,"station_id":"","pricing_plan_id":"cebpf4jnsgd1na2vs0mg"},{"bike_id":"775ee98d-2ff4-4422-a6a0-98adb410b287","system_id":"levelo_inurba_marseille","lat":43.26028,"lon":5.37568,"is_reserved":false,"is_disabled":false,"rental_uris":{"android":"levelo://app?vid=775ee98d-2ff4-4422-a6a0-98adb410b287","ios":"levelo://app?vid=775ee98d-2ff4-4422-a6a0-98adb410b287"},"vehicle_type_id":"4","last_reported":1745897470,"current_range_meters":23200,"station_id":"ce4bhgh2rcd13ifvqfa0","pricing_plan_id":"cebpf4jnsgd1na2vs0mg"},{"bike_id":"7940bc1b-eaa7-4f49-a435-46dc9391f6a1","system_id":"levelo_inurba_marseille","lat":43.211935,"lon":5.350697,"is_reserved":false,"is_disabled":false,"rental_uris":{"android":"levelo://app?vid=7940bc1b-eaa7-4f49-a435-46dc9391f6a1","ios":"levelo://app?vid=7940bc1b-eaa7-4f49-a435-46dc9391f6a1"},"vehicle_type_id":"4","last_reported":1745897470,"current_range_meters":23200,"station_id":"st_cvj6sg6p6f1abm77japg","pricing_plan_id":"cebpf4jnsgd1na2vs0mg"},{"bike_id":"69c3fa2a-08d1-4501-9d8e-766e0ed626ed","system_id":"levelo_inurba_marseille","lat":43.2468,"lon":5.3812,"is_reserved":false,"is_disabled":false,"rental_uris":{"android":"levelo://app?vid=69c3fa2a-08d1-4501-9d8e-766e0ed626ed","ios":"levelo://app?vid=69c3fa2a-08d1-4501-9d8e-766e0ed626ed"},"vehicle_type_id":"4","last_reported":1745897470,"current_range_meters":23200,"station_id":"ce4bhih2rcd13ifvqfr0","pricing_plan_id":"cebpf4jnsgd1na2vs0mg"},{"bike_id":"125c185d-8482-489a-87ad-9d3f026ee049","system_id":"levelo_inurba_marseille","lat":43.308131,"lon":5.38151,"is_reserved":false,"is_disabled":false,"rental_uris":{"android":"levelo://app?vid=125c185d-8482-489a-87ad-9d3f026ee049","ios":"levelo://app?vid=125c185d-8482-489a-87ad-9d3f026ee049"},"vehicle_type_id":"4","last_reported":1745897470,"current_range_meters":24000,"station_id":"ce4bgt12rcd13ifvqce0","pricing_plan_id":"cebpf4jnsgd1na2vs0mg"},{"bike_id":"111c1998-4230-4789-add4-3e3731da2f78","system_id":"levelo_inurba_marseille","lat":43.276549,"lon":5.420929,"is_reserved":false,"is_disabled":false,"rental_uris":{"android":"levelo://app?vid=111c1998-4230-4789-add4-3e3731da2f78","ios":"levelo://app?vid=111c1998-4230-4789-add4-3e3731da2f78"},"vehicle_type_id":"4","last_reported":1745897470,"current_range_meters":24000,"station_id":"","pricing_plan_id":"cebpf4jnsgd1na2vs0mg"},{"bike_id":"b2f30969-ddb8-472a-9a53-11379320d88c","system_id":"levelo_inurba_marseille","lat":43.28097,"lon":5.37874,"is_reserved":false,"is_disabled":false,"rental_uris":{"android":"levelo://app?vid=b2f30969-ddb8-472a-9a53-11379320d88c","ios":"levelo://app?vid=b2f30969-ddb8-472a-9a53-11379320d88c"},"vehicle_type_id":"4","last_reported":1745897470,"current_range_meters":24000,"station_id":"ce4bha12rcd13ifvqee0","pricing_plan_id":"cebpf4jnsgd1na2vs0mg"},{"bike_id":"e932c0f4-05c1-4eb4-b3a1-9a7195a328ea","system_id":"levelo_inurba_marseille","lat":43.281549,"lon":5.406069,"is_reserved":false,"is_disabled":false,"rental_uris":{"android":"levelo://app?vid=e932c0f4-05c1-4eb4-b3a1-9a7195a328ea","ios":"levelo://app?vid=e932c0f4-05c1-4eb4-b3a1-9a7195a328ea"},"vehicle_type_id":"4","last_reported":1745897470,"current_range_meters":24000,"station_id":"","pricing_plan_id":"cebpf4jnsgd1na2vs0mg"},{"bike_id":"268504e2-74a5-47c3-b52d-292d7045c5af","system_id":"levelo_inurba_marseille","lat":43.26001,"lon":5.4176,"is_reserved":false,"is_disabled":false,"rental_uris":{"android":"levelo://app?vid=268504e2-74a5-47c3-b52d-292d7045c5af","ios":"levelo://app?vid=268504e2-74a5-47c3-b52d-292d7045c5af"},"vehicle_type_id":"4","last_reported":1745897470,"current_range_meters":24000,"station_id":"","pricing_plan_id":"cebpf4jnsgd1na2vs0mg"},{"bike_id":"2602dafc-a23e-4a27-8921-7d989c9dcfdd","system_id":"levelo_inurba_marseille","lat":43.3133,"lon":5.39691,"is_reserved":false,"is_disabled":false,"rental_uris":{"android":"levelo://app?vid=2602dafc-a23e-4a27-8921-7d989c9dcfdd","ios":"levelo://app?vid=2602dafc-a23e-4a27-8921-7d989c9dcfdd"},"vehicle_type_id":"4","last_reported":1745897470,"current_range_meters":24000,"station_id":"ce4bgvp2rcd13ifvqcu0","pricing_plan_id":"cebpf4jnsgd1na2vs0mg"},{"bike_id":"fb03f4b6-df29-4a31-abfd-26d1b74beff6","system_id":"levelo_inurba_marseille","lat":43.28074,"lon":5.39652,"is_reserved":false,"is_disabled":false,"rental_uris":{"android":"levelo://app?vid=fb03f4b6-df29-4a31-abfd-26d1b74beff6","ios":"levelo://app?vid=fb03f4b6-df29-4a31-abfd-26d1b74beff6"},"vehicle_type_id":"4","last_reported":1745897470,"current_range_meters":24000,"station_id":"ce4bho12rcd13ifvqh2g","pricing_plan_id":"cebpf4jnsgd1na2vs0mg"},{"bike_id":"f5ee6b5c-07b9-4c0d-b44d-1ece77029f45","system_id":"levelo_inurba_marseille","lat":43.305447,"lon":5.365289,"is_reserved":false,"is_disabled":true,"rental_uris":{"android":"levelo://app?vid=f5ee6b5c-07b9-4c0d-b44d-1ece77029f45","ios":"levelo://app?vid=f5ee6b5c-07b9-4c0d-b44d-1ece77029f45"},"vehicle_type_id":"4","last_reported":1745897470,"current_range_meters":24400,"station_id":"ce4bgs12rcd13ifvqcag","pricing_plan_id":"cebpf4jnsgd1na2vs0mg"},{"bike_id":"1af3e0d0-2745-4622-ae06-b55ee5929019","system_id":"levelo_inurba_marseille","lat":43.30591,"lon":5.39302,"is_reserved":false,"is_disabled":false,"rental_uris":{"android":"levelo://app?vid=1af3e0d0-2745-4622-ae06-b55ee5929019","ios":"levelo://app?vid=1af3e0d0-2745-4622-ae06-b55ee5929019"},"vehicle_type_id":"4","last_reported":1745897470,"current_range_meters":24000,"station_id":"ce4bh0p2rcd13ifvqd80","pricing_plan_id":"cebpf4jnsgd1na2vs0mg"},{"bike_id":"7f07cf79-bf31-4466-bbb0-bf29937a6577","system_id":"levelo_inurba_marseille","lat":43.30807,"lon":5.43547,"is_reserved":false,"is_disabled":false,"rental_uris":{"android":"levelo://app?vid=7f07cf79-bf31-4466-bbb0-bf29937a6577","ios":"levelo://app?vid=7f07cf79-bf31-4466-bbb0-bf29937a6577"},"vehicle_type_id":"4","last_reported":1745897470,"current_range_meters":24400,"station_id":"ce4bhph2rcd13ifvqheg","pricing_plan_id":"cebpf4jnsgd1na2vs0mg"},{"bike_id":"d83226ff-dc2a-4f44-936a-672e7ee67d6f","system_id":"levelo_inurba_marseille","lat":43.30521,"lon":5.384563,"is_reserved":false,"is_disabled":false,"rental_uris":{"android":"levelo://app?vid=d83226ff-dc2a-4f44-936a-672e7ee67d6f","ios":"levelo://app?vid=d83226ff-dc2a-4f44-936a-672e7ee67d6f"},"vehicle_type_id":"4","last_reported":1745897470,"current_range_meters":24400,"station_id":"ce4bgg92rcd13ifvqb30","pricing_plan_id":"cebpf4jnsgd1na2vs0mg"},{"bike_id":"1e18bfa8-5ebe-456e-93b7-8a4169e446f7","system_id":"levelo_inurba_marseille","lat":43.284054,"lon":5.375132,"is_reserved":false,"is_disabled":false,"rental_uris":{"android":"levelo://app?vid=1e18bfa8-5ebe-456e-93b7-8a4169e446f7","ios":"levelo://app?vid=1e18bfa8-5ebe-456e-93b7-8a4169e446f7"},"vehicle_type_id":"4","last_reported":1745897470,"current_range_meters":24400,"station_id":"ce4bh412rcd13ifvqds0","pricing_plan_id":"cebpf4jnsgd1na2vs0mg"},{"bike_id":"b6f70403-6995-4a1b-8735-80d5c6aed089","system_id":"levelo_inurba_marseille","lat":43.28041,"lon":5.37858,"is_reserved":false,"is_disabled":false,"rental_uris":{"android":"levelo://app?vid=b6f70403-6995-4a1b-8735-80d5c6aed089","ios":"levelo://app?vid=b6f70403-6995-4a1b-8735-80d5c6aed089"},"vehicle_type_id":"4","last_reported":1745897470,"current_range_meters":24400,"station_id":"ce4bha12rcd13ifvqee0","pricing_plan_id":"cebpf4jnsgd1na2vs0mg"},{"bike_id":"7369e24d-6a3f-462a-8bdf-e4257b73fa9c","system_id":"levelo_inurba_marseille","lat":43.29876,"lon":5.39712,"is_reserved":false,"is_disabled":false,"rental_uris":{"android":"levelo://app?vid=7369e24d-6a3f-462a-8bdf-e4257b73fa9c","ios":"levelo://app?vid=7369e24d-6a3f-462a-8bdf-e4257b73fa9c"},"vehicle_type_id":"4","last_reported":1745897470,"current_range_meters":24400,"station_id":"ce4bh0h2rcd13ifvqd50","pricing_plan_id":"cebpf4jnsgd1na2vs0mg"},{"bike_id":"9d7cd891-1eab-48c4-8c51-445bb475f0d6","system_id":"levelo_inurba_marseille","lat":43.292136,"lon":5.369046,"is_reserved":false,"is_disabled":false,"rental_uris":{"android":"levelo://app?vid=9d7cd891-1eab-48c4-8c51-445bb475f0d6","ios":"levelo://app?vid=9d7cd891-1eab-48c4-8c51-445bb475f0d6"},"vehicle_type_id":"4","last_reported":1745897470,"current_range_meters":24400,"station_id":"","pricing_plan_id":"cebpf4jnsgd1na2vs0mg"},{"bike_id":"12d82bc9-4a63-4485-9cc6-a4750f25eca3","system_id":"levelo_inurba_marseille","lat":43.265616,"lon":5.390092,"is_reserved":false,"is_disabled":false,"rental_uris":{"android":"levelo://app?vid=12d82bc9-4a63-4485-9cc6-a4750f25eca3","ios":"levelo://app?vid=12d82bc9-4a63-4485-9cc6-a4750f25eca3"},"vehicle_type_id":"4","last_reported":1745897470,"current_range_meters":24800,"station_id":"ce4bhe12rcd13ifvqf30","pricing_plan_id":"cebpf4jnsgd1na2vs0mg"},{"bike_id":"d8bf52f9-2bd7-4f78-9b98-370b5830fa38","system_id":"levelo_inurba_marseille","lat":43.28693,"lon":5.37395,"is_reserved":false,"is_disabled":false,"rental_uris":{"android":"levelo://app?vid=d8bf52f9-2bd7-4f78-9b98-370b5830fa38","ios":"levelo://app?vid=d8bf52f9-2bd7-4f78-9b98-370b5830fa38"},"vehicle_type_id":"4","last_reported":1745897470,"current_range_meters":24800,"station_id":"ce4bh3p2rcd13ifvqdq0","pricing_plan_id":"cebpf4jnsgd1na2vs0mg"},{"bike_id":"970629cc-6f41-47a8-8db5-15b656cc9689","system_id":"levelo_inurba_marseille","lat":43.31986,"lon":5.38147,"is_reserved":false,"is_disabled":true,"rental_uris":{"android":"levelo://app?vid=970629cc-6f41-47a8-8db5-15b656cc9689","ios":"levelo://app?vid=970629cc-6f41-47a8-8db5-15b656cc9689"},"vehicle_type_id":"4","last_reported":1745897470,"current_range_meters":24800,"station_id":"ce4bhr12rcd13ifvqhpg","pricing_plan_id":"cebpf4jnsgd1na2vs0mg"},{"bike_id":"be29e37f-02fb-448d-8751-7b2bc2e28bfa","system_id":"levelo_inurba_marseille","lat":43.2396,"lon":5.36618,"is_reserved":false,"is_disabled":false,"rental_uris":{"android":"levelo://app?vid=be29e37f-02fb-448d-8751-7b2bc2e28bfa","ios":"levelo://app?vid=be29e37f-02fb-448d-8751-7b2bc2e28bfa"},"vehicle_type_id":"4","last_reported":1745897470,"current_range_meters":24800,"station_id":"ce4bhi12rcd13ifvqfp0","pricing_plan_id":"cebpf4jnsgd1na2vs0mg"},{"bike_id":"d2185638-dfcb-4aa9-af38-55630b2c2c5f","system_id":"levelo_inurba_marseille","lat":43.279388,"lon":5.410352,"is_reserved":false,"is_disabled":false,"rental_uris":{"android":"levelo://app?vid=d2185638-dfcb-4aa9-af38-55630b2c2c5f","ios":"levelo://app?vid=d2185638-dfcb-4aa9-af38-55630b2c2c5f"},"vehicle_type_id":"4","last_reported":1745897470,"current_range_meters":24800,"station_id":"ce4bhnp2rcd13ifvqh0g","pricing_plan_id":"cebpf4jnsgd1na2vs0mg"},{"bike_id":"532d8968-5e1e-47ce-9c1c-b5c02c7580e8","system_id":"levelo_inurba_marseille","lat":43.28703,"lon":5.40015,"is_reserved":false,"is_disabled":false,"rental_uris":{"android":"levelo://app?vid=532d8968-5e1e-47ce-9c1c-b5c02c7580e8","ios":"levelo://app?vid=532d8968-5e1e-47ce-9c1c-b5c02c7580e8"},"vehicle_type_id":"4","last_reported":1745897470,"current_range_meters":24800,"station_id":"ce4bho92rcd13ifvqh3g","pricing_plan_id":"cebpf4jnsgd1na2vs0mg"},{"bike_id":"59df95de-5629-4063-a67a-1ec57ff65a84","system_id":"levelo_inurba_marseille","lat":43.28811,"lon":5.35849,"is_reserved":false,"is_disabled":false,"rental_uris":{"android":"levelo://app?vid=59df95de-5629-4063-a67a-1ec57ff65a84","ios":"levelo://app?vid=59df95de-5629-4063-a67a-1ec57ff65a84"},"vehicle_type_id":"4","last_reported":1745897470,"current_range_meters":24800,"station_id":"ce4bhb12rcd13ifvqem0","pricing_plan_id":"cebpf4jnsgd1na2vs0mg"},{"bike_id":"6b68380b-538d-4e82-a837-46085847b0db","system_id":"levelo_inurba_marseille","lat":43.284622,"lon":5.358954,"is_reserved":false,"is_disabled":true,"rental_uris":{"android":"levelo://app?vid=6b68380b-538d-4e82-a837-46085847b0db","ios":"levelo://app?vid=6b68380b-538d-4e82-a837-46085847b0db"},"vehicle_type_id":"4","last_reported":1745897470,"current_range_meters":24800,"station_id":"ce4bhah2rcd13ifvqei0","pricing_plan_id":"cebpf4jnsgd1na2vs0mg"},{"bike_id":"ce353a96-3e3e-4dc6-9db0-14435b4983e3","system_id":"levelo_inurba_marseille","lat":43.23617,"lon":5.36527,"is_reserved":false,"is_disabled":false,"rental_uris":{"android":"levelo://app?vid=ce353a96-3e3e-4dc6-9db0-14435b4983e3","ios":"levelo://app?vid=ce353a96-3e3e-4dc6-9db0-14435b4983e3"},"vehicle_type_id":"4","last_reported":1745897470,"current_range_meters":24800,"station_id":"","pricing_plan_id":"cebpf4jnsgd1na2vs0mg"},{"bike_id":"b605aff8-0b7b-4141-8902-ef413e8e4cbb","system_id":"levelo_inurba_marseille","lat":43.251088,"lon":5.403248,"is_reserved":false,"is_disabled":false,"rental_uris":{"android":"levelo://app?vid=b605aff8-0b7b-4141-8902-ef413e8e4cbb","ios":"levelo://app?vid=b605aff8-0b7b-4141-8902-ef413e8e4cbb"},"vehicle_type_id":"4","last_reported":1745897470,"current_range_meters":24800,"station_id":"ce4bhlh2rcd13ifvqgig","pricing_plan_id":"cebpf4jnsgd1na2vs0mg"},{"bike_id":"c5e08465-0785-4807-abbe-19c208ca79d4","system_id":"levelo_inurba_marseille","lat":43.23195,"lon":5.35561,"is_reserved":false,"is_disabled":false,"rental_uris":{"android":"levelo://app?vid=c5e08465-0785-4807-abbe-19c208ca79d4","ios":"levelo://app?vid=c5e08465-0785-4807-abbe-19c208ca79d4"},"vehicle_type_id":"4","last_reported":1745897470,"current_range_meters":25200,"station_id":"ce4bhu92rcd13ifvqi70","pricing_plan_id":"cebpf4jnsgd1na2vs0mg"},{"bike_id":"f6ae60a0-6754-4e20-9c97-762bb58db90f","system_id":"levelo_inurba_marseille","lat":43.30802,"lon":5.3815,"is_reserved":false,"is_disabled":false,"rental_uris":{"android":"levelo://app?vid=f6ae60a0-6754-4e20-9c97-762bb58db90f","ios":"levelo://app?vid=f6ae60a0-6754-4e20-9c97-762bb58db90f"},"vehicle_type_id":"4","last_reported":1745897470,"current_range_meters":25600,"station_id":"ce4bgt12rcd13ifvqce0","pricing_plan_id":"cebpf4jnsgd1na2vs0mg"},{"bike_id":"64b581f0-c045-4a69-8920-c114187ba59d","system_id":"levelo_inurba_marseille","lat":43.239658,"lon":5.366328,"is_reserved":false,"is_disabled":false,"rental_uris":{"android":"levelo://app?vid=64b581f0-c045-4a69-8920-c114187ba59d","ios":"levelo://app?vid=64b581f0-c045-4a69-8920-c114187ba59d"},"vehicle_type_id":"4","last_reported":1745897470,"current_range_meters":25600,"station_id":"ce4bhi12rcd13ifvqfp0","pricing_plan_id":"cebpf4jnsgd1na2vs0mg"},{"bike_id":"9a91da64-4eca-48ec-8863-fbb3f7f30dd0","system_id":"levelo_inurba_marseille","lat":43.284438,"lon":5.391926,"is_reserved":false,"is_disabled":false,"rental_uris":{"android":"levelo://app?vid=9a91da64-4eca-48ec-8863-fbb3f7f30dd0","ios":"levelo://app?vid=9a91da64-4eca-48ec-8863-fbb3f7f30dd0"},"vehicle_type_id":"4","last_reported":1745897470,"current_range_meters":25200,"station_id":"ce4bhoh2rcd13ifvqh5g","pricing_plan_id":"cebpf4jnsgd1na2vs0mg"},{"bike_id":"288b5399-540d-470c-af94-6957e7dabf20","system_id":"levelo_inurba_marseille","lat":43.241518,"lon":5.364071,"is_reserved":false,"is_disabled":false,"rental_uris":{"android":"levelo://app?vid=288b5399-540d-470c-af94-6957e7dabf20","ios":"levelo://app?vid=288b5399-540d-470c-af94-6957e7dabf20"},"vehicle_type_id":"4","last_reported":1745897470,"current_range_meters":25200,"station_id":"cpo36qri1sfpv3e86is0","pricing_plan_id":"cebpf4jnsgd1na2vs0mg"},{"bike_id":"edbc464a-446d-4095-a0fe-ee31e1f4af56","system_id":"levelo_inurba_marseille","lat":43.289372,"lon":5.363972,"is_reserved":false,"is_disabled":true,"rental_uris":{"android":"levelo://app?vid=edbc464a-446d-4095-a0fe-ee31e1f4af56","ios":"levelo://app?vid=edbc464a-446d-4095-a0fe-ee31e1f4af56"},"vehicle_type_id":"4","last_reported":1745897470,"current_range_meters":25200,"station_id":"ce4bhc92rcd13ifvqetg","pricing_plan_id":"cebpf4jnsgd1na2vs0mg"},{"bike_id":"6e1687f6-f876-4cee-be95-39701bb73b7d","system_id":"levelo_inurba_marseille","lat":43.26562,"lon":5.389977,"is_reserved":false,"is_disabled":true,"rental_uris":{"android":"levelo://app?vid=6e1687f6-f876-4cee-be95-39701bb73b7d","ios":"levelo://app?vid=6e1687f6-f876-4cee-be95-39701bb73b7d"},"vehicle_type_id":"4","last_reported":1745897470,"current_range_meters":25200,"station_id":"ce4bhe12rcd13ifvqf30","pricing_plan_id":"cebpf4jnsgd1na2vs0mg"},{"bike_id":"ff47ea99-d5f0-4307-a653-cbeaa7c7fb67","system_id":"levelo_inurba_marseille","lat":43.320892,"lon":5.440926,"is_reserved":false,"is_disabled":false,"rental_uris":{"android":"levelo://app?vid=ff47ea99-d5f0-4307-a653-cbeaa7c7fb67","ios":"levelo://app?vid=ff47ea99-d5f0-4307-a653-cbeaa7c7fb67"},