{"last_updated":1743282476,"ttl":60,"version":"2.2","data":{"bikes":[{"bike_id":"ca8eaaa3-6706-4232-a20d-36c548bc4e48","system_id":"levelo_inurba_marseille","lat":43.27926,"lon":5.39586,"is_reserved":false,"is_disabled":false,"rental_uris":{"android":"levelo://app?vid=ca8eaaa3-6706-4232-a20d-36c548bc4e48","ios":"levelo://app?vid=ca8eaaa3-6706-4232-a20d-36c548bc4e48"},"vehicle_type_id":"4","last_reported":1743282476,"current_range_meters":2800,"station_id":"ce4bhf92rcd13ifvqf40","pricing_plan_id":"cebpf4jnsgd1na2vs0mg"},{"bike_id":"21de5a6e-c99a-45ae-aeef-eb801debcb02","system_id":"levelo_inurba_marseille","lat":43.31296,"lon":5.3828,"is_reserved":false,"is_disabled":false,"rental_uris":{"android":"levelo://app?vid=21de5a6e-c99a-45ae-aeef-eb801debcb02","ios":"levelo://app?vid=21de5a6e-c99a-45ae-aeef-eb801debcb02"},"vehicle_type_id":"4","last_reported":1743282476,"current_range_meters":2800,"station_id":"","pricing_plan_id":"cebpf4jnsgd1na2vs0mg"},{"bike_id":"c886a0b7-d094-4b8c-bebf-f183fc824e38","system_id":"levelo_inurba_marseille","lat":43.2784,"lon":5.39195,"is_reserved":false,"is_disabled":false,"rental_uris":{"android":"levelo://app?vid=c886a0b7-d094-4b8c-bebf-f183fc824e38","ios":"levelo://app?vid=c886a0b7-d094-4b8c-bebf-f183fc824e38"},"vehicle_type_id":"4","last_reported":1743282476,"current_range_meters":2800,"station_id":"ce4bhjp2rcd13ifvqga0","pricing_plan_id":"cebpf4jnsgd1na2vs0mg"},{"bike_id":"eabe884e-dff1-46f8-9312-5ab1f8f15492","system_id":"levelo_inurba_marseille","lat":43.29216,"lon":5.36055,"is_reserved":false,"is_disabled":true,"rental_uris":{"android":"levelo://app?vid=eabe884e-dff1-46f8-9312-5ab1f8f15492","ios":"levelo://app?vid=eabe884e-dff1-46f8-9312-5ab1f8f15492"},"vehicle_type_id":"4","last_reported":1743282476,"current_range_meters":2800,"station_id":"ce4bhbh2rcd13ifvqeqg","pricing_plan_id":"cebpf4jnsgd1na2vs0mg"},{"bike_id":"a92d2a51-989e-45ce-914a-1d3947c5b6f6","system_id":"levelo_inurba_marseille","lat":43.28365,"lon":5.39842,"is_reserved":false,"is_disabled":false,"rental_uris":{"android":"levelo://app?vid=a92d2a51-989e-45ce-914a-1d3947c5b6f6","ios":"levelo://app?vid=a92d2a51-989e-45ce-914a-1d3947c5b6f6"},"vehicle_type_id":"4","last_reported":1743282476,"current_range_meters":2800,"station_id":"","pricing_plan_id":"cebpf4jnsgd1na2vs0mg"},{"bike_id":"d3bce8d0-a9bf-49a9-80e0-6533356c657a","system_id":"levelo_inurba_marseille","lat":43.3134,"lon":5.36711,"is_reserved":false,"is_disabled":false,"rental_uris":{"android":"levelo://app?vid=d3bce8d0-a9bf-49a9-80e0-6533356c657a","ios":"levelo://app?vid=d3bce8d0-a9bf-49a9-80e0-6533356c657a"},"vehicle_type_id":"4","last_reported":1743282476,"current_range_meters":2800,"station_id":"ce4bgr92rcd13ifvqc6g","pricing_plan_id":"cebpf4jnsgd1na2vs0mg"},{"bike_id":"bf486d29-80ae-43fc-9394-756ed3e2b73e","system_id":"levelo_inurba_marseille","lat":43.27995,"lon":5.40003,"is_reserved":false,"is_disabled":true,"rental_uris":{"android":"levelo://app?vid=bf486d29-80ae-43fc-9394-756ed3e2b73e","ios":"levelo://app?vid=bf486d29-80ae-43fc-9394-756ed3e2b73e"},"vehicle_type_id":"4","last_reported":1743282476,"current_range_meters":3200,"station_id":"ce4bho92rcd13ifvqh4g","pricing_plan_id":"cebpf4jnsgd1na2vs0mg"},{"bike_id":"bd89f2ab-dffd-416c-8802-b5080c2bfb5e","system_id":"levelo_inurba_marseille","lat":43.25579,"lon":5.38232,"is_reserved":false,"is_disabled":false,"rental_uris":{"android":"levelo://app?vid=bd89f2ab-dffd-416c-8802-b5080c2bfb5e","ios":"levelo://app?vid=bd89f2ab-dffd-416c-8802-b5080c2bfb5e"},"vehicle_type_id":"4","last_reported":1743282476,"current_range_meters":3200,"station_id":"ce4bhih2rcd13ifvqfs0","pricing_plan_id":"cebpf4jnsgd1na2vs0mg"},{"bike_id":"91dc9ae2-ef8d-4ab1-84b7-a5d89f736e21","system_id":"levelo_inurba_marseille","lat":43.25604,"lon":5.38206,"is_reserved":false,"is_disabled":true,"rental_uris":{"android":"levelo://app?vid=91dc9ae2-ef8d-4ab1-84b7-a5d89f736e21","ios":"levelo://app?vid=91dc9ae2-ef8d-4ab1-84b7-a5d89f736e21"},"vehicle_type_id":"4","last_reported":1743282476,"current_range_meters":3200,"station_id":"ce4bhih2rcd13ifvqfs0","pricing_plan_id":"cebpf4jnsgd1na2vs0mg"},{"bike_id":"c35f7468-1371-4b51-bf37-de9b928bcd7e","system_id":"levelo_inurba_marseille","lat":43.27915,"lon":5.41261,"is_reserved":false,"is_disabled":false,"rental_uris":{"android":"levelo://app?vid=c35f7468-1371-4b51-bf37-de9b928bcd7e","ios":"levelo://app?vid=c35f7468-1371-4b51-bf37-de9b928bcd7e"},"vehicle_type_id":"4","last_reported":1743282476,"current_range_meters":3200,"station_id":"","pricing_plan_id":"cebpf4jnsgd1na2vs0mg"},{"bike_id":"c799d4a2-b753-4c43-9fa8-d938f67b80a7","system_id":"levelo_inurba_marseille","lat":43.30645,"lon":5.40103,"is_reserved":false,"is_disabled":false,"rental_uris":{"android":"levelo://app?vid=c799d4a2-b753-4c43-9fa8-d938f67b80a7","ios":"levelo://app?vid=c799d4a2-b753-4c43-9fa8-d938f67b80a7"},"vehicle_type_id":"4","last_reported":1743282476,"current_range_meters":2800,"station_id":"ce4bh112rcd13ifvqda0","pricing_plan_id":"cebpf4jnsgd1na2vs0mg"},{"bike_id":"eb7ee83b-d3df-44de-b3d2-8e0e896b04ce","system_id":"levelo_inurba_marseille","lat":43.23992,"lon":5.37741,"is_reserved":false,"is_disabled":false,"rental_uris":{"android":"levelo://app?vid=eb7ee83b-d3df-44de-b3d2-8e0e896b04ce","ios":"levelo://app?vid=eb7ee83b-d3df-44de-b3d2-8e0e896b04ce"},"vehicle_type_id":"4","last_reported":1743282476,"current_range_meters":3600,"station_id":"","pricing_plan_id":"cebpf4jnsgd1na2vs0mg"},{"bike_id":"86d934b7-5ded-4d2c-9e61-a1761db0d6f6","system_id":"levelo_inurba_marseille","lat":43.2397,"lon":5.36625,"is_reserved":false,"is_disabled":false,"rental_uris":{"android":"levelo://app?vid=86d934b7-5ded-4d2c-9e61-a1761db0d6f6","ios":"levelo://app?vid=86d934b7-5ded-4d2c-9e61-a1761db0d6f6"},"vehicle_type_id":"4","last_reported":1743282476,"current_range_meters":3600,"station_id":"ce4bhi12rcd13ifvqfp0","pricing_plan_id":"cebpf4jnsgd1na2vs0mg"},{"bike_id":"cd47c233-fad7-47f7-a453-7bf1f01de35a","system_id":"levelo_inurba_marseille","lat":43.292689,"lon":5.384376,"is_reserved":false,"is_disabled":false,"rental_uris":{"android":"levelo://app?vid=cd47c233-fad7-47f7-a453-7bf1f01de35a","ios":"levelo://app?vid=cd47c233-fad7-47f7-a453-7bf1f01de35a"},"vehicle_type_id":"4","last_reported":1743282476,"current_range_meters":4400,"station_id":"ce4bhp92rcd13ifvqhcg","pricing_plan_id":"cebpf4jnsgd1na2vs0mg"},{"bike_id":"4a42ca1e-41e4-4233-a4bb-a180f04564d6","system_id":"levelo_inurba_marseille","lat":43.29165,"lon":5.3715,"is_reserved":false,"is_disabled":false,"rental_uris":{"android":"levelo://app?vid=4a42ca1e-41e4-4233-a4bb-a180f04564d6","ios":"levelo://app?vid=4a42ca1e-41e4-4233-a4bb-a180f04564d6"},"vehicle_type_id":"4","last_reported":1743282476,"current_range_meters":4400,"station_id":"ce4bha92rcd13ifvqeh0","pricing_plan_id":"cebpf4jnsgd1na2vs0mg"},{"bike_id":"c82bf580-4ff0-4e08-8c02-2cfdbcdaf680","system_id":"levelo_inurba_marseille","lat":43.24801,"lon":5.37449,"is_reserved":false,"is_disabled":false,"rental_uris":{"android":"levelo://app?vid=c82bf580-4ff0-4e08-8c02-2cfdbcdaf680","ios":"levelo://app?vid=c82bf580-4ff0-4e08-8c02-2cfdbcdaf680"},"vehicle_type_id":"4","last_reported":1743282476,"current_range_meters":4400,"station_id":"ce4bhgh2rcd13ifvqfb0","pricing_plan_id":"cebpf4jnsgd1na2vs0mg"},{"bike_id":"d7c9e49f-9da5-4b2e-bae8-8dbfb05890a7","system_id":"levelo_inurba_marseille","lat":43.33354,"lon":5.40102,"is_reserved":false,"is_disabled":false,"rental_uris":{"android":"levelo://app?vid=d7c9e49f-9da5-4b2e-bae8-8dbfb05890a7","ios":"levelo://app?vid=d7c9e49f-9da5-4b2e-bae8-8dbfb05890a7"},"vehicle_type_id":"4","last_reported":1743282476,"current_range_meters":4800,"station_id":"","pricing_plan_id":"cebpf4jnsgd1na2vs0mg"},{"bike_id":"75e4ed55-9387-4041-a0b8-13cafa62eeb8","system_id":"levelo_inurba_marseille","lat":43.2941,"lon":5.38624,"is_reserved":false,"is_disabled":false,"rental_uris":{"android":"levelo://app?vid=75e4ed55-9387-4041-a0b8-13cafa62eeb8","ios":"levelo://app?vid=75e4ed55-9387-4041-a0b8-13cafa62eeb8"},"vehicle_type_id":"4","last_reported":1743282476,"current_range_meters":4800,"station_id":"ce4bh2h2rcd13ifvqdh0","pricing_plan_id":"cebpf4jnsgd1na2vs0mg"},{"bike_id":"5035eaaf-4c4b-4740-b3e0-521452716a6f","system_id":"levelo_inurba_marseille","lat":43.26201,"lon":5.37448,"is_reserved":false,"is_disabled":false,"rental_uris":{"android":"levelo://app?vid=5035eaaf-4c4b-4740-b3e0-521452716a6f","ios":"levelo://app?vid=5035eaaf-4c4b-4740-b3e0-521452716a6f"},"vehicle_type_id":"4","last_reported":1743282476,"current_range_meters":4800,"station_id":"ce4bhgp2rcd13ifvqfc0","pricing_plan_id":"cebpf4jnsgd1na2vs0mg"},{"bike_id":"861ae205-c318-4688-ac53-947993e1b65f","system_id":"levelo_inurba_marseille","lat":43.24167,"lon":5.363865,"is_reserved":false,"is_disabled":false,"rental_uris":{"android":"levelo://app?vid=861ae205-c318-4688-ac53-947993e1b65f","ios":"levelo://app?vid=861ae205-c318-4688-ac53-947993e1b65f"},"vehicle_type_id":"4","last_reported":1743282476,"current_range_meters":4800,"station_id":"cpo36qri1sfpv3e86is0","pricing_plan_id":"cebpf4jnsgd1na2vs0mg"},{"bike_id":"971c92cb-66df-438d-9a85-e63af939e6ff","system_id":"levelo_inurba_marseille","lat":43.28616,"lon":5.35086,"is_reserved":false,"is_disabled":true,"rental_uris":{"android":"levelo://app?vid=971c92cb-66df-438d-9a85-e63af939e6ff","ios":"levelo://app?vid=971c92cb-66df-438d-9a85-e63af939e6ff"},"vehicle_type_id":"4","last_reported":1743282476,"current_range_meters":4800,"station_id":"ce4bhch2rcd13ifvqeug","pricing_plan_id":"cebpf4jnsgd1na2vs0mg"},{"bike_id":"add9e5a5-172b-4035-85cd-d002fccc718b","system_id":"levelo_inurba_marseille","lat":43.30663,"lon":5.37108,"is_reserved":false,"is_disabled":false,"rental_uris":{"android":"levelo://app?vid=add9e5a5-172b-4035-85cd-d002fccc718b","ios":"levelo://app?vid=add9e5a5-172b-4035-85cd-d002fccc718b"},"vehicle_type_id":"4","last_reported":1743282476,"current_range_meters":4800,"station_id":"","pricing_plan_id":"cebpf4jnsgd1na2vs0mg"},{"bike_id":"599ab4ec-12da-469c-8457-9a6320b82ec6","system_id":"levelo_inurba_marseille","lat":43.29194,"lon":5.37139,"is_reserved":false,"is_disabled":false,"rental_uris":{"android":"levelo://app?vid=599ab4ec-12da-469c-8457-9a6320b82ec6","ios":"levelo://app?vid=599ab4ec-12da-469c-8457-9a6320b82ec6"},"vehicle_type_id":"4","last_reported":1743282476,"current_range_meters":4800,"station_id":"ce4bha92rcd13ifvqeh0","pricing_plan_id":"cebpf4jnsgd1na2vs0mg"},{"bike_id":"c665550f-8aad-4598-ba63-43c7c0e6be29","system_id":"levelo_inurba_marseille","lat":43.30359,"lon":5.42483,"is_reserved":false,"is_disabled":false,"rental_uris":{"android":"levelo://app?vid=c665550f-8aad-4598-ba63-43c7c0e6be29","ios":"levelo://app?vid=c665550f-8aad-4598-ba63-43c7c0e6be29"},"vehicle_type_id":"4","last_reported":1743282476,"current_range_meters":5600,"station_id":"ce4bhoh2rcd13ifvqh6g","pricing_plan_id":"cebpf4jnsgd1na2vs0mg"},{"bike_id":"f39b779d-aed8-49c3-847a-24b4757e70bf","system_id":"levelo_inurba_marseille","lat":43.29522,"lon":5.37495,"is_reserved":false,"is_disabled":false,"rental_uris":{"android":"levelo://app?vid=f39b779d-aed8-49c3-847a-24b4757e70bf","ios":"levelo://app?vid=f39b779d-aed8-49c3-847a-24b4757e70bf"},"vehicle_type_id":"4","last_reported":1743282476,"current_range_meters":5600,"station_id":"ce4bgkp2rcd13ifvqbmg","pricing_plan_id":"cebpf4jnsgd1na2vs0mg"},{"bike_id":"8e766234-e07e-4dac-a13c-a57ff42a3dbf","system_id":"levelo_inurba_marseille","lat":43.31757,"lon":5.3902,"is_reserved":false,"is_disabled":false,"rental_uris":{"android":"levelo://app?vid=8e766234-e07e-4dac-a13c-a57ff42a3dbf","ios":"levelo://app?vid=8e766234-e07e-4dac-a13c-a57ff42a3dbf"},"vehicle_type_id":"4","last_reported":1743282476,"current_range_meters":5600,"station_id":"ce4bhqp2rcd13ifvqhng","pricing_plan_id":"cebpf4jnsgd1na2vs0mg"},{"bike_id":"5110505c-5690-44af-bbd0-24562b3108c3","system_id":"levelo_inurba_marseille","lat":43.29516,"lon":5.39026,"is_reserved":false,"is_disabled":true,"rental_uris":{"android":"levelo://app?vid=5110505c-5690-44af-bbd0-24562b3108c3","ios":"levelo://app?vid=5110505c-5690-44af-bbd0-24562b3108c3"},"vehicle_type_id":"4","last_reported":1743282476,"current_range_meters":5600,"station_id":"ce4bh3p2rcd13ifvqdp0","pricing_plan_id":"cebpf4jnsgd1na2vs0mg"},{"bike_id":"87a37c61-26e4-4d62-80d3-c67c7fad45af","system_id":"levelo_inurba_marseille","lat":43.29421,"lon":5.38609,"is_reserved":false,"is_disabled":false,"rental_uris":{"android":"levelo://app?vid=87a37c61-26e4-4d62-80d3-c67c7fad45af","ios":"levelo://app?vid=87a37c61-26e4-4d62-80d3-c67c7fad45af"},"vehicle_type_id":"4","last_reported":1743282476,"current_range_meters":5600,"station_id":"ce4bh2h2rcd13ifvqdh0","pricing_plan_id":"cebpf4jnsgd1na2vs0mg"},{"bike_id":"90df0f14-f996-423e-b605-53c2c708242e","system_id":"levelo_inurba_marseille","lat":43.31678,"lon":5.4052,"is_reserved":false,"is_disabled":false,"rental_uris":{"android":"levelo://app?vid=90df0f14-f996-423e-b605-53c2c708242e","ios":"levelo://app?vid=90df0f14-f996-423e-b605-53c2c708242e"},"vehicle_type_id":"4","last_reported":1743282476,"current_range_meters":5600,"station_id":"ce4bh012rcd13ifvqd00","pricing_plan_id":"cebpf4jnsgd1na2vs0mg"},{"bike_id":"1062ffe8-b358-4f70-9674-4d8ee46b30ef","system_id":"levelo_inurba_marseille","lat":43.266859,"lon":5.382742,"is_reserved":false,"is_disabled":false,"rental_uris":{"android":"levelo://app?vid=1062ffe8-b358-4f70-9674-4d8ee46b30ef","ios":"levelo://app?vid=1062ffe8-b358-4f70-9674-4d8ee46b30ef"},"vehicle_type_id":"4","last_reported":1743282476,"current_range_meters":4800,"station_id":"ce4bh3h2rcd13ifvqdn0","pricing_plan_id":"cebpf4jnsgd1na2vs0mg"},{"bike_id":"c72f257a-47a7-4dcf-bd5b-d23d6a256f15","system_id":"levelo_inurba_marseille","lat":43.24076,"lon":5.37757,"is_reserved":false,"is_disabled":false,"rental_uris":{"android":"levelo://app?vid=c72f257a-47a7-4dcf-bd5b-d23d6a256f15","ios":"levelo://app?vid=c72f257a-47a7-4dcf-bd5b-d23d6a256f15"},"vehicle_type_id":"4","last_reported":1743282476,"current_range_meters":4800,"station_id":"ce4bhnp2rcd13ifvqgvg","pricing_plan_id":"cebpf4jnsgd1na2vs0mg"},{"bike_id":"2691fc6f-db36-49ef-bf18-688c4be85067","system_id":"levelo_inurba_marseille","lat":43.30611,"lon":5.372248,"is_reserved":false,"is_disabled":false,"rental_uris":{"android":"levelo://app?vid=2691fc6f-db36-49ef-bf18-688c4be85067","ios":"levelo://app?vid=2691fc6f-db36-49ef-bf18-688c4be85067"},"vehicle_type_id":"4","last_reported":1743282476,"current_range_meters":6000,"station_id":"ce4bgqh2rcd13ifvqc4g","pricing_plan_id":"cebpf4jnsgd1na2vs0mg"},{"bike_id":"09938869-da87-44f5-b214-329cc751ae73","system_id":"levelo_inurba_marseille","lat":43.31554,"lon":5.37244,"is_reserved":false,"is_disabled":false,"rental_uris":{"android":"levelo://app?vid=09938869-da87-44f5-b214-329cc751ae73","ios":"levelo://app?vid=09938869-da87-44f5-b214-329cc751ae73"},"vehicle_type_id":"4","last_reported":1743282476,"current_range_meters":6000,"station_id":"","pricing_plan_id":"cebpf4jnsgd1na2vs0mg"},{"bike_id":"8aaaa12f-e0e3-42e9-a0cc-77ffefe044ed","system_id":"levelo_inurba_marseille","lat":43.24067,"lon":5.37754,"is_reserved":false,"is_disabled":false,"rental_uris":{"android":"levelo://app?vid=8aaaa12f-e0e3-42e9-a0cc-77ffefe044ed","ios":"levelo://app?vid=8aaaa12f-e0e3-42e9-a0cc-77ffefe044ed"},"vehicle_type_id":"4","last_reported":1743282476,"current_range_meters":6000,"station_id":"ce4bhnp2rcd13ifvqgvg","pricing_plan_id":"cebpf4jnsgd1na2vs0mg"},{"bike_id":"97a54da6-0a68-4cf4-92ab-237a6527510c","system_id":"levelo_inurba_marseille","lat":43.26781,"lon":5.39414,"is_reserved":false,"is_disabled":false,"rental_uris":{"android":"levelo://app?vid=97a54da6-0a68-4cf4-92ab-237a6527510c","ios":"levelo://app?vid=97a54da6-0a68-4cf4-92ab-237a6527510c"},"vehicle_type_id":"4","last_reported":1743282476,"current_range_meters":6000,"station_id":"ce4bhh12rcd13ifvqfg0","pricing_plan_id":"cebpf4jnsgd1na2vs0mg"},{"bike_id":"68b93949-f467-4c6f-8aa1-e9ba5a1138a9","system_id":"levelo_inurba_marseille","lat":43.30805,"lon":5.43525,"is_reserved":false,"is_disabled":false,"rental_uris":{"android":"levelo://app?vid=68b93949-f467-4c6f-8aa1-e9ba5a1138a9","ios":"levelo://app?vid=68b93949-f467-4c6f-8aa1-e9ba5a1138a9"},"vehicle_type_id":"4","last_reported":1743282476,"current_range_meters":6400,"station_id":"ce4bhph2rcd13ifvqheg","pricing_plan_id":"cebpf4jnsgd1na2vs0mg"},{"bike_id":"ad9a233d-7fa9-4124-9034-b1a8ddc1c8f3","system_id":"levelo_inurba_marseille","lat":43.23232,"lon":5.39956,"is_reserved":false,"is_disabled":false,"rental_uris":{"android":"levelo://app?vid=ad9a233d-7fa9-4124-9034-b1a8ddc1c8f3","ios":"levelo://app?vid=ad9a233d-7fa9-4124-9034-b1a8ddc1c8f3"},"vehicle_type_id":"4","last_reported":1743282476,"current_range_meters":6400,"station_id":"","pricing_plan_id":"cebpf4jnsgd1na2vs0mg"},{"bike_id":"5fbfdc0b-b9fc-4725-9b6c-06c363f79bdf","system_id":"levelo_inurba_marseille","lat":43.28106,"lon":5.44146,"is_reserved":false,"is_disabled":false,"rental_uris":{"android":"levelo://app?vid=5fbfdc0b-b9fc-4725-9b6c-06c363f79bdf","ios":"levelo://app?vid=5fbfdc0b-b9fc-4725-9b6c-06c363f79bdf"},"vehicle_type_id":"4","last_reported":1743282476,"current_range_meters":6400,"station_id":"","pricing_plan_id":"cebpf4jnsgd1na2vs0mg"},{"bike_id":"271ba379-4959-4468-8512-16fd962f6127","system_id":"levelo_inurba_marseille","lat":43.31179,"lon":5.38707,"is_reserved":false,"is_disabled":false,"rental_uris":{"android":"levelo://app?vid=271ba379-4959-4468-8512-16fd962f6127","ios":"levelo://app?vid=271ba379-4959-4468-8512-16fd962f6127"},"vehicle_type_id":"4","last_reported":1743282476,"current_range_meters":6400,"station_id":"ce4bgv12rcd13ifvqcp0","pricing_plan_id":"cebpf4jnsgd1na2vs0mg"},{"bike_id":"cef8343e-fea8-4d57-bb1c-b1de939e7ceb","system_id":"levelo_inurba_marseille","lat":43.27085,"lon":5.4026,"is_reserved":false,"is_disabled":false,"rental_uris":{"android":"levelo://app?vid=cef8343e-fea8-4d57-bb1c-b1de939e7ceb","ios":"levelo://app?vid=cef8343e-fea8-4d57-bb1c-b1de939e7ceb"},"vehicle_type_id":"4","last_reported":1743282476,"current_range_meters":6400,"station_id":"ce4bhk92rcd13ifvqgc0","pricing_plan_id":"cebpf4jnsgd1na2vs0mg"},{"bike_id":"bfbfca12-d4d2-4d74-b23f-680f24e799d6","system_id":"levelo_inurba_marseille","lat":43.32321,"lon":5.37548,"is_reserved":false,"is_disabled":false,"rental_uris":{"android":"levelo://app?vid=bfbfca12-d4d2-4d74-b23f-680f24e799d6","ios":"levelo://app?vid=bfbfca12-d4d2-4d74-b23f-680f24e799d6"},"vehicle_type_id":"4","last_reported":1743282476,"current_range_meters":6400,"station_id":"","pricing_plan_id":"cebpf4jnsgd1na2vs0mg"},{"bike_id":"d922b1ac-47ef-4c2d-9470-fcce59305464","system_id":"levelo_inurba_marseille","lat":43.27222,"lon":5.39169,"is_reserved":false,"is_disabled":false,"rental_uris":{"android":"levelo://app?vid=d922b1ac-47ef-4c2d-9470-fcce59305464","ios":"levelo://app?vid=d922b1ac-47ef-4c2d-9470-fcce59305464"},"vehicle_type_id":"4","last_reported":1743282476,"current_range_meters":6400,"station_id":"ce4bhhp2rcd13ifvqfm0","pricing_plan_id":"cebpf4jnsgd1na2vs0mg"},{"bike_id":"929cf576-be90-4201-8f34-7ae87659e741","system_id":"levelo_inurba_marseille","lat":43.29525,"lon":5.39405,"is_reserved":false,"is_disabled":false,"rental_uris":{"android":"levelo://app?vid=929cf576-be90-4201-8f34-7ae87659e741","ios":"levelo://app?vid=929cf576-be90-4201-8f34-7ae87659e741"},"vehicle_type_id":"4","last_reported":1743282476,"current_range_meters":6400,"station_id":"ce4bh292rcd13ifvqdf0","pricing_plan_id":"cebpf4jnsgd1na2vs0mg"},{"bike_id":"7ba5d461-9990-4928-97f9-fc779196d94e","system_id":"levelo_inurba_marseille","lat":43.2408,"lon":5.37751,"is_reserved":false,"is_disabled":false,"rental_uris":{"android":"levelo://app?vid=7ba5d461-9990-4928-97f9-fc779196d94e","ios":"levelo://app?vid=7ba5d461-9990-4928-97f9-fc779196d94e"},"vehicle_type_id":"4","last_reported":1743282476,"current_range_meters":6400,"station_id":"ce4bhnp2rcd13ifvqgvg","pricing_plan_id":"cebpf4jnsgd1na2vs0mg"},{"bike_id":"d52a49fe-432a-4490-9df8-b2bc6bc83c67","system_id":"levelo_inurba_marseille","lat":43.290344,"lon":5.375601,"is_reserved":false,"is_disabled":false,"rental_uris":{"android":"levelo://app?vid=d52a49fe-432a-4490-9df8-b2bc6bc83c67","ios":"levelo://app?vid=d52a49fe-432a-4490-9df8-b2bc6bc83c67"},"vehicle_type_id":"4","last_reported":1743282476,"current_range_meters":6400,"station_id":"ce4bh692rcd13ifvqe90","pricing_plan_id":"cebpf4jnsgd1na2vs0mg"},{"bike_id":"43d3f610-2ea9-4eda-a4c8-e3f9706bb87c","system_id":"levelo_inurba_marseille","lat":43.30367,"lon":5.3733,"is_reserved":false,"is_disabled":false,"rental_uris":{"android":"levelo://app?vid=43d3f610-2ea9-4eda-a4c8-e3f9706bb87c","ios":"levelo://app?vid=43d3f610-2ea9-4eda-a4c8-e3f9706bb87c"},"vehicle_type_id":"4","last_reported":1743282476,"current_range_meters":6400,"station_id":"","pricing_plan_id":"cebpf4jnsgd1na2vs0mg"},{"bike_id":"82afd6ed-d4fb-496b-a68f-896d714ef03f","system_id":"levelo_inurba_marseille","lat":43.29846,"lon":5.36276,"is_reserved":false,"is_disabled":false,"rental_uris":{"android":"levelo://app?vid=82afd6ed-d4fb-496b-a68f-896d714ef03f","ios":"levelo://app?vid=82afd6ed-d4fb-496b-a68f-896d714ef03f"},"vehicle_type_id":"4","last_reported":1743282476,"current_range_meters":6000,"station_id":"ce4bgpp2rcd13ifvqc3g","pricing_plan_id":"cebpf4jnsgd1na2vs0mg"},{"bike_id":"f47eba55-a588-4033-a3dc-992c836c995d","system_id":"levelo_inurba_marseille","lat":43.31694,"lon":5.4052,"is_reserved":false,"is_disabled":false,"rental_uris":{"android":"levelo://app?vid=f47eba55-a588-4033-a3dc-992c836c995d","ios":"levelo://app?vid=f47eba55-a588-4033-a3dc-992c836c995d"},"vehicle_type_id":"4","last_reported":1743282476,"current_range_meters":6800,"station_id":"ce4bh012rcd13ifvqd00","pricing_plan_id":"cebpf4jnsgd1na2vs0mg"},{"bike_id":"cd2dc4de-70a1-432b-8900-303cf935d2f7","system_id":"levelo_inurba_marseille","lat":43.248283,"lon":5.374695,"is_reserved":false,"is_disabled":false,"rental_uris":{"android":"levelo://app?vid=cd2dc4de-70a1-432b-8900-303cf935d2f7","ios":"levelo://app?vid=cd2dc4de-70a1-432b-8900-303cf935d2f7"},"vehicle_type_id":"4","last_reported":1743282476,"current_range_meters":6800,"station_id":"ce4bhgh2rcd13ifvqfb0","pricing_plan_id":"cebpf4jnsgd1na2vs0mg"},{"bike_id":"2ea986fa-7da5-440b-aa6f-8a0f267f86dc","system_id":"levelo_inurba_marseille","lat":43.290487,"lon":5.379816,"is_reserved":false,"is_disabled":false,"rental_uris":{"android":"levelo://app?vid=2ea986fa-7da5-440b-aa6f-8a0f267f86dc","ios":"levelo://app?vid=2ea986fa-7da5-440b-aa6f-8a0f267f86dc"},"vehicle_type_id":"4","last_reported":1743282476,"current_range_meters":7200,"station_id":"ce4bh512rcd13ifvqe2g","pricing_plan_id":"cebpf4jnsgd1na2vs0mg"},{"bike_id":"1b4e5c48-f3b8-4ca5-9244-3815d3918bd4","system_id":"levelo_inurba_marseille","lat":43.3238,"lon":5.38896,"is_reserved":false,"is_disabled":false,"rental_uris":{"android":"levelo://app?vid=1b4e5c48-f3b8-4ca5-9244-3815d3918bd4","ios":"levelo://app?vid=1b4e5c48-f3b8-4ca5-9244-3815d3918bd4"},"vehicle_type_id":"4","last_reported":1743282476,"current_range_meters":7200,"station_id":"ce4bhqp2rcd13ifvqhog","pricing_plan_id":"cebpf4jnsgd1na2vs0mg"},{"bike_id":"75cc05d3-74c4-4e8d-a3c6-dd269f319c25","system_id":"levelo_inurba_marseille","lat":43.27954,"lon":5.41034,"is_reserved":false,"is_disabled":false,"rental_uris":{"android":"levelo://app?vid=75cc05d3-74c4-4e8d-a3c6-dd269f319c25","ios":"levelo://app?vid=75cc05d3-74c4-4e8d-a3c6-dd269f319c25"},"vehicle_type_id":"4","last_reported":1743282476,"current_range_meters":7200,"station_id":"ce4bhnp2rcd13ifvqh0g","pricing_plan_id":"cebpf4jnsgd1na2vs0mg"},{"bike_id":"7b67fa6b-8fa7-4ca8-a597-e2d617a422ec","system_id":"levelo_inurba_marseille","lat":43.32367,"lon":5.38875,"is_reserved":false,"is_disabled":false,"rental_uris":{"android":"levelo://app?vid=7b67fa6b-8fa7-4ca8-a597-e2d617a422ec","ios":"levelo://app?vid=7b67fa6b-8fa7-4ca8-a597-e2d617a422ec"},"vehicle_type_id":"4","last_reported":1743282476,"current_range_meters":7200,"station_id":"ce4bhqp2rcd13ifvqhog","pricing_plan_id":"cebpf4jnsgd1na2vs0mg"},{"bike_id":"f404c247-b629-4ac2-9cbb-39bb452ddaa4","system_id":"levelo_inurba_marseille","lat":43.2961,"lon":5.37718,"is_reserved":false,"is_disabled":false,"rental_uris":{"android":"levelo://app?vid=f404c247-b629-4ac2-9cbb-39bb452ddaa4","ios":"levelo://app?vid=f404c247-b629-4ac2-9cbb-39bb452ddaa4"},"vehicle_type_id":"4","last_reported":1743282476,"current_range_meters":7200,"station_id":"ce4bgi92rcd13ifvqb90","pricing_plan_id":"cebpf4jnsgd1na2vs0mg"},{"bike_id":"6082a6d8-29f3-4441-bd82-d0f95ead75d7","system_id":"levelo_inurba_marseille","lat":43.23194,"lon":5.35559,"is_reserved":false,"is_disabled":false,"rental_uris":{"android":"levelo://app?vid=6082a6d8-29f3-4441-bd82-d0f95ead75d7","ios":"levelo://app?vid=6082a6d8-29f3-4441-bd82-d0f95ead75d7"},"vehicle_type_id":"4","last_reported":1743282476,"current_range_meters":7200,"station_id":"ce4bhu92rcd13ifvqi70","pricing_plan_id":"cebpf4jnsgd1na2vs0mg"},{"bike_id":"fd5a39dd-96b5-442c-99c4-5577adc0b24b","system_id":"levelo_inurba_marseille","lat":43.23187,"lon":5.39969,"is_reserved":false,"is_disabled":false,"rental_uris":{"android":"levelo://app?vid=fd5a39dd-96b5-442c-99c4-5577adc0b24b","ios":"levelo://app?vid=fd5a39dd-96b5-442c-99c4-5577adc0b24b"},"vehicle_type_id":"4","last_reported":1743282476,"current_range_meters":7200,"station_id":"ce4bhn12rcd13ifvqgqg","pricing_plan_id":"cebpf4jnsgd1na2vs0mg"},{"bike_id":"e2bd22f6-26db-4ce4-b3f3-5f95b865b065","system_id":"levelo_inurba_marseille","lat":43.284121,"lon":5.375093,"is_reserved":false,"is_disabled":false,"rental_uris":{"android":"levelo://app?vid=e2bd22f6-26db-4ce4-b3f3-5f95b865b065","ios":"levelo://app?vid=e2bd22f6-26db-4ce4-b3f3-5f95b865b065"},"vehicle_type_id":"4","last_reported":1743282476,"current_range_meters":7200,"station_id":"ce4bh692rcd13ifvqe90","pricing_plan_id":"cebpf4jnsgd1na2vs0mg"},{"bike_id":"d07bbd57-ed1b-4c94-b97a-239f7ec7154d","system_id":"levelo_inurba_marseille","lat":43.31171,"lon":5.38718,"is_reserved":false,"is_disabled":false,"rental_uris":{"android":"levelo://app?vid=d07bbd57-ed1b-4c94-b97a-239f7ec7154d","ios":"levelo://app?vid=d07bbd57-ed1b-4c94-b97a-239f7ec7154d"},"vehicle_type_id":"4","last_reported":1743282476,"current_range_meters":7200,"station_id":"ce4bgv12rcd13ifvqcp0","pricing_plan_id":"cebpf4jnsgd1na2vs0mg"},{"bike_id":"8f272909-c529-4e7e-bf7e-16230ef4ff1d","system_id":"levelo_inurba_marseille","lat":43.23148,"lon":5.43725,"is_reserved":false,"is_disabled":false,"rental_uris":{"android":"levelo://app?vid=8f272909-c529-4e7e-bf7e-16230ef4ff1d","ios":"levelo://app?vid=8f272909-c529-4e7e-bf7e-16230ef4ff1d"},"vehicle_type_id":"4","last_reported":1743282476,"current_range_meters":7200,"station_id":"ce4bhmp2rcd13ifvqgog","pricing_plan_id":"cebpf4jnsgd1na2vs0mg"},{"bike_id":"d5ffff0a-47db-470d-a1ce-99a37bfcd090","system_id":"levelo_inurba_marseille","lat":43.28601,"lon":5.35117,"is_reserved":false,"is_disabled":false,"rental_uris":{"android":"levelo://app?vid=d5ffff0a-47db-470d-a1ce-99a37bfcd090","ios":"levelo://app?vid=d5ffff0a-47db-470d-a1ce-99a37bfcd090"},"vehicle_type_id":"4","last_reported":1743282476,"current_range_meters":7200,"station_id":"ce4bhch2rcd13ifvqeug","pricing_plan_id":"cebpf4jnsgd1na2vs0mg"},{"bike_id":"0558bc66-2825-46b4-8c35-dfa19eca05b8","system_id":"levelo_inurba_marseille","lat":43.24424,"lon":5.37019,"is_reserved":false,"is_disabled":false,"rental_uris":{"android":"levelo://app?vid=0558bc66-2825-46b4-8c35-dfa19eca05b8","ios":"levelo://app?vid=0558bc66-2825-46b4-8c35-dfa19eca05b8"},"vehicle_type_id":"4","last_reported":1743282476,"current_range_meters":7200,"station_id":"","pricing_plan_id":"cebpf4jnsgd1na2vs0mg"},{"bike_id":"f0c94876-4d0d-4ad3-b840-262f0e18580e","system_id":"levelo_inurba_marseille","lat":43.32102,"lon":5.36794,"is_reserved":false,"is_disabled":false,"rental_uris":{"android":"levelo://app?vid=f0c94876-4d0d-4ad3-b840-262f0e18580e","ios":"levelo://app?vid=f0c94876-4d0d-4ad3-b840-262f0e18580e"},"vehicle_type_id":"4","last_reported":1743282476,"current_range_meters":7200,"station_id":"ce4bhrh2rcd13ifvqhug","pricing_plan_id":"cebpf4jnsgd1na2vs0mg"},{"bike_id":"8636753c-793a-4788-872b-3fef2cc432a9","system_id":"levelo_inurba_marseille","lat":43.24686,"lon":5.38151,"is_reserved":false,"is_disabled":false,"rental_uris":{"android":"levelo://app?vid=8636753c-793a-4788-872b-3fef2cc432a9","ios":"levelo://app?vid=8636753c-793a-4788-872b-3fef2cc432a9"},"vehicle_type_id":"4","last_reported":1743282476,"current_range_meters":7200,"station_id":"ce4bhih2rcd13ifvqfr0","pricing_plan_id":"cebpf4jnsgd1na2vs0mg"},{"bike_id":"4777850e-a840-44f2-a6a5-fd44a1ac41d3","system_id":"levelo_inurba_marseille","lat":43.28723,"lon":5.39964,"is_reserved":false,"is_disabled":true,"rental_uris":{"android":"levelo://app?vid=4777850e-a840-44f2-a6a5-fd44a1ac41d3","ios":"levelo://app?vid=4777850e-a840-44f2-a6a5-fd44a1ac41d3"},"vehicle_type_id":"4","last_reported":1743282476,"current_range_meters":8000,"station_id":"ce4bho92rcd13ifvqh3g","pricing_plan_id":"cebpf4jnsgd1na2vs0mg"},{"bike_id":"983c4c9f-ee1a-4d13-8ce7-bfd36c479f46","system_id":"levelo_inurba_marseille","lat":43.24176,"lon":5.3639,"is_reserved":false,"is_disabled":false,"rental_uris":{"android":"levelo://app?vid=983c4c9f-ee1a-4d13-8ce7-bfd36c479f46","ios":"levelo://app?vid=983c4c9f-ee1a-4d13-8ce7-bfd36c479f46"},"vehicle_type_id":"4","last_reported":1743282476,"current_range_meters":8000,"station_id":"cpo36qri1sfpv3e86is0","pricing_plan_id":"cebpf4jnsgd1na2vs0mg"},{"bike_id":"f4e98fed-4627-418c-9b64-069240b7571f","system_id":"levelo_inurba_marseille","lat":43.27579,"lon":5.38426,"is_reserved":false,"is_disabled":false,"rental_uris":{"android":"levelo://app?vid=f4e98fed-4627-418c-9b64-069240b7571f","ios":"levelo://app?vid=f4e98fed-4627-418c-9b64-069240b7571f"},"vehicle_type_id":"4","last_reported":1743282476,"current_range_meters":8000,"station_id":"ce4bhh92rcd13ifvqfi0","pricing_plan_id":"cebpf4jnsgd1na2vs0mg"},{"bike_id":"d110ea9c-afe8-47f1-b008-e66bc6e44a55","system_id":"levelo_inurba_marseille","lat":43.28429,"lon":5.35018,"is_reserved":false,"is_disabled":false,"rental_uris":{"android":"levelo://app?vid=d110ea9c-afe8-47f1-b008-e66bc6e44a55","ios":"levelo://app?vid=d110ea9c-afe8-47f1-b008-e66bc6e44a55"},"vehicle_type_id":"4","last_reported":1743282476,"current_range_meters":8000,"station_id":"ce4bhbh2rcd13ifvqepg","pricing_plan_id":"cebpf4jnsgd1na2vs0mg"},{"bike_id":"b5ace6c6-32e3-486d-9744-efb1ce0dfa9d","system_id":"levelo_inurba_marseille","lat":43.28888,"lon":5.37115,"is_reserved":false,"is_disabled":true,"rental_uris":{"android":"levelo://app?vid=b5ace6c6-32e3-486d-9744-efb1ce0dfa9d","ios":"levelo://app?vid=b5ace6c6-32e3-486d-9744-efb1ce0dfa9d"},"vehicle_type_id":"4","last_reported":1743282476,"current_range_meters":8000,"station_id":"","pricing_plan_id":"cebpf4jnsgd1na2vs0mg"},{"bike_id":"7344ad8f-1d7b-4435-9e46-094745c9f9bf","system_id":"levelo_inurba_marseille","lat":43.29414,"lon":5.38622,"is_reserved":false,"is_disabled":false,"rental_uris":{"android":"levelo://app?vid=7344ad8f-1d7b-4435-9e46-094745c9f9bf","ios":"levelo://app?vid=7344ad8f-1d7b-4435-9e46-094745c9f9bf"},"vehicle_type_id":"4","last_reported":1743282476,"current_range_meters":8000,"station_id":"ce4bh2h2rcd13ifvqdh0","pricing_plan_id":"cebpf4jnsgd1na2vs0mg"},{"bike_id":"8d6abdef-27aa-4d1b-9448-656a6296f19d","system_id":"levelo_inurba_marseille","lat":43.24165,"lon":5.39703,"is_reserved":false,"is_disabled":false,"rental_uris":{"android":"levelo://app?vid=8d6abdef-27aa-4d1b-9448-656a6296f19d","ios":"levelo://app?vid=8d6abdef-27aa-4d1b-9448-656a6296f19d"},"vehicle_type_id":"4","last_reported":1743282476,"current_range_meters":8000,"station_id":"ce4bhn12rcd13ifvqgpg","pricing_plan_id":"cebpf4jnsgd1na2vs0mg"},{"bike_id":"897c0b50-c5d1-426a-8708-0401c90fc4df","system_id":"levelo_inurba_marseille","lat":43.26708,"lon":5.38259,"is_reserved":false,"is_disabled":false,"rental_uris":{"android":"levelo://app?vid=897c0b50-c5d1-426a-8708-0401c90fc4df","ios":"levelo://app?vid=897c0b50-c5d1-426a-8708-0401c90fc4df"},"vehicle_type_id":"4","last_reported":1743282476,"current_range_meters":8000,"station_id":"ce4bhg92rcd13ifvqf90","pricing_plan_id":"cebpf4jnsgd1na2vs0mg"},{"bike_id":"d14cdd1e-f0b3-48a5-be5e-77128af69a2d","system_id":"levelo_inurba_marseille","lat":43.28626,"lon":5.35118,"is_reserved":false,"is_disabled":false,"rental_uris":{"android":"levelo://app?vid=d14cdd1e-f0b3-48a5-be5e-77128af69a2d","ios":"levelo://app?vid=d14cdd1e-f0b3-48a5-be5e-77128af69a2d"},"vehicle_type_id":"4","last_reported":1743282476,"current_range_meters":8000,"station_id":"ce4bhch2rcd13ifvqeug","pricing_plan_id":"cebpf4jnsgd1na2vs0mg"},{"bike_id":"e4614adf-59ca-49c9-9f29-fb2629aacd37","system_id":"levelo_inurba_marseille","lat":43.2861,"lon":5.35089,"is_reserved":false,"is_disabled":false,"rental_uris":{"android":"levelo://app?vid=e4614adf-59ca-49c9-9f29-fb2629aacd37","ios":"levelo://app?vid=e4614adf-59ca-49c9-9f29-fb2629aacd37"},"vehicle_type_id":"4","last_reported":1743282476,"current_range_meters":8000,"station_id":"ce4bhch2rcd13ifvqeug","pricing_plan_id":"cebpf4jnsgd1na2vs0mg"},{"bike_id":"f6925b6c-b8ce-4863-9174-75310d39c7e8","system_id":"levelo_inurba_marseille","lat":43.229126,"lon":5.353455,"is_reserved":false,"is_disabled":false,"rental_uris":{"android":"levelo://app?vid=f6925b6c-b8ce-4863-9174-75310d39c7e8","ios":"levelo://app?vid=f6925b6c-b8ce-4863-9174-75310d39c7e8"},"vehicle_type_id":"4","last_reported":1743282476,"current_range_meters":8000,"station_id":"cpo3532slgdg3j2ikp40","pricing_plan_id":"cebpf4jnsgd1na2vs0mg"},{"bike_id":"86402da5-f9ef-43b6-a281-06ce7c4c3160","system_id":"levelo_inurba_marseille","lat":43.28605,"lon":5.35113,"is_reserved":false,"is_disabled":false,"rental_uris":{"android":"levelo://app?vid=86402da5-f9ef-43b6-a281-06ce7c4c3160","ios":"levelo://app?vid=86402da5-f9ef-43b6-a281-06ce7c4c3160"},"vehicle_type_id":"4","last_reported":1743282476,"current_range_meters":8400,"station_id":"ce4bhch2rcd13ifvqeug","pricing_plan_id":"cebpf4jnsgd1na2vs0mg"},{"bike_id":"b1ecd358-38ec-4753-8af1-9b87454b444a","system_id":"levelo_inurba_marseille","lat":43.28644,"lon":5.3511,"is_reserved":false,"is_disabled":false,"rental_uris":{"android":"levelo://app?vid=b1ecd358-38ec-4753-8af1-9b87454b444a","ios":"levelo://app?vid=b1ecd358-38ec-4753-8af1-9b87454b444a"},"vehicle_type_id":"4","last_reported":1743282476,"current_range_meters":8400,"station_id":"ce4bhch2rcd13ifvqeug","pricing_plan_id":"cebpf4jnsgd1na2vs0mg"},{"bike_id":"40722439-ac9b-4793-a39a-ed41b3702640","system_id":"levelo_inurba_marseille","lat":43.30534,"lon":5.38427,"is_reserved":false,"is_disabled":false,"rental_uris":{"android":"levelo://app?vid=40722439-ac9b-4793-a39a-ed41b3702640","ios":"levelo://app?vid=40722439-ac9b-4793-a39a-ed41b3702640"},"vehicle_type_id":"4","last_reported":1743282476,"current_range_meters":8400,"station_id":"ce4bgg92rcd13ifvqb30","pricing_plan_id":"cebpf4jnsgd1na2vs0mg"},{"bike_id":"a36a9ec1-537e-4091-9d7a-dd0444d14e10","system_id":"levelo_inurba_marseille","lat":43.24815,"lon":5.37481,"is_reserved":false,"is_disabled":false,"rental_uris":{"android":"levelo://app?vid=a36a9ec1-537e-4091-9d7a-dd0444d14e10","ios":"levelo://app?vid=a36a9ec1-537e-4091-9d7a-dd0444d14e10"},"vehicle_type_id":"4","last_reported":1743282476,"current_range_meters":8400,"station_id":"ce4bhgh2rcd13ifvqfb0","pricing_plan_id":"cebpf4jnsgd1na2vs0mg"},{"bike_id":"7730d0b0-d39c-482e-8d77-2c5e7c3f3c79","system_id":"levelo_inurba_marseille","lat":43.30602,"lon":5.37224,"is_reserved":false,"is_disabled":false,"rental_uris":{"android":"levelo://app?vid=7730d0b0-d39c-482e-8d77-2c5e7c3f3c79","ios":"levelo://app?vid=7730d0b0-d39c-482e-8d77-2c5e7c3f3c79"},"vehicle_type_id":"4","last_reported":1743282476,"current_range_meters":8400,"station_id":"ce4bgqh2rcd13ifvqc4g","pricing_plan_id":"cebpf4jnsgd1na2vs0mg"},{"bike_id":"043b4064-fd33-4c5e-aa0c-033b252c042e","system_id":"levelo_inurba_marseille","lat":43.30141,"lon":5.39872,"is_reserved":false,"is_disabled":false,"rental_uris":{"android":"levelo://app?vid=043b4064-fd33-4c5e-aa0c-033b252c042e","ios":"levelo://app?vid=043b4064-fd33-4c5e-aa0c-033b252c042e"},"vehicle_type_id":"4","last_reported":1743282476,"current_range_meters":8400,"station_id":"ce4bh0h2rcd13ifvqd40","pricing_plan_id":"cebpf4jnsgd1na2vs0mg"},{"bike_id":"f0846020-e3c1-48c3-9d12-95e9a76d54a9","system_id":"levelo_inurba_marseille","lat":43.29173,"lon":5.37147,"is_reserved":false,"is_disabled":false,"rental_uris":{"android":"levelo://app?vid=f0846020-e3c1-48c3-9d12-95e9a76d54a9","ios":"levelo://app?vid=f0846020-e3c1-48c3-9d12-95e9a76d54a9"},"vehicle_type_id":"4","last_reported":1743282476,"current_range_meters":8400,"station_id":"ce4bha92rcd13ifvqeh0","pricing_plan_id":"cebpf4jnsgd1na2vs0mg"},{"bike_id":"1a8ec8fe-cd0f-44f4-9a76-dfc354a60ccc","system_id":"levelo_inurba_marseille","lat":43.23947,"lon":5.3665,"is_reserved":false,"is_disabled":false,"rental_uris":{"android":"levelo://app?vid=1a8ec8fe-cd0f-44f4-9a76-dfc354a60ccc","ios":"levelo://app?vid=1a8ec8fe-cd0f-44f4-9a76-dfc354a60ccc"},"vehicle_type_id":"4","last_reported":1743282476,"current_range_meters":8400,"station_id":"ce4bhi12rcd13ifvqfp0","pricing_plan_id":"cebpf4jnsgd1na2vs0mg"},{"bike_id":"a3e26087-3211-47b5-8cb3-a4beb43205bb","system_id":"levelo_inurba_marseille","lat":43.25103,"lon":5.40339,"is_reserved":false,"is_disabled":false,"rental_uris":{"android":"levelo://app?vid=a3e26087-3211-47b5-8cb3-a4beb43205bb","ios":"levelo://app?vid=a3e26087-3211-47b5-8cb3-a4beb43205bb"},"vehicle_type_id":"4","last_reported":1743282476,"current_range_meters":8400,"station_id":"ce4bhlh2rcd13ifvqgig","pricing_plan_id":"cebpf4jnsgd1na2vs0mg"},{"bike_id":"96fa1290-e699-40b9-9109-379d3b77c6fb","system_id":"levelo_inurba_marseille","lat":43.338,"lon":5.39097,"is_reserved":false,"is_disabled":false,"rental_uris":{"android":"levelo://app?vid=96fa1290-e699-40b9-9109-379d3b77c6fb","ios":"levelo://app?vid=96fa1290-e699-40b9-9109-379d3b77c6fb"},"vehicle_type_id":"4","last_reported":1743282476,"current_range_meters":8800,"station_id":"","pricing_plan_id":"cebpf4jnsgd1na2vs0mg"},{"bike_id":"77eed676-a1ab-4e56-81a4-2c20da9f73fa","system_id":"levelo_inurba_marseille","lat":43.30144,"lon":5.37394,"is_reserved":false,"is_disabled":false,"rental_uris":{"android":"levelo://app?vid=77eed676-a1ab-4e56-81a4-2c20da9f73fa","ios":"levelo://app?vid=77eed676-a1ab-4e56-81a4-2c20da9f73fa"},"vehicle_type_id":"4","last_reported":1743282476,"current_range_meters":9200,"station_id":"ce4bgs92rcd13ifvqcc0","pricing_plan_id":"cebpf4jnsgd1na2vs0mg"},{"bike_id":"47475a94-c966-4e94-adab-cd0008807d22","system_id":"levelo_inurba_marseille","lat":43.29523,"lon":5.39399,"is_reserved":false,"is_disabled":false,"rental_uris":{"android":"levelo://app?vid=47475a94-c966-4e94-adab-cd0008807d22","ios":"levelo://app?vid=47475a94-c966-4e94-adab-cd0008807d22"},"vehicle_type_id":"4","last_reported":1743282476,"current_range_meters":8800,"station_id":"ce4bh292rcd13ifvqdf0","pricing_plan_id":"cebpf4jnsgd1na2vs0mg"},{"bike_id":"296d0da0-4cc4-40ab-acd1-7c240f5eee02","system_id":"levelo_inurba_marseille","lat":43.30554,"lon":5.37671,"is_reserved":false,"is_disabled":false,"rental_uris":{"android":"levelo://app?vid=296d0da0-4cc4-40ab-acd1-7c240f5eee02","ios":"levelo://app?vid=296d0da0-4cc4-40ab-acd1-7c240f5eee02"},"vehicle_type_id":"4","last_reported":1743282476,"current_range_meters":8800,"station_id":"","pricing_plan_id":"cebpf4jnsgd1na2vs0mg"},{"bike_id":"4b2323ae-94b8-41f7-9062-4d9bd4bd549e","system_id":"levelo_inurba_marseille","lat":43.24178,"lon":5.36403,"is_reserved":false,"is_disabled":false,"rental_uris":{"android":"levelo://app?vid=4b2323ae-94b8-41f7-9062-4d9bd4bd549e","ios":"levelo://app?vid=4b2323ae-94b8-41f7-9062-4d9bd4bd549e"},"vehicle_type_id":"4","last_reported":1743282476,"current_range_meters":8800,"station_id":"cpo36qri1sfpv3e86is0","pricing_plan_id":"cebpf4jnsgd1na2vs0mg"},{"bike_id":"5ec32b32-389a-4b4c-8477-77b5f9f63228","system_id":"levelo_inurba_marseille","lat":43.30431,"lon":5.38895,"is_reserved":false,"is_disabled":false,"rental_uris":{"android":"levelo://app?vid=5ec32b32-389a-4b4c-8477-77b5f9f63228","ios":"levelo://app?vid=5ec32b32-389a-4b4c-8477-77b5f9f63228"},"vehicle_type_id":"4","last_reported":1743282476,"current_range_meters":8800,"station_id":"ce4bgk12rcd13ifvqbi0","pricing_plan_id":"cebpf4jnsgd1na2vs0mg"},{"bike_id":"07fe80e3-aca8-45a9-9897-4dae5d655333","system_id":"levelo_inurba_marseille","lat":43.31177,"lon":5.38719,"is_reserved":false,"is_disabled":false,"rental_uris":{"android":"levelo://app?vid=07fe80e3-aca8-45a9-9897-4dae5d655333","ios":"levelo://app?vid=07fe80e3-aca8-45a9-9897-4dae5d655333"},"vehicle_type_id":"4","last_reported":1743282476,"current_range_meters":8800,"station_id":"ce4bgv12rcd13ifvqcp0","pricing_plan_id":"cebpf4jnsgd1na2vs0mg"},{"bike_id":"e13c5804-8cfa-4e19-af0d-8fc5e4ec2833","system_id":"levelo_inurba_marseille","lat":43.31063,"lon":5.38353,"is_reserved":false,"is_disabled":false,"rental_uris":{"android":"levelo://app?vid=e13c5804-8cfa-4e19-af0d-8fc5e4ec2833","ios":"levelo://app?vid=e13c5804-8cfa-4e19-af0d-8fc5e4ec2833"},"vehicle_type_id":"4","last_reported":1743282476,"current_range_meters":8800,"station_id":"ce4bgv92rcd13ifvqcr0","pricing_plan_id":"cebpf4jnsgd1na2vs0mg"},{"bike_id":"d74db411-6506-45af-b6cf-69c9600e9252","system_id":"levelo_inurba_marseille","lat":43.32361,"lon":5.38879,"is_reserved":false,"is_disabled":false,"rental_uris":{"android":"levelo://app?vid=d74db411-6506-45af-b6cf-69c9600e9252","ios":"levelo://app?vid=d74db411-6506-45af-b6cf-69c9600e9252"},"vehicle_type_id":"4","last_reported":1743282476,"current_range_meters":8800,"station_id":"ce4bhqp2rcd13ifvqhog","pricing_plan_id":"cebpf4jnsgd1na2vs0mg"},{"bike_id":"4586e23a-2d77-446c-8e8c-a15b6ae5de02","system_id":"levelo_inurba_marseille","lat":43.28577,"lon":5.38143,"is_reserved":false,"is_disabled":false,"rental_uris":{"android":"levelo://app?vid=4586e23a-2d77-446c-8e8c-a15b6ae5de02","ios":"levelo://app?vid=4586e23a-2d77-446c-8e8c-a15b6ae5de02"},"vehicle_type_id":"4","last_reported":1743282476,"current_range_meters":8800,"station_id":"","pricing_plan_id":"cebpf4jnsgd1na2vs0mg"},{"bike_id":"a3e7a337-0d3b-4cc5-b08e-e22a14545146","system_id":"levelo_inurba_marseille","lat":43.31747,"lon":5.39042,"is_reserved":false,"is_disabled":false,"rental_uris":{"android":"levelo://app?vid=a3e7a337-0d3b-4cc5-b08e-e22a14545146","ios":"levelo://app?vid=a3e7a337-0d3b-4cc5-b08e-e22a14545146"},"vehicle_type_id":"4","last_reported":1743282476,"current_range_meters":8800,"station_id":"ce4bhqp2rcd13ifvqhng","pricing_plan_id":"cebpf4jnsgd1na2vs0mg"},{"bike_id":"376dd27f-254c-4c82-8a30-98ab210f8da7","system_id":"levelo_inurba_marseille","lat":43.29785,"lon":5.39344,"is_reserved":false,"is_disabled":false,"rental_uris":{"android":"levelo://app?vid=376dd27f-254c-4c82-8a30-98ab210f8da7","ios":"levelo://app?vid=376dd27f-254c-4c82-8a30-98ab210f8da7"},"vehicle_type_id":"4","last_reported":1743282476,"current_range_meters":8800,"station_id":"chh1huq6cuj3fo74tm60","pricing_plan_id":"cebpf4jnsgd1na2vs0mg"},{"bike_id":"d7ecebd2-9e49-43ae-916e-d63e5d709fed","system_id":"levelo_inurba_marseille","lat":43.31358,"lon":5.38506,"is_reserved":false,"is_disabled":false,"rental_uris":{"android":"levelo://app?vid=d7ecebd2-9e49-43ae-916e-d63e5d709fed","ios":"levelo://app?vid=d7ecebd2-9e49-43ae-916e-d63e5d709fed"},"vehicle_type_id":"4","last_reported":1743282476,"current_range_meters":8800,"station_id":"ce4bgt92rcd13ifvqcf0","pricing_plan_id":"cebpf4jnsgd1na2vs0mg"},{"bike_id":"3b9e2dbb-dda4-4ed5-8aef-7e67e6437f0d","system_id":"levelo_inurba_marseille","lat":43.33363,"lon":5.40125,"is_reserved":false,"is_disabled":false,"rental_uris":{"android":"levelo://app?vid=3b9e2dbb-dda4-4ed5-8aef-7e67e6437f0d","ios":"levelo://app?vid=3b9e2dbb-dda4-4ed5-8aef-7e67e6437f0d"},"vehicle_type_id":"4","last_reported":1743282476,"current_range_meters":8800,"station_id":"","pricing_plan_id":"cebpf4jnsgd1na2vs0mg"},{"bike_id":"87720f89-b96b-4a09-afe1-f8e2aec742dd","system_id":"levelo_inurba_marseille","lat":43.29008,"lon":5.38136,"is_reserved":false,"is_disabled":false,"rental_uris":{"android":"levelo://app?vid=87720f89-b96b-4a09-afe1-f8e2aec742dd","ios":"levelo://app?vid=87720f89-b96b-4a09-afe1-f8e2aec742dd"},"vehicle_type_id":"4","last_reported":1743282476,"current_range_meters":8800,"station_id":"ce4bh4p2rcd13ifvqe1g","pricing_plan_id":"cebpf4jnsgd1na2vs0mg"},{"bike_id":"4b32355b-7cb2-4761-ac10-e7e10aa3ec76","system_id":"levelo_inurba_marseille","lat":43.24795,"lon":5.37443,"is_reserved":false,"is_disabled":false,"rental_uris":{"android":"levelo://app?vid=4b32355b-7cb2-4761-ac10-e7e10aa3ec76","ios":"levelo://app?vid=4b32355b-7cb2-4761-ac10-e7e10aa3ec76"},"vehicle_type_id":"4","last_reported":1743282476,"current_range_meters":9200,"station_id":"ce4bhgh2rcd13ifvqfb0","pricing_plan_id":"cebpf4jnsgd1na2vs0mg"},{"bike_id":"b939bb21-1fef-452c-8346-293b93b9f44d","system_id":"levelo_inurba_marseille","lat":43.29941,"lon":5.38118,"is_reserved":false,"is_disabled":false,"rental_uris":{"android":"levelo://app?vid=b939bb21-1fef-452c-8346-293b93b9f44d","ios":"levelo://app?vid=b939bb21-1fef-452c-8346-293b93b9f44d"},"vehicle_type_id":"4","last_reported":1743282476,"current_range_meters":9200,"station_id":"ce4bgj12rcd13ifvqbc0","pricing_plan_id":"cebpf4jnsgd1na2vs0mg"},{"bike_id":"002e376d-65b1-4ec9-bfee-78aff2d8798d","system_id":"levelo_inurba_marseille","lat":43.29308,"lon":5.37172,"is_reserved":false,"is_disabled":false,"rental_uris":{"android":"levelo://app?vid=002e376d-65b1-4ec9-bfee-78aff2d8798d","ios":"levelo://app?vid=002e376d-65b1-4ec9-bfee-78aff2d8798d"},"vehicle_type_id":"4","last_reported":1743282476,"current_range_meters":9200,"station_id":"ce4bgh92rcd13ifvqb40","pricing_plan_id":"cebpf4jnsgd1na2vs0mg"},{"bike_id":"24565657-e482-4932-93db-e35fe49c2025","system_id":"levelo_inurba_marseille","lat":43.26668,"lon":5.38288,"is_reserved":false,"is_disabled":false,"rental_uris":{"android":"levelo://app?vid=24565657-e482-4932-93db-e35fe49c2025","ios":"levelo://app?vid=24565657-e482-4932-93db-e35fe49c2025"},"vehicle_type_id":"4","last_reported":1743282476,"current_range_meters":9200,"station_id":"ce4bhg92rcd13ifvqf90","pricing_plan_id":"cebpf4jnsgd1na2vs0mg"},{"bike_id":"8c0f6e3f-b370-4d64-ac55-96b0ff55a395","system_id":"levelo_inurba_marseille","lat":43.24407,"lon":5.37041,"is_reserved":false,"is_disabled":false,"rental_uris":{"android":"levelo://app?vid=8c0f6e3f-b370-4d64-ac55-96b0ff55a395","ios":"levelo://app?vid=8c0f6e3f-b370-4d64-ac55-96b0ff55a395"},"vehicle_type_id":"4","last_reported":1743282476,"current_range_meters":9200,"station_id":"ce4bhhh2rcd13ifvqfk0","pricing_plan_id":"cebpf4jnsgd1na2vs0mg"},{"bike_id":"146b1641-dc1a-4354-ab17-3754ad25d944","system_id":"levelo_inurba_marseille","lat":43.2557,"lon":5.38247,"is_reserved":false,"is_disabled":false,"rental_uris":{"android":"levelo://app?vid=146b1641-dc1a-4354-ab17-3754ad25d944","ios":"levelo://app?vid=146b1641-dc1a-4354-ab17-3754ad25d944"},"vehicle_type_id":"4","last_reported":1743282476,"current_range_meters":9200,"station_id":"ce4bhih2rcd13ifvqfs0","pricing_plan_id":"cebpf4jnsgd1na2vs0mg"},{"bike_id":"050d458d-cce9-44b3-9d16-b8a5c2076354","system_id":"levelo_inurba_marseille","lat":43.31731,"lon":5.39038,"is_reserved":false,"is_disabled":false,"rental_uris":{"android":"levelo://app?vid=050d458d-cce9-44b3-9d16-b8a5c2076354","ios":"levelo://app?vid=050d458d-cce9-44b3-9d16-b8a5c2076354"},"vehicle_type_id":"4","last_reported":1743282476,"current_range_meters":9200,"station_id":"ce4bhqp2rcd13ifvqhng","pricing_plan_id":"cebpf4jnsgd1na2vs0mg"},{"bike_id":"5a3307a6-54ca-44bc-a5fd-ab80751e6464","system_id":"levelo_inurba_marseille","lat":43.23188,"lon":5.399917,"is_reserved":false,"is_disabled":true,"rental_uris":{"android":"levelo://app?vid=5a3307a6-54ca-44bc-a5fd-ab80751e6464","ios":"levelo://app?vid=5a3307a6-54ca-44bc-a5fd-ab80751e6464"},"vehicle_type_id":"4","last_reported":1743282476,"current_range_meters":9200,"station_id":"ce4bhn12rcd13ifvqgqg","pricing_plan_id":"cebpf4jnsgd1na2vs0mg"},{"bike_id":"6852b502-cf11-4f8f-8ea9-99cb8996dd85","system_id":"levelo_inurba_marseille","lat":43.29533,"lon":5.38542,"is_reserved":false,"is_disabled":false,"rental_uris":{"android":"levelo://app?vid=6852b502-cf11-4f8f-8ea9-99cb8996dd85","ios":"levelo://app?vid=6852b502-cf11-4f8f-8ea9-99cb8996dd85"},"vehicle_type_id":"4","last_reported":1743282476,"current_range_meters":9600,"station_id":"ce4bgih2rcd13ifvqba0","pricing_plan_id":"cebpf4jnsgd1na2vs0mg"},{"bike_id":"b10ef664-6c03-42d8-8895-87a25927647b","system_id":"levelo_inurba_marseille","lat":43.31764,"lon":5.39007,"is_reserved":false,"is_disabled":false,"rental_uris":{"android":"levelo://app?vid=b10ef664-6c03-42d8-8895-87a25927647b","ios":"levelo://app?vid=b10ef664-6c03-42d8-8895-87a25927647b"},"vehicle_type_id":"4","last_reported":1743282476,"current_range_meters":9600,"station_id":"ce4bhqp2rcd13ifvqhng","pricing_plan_id":"cebpf4jnsgd1na2vs0mg"},{"bike_id":"e6967797-29d0-4947-88e5-61bc42de65df","system_id":"levelo_inurba_marseille","lat":43.28643,"lon":5.35079,"is_reserved":false,"is_disabled":false,"rental_uris":{"android":"levelo://app?vid=e6967797-29d0-4947-88e5-61bc42de65df","ios":"levelo://app?vid=e6967797-29d0-4947-88e5-61bc42de65df"},"vehicle_type_id":"4","last_reported":1743282476,"current_range_meters":9600,"station_id":"ce4bhch2rcd13ifvqeug","pricing_plan_id":"cebpf4jnsgd1na2vs0mg"},{"bike_id":"6756d3c3-a110-4a3c-bb91-4579c8e72d4d","system_id":"levelo_inurba_marseille","lat":43.27938,"lon":5.4105,"is_reserved":false,"is_disabled":false,"rental_uris":{"android":"levelo://app?vid=6756d3c3-a110-4a3c-bb91-4579c8e72d4d","ios":"levelo://app?vid=6756d3c3-a110-4a3c-bb91-4579c8e72d4d"},"vehicle_type_id":"4","last_reported":1743282476,"current_range_meters":9600,"station_id":"ce4bhnp2rcd13ifvqh0g","pricing_plan_id":"cebpf4jnsgd1na2vs0mg"},{"bike_id":"2659539d-6b9c-4036-87e5-9105ef91d321","system_id":"levelo_inurba_marseille","lat":43.3021,"lon":5.39475,"is_reserved":false,"is_disabled":false,"rental_uris":{"android":"levelo://app?vid=2659539d-6b9c-4036-87e5-9105ef91d321","ios":"levelo://app?vid=2659539d-6b9c-4036-87e5-9105ef91d321"},"vehicle_type_id":"4","last_reported":1743282476,"current_range_meters":9600,"station_id":"ce4bh0p2rcd13ifvqd70","pricing_plan_id":"cebpf4jnsgd1na2vs0mg"},{"bike_id":"a8d851cf-5d20-4ee9-95cb-5df4c3c78873","system_id":"levelo_inurba_marseille","lat":43.29261,"lon":5.37633,"is_reserved":false,"is_disabled":false,"rental_uris":{"android":"levelo://app?vid=a8d851cf-5d20-4ee9-95cb-5df4c3c78873","ios":"levelo://app?vid=a8d851cf-5d20-4ee9-95cb-5df4c3c78873"},"vehicle_type_id":"4","last_reported":1743282476,"current_range_meters":9600,"station_id":"ce4bgi12rcd13ifvqb80","pricing_plan_id":"cebpf4jnsgd1na2vs0mg"},{"bike_id":"b63eee63-392e-4360-bd35-8f9c5961cdc8","system_id":"levelo_inurba_marseille","lat":43.26036,"lon":5.37553,"is_reserved":false,"is_disabled":false,"rental_uris":{"android":"levelo://app?vid=b63eee63-392e-4360-bd35-8f9c5961cdc8","ios":"levelo://app?vid=b63eee63-392e-4360-bd35-8f9c5961cdc8"},"vehicle_type_id":"4","last_reported":1743282476,"current_range_meters":9600,"station_id":"ce4bhgh2rcd13ifvqfa0","pricing_plan_id":"cebpf4jnsgd1na2vs0mg"},{"bike_id":"8743926a-4d2a-4ed6-afa9-212ba4b178f7","system_id":"levelo_inurba_marseille","lat":43.29585,"lon":5.38123,"is_reserved":false,"is_disabled":false,"rental_uris":{"android":"levelo://app?vid=8743926a-4d2a-4ed6-afa9-212ba4b178f7","ios":"levelo://app?vid=8743926a-4d2a-4ed6-afa9-212ba4b178f7"},"vehicle_type_id":"4","last_reported":1743282476,"current_range_meters":9600,"station_id":"ce4bgl12rcd13ifvqbo0","pricing_plan_id":"cebpf4jnsgd1na2vs0mg"},{"bike_id":"a1b5a514-f0ef-42eb-b1a4-22dd30a86324","system_id":"levelo_inurba_marseille","lat":43.31732,"lon":5.39017,"is_reserved":false,"is_disabled":false,"rental_uris":{"android":"levelo://app?vid=a1b5a514-f0ef-42eb-b1a4-22dd30a86324","ios":"levelo://app?vid=a1b5a514-f0ef-42eb-b1a4-22dd30a86324"},"vehicle_type_id":"4","last_reported":1743282476,"current_range_meters":9600,"station_id":"ce4bhqp2rcd13ifvqhng","pricing_plan_id":"cebpf4jnsgd1na2vs0mg"},{"bike_id":"53ca8648-c4ac-4f84-9554-feae1f1ef983","system_id":"levelo_inurba_marseille","lat":43.28671,"lon":5.38658,"is_reserved":false,"is_disabled":false,"rental_uris":{"android":"levelo://app?vid=53ca8648-c4ac-4f84-9554-feae1f1ef983","ios":"levelo://app?vid=53ca8648-c4ac-4f84-9554-feae1f1ef983"},"vehicle_type_id":"4","last_reported":1743282476,"current_range_meters":10000,"station_id":"ce4bh492rcd13ifvqdug","pricing_plan_id":"cebpf4jnsgd1na2vs0mg"},{"bike_id":"d7dfd7ab-b203-4aab-a166-a0bfb765355e","system_id":"levelo_inurba_marseille","lat":43.302103,"lon":5.394668,"is_reserved":false,"is_disabled":false,"rental_uris":{"android":"levelo://app?vid=d7dfd7ab-b203-4aab-a166-a0bfb765355e","ios":"levelo://app?vid=d7dfd7ab-b203-4aab-a166-a0bfb765355e"},"vehicle_type_id":"4","last_reported":1743282476,"current_range_meters":9600,"station_id":"ce4bh0p2rcd13ifvqd70","pricing_plan_id":"cebpf4jnsgd1na2vs0mg"},{"bike_id":"05875211-b14c-430d-9598-bbd707610e16","system_id":"levelo_inurba_marseille","lat":43.29267,"lon":5.36854,"is_reserved":false,"is_disabled":false,"rental_uris":{"android":"levelo://app?vid=05875211-b14c-430d-9598-bbd707610e16","ios":"levelo://app?vid=05875211-b14c-430d-9598-bbd707610e16"},"vehicle_type_id":"4","last_reported":1743282476,"current_range_meters":10000,"station_id":"ce4bhbp2rcd13ifvqesg","pricing_plan_id":"cebpf4jnsgd1na2vs0mg"},{"bike_id":"b5f558d0-9661-4726-a97d-21b3aaf415fb","system_id":"levelo_inurba_marseille","lat":43.24386,"lon":5.37063,"is_reserved":false,"is_disabled":false,"rental_uris":{"android":"levelo://app?vid=b5f558d0-9661-4726-a97d-21b3aaf415fb","ios":"levelo://app?vid=b5f558d0-9661-4726-a97d-21b3aaf415fb"},"vehicle_type_id":"4","last_reported":1743282476,"current_range_meters":10000,"station_id":"ce4bhhh2rcd13ifvqfk0","pricing_plan_id":"cebpf4jnsgd1na2vs0mg"},{"bike_id":"d0ed36b4-3c5a-4da6-8fb4-955c321dd03a","system_id":"levelo_inurba_marseille","lat":43.275,"lon":5.41035,"is_reserved":false,"is_disabled":false,"rental_uris":{"android":"levelo://app?vid=d0ed36b4-3c5a-4da6-8fb4-955c321dd03a","ios":"levelo://app?vid=d0ed36b4-3c5a-4da6-8fb4-955c321dd03a"},"vehicle_type_id":"4","last_reported":1743282476,"current_range_meters":10000,"station_id":"","pricing_plan_id":"cebpf4jnsgd1na2vs0mg"},{"bike_id":"10365f62-ee2b-4687-92a1-782d737acef1","system_id":"levelo_inurba_marseille","lat":43.25919,"lon":5.40873,"is_reserved":false,"is_disabled":false,"rental_uris":{"android":"levelo://app?vid=10365f62-ee2b-4687-92a1-782d737acef1","ios":"levelo://app?vid=10365f62-ee2b-4687-92a1-782d737acef1"},"vehicle_type_id":"4","last_reported":1743282476,"current_range_meters":10000,"station_id":"ce4bhm92rcd13ifvqglg","pricing_plan_id":"cebpf4jnsgd1na2vs0mg"},{"bike_id":"004ed55f-f985-4268-b523-9ed16ba4ea3b","system_id":"levelo_inurba_marseille","lat":43.29271,"lon":5.36828,"is_reserved":false,"is_disabled":true,"rental_uris":{"android":"levelo://app?vid=004ed55f-f985-4268-b523-9ed16ba4ea3b","ios":"levelo://app?vid=004ed55f-f985-4268-b523-9ed16ba4ea3b"},"vehicle_type_id":"4","last_reported":1743282476,"current_range_meters":10000,"station_id":"ce4bhbp2rcd13ifvqesg","pricing_plan_id":"cebpf4jnsgd1na2vs0mg"},{"bike_id":"0da6ffc8-ff76-4b09-bbb9-77dcbc5db596","system_id":"levelo_inurba_marseille","lat":43.29921,"lon":5.38152,"is_reserved":false,"is_disabled":false,"rental_uris":{"android":"levelo://app?vid=0da6ffc8-ff76-4b09-bbb9-77dcbc5db596","ios":"levelo://app?vid=0da6ffc8-ff76-4b09-bbb9-77dcbc5db596"},"vehicle_type_id":"4","last_reported":1743282476,"current_range_meters":10000,"station_id":"ce4bgj12rcd13ifvqbc0","pricing_plan_id":"cebpf4jnsgd1na2vs0mg"},{"bike_id":"96ac20e8-5840-4579-b371-184ec6253952","system_id":"levelo_inurba_marseille","lat":43.27515,"lon":5.41143,"is_reserved":false,"is_disabled":false,"rental_uris":{"android":"levelo://app?vid=96ac20e8-5840-4579-b371-184ec6253952","ios":"levelo://app?vid=96ac20e8-5840-4579-b371-184ec6253952"},"vehicle_type_id":"4","last_reported":1743282476,"current_range_meters":10000,"station_id":"","pricing_plan_id":"cebpf4jnsgd1na2vs0mg"},{"bike_id":"c84282f9-0e94-46f6-a3ee-68da449c7e4d","system_id":"levelo_inurba_marseille","lat":43.29258,"lon":5.38439,"is_reserved":false,"is_disabled":false,"rental_uris":{"android":"levelo://app?vid=c84282f9-0e94-46f6-a3ee-68da449c7e4d","ios":"levelo://app?vid=c84282f9-0e94-46f6-a3ee-68da449c7e4d"},"vehicle_type_id":"4","last_reported":1743282476,"current_range_meters":10000,"station_id":"ce4bh692rcd13ifvqea0","pricing_plan_id":"cebpf4jnsgd1na2vs0mg"},{"bike_id":"ead84735-1991-4501-b506-2229ced7058a","system_id":"levelo_inurba_marseille","lat":43.23059,"lon":5.35483,"is_reserved":false,"is_disabled":false,"rental_uris":{"android":"levelo://app?vid=ead84735-1991-4501-b506-2229ced7058a","ios":"levelo://app?vid=ead84735-1991-4501-b506-2229ced7058a"},"vehicle_type_id":"4","last_reported":1743282476,"current_range_meters":10000,"station_id":"cpo3342slgdg3j2ifvpg","pricing_plan_id":"cebpf4jnsgd1na2vs0mg"},{"bike_id":"89b372e0-e34b-4448-a651-9f0d9816c98e","system_id":"levelo_inurba_marseille","lat":43.24172,"lon":5.36398,"is_reserved":false,"is_disabled":false,"rental_uris":{"android":"levelo://app?vid=89b372e0-e34b-4448-a651-9f0d9816c98e","ios":"levelo://app?vid=89b372e0-e34b-4448-a651-9f0d9816c98e"},"vehicle_type_id":"4","last_reported":1743282476,"current_range_meters":10000,"station_id":"cpo36qri1sfpv3e86is0","pricing_plan_id":"cebpf4jnsgd1na2vs0mg"},{"bike_id":"3f2bcfca-c616-4059-a95b-b1ee7948eb41","system_id":"levelo_inurba_marseille","lat":43.29878,"lon":5.39741,"is_reserved":false,"is_disabled":false,"rental_uris":{"android":"levelo://app?vid=3f2bcfca-c616-4059-a95b-b1ee7948eb41","ios":"levelo://app?vid=3f2bcfca-c616-4059-a95b-b1ee7948eb41"},"vehicle_type_id":"4","last_reported":1743282476,"current_range_meters":10000,"station_id":"ce4bh0h2rcd13ifvqd50","pricing_plan_id":"cebpf4jnsgd1na2vs0mg"},{"bike_id":"87fc32a8-b064-4884-b590-9fc1ae32af5f","system_id":"levelo_inurba_marseille","lat":43.31676,"lon":5.38236,"is_reserved":false,"is_disabled":false,"rental_uris":{"android":"levelo://app?vid=87fc32a8-b064-4884-b590-9fc1ae32af5f","ios":"levelo://app?vid=87fc32a8-b064-4884-b590-9fc1ae32af5f"},"vehicle_type_id":"4","last_reported":1743282476,"current_range_meters":10000,"station_id":"","pricing_plan_id":"cebpf4jnsgd1na2vs0mg"},{"bike_id":"9a3c36ac-fcb6-487a-b92e-8a827712db4b","system_id":"levelo_inurba_marseille","lat":43.31323,"lon":5.39686,"is_reserved":false,"is_disabled":false,"rental_uris":{"android":"levelo://app?vid=9a3c36ac-fcb6-487a-b92e-8a827712db4b","ios":"levelo://app?vid=9a3c36ac-fcb6-487a-b92e-8a827712db4b"},"vehicle_type_id":"4","last_reported":1743282476,"current_range_meters":9600,"station_id":"ce4bgvp2rcd13ifvqcu0","pricing_plan_id":"cebpf4jnsgd1na2vs0mg"},{"bike_id":"96131fa3-eae1-4c76-a5ed-3df85de907fa","system_id":"levelo_inurba_marseille","lat":43.29906,"lon":5.39765,"is_reserved":false,"is_disabled":false,"rental_uris":{"android":"levelo://app?vid=96131fa3-eae1-4c76-a5ed-3df85de907fa","ios":"levelo://app?vid=96131fa3-eae1-4c76-a5ed-3df85de907fa"},"vehicle_type_id":"4","last_reported":1743282476,"current_range_meters":10000,"station_id":"","pricing_plan_id":"cebpf4jnsgd1na2vs0mg"},{"bike_id":"c72c49ed-895c-4cfe-b593-0b87df7ff3d1","system_id":"levelo_inurba_marseille","lat":43.3059,"lon":5.39356,"is_reserved":false,"is_disabled":false,"rental_uris":{"android":"levelo://app?vid=c72c49ed-895c-4cfe-b593-0b87df7ff3d1","ios":"levelo://app?vid=c72c49ed-895c-4cfe-b593-0b87df7ff3d1"},"vehicle_type_id":"4","last_reported":1743282476,"current_range_meters":10000,"station_id":"ce4bh0p2rcd13ifvqd80","pricing_plan_id":"cebpf4jnsgd1na2vs0mg"},{"bike_id":"5dca16b0-0836-4d29-a112-b6ae5585b009","system_id":"levelo_inurba_marseille","lat":43.286,"lon":5.35133,"is_reserved":false,"is_disabled":false,"rental_uris":{"android":"levelo://app?vid=5dca16b0-0836-4d29-a112-b6ae5585b009","ios":"levelo://app?vid=5dca16b0-0836-4d29-a112-b6ae5585b009"},"vehicle_type_id":"4","last_reported":1743282476,"current_range_meters":10000,"station_id":"ce4bhch2rcd13ifvqeug","pricing_plan_id":"cebpf4jnsgd1na2vs0mg"},{"bike_id":"4a23a622-2876-4789-9225-0e4bb5df870b","system_id":"levelo_inurba_marseille","lat":43.27924,"lon":5.39586,"is_reserved":false,"is_disabled":false,"rental_uris":{"android":"levelo://app?vid=4a23a622-2876-4789-9225-0e4bb5df870b","ios":"levelo://app?vid=4a23a622-2876-4789-9225-0e4bb5df870b"},"vehicle_type_id":"4","last_reported":1743282476,"current_range_meters":10800,"station_id":"ce4bhf92rcd13ifvqf40","pricing_plan_id":"cebpf4jnsgd1na2vs0mg"},{"bike_id":"56382eee-a8fa-40dd-bdaa-e22b9db5afbc","system_id":"levelo_inurba_marseille","lat":43.28948,"lon":5.3663,"is_reserved":false,"is_disabled":false,"rental_uris":{"android":"levelo://app?vid=56382eee-a8fa-40dd-bdaa-e22b9db5afbc","ios":"levelo://app?vid=56382eee-a8fa-40dd-bdaa-e22b9db5afbc"},"vehicle_type_id":"4","last_reported":1743282476,"current_range_meters":10800,"station_id":"ce4bhap2rcd13ifvqek0","pricing_plan_id":"cebpf4jnsgd1na2vs0mg"},{"bike_id":"92d0e5b1-d8be-4835-be79-9c98112cd6c2","system_id":"levelo_inurba_marseille","lat":43.29307,"lon":5.37454,"is_reserved":false,"is_disabled":false,"rental_uris":{"android":"levelo://app?vid=92d0e5b1-d8be-4835-be79-9c98112cd6c2","ios":"levelo://app?vid=92d0e5b1-d8be-4835-be79-9c98112cd6c2"},"vehicle_type_id":"4","last_reported":1743282476,"current_range_meters":10800,"station_id":"ce4bgi12rcd13ifvqb70","pricing_plan_id":"cebpf4jnsgd1na2vs0mg"},{"bike_id":"747d2bc2-6706-42d9-8381-8fcc8fac62bd","system_id":"levelo_inurba_marseille","lat":43.28672,"lon":5.36999,"is_reserved":false,"is_disabled":true,"rental_uris":{"android":"levelo://app?vid=747d2bc2-6706-42d9-8381-8fcc8fac62bd","ios":"levelo://app?vid=747d2bc2-6706-42d9-8381-8fcc8fac62bd"},"vehicle_type_id":"4","last_reported":1743282476,"current_range_meters":10800,"station_id":"","pricing_plan_id":"cebpf4jnsgd1na2vs0mg"},{"bike_id":"f45cd157-5aba-4d41-b9b6-c660eb64c51b","system_id":"levelo_inurba_marseille","lat":43.29268,"lon":5.38424,"is_reserved":false,"is_disabled":false,"rental_uris":{"android":"levelo://app?vid=f45cd157-5aba-4d41-b9b6-c660eb64c51b","ios":"levelo://app?vid=f45cd157-5aba-4d41-b9b6-c660eb64c51b"},"vehicle_type_id":"4","last_reported":1743282476,"current_range_meters":10800,"station_id":"ce4bh692rcd13ifvqea0","pricing_plan_id":"cebpf4jnsgd1na2vs0mg"},{"bike_id":"9deaa130-8013-45ea-baf5-1fd93ef39f53","system_id":"levelo_inurba_marseille","lat":43.29418,"lon":5.38634,"is_reserved":false,"is_disabled":false,"rental_uris":{"android":"levelo://app?vid=9deaa130-8013-45ea-baf5-1fd93ef39f53","ios":"levelo://app?vid=9deaa130-8013-45ea-baf5-1fd93ef39f53"},"vehicle_type_id":"4","last_reported":1743282476,"current_range_meters":10800,"station_id":"ce4bh2h2rcd13ifvqdh0","pricing_plan_id":"cebpf4jnsgd1na2vs0mg"},{"bike_id":"efff04da-c9e4-43ac-af1d-3d2959bd3159","system_id":"levelo_inurba_marseille","lat":43.23064,"lon":5.35493,"is_reserved":false,"is_disabled":false,"rental_uris":{"android":"levelo://app?vid=efff04da-c9e4-43ac-af1d-3d2959bd3159","ios":"levelo://app?vid=efff04da-c9e4-43ac-af1d-3d2959bd3159"},"vehicle_type_id":"4","last_reported":1743282476,"current_range_meters":10800,"station_id":"cpo3342slgdg3j2ifvpg","pricing_plan_id":"cebpf4jnsgd1na2vs0mg"},{"bike_id":"d871a26c-bdd3-4190-ae0c-502f524ad221","system_id":"levelo_inurba_marseille","lat":43.23056,"lon":5.35492,"is_reserved":false,"is_disabled":false,"rental_uris":{"android":"levelo://app?vid=d871a26c-bdd3-4190-ae0c-502f524ad221","ios":"levelo://app?vid=d871a26c-bdd3-4190-ae0c-502f524ad221"},"vehicle_type_id":"4","last_reported":1743282476,"current_range_meters":10800,"station_id":"cpo3342slgdg3j2ifvpg","pricing_plan_id":"cebpf4jnsgd1na2vs0mg"},{"bike_id":"acf1e1c3-a629-4c7b-a838-cba3f3b54603","system_id":"levelo_inurba_marseille","lat":43.31873,"lon":5.37651,"is_reserved":false,"is_disabled":false,"rental_uris":{"android":"levelo://app?vid=acf1e1c3-a629-4c7b-a838-cba3f3b54603","ios":"levelo://app?vid=acf1e1c3-a629-4c7b-a838-cba3f3b54603"},"vehicle_type_id":"4","last_reported":1743282476,"current_range_meters":10800,"station_id":"","pricing_plan_id":"cebpf4jnsgd1na2vs0mg"},{"bike_id":"65a8dab8-8a7d-4dd6-91c8-722b99c357de","system_id":"levelo_inurba_marseille","lat":43.298696,"lon":5.397295,"is_reserved":false,"is_disabled":false,"rental_uris":{"android":"levelo://app?vid=65a8dab8-8a7d-4dd6-91c8-722b99c357de","ios":"levelo://app?vid=65a8dab8-8a7d-4dd6-91c8-722b99c357de"},"vehicle_type_id":"4","last_reported":1743282476,"current_range_meters":10800,"station_id":"ce4bgk12rcd13ifvqbj0","pricing_plan_id":"cebpf4jnsgd1na2vs0mg"},{"bike_id":"25bb5fbc-8229-4010-b703-31f5ee6ac141","system_id":"levelo_inurba_marseille","lat":43.30679,"lon":5.3659,"is_reserved":false,"is_disabled":false,"rental_uris":{"android":"levelo://app?vid=25bb5fbc-8229-4010-b703-31f5ee6ac141","ios":"levelo://app?vid=25bb5fbc-8229-4010-b703-31f5ee6ac141"},"vehicle_type_id":"4","last_reported":1743282476,"current_range_meters":11200,"station_id":"","pricing_plan_id":"cebpf4jnsgd1na2vs0mg"},{"bike_id":"76d4ed16-8625-4a14-a5f1-d28ac2574c13","system_id":"levelo_inurba_marseille","lat":43.24547,"lon":5.39529,"is_reserved":false,"is_disabled":false,"rental_uris":{"android":"levelo://app?vid=76d4ed16-8625-4a14-a5f1-d28ac2574c13","ios":"levelo://app?vid=76d4ed16-8625-4a14-a5f1-d28ac2574c13"},"vehicle_type_id":"4","last_reported":1743282476,"current_range_meters":11200,"station_id":"","pricing_plan_id":"cebpf4jnsgd1na2vs0mg"},{"bike_id":"906b540e-e920-417f-92b5-0ef35349f644","system_id":"levelo_inurba_marseille","lat":43.31545,"lon":5.39719,"is_reserved":false,"is_disabled":false,"rental_uris":{"android":"levelo://app?vid=906b540e-e920-417f-92b5-0ef35349f644","ios":"levelo://app?vid=906b540e-e920-417f-92b5-0ef35349f644"},"vehicle_type_id":"4","last_reported":1743282476,"current_range_meters":11200,"station_id":"","pricing_plan_id":"cebpf4jnsgd1na2vs0mg"},{"bike_id":"b0f07424-71e1-4051-b64f-ae1be2bfde96","system_id":"levelo_inurba_marseille","lat":43.2507,"lon":5.39518,"is_reserved":false,"is_disabled":false,"rental_uris":{"android":"levelo://app?vid=b0f07424-71e1-4051-b64f-ae1be2bfde96","ios":"levelo://app?vid=b0f07424-71e1-4051-b64f-ae1be2bfde96"},"vehicle_type_id":"4","last_reported":1743282476,"current_range_meters":11200,"station_id":"ce4bhm12rcd13ifvqgkg","pricing_plan_id":"cebpf4jnsgd1na2vs0mg"},{"bike_id":"b0ecd445-ee0f-484a-8e07-0e8432eb420c","system_id":"levelo_inurba_marseille","lat":43.287,"lon":5.39985,"is_reserved":false,"is_disabled":false,"rental_uris":{"android":"levelo://app?vid=b0ecd445-ee0f-484a-8e07-0e8432eb420c","ios":"levelo://app?vid=b0ecd445-ee0f-484a-8e07-0e8432eb420c"},"vehicle_type_id":"4","last_reported":1743282476,"current_range_meters":10800,"station_id":"ce4bho92rcd13ifvqh3g","pricing_plan_id":"cebpf4jnsgd1na2vs0mg"},{"bike_id":"92bfecbf-789d-4c73-ae76-0e5a1e2a6e8a","system_id":"levelo_inurba_marseille","lat":43.25578,"lon":5.38237,"is_reserved":false,"is_disabled":false,"rental_uris":{"android":"levelo://app?vid=92bfecbf-789d-4c73-ae76-0e5a1e2a6e8a","ios":"levelo://app?vid=92bfecbf-789d-4c73-ae76-0e5a1e2a6e8a"},"vehicle_type_id":"4","last_reported":1743282476,"current_range_meters":11200,"station_id":"ce4bhih2rcd13ifvqfs0","pricing_plan_id":"cebpf4jnsgd1na2vs0mg"},{"bike_id":"200b7d31-2db8-45cc-b36d-b9d670de9728","system_id":"levelo_inurba_marseille","lat":43.31425,"lon":5.37352,"is_reserved":false,"is_disabled":false,"rental_uris":{"android":"levelo://app?vid=200b7d31-2db8-45cc-b36d-b9d670de9728","ios":"levelo://app?vid=200b7d31-2db8-45cc-b36d-b9d670de9728"},"vehicle_type_id":"4","last_reported":1743282476,"current_range_meters":11200,"station_id":"","pricing_plan_id":"cebpf4jnsgd1na2vs0mg"},{"bike_id":"9e6169ef-5f71-4a72-b3c2-effde3fb2783","system_id":"levelo_inurba_marseille","lat":43.30416,"lon":5.41272,"is_reserved":false,"is_disabled":false,"rental_uris":{"android":"levelo://app?vid=9e6169ef-5f71-4a72-b3c2-effde3fb2783","ios":"levelo://app?vid=9e6169ef-5f71-4a72-b3c2-effde3fb2783"},"vehicle_type_id":"4","last_reported":1743282476,"current_range_meters":11200,"station_id":"ce4bhop2rcd13ifvqh8g","pricing_plan_id":"cebpf4jnsgd1na2vs0mg"},{"bike_id":"0de4a61d-7cbd-46cd-b57d-5a34b2917f05","system_id":"levelo_inurba_marseille","lat":43.28492,"lon":5.38567,"is_reserved":false,"is_disabled":false,"rental_uris":{"android":"levelo://app?vid=0de4a61d-7cbd-46cd-b57d-5a34b2917f05","ios":"levelo://app?vid=0de4a61d-7cbd-46cd-b57d-5a34b2917f05"},"vehicle_type_id":"4","last_reported":1743282476,"current_range_meters":11200,"station_id":"ce4bh8p2rcd13ifvqeb0","pricing_plan_id":"cebpf4jnsgd1na2vs0mg"},{"bike_id":"7b30d470-9209-4d84-9568-3664fac24105","system_id":"levelo_inurba_marseille","lat":43.30894,"lon":5.37195,"is_reserved":false,"is_disabled":false,"rental_uris":{"android":"levelo://app?vid=7b30d470-9209-4d84-9568-3664fac24105","ios":"levelo://app?vid=7b30d470-9209-4d84-9568-3664fac24105"},"vehicle_type_id":"4","last_reported":1743282476,"current_range_meters":11600,"station_id":"ce4bguh2rcd13ifvqckg","pricing_plan_id":"cebpf4jnsgd1na2vs0mg"},{"bike_id":"42bc7b23-0e2f-4d72-b583-40bcdabb28c7","system_id":"levelo_inurba_marseille","lat":43.29543,"lon":5.3738,"is_reserved":false,"is_disabled":false,"rental_uris":{"android":"levelo://app?vid=42bc7b23-0e2f-4d72-b583-40bcdabb28c7","ios":"levelo://app?vid=42bc7b23-0e2f-4d72-b583-40bcdabb28c7"},"vehicle_type_id":"4","last_reported":1743282476,"current_range_meters":11600,"station_id":"","pricing_plan_id":"cebpf4jnsgd1na2vs0mg"},{"bike_id":"a550f1f0-8aa3-4995-9b44-3b7996116c5d","system_id":"levelo_inurba_marseille","lat":43.30902,"lon":5.36834,"is_reserved":false,"is_disabled":false,"rental_uris":{"android":"levelo://app?vid=a550f1f0-8aa3-4995-9b44-3b7996116c5d","ios":"levelo://app?vid=a550f1f0-8aa3-4995-9b44-3b7996116c5d"},"vehicle_type_id":"4","last_reported":1743282476,"current_range_meters":11600,"station_id":"ce4bgn92rcd13ifvqbvg","pricing_plan_id":"cebpf4jnsgd1na2vs0mg"},{"bike_id":"1bf928b2-7ac9-41a7-adcc-77e0f5608510","system_id":"levelo_inurba_marseille","lat":43.32439,"lon":5.36393,"is_reserved":false,"is_disabled":false,"rental_uris":{"android":"levelo://app?vid=1bf928b2-7ac9-41a7-adcc-77e0f5608510","ios":"levelo://app?vid=1bf928b2-7ac9-41a7-adcc-77e0f5608510"},"vehicle_type_id":"4","last_reported":1743282476,"current_range_meters":11600,"station_id":"","pricing_plan_id":"cebpf4jnsgd1na2vs0mg"},{"bike_id":"15e44165-59b3-4076-a4ef-750ccc44769a","system_id":"levelo_inurba_marseille","lat":43.31351,"lon":5.38503,"is_reserved":false,"is_disabled":false,"rental_uris":{"android":"levelo://app?vid=15e44165-59b3-4076-a4ef-750ccc44769a","ios":"levelo://app?vid=15e44165-59b3-4076-a4ef-750ccc44769a"},"vehicle_type_id":"4","last_reported":1743282476,"current_range_meters":11600,"station_id":"ce4bgt92rcd13ifvqcf0","pricing_plan_id":"cebpf4jnsgd1na2vs0mg"},{"bike_id":"4fb83321-df12-4ed5-9ce7-f677dd1b9c3d","system_id":"levelo_inurba_marseille","lat":43.29302,"lon":5.374587,"is_reserved":false,"is_disabled":false,"rental_uris":{"android":"levelo://app?vid=4fb83321-df12-4ed5-9ce7-f677dd1b9c3d","ios":"levelo://app?vid=4fb83321-df12-4ed5-9ce7-f677dd1b9c3d"},"vehicle_type_id":"4","last_reported":1743282476,"current_range_meters":11600,"station_id":"ce4bgi12rcd13ifvqb70","pricing_plan_id":"cebpf4jnsgd1na2vs0mg"},{"bike_id":"24811c1e-4aa4-44cb-ac8b-f9b57d0f8121","system_id":"levelo_inurba_marseille","lat":43.27367,"lon":5.36248,"is_reserved":false,"is_disabled":false,"rental_uris":{"android":"levelo://app?vid=24811c1e-4aa4-44cb-ac8b-f9b57d0f8121","ios":"levelo://app?vid=24811c1e-4aa4-44cb-ac8b-f9b57d0f8121"},"vehicle_type_id":"4","last_reported":1743282476,"current_range_meters":11600,"station_id":"ce4bhbh2rcd13ifvqeo0","pricing_plan_id":"cebpf4jnsgd1na2vs0mg"},{"bike_id":"ba362734-34ca-4bcd-8728-cadb040d6152","system_id":"levelo_inurba_marseille","lat":43.24471,"lon":5.36986,"is_reserved":false,"is_disabled":false,"rental_uris":{"android":"levelo://app?vid=ba362734-34ca-4bcd-8728-cadb040d6152","ios":"levelo://app?vid=ba362734-34ca-4bcd-8728-cadb040d6152"},"vehicle_type_id":"4","last_reported":1743282476,"current_range_meters":11600,"station_id":"ce4bhhh2rcd13ifvqfk0","pricing_plan_id":"cebpf4jnsgd1na2vs0mg"},{"bike_id":"c74585e7-a743-4f23-8875-062b450b9bca","system_id":"levelo_inurba_marseille","lat":43.29418,"lon":5.38619,"is_reserved":false,"is_disabled":false,"rental_uris":{"android":"levelo://app?vid=c74585e7-a743-4f23-8875-062b450b9bca","ios":"levelo://app?vid=c74585e7-a743-4f23-8875-062b450b9bca"},"vehicle_type_id":"4","last_reported":1743282476,"current_range_meters":11600,"station_id":"ce4bh2h2rcd13ifvqdh0","pricing_plan_id":"cebpf4jnsgd1na2vs0mg"},{"bike_id":"2dd88066-6fcb-490e-85b8-341590006c9b","system_id":"levelo_inurba_marseille","lat":43.29776,"lon":5.38105,"is_reserved":false,"is_disabled":false,"rental_uris":{"android":"levelo://app?vid=2dd88066-6fcb-490e-85b8-341590006c9b","ios":"levelo://app?vid=2dd88066-6fcb-490e-85b8-341590006c9b"},"vehicle_type_id":"4","last_reported":1743282476,"current_range_meters":11600,"station_id":"ce4bgip2rcd13ifvqbb0","pricing_plan_id":"cebpf4jnsgd1na2vs0mg"},{"bike_id":"8cf4f201-930c-4d9c-9146-38a1c2c66eff","system_id":"levelo_inurba_marseille","lat":43.28391,"lon":5.34992,"is_reserved":false,"is_disabled":false,"rental_uris":{"android":"levelo://app?vid=8cf4f201-930c-4d9c-9146-38a1c2c66eff","ios":"levelo://app?vid=8cf4f201-930c-4d9c-9146-38a1c2c66eff"},"vehicle_type_id":"4","last_reported":1743282476,"current_range_meters":11600,"station_id":"ce4bhbh2rcd13ifvqepg","pricing_plan_id":"cebpf4jnsgd1na2vs0mg"},{"bike_id":"21b7dfed-4bf3-42a6-9071-9b2b5259da3c","system_id":"levelo_inurba_marseille","lat":43.29646,"lon":5.37134,"is_reserved":false,"is_disabled":true,"rental_uris":{"android":"levelo://app?vid=21b7dfed-4bf3-42a6-9071-9b2b5259da3c","ios":"levelo://app?vid=21b7dfed-4bf3-42a6-9071-9b2b5259da3c"},"vehicle_type_id":"4","last_reported":1743282476,"current_range_meters":11600,"station_id":"ce4bgnh2rcd13ifvqc0g","pricing_plan_id":"cebpf4jnsgd1na2vs0mg"},{"bike_id":"83b662ed-dae0-41de-b3cb-c93fdb2dcdf9","system_id":"levelo_inurba_marseille","lat":43.29302,"lon":5.3744,"is_reserved":false,"is_disabled":false,"rental_uris":{"android":"levelo://app?vid=83b662ed-dae0-41de-b3cb-c93fdb2dcdf9","ios":"levelo://app?vid=83b662ed-dae0-41de-b3cb-c93fdb2dcdf9"},"vehicle_type_id":"4","last_reported":1743282476,"current_range_meters":12000,"station_id":"ce4bgi12rcd13ifvqb70","pricing_plan_id":"cebpf4jnsgd1na2vs0mg"},{"bike_id":"211e02b6-c381-4993-a223-66dc669f8c37","system_id":"levelo_inurba_marseille","lat":43.30151,"lon":5.37386,"is_reserved":false,"is_disabled":false,"rental_uris":{"android":"levelo://app?vid=211e02b6-c381-4993-a223-66dc669f8c37","ios":"levelo://app?vid=211e02b6-c381-4993-a223-66dc669f8c37"},"vehicle_type_id":"4","last_reported":1743282476,"current_range_meters":12000,"station_id":"ce4bgs92rcd13ifvqcc0","pricing_plan_id":"cebpf4jnsgd1na2vs0mg"},{"bike_id":"3527a796-d2c7-4357-af49-cbeb4acbb71e","system_id":"levelo_inurba_marseille","lat":43.322241,"lon":5.383572,"is_reserved":false,"is_disabled":false,"rental_uris":{"android":"levelo://app?vid=3527a796-d2c7-4357-af49-cbeb4acbb71e","ios":"levelo://app?vid=3527a796-d2c7-4357-af49-cbeb4acbb71e"},"vehicle_type_id":"4","last_reported":1743282476,"current_range_meters":11600,"station_id":"ce4bhr12rcd13ifvqhqg","pricing_plan_id":"cebpf4jnsgd1na2vs0mg"},{"bike_id":"9f50066e-01fa-4519-9f61-8109fe65f5d9","system_id":"levelo_inurba_marseille","lat":43.29693,"lon":5.37148,"is_reserved":false,"is_disabled":false,"rental_uris":{"android":"levelo://app?vid=9f50066e-01fa-4519-9f61-8109fe65f5d9","ios":"levelo://app?vid=9f50066e-01fa-4519-9f61-8109fe65f5d9"},"vehicle_type_id":"4","last_reported":1743282476,"current_range_meters":12000,"station_id":"","pricing_plan_id":"cebpf4jnsgd1na2vs0mg"},{"bike_id":"653ea6de-a177-4007-9cfa-5f3f77e975f6","system_id":"levelo_inurba_marseille","lat":43.24817,"lon":5.37451,"is_reserved":false,"is_disabled":false,"rental_uris":{"android":"levelo://app?vid=653ea6de-a177-4007-9cfa-5f3f77e975f6","ios":"levelo://app?vid=653ea6de-a177-4007-9cfa-5f3f77e975f6"},"vehicle_type_id":"4","last_reported":1743282476,"current_range_meters":12000,"station_id":"ce4bhgh2rcd13ifvqfb0","pricing_plan_id":"cebpf4jnsgd1na2vs0mg"},{"bike_id":"5347da3b-4766-4b5f-860e-e5fcb38f3a05","system_id":"levelo_inurba_marseille","lat":43.3136,"lon":5.38497,"is_reserved":false,"is_disabled":true,"rental_uris":{"android":"levelo://app?vid=5347da3b-4766-4b5f-860e-e5fcb38f3a05","ios":"levelo://app?vid=5347da3b-4766-4b5f-860e-e5fcb38f3a05"},"vehicle_type_id":"4","last_reported":1743282476,"current_range_meters":12000,"station_id":"ce4bgt92rcd13ifvqcf0","pricing_plan_id":"cebpf4jnsgd1na2vs0mg"},{"bike_id":"65183ad6-aac1-4ee7-8d83-c6546831478d","system_id":"levelo_inurba_marseille","lat":43.30297,"lon":5.39218,"is_reserved":false,"is_disabled":false,"rental_uris":{"android":"levelo://app?vid=65183ad6-aac1-4ee7-8d83-c6546831478d","ios":"levelo://app?vid=65183ad6-aac1-4ee7-8d83-c6546831478d"},"vehicle_type_id":"4","last_reported":1743282476,"current_range_meters":12000,"station_id":"ce4bgkh2rcd13ifvqbk0","pricing_plan_id":"cebpf4jnsgd1na2vs0mg"},{"bike_id":"2c1f15d0-eac5-4e80-95ea-481254ec9832","system_id":"levelo_inurba_marseille","lat":43.28567,"lon":5.39499,"is_reserved":false,"is_disabled":false,"rental_uris":{"android":"levelo://app?vid=2c1f15d0-eac5-4e80-95ea-481254ec9832","ios":"levelo://app?vid=2c1f15d0-eac5-4e80-95ea-481254ec9832"},"vehicle_type_id":"4","last_reported":1743282476,"current_range_meters":12400,"station_id":"ce4bh292rcd13ifvqdg0","pricing_plan_id":"cebpf4jnsgd1na2vs0mg"},{"bike_id":"1194d893-debc-41d7-b347-816267570776","system_id":"levelo_inurba_marseille","lat":43.337302,"lon":5.391952,"is_reserved":false,"is_disabled":false,"rental_uris":{"android":"levelo://app?vid=1194d893-debc-41d7-b347-816267570776","ios":"levelo://app?vid=1194d893-debc-41d7-b347-816267570776"},"vehicle_type_id":"4","last_reported":1743282476,"current_range_meters":12400,"station_id":"ce4bhr92rcd13ifvqhsg","pricing_plan_id":"cebpf4jnsgd1na2vs0mg"},{"bike_id":"3f419f2a-437f-4d39-a1b4-bfa5015f97b7","system_id":"levelo_inurba_marseille","lat":43.28672,"lon":5.38669,"is_reserved":false,"is_disabled":false,"rental_uris":{"android":"levelo://app?vid=3f419f2a-437f-4d39-a1b4-bfa5015f97b7","ios":"levelo://app?vid=3f419f2a-437f-4d39-a1b4-bfa5015f97b7"},"vehicle_type_id":"4","last_reported":1743282476,"current_range_meters":12400,"station_id":"ce4bh492rcd13ifvqdug","pricing_plan_id":"cebpf4jnsgd1na2vs0mg"},{"bike_id":"14c490b6-844b-4566-b5ce-4a1eef9a0745","system_id":"levelo_inurba_marseille","lat":43.2782,"lon":5.40709,"is_reserved":false,"is_disabled":false,"rental_uris":{"android":"levelo://app?vid=14c490b6-844b-4566-b5ce-4a1eef9a0745","ios":"levelo://app?vid=14c490b6-844b-4566-b5ce-4a1eef9a0745"},"vehicle_type_id":"4","last_reported":1743282476,"current_range_meters":12400,"station_id":"ce4bhnh2rcd13ifvqgtg","pricing_plan_id":"cebpf4jnsgd1na2vs0mg"},{"bike_id":"ced1102b-762f-428d-be42-54768fe79d9b","system_id":"levelo_inurba_marseille","lat":43.2942,"lon":5.38622,"is_reserved":false,"is_disabled":false,"rental_uris":{"android":"levelo://app?vid=ced1102b-762f-428d-be42-54768fe79d9b","ios":"levelo://app?vid=ced1102b-762f-428d-be42-54768fe79d9b"},"vehicle_type_id":"4","last_reported":1743282476,"current_range_meters":12400,"station_id":"","pricing_plan_id":"cebpf4jnsgd1na2vs0mg"},{"bike_id":"37cac1da-9225-4e30-9305-4389b6865a78","system_id":"levelo_inurba_marseille","lat":43.29282,"lon":5.38411,"is_reserved":false,"is_disabled":false,"rental_uris":{"android":"levelo://app?vid=37cac1da-9225-4e30-9305-4389b6865a78","ios":"levelo://app?vid=37cac1da-9225-4e30-9305-4389b6865a78"},"vehicle_type_id":"4","last_reported":1743282476,"current_range_meters":12400,"station_id":"ce4bh692rcd13ifvqea0","pricing_plan_id":"cebpf4jnsgd1na2vs0mg"},{"bike_id":"c481e4ce-f9a3-46ff-b4fb-a6280ddd85a4","system_id":"levelo_inurba_marseille","lat":43.28104,"lon":5.37831,"is_reserved":false,"is_disabled":false,"rental_uris":{"android":"levelo://app?vid=c481e4ce-f9a3-46ff-b4fb-a6280ddd85a4","ios":"levelo://app?vid=c481e4ce-f9a3-46ff-b4fb-a6280ddd85a4"},"vehicle_type_id":"4","last_reported":1743282476,"current_range_meters":12400,"station_id":"ce4bha12rcd13ifvqee0","pricing_plan_id":"cebpf4jnsgd1na2vs0mg"},{"bike_id":"6ffa80c8-a592-4eb7-a73a-4e02b562d2d3","system_id":"levelo_inurba_marseille","lat":43.30135,"lon":5.37429,"is_reserved":false,"is_disabled":false,"rental_uris":{"android":"levelo://app?vid=6ffa80c8-a592-4eb7-a73a-4e02b562d2d3","ios":"levelo://app?vid=6ffa80c8-a592-4eb7-a73a-4e02b562d2d3"},"vehicle_type_id":"4","last_reported":1743282476,"current_range_meters":12800,"station_id":"ce4bgs92rcd13ifvqcc0","pricing_plan_id":"cebpf4jnsgd1na2vs0mg"},{"bike_id":"e53fb0b6-4828-47af-a0d0-116bdf650cf4","system_id":"levelo_inurba_marseille","lat":43.2668,"lon":5.38297,"is_reserved":false,"is_disabled":false,"rental_uris":{"android":"levelo://app?vid=e53fb0b6-4828-47af-a0d0-116bdf650cf4","ios":"levelo://app?vid=e53fb0b6-4828-47af-a0d0-116bdf650cf4"},"vehicle_type_id":"4","last_reported":1743282476,"current_range_meters":12800,"station_id":"ce4bhg92rcd13ifvqf90","pricing_plan_id":"cebpf4jnsgd1na2vs0mg"},{"bike_id":"b7ca0d96-e60f-4d1f-bc4a-ce97b1e8cceb","system_id":"levelo_inurba_marseille","lat":43.27835,"lon":5.39206,"is_reserved":false,"is_disabled":false,"rental_uris":{"android":"levelo://app?vid=b7ca0d96-e60f-4d1f-bc4a-ce97b1e8cceb","ios":"levelo://app?vid=b7ca0d96-e60f-4d1f-bc4a-ce97b1e8cceb"},"vehicle_type_id":"4","last_reported":1743282476,"current_range_meters":12400,"station_id":"ce4bhjp2rcd13ifvqga0","pricing_plan_id":"cebpf4jnsgd1na2vs0mg"},{"bike_id":"f957e6e5-377c-456d-80d2-d84a030f63cf","system_id":"levelo_inurba_marseille","lat":43.31342,"lon":5.38504,"is_reserved":false,"is_disabled":false,"rental_uris":{"android":"levelo://app?vid=f957e6e5-377c-456d-80d2-d84a030f63cf","ios":"levelo://app?vid=f957e6e5-377c-456d-80d2-d84a030f63cf"},"vehicle_type_id":"4","last_reported":1743282476,"current_range_meters":12800,"station_id":"ce4bgt92rcd13ifvqcf0","pricing_plan_id":"cebpf4jnsgd1na2vs0mg"},{"bike_id":"80ce0489-af96-4bef-97ff-91c9db8d19ca","system_id":"levelo_inurba_marseille","lat":43.24672,"lon":5.3814,"is_reserved":false,"is_disabled":false,"rental_uris":{"android":"levelo://app?vid=80ce0489-af96-4bef-97ff-91c9db8d19ca","ios":"levelo://app?vid=80ce0489-af96-4bef-97ff-91c9db8d19ca"},"vehicle_type_id":"4","last_reported":1743282476,"current_range_meters":12800,"station_id":"ce4bhih2rcd13ifvqfr0","pricing_plan_id":"cebpf4jnsgd1na2vs0mg"},{"bike_id":"a58b0b0d-42fa-4735-9e33-7aa0ba3d571d","system_id":"levelo_inurba_marseille","lat":43.309418,"lon":5.390167,"is_reserved":false,"is_disabled":false,"rental_uris":{"android":"levelo://app?vid=a58b0b0d-42fa-4735-9e33-7aa0ba3d571d","ios":"levelo://app?vid=a58b0b0d-42fa-4735-9e33-7aa0ba3d571d"},"vehicle_type_id":"4","last_reported":1743282476,"current_range_meters":12800,"station_id":"ce4bgup2rcd13ifvqco0","pricing_plan_id":"cebpf4jnsgd1na2vs0mg"},{"bike_id":"bd90bf75-9c99-4619-93c2-7a5fd83388b5","system_id":"levelo_inurba_marseille","lat":43.313603,"lon":5.388284,"is_reserved":false,"is_disabled":false,"rental_uris":{"android":"levelo://app?vid=bd90bf75-9c99-4619-93c2-7a5fd83388b5","ios":"levelo://app?vid=bd90bf75-9c99-4619-93c2-7a5fd83388b5"},"vehicle_type_id":"4","last_reported":1743282476,"current_range_meters":13600,"station_id":"ce4bgt92rcd13ifvqcf0","pricing_plan_id":"cebpf4jnsgd1na2vs0mg"},{"bike_id":"44e653ef-6ac8-44ef-ad38-03a1482b537f","system_id":"levelo_inurba_marseille","lat":43.27056,"lon":5.40256,"is_reserved":false,"is_disabled":false,"rental_uris":{"android":"levelo://app?vid=44e653ef-6ac8-44ef-ad38-03a1482b537f","ios":"levelo://app?vid=44e653ef-6ac8-44ef-ad38-03a1482b537f"},"vehicle_type_id":"4","last_reported":1743282476,"current_range_meters":14000,"station_id":"ce4bhk92rcd13ifvqgc0","pricing_plan_id":"cebpf4jnsgd1na2vs0mg"},{"bike_id":"adf6a64d-c2c7-43ad-96da-9ad496cea424","system_id":"levelo_inurba_marseille","lat":43.29519,"lon":5.39418,"is_reserved":false,"is_disabled":false,"rental_uris":{"android":"levelo://app?vid=adf6a64d-c2c7-43ad-96da-9ad496cea424","ios":"levelo://app?vid=adf6a64d-c2c7-43ad-96da-9ad496cea424"},"vehicle_type_id":"4","last_reported":1743282476,"current_range_meters":13600,"station_id":"ce4bh292rcd13ifvqdf0","pricing_plan_id":"cebpf4jnsgd1na2vs0mg"},{"bike_id":"1574c9d1-20a4-468b-b0fd-1332f33a0bb7","system_id":"levelo_inurba_marseille","lat":43.30582,"lon":5.39371,"is_reserved":false,"is_disabled":false,"rental_uris":{"android":"levelo://app?vid=1574c9d1-20a4-468b-b0fd-1332f33a0bb7","ios":"levelo://app?vid=1574c9d1-20a4-468b-b0fd-1332f33a0bb7"},"vehicle_type_id":"4","last_reported":1743282476,"current_range_meters":13600,"station_id":"ce4bh0p2rcd13ifvqd80","pricing_plan_id":"cebpf4jnsgd1na2vs0mg"},{"bike_id":"626d2136-a31c-4224-ba68-9a83c069cd7e","system_id":"levelo_inurba_marseille","lat":43.23185,"lon":5.39994,"is_reserved":false,"is_disabled":false,"rental_uris":{"android":"levelo://app?vid=626d2136-a31c-4224-ba68-9a83c069cd7e","ios":"levelo://app?vid=626d2136-a31c-4224-ba68-9a83c069cd7e"},"vehicle_type_id":"4","last_reported":1743282476,"current_range_meters":13600,"station_id":"ce4bhn12rcd13ifvqgqg","pricing_plan_id":"cebpf4jnsgd1na2vs0mg"},{"bike_id":"61b93b3e-de2c-498f-9067-20d081913f50","system_id":"levelo_inurba_marseille","lat":43.29192,"lon":5.35788,"is_reserved":false,"is_disabled":false,"rental_uris":{"android":"levelo://app?vid=61b93b3e-de2c-498f-9067-20d081913f50","ios":"levelo://app?vid=61b93b3e-de2c-498f-9067-20d081913f50"},"vehicle_type_id":"4","last_reported":1743282476,"current_range_meters":13600,"station_id":"ce4bhb12rcd13ifvqel0","pricing_plan_id":"cebpf4jnsgd1na2vs0mg"},{"bike_id":"8bcc045e-f28b-442a-a0af-38457b26197c","system_id":"levelo_inurba_marseille","lat":43.24171,"lon":5.36396,"is_reserved":false,"is_disabled":false,"rental_uris":{"android":"levelo://app?vid=8bcc045e-f28b-442a-a0af-38457b26197c","ios":"levelo://app?vid=8bcc045e-f28b-442a-a0af-38457b26197c"},"vehicle_type_id":"4","last_reported":1743282476,"current_range_meters":13600,"station_id":"cpo36qri1sfpv3e86is0","pricing_plan_id":"cebpf4jnsgd1na2vs0mg"},{"bike_id":"cccdfc50-9172-4019-9d86-2d339a3ec58f","system_id":"levelo_inurba_marseille","lat":43.24692,"lon":5.38146,"is_reserved":false,"is_disabled":false,"rental_uris":{"android":"levelo://app?vid=cccdfc50-9172-4019-9d86-2d339a3ec58f","ios":"levelo://app?vid=cccdfc50-9172-4019-9d86-2d339a3ec58f"},"vehicle_type_id":"4","last_reported":1743282476,"current_range_meters":14000,"station_id":"ce4bhih2rcd13ifvqfr0","pricing_plan_id":"cebpf4jnsgd1na2vs0mg"},{"bike_id":"51f634e3-ac61-4928-9ed6-54eb1e30344e","system_id":"levelo_inurba_marseille","lat":43.29678,"lon":5.37286,"is_reserved":false,"is_disabled":true,"rental_uris":{"android":"levelo://app?vid=51f634e3-ac61-4928-9ed6-54eb1e30344e","ios":"levelo://app?vid=51f634e3-ac61-4928-9ed6-54eb1e30344e"},"vehicle_type_id":"4","last_reported":1743282476,"current_range_meters":14000,"station_id":"ce4bgk12rcd13ifvqbj0","pricing_plan_id":"cebpf4jnsgd1na2vs0mg"},{"bike_id":"864c1b48-4e6c-4aa8-bd97-560a8b775aea","system_id":"levelo_inurba_marseille","lat":43.29028,"lon":5.37557,"is_reserved":false,"is_disabled":false,"rental_uris":{"android":"levelo://app?vid=864c1b48-4e6c-4aa8-bd97-560a8b775aea","ios":"levelo://app?vid=864c1b48-4e6c-4aa8-bd97-560a8b775aea"},"vehicle_type_id":"4","last_reported":1743282476,"current_range_meters":14000,"station_id":"ce4bh692rcd13ifvqe90","pricing_plan_id":"cebpf4jnsgd1na2vs0mg"},{"bike_id":"488767ae-a52a-41d7-8f9a-e947164469f3","system_id":"levelo_inurba_marseille","lat":43.302167,"lon":5.383951,"is_reserved":false,"is_disabled":false,"rental_uris":{"android":"levelo://app?vid=488767ae-a52a-41d7-8f9a-e947164469f3","ios":"levelo://app?vid=488767ae-a52a-41d7-8f9a-e947164469f3"},"vehicle_type_id":"4","last_reported":1743282476,"current_range_meters":14800,"station_id":"","pricing_plan_id":"cebpf4jnsgd1na2vs0mg"},{"bike_id":"708b7230-4e25-47e8-b793-138d05caea79","system_id":"levelo_inurba_marseille","lat":43.30931,"lon":5.40143,"is_reserved":false,"is_disabled":false,"rental_uris":{"android":"levelo://app?vid=708b7230-4e25-47e8-b793-138d05caea79","ios":"levelo://app?vid=708b7230-4e25-47e8-b793-138d05caea79"},"vehicle_type_id":"4","last_reported":1743282476,"current_range_meters":14000,"station_id":"ce4bgvp2rcd13ifvqct0","pricing_plan_id":"cebpf4jnsgd1na2vs0mg"},{"bike_id":"0e9d92a7-df29-43d8-906d-2a51c6561f7d","system_id":"levelo_inurba_marseille","lat":43.28435,"lon":5.35005,"is_reserved":false,"is_disabled":false,"rental_uris":{"android":"levelo://app?vid=0e9d92a7-df29-43d8-906d-2a51c6561f7d","ios":"levelo://app?vid=0e9d92a7-df29-43d8-906d-2a51c6561f7d"},"vehicle_type_id":"4","last_reported":1743282476,"current_range_meters":14000,"station_id":"ce4bhbh2rcd13ifvqepg","pricing_plan_id":"cebpf4jnsgd1na2vs0mg"},{"bike_id":"da4a66a3-0851-4910-a503-bf844d65ce27","system_id":"levelo_inurba_marseille","lat":43.29097,"lon":5.38126,"is_reserved":false,"is_disabled":false,"rental_uris":{"android":"levelo://app?vid=da4a66a3-0851-4910-a503-bf844d65ce27","ios":"levelo://app?vid=da4a66a3-0851-4910-a503-bf844d65ce27"},"vehicle_type_id":"4","last_reported":1743282476,"current_range_meters":14000,"station_id":"ce4bh512rcd13ifvqe2g","pricing_plan_id":"cebpf4jnsgd1na2vs0mg"},{"bike_id":"5cb8c766-498c-488a-86ec-2317510d9867","system_id":"levelo_inurba_marseille","lat":43.32363,"lon":5.36766,"is_reserved":false,"is_disabled":false,"rental_uris":{"android":"levelo://app?vid=5cb8c766-498c-488a-86ec-2317510d9867","ios":"levelo://app?vid=5cb8c766-498c-488a-86ec-2317510d9867"},"vehicle_type_id":"4","last_reported":1743282476,"current_range_meters":14400,"station_id":"ce4bhsh2rcd13ifvqi2g","pricing_plan_id":"cebpf4jnsgd1na2vs0mg"},{"bike_id":"5c49fc8b-b573-44cd-9da2-767f8f7a765b","system_id":"levelo_inurba_marseille","lat":43.31771,"lon":5.39004,"is_reserved":false,"is_disabled":false,"rental_uris":{"android":"levelo://app?vid=5c49fc8b-b573-44cd-9da2-767f8f7a765b","ios":"levelo://app?vid=5c49fc8b-b573-44cd-9da2-767f8f7a765b"},"vehicle_type_id":"4","last_reported":1743282476,"current_range_meters":14400,"station_id":"ce4bhqp2rcd13ifvqhng","pricing_plan_id":"cebpf4jnsgd1na2vs0mg"},{"bike_id":"7e46e322-27d9-4f9d-b1ce-11741eb7c78f","system_id":"levelo_inurba_marseille","lat":43.31764,"lon":5.39023,"is_reserved":false,"is_disabled":false,"rental_uris":{"android":"levelo://app?vid=7e46e322-27d9-4f9d-b1ce-11741eb7c78f","ios":"levelo://app?vid=7e46e322-27d9-4f9d-b1ce-11741eb7c78f"},"vehicle_type_id":"4","last_reported":1743282476,"current_range_meters":14400,"station_id":"ce4bhqp2rcd13ifvqhng","pricing_plan_id":"cebpf4jnsgd1na2vs0mg"},{"bike_id":"74065e7d-f10d-4873-959c-7d42c3c96729","system_id":"levelo_inurba_marseille","lat":43.31167,"lon":5.3872,"is_reserved":false,"is_disabled":false,"rental_uris":{"android":"levelo://app?vid=74065e7d-f10d-4873-959c-7d42c3c96729","ios":"levelo://app?vid=74065e7d-f10d-4873-959c-7d42c3c96729"},"vehicle_type_id":"4","last_reported":1743282476,"current_range_meters":14400,"station_id":"ce4bgv12rcd13ifvqcp0","pricing_plan_id":"cebpf4jnsgd1na2vs0mg"},{"bike_id":"bfcad82b-6acc-493c-b418-93ec0bae17e4","system_id":"levelo_inurba_marseille","lat":43.32043,"lon":5.36772,"is_reserved":false,"is_disabled":false,"rental_uris":{"android":"levelo://app?vid=bfcad82b-6acc-493c-b418-93ec0bae17e4","ios":"levelo://app?vid=bfcad82b-6acc-493c-b418-93ec0bae17e4"},"vehicle_type_id":"4","last_reported":1743282476,"current_range_meters":14400,"station_id":"","pricing_plan_id":"cebpf4jnsgd1na2vs0mg"},{"bike_id":"f6ed00d6-9f17-489c-88b3-dfb0b562b89f","system_id":"levelo_inurba_marseille","lat":43.28022,"lon":5.36952,"is_reserved":false,"is_disabled":false,"rental_uris":{"android":"levelo://app?vid=f6ed00d6-9f17-489c-88b3-dfb0b562b89f","ios":"levelo://app?vid=f6ed00d6-9f17-489c-88b3-dfb0b562b89f"},"vehicle_type_id":"4","last_reported":1743282476,"current_range_meters":14400,"station_id":"ce4bha12rcd13ifvqef0","pricing_plan_id":"cebpf4jnsgd1na2vs0mg"},{"bike_id":"82be5020-df29-4bb6-b821-10f31b9ed89a","system_id":"levelo_inurba_marseille","lat":43.28418,"lon":5.349894,"is_reserved":false,"is_disabled":false,"rental_uris":{"android":"levelo://app?vid=82be5020-df29-4bb6-b821-10f31b9ed89a","ios":"levelo://app?vid=82be5020-df29-4bb6-b821-10f31b9ed89a"},"vehicle_type_id":"4","last_reported":1743282476,"current_range_meters":14400,"station_id":"ce4bhbh2rcd13ifvqepg","pricing_plan_id":"cebpf4jnsgd1na2vs0mg"},{"bike_id":"715c3d09-66b5-42ce-a811-1e1ecc3bf3fa","system_id":"levelo_inurba_marseille","lat":43.29014,"lon":5.38642,"is_reserved":false,"is_disabled":false,"rental_uris":{"android":"levelo://app?vid=715c3d09-66b5-42ce-a811-1e1ecc3bf3fa","ios":"levelo://app?vid=715c3d09-66b5-42ce-a811-1e1ecc3bf3fa"},"vehicle_type_id":"4","last_reported":1743282476,"current_range_meters":14400,"station_id":"ce4bh4p2rcd13ifvqe0g","pricing_plan_id":"cebpf4jnsgd1na2vs0mg"},{"bike_id":"6ef18dd7-1cb9-4ef6-bfdd-052cde57f183","system_id":"levelo_inurba_marseille","lat":43.32152,"lon":5.36788,"is_reserved":false,"is_disabled":false,"rental_uris":{"android":"levelo://app?vid=6ef18dd7-1cb9-4ef6-bfdd-052cde57f183","ios":"levelo://app?vid=6ef18dd7-1cb9-4ef6-bfdd-052cde57f183"},"vehicle_type_id":"4","last_reported":1743282476,"current_range_meters":14400,"station_id":"","pricing_plan_id":"cebpf4jnsgd1na2vs0mg"},{"bike_id":"8e9afe6a-948c-44bd-a1ec-fc4477b65188","system_id":"levelo_inurba_marseille","lat":43.24814,"lon":5.37462,"is_reserved":false,"is_disabled":false,"rental_uris":{"android":"levelo://app?vid=8e9afe6a-948c-44bd-a1ec-fc4477b65188","ios":"levelo://app?vid=8e9afe6a-948c-44bd-a1ec-fc4477b65188"},"vehicle_type_id":"4","last_reported":1743282476,"current_range_meters":14400,"station_id":"ce4bhgh2rcd13ifvqfb0","pricing_plan_id":"cebpf4jnsgd1na2vs0mg"},{"bike_id":"871f3035-10bb-4a28-afa0-18619600e1a6","system_id":"levelo_inurba_marseille","lat":43.29943,"lon":5.36565,"is_reserved":false,"is_disabled":true,"rental_uris":{"android":"levelo://app?vid=871f3035-10bb-4a28-afa0-18619600e1a6","ios":"levelo://app?vid=871f3035-10bb-4a28-afa0-18619600e1a6"},"vehicle_type_id":"4","last_reported":1743282476,"current_range_meters":14800,"station_id":"ce4bgm92rcd13ifvqbr0","pricing_plan_id":"cebpf4jnsgd1na2vs0mg"},{"bike_id":"caab5076-d8b4-48e2-8e15-7f3dcf678401","system_id":"levelo_inurba_marseille","lat":43.27688,"lon":5.38869,"is_reserved":false,"is_disabled":false,"rental_uris":{"android":"levelo://app?vid=caab5076-d8b4-48e2-8e15-7f3dcf678401","ios":"levelo://app?vid=caab5076-d8b4-48e2-8e15-7f3dcf678401"},"vehicle_type_id":"4","last_reported":1743282476,"current_range_meters":14800,"station_id":"ce4bhi12rcd13ifvqfo0","pricing_plan_id":"cebpf4jnsgd1na2vs0mg"},{"bike_id":"4e09748f-b612-454b-add1-fef9c83c17c9","system_id":"levelo_inurba_marseille","lat":43.292597,"lon":5.384011,"is_reserved":false,"is_disabled":false,"rental_uris":{"android":"levelo://app?vid=4e09748f-b612-454b-add1-fef9c83c17c9","ios":"levelo://app?vid=4e09748f-b612-454b-add1-fef9c83c17c9"},"vehicle_type_id":"4","last_reported":1743282476,"current_range_meters":14800,"station_id":"ce4bh692rcd13ifvqea0","pricing_plan_id":"cebpf4jnsgd1na2vs0mg"},{"bike_id":"8f3300c4-5647-410f-ab91-e9cbcf19e791","system_id":"levelo_inurba_marseille","lat":43.29019,"lon":5.37566,"is_reserved":false,"is_disabled":false,"rental_uris":{"android":"levelo://app?vid=8f3300c4-5647-410f-ab91-e9cbcf19e791","ios":"levelo://app?vid=8f3300c4-5647-410f-ab91-e9cbcf19e791"},"vehicle_type_id":"4","last_reported":1743282476,"current_range_meters":14800,"station_id":"ce4bh692rcd13ifvqe90","pricing_plan_id":"cebpf4jnsgd1na2vs0mg"},{"bike_id":"6851a240-60e5-4b01-8f57-2a6cbff9e37f","system_id":"levelo_inurba_marseille","lat":43.293003,"lon":5.371644,"is_reserved":false,"is_disabled":false,"rental_uris":{"android":"levelo://app?vid=6851a240-60e5-4b01-8f57-2a6cbff9e37f","ios":"levelo://app?vid=6851a240-60e5-4b01-8f57-2a6cbff9e37f"},"vehicle_type_id":"4","last_reported":1743282476,"current_range_meters":16000,"station_id":"ce4bgk12rcd13ifvqbi0","pricing_plan_id":"cebpf4jnsgd1na2vs0mg"},{"bike_id":"59359988-faf5-47a1-b5f8-d319a6e1abfa","system_id":"levelo_inurba_marseille","lat":43.28418,"lon":5.34995,"is_reserved":false,"is_disabled":false,"rental_uris":{"android":"levelo://app?vid=59359988-faf5-47a1-b5f8-d319a6e1abfa","ios":"levelo://app?vid=59359988-faf5-47a1-b5f8-d319a6e1abfa"},"vehicle_type_id":"4","last_reported":1743282476,"current_range_meters":14800,"station_id":"ce4bhbh2rcd13ifvqepg","pricing_plan_id":"cebpf4jnsgd1na2vs0mg"},{"bike_id":"caf6b8e0-076d-4537-b91d-9d5cd2bf54de","system_id":"levelo_inurba_marseille","lat":43.29442,"lon":5.38612,"is_reserved":false,"is_disabled":false,"rental_uris":{"android":"levelo://app?vid=caf6b8e0-076d-4537-b91d-9d5cd2bf54de","ios":"levelo://app?vid=caf6b8e0-076d-4537-b91d-9d5cd2bf54de"},"vehicle_type_id":"4","last_reported":1743282476,"current_range_meters":14800,"station_id":"ce4bh2h2rcd13ifvqdh0","pricing_plan_id":"cebpf4jnsgd1na2vs0mg"},{"bike_id":"00ec227a-67fa-434d-81b4-4f3bd4fb28b8","system_id":"levelo_inurba_marseille","lat":43.29261,"lon":5.38443,"is_reserved":false,"is_disabled":false,"rental_uris":{"android":"levelo://app?vid=00ec227a-67fa-434d-81b4-4f3bd4fb28b8","ios":"levelo://app?vid=00ec227a-67fa-434d-81b4-4f3bd4fb28b8"},"vehicle_type_id":"4","last_reported":1743282476,"current_range_meters":14800,"station_id":"ce4bh692rcd13ifvqea0","pricing_plan_id":"cebpf4jnsgd1na2vs0mg"},{"bike_id":"8fa8f2b4-ee13-47b8-965d-e78656e12f98","system_id":"levelo_inurba_marseille","lat":43.31196,"lon":5.38714,"is_reserved":false,"is_disabled":false,"rental_uris":{"android":"levelo://app?vid=8fa8f2b4-ee13-47b8-965d-e78656e12f98","ios":"levelo://app?vid=8fa8f2b4-ee13-47b8-965d-e78656e12f98"},"vehicle_type_id":"4","last_reported":1743282476,"current_range_meters":14800,"station_id":"ce4bgv12rcd13ifvqcp0","pricing_plan_id":"cebpf4jnsgd1na2vs0mg"},{"bike_id":"cb8c9ca5-9083-4e86-9e9f-2bc245af5095","system_id":"levelo_inurba_marseille","lat":43.28404,"lon":5.37526,"is_reserved":false,"is_disabled":true,"rental_uris":{"android":"levelo://app?vid=cb8c9ca5-9083-4e86-9e9f-2bc245af5095","ios":"levelo://app?vid=cb8c9ca5-9083-4e86-9e9f-2bc245af5095"},"vehicle_type_id":"4","last_reported":1743282476,"current_range_meters":14800,"station_id":"ce4bh412rcd13ifvqds0","pricing_plan_id":"cebpf4jnsgd1na2vs0mg"},{"bike_id":"4d2f415a-1351-45f0-9ce6-ab8f289eaec6","system_id":"levelo_inurba_marseille","lat":43.2942,"lon":5.38597,"is_reserved":false,"is_disabled":false,"rental_uris":{"android":"levelo://app?vid=4d2f415a-1351-45f0-9ce6-ab8f289eaec6","ios":"levelo://app?vid=4d2f415a-1351-45f0-9ce6-ab8f289eaec6"},"vehicle_type_id":"4","last_reported":1743282476,"current_range_meters":14800,"station_id":"ce4bh2h2rcd13ifvqdh0","pricing_plan_id":"cebpf4jnsgd1na2vs0mg"},{"bike_id":"8e69e7f9-76b5-4d0a-8b34-45d50fc637f3","system_id":"levelo_inurba_marseille","lat":43.24218,"lon":5.38459,"is_reserved":false,"is_disabled":false,"rental_uris":{"android":"levelo://app?vid=8e69e7f9-76b5-4d0a-8b34-45d50fc637f3","ios":"levelo://app?vid=8e69e7f9-76b5-4d0a-8b34-45d50fc637f3"},"vehicle_type_id":"4","last_reported":1743282476,"current_range_meters":14800,"station_id":"","pricing_plan_id":"cebpf4jnsgd1na2vs0mg"},