{"last_updated":1701799759,"ttl":30,"version":"2.2","data":{"bikes":[{"bike_id":"91608823-2de8-464c-98fc-deea4e180ace","system_id":"levelo_inurba_marseille","lat":43.312239,"lon":5.368562,"is_reserved":false,"is_disabled":false,"rental_uris":{"android":"levelo://app?vid=91608823-2de8-464c-98fc-deea4e180ace","ios":"levelo://app?vid=91608823-2de8-464c-98fc-deea4e180ace"},"vehicle_type_id":"4","last_reported":1701799759,"current_range_meters":20400,"station_id":"ce4bgl92rcd13ifvqbq0","pricing_plan_id":"free"},{"bike_id":"d9639ed5-1dae-4a48-9bd9-7a3267de46e8","system_id":"levelo_inurba_marseille","lat":43.309076,"lon":5.368465,"is_reserved":false,"is_disabled":false,"rental_uris":{"android":"levelo://app?vid=d9639ed5-1dae-4a48-9bd9-7a3267de46e8","ios":"levelo://app?vid=d9639ed5-1dae-4a48-9bd9-7a3267de46e8"},"vehicle_type_id":"4","last_reported":1701799759,"current_range_meters":400,"station_id":"ce4bgn92rcd13ifvqbvg","pricing_plan_id":"free"},{"bike_id":"62adbb3d-98bf-451e-aba5-70c7b455b12b","system_id":"levelo_inurba_marseille","lat":43.309076,"lon":5.368465,"is_reserved":false,"is_disabled":false,"rental_uris":{"android":"levelo://app?vid=62adbb3d-98bf-451e-aba5-70c7b455b12b","ios":"levelo://app?vid=62adbb3d-98bf-451e-aba5-70c7b455b12b"},"vehicle_type_id":"4","last_reported":1701799759,"current_range_meters":22800,"station_id":"ce4bgn92rcd13ifvqbvg","pricing_plan_id":"free"},{"bike_id":"69bd7109-2d22-48c3-813b-737cea1ee2ab","system_id":"levelo_inurba_marseille","lat":43.309076,"lon":5.368465,"is_reserved":false,"is_disabled":false,"rental_uris":{"android":"levelo://app?vid=69bd7109-2d22-48c3-813b-737cea1ee2ab","ios":"levelo://app?vid=69bd7109-2d22-48c3-813b-737cea1ee2ab"},"vehicle_type_id":"4","last_reported":1701799759,"current_range_meters":12000,"station_id":"ce4bgn92rcd13ifvqbvg","pricing_plan_id":"free"},{"bike_id":"0d61a6dd-0087-4951-9cb4-d8f038462b3a","system_id":"levelo_inurba_marseille","lat":43.309076,"lon":5.368465,"is_reserved":false,"is_disabled":false,"rental_uris":{"android":"levelo://app?vid=0d61a6dd-0087-4951-9cb4-d8f038462b3a","ios":"levelo://app?vid=0d61a6dd-0087-4951-9cb4-d8f038462b3a"},"vehicle_type_id":"4","last_reported":1701799759,"current_range_meters":24400,"station_id":"ce4bgn92rcd13ifvqbvg","pricing_plan_id":"free"},{"bike_id":"1913bd3d-b906-4748-8c6a-e440cb35796d","system_id":"levelo_inurba_marseille","lat":43.3147,"lon":5.37159,"is_reserved":false,"is_disabled":false,"rental_uris":{"android":"levelo://app?vid=1913bd3d-b906-4748-8c6a-e440cb35796d","ios":"levelo://app?vid=1913bd3d-b906-4748-8c6a-e440cb35796d"},"vehicle_type_id":"4","last_reported":1701799759,"current_range_meters":0,"station_id":"","pricing_plan_id":"free"},{"bike_id":"3a2dda2e-3aab-4d0e-a954-793f1706ec09","system_id":"levelo_inurba_marseille","lat":43.31131,"lon":5.37245,"is_reserved":false,"is_disabled":false,"rental_uris":{"android":"levelo://app?vid=3a2dda2e-3aab-4d0e-a954-793f1706ec09","ios":"levelo://app?vid=3a2dda2e-3aab-4d0e-a954-793f1706ec09"},"vehicle_type_id":"4","last_reported":1701799759,"current_range_meters":23200,"station_id":"","pricing_plan_id":"free"},{"bike_id":"e30aa7ea-4d66-41cf-985f-65dc44e5ce04","system_id":"levelo_inurba_marseille","lat":43.31498,"lon":5.372903,"is_reserved":false,"is_disabled":false,"rental_uris":{"android":"levelo://app?vid=e30aa7ea-4d66-41cf-985f-65dc44e5ce04","ios":"levelo://app?vid=e30aa7ea-4d66-41cf-985f-65dc44e5ce04"},"vehicle_type_id":"4","last_reported":1701799759,"current_range_meters":31200,"station_id":"ce4bgt12rcd13ifvqcd0","pricing_plan_id":"free"},{"bike_id":"299c1eda-a86c-4f2c-a320-58b4e01cd6b9","system_id":"levelo_inurba_marseille","lat":43.30549,"lon":5.3653,"is_reserved":false,"is_disabled":false,"rental_uris":{"android":"levelo://app?vid=299c1eda-a86c-4f2c-a320-58b4e01cd6b9","ios":"levelo://app?vid=299c1eda-a86c-4f2c-a320-58b4e01cd6b9"},"vehicle_type_id":"4","last_reported":1701799759,"current_range_meters":0,"station_id":"ce4bgs12rcd13ifvqcag","pricing_plan_id":"free"},{"bike_id":"b065b12a-ef87-47d8-8ac6-a38844050d40","system_id":"levelo_inurba_marseille","lat":43.319338,"lon":5.372928,"is_reserved":false,"is_disabled":false,"rental_uris":{"android":"levelo://app?vid=b065b12a-ef87-47d8-8ac6-a38844050d40","ios":"levelo://app?vid=b065b12a-ef87-47d8-8ac6-a38844050d40"},"vehicle_type_id":"4","last_reported":1701799759,"current_range_meters":0,"station_id":"","pricing_plan_id":"free"},{"bike_id":"90b506dd-3d95-4a0b-ac4f-e68f4a01ecc2","system_id":"levelo_inurba_marseille","lat":43.311125,"lon":5.377624,"is_reserved":false,"is_disabled":false,"rental_uris":{"android":"levelo://app?vid=90b506dd-3d95-4a0b-ac4f-e68f4a01ecc2","ios":"levelo://app?vid=90b506dd-3d95-4a0b-ac4f-e68f4a01ecc2"},"vehicle_type_id":"4","last_reported":1701799759,"current_range_meters":0,"station_id":"ce4bgt92rcd13ifvqcg0","pricing_plan_id":"free"},{"bike_id":"fb6fd937-527b-4585-9058-0dfdc6436ac8","system_id":"levelo_inurba_marseille","lat":43.31351,"lon":5.37909,"is_reserved":false,"is_disabled":false,"rental_uris":{"android":"levelo://app?vid=fb6fd937-527b-4585-9058-0dfdc6436ac8","ios":"levelo://app?vid=fb6fd937-527b-4585-9058-0dfdc6436ac8"},"vehicle_type_id":"4","last_reported":1701799759,"current_range_meters":9200,"station_id":"","pricing_plan_id":"free"},{"bike_id":"a2d3305a-04ee-4690-84da-38766efcf60d","system_id":"levelo_inurba_marseille","lat":43.303046,"lon":5.368981,"is_reserved":false,"is_disabled":false,"rental_uris":{"android":"levelo://app?vid=a2d3305a-04ee-4690-84da-38766efcf60d","ios":"levelo://app?vid=a2d3305a-04ee-4690-84da-38766efcf60d"},"vehicle_type_id":"4","last_reported":1701799759,"current_range_meters":0,"station_id":"ce4bgqh2rcd13ifvqc5g","pricing_plan_id":"free"},{"bike_id":"cd7913ac-2a09-49a2-bc99-942c62b5f1e5","system_id":"levelo_inurba_marseille","lat":43.30304,"lon":5.368987,"is_reserved":false,"is_disabled":false,"rental_uris":{"android":"levelo://app?vid=cd7913ac-2a09-49a2-bc99-942c62b5f1e5","ios":"levelo://app?vid=cd7913ac-2a09-49a2-bc99-942c62b5f1e5"},"vehicle_type_id":"4","last_reported":1701799759,"current_range_meters":7200,"station_id":"ce4bgqh2rcd13ifvqc5g","pricing_plan_id":"free"},{"bike_id":"33d96a73-6516-4891-b588-127b22978279","system_id":"levelo_inurba_marseille","lat":43.303046,"lon":5.368981,"is_reserved":false,"is_disabled":false,"rental_uris":{"android":"levelo://app?vid=33d96a73-6516-4891-b588-127b22978279","ios":"levelo://app?vid=33d96a73-6516-4891-b588-127b22978279"},"vehicle_type_id":"4","last_reported":1701799759,"current_range_meters":16800,"station_id":"ce4bgqh2rcd13ifvqc5g","pricing_plan_id":"free"},{"bike_id":"fd8b6e1b-0298-4ee9-bbda-ed799868771f","system_id":"levelo_inurba_marseille","lat":43.30304,"lon":5.368987,"is_reserved":false,"is_disabled":false,"rental_uris":{"android":"levelo://app?vid=fd8b6e1b-0298-4ee9-bbda-ed799868771f","ios":"levelo://app?vid=fd8b6e1b-0298-4ee9-bbda-ed799868771f"},"vehicle_type_id":"4","last_reported":1701799759,"current_range_meters":18000,"station_id":"ce4bgqh2rcd13ifvqc5g","pricing_plan_id":"free"},{"bike_id":"839e5fd1-5f6f-455c-9ba3-a71c1a2782a1","system_id":"levelo_inurba_marseille","lat":43.301939,"lon":5.366286,"is_reserved":false,"is_disabled":false,"rental_uris":{"android":"levelo://app?vid=839e5fd1-5f6f-455c-9ba3-a71c1a2782a1","ios":"levelo://app?vid=839e5fd1-5f6f-455c-9ba3-a71c1a2782a1"},"vehicle_type_id":"4","last_reported":1701799759,"current_range_meters":9200,"station_id":"ce4bgrh2rcd13ifvqc8g","pricing_plan_id":"free"},{"bike_id":"af3ff8cb-f6e6-4096-86b5-99e7868d0944","system_id":"levelo_inurba_marseille","lat":43.32474,"lon":5.36579,"is_reserved":false,"is_disabled":false,"rental_uris":{"android":"levelo://app?vid=af3ff8cb-f6e6-4096-86b5-99e7868d0944","ios":"levelo://app?vid=af3ff8cb-f6e6-4096-86b5-99e7868d0944"},"vehicle_type_id":"4","last_reported":1701799759,"current_range_meters":0,"station_id":"ce4bhs12rcd13ifvqhvg","pricing_plan_id":"free"},{"bike_id":"ab542b0a-b258-4b62-baed-c4ff4b3a7961","system_id":"levelo_inurba_marseille","lat":43.324771,"lon":5.36557,"is_reserved":false,"is_disabled":false,"rental_uris":{"android":"levelo://app?vid=ab542b0a-b258-4b62-baed-c4ff4b3a7961","ios":"levelo://app?vid=ab542b0a-b258-4b62-baed-c4ff4b3a7961"},"vehicle_type_id":"4","last_reported":1701799759,"current_range_meters":12000,"station_id":"ce4bhs12rcd13ifvqhvg","pricing_plan_id":"free"},{"bike_id":"41280701-a143-4e50-93ef-fa297df3585f","system_id":"levelo_inurba_marseille","lat":43.324842,"lon":5.365745,"is_reserved":false,"is_disabled":false,"rental_uris":{"android":"levelo://app?vid=41280701-a143-4e50-93ef-fa297df3585f","ios":"levelo://app?vid=41280701-a143-4e50-93ef-fa297df3585f"},"vehicle_type_id":"4","last_reported":1701799759,"current_range_meters":24800,"station_id":"ce4bhs12rcd13ifvqhvg","pricing_plan_id":"free"},{"bike_id":"1e44eb00-5254-457d-b804-b536ef4db324","system_id":"levelo_inurba_marseille","lat":43.319935,"lon":5.381699,"is_reserved":false,"is_disabled":false,"rental_uris":{"android":"levelo://app?vid=1e44eb00-5254-457d-b804-b536ef4db324","ios":"levelo://app?vid=1e44eb00-5254-457d-b804-b536ef4db324"},"vehicle_type_id":"4","last_reported":1701799759,"current_range_meters":14800,"station_id":"ce4bhr12rcd13ifvqhpg","pricing_plan_id":"free"},{"bike_id":"65f8fa65-6ae7-4e94-86fb-6a8a6a019c04","system_id":"levelo_inurba_marseille","lat":43.319935,"lon":5.381699,"is_reserved":false,"is_disabled":false,"rental_uris":{"android":"levelo://app?vid=65f8fa65-6ae7-4e94-86fb-6a8a6a019c04","ios":"levelo://app?vid=65f8fa65-6ae7-4e94-86fb-6a8a6a019c04"},"vehicle_type_id":"4","last_reported":1701799759,"current_range_meters":13200,"station_id":"ce4bhr12rcd13ifvqhpg","pricing_plan_id":"free"},{"bike_id":"5f7ffb59-b9fa-4088-b075-0a5a7bee2396","system_id":"levelo_inurba_marseille","lat":43.313571,"lon":5.384829,"is_reserved":false,"is_disabled":false,"rental_uris":{"android":"levelo://app?vid=5f7ffb59-b9fa-4088-b075-0a5a7bee2396","ios":"levelo://app?vid=5f7ffb59-b9fa-4088-b075-0a5a7bee2396"},"vehicle_type_id":"4","last_reported":1701799759,"current_range_meters":29200,"station_id":"ce4bgt92rcd13ifvqcf0","pricing_plan_id":"free"},{"bike_id":"218d7a13-fa03-4076-9587-cdb36b00812d","system_id":"levelo_inurba_marseille","lat":43.298433,"lon":5.362774,"is_reserved":false,"is_disabled":false,"rental_uris":{"android":"levelo://app?vid=218d7a13-fa03-4076-9587-cdb36b00812d","ios":"levelo://app?vid=218d7a13-fa03-4076-9587-cdb36b00812d"},"vehicle_type_id":"4","last_reported":1701799759,"current_range_meters":3600,"station_id":"ce4bgpp2rcd13ifvqc3g","pricing_plan_id":"free"},{"bike_id":"b15d1045-eb19-4268-841b-cd30c96f16cd","system_id":"levelo_inurba_marseille","lat":43.299243,"lon":5.374807,"is_reserved":false,"is_disabled":false,"rental_uris":{"android":"levelo://app?vid=b15d1045-eb19-4268-841b-cd30c96f16cd","ios":"levelo://app?vid=b15d1045-eb19-4268-841b-cd30c96f16cd"},"vehicle_type_id":"4","last_reported":1701799759,"current_range_meters":16000,"station_id":"ce4bgjh2rcd13ifvqbg0","pricing_plan_id":"free"},{"bike_id":"3611eab9-ed88-408f-b94d-b09812a4463e","system_id":"levelo_inurba_marseille","lat":43.322872,"lon":5.382756,"is_reserved":false,"is_disabled":false,"rental_uris":{"android":"levelo://app?vid=3611eab9-ed88-408f-b94d-b09812a4463e","ios":"levelo://app?vid=3611eab9-ed88-408f-b94d-b09812a4463e"},"vehicle_type_id":"4","last_reported":1701799759,"current_range_meters":21200,"station_id":"ce4bhr12rcd13ifvqhqg","pricing_plan_id":"free"},{"bike_id":"f0249530-c1ed-4316-88d2-704322353a24","system_id":"levelo_inurba_marseille","lat":43.297794,"lon":5.370888,"is_reserved":false,"is_disabled":false,"rental_uris":{"android":"levelo://app?vid=f0249530-c1ed-4316-88d2-704322353a24","ios":"levelo://app?vid=f0249530-c1ed-4316-88d2-704322353a24"},"vehicle_type_id":"4","last_reported":1701799759,"current_range_meters":17600,"station_id":"ce4bgop2rcd13ifvqc1g","pricing_plan_id":"free"},{"bike_id":"b4879a0b-f87c-476b-ba9f-57011b8686d8","system_id":"levelo_inurba_marseille","lat":43.298218,"lon":5.374416,"is_reserved":false,"is_disabled":false,"rental_uris":{"android":"levelo://app?vid=b4879a0b-f87c-476b-ba9f-57011b8686d8","ios":"levelo://app?vid=b4879a0b-f87c-476b-ba9f-57011b8686d8"},"vehicle_type_id":"4","last_reported":1701799759,"current_range_meters":16800,"station_id":"","pricing_plan_id":"free"},{"bike_id":"fad051df-9150-4866-a68e-71dc1b88d26f","system_id":"levelo_inurba_marseille","lat":43.316538,"lon":5.38954,"is_reserved":false,"is_disabled":false,"rental_uris":{"android":"levelo://app?vid=fad051df-9150-4866-a68e-71dc1b88d26f","ios":"levelo://app?vid=fad051df-9150-4866-a68e-71dc1b88d26f"},"vehicle_type_id":"4","last_reported":1701799759,"current_range_meters":12400,"station_id":"","pricing_plan_id":"free"},{"bike_id":"80ee754a-51bd-4e8e-8ae2-f5f36ed6f8c4","system_id":"levelo_inurba_marseille","lat":43.296921,"lon":5.376579,"is_reserved":false,"is_disabled":false,"rental_uris":{"android":"levelo://app?vid=80ee754a-51bd-4e8e-8ae2-f5f36ed6f8c4","ios":"levelo://app?vid=80ee754a-51bd-4e8e-8ae2-f5f36ed6f8c4"},"vehicle_type_id":"4","last_reported":1701799759,"current_range_meters":4000,"station_id":"ce4bgkh2rcd13ifvqbl0","pricing_plan_id":"free"},{"bike_id":"a848a516-edf5-4de1-bd8b-6fa090643430","system_id":"levelo_inurba_marseille","lat":43.30956,"lon":5.390313,"is_reserved":false,"is_disabled":false,"rental_uris":{"android":"levelo://app?vid=a848a516-edf5-4de1-bd8b-6fa090643430","ios":"levelo://app?vid=a848a516-edf5-4de1-bd8b-6fa090643430"},"vehicle_type_id":"4","last_reported":1701799759,"current_range_meters":0,"station_id":"ce4bgup2rcd13ifvqco0","pricing_plan_id":"free"},{"bike_id":"b04aa070-7e66-4f6d-ad6f-34da1c20fed3","system_id":"levelo_inurba_marseille","lat":43.296407,"lon":5.37494,"is_reserved":false,"is_disabled":false,"rental_uris":{"android":"levelo://app?vid=b04aa070-7e66-4f6d-ad6f-34da1c20fed3","ios":"levelo://app?vid=b04aa070-7e66-4f6d-ad6f-34da1c20fed3"},"vehicle_type_id":"4","last_reported":1701799759,"current_range_meters":0,"station_id":"","pricing_plan_id":"free"},{"bike_id":"6b06cc57-06d6-4dc8-94d3-2a3dbdb86d2d","system_id":"levelo_inurba_marseille","lat":43.317557,"lon":5.390173,"is_reserved":false,"is_disabled":false,"rental_uris":{"android":"levelo://app?vid=6b06cc57-06d6-4dc8-94d3-2a3dbdb86d2d","ios":"levelo://app?vid=6b06cc57-06d6-4dc8-94d3-2a3dbdb86d2d"},"vehicle_type_id":"4","last_reported":1701799759,"current_range_meters":28000,"station_id":"ce4bhqp2rcd13ifvqhng","pricing_plan_id":"free"},{"bike_id":"5bac6510-5ce2-45c6-883c-dacf80b34457","system_id":"levelo_inurba_marseille","lat":43.298037,"lon":5.381066,"is_reserved":false,"is_disabled":false,"rental_uris":{"android":"levelo://app?vid=5bac6510-5ce2-45c6-883c-dacf80b34457","ios":"levelo://app?vid=5bac6510-5ce2-45c6-883c-dacf80b34457"},"vehicle_type_id":"4","last_reported":1701799759,"current_range_meters":0,"station_id":"ce4bgip2rcd13ifvqbb0","pricing_plan_id":"free"},{"bike_id":"1d5bec2c-ba3a-4ad4-9115-941c1bc77f10","system_id":"levelo_inurba_marseille","lat":43.299717,"lon":5.384845,"is_reserved":false,"is_disabled":false,"rental_uris":{"android":"levelo://app?vid=1d5bec2c-ba3a-4ad4-9115-941c1bc77f10","ios":"levelo://app?vid=1d5bec2c-ba3a-4ad4-9115-941c1bc77f10"},"vehicle_type_id":"4","last_reported":1701799759,"current_range_meters":15600,"station_id":"ce4bgj92rcd13ifvqbd0","pricing_plan_id":"free"},{"bike_id":"3be60a96-be08-4308-830d-f9157f37083f","system_id":"levelo_inurba_marseille","lat":43.32367,"lon":5.388836,"is_reserved":false,"is_disabled":false,"rental_uris":{"android":"levelo://app?vid=3be60a96-be08-4308-830d-f9157f37083f","ios":"levelo://app?vid=3be60a96-be08-4308-830d-f9157f37083f"},"vehicle_type_id":"4","last_reported":1701799759,"current_range_meters":11600,"station_id":"ce4bhqp2rcd13ifvqhog","pricing_plan_id":"free"},{"bike_id":"abe84497-fb17-455f-b511-71d1ec1fd3ce","system_id":"levelo_inurba_marseille","lat":43.32367,"lon":5.388836,"is_reserved":false,"is_disabled":false,"rental_uris":{"android":"levelo://app?vid=abe84497-fb17-455f-b511-71d1ec1fd3ce","ios":"levelo://app?vid=abe84497-fb17-455f-b511-71d1ec1fd3ce"},"vehicle_type_id":"4","last_reported":1701799759,"current_range_meters":8800,"station_id":"ce4bhqp2rcd13ifvqhog","pricing_plan_id":"free"},{"bike_id":"c3643ac2-cdd1-4bd1-99e6-62e33012d634","system_id":"levelo_inurba_marseille","lat":43.32365,"lon":5.38888,"is_reserved":false,"is_disabled":false,"rental_uris":{"android":"levelo://app?vid=c3643ac2-cdd1-4bd1-99e6-62e33012d634","ios":"levelo://app?vid=c3643ac2-cdd1-4bd1-99e6-62e33012d634"},"vehicle_type_id":"4","last_reported":1701799759,"current_range_meters":11200,"station_id":"ce4bhqp2rcd13ifvqhog","pricing_plan_id":"free"},{"bike_id":"f29a894f-205f-434e-871c-2261e0f71ea7","system_id":"levelo_inurba_marseille","lat":43.29601,"lon":5.381084,"is_reserved":false,"is_disabled":false,"rental_uris":{"android":"levelo://app?vid=f29a894f-205f-434e-871c-2261e0f71ea7","ios":"levelo://app?vid=f29a894f-205f-434e-871c-2261e0f71ea7"},"vehicle_type_id":"4","last_reported":1701799759,"current_range_meters":20400,"station_id":"ce4bgl12rcd13ifvqbo0","pricing_plan_id":"free"},{"bike_id":"648f5213-b650-4dec-8ba7-39d3819e5405","system_id":"levelo_inurba_marseille","lat":43.293009,"lon":5.374584,"is_reserved":false,"is_disabled":false,"rental_uris":{"android":"levelo://app?vid=648f5213-b650-4dec-8ba7-39d3819e5405","ios":"levelo://app?vid=648f5213-b650-4dec-8ba7-39d3819e5405"},"vehicle_type_id":"4","last_reported":1701799759,"current_range_meters":11600,"station_id":"ce4bgi12rcd13ifvqb70","pricing_plan_id":"free"},{"bike_id":"f3aafc58-026b-4b7a-ac79-a685f3f08ffb","system_id":"levelo_inurba_marseille","lat":43.305994,"lon":5.393687,"is_reserved":false,"is_disabled":false,"rental_uris":{"android":"levelo://app?vid=f3aafc58-026b-4b7a-ac79-a685f3f08ffb","ios":"levelo://app?vid=f3aafc58-026b-4b7a-ac79-a685f3f08ffb"},"vehicle_type_id":"4","last_reported":1701799759,"current_range_meters":15200,"station_id":"ce4bh0p2rcd13ifvqd80","pricing_plan_id":"free"},{"bike_id":"518424be-53f2-439d-8dc4-9857e9b4ab0b","system_id":"levelo_inurba_marseille","lat":43.303002,"lon":5.392142,"is_reserved":false,"is_disabled":false,"rental_uris":{"android":"levelo://app?vid=518424be-53f2-439d-8dc4-9857e9b4ab0b","ios":"levelo://app?vid=518424be-53f2-439d-8dc4-9857e9b4ab0b"},"vehicle_type_id":"4","last_reported":1701799759,"current_range_meters":23200,"station_id":"ce4bgkh2rcd13ifvqbk0","pricing_plan_id":"free"},{"bike_id":"bfd44d75-1244-4340-9723-7631ef02968b","system_id":"levelo_inurba_marseille","lat":43.300852,"lon":5.390859,"is_reserved":false,"is_disabled":false,"rental_uris":{"android":"levelo://app?vid=bfd44d75-1244-4340-9723-7631ef02968b","ios":"levelo://app?vid=bfd44d75-1244-4340-9723-7631ef02968b"},"vehicle_type_id":"4","last_reported":1701799759,"current_range_meters":22000,"station_id":"ce4bh192rcd13ifvqdb0","pricing_plan_id":"free"},{"bike_id":"bebbc514-7a90-4bb2-863d-a8721a9d5f5d","system_id":"levelo_inurba_marseille","lat":43.292311,"lon":5.360731,"is_reserved":false,"is_disabled":false,"rental_uris":{"android":"levelo://app?vid=bebbc514-7a90-4bb2-863d-a8721a9d5f5d","ios":"levelo://app?vid=bebbc514-7a90-4bb2-863d-a8721a9d5f5d"},"vehicle_type_id":"4","last_reported":1701799759,"current_range_meters":0,"station_id":"ce4bhbh2rcd13ifvqeqg","pricing_plan_id":"free"},{"bike_id":"8ac84764-c98e-4068-a624-92216d123f6a","system_id":"levelo_inurba_marseille","lat":43.30085,"lon":5.390856,"is_reserved":false,"is_disabled":false,"rental_uris":{"android":"levelo://app?vid=8ac84764-c98e-4068-a624-92216d123f6a","ios":"levelo://app?vid=8ac84764-c98e-4068-a624-92216d123f6a"},"vehicle_type_id":"4","last_reported":1701799759,"current_range_meters":31200,"station_id":"ce4bh192rcd13ifvqdb0","pricing_plan_id":"free"},{"bike_id":"05e36448-a3d2-4376-98b7-c95da7ea95d5","system_id":"levelo_inurba_marseille","lat":43.291671,"lon":5.371575,"is_reserved":false,"is_disabled":false,"rental_uris":{"android":"levelo://app?vid=05e36448-a3d2-4376-98b7-c95da7ea95d5","ios":"levelo://app?vid=05e36448-a3d2-4376-98b7-c95da7ea95d5"},"vehicle_type_id":"4","last_reported":1701799759,"current_range_meters":27600,"station_id":"ce4bha92rcd13ifvqeh0","pricing_plan_id":"free"},{"bike_id":"c3082451-1e7a-49ea-9812-c2616fda8918","system_id":"levelo_inurba_marseille","lat":43.313586,"lon":5.396899,"is_reserved":false,"is_disabled":false,"rental_uris":{"android":"levelo://app?vid=c3082451-1e7a-49ea-9812-c2616fda8918","ios":"levelo://app?vid=c3082451-1e7a-49ea-9812-c2616fda8918"},"vehicle_type_id":"4","last_reported":1701799759,"current_range_meters":12800,"station_id":"ce4bgvp2rcd13ifvqcu0","pricing_plan_id":"free"},{"bike_id":"c5057dd8-9112-4831-ba7e-e9625981fc2e","system_id":"levelo_inurba_marseille","lat":43.29188,"lon":5.35805,"is_reserved":false,"is_disabled":false,"rental_uris":{"android":"levelo://app?vid=c5057dd8-9112-4831-ba7e-e9625981fc2e","ios":"levelo://app?vid=c5057dd8-9112-4831-ba7e-e9625981fc2e"},"vehicle_type_id":"4","last_reported":1701799759,"current_range_meters":2400,"station_id":"ce4bhb12rcd13ifvqel0","pricing_plan_id":"free"},{"bike_id":"a6970ad4-0f7e-43a8-b4a2-78164c8075f2","system_id":"levelo_inurba_marseille","lat":43.31331,"lon":5.39693,"is_reserved":false,"is_disabled":false,"rental_uris":{"android":"levelo://app?vid=a6970ad4-0f7e-43a8-b4a2-78164c8075f2","ios":"levelo://app?vid=a6970ad4-0f7e-43a8-b4a2-78164c8075f2"},"vehicle_type_id":"4","last_reported":1701799759,"current_range_meters":0,"station_id":"ce4bgvp2rcd13ifvqcu0","pricing_plan_id":"free"},{"bike_id":"85f62151-c7c0-4a88-b329-ca5ea9b415ad","system_id":"levelo_inurba_marseille","lat":43.309038,"lon":5.396546,"is_reserved":false,"is_disabled":false,"rental_uris":{"android":"levelo://app?vid=85f62151-c7c0-4a88-b329-ca5ea9b415ad","ios":"levelo://app?vid=85f62151-c7c0-4a88-b329-ca5ea9b415ad"},"vehicle_type_id":"4","last_reported":1701799759,"current_range_meters":31200,"station_id":"ce4bh012rcd13ifvqcv0","pricing_plan_id":"free"},{"bike_id":"8146f9b5-b15a-4a68-934b-8d7fdd7ab4e5","system_id":"levelo_inurba_marseille","lat":43.313291,"lon":5.396838,"is_reserved":false,"is_disabled":false,"rental_uris":{"android":"levelo://app?vid=8146f9b5-b15a-4a68-934b-8d7fdd7ab4e5","ios":"levelo://app?vid=8146f9b5-b15a-4a68-934b-8d7fdd7ab4e5"},"vehicle_type_id":"4","last_reported":1701799759,"current_range_meters":21200,"station_id":"ce4bgvp2rcd13ifvqcu0","pricing_plan_id":"free"},{"bike_id":"6b8ec0f1-8a27-4b2c-a762-01d604cb2c1f","system_id":"levelo_inurba_marseille","lat":43.29529,"lon":5.385581,"is_reserved":false,"is_disabled":false,"rental_uris":{"android":"levelo://app?vid=6b8ec0f1-8a27-4b2c-a762-01d604cb2c1f","ios":"levelo://app?vid=6b8ec0f1-8a27-4b2c-a762-01d604cb2c1f"},"vehicle_type_id":"4","last_reported":1701799759,"current_range_meters":0,"station_id":"ce4bgih2rcd13ifvqba0","pricing_plan_id":"free"},{"bike_id":"0044fcd0-adac-4f36-8d6a-8c7960707c53","system_id":"levelo_inurba_marseille","lat":43.29529,"lon":5.385581,"is_reserved":false,"is_disabled":false,"rental_uris":{"android":"levelo://app?vid=0044fcd0-adac-4f36-8d6a-8c7960707c53","ios":"levelo://app?vid=0044fcd0-adac-4f36-8d6a-8c7960707c53"},"vehicle_type_id":"4","last_reported":1701799759,"current_range_meters":19600,"station_id":"ce4bgih2rcd13ifvqba0","pricing_plan_id":"free"},{"bike_id":"13c36687-1aa8-4175-8332-7787c35e6516","system_id":"levelo_inurba_marseille","lat":43.304274,"lon":5.388873,"is_reserved":false,"is_disabled":false,"rental_uris":{"android":"levelo://app?vid=13c36687-1aa8-4175-8332-7787c35e6516","ios":"levelo://app?vid=13c36687-1aa8-4175-8332-7787c35e6516"},"vehicle_type_id":"4","last_reported":1701799759,"current_range_meters":20400,"station_id":"ce4bgk12rcd13ifvqbi0","pricing_plan_id":"free"},{"bike_id":"3b9f74c9-21ca-4692-9bd5-752d34976af9","system_id":"levelo_inurba_marseille","lat":43.290631,"lon":5.359244,"is_reserved":false,"is_disabled":false,"rental_uris":{"android":"levelo://app?vid=3b9f74c9-21ca-4692-9bd5-752d34976af9","ios":"levelo://app?vid=3b9f74c9-21ca-4692-9bd5-752d34976af9"},"vehicle_type_id":"4","last_reported":1701799759,"current_range_meters":7600,"station_id":"ce4bha92rcd13ifvqeg0","pricing_plan_id":"free"},{"bike_id":"63f08302-6f26-41a4-8e5f-c202e07fee58","system_id":"levelo_inurba_marseille","lat":43.294153,"lon":5.386305,"is_reserved":false,"is_disabled":false,"rental_uris":{"android":"levelo://app?vid=63f08302-6f26-41a4-8e5f-c202e07fee58","ios":"levelo://app?vid=63f08302-6f26-41a4-8e5f-c202e07fee58"},"vehicle_type_id":"4","last_reported":1701799759,"current_range_meters":22800,"station_id":"ce4bh2h2rcd13ifvqdh0","pricing_plan_id":"free"},{"bike_id":"f51219db-e2a5-45a8-bd69-48b11816d95d","system_id":"levelo_inurba_marseille","lat":43.294153,"lon":5.386305,"is_reserved":false,"is_disabled":false,"rental_uris":{"android":"levelo://app?vid=f51219db-e2a5-45a8-bd69-48b11816d95d","ios":"levelo://app?vid=f51219db-e2a5-45a8-bd69-48b11816d95d"},"vehicle_type_id":"4","last_reported":1701799759,"current_range_meters":26000,"station_id":"ce4bh2h2rcd13ifvqdh0","pricing_plan_id":"free"},{"bike_id":"4f68339a-b440-416e-9fec-672febbe35e3","system_id":"levelo_inurba_marseille","lat":43.294162,"lon":5.386292,"is_reserved":false,"is_disabled":false,"rental_uris":{"android":"levelo://app?vid=4f68339a-b440-416e-9fec-672febbe35e3","ios":"levelo://app?vid=4f68339a-b440-416e-9fec-672febbe35e3"},"vehicle_type_id":"4","last_reported":1701799759,"current_range_meters":12000,"station_id":"ce4bh2h2rcd13ifvqdh0","pricing_plan_id":"free"},{"bike_id":"e37b9035-2aec-4945-9e4a-839ee1286765","system_id":"levelo_inurba_marseille","lat":43.290327,"lon":5.375711,"is_reserved":false,"is_disabled":false,"rental_uris":{"android":"levelo://app?vid=e37b9035-2aec-4945-9e4a-839ee1286765","ios":"levelo://app?vid=e37b9035-2aec-4945-9e4a-839ee1286765"},"vehicle_type_id":"4","last_reported":1701799759,"current_range_meters":1600,"station_id":"ce4bh692rcd13ifvqe90","pricing_plan_id":"free"},{"bike_id":"1b8ee427-86f5-4788-8d09-8af62d6c4c06","system_id":"levelo_inurba_marseille","lat":43.289184,"lon":5.366408,"is_reserved":false,"is_disabled":false,"rental_uris":{"android":"levelo://app?vid=1b8ee427-86f5-4788-8d09-8af62d6c4c06","ios":"levelo://app?vid=1b8ee427-86f5-4788-8d09-8af62d6c4c06"},"vehicle_type_id":"4","last_reported":1701799759,"current_range_meters":22800,"station_id":"ce4bhap2rcd13ifvqek0","pricing_plan_id":"free"},{"bike_id":"c6330f20-2a4b-42c8-bb2f-e1a95cc6ec8d","system_id":"levelo_inurba_marseille","lat":43.304296,"lon":5.397513,"is_reserved":false,"is_disabled":false,"rental_uris":{"android":"levelo://app?vid=c6330f20-2a4b-42c8-bb2f-e1a95cc6ec8d","ios":"levelo://app?vid=c6330f20-2a4b-42c8-bb2f-e1a95cc6ec8d"},"vehicle_type_id":"4","last_reported":1701799759,"current_range_meters":18400,"station_id":"ce4bh092rcd13ifvqd20","pricing_plan_id":"free"},{"bike_id":"9580b99c-b2d2-4cc6-bcd2-905c2e380e71","system_id":"levelo_inurba_marseille","lat":43.304296,"lon":5.397513,"is_reserved":false,"is_disabled":false,"rental_uris":{"android":"levelo://app?vid=9580b99c-b2d2-4cc6-bcd2-905c2e380e71","ios":"levelo://app?vid=9580b99c-b2d2-4cc6-bcd2-905c2e380e71"},"vehicle_type_id":"4","last_reported":1701799759,"current_range_meters":26000,"station_id":"ce4bh092rcd13ifvqd20","pricing_plan_id":"free"},{"bike_id":"893f54cf-870f-49e7-9e86-29a3087abc7f","system_id":"levelo_inurba_marseille","lat":43.304274,"lon":5.397513,"is_reserved":false,"is_disabled":false,"rental_uris":{"android":"levelo://app?vid=893f54cf-870f-49e7-9e86-29a3087abc7f","ios":"levelo://app?vid=893f54cf-870f-49e7-9e86-29a3087abc7f"},"vehicle_type_id":"4","last_reported":1701799759,"current_range_meters":22800,"station_id":"ce4bh092rcd13ifvqd20","pricing_plan_id":"free"},{"bike_id":"3ed78a9e-1d22-46b9-977a-44f38d66a860","system_id":"levelo_inurba_marseille","lat":43.330442,"lon":5.389148,"is_reserved":false,"is_disabled":false,"rental_uris":{"android":"levelo://app?vid=3ed78a9e-1d22-46b9-977a-44f38d66a860","ios":"levelo://app?vid=3ed78a9e-1d22-46b9-977a-44f38d66a860"},"vehicle_type_id":"4","last_reported":1701799759,"current_range_meters":21200,"station_id":"ce4bhr92rcd13ifvqhrg","pricing_plan_id":"free"},{"bike_id":"f68e2c8b-de08-4ad7-b342-74483183b5be","system_id":"levelo_inurba_marseille","lat":43.33034,"lon":5.38938,"is_reserved":false,"is_disabled":false,"rental_uris":{"android":"levelo://app?vid=f68e2c8b-de08-4ad7-b342-74483183b5be","ios":"levelo://app?vid=f68e2c8b-de08-4ad7-b342-74483183b5be"},"vehicle_type_id":"4","last_reported":1701799759,"current_range_meters":30000,"station_id":"ce4bhr92rcd13ifvqhrg","pricing_plan_id":"free"},{"bike_id":"06157492-945a-4cd5-b206-92225bf4696f","system_id":"levelo_inurba_marseille","lat":43.29796,"lon":5.39343,"is_reserved":false,"is_disabled":false,"rental_uris":{"android":"levelo://app?vid=06157492-945a-4cd5-b206-92225bf4696f","ios":"levelo://app?vid=06157492-945a-4cd5-b206-92225bf4696f"},"vehicle_type_id":"4","last_reported":1701799759,"current_range_meters":12400,"station_id":"chh1huq6cuj3fo74tm60","pricing_plan_id":"free"},{"bike_id":"c0819a07-5ee7-432a-bbb3-bc6675d6861e","system_id":"levelo_inurba_marseille","lat":43.28973,"lon":5.37833,"is_reserved":false,"is_disabled":false,"rental_uris":{"android":"levelo://app?vid=c0819a07-5ee7-432a-bbb3-bc6675d6861e","ios":"levelo://app?vid=c0819a07-5ee7-432a-bbb3-bc6675d6861e"},"vehicle_type_id":"4","last_reported":1701799759,"current_range_meters":14000,"station_id":"ce4bh9p2rcd13ifvqed0","pricing_plan_id":"free"},{"bike_id":"cb81018f-01a9-4ea1-b53d-419a3fc2a7ca","system_id":"levelo_inurba_marseille","lat":43.28856,"lon":5.358371,"is_reserved":false,"is_disabled":false,"rental_uris":{"android":"levelo://app?vid=cb81018f-01a9-4ea1-b53d-419a3fc2a7ca","ios":"levelo://app?vid=cb81018f-01a9-4ea1-b53d-419a3fc2a7ca"},"vehicle_type_id":"4","last_reported":1701799759,"current_range_meters":7600,"station_id":"ce4bhb12rcd13ifvqem0","pricing_plan_id":"free"},{"bike_id":"36164747-3e25-4a1f-989d-7e8b2aa1d1d1","system_id":"levelo_inurba_marseille","lat":43.28851,"lon":5.35865,"is_reserved":false,"is_disabled":false,"rental_uris":{"android":"levelo://app?vid=36164747-3e25-4a1f-989d-7e8b2aa1d1d1","ios":"levelo://app?vid=36164747-3e25-4a1f-989d-7e8b2aa1d1d1"},"vehicle_type_id":"4","last_reported":1701799759,"current_range_meters":0,"station_id":"ce4bhb12rcd13ifvqem0","pricing_plan_id":"free"},{"bike_id":"2fbea006-0d22-445c-bfc1-d379dcddc1c1","system_id":"levelo_inurba_marseille","lat":43.337396,"lon":5.374729,"is_reserved":false,"is_disabled":false,"rental_uris":{"android":"levelo://app?vid=2fbea006-0d22-445c-bfc1-d379dcddc1c1","ios":"levelo://app?vid=2fbea006-0d22-445c-bfc1-d379dcddc1c1"},"vehicle_type_id":"4","last_reported":1701799759,"current_range_meters":28000,"station_id":"","pricing_plan_id":"free"},{"bike_id":"b1da507f-59bc-4bfa-9de7-dd18b0d37739","system_id":"levelo_inurba_marseille","lat":43.337511,"lon":5.374507,"is_reserved":false,"is_disabled":false,"rental_uris":{"android":"levelo://app?vid=b1da507f-59bc-4bfa-9de7-dd18b0d37739","ios":"levelo://app?vid=b1da507f-59bc-4bfa-9de7-dd18b0d37739"},"vehicle_type_id":"4","last_reported":1701799759,"current_range_meters":30400,"station_id":"","pricing_plan_id":"free"},{"bike_id":"61e94894-252e-4e6e-9735-b09eceabfad5","system_id":"levelo_inurba_marseille","lat":43.337473,"lon":5.374799,"is_reserved":false,"is_disabled":false,"rental_uris":{"android":"levelo://app?vid=61e94894-252e-4e6e-9735-b09eceabfad5","ios":"levelo://app?vid=61e94894-252e-4e6e-9735-b09eceabfad5"},"vehicle_type_id":"4","last_reported":1701799759,"current_range_meters":28800,"station_id":"","pricing_plan_id":"free"},{"bike_id":"f0464f50-e84c-41e8-8839-9b31e220379c","system_id":"levelo_inurba_marseille","lat":43.337564,"lon":5.374607,"is_reserved":false,"is_disabled":false,"rental_uris":{"android":"levelo://app?vid=f0464f50-e84c-41e8-8839-9b31e220379c","ios":"levelo://app?vid=f0464f50-e84c-41e8-8839-9b31e220379c"},"vehicle_type_id":"4","last_reported":1701799759,"current_range_meters":31200,"station_id":"","pricing_plan_id":"free"},{"bike_id":"9a1e2a86-2307-443e-8986-35b02223d9a7","system_id":"levelo_inurba_marseille","lat":43.337589,"lon":5.374485,"is_reserved":false,"is_disabled":false,"rental_uris":{"android":"levelo://app?vid=9a1e2a86-2307-443e-8986-35b02223d9a7","ios":"levelo://app?vid=9a1e2a86-2307-443e-8986-35b02223d9a7"},"vehicle_type_id":"4","last_reported":1701799759,"current_range_meters":29600,"station_id":"","pricing_plan_id":"free"},{"bike_id":"085e65aa-c7c7-4a54-ac94-5ba1a9fadd8a","system_id":"levelo_inurba_marseille","lat":43.30642,"lon":5.401031,"is_reserved":false,"is_disabled":false,"rental_uris":{"android":"levelo://app?vid=085e65aa-c7c7-4a54-ac94-5ba1a9fadd8a","ios":"levelo://app?vid=085e65aa-c7c7-4a54-ac94-5ba1a9fadd8a"},"vehicle_type_id":"4","last_reported":1701799759,"current_range_meters":26400,"station_id":"ce4bh112rcd13ifvqda0","pricing_plan_id":"free"},{"bike_id":"a01a8d62-3f82-430f-8cbf-bf5e5048b82c","system_id":"levelo_inurba_marseille","lat":43.33756,"lon":5.37484,"is_reserved":false,"is_disabled":false,"rental_uris":{"android":"levelo://app?vid=a01a8d62-3f82-430f-8cbf-bf5e5048b82c","ios":"levelo://app?vid=a01a8d62-3f82-430f-8cbf-bf5e5048b82c"},"vehicle_type_id":"4","last_reported":1701799759,"current_range_meters":28400,"station_id":"","pricing_plan_id":"free"},{"bike_id":"98f11ca7-d900-41c8-87a1-f3b4c121c95a","system_id":"levelo_inurba_marseille","lat":43.306412,"lon":5.401035,"is_reserved":false,"is_disabled":false,"rental_uris":{"android":"levelo://app?vid=98f11ca7-d900-41c8-87a1-f3b4c121c95a","ios":"levelo://app?vid=98f11ca7-d900-41c8-87a1-f3b4c121c95a"},"vehicle_type_id":"4","last_reported":1701799759,"current_range_meters":18800,"station_id":"ce4bh112rcd13ifvqda0","pricing_plan_id":"free"},{"bike_id":"d5ec6307-da0e-4f8e-849a-28f41598545a","system_id":"levelo_inurba_marseille","lat":43.306412,"lon":5.401035,"is_reserved":false,"is_disabled":false,"rental_uris":{"android":"levelo://app?vid=d5ec6307-da0e-4f8e-849a-28f41598545a","ios":"levelo://app?vid=d5ec6307-da0e-4f8e-849a-28f41598545a"},"vehicle_type_id":"4","last_reported":1701799759,"current_range_meters":0,"station_id":"ce4bh112rcd13ifvqda0","pricing_plan_id":"free"},{"bike_id":"1bcc866c-809c-4427-8114-1a82082b55c0","system_id":"levelo_inurba_marseille","lat":43.301117,"lon":5.398795,"is_reserved":false,"is_disabled":false,"rental_uris":{"android":"levelo://app?vid=1bcc866c-809c-4427-8114-1a82082b55c0","ios":"levelo://app?vid=1bcc866c-809c-4427-8114-1a82082b55c0"},"vehicle_type_id":"4","last_reported":1701799759,"current_range_meters":24000,"station_id":"ce4bh0h2rcd13ifvqd40","pricing_plan_id":"free"},{"bike_id":"130abb19-cd13-47f2-9ddb-ad1a03f03174","system_id":"levelo_inurba_marseille","lat":43.301117,"lon":5.398795,"is_reserved":false,"is_disabled":false,"rental_uris":{"android":"levelo://app?vid=130abb19-cd13-47f2-9ddb-ad1a03f03174","ios":"levelo://app?vid=130abb19-cd13-47f2-9ddb-ad1a03f03174"},"vehicle_type_id":"4","last_reported":1701799759,"current_range_meters":0,"station_id":"ce4bh0h2rcd13ifvqd40","pricing_plan_id":"free"},{"bike_id":"038ddf56-fc87-40cb-84bf-650a93afceab","system_id":"levelo_inurba_marseille","lat":43.30138,"lon":5.39854,"is_reserved":false,"is_disabled":false,"rental_uris":{"android":"levelo://app?vid=038ddf56-fc87-40cb-84bf-650a93afceab","ios":"levelo://app?vid=038ddf56-fc87-40cb-84bf-650a93afceab"},"vehicle_type_id":"4","last_reported":1701799759,"current_range_meters":800,"station_id":"ce4bh0h2rcd13ifvqd40","pricing_plan_id":"free"},{"bike_id":"327f071a-3258-4852-becf-fb22d34b8170","system_id":"levelo_inurba_marseille","lat":43.28727,"lon":5.36078,"is_reserved":false,"is_disabled":false,"rental_uris":{"android":"levelo://app?vid=327f071a-3258-4852-becf-fb22d34b8170","ios":"levelo://app?vid=327f071a-3258-4852-becf-fb22d34b8170"},"vehicle_type_id":"4","last_reported":1701799759,"current_range_meters":28400,"station_id":"cki0cbj6b192h4jlfktg","pricing_plan_id":"free"},{"bike_id":"c01380e8-5125-426f-a3f2-3fb50928da90","system_id":"levelo_inurba_marseille","lat":43.298681,"lon":5.397225,"is_reserved":false,"is_disabled":false,"rental_uris":{"android":"levelo://app?vid=c01380e8-5125-426f-a3f2-3fb50928da90","ios":"levelo://app?vid=c01380e8-5125-426f-a3f2-3fb50928da90"},"vehicle_type_id":"4","last_reported":1701799759,"current_range_meters":12800,"station_id":"ce4bh0h2rcd13ifvqd50","pricing_plan_id":"free"},{"bike_id":"dcc6fee8-466d-4eb6-802b-b8f14d07183b","system_id":"levelo_inurba_marseille","lat":43.286961,"lon":5.373785,"is_reserved":false,"is_disabled":false,"rental_uris":{"android":"levelo://app?vid=dcc6fee8-466d-4eb6-802b-b8f14d07183b","ios":"levelo://app?vid=dcc6fee8-466d-4eb6-802b-b8f14d07183b"},"vehicle_type_id":"4","last_reported":1701799759,"current_range_meters":15600,"station_id":"ce4bh3p2rcd13ifvqdq0","pricing_plan_id":"free"},{"bike_id":"5e0d0bd1-9594-4447-88a0-f927f299e7d3","system_id":"levelo_inurba_marseille","lat":43.286591,"lon":5.363346,"is_reserved":false,"is_disabled":false,"rental_uris":{"android":"levelo://app?vid=5e0d0bd1-9594-4447-88a0-f927f299e7d3","ios":"levelo://app?vid=5e0d0bd1-9594-4447-88a0-f927f299e7d3"},"vehicle_type_id":"4","last_reported":1701799759,"current_range_meters":21600,"station_id":"ce4bhah2rcd13ifvqej0","pricing_plan_id":"free"},{"bike_id":"196b23de-eaf6-4bbe-b2f3-764edb9d2a87","system_id":"levelo_inurba_marseille","lat":43.298681,"lon":5.397225,"is_reserved":false,"is_disabled":false,"rental_uris":{"android":"levelo://app?vid=196b23de-eaf6-4bbe-b2f3-764edb9d2a87","ios":"levelo://app?vid=196b23de-eaf6-4bbe-b2f3-764edb9d2a87"},"vehicle_type_id":"4","last_reported":1701799759,"current_range_meters":0,"station_id":"ce4bh0h2rcd13ifvqd50","pricing_plan_id":"free"},{"bike_id":"5a24e346-dfa7-4616-9f3c-38523dc73aa4","system_id":"levelo_inurba_marseille","lat":43.29874,"lon":5.39728,"is_reserved":false,"is_disabled":false,"rental_uris":{"android":"levelo://app?vid=5a24e346-dfa7-4616-9f3c-38523dc73aa4","ios":"levelo://app?vid=5a24e346-dfa7-4616-9f3c-38523dc73aa4"},"vehicle_type_id":"4","last_reported":1701799759,"current_range_meters":0,"station_id":"ce4bh0h2rcd13ifvqd50","pricing_plan_id":"free"},{"bike_id":"6ac8d5fc-3ab0-443b-a417-0ce63f3e179c","system_id":"levelo_inurba_marseille","lat":43.286961,"lon":5.373785,"is_reserved":false,"is_disabled":false,"rental_uris":{"android":"levelo://app?vid=6ac8d5fc-3ab0-443b-a417-0ce63f3e179c","ios":"levelo://app?vid=6ac8d5fc-3ab0-443b-a417-0ce63f3e179c"},"vehicle_type_id":"4","last_reported":1701799759,"current_range_meters":1200,"station_id":"ce4bh3p2rcd13ifvqdq0","pricing_plan_id":"free"},{"bike_id":"c7b3aff1-dd12-4ac6-802d-6e75428f4527","system_id":"levelo_inurba_marseille","lat":43.298681,"lon":5.397225,"is_reserved":false,"is_disabled":false,"rental_uris":{"android":"levelo://app?vid=c7b3aff1-dd12-4ac6-802d-6e75428f4527","ios":"levelo://app?vid=c7b3aff1-dd12-4ac6-802d-6e75428f4527"},"vehicle_type_id":"4","last_reported":1701799759,"current_range_meters":9200,"station_id":"ce4bh0h2rcd13ifvqd50","pricing_plan_id":"free"},{"bike_id":"61c57387-ae66-4f59-afa3-393943ab1827","system_id":"levelo_inurba_marseille","lat":43.286961,"lon":5.373785,"is_reserved":false,"is_disabled":false,"rental_uris":{"android":"levelo://app?vid=61c57387-ae66-4f59-afa3-393943ab1827","ios":"levelo://app?vid=61c57387-ae66-4f59-afa3-393943ab1827"},"vehicle_type_id":"4","last_reported":1701799759,"current_range_meters":20000,"station_id":"ce4bh3p2rcd13ifvqdq0","pricing_plan_id":"free"},{"bike_id":"ea69faec-60fe-435d-9410-5ff881d6e290","system_id":"levelo_inurba_marseille","lat":43.295196,"lon":5.39397,"is_reserved":false,"is_disabled":false,"rental_uris":{"android":"levelo://app?vid=ea69faec-60fe-435d-9410-5ff881d6e290","ios":"levelo://app?vid=ea69faec-60fe-435d-9410-5ff881d6e290"},"vehicle_type_id":"4","last_reported":1701799759,"current_range_meters":1600,"station_id":"ce4bh292rcd13ifvqdf0","pricing_plan_id":"free"},{"bike_id":"8b29ca00-5866-4881-94d4-93d3f975b8d4","system_id":"levelo_inurba_marseille","lat":43.289307,"lon":5.38406,"is_reserved":false,"is_disabled":false,"rental_uris":{"android":"levelo://app?vid=8b29ca00-5866-4881-94d4-93d3f975b8d4","ios":"levelo://app?vid=8b29ca00-5866-4881-94d4-93d3f975b8d4"},"vehicle_type_id":"4","last_reported":1701799759,"current_range_meters":1600,"station_id":"ce4bh612rcd13ifvqe6g","pricing_plan_id":"free"},{"bike_id":"4fbeab9f-81fb-4e8f-95e9-5da0899fbe7d","system_id":"levelo_inurba_marseille","lat":43.302759,"lon":5.400793,"is_reserved":false,"is_disabled":false,"rental_uris":{"android":"levelo://app?vid=4fbeab9f-81fb-4e8f-95e9-5da0899fbe7d","ios":"levelo://app?vid=4fbeab9f-81fb-4e8f-95e9-5da0899fbe7d"},"vehicle_type_id":"4","last_reported":1701799759,"current_range_meters":17200,"station_id":"ce4bgvh2rcd13ifvqcs0","pricing_plan_id":"free"},{"bike_id":"383fefec-aba2-4ed7-b60f-92294683ce2e","system_id":"levelo_inurba_marseille","lat":43.29199,"lon":5.3933,"is_reserved":false,"is_disabled":false,"rental_uris":{"android":"levelo://app?vid=383fefec-aba2-4ed7-b60f-92294683ce2e","ios":"levelo://app?vid=383fefec-aba2-4ed7-b60f-92294683ce2e"},"vehicle_type_id":"4","last_reported":1701799759,"current_range_meters":0,"station_id":"ce4bh192rcd13ifvqdd0","pricing_plan_id":"free"},{"bike_id":"f56f8be2-ebde-4d23-8461-f7a6797dcf91","system_id":"levelo_inurba_marseille","lat":43.284538,"lon":5.358657,"is_reserved":false,"is_disabled":false,"rental_uris":{"android":"levelo://app?vid=f56f8be2-ebde-4d23-8461-f7a6797dcf91","ios":"levelo://app?vid=f56f8be2-ebde-4d23-8461-f7a6797dcf91"},"vehicle_type_id":"4","last_reported":1701799759,"current_range_meters":4800,"station_id":"ce4bhah2rcd13ifvqei0","pricing_plan_id":"free"},{"bike_id":"62f49d55-86f2-471d-847f-1280a92cb244","system_id":"levelo_inurba_marseille","lat":43.294314,"lon":5.397498,"is_reserved":false,"is_disabled":false,"rental_uris":{"android":"levelo://app?vid=62f49d55-86f2-471d-847f-1280a92cb244","ios":"levelo://app?vid=62f49d55-86f2-471d-847f-1280a92cb244"},"vehicle_type_id":"4","last_reported":1701799759,"current_range_meters":13200,"station_id":"ce4bh3h2rcd13ifvqdo0","pricing_plan_id":"free"},{"bike_id":"002dc5ea-6f8b-41fa-bd72-9a65e040a039","system_id":"levelo_inurba_marseille","lat":43.283998,"lon":5.375062,"is_reserved":false,"is_disabled":false,"rental_uris":{"android":"levelo://app?vid=002dc5ea-6f8b-41fa-bd72-9a65e040a039","ios":"levelo://app?vid=002dc5ea-6f8b-41fa-bd72-9a65e040a039"},"vehicle_type_id":"4","last_reported":1701799759,"current_range_meters":24000,"station_id":"ce4bh412rcd13ifvqds0","pricing_plan_id":"free"},{"bike_id":"6e9a6edc-645d-4b00-8ea1-7a83c7e6c12a","system_id":"levelo_inurba_marseille","lat":43.283998,"lon":5.375062,"is_reserved":false,"is_disabled":false,"rental_uris":{"android":"levelo://app?vid=6e9a6edc-645d-4b00-8ea1-7a83c7e6c12a","ios":"levelo://app?vid=6e9a6edc-645d-4b00-8ea1-7a83c7e6c12a"},"vehicle_type_id":"4","last_reported":1701799759,"current_range_meters":31600,"station_id":"ce4bh412rcd13ifvqds0","pricing_plan_id":"free"},{"bike_id":"0c5b6464-8b1b-4b1d-a950-79832c470b2b","system_id":"levelo_inurba_marseille","lat":43.283998,"lon":5.375062,"is_reserved":false,"is_disabled":false,"rental_uris":{"android":"levelo://app?vid=0c5b6464-8b1b-4b1d-a950-79832c470b2b","ios":"levelo://app?vid=0c5b6464-8b1b-4b1d-a950-79832c470b2b"},"vehicle_type_id":"4","last_reported":1701799759,"current_range_meters":9600,"station_id":"ce4bh412rcd13ifvqds0","pricing_plan_id":"free"},{"bike_id":"6d9a4ae9-8c00-4c3c-a5e2-46655a23a9f2","system_id":"levelo_inurba_marseille","lat":43.283998,"lon":5.375062,"is_reserved":false,"is_disabled":false,"rental_uris":{"android":"levelo://app?vid=6d9a4ae9-8c00-4c3c-a5e2-46655a23a9f2","ios":"levelo://app?vid=6d9a4ae9-8c00-4c3c-a5e2-46655a23a9f2"},"vehicle_type_id":"4","last_reported":1701799759,"current_range_meters":11200,"station_id":"ce4bh412rcd13ifvqds0","pricing_plan_id":"free"},{"bike_id":"5a72b05a-94d1-4b99-96f5-02a085042fa5","system_id":"levelo_inurba_marseille","lat":43.295713,"lon":5.399639,"is_reserved":false,"is_disabled":false,"rental_uris":{"android":"levelo://app?vid=5a72b05a-94d1-4b99-96f5-02a085042fa5","ios":"levelo://app?vid=5a72b05a-94d1-4b99-96f5-02a085042fa5"},"vehicle_type_id":"4","last_reported":1701799759,"current_range_meters":7600,"station_id":"ce4bh312rcd13ifvqdj0","pricing_plan_id":"free"},{"bike_id":"400443b1-f6fc-44dd-b9c6-f670eda87c07","system_id":"levelo_inurba_marseille","lat":43.295713,"lon":5.399639,"is_reserved":false,"is_disabled":false,"rental_uris":{"android":"levelo://app?vid=400443b1-f6fc-44dd-b9c6-f670eda87c07","ios":"levelo://app?vid=400443b1-f6fc-44dd-b9c6-f670eda87c07"},"vehicle_type_id":"4","last_reported":1701799759,"current_range_meters":11200,"station_id":"ce4bh312rcd13ifvqdj0","pricing_plan_id":"free"},{"bike_id":"80958bce-fab5-44e5-98a6-1ad19877e0ec","system_id":"levelo_inurba_marseille","lat":43.286595,"lon":5.386795,"is_reserved":false,"is_disabled":false,"rental_uris":{"android":"levelo://app?vid=80958bce-fab5-44e5-98a6-1ad19877e0ec","ios":"levelo://app?vid=80958bce-fab5-44e5-98a6-1ad19877e0ec"},"vehicle_type_id":"4","last_reported":1701799759,"current_range_meters":10400,"station_id":"ce4bh492rcd13ifvqdug","pricing_plan_id":"free"},{"bike_id":"59a1ce9c-ae5b-4a1e-bc79-3bfcb3abc53a","system_id":"levelo_inurba_marseille","lat":43.286595,"lon":5.386795,"is_reserved":false,"is_disabled":false,"rental_uris":{"android":"levelo://app?vid=59a1ce9c-ae5b-4a1e-bc79-3bfcb3abc53a","ios":"levelo://app?vid=59a1ce9c-ae5b-4a1e-bc79-3bfcb3abc53a"},"vehicle_type_id":"4","last_reported":1701799759,"current_range_meters":3600,"station_id":"ce4bh492rcd13ifvqdug","pricing_plan_id":"free"},{"bike_id":"196b2a5f-14a8-4a44-91b1-eed21e34e508","system_id":"levelo_inurba_marseille","lat":43.28748,"lon":5.38905,"is_reserved":false,"is_disabled":false,"rental_uris":{"android":"levelo://app?vid=196b2a5f-14a8-4a44-91b1-eed21e34e508","ios":"levelo://app?vid=196b2a5f-14a8-4a44-91b1-eed21e34e508"},"vehicle_type_id":"4","last_reported":1701799759,"current_range_meters":0,"station_id":"","pricing_plan_id":"free"},{"bike_id":"5fad739f-ecbb-465f-9d5d-01fd562691c5","system_id":"levelo_inurba_marseille","lat":43.31879,"lon":5.40737,"is_reserved":false,"is_disabled":false,"rental_uris":{"android":"levelo://app?vid=5fad739f-ecbb-465f-9d5d-01fd562691c5","ios":"levelo://app?vid=5fad739f-ecbb-465f-9d5d-01fd562691c5"},"vehicle_type_id":"4","last_reported":1701799759,"current_range_meters":0,"station_id":"ce4bhq12rcd13ifvqhig","pricing_plan_id":"free"},{"bike_id":"4de2f798-c6da-403b-9e8d-b3c39321012b","system_id":"levelo_inurba_marseille","lat":43.319179,"lon":5.407725,"is_reserved":false,"is_disabled":false,"rental_uris":{"android":"levelo://app?vid=4de2f798-c6da-403b-9e8d-b3c39321012b","ios":"levelo://app?vid=4de2f798-c6da-403b-9e8d-b3c39321012b"},"vehicle_type_id":"4","last_reported":1701799759,"current_range_meters":21200,"station_id":"ce4bhq12rcd13ifvqhig","pricing_plan_id":"free"},{"bike_id":"3112d83b-6f2a-4ef3-8373-f90714a3f157","system_id":"levelo_inurba_marseille","lat":43.3189,"lon":5.4074,"is_reserved":false,"is_disabled":false,"rental_uris":{"android":"levelo://app?vid=3112d83b-6f2a-4ef3-8373-f90714a3f157","ios":"levelo://app?vid=3112d83b-6f2a-4ef3-8373-f90714a3f157"},"vehicle_type_id":"4","last_reported":1701799759,"current_range_meters":0,"station_id":"ce4bhq12rcd13ifvqhig","pricing_plan_id":"free"},{"bike_id":"6feb15f9-dee2-422a-9dca-feec0e57b75f","system_id":"levelo_inurba_marseille","lat":43.337168,"lon":5.391825,"is_reserved":false,"is_disabled":false,"rental_uris":{"android":"levelo://app?vid=6feb15f9-dee2-422a-9dca-feec0e57b75f","ios":"levelo://app?vid=6feb15f9-dee2-422a-9dca-feec0e57b75f"},"vehicle_type_id":"4","last_reported":1701799759,"current_range_meters":17600,"station_id":"ce4bhr92rcd13ifvqhsg","pricing_plan_id":"free"},{"bike_id":"73a0ccc4-6952-4358-b19a-96ead216fa1a","system_id":"levelo_inurba_marseille","lat":43.337168,"lon":5.391825,"is_reserved":false,"is_disabled":false,"rental_uris":{"android":"levelo://app?vid=73a0ccc4-6952-4358-b19a-96ead216fa1a","ios":"levelo://app?vid=73a0ccc4-6952-4358-b19a-96ead216fa1a"},"vehicle_type_id":"4","last_reported":1701799759,"current_range_meters":26000,"station_id":"ce4bhr92rcd13ifvqhsg","pricing_plan_id":"free"},{"bike_id":"3734231e-d673-4404-b15d-d7a23ba8c854","system_id":"levelo_inurba_marseille","lat":43.28806,"lon":5.39147,"is_reserved":false,"is_disabled":false,"rental_uris":{"android":"levelo://app?vid=3734231e-d673-4404-b15d-d7a23ba8c854","ios":"levelo://app?vid=3734231e-d673-4404-b15d-d7a23ba8c854"},"vehicle_type_id":"4","last_reported":1701799759,"current_range_meters":0,"station_id":"","pricing_plan_id":"free"},{"bike_id":"9fc316fe-8c58-456f-a54c-5c9f861533c8","system_id":"levelo_inurba_marseille","lat":43.323464,"lon":5.406297,"is_reserved":false,"is_disabled":false,"rental_uris":{"android":"levelo://app?vid=9fc316fe-8c58-456f-a54c-5c9f861533c8","ios":"levelo://app?vid=9fc316fe-8c58-456f-a54c-5c9f861533c8"},"vehicle_type_id":"4","last_reported":1701799759,"current_range_meters":27600,"station_id":"ce4bhq92rcd13ifvqhjg","pricing_plan_id":"free"},{"bike_id":"e2d004aa-df97-49eb-8b77-3eefdceee936","system_id":"levelo_inurba_marseille","lat":43.284787,"lon":5.384116,"is_reserved":false,"is_disabled":false,"rental_uris":{"android":"levelo://app?vid=e2d004aa-df97-49eb-8b77-3eefdceee936","ios":"levelo://app?vid=e2d004aa-df97-49eb-8b77-3eefdceee936"},"vehicle_type_id":"4","last_reported":1701799759,"current_range_meters":0,"station_id":"ce4bh512rcd13ifvqe3g","pricing_plan_id":"free"},{"bike_id":"e1211c94-3291-4967-ab98-b21d559729a6","system_id":"levelo_inurba_marseille","lat":43.297946,"lon":5.404063,"is_reserved":false,"is_disabled":false,"rental_uris":{"android":"levelo://app?vid=e1211c94-3291-4967-ab98-b21d559729a6","ios":"levelo://app?vid=e1211c94-3291-4967-ab98-b21d559729a6"},"vehicle_type_id":"4","last_reported":1701799759,"current_range_meters":18400,"station_id":"ce4bh112rcd13ifvqd90","pricing_plan_id":"free"},{"bike_id":"f8e0b689-13f1-4dd0-8754-901f40a2a9b5","system_id":"levelo_inurba_marseille","lat":43.288501,"lon":5.393087,"is_reserved":false,"is_disabled":false,"rental_uris":{"android":"levelo://app?vid=f8e0b689-13f1-4dd0-8754-901f40a2a9b5","ios":"levelo://app?vid=f8e0b689-13f1-4dd0-8754-901f40a2a9b5"},"vehicle_type_id":"4","last_reported":1701799759,"current_range_meters":6800,"station_id":"ce4bh2p2rcd13ifvqdi0","pricing_plan_id":"free"},{"bike_id":"f3d9158c-6f5a-40ea-9a8c-a5c1e574c3a3","system_id":"levelo_inurba_marseille","lat":43.283912,"lon":5.384532,"is_reserved":false,"is_disabled":false,"rental_uris":{"android":"levelo://app?vid=f3d9158c-6f5a-40ea-9a8c-a5c1e574c3a3","ios":"levelo://app?vid=f3d9158c-6f5a-40ea-9a8c-a5c1e574c3a3"},"vehicle_type_id":"4","last_reported":1701799759,"current_range_meters":0,"station_id":"","pricing_plan_id":"free"},{"bike_id":"30cc27ca-17c7-41dc-86e4-ebe09cb4539a","system_id":"levelo_inurba_marseille","lat":43.282744,"lon":5.350533,"is_reserved":false,"is_disabled":false,"rental_uris":{"android":"levelo://app?vid=30cc27ca-17c7-41dc-86e4-ebe09cb4539a","ios":"levelo://app?vid=30cc27ca-17c7-41dc-86e4-ebe09cb4539a"},"vehicle_type_id":"4","last_reported":1701799759,"current_range_meters":18800,"station_id":"ce4bhbp2rcd13ifvqerg","pricing_plan_id":"free"},{"bike_id":"0580b38c-52ae-4913-91f1-81053e27bfac","system_id":"levelo_inurba_marseille","lat":43.290412,"lon":5.399633,"is_reserved":false,"is_disabled":false,"rental_uris":{"android":"levelo://app?vid=0580b38c-52ae-4913-91f1-81053e27bfac","ios":"levelo://app?vid=0580b38c-52ae-4913-91f1-81053e27bfac"},"vehicle_type_id":"4","last_reported":1701799759,"current_range_meters":15600,"station_id":"ce4bh392rcd13ifvqdm0","pricing_plan_id":"free"},{"bike_id":"369d8279-71ce-4d7b-9102-7ed9527aaef6","system_id":"levelo_inurba_marseille","lat":43.281044,"lon":5.378308,"is_reserved":false,"is_disabled":false,"rental_uris":{"android":"levelo://app?vid=369d8279-71ce-4d7b-9102-7ed9527aaef6","ios":"levelo://app?vid=369d8279-71ce-4d7b-9102-7ed9527aaef6"},"vehicle_type_id":"4","last_reported":1701799759,"current_range_meters":29600,"station_id":"ce4bha12rcd13ifvqee0","pricing_plan_id":"free"},{"bike_id":"0c8bd4b6-35fc-4273-9a73-20453ee194a3","system_id":"levelo_inurba_marseille","lat":43.281044,"lon":5.378308,"is_reserved":false,"is_disabled":false,"rental_uris":{"android":"levelo://app?vid=0c8bd4b6-35fc-4273-9a73-20453ee194a3","ios":"levelo://app?vid=0c8bd4b6-35fc-4273-9a73-20453ee194a3"},"vehicle_type_id":"4","last_reported":1701799759,"current_range_meters":20800,"station_id":"ce4bha12rcd13ifvqee0","pricing_plan_id":"free"},{"bike_id":"dd6b756e-3032-4bf3-8729-0e0248edbc6c","system_id":"levelo_inurba_marseille","lat":43.317121,"lon":5.423936,"is_reserved":false,"is_disabled":false,"rental_uris":{"android":"levelo://app?vid=dd6b756e-3032-4bf3-8729-0e0248edbc6c","ios":"levelo://app?vid=dd6b756e-3032-4bf3-8729-0e0248edbc6c"},"vehicle_type_id":"4","last_reported":1701799759,"current_range_meters":16800,"station_id":"ce4bhp92rcd13ifvqhbg","pricing_plan_id":"free"},{"bike_id":"8af95cc1-a600-4f05-bc00-e0f6236e7d4f","system_id":"levelo_inurba_marseille","lat":43.284462,"lon":5.392121,"is_reserved":false,"is_disabled":false,"rental_uris":{"android":"levelo://app?vid=8af95cc1-a600-4f05-bc00-e0f6236e7d4f","ios":"levelo://app?vid=8af95cc1-a600-4f05-bc00-e0f6236e7d4f"},"vehicle_type_id":"4","last_reported":1701799759,"current_range_meters":0,"station_id":"ce4bhoh2rcd13ifvqh5g","pricing_plan_id":"free"},{"bike_id":"dc94bb97-8aba-4340-b657-324ca3d3f312","system_id":"levelo_inurba_marseille","lat":43.287154,"lon":5.399979,"is_reserved":false,"is_disabled":false,"rental_uris":{"android":"levelo://app?vid=dc94bb97-8aba-4340-b657-324ca3d3f312","ios":"levelo://app?vid=dc94bb97-8aba-4340-b657-324ca3d3f312"},"vehicle_type_id":"4","last_reported":1701799759,"current_range_meters":16800,"station_id":"ce4bho92rcd13ifvqh3g","pricing_plan_id":"free"},{"bike_id":"c9f23d61-4ad6-4d21-8b80-5bebd89354d4","system_id":"levelo_inurba_marseille","lat":43.279742,"lon":5.38744,"is_reserved":false,"is_disabled":false,"rental_uris":{"android":"levelo://app?vid=c9f23d61-4ad6-4d21-8b80-5bebd89354d4","ios":"levelo://app?vid=c9f23d61-4ad6-4d21-8b80-5bebd89354d4"},"vehicle_type_id":"4","last_reported":1701799759,"current_range_meters":4800,"station_id":"ce4bhg12rcd13ifvqf80","pricing_plan_id":"free"},{"bike_id":"f06a3698-9f5e-4ae6-b904-44d10a93c217","system_id":"levelo_inurba_marseille","lat":43.292569,"lon":5.409107,"is_reserved":false,"is_disabled":false,"rental_uris":{"android":"levelo://app?vid=f06a3698-9f5e-4ae6-b904-44d10a93c217","ios":"levelo://app?vid=f06a3698-9f5e-4ae6-b904-44d10a93c217"},"vehicle_type_id":"4","last_reported":1701799759,"current_range_meters":12400,"station_id":"ce4bh192rcd13ifvqdc0","pricing_plan_id":"free"},{"bike_id":"63c035ce-d1ba-4c47-a8f8-b92f0833ffe6","system_id":"levelo_inurba_marseille","lat":43.292569,"lon":5.409107,"is_reserved":false,"is_disabled":false,"rental_uris":{"android":"levelo://app?vid=63c035ce-d1ba-4c47-a8f8-b92f0833ffe6","ios":"levelo://app?vid=63c035ce-d1ba-4c47-a8f8-b92f0833ffe6"},"vehicle_type_id":"4","last_reported":1701799759,"current_range_meters":9200,"station_id":"ce4bh192rcd13ifvqdc0","pricing_plan_id":"free"},{"bike_id":"338dd705-99be-4c25-88c5-db39578b8677","system_id":"levelo_inurba_marseille","lat":43.292569,"lon":5.409107,"is_reserved":false,"is_disabled":false,"rental_uris":{"android":"levelo://app?vid=338dd705-99be-4c25-88c5-db39578b8677","ios":"levelo://app?vid=338dd705-99be-4c25-88c5-db39578b8677"},"vehicle_type_id":"4","last_reported":1701799759,"current_range_meters":17200,"station_id":"ce4bh192rcd13ifvqdc0","pricing_plan_id":"free"},{"bike_id":"382ca511-9e1a-4352-9b70-67ef9081397d","system_id":"levelo_inurba_marseille","lat":43.292569,"lon":5.409107,"is_reserved":false,"is_disabled":false,"rental_uris":{"android":"levelo://app?vid=382ca511-9e1a-4352-9b70-67ef9081397d","ios":"levelo://app?vid=382ca511-9e1a-4352-9b70-67ef9081397d"},"vehicle_type_id":"4","last_reported":1701799759,"current_range_meters":400,"station_id":"ce4bh192rcd13ifvqdc0","pricing_plan_id":"free"},{"bike_id":"26322418-0f01-4fde-81dc-4287a8e6d8ef","system_id":"levelo_inurba_marseille","lat":43.292571,"lon":5.409107,"is_reserved":false,"is_disabled":false,"rental_uris":{"android":"levelo://app?vid=26322418-0f01-4fde-81dc-4287a8e6d8ef","ios":"levelo://app?vid=26322418-0f01-4fde-81dc-4287a8e6d8ef"},"vehicle_type_id":"4","last_reported":1701799759,"current_range_meters":14000,"station_id":"ce4bh192rcd13ifvqdc0","pricing_plan_id":"free"},{"bike_id":"a9cd9e83-64b9-48d3-98a3-1973bd0da06a","system_id":"levelo_inurba_marseille","lat":43.292569,"lon":5.409107,"is_reserved":false,"is_disabled":false,"rental_uris":{"android":"levelo://app?vid=a9cd9e83-64b9-48d3-98a3-1973bd0da06a","ios":"levelo://app?vid=a9cd9e83-64b9-48d3-98a3-1973bd0da06a"},"vehicle_type_id":"4","last_reported":1701799759,"current_range_meters":30800,"station_id":"ce4bh192rcd13ifvqdc0","pricing_plan_id":"free"},{"bike_id":"17db11e9-ff6b-4265-a772-9fca0f8a787a","system_id":"levelo_inurba_marseille","lat":43.28489,"lon":5.40431,"is_reserved":false,"is_disabled":false,"rental_uris":{"android":"levelo://app?vid=17db11e9-ff6b-4265-a772-9fca0f8a787a","ios":"levelo://app?vid=17db11e9-ff6b-4265-a772-9fca0f8a787a"},"vehicle_type_id":"4","last_reported":1701799759,"current_range_meters":0,"station_id":"","pricing_plan_id":"free"},{"bike_id":"6b9787e3-632c-4e2b-b3d5-4e0196a2a545","system_id":"levelo_inurba_marseille","lat":43.278401,"lon":5.392152,"is_reserved":false,"is_disabled":false,"rental_uris":{"android":"levelo://app?vid=6b9787e3-632c-4e2b-b3d5-4e0196a2a545","ios":"levelo://app?vid=6b9787e3-632c-4e2b-b3d5-4e0196a2a545"},"vehicle_type_id":"4","last_reported":1701799759,"current_range_meters":22800,"station_id":"ce4bhjp2rcd13ifvqga0","pricing_plan_id":"free"},{"bike_id":"972ad8df-576c-4a6c-98b8-67136b54b8e0","system_id":"levelo_inurba_marseille","lat":43.279952,"lon":5.400085,"is_reserved":false,"is_disabled":false,"rental_uris":{"android":"levelo://app?vid=972ad8df-576c-4a6c-98b8-67136b54b8e0","ios":"levelo://app?vid=972ad8df-576c-4a6c-98b8-67136b54b8e0"},"vehicle_type_id":"4","last_reported":1701799759,"current_range_meters":0,"station_id":"ce4bho92rcd13ifvqh4g","pricing_plan_id":"free"},{"bike_id":"2c337d2b-cceb-4a65-b16d-e1c20cfe6466","system_id":"levelo_inurba_marseille","lat":43.279975,"lon":5.40009,"is_reserved":false,"is_disabled":false,"rental_uris":{"android":"levelo://app?vid=2c337d2b-cceb-4a65-b16d-e1c20cfe6466","ios":"levelo://app?vid=2c337d2b-cceb-4a65-b16d-e1c20cfe6466"},"vehicle_type_id":"4","last_reported":1701799759,"current_range_meters":0,"station_id":"ce4bho92rcd13ifvqh4g","pricing_plan_id":"free"},{"bike_id":"4f3c361f-dc39-4eb2-8cb4-572b7625ae11","system_id":"levelo_inurba_marseille","lat":43.279952,"lon":5.400085,"is_reserved":false,"is_disabled":false,"rental_uris":{"android":"levelo://app?vid=4f3c361f-dc39-4eb2-8cb4-572b7625ae11","ios":"levelo://app?vid=4f3c361f-dc39-4eb2-8cb4-572b7625ae11"},"vehicle_type_id":"4","last_reported":1701799759,"current_range_meters":12000,"station_id":"ce4bho92rcd13ifvqh4g","pricing_plan_id":"free"},{"bike_id":"6f069aab-0dfd-4bb1-a7c7-dafdd20df186","system_id":"levelo_inurba_marseille","lat":43.279952,"lon":5.400085,"is_reserved":false,"is_disabled":false,"rental_uris":{"android":"levelo://app?vid=6f069aab-0dfd-4bb1-a7c7-dafdd20df186","ios":"levelo://app?vid=6f069aab-0dfd-4bb1-a7c7-dafdd20df186"},"vehicle_type_id":"4","last_reported":1701799759,"current_range_meters":29600,"station_id":"ce4bho92rcd13ifvqh4g","pricing_plan_id":"free"},{"bike_id":"c3c4c66d-8cfe-4dca-b594-00f699fb9850","system_id":"levelo_inurba_marseille","lat":43.310785,"lon":5.424305,"is_reserved":false,"is_disabled":false,"rental_uris":{"android":"levelo://app?vid=c3c4c66d-8cfe-4dca-b594-00f699fb9850","ios":"levelo://app?vid=c3c4c66d-8cfe-4dca-b594-00f699fb9850"},"vehicle_type_id":"4","last_reported":1701799759,"current_range_meters":27600,"station_id":"ce4bhp92rcd13ifvqhag","pricing_plan_id":"free"},{"bike_id":"2d0b3718-12ab-42ba-a7ed-eeb40b410813","system_id":"levelo_inurba_marseille","lat":43.310785,"lon":5.424305,"is_reserved":false,"is_disabled":false,"rental_uris":{"android":"levelo://app?vid=2d0b3718-12ab-42ba-a7ed-eeb40b410813","ios":"levelo://app?vid=2d0b3718-12ab-42ba-a7ed-eeb40b410813"},"vehicle_type_id":"4","last_reported":1701799759,"current_range_meters":1600,"station_id":"ce4bhp92rcd13ifvqhag","pricing_plan_id":"free"},{"bike_id":"910fd3aa-d2e0-4553-894a-6161d41c7fcd","system_id":"levelo_inurba_marseille","lat":43.275768,"lon":5.395365,"is_reserved":false,"is_disabled":false,"rental_uris":{"android":"levelo://app?vid=910fd3aa-d2e0-4553-894a-6161d41c7fcd","ios":"levelo://app?vid=910fd3aa-d2e0-4553-894a-6161d41c7fcd"},"vehicle_type_id":"4","last_reported":1701799759,"current_range_meters":5200,"station_id":"","pricing_plan_id":"free"},{"bike_id":"a11fb346-e9c7-4f14-b9d0-d97adcd5dbd2","system_id":"levelo_inurba_marseille","lat":43.295523,"lon":5.422926,"is_reserved":false,"is_disabled":false,"rental_uris":{"android":"levelo://app?vid=a11fb346-e9c7-4f14-b9d0-d97adcd5dbd2","ios":"levelo://app?vid=a11fb346-e9c7-4f14-b9d0-d97adcd5dbd2"},"vehicle_type_id":"4","last_reported":1701799759,"current_range_meters":31200,"station_id":"ce4bhph2rcd13ifvqhdg","pricing_plan_id":"free"},{"bike_id":"44b7e749-26e2-4b57-bc9c-9a6ffa54d913","system_id":"levelo_inurba_marseille","lat":43.295511,"lon":5.422926,"is_reserved":false,"is_disabled":false,"rental_uris":{"android":"levelo://app?vid=44b7e749-26e2-4b57-bc9c-9a6ffa54d913","ios":"levelo://app?vid=44b7e749-26e2-4b57-bc9c-9a6ffa54d913"},"vehicle_type_id":"4","last_reported":1701799759,"current_range_meters":27200,"station_id":"ce4bhph2rcd13ifvqhdg","pricing_plan_id":"free"},{"bike_id":"30606be1-5b96-4f23-bf9b-1a637fac67ac","system_id":"levelo_inurba_marseille","lat":43.295511,"lon":5.422926,"is_reserved":false,"is_disabled":false,"rental_uris":{"android":"levelo://app?vid=30606be1-5b96-4f23-bf9b-1a637fac67ac","ios":"levelo://app?vid=30606be1-5b96-4f23-bf9b-1a637fac67ac"},"vehicle_type_id":"4","last_reported":1701799759,"current_range_meters":16400,"station_id":"ce4bhph2rcd13ifvqhdg","pricing_plan_id":"free"},{"bike_id":"fef357b1-c488-4f0f-a097-b96c128e0618","system_id":"levelo_inurba_marseille","lat":43.29549,"lon":5.42296,"is_reserved":false,"is_disabled":false,"rental_uris":{"android":"levelo://app?vid=fef357b1-c488-4f0f-a097-b96c128e0618","ios":"levelo://app?vid=fef357b1-c488-4f0f-a097-b96c128e0618"},"vehicle_type_id":"4","last_reported":1701799759,"current_range_meters":22400,"station_id":"ce4bhph2rcd13ifvqhdg","pricing_plan_id":"free"},{"bike_id":"4aaafaa4-5992-4d41-aca4-45ea537c3e9e","system_id":"levelo_inurba_marseille","lat":43.27214,"lon":5.3925,"is_reserved":false,"is_disabled":false,"rental_uris":{"android":"levelo://app?vid=4aaafaa4-5992-4d41-aca4-45ea537c3e9e","ios":"levelo://app?vid=4aaafaa4-5992-4d41-aca4-45ea537c3e9e"},"vehicle_type_id":"4","last_reported":1701799759,"current_range_meters":16000,"station_id":"","pricing_plan_id":"free"},{"bike_id":"3f650813-a8f8-4598-ad0b-eaa31faca832","system_id":"levelo_inurba_marseille","lat":43.278128,"lon":5.407195,"is_reserved":false,"is_disabled":false,"rental_uris":{"android":"levelo://app?vid=3f650813-a8f8-4598-ad0b-eaa31faca832","ios":"levelo://app?vid=3f650813-a8f8-4598-ad0b-eaa31faca832"},"vehicle_type_id":"4","last_reported":1701799759,"current_range_meters":8800,"station_id":"ce4bhnh2rcd13ifvqgtg","pricing_plan_id":"free"},{"bike_id":"732281a7-1ca1-4193-9ac9-f3d031b09359","system_id":"levelo_inurba_marseille","lat":43.269319,"lon":5.389397,"is_reserved":false,"is_disabled":false,"rental_uris":{"android":"levelo://app?vid=732281a7-1ca1-4193-9ac9-f3d031b09359","ios":"levelo://app?vid=732281a7-1ca1-4193-9ac9-f3d031b09359"},"vehicle_type_id":"4","last_reported":1701799759,"current_range_meters":28000,"station_id":"ce4bhhh2rcd13ifvqfl0","pricing_plan_id":"free"},{"bike_id":"dc4074c4-cc24-403f-a189-9d432876569f","system_id":"levelo_inurba_marseille","lat":43.26945,"lon":5.399797,"is_reserved":false,"is_disabled":false,"rental_uris":{"android":"levelo://app?vid=dc4074c4-cc24-403f-a189-9d432876569f","ios":"levelo://app?vid=dc4074c4-cc24-403f-a189-9d432876569f"},"vehicle_type_id":"4","last_reported":1701799759,"current_range_meters":0,"station_id":"","pricing_plan_id":"free"},{"bike_id":"8e50a2a3-63a6-454e-bfc7-0d30cf65c822","system_id":"levelo_inurba_marseille","lat":43.308051,"lon":5.43527,"is_reserved":false,"is_disabled":false,"rental_uris":{"android":"levelo://app?vid=8e50a2a3-63a6-454e-bfc7-0d30cf65c822","ios":"levelo://app?vid=8e50a2a3-63a6-454e-bfc7-0d30cf65c822"},"vehicle_type_id":"4","last_reported":1701799759,"current_range_meters":30000,"station_id":"ce4bhph2rcd13ifvqheg","pricing_plan_id":"free"},{"bike_id":"1b4486ac-6ae4-4f64-86e5-321e065e6ee0","system_id":"levelo_inurba_marseille","lat":43.26569,"lon":5.39008,"is_reserved":false,"is_disabled":false,"rental_uris":{"android":"levelo://app?vid=1b4486ac-6ae4-4f64-86e5-321e065e6ee0","ios":"levelo://app?vid=1b4486ac-6ae4-4f64-86e5-321e065e6ee0"},"vehicle_type_id":"4","last_reported":1701799759,"current_range_meters":25600,"station_id":"ce4bhe12rcd13ifvqf30","pricing_plan_id":"free"},{"bike_id":"b34a76bf-041f-4dcf-92d1-199397cfba4e","system_id":"levelo_inurba_marseille","lat":43.26557,"lon":5.39008,"is_reserved":false,"is_disabled":false,"rental_uris":{"android":"levelo://app?vid=b34a76bf-041f-4dcf-92d1-199397cfba4e","ios":"levelo://app?vid=b34a76bf-041f-4dcf-92d1-199397cfba4e"},"vehicle_type_id":"4","last_reported":1701799759,"current_range_meters":15200,"station_id":"ce4bhe12rcd13ifvqf30","pricing_plan_id":"free"},{"bike_id":"c4264b94-9a9c-493d-bd87-b11b08ff20a5","system_id":"levelo_inurba_marseille","lat":43.265569,"lon":5.390047,"is_reserved":false,"is_disabled":false,"rental_uris":{"android":"levelo://app?vid=c4264b94-9a9c-493d-bd87-b11b08ff20a5","ios":"levelo://app?vid=c4264b94-9a9c-493d-bd87-b11b08ff20a5"},"vehicle_type_id":"4","last_reported":1701799759,"current_range_meters":5200,"station_id":"ce4bhe12rcd13ifvqf30","pricing_plan_id":"free"},{"bike_id":"4f34044e-b6b5-4f45-aa26-16b610aacef7","system_id":"levelo_inurba_marseille","lat":43.317104,"lon":5.436818,"is_reserved":false,"is_disabled":false,"rental_uris":{"android":"levelo://app?vid=4f34044e-b6b5-4f45-aa26-16b610aacef7","ios":"levelo://app?vid=4f34044e-b6b5-4f45-aa26-16b610aacef7"},"vehicle_type_id":"4","last_reported":1701799759,"current_range_meters":26400,"station_id":"ce4bhp92rcd13ifvqhcg","pricing_plan_id":"free"},{"bike_id":"39d0c53e-50cf-439d-836a-11d14d8b7dc5","system_id":"levelo_inurba_marseille","lat":43.317104,"lon":5.436818,"is_reserved":false,"is_disabled":false,"rental_uris":{"android":"levelo://app?vid=39d0c53e-50cf-439d-836a-11d14d8b7dc5","ios":"levelo://app?vid=39d0c53e-50cf-439d-836a-11d14d8b7dc5"},"vehicle_type_id":"4","last_reported":1701799759,"current_range_meters":22400,"station_id":"ce4bhp92rcd13ifvqhcg","pricing_plan_id":"free"},{"bike_id":"037482d9-5565-4803-b381-e11c7c214e7d","system_id":"levelo_inurba_marseille","lat":43.271368,"lon":5.40928,"is_reserved":false,"is_disabled":false,"rental_uris":{"android":"levelo://app?vid=037482d9-5565-4803-b381-e11c7c214e7d","ios":"levelo://app?vid=037482d9-5565-4803-b381-e11c7c214e7d"},"vehicle_type_id":"4","last_reported":1701799759,"current_range_meters":28400,"station_id":"ce4bhl12rcd13ifvqgf0","pricing_plan_id":"free"},{"bike_id":"f1bbdaec-be2b-4c72-a04a-1ba0cb58cecb","system_id":"levelo_inurba_marseille","lat":43.271368,"lon":5.40928,"is_reserved":false,"is_disabled":false,"rental_uris":{"android":"levelo://app?vid=f1bbdaec-be2b-4c72-a04a-1ba0cb58cecb","ios":"levelo://app?vid=f1bbdaec-be2b-4c72-a04a-1ba0cb58cecb"},"vehicle_type_id":"4","last_reported":1701799759,"current_range_meters":16000,"station_id":"ce4bhl12rcd13ifvqgf0","pricing_plan_id":"free"},{"bike_id":"c54cd023-a6f2-4d68-aabc-4be9f862ccbb","system_id":"levelo_inurba_marseille","lat":43.298768,"lon":5.43643,"is_reserved":false,"is_disabled":false,"rental_uris":{"android":"levelo://app?vid=c54cd023-a6f2-4d68-aabc-4be9f862ccbb","ios":"levelo://app?vid=c54cd023-a6f2-4d68-aabc-4be9f862ccbb"},"vehicle_type_id":"4","last_reported":1701799759,"current_range_meters":31600,"station_id":"ce4bhpp2rcd13ifvqhfg","pricing_plan_id":"free"},{"bike_id":"79a33485-724b-41f9-bc1d-f28cf939c45f","system_id":"levelo_inurba_marseille","lat":43.281548,"lon":5.42643,"is_reserved":false,"is_disabled":false,"rental_uris":{"android":"levelo://app?vid=79a33485-724b-41f9-bc1d-f28cf939c45f","ios":"levelo://app?vid=79a33485-724b-41f9-bc1d-f28cf939c45f"},"vehicle_type_id":"4","last_reported":1701799759,"current_range_meters":6800,"station_id":"ce4bhnh2rcd13ifvqgug","pricing_plan_id":"free"},{"bike_id":"64dd76e8-c95e-4237-a17b-1e654cdcb968","system_id":"levelo_inurba_marseille","lat":43.2607,"lon":5.393983,"is_reserved":false,"is_disabled":false,"rental_uris":{"android":"levelo://app?vid=64dd76e8-c95e-4237-a17b-1e654cdcb968","ios":"levelo://app?vid=64dd76e8-c95e-4237-a17b-1e654cdcb968"},"vehicle_type_id":"4","last_reported":1701799759,"current_range_meters":11200,"station_id":"ce4bhh92rcd13ifvqfj0","pricing_plan_id":"free"},{"bike_id":"5eb11eb2-f185-4107-99f2-c9d88b83df4b","system_id":"levelo_inurba_marseille","lat":43.2607,"lon":5.393983,"is_reserved":false,"is_disabled":false,"rental_uris":{"android":"levelo://app?vid=5eb11eb2-f185-4107-99f2-c9d88b83df4b","ios":"levelo://app?vid=5eb11eb2-f185-4107-99f2-c9d88b83df4b"},"vehicle_type_id":"4","last_reported":1701799759,"current_range_meters":13200,"station_id":"ce4bhh92rcd13ifvqfj0","pricing_plan_id":"free"},{"bike_id":"cf118c9d-5639-4dad-b7e1-c9f544571c67","system_id":"levelo_inurba_marseille","lat":43.2607,"lon":5.393983,"is_reserved":false,"is_disabled":false,"rental_uris":{"android":"levelo://app?vid=cf118c9d-5639-4dad-b7e1-c9f544571c67","ios":"levelo://app?vid=cf118c9d-5639-4dad-b7e1-c9f544571c67"},"vehicle_type_id":"4","last_reported":1701799759,"current_range_meters":13600,"station_id":"ce4bhh92rcd13ifvqfj0","pricing_plan_id":"free"},{"bike_id":"97c974c3-ac7e-4ddb-bea7-d5fdeb802085","system_id":"levelo_inurba_marseille","lat":43.2607,"lon":5.393983,"is_reserved":false,"is_disabled":false,"rental_uris":{"android":"levelo://app?vid=97c974c3-ac7e-4ddb-bea7-d5fdeb802085","ios":"levelo://app?vid=97c974c3-ac7e-4ddb-bea7-d5fdeb802085"},"vehicle_type_id":"4","last_reported":1701799759,"current_range_meters":5200,"station_id":"ce4bhh92rcd13ifvqfj0","pricing_plan_id":"free"},{"bike_id":"371784b5-b976-415e-a1cd-89aeb90923d3","system_id":"levelo_inurba_marseille","lat":43.25592,"lon":5.38231,"is_reserved":false,"is_disabled":false,"rental_uris":{"android":"levelo://app?vid=371784b5-b976-415e-a1cd-89aeb90923d3","ios":"levelo://app?vid=371784b5-b976-415e-a1cd-89aeb90923d3"},"vehicle_type_id":"4","last_reported":1701799759,"current_range_meters":4800,"station_id":"ce4bhih2rcd13ifvqfs0","pricing_plan_id":"free"},{"bike_id":"5a2f82b0-e960-4e11-9c0a-f261e4708c81","system_id":"levelo_inurba_marseille","lat":43.25585,"lon":5.38244,"is_reserved":false,"is_disabled":false,"rental_uris":{"android":"levelo://app?vid=5a2f82b0-e960-4e11-9c0a-f261e4708c81","ios":"levelo://app?vid=5a2f82b0-e960-4e11-9c0a-f261e4708c81"},"vehicle_type_id":"4","last_reported":1701799759,"current_range_meters":10000,"station_id":"ce4bhih2rcd13ifvqfs0","pricing_plan_id":"free"},{"bike_id":"36bbc5dd-37ac-4f75-a06c-e14536d8b837","system_id":"levelo_inurba_marseille","lat":43.254947,"lon":5.376454,"is_reserved":false,"is_disabled":false,"rental_uris":{"android":"levelo://app?vid=36bbc5dd-37ac-4f75-a06c-e14536d8b837","ios":"levelo://app?vid=36bbc5dd-37ac-4f75-a06c-e14536d8b837"},"vehicle_type_id":"4","last_reported":1701799759,"current_range_meters":24800,"station_id":"ce4bhh12rcd13ifvqff0","pricing_plan_id":"free"},{"bike_id":"351653d2-e2ff-482a-94bc-baad5aa2e6cd","system_id":"levelo_inurba_marseille","lat":43.270721,"lon":5.422764,"is_reserved":false,"is_disabled":false,"rental_uris":{"android":"levelo://app?vid=351653d2-e2ff-482a-94bc-baad5aa2e6cd","ios":"levelo://app?vid=351653d2-e2ff-482a-94bc-baad5aa2e6cd"},"vehicle_type_id":"4","last_reported":1701799759,"current_range_meters":16000,"station_id":"ce4bhk92rcd13ifvqgb0","pricing_plan_id":"free"},{"bike_id":"1c67acb7-8221-493d-9e7c-813c40b923f5","system_id":"levelo_inurba_marseille","lat":43.250009,"lon":5.389195,"is_reserved":false,"is_disabled":false,"rental_uris":{"android":"levelo://app?vid=1c67acb7-8221-493d-9e7c-813c40b923f5","ios":"levelo://app?vid=1c67acb7-8221-493d-9e7c-813c40b923f5"},"vehicle_type_id":"4","last_reported":1701799759,"current_range_meters":15200,"station_id":"ce4bhgp2rcd13ifvqfd0","pricing_plan_id":"free"},{"bike_id":"85f9f73e-6c47-42d6-ab03-8a43f7a4c921","system_id":"levelo_inurba_marseille","lat":43.250009,"lon":5.389195,"is_reserved":false,"is_disabled":false,"rental_uris":{"android":"levelo://app?vid=85f9f73e-6c47-42d6-ab03-8a43f7a4c921","ios":"levelo://app?vid=85f9f73e-6c47-42d6-ab03-8a43f7a4c921"},"vehicle_type_id":"4","last_reported":1701799759,"current_range_meters":30000,"station_id":"ce4bhgp2rcd13ifvqfd0","pricing_plan_id":"free"},{"bike_id":"0c4e3164-e478-468a-b3b0-db48a0b1a6ea","system_id":"levelo_inurba_marseille","lat":43.2479,"lon":5.374457,"is_reserved":false,"is_disabled":false,"rental_uris":{"android":"levelo://app?vid=0c4e3164-e478-468a-b3b0-db48a0b1a6ea","ios":"levelo://app?vid=0c4e3164-e478-468a-b3b0-db48a0b1a6ea"},"vehicle_type_id":"4","last_reported":1701799759,"current_range_meters":9200,"station_id":"ce4bhgh2rcd13ifvqfb0","pricing_plan_id":"free"},{"bike_id":"733ccd1a-c140-4b47-bf9b-0084b41619dc","system_id":"levelo_inurba_marseille","lat":43.2479,"lon":5.374457,"is_reserved":false,"is_disabled":false,"rental_uris":{"android":"levelo://app?vid=733ccd1a-c140-4b47-bf9b-0084b41619dc","ios":"levelo://app?vid=733ccd1a-c140-4b47-bf9b-0084b41619dc"},"vehicle_type_id":"4","last_reported":1701799759,"current_range_meters":23600,"station_id":"ce4bhgh2rcd13ifvqfb0","pricing_plan_id":"free"},{"bike_id":"96da180c-7b6f-4c60-8c7c-dbf05c2d449c","system_id":"levelo_inurba_marseille","lat":43.250966,"lon":5.395186,"is_reserved":false,"is_disabled":false,"rental_uris":{"android":"levelo://app?vid=96da180c-7b6f-4c60-8c7c-dbf05c2d449c","ios":"levelo://app?vid=96da180c-7b6f-4c60-8c7c-dbf05c2d449c"},"vehicle_type_id":"4","last_reported":1701799759,"current_range_meters":2800,"station_id":"ce4bhm12rcd13ifvqgkg","pricing_plan_id":"free"},{"bike_id":"7fa12c18-a7c6-491a-85c1-eafba9158c72","system_id":"levelo_inurba_marseille","lat":43.24666,"lon":5.38157,"is_reserved":false,"is_disabled":false,"rental_uris":{"android":"levelo://app?vid=7fa12c18-a7c6-491a-85c1-eafba9158c72","ios":"levelo://app?vid=7fa12c18-a7c6-491a-85c1-eafba9158c72"},"vehicle_type_id":"4","last_reported":1701799759,"current_range_meters":25600,"station_id":"ce4bhih2rcd13ifvqfr0","pricing_plan_id":"free"},{"bike_id":"d575260b-ffc7-4935-9627-49e47aa7aa88","system_id":"levelo_inurba_marseille","lat":43.243884,"lon":5.370736,"is_reserved":false,"is_disabled":false,"rental_uris":{"android":"levelo://app?vid=d575260b-ffc7-4935-9627-49e47aa7aa88","ios":"levelo://app?vid=d575260b-ffc7-4935-9627-49e47aa7aa88"},"vehicle_type_id":"4","last_reported":1701799759,"current_range_meters":3600,"station_id":"ce4bhhh2rcd13ifvqfk0","pricing_plan_id":"free"},{"bike_id":"8d80d84a-3dd5-4d4a-85df-eed98a72632a","system_id":"levelo_inurba_marseille","lat":43.243884,"lon":5.370737,"is_reserved":false,"is_disabled":false,"rental_uris":{"android":"levelo://app?vid=8d80d84a-3dd5-4d4a-85df-eed98a72632a","ios":"levelo://app?vid=8d80d84a-3dd5-4d4a-85df-eed98a72632a"},"vehicle_type_id":"4","last_reported":1701799759,"current_range_meters":30000,"station_id":"ce4bhhh2rcd13ifvqfk0","pricing_plan_id":"free"},{"bike_id":"01a3e125-2c3f-4e04-be90-5c2475770f24","system_id":"levelo_inurba_marseille","lat":43.240623,"lon":5.377642,"is_reserved":false,"is_disabled":false,"rental_uris":{"android":"levelo://app?vid=01a3e125-2c3f-4e04-be90-5c2475770f24","ios":"levelo://app?vid=01a3e125-2c3f-4e04-be90-5c2475770f24"},"vehicle_type_id":"4","last_reported":1701799759,"current_range_meters":19600,"station_id":"ce4bhnp2rcd13ifvqgvg","pricing_plan_id":"free"},{"bike_id":"134b1611-7289-496c-9404-d871034e3ccc","system_id":"levelo_inurba_marseille","lat":43.239588,"lon":5.366238,"is_reserved":false,"is_disabled":false,"rental_uris":{"android":"levelo://app?vid=134b1611-7289-496c-9404-d871034e3ccc","ios":"levelo://app?vid=134b1611-7289-496c-9404-d871034e3ccc"},"vehicle_type_id":"4","last_reported":1701799759,"current_range_meters":13600,"station_id":"ce4bhi12rcd13ifvqfp0","pricing_plan_id":"free"},{"bike_id":"2c2c6877-0f4c-44c1-a94f-407c72fed725","system_id":"levelo_inurba_marseille","lat":43.239588,"lon":5.366238,"is_reserved":false,"is_disabled":false,"rental_uris":{"android":"levelo://app?vid=2c2c6877-0f4c-44c1-a94f-407c72fed725","ios":"levelo://app?vid=2c2c6877-0f4c-44c1-a94f-407c72fed725"},"vehicle_type_id":"4","last_reported":1701799759,"current_range_meters":28800,"station_id":"ce4bhi12rcd13ifvqfp0","pricing_plan_id":"free"},{"bike_id":"5b8f7843-062b-424f-85e4-19c0c77fec31","system_id":"levelo_inurba_marseille","lat":43.239588,"lon":5.366238,"is_reserved":false,"is_disabled":false,"rental_uris":{"android":"levelo://app?vid=5b8f7843-062b-424f-85e4-19c0c77fec31","ios":"levelo://app?vid=5b8f7843-062b-424f-85e4-19c0c77fec31"},"vehicle_type_id":"4","last_reported":1701799759,"current_range_meters":0,"station_id":"ce4bhi12rcd13ifvqfp0","pricing_plan_id":"free"},{"bike_id":"04b00323-44dc-4556-add8-5a131157a4f0","system_id":"levelo_inurba_marseille","lat":43.244053,"lon":5.401645,"is_reserved":false,"is_disabled":false,"rental_uris":{"android":"levelo://app?vid=04b00323-44dc-4556-add8-5a131157a4f0","ios":"levelo://app?vid=04b00323-44dc-4556-add8-5a131157a4f0"},"vehicle_type_id":"4","last_reported":1701799759,"current_range_meters":1600,"station_id":"","pricing_plan_id":"free"},{"bike_id":"85af6b96-920b-4202-8829-424462fbb16a","system_id":"levelo_inurba_marseille","lat":43.241782,"lon":5.397261,"is_reserved":false,"is_disabled":false,"rental_uris":{"android":"levelo://app?vid=85af6b96-920b-4202-8829-424462fbb16a","ios":"levelo://app?vid=85af6b96-920b-4202-8829-424462fbb16a"},"vehicle_type_id":"4","last_reported":1701799759,"current_range_meters":18800,"station_id":"ce4bhn12rcd13ifvqgpg","pricing_plan_id":"free"},{"bike_id":"83bb2897-9a21-4f10-bd03-e2bc9777e287","system_id":"levelo_inurba_marseille","lat":43.241782,"lon":5.397261,"is_reserved":false,"is_disabled":false,"rental_uris":{"android":"levelo://app?vid=83bb2897-9a21-4f10-bd03-e2bc9777e287","ios":"levelo://app?vid=83bb2897-9a21-4f10-bd03-e2bc9777e287"},"vehicle_type_id":"4","last_reported":1701799759,"current_range_meters":12800,"station_id":"ce4bhn12rcd13ifvqgpg","pricing_plan_id":"free"},{"bike_id":"cf3102c4-88e0-4a41-86b7-69a76932d3e6","system_id":"levelo_inurba_marseille","lat":43.231923,"lon":5.355545,"is_reserved":false,"is_disabled":false,"rental_uris":{"android":"levelo://app?vid=cf3102c4-88e0-4a41-86b7-69a76932d3e6","ios":"levelo://app?vid=cf3102c4-88e0-4a41-86b7-69a76932d3e6"},"vehicle_type_id":"4","last_reported":1701799759,"current_range_meters":31200,"station_id":"ce4bhu92rcd13ifvqi70","pricing_plan_id":"free"},{"bike_id":"e2fb0602-0025-4bc2-a80e-ca4c6079bddc","system_id":"levelo_inurba_marseille","lat":43.231923,"lon":5.355545,"is_reserved":false,"is_disabled":false,"rental_uris":{"android":"levelo://app?vid=e2fb0602-0025-4bc2-a80e-ca4c6079bddc","ios":"levelo://app?vid=e2fb0602-0025-4bc2-a80e-ca4c6079bddc"},"vehicle_type_id":"4","last_reported":1701799759,"current_range_meters":5600,"station_id":"ce4bhu92rcd13ifvqi70","pricing_plan_id":"free"},{"bike_id":"d868c0b5-242c-4b9f-b108-cbde91aaec79","system_id":"levelo_inurba_marseille","lat":43.231923,"lon":5.355545,"is_reserved":false,"is_disabled":false,"rental_uris":{"android":"levelo://app?vid=d868c0b5-242c-4b9f-b108-cbde91aaec79","ios":"levelo://app?vid=d868c0b5-242c-4b9f-b108-cbde91aaec79"},"vehicle_type_id":"4","last_reported":1701799759,"current_range_meters":24000,"station_id":"ce4bhu92rcd13ifvqi70","pricing_plan_id":"free"},{"bike_id":"b988d3fe-c649-4089-ae26-b7efbdfc136a","system_id":"levelo_inurba_marseille","lat":43.231794,"lon":5.400052,"is_reserved":false,"is_disabled":false,"rental_uris":{"android":"levelo://app?vid=b988d3fe-c649-4089-ae26-b7efbdfc136a","ios":"levelo://app?vid=b988d3fe-c649-4089-ae26-b7efbdfc136a"},"vehicle_type_id":"4","last_reported":1701799759,"current_range_meters":30400,"station_id":"ce4bhn12rcd13ifvqgqg","pricing_plan_id":"free"},{"bike_id":"0b1e3bd7-033b-46ef-8d43-f0325c18a334","system_id":"levelo_inurba_marseille","lat":43.231794,"lon":5.400052,"is_reserved":false,"is_disabled":false,"rental_uris":{"android":"levelo://app?vid=0b1e3bd7-033b-46ef-8d43-f0325c18a334","ios":"levelo://app?vid=0b1e3bd7-033b-46ef-8d43-f0325c18a334"},"vehicle_type_id":"4","last_reported":1701799759,"current_range_meters":14000,"station_id":"ce4bhn12rcd13ifvqgqg","pricing_plan_id":"free"},{"bike_id":"e9e62f9b-b2fe-4312-af15-bcf56f0a2f27","system_id":"levelo_inurba_marseille","lat":43.231794,"lon":5.400052,"is_reserved":false,"is_disabled":false,"rental_uris":{"android":"levelo://app?vid=e9e62f9b-b2fe-4312-af15-bcf56f0a2f27","ios":"levelo://app?vid=e9e62f9b-b2fe-4312-af15-bcf56f0a2f27"},"vehicle_type_id":"4","last_reported":1701799759,"current_range_meters":15600,"station_id":"ce4bhn12rcd13ifvqgqg","pricing_plan_id":"free"}]}}