{"last_updated":1750241487,"ttl":60,"version":"2.2","data":{"bikes":[{"bike_id":"3da29fb8-fc97-44c6-b9ac-31dd456b2fd4","system_id":"levelo_inurba_marseille","lat":43.33771,"lon":5.37424,"is_reserved":false,"is_disabled":true,"rental_uris":{"android":"levelo://app?vid=3da29fb8-fc97-44c6-b9ac-31dd456b2fd4","ios":"levelo://app?vid=3da29fb8-fc97-44c6-b9ac-31dd456b2fd4"},"vehicle_type_id":"4","last_reported":1750241487,"current_range_meters":0,"station_id":"","pricing_plan_id":"cebpf4jnsgd1na2vs0mg"},{"bike_id":"01861ad8-a8d7-4be6-816e-651927c87584","system_id":"levelo_inurba_marseille","lat":43.33751,"lon":5.37456,"is_reserved":false,"is_disabled":true,"rental_uris":{"android":"levelo://app?vid=01861ad8-a8d7-4be6-816e-651927c87584","ios":"levelo://app?vid=01861ad8-a8d7-4be6-816e-651927c87584"},"vehicle_type_id":"4","last_reported":1750241487,"current_range_meters":0,"station_id":"","pricing_plan_id":"cebpf4jnsgd1na2vs0mg"},{"bike_id":"dbfce7a3-3423-4296-b193-a177dea644ac","system_id":"levelo_inurba_marseille","lat":43.272862,"lon":5.41605,"is_reserved":false,"is_disabled":true,"rental_uris":{"android":"levelo://app?vid=dbfce7a3-3423-4296-b193-a177dea644ac","ios":"levelo://app?vid=dbfce7a3-3423-4296-b193-a177dea644ac"},"vehicle_type_id":"4","last_reported":1750241487,"current_range_meters":0,"station_id":"","pricing_plan_id":"cebpf4jnsgd1na2vs0mg"},{"bike_id":"8d297b38-f666-4a46-9dee-0132f800019c","system_id":"levelo_inurba_marseille","lat":43.32202,"lon":5.38571,"is_reserved":false,"is_disabled":true,"rental_uris":{"android":"levelo://app?vid=8d297b38-f666-4a46-9dee-0132f800019c","ios":"levelo://app?vid=8d297b38-f666-4a46-9dee-0132f800019c"},"vehicle_type_id":"4","last_reported":1750241487,"current_range_meters":0,"station_id":"","pricing_plan_id":"cebpf4jnsgd1na2vs0mg"},{"bike_id":"d2bd57c8-6b64-48db-ad24-5398eb3fd9d6","system_id":"levelo_inurba_marseille","lat":43.337444,"lon":5.374475,"is_reserved":false,"is_disabled":true,"rental_uris":{"android":"levelo://app?vid=d2bd57c8-6b64-48db-ad24-5398eb3fd9d6","ios":"levelo://app?vid=d2bd57c8-6b64-48db-ad24-5398eb3fd9d6"},"vehicle_type_id":"4","last_reported":1750241487,"current_range_meters":0,"station_id":"","pricing_plan_id":"cebpf4jnsgd1na2vs0mg"},{"bike_id":"62a493c7-4534-4419-ad43-0582de34a72a","system_id":"levelo_inurba_marseille","lat":43.21366,"lon":5.355183,"is_reserved":false,"is_disabled":true,"rental_uris":{"android":"levelo://app?vid=62a493c7-4534-4419-ad43-0582de34a72a","ios":"levelo://app?vid=62a493c7-4534-4419-ad43-0582de34a72a"},"vehicle_type_id":"4","last_reported":1750241487,"current_range_meters":0,"station_id":"","pricing_plan_id":"cebpf4jnsgd1na2vs0mg"},{"bike_id":"b9e37238-9abe-4b8b-b932-edaee33a7e59","system_id":"levelo_inurba_marseille","lat":43.27518,"lon":5.39036,"is_reserved":false,"is_disabled":true,"rental_uris":{"android":"levelo://app?vid=b9e37238-9abe-4b8b-b932-edaee33a7e59","ios":"levelo://app?vid=b9e37238-9abe-4b8b-b932-edaee33a7e59"},"vehicle_type_id":"4","last_reported":1750241487,"current_range_meters":0,"station_id":"","pricing_plan_id":"cebpf4jnsgd1na2vs0mg"},{"bike_id":"cba28a02-9f06-41dd-8645-e3bd321e07ba","system_id":"levelo_inurba_marseille","lat":43.28841,"lon":5.3872,"is_reserved":false,"is_disabled":true,"rental_uris":{"android":"levelo://app?vid=cba28a02-9f06-41dd-8645-e3bd321e07ba","ios":"levelo://app?vid=cba28a02-9f06-41dd-8645-e3bd321e07ba"},"vehicle_type_id":"4","last_reported":1750241487,"current_range_meters":0,"station_id":"","pricing_plan_id":"cebpf4jnsgd1na2vs0mg"},{"bike_id":"dba623ec-664c-4621-8832-8f9cf82566ea","system_id":"levelo_inurba_marseille","lat":43.27985,"lon":5.36898,"is_reserved":false,"is_disabled":true,"rental_uris":{"android":"levelo://app?vid=dba623ec-664c-4621-8832-8f9cf82566ea","ios":"levelo://app?vid=dba623ec-664c-4621-8832-8f9cf82566ea"},"vehicle_type_id":"4","last_reported":1750241487,"current_range_meters":0,"station_id":"","pricing_plan_id":"cebpf4jnsgd1na2vs0mg"},{"bike_id":"8ad9234e-001a-4549-8bba-9baf2ef98804","system_id":"levelo_inurba_marseille","lat":43.27416,"lon":5.3979,"is_reserved":false,"is_disabled":true,"rental_uris":{"android":"levelo://app?vid=8ad9234e-001a-4549-8bba-9baf2ef98804","ios":"levelo://app?vid=8ad9234e-001a-4549-8bba-9baf2ef98804"},"vehicle_type_id":"4","last_reported":1750241487,"current_range_meters":0,"station_id":"","pricing_plan_id":"cebpf4jnsgd1na2vs0mg"},{"bike_id":"93af304b-67b5-47b8-a3fd-e0775f7cde8c","system_id":"levelo_inurba_marseille","lat":43.215301,"lon":5.347406,"is_reserved":false,"is_disabled":true,"rental_uris":{"android":"levelo://app?vid=93af304b-67b5-47b8-a3fd-e0775f7cde8c","ios":"levelo://app?vid=93af304b-67b5-47b8-a3fd-e0775f7cde8c"},"vehicle_type_id":"4","last_reported":1750241487,"current_range_meters":0,"station_id":"","pricing_plan_id":"cebpf4jnsgd1na2vs0mg"},{"bike_id":"d6609b4f-333b-43c1-9ebe-8726f5e76e88","system_id":"levelo_inurba_marseille","lat":43.337444,"lon":5.374475,"is_reserved":false,"is_disabled":true,"rental_uris":{"android":"levelo://app?vid=d6609b4f-333b-43c1-9ebe-8726f5e76e88","ios":"levelo://app?vid=d6609b4f-333b-43c1-9ebe-8726f5e76e88"},"vehicle_type_id":"4","last_reported":1750241487,"current_range_meters":0,"station_id":"","pricing_plan_id":"cebpf4jnsgd1na2vs0mg"},{"bike_id":"57c83ce1-960e-466a-b6c5-d93bc130c53a","system_id":"levelo_inurba_marseille","lat":43.24909,"lon":5.38973,"is_reserved":false,"is_disabled":true,"rental_uris":{"android":"levelo://app?vid=57c83ce1-960e-466a-b6c5-d93bc130c53a","ios":"levelo://app?vid=57c83ce1-960e-466a-b6c5-d93bc130c53a"},"vehicle_type_id":"4","last_reported":1750241487,"current_range_meters":0,"station_id":"","pricing_plan_id":"cebpf4jnsgd1na2vs0mg"},{"bike_id":"378a7c8a-19e4-476d-b028-fca0fc7ed3f4","system_id":"levelo_inurba_marseille","lat":43.30122,"lon":5.38773,"is_reserved":false,"is_disabled":true,"rental_uris":{"android":"levelo://app?vid=378a7c8a-19e4-476d-b028-fca0fc7ed3f4","ios":"levelo://app?vid=378a7c8a-19e4-476d-b028-fca0fc7ed3f4"},"vehicle_type_id":"4","last_reported":1750241487,"current_range_meters":0,"station_id":"ce4bghh2rcd13ifvqb60","pricing_plan_id":"cebpf4jnsgd1na2vs0mg"},{"bike_id":"d86228ca-d2fe-4406-a4b4-9e57ac8fe9c6","system_id":"levelo_inurba_marseille","lat":43.27371,"lon":5.36251,"is_reserved":false,"is_disabled":true,"rental_uris":{"android":"levelo://app?vid=d86228ca-d2fe-4406-a4b4-9e57ac8fe9c6","ios":"levelo://app?vid=d86228ca-d2fe-4406-a4b4-9e57ac8fe9c6"},"vehicle_type_id":"4","last_reported":1750241487,"current_range_meters":0,"station_id":"ce4bhbh2rcd13ifvqeo0","pricing_plan_id":"cebpf4jnsgd1na2vs0mg"},{"bike_id":"1f61ad06-ec57-40a2-be71-99fafa925028","system_id":"levelo_inurba_marseille","lat":43.26556,"lon":5.37284,"is_reserved":false,"is_disabled":true,"rental_uris":{"android":"levelo://app?vid=1f61ad06-ec57-40a2-be71-99fafa925028","ios":"levelo://app?vid=1f61ad06-ec57-40a2-be71-99fafa925028"},"vehicle_type_id":"4","last_reported":1750241487,"current_range_meters":0,"station_id":"ce4bhg12rcd13ifvqf70","pricing_plan_id":"cebpf4jnsgd1na2vs0mg"},{"bike_id":"950b799e-0a6e-4094-95a7-55a4d7b840de","system_id":"levelo_inurba_marseille","lat":43.26675,"lon":5.38265,"is_reserved":false,"is_disabled":true,"rental_uris":{"android":"levelo://app?vid=950b799e-0a6e-4094-95a7-55a4d7b840de","ios":"levelo://app?vid=950b799e-0a6e-4094-95a7-55a4d7b840de"},"vehicle_type_id":"4","last_reported":1750241487,"current_range_meters":0,"station_id":"ce4bhg92rcd13ifvqf90","pricing_plan_id":"cebpf4jnsgd1na2vs0mg"},{"bike_id":"da0a0ff6-80d3-469f-a9da-a30900a95528","system_id":"levelo_inurba_marseille","lat":43.25493,"lon":5.37645,"is_reserved":false,"is_disabled":true,"rental_uris":{"android":"levelo://app?vid=da0a0ff6-80d3-469f-a9da-a30900a95528","ios":"levelo://app?vid=da0a0ff6-80d3-469f-a9da-a30900a95528"},"vehicle_type_id":"4","last_reported":1750241487,"current_range_meters":0,"station_id":"ce4bhh12rcd13ifvqff0","pricing_plan_id":"cebpf4jnsgd1na2vs0mg"},{"bike_id":"6ab1ca16-c4ac-44a0-8157-7fb72ffd7777","system_id":"levelo_inurba_marseille","lat":43.27076,"lon":5.42273,"is_reserved":false,"is_disabled":true,"rental_uris":{"android":"levelo://app?vid=6ab1ca16-c4ac-44a0-8157-7fb72ffd7777","ios":"levelo://app?vid=6ab1ca16-c4ac-44a0-8157-7fb72ffd7777"},"vehicle_type_id":"4","last_reported":1750241487,"current_range_meters":0,"station_id":"ce4bhk92rcd13ifvqgb0","pricing_plan_id":"cebpf4jnsgd1na2vs0mg"},{"bike_id":"182d17f0-904c-4963-b6bc-690f0df73b04","system_id":"levelo_inurba_marseille","lat":43.27496,"lon":5.42455,"is_reserved":false,"is_disabled":true,"rental_uris":{"android":"levelo://app?vid=182d17f0-904c-4963-b6bc-690f0df73b04","ios":"levelo://app?vid=182d17f0-904c-4963-b6bc-690f0df73b04"},"vehicle_type_id":"4","last_reported":1750241487,"current_range_meters":0,"station_id":"ce4bhn92rcd13ifvqgrg","pricing_plan_id":"cebpf4jnsgd1na2vs0mg"},{"bike_id":"eadf4732-049b-49c8-91ee-ee9ff4e71f85","system_id":"levelo_inurba_marseille","lat":43.31074,"lon":5.42436,"is_reserved":false,"is_disabled":true,"rental_uris":{"android":"levelo://app?vid=eadf4732-049b-49c8-91ee-ee9ff4e71f85","ios":"levelo://app?vid=eadf4732-049b-49c8-91ee-ee9ff4e71f85"},"vehicle_type_id":"4","last_reported":1750241487,"current_range_meters":0,"station_id":"ce4bhp92rcd13ifvqhag","pricing_plan_id":"cebpf4jnsgd1na2vs0mg"},{"bike_id":"d4f28517-563b-48c1-9b0f-51f454f99191","system_id":"levelo_inurba_marseille","lat":43.30942,"lon":5.39035,"is_reserved":false,"is_disabled":true,"rental_uris":{"android":"levelo://app?vid=d4f28517-563b-48c1-9b0f-51f454f99191","ios":"levelo://app?vid=d4f28517-563b-48c1-9b0f-51f454f99191"},"vehicle_type_id":"4","last_reported":1750241487,"current_range_meters":400,"station_id":"ce4bgup2rcd13ifvqco0","pricing_plan_id":"cebpf4jnsgd1na2vs0mg"},{"bike_id":"91ea9959-0604-4159-bfa1-922a3e143e9c","system_id":"levelo_inurba_marseille","lat":43.28685,"lon":5.38658,"is_reserved":false,"is_disabled":true,"rental_uris":{"android":"levelo://app?vid=91ea9959-0604-4159-bfa1-922a3e143e9c","ios":"levelo://app?vid=91ea9959-0604-4159-bfa1-922a3e143e9c"},"vehicle_type_id":"4","last_reported":1750241487,"current_range_meters":400,"station_id":"ce4bh492rcd13ifvqdug","pricing_plan_id":"cebpf4jnsgd1na2vs0mg"},{"bike_id":"40c1b678-207b-4703-b636-1c93bf46347a","system_id":"levelo_inurba_marseille","lat":43.27915,"lon":5.39575,"is_reserved":false,"is_disabled":true,"rental_uris":{"android":"levelo://app?vid=40c1b678-207b-4703-b636-1c93bf46347a","ios":"levelo://app?vid=40c1b678-207b-4703-b636-1c93bf46347a"},"vehicle_type_id":"4","last_reported":1750241487,"current_range_meters":400,"station_id":"ce4bhf92rcd13ifvqf40","pricing_plan_id":"cebpf4jnsgd1na2vs0mg"},{"bike_id":"c5c273ec-f39e-4a5c-b1db-effef6fb1b09","system_id":"levelo_inurba_marseille","lat":43.25817,"lon":5.39436,"is_reserved":false,"is_disabled":true,"rental_uris":{"android":"levelo://app?vid=c5c273ec-f39e-4a5c-b1db-effef6fb1b09","ios":"levelo://app?vid=c5c273ec-f39e-4a5c-b1db-effef6fb1b09"},"vehicle_type_id":"4","last_reported":1750241487,"current_range_meters":400,"station_id":"ce4bhip2rcd13ifvqft0","pricing_plan_id":"cebpf4jnsgd1na2vs0mg"},{"bike_id":"7af6f508-b04f-474d-907a-d9d62993b70a","system_id":"levelo_inurba_marseille","lat":43.30133,"lon":5.374155,"is_reserved":false,"is_disabled":true,"rental_uris":{"android":"levelo://app?vid=7af6f508-b04f-474d-907a-d9d62993b70a","ios":"levelo://app?vid=7af6f508-b04f-474d-907a-d9d62993b70a"},"vehicle_type_id":"4","last_reported":1750241487,"current_range_meters":800,"station_id":"ce4bgs92rcd13ifvqcc0","pricing_plan_id":"cebpf4jnsgd1na2vs0mg"},{"bike_id":"e6940425-e858-4649-ab79-726043ecfe20","system_id":"levelo_inurba_marseille","lat":43.255,"lon":5.37654,"is_reserved":false,"is_disabled":true,"rental_uris":{"android":"levelo://app?vid=e6940425-e858-4649-ab79-726043ecfe20","ios":"levelo://app?vid=e6940425-e858-4649-ab79-726043ecfe20"},"vehicle_type_id":"4","last_reported":1750241487,"current_range_meters":800,"station_id":"ce4bhh12rcd13ifvqff0","pricing_plan_id":"cebpf4jnsgd1na2vs0mg"},{"bike_id":"64c6a2f1-0cc6-4781-8e71-190387541c06","system_id":"levelo_inurba_marseille","lat":43.30376,"lon":5.4249,"is_reserved":false,"is_disabled":true,"rental_uris":{"android":"levelo://app?vid=64c6a2f1-0cc6-4781-8e71-190387541c06","ios":"levelo://app?vid=64c6a2f1-0cc6-4781-8e71-190387541c06"},"vehicle_type_id":"4","last_reported":1750241487,"current_range_meters":800,"station_id":"ce4bhoh2rcd13ifvqh6g","pricing_plan_id":"cebpf4jnsgd1na2vs0mg"},{"bike_id":"27b7dae3-c7ba-4b45-8142-465025aa8358","system_id":"levelo_inurba_marseille","lat":43.28468,"lon":5.35878,"is_reserved":false,"is_disabled":true,"rental_uris":{"android":"levelo://app?vid=27b7dae3-c7ba-4b45-8142-465025aa8358","ios":"levelo://app?vid=27b7dae3-c7ba-4b45-8142-465025aa8358"},"vehicle_type_id":"4","last_reported":1750241487,"current_range_meters":1200,"station_id":"ce4bhah2rcd13ifvqei0","pricing_plan_id":"cebpf4jnsgd1na2vs0mg"},{"bike_id":"9e1a550b-2103-4231-8539-2bfbd351dfad","system_id":"levelo_inurba_marseille","lat":43.25002,"lon":5.38926,"is_reserved":false,"is_disabled":true,"rental_uris":{"android":"levelo://app?vid=9e1a550b-2103-4231-8539-2bfbd351dfad","ios":"levelo://app?vid=9e1a550b-2103-4231-8539-2bfbd351dfad"},"vehicle_type_id":"4","last_reported":1750241487,"current_range_meters":1200,"station_id":"ce4bhgp2rcd13ifvqfd0","pricing_plan_id":"cebpf4jnsgd1na2vs0mg"},{"bike_id":"e0cba5ca-ea7c-4ba9-ac22-bc1c0fe60874","system_id":"levelo_inurba_marseille","lat":43.27207,"lon":5.39174,"is_reserved":false,"is_disabled":true,"rental_uris":{"android":"levelo://app?vid=e0cba5ca-ea7c-4ba9-ac22-bc1c0fe60874","ios":"levelo://app?vid=e0cba5ca-ea7c-4ba9-ac22-bc1c0fe60874"},"vehicle_type_id":"4","last_reported":1750241487,"current_range_meters":1600,"station_id":"ce4bhhp2rcd13ifvqfm0","pricing_plan_id":"cebpf4jnsgd1na2vs0mg"},{"bike_id":"f6c8765f-e9d1-436f-b5a6-2056db7eb640","system_id":"levelo_inurba_marseille","lat":43.30932,"lon":5.40187,"is_reserved":false,"is_disabled":true,"rental_uris":{"android":"levelo://app?vid=f6c8765f-e9d1-436f-b5a6-2056db7eb640","ios":"levelo://app?vid=f6c8765f-e9d1-436f-b5a6-2056db7eb640"},"vehicle_type_id":"4","last_reported":1750241487,"current_range_meters":2000,"station_id":"ce4bgvp2rcd13ifvqct0","pricing_plan_id":"cebpf4jnsgd1na2vs0mg"},{"bike_id":"2395248d-0fef-4e4f-ba8e-f8283c94ae53","system_id":"levelo_inurba_marseille","lat":43.312446,"lon":5.395007,"is_reserved":false,"is_disabled":false,"rental_uris":{"android":"levelo://app?vid=2395248d-0fef-4e4f-ba8e-f8283c94ae53","ios":"levelo://app?vid=2395248d-0fef-4e4f-ba8e-f8283c94ae53"},"vehicle_type_id":"4","last_reported":1750241487,"current_range_meters":2800,"station_id":"","pricing_plan_id":"cebpf4jnsgd1na2vs0mg"},{"bike_id":"47196f00-388f-4b3b-a4de-3dba126cd107","system_id":"levelo_inurba_marseille","lat":43.24373,"lon":5.41157,"is_reserved":false,"is_disabled":false,"rental_uris":{"android":"levelo://app?vid=47196f00-388f-4b3b-a4de-3dba126cd107","ios":"levelo://app?vid=47196f00-388f-4b3b-a4de-3dba126cd107"},"vehicle_type_id":"4","last_reported":1750241487,"current_range_meters":3200,"station_id":"","pricing_plan_id":"cebpf4jnsgd1na2vs0mg"},{"bike_id":"0eb847d7-4aae-442a-857e-27d2ae6bcede","system_id":"levelo_inurba_marseille","lat":43.30139,"lon":5.37413,"is_reserved":false,"is_disabled":false,"rental_uris":{"android":"levelo://app?vid=0eb847d7-4aae-442a-857e-27d2ae6bcede","ios":"levelo://app?vid=0eb847d7-4aae-442a-857e-27d2ae6bcede"},"vehicle_type_id":"4","last_reported":1750241487,"current_range_meters":3200,"station_id":"ce4bgs92rcd13ifvqcc0","pricing_plan_id":"cebpf4jnsgd1na2vs0mg"},{"bike_id":"27bebf30-4f76-4f35-8540-7445444dcf83","system_id":"levelo_inurba_marseille","lat":43.28619,"lon":5.35101,"is_reserved":false,"is_disabled":false,"rental_uris":{"android":"levelo://app?vid=27bebf30-4f76-4f35-8540-7445444dcf83","ios":"levelo://app?vid=27bebf30-4f76-4f35-8540-7445444dcf83"},"vehicle_type_id":"4","last_reported":1750241487,"current_range_meters":3600,"station_id":"ce4bhch2rcd13ifvqeug","pricing_plan_id":"cebpf4jnsgd1na2vs0mg"},{"bike_id":"7d5a1ef5-c109-4977-b182-4addb0e38b1d","system_id":"levelo_inurba_marseille","lat":43.30634,"lon":5.37288,"is_reserved":false,"is_disabled":false,"rental_uris":{"android":"levelo://app?vid=7d5a1ef5-c109-4977-b182-4addb0e38b1d","ios":"levelo://app?vid=7d5a1ef5-c109-4977-b182-4addb0e38b1d"},"vehicle_type_id":"4","last_reported":1750241487,"current_range_meters":4000,"station_id":"","pricing_plan_id":"cebpf4jnsgd1na2vs0mg"},{"bike_id":"6ec558ba-c731-416c-ba5c-d13c9ceed96e","system_id":"levelo_inurba_marseille","lat":43.31325,"lon":5.39692,"is_reserved":false,"is_disabled":false,"rental_uris":{"android":"levelo://app?vid=6ec558ba-c731-416c-ba5c-d13c9ceed96e","ios":"levelo://app?vid=6ec558ba-c731-416c-ba5c-d13c9ceed96e"},"vehicle_type_id":"4","last_reported":1750241487,"current_range_meters":4000,"station_id":"ce4bgvp2rcd13ifvqcu0","pricing_plan_id":"cebpf4jnsgd1na2vs0mg"},{"bike_id":"fe7021d3-c26f-4841-b8ab-3be67b73a649","system_id":"levelo_inurba_marseille","lat":43.28407,"lon":5.34986,"is_reserved":false,"is_disabled":false,"rental_uris":{"android":"levelo://app?vid=fe7021d3-c26f-4841-b8ab-3be67b73a649","ios":"levelo://app?vid=fe7021d3-c26f-4841-b8ab-3be67b73a649"},"vehicle_type_id":"4","last_reported":1750241487,"current_range_meters":4000,"station_id":"ce4bhbh2rcd13ifvqepg","pricing_plan_id":"cebpf4jnsgd1na2vs0mg"},{"bike_id":"7d89620d-b629-419b-8e04-d62e4abf71fc","system_id":"levelo_inurba_marseille","lat":43.2997,"lon":5.38489,"is_reserved":false,"is_disabled":false,"rental_uris":{"android":"levelo://app?vid=7d89620d-b629-419b-8e04-d62e4abf71fc","ios":"levelo://app?vid=7d89620d-b629-419b-8e04-d62e4abf71fc"},"vehicle_type_id":"4","last_reported":1750241487,"current_range_meters":4400,"station_id":"ce4bgj92rcd13ifvqbd0","pricing_plan_id":"cebpf4jnsgd1na2vs0mg"},{"bike_id":"7a5c5fcc-95ae-4f03-9774-df2adf3ed456","system_id":"levelo_inurba_marseille","lat":43.29214,"lon":5.36062,"is_reserved":false,"is_disabled":false,"rental_uris":{"android":"levelo://app?vid=7a5c5fcc-95ae-4f03-9774-df2adf3ed456","ios":"levelo://app?vid=7a5c5fcc-95ae-4f03-9774-df2adf3ed456"},"vehicle_type_id":"4","last_reported":1750241487,"current_range_meters":4400,"station_id":"ce4bhbh2rcd13ifvqeqg","pricing_plan_id":"cebpf4jnsgd1na2vs0mg"},{"bike_id":"bb75bc41-75fc-4706-be37-ce3f1c15618a","system_id":"levelo_inurba_marseille","lat":43.25001,"lon":5.38923,"is_reserved":false,"is_disabled":false,"rental_uris":{"android":"levelo://app?vid=bb75bc41-75fc-4706-be37-ce3f1c15618a","ios":"levelo://app?vid=bb75bc41-75fc-4706-be37-ce3f1c15618a"},"vehicle_type_id":"4","last_reported":1750241487,"current_range_meters":4400,"station_id":"ce4bhgp2rcd13ifvqfd0","pricing_plan_id":"cebpf4jnsgd1na2vs0mg"},{"bike_id":"56e6444b-dc4e-47b1-ba84-0c86b4d5ed6c","system_id":"levelo_inurba_marseille","lat":43.250843,"lon":5.395263,"is_reserved":false,"is_disabled":false,"rental_uris":{"android":"levelo://app?vid=56e6444b-dc4e-47b1-ba84-0c86b4d5ed6c","ios":"levelo://app?vid=56e6444b-dc4e-47b1-ba84-0c86b4d5ed6c"},"vehicle_type_id":"4","last_reported":1750241487,"current_range_meters":4400,"station_id":"ce4bhm12rcd13ifvqgkg","pricing_plan_id":"cebpf4jnsgd1na2vs0mg"},{"bike_id":"8309d1b0-c7e8-4d42-a5d2-ecc8f1793dbb","system_id":"levelo_inurba_marseille","lat":43.25072,"lon":5.3952,"is_reserved":false,"is_disabled":false,"rental_uris":{"android":"levelo://app?vid=8309d1b0-c7e8-4d42-a5d2-ecc8f1793dbb","ios":"levelo://app?vid=8309d1b0-c7e8-4d42-a5d2-ecc8f1793dbb"},"vehicle_type_id":"4","last_reported":1750241487,"current_range_meters":4400,"station_id":"ce4bhm12rcd13ifvqgkg","pricing_plan_id":"cebpf4jnsgd1na2vs0mg"},{"bike_id":"8fb703ab-6a4d-426a-8ab7-0475ff1a3bd6","system_id":"levelo_inurba_marseille","lat":43.27494,"lon":5.42463,"is_reserved":false,"is_disabled":false,"rental_uris":{"android":"levelo://app?vid=8fb703ab-6a4d-426a-8ab7-0475ff1a3bd6","ios":"levelo://app?vid=8fb703ab-6a4d-426a-8ab7-0475ff1a3bd6"},"vehicle_type_id":"4","last_reported":1750241487,"current_range_meters":4400,"station_id":"ce4bhn92rcd13ifvqgrg","pricing_plan_id":"cebpf4jnsgd1na2vs0mg"},{"bike_id":"1c8dd34b-9d03-492f-aa85-8944da27fde3","system_id":"levelo_inurba_marseille","lat":43.28606,"lon":5.37064,"is_reserved":false,"is_disabled":false,"rental_uris":{"android":"levelo://app?vid=1c8dd34b-9d03-492f-aa85-8944da27fde3","ios":"levelo://app?vid=1c8dd34b-9d03-492f-aa85-8944da27fde3"},"vehicle_type_id":"4","last_reported":1750241487,"current_range_meters":4400,"station_id":"ce4bht12rcd13ifvqi60","pricing_plan_id":"cebpf4jnsgd1na2vs0mg"},{"bike_id":"4dee0610-9597-4cf4-a376-9698b0d733be","system_id":"levelo_inurba_marseille","lat":43.30949,"lon":5.39033,"is_reserved":false,"is_disabled":false,"rental_uris":{"android":"levelo://app?vid=4dee0610-9597-4cf4-a376-9698b0d733be","ios":"levelo://app?vid=4dee0610-9597-4cf4-a376-9698b0d733be"},"vehicle_type_id":"4","last_reported":1750241487,"current_range_meters":4800,"station_id":"ce4bgup2rcd13ifvqco0","pricing_plan_id":"cebpf4jnsgd1na2vs0mg"},{"bike_id":"5be70e50-8a84-480d-a1dc-da0142a6105a","system_id":"levelo_inurba_marseille","lat":43.297791,"lon":5.361059,"is_reserved":false,"is_disabled":false,"rental_uris":{"android":"levelo://app?vid=5be70e50-8a84-480d-a1dc-da0142a6105a","ios":"levelo://app?vid=5be70e50-8a84-480d-a1dc-da0142a6105a"},"vehicle_type_id":"4","last_reported":1750241487,"current_range_meters":5600,"station_id":"","pricing_plan_id":"cebpf4jnsgd1na2vs0mg"},{"bike_id":"eeb459b8-4584-4e2d-922b-7a379c3ca542","system_id":"levelo_inurba_marseille","lat":43.29272,"lon":5.37616,"is_reserved":false,"is_disabled":false,"rental_uris":{"android":"levelo://app?vid=eeb459b8-4584-4e2d-922b-7a379c3ca542","ios":"levelo://app?vid=eeb459b8-4584-4e2d-922b-7a379c3ca542"},"vehicle_type_id":"4","last_reported":1750241487,"current_range_meters":5600,"station_id":"ce4bgi12rcd13ifvqb80","pricing_plan_id":"cebpf4jnsgd1na2vs0mg"},{"bike_id":"d496b97b-555c-49eb-8a05-039d1120dc3d","system_id":"levelo_inurba_marseille","lat":43.31345,"lon":5.38494,"is_reserved":false,"is_disabled":false,"rental_uris":{"android":"levelo://app?vid=d496b97b-555c-49eb-8a05-039d1120dc3d","ios":"levelo://app?vid=d496b97b-555c-49eb-8a05-039d1120dc3d"},"vehicle_type_id":"4","last_reported":1750241487,"current_range_meters":5600,"station_id":"ce4bgt92rcd13ifvqcf0","pricing_plan_id":"cebpf4jnsgd1na2vs0mg"},{"bike_id":"3580f6e7-a810-4b64-9497-99e5d7d4dba7","system_id":"levelo_inurba_marseille","lat":43.29384,"lon":5.37846,"is_reserved":false,"is_disabled":false,"rental_uris":{"android":"levelo://app?vid=3580f6e7-a810-4b64-9497-99e5d7d4dba7","ios":"levelo://app?vid=3580f6e7-a810-4b64-9497-99e5d7d4dba7"},"vehicle_type_id":"4","last_reported":1750241487,"current_range_meters":6000,"station_id":"ce4bgjh2rcd13ifvqbf0","pricing_plan_id":"cebpf4jnsgd1na2vs0mg"},{"bike_id":"8b346b07-2a04-4aca-adcb-d9d0606aa7e0","system_id":"levelo_inurba_marseille","lat":43.30588,"lon":5.37232,"is_reserved":false,"is_disabled":false,"rental_uris":{"android":"levelo://app?vid=8b346b07-2a04-4aca-adcb-d9d0606aa7e0","ios":"levelo://app?vid=8b346b07-2a04-4aca-adcb-d9d0606aa7e0"},"vehicle_type_id":"4","last_reported":1750241487,"current_range_meters":6000,"station_id":"ce4bgqh2rcd13ifvqc4g","pricing_plan_id":"cebpf4jnsgd1na2vs0mg"},{"bike_id":"4b7ba74f-2dbc-4525-aaa2-dfc1b963c0f8","system_id":"levelo_inurba_marseille","lat":43.27676,"lon":5.38881,"is_reserved":false,"is_disabled":false,"rental_uris":{"android":"levelo://app?vid=4b7ba74f-2dbc-4525-aaa2-dfc1b963c0f8","ios":"levelo://app?vid=4b7ba74f-2dbc-4525-aaa2-dfc1b963c0f8"},"vehicle_type_id":"4","last_reported":1750241487,"current_range_meters":6000,"station_id":"ce4bhi12rcd13ifvqfo0","pricing_plan_id":"cebpf4jnsgd1na2vs0mg"},{"bike_id":"6ba80795-26da-43fa-ab60-6831760385ff","system_id":"levelo_inurba_marseille","lat":43.32574,"lon":5.41962,"is_reserved":false,"is_disabled":false,"rental_uris":{"android":"levelo://app?vid=6ba80795-26da-43fa-ab60-6831760385ff","ios":"levelo://app?vid=6ba80795-26da-43fa-ab60-6831760385ff"},"vehicle_type_id":"4","last_reported":1750241487,"current_range_meters":6400,"station_id":"","pricing_plan_id":"cebpf4jnsgd1na2vs0mg"},{"bike_id":"87394165-3e49-419f-8966-8dbecf60f272","system_id":"levelo_inurba_marseille","lat":43.29961,"lon":5.38498,"is_reserved":false,"is_disabled":false,"rental_uris":{"android":"levelo://app?vid=87394165-3e49-419f-8966-8dbecf60f272","ios":"levelo://app?vid=87394165-3e49-419f-8966-8dbecf60f272"},"vehicle_type_id":"4","last_reported":1750241487,"current_range_meters":6400,"station_id":"ce4bgj92rcd13ifvqbd0","pricing_plan_id":"cebpf4jnsgd1na2vs0mg"},{"bike_id":"e03a6d42-f362-4878-ab56-4b5afba95b0c","system_id":"levelo_inurba_marseille","lat":43.31504,"lon":5.36893,"is_reserved":false,"is_disabled":false,"rental_uris":{"android":"levelo://app?vid=e03a6d42-f362-4878-ab56-4b5afba95b0c","ios":"levelo://app?vid=e03a6d42-f362-4878-ab56-4b5afba95b0c"},"vehicle_type_id":"4","last_reported":1750241487,"current_range_meters":6800,"station_id":"","pricing_plan_id":"cebpf4jnsgd1na2vs0mg"},{"bike_id":"ae4a7bb6-19ec-4528-ba2f-4c58721d2ee8","system_id":"levelo_inurba_marseille","lat":43.23336,"lon":5.43601,"is_reserved":false,"is_disabled":false,"rental_uris":{"android":"levelo://app?vid=ae4a7bb6-19ec-4528-ba2f-4c58721d2ee8","ios":"levelo://app?vid=ae4a7bb6-19ec-4528-ba2f-4c58721d2ee8"},"vehicle_type_id":"4","last_reported":1750241487,"current_range_meters":6800,"station_id":"","pricing_plan_id":"cebpf4jnsgd1na2vs0mg"},{"bike_id":"8bfd941c-c491-4c9a-b10f-9d003e3c8e38","system_id":"levelo_inurba_marseille","lat":43.29842,"lon":5.36275,"is_reserved":false,"is_disabled":false,"rental_uris":{"android":"levelo://app?vid=8bfd941c-c491-4c9a-b10f-9d003e3c8e38","ios":"levelo://app?vid=8bfd941c-c491-4c9a-b10f-9d003e3c8e38"},"vehicle_type_id":"4","last_reported":1750241487,"current_range_meters":6800,"station_id":"ce4bgpp2rcd13ifvqc3g","pricing_plan_id":"cebpf4jnsgd1na2vs0mg"},{"bike_id":"af14ea28-0fba-43e2-83b4-412db638dd49","system_id":"levelo_inurba_marseille","lat":43.31329,"lon":5.39695,"is_reserved":false,"is_disabled":false,"rental_uris":{"android":"levelo://app?vid=af14ea28-0fba-43e2-83b4-412db638dd49","ios":"levelo://app?vid=af14ea28-0fba-43e2-83b4-412db638dd49"},"vehicle_type_id":"4","last_reported":1750241487,"current_range_meters":6800,"station_id":"ce4bgvp2rcd13ifvqcu0","pricing_plan_id":"cebpf4jnsgd1na2vs0mg"},{"bike_id":"27ebd402-cfdc-4bb3-a6b2-e6d30c62d857","system_id":"levelo_inurba_marseille","lat":43.28479,"lon":5.38418,"is_reserved":false,"is_disabled":false,"rental_uris":{"android":"levelo://app?vid=27ebd402-cfdc-4bb3-a6b2-e6d30c62d857","ios":"levelo://app?vid=27ebd402-cfdc-4bb3-a6b2-e6d30c62d857"},"vehicle_type_id":"4","last_reported":1750241487,"current_range_meters":6800,"station_id":"ce4bh512rcd13ifvqe3g","pricing_plan_id":"cebpf4jnsgd1na2vs0mg"},{"bike_id":"611c1a47-493f-486d-9c18-0854e4a83577","system_id":"levelo_inurba_marseille","lat":43.2825,"lon":5.35077,"is_reserved":false,"is_disabled":false,"rental_uris":{"android":"levelo://app?vid=611c1a47-493f-486d-9c18-0854e4a83577","ios":"levelo://app?vid=611c1a47-493f-486d-9c18-0854e4a83577"},"vehicle_type_id":"4","last_reported":1750241487,"current_range_meters":6800,"station_id":"ce4bhbp2rcd13ifvqerg","pricing_plan_id":"cebpf4jnsgd1na2vs0mg"},{"bike_id":"857c245f-8ab5-4179-9a16-97db6aa6bebe","system_id":"levelo_inurba_marseille","lat":43.23147,"lon":5.43718,"is_reserved":false,"is_disabled":false,"rental_uris":{"android":"levelo://app?vid=857c245f-8ab5-4179-9a16-97db6aa6bebe","ios":"levelo://app?vid=857c245f-8ab5-4179-9a16-97db6aa6bebe"},"vehicle_type_id":"4","last_reported":1750241487,"current_range_meters":6800,"station_id":"ce4bhmp2rcd13ifvqgog","pricing_plan_id":"cebpf4jnsgd1na2vs0mg"},{"bike_id":"087da415-3c64-42c0-85c9-0c91b9a772c3","system_id":"levelo_inurba_marseille","lat":43.29789,"lon":5.39347,"is_reserved":false,"is_disabled":false,"rental_uris":{"android":"levelo://app?vid=087da415-3c64-42c0-85c9-0c91b9a772c3","ios":"levelo://app?vid=087da415-3c64-42c0-85c9-0c91b9a772c3"},"vehicle_type_id":"4","last_reported":1750241487,"current_range_meters":6800,"station_id":"chh1huq6cuj3fo74tm60","pricing_plan_id":"cebpf4jnsgd1na2vs0mg"},{"bike_id":"4f40d319-ac49-41f6-a752-ac69cc32d84f","system_id":"levelo_inurba_marseille","lat":43.29373,"lon":5.37834,"is_reserved":false,"is_disabled":false,"rental_uris":{"android":"levelo://app?vid=4f40d319-ac49-41f6-a752-ac69cc32d84f","ios":"levelo://app?vid=4f40d319-ac49-41f6-a752-ac69cc32d84f"},"vehicle_type_id":"4","last_reported":1750241487,"current_range_meters":7200,"station_id":"ce4bgjh2rcd13ifvqbf0","pricing_plan_id":"cebpf4jnsgd1na2vs0mg"},{"bike_id":"3b136301-d892-4bf1-aa15-695ec30464ca","system_id":"levelo_inurba_marseille","lat":43.321,"lon":5.36743,"is_reserved":false,"is_disabled":false,"rental_uris":{"android":"levelo://app?vid=3b136301-d892-4bf1-aa15-695ec30464ca","ios":"levelo://app?vid=3b136301-d892-4bf1-aa15-695ec30464ca"},"vehicle_type_id":"4","last_reported":1750241487,"current_range_meters":7200,"station_id":"ce4bhrh2rcd13ifvqhug","pricing_plan_id":"cebpf4jnsgd1na2vs0mg"},{"bike_id":"599edd48-0a29-4db2-9ab4-b98d5514d266","system_id":"levelo_inurba_marseille","lat":43.313583,"lon":5.367214,"is_reserved":false,"is_disabled":false,"rental_uris":{"android":"levelo://app?vid=599edd48-0a29-4db2-9ab4-b98d5514d266","ios":"levelo://app?vid=599edd48-0a29-4db2-9ab4-b98d5514d266"},"vehicle_type_id":"4","last_reported":1750241487,"current_range_meters":8000,"station_id":"ce4bgr92rcd13ifvqc6g","pricing_plan_id":"cebpf4jnsgd1na2vs0mg"},{"bike_id":"fb7f0fca-328c-4590-8315-5fcf92aa068d","system_id":"levelo_inurba_marseille","lat":43.32364,"lon":5.38876,"is_reserved":false,"is_disabled":false,"rental_uris":{"android":"levelo://app?vid=fb7f0fca-328c-4590-8315-5fcf92aa068d","ios":"levelo://app?vid=fb7f0fca-328c-4590-8315-5fcf92aa068d"},"vehicle_type_id":"4","last_reported":1750241487,"current_range_meters":8000,"station_id":"ce4bhqp2rcd13ifvqhog","pricing_plan_id":"cebpf4jnsgd1na2vs0mg"},{"bike_id":"c67b9bb0-536d-4d3b-834a-9242964eb689","system_id":"levelo_inurba_marseille","lat":43.32109,"lon":5.36773,"is_reserved":false,"is_disabled":false,"rental_uris":{"android":"levelo://app?vid=c67b9bb0-536d-4d3b-834a-9242964eb689","ios":"levelo://app?vid=c67b9bb0-536d-4d3b-834a-9242964eb689"},"vehicle_type_id":"4","last_reported":1750241487,"current_range_meters":8000,"station_id":"ce4bhrh2rcd13ifvqhug","pricing_plan_id":"cebpf4jnsgd1na2vs0mg"},{"bike_id":"ae8524c6-7b10-43ef-8ed4-b8035f1213c1","system_id":"levelo_inurba_marseille","lat":43.33425,"lon":5.4004,"is_reserved":false,"is_disabled":false,"rental_uris":{"android":"levelo://app?vid=ae8524c6-7b10-43ef-8ed4-b8035f1213c1","ios":"levelo://app?vid=ae8524c6-7b10-43ef-8ed4-b8035f1213c1"},"vehicle_type_id":"4","last_reported":1750241487,"current_range_meters":8400,"station_id":"","pricing_plan_id":"cebpf4jnsgd1na2vs0mg"},{"bike_id":"13603010-4ba6-45d8-8742-faf7a41367fa","system_id":"levelo_inurba_marseille","lat":43.29199,"lon":5.383,"is_reserved":false,"is_disabled":false,"rental_uris":{"android":"levelo://app?vid=13603010-4ba6-45d8-8742-faf7a41367fa","ios":"levelo://app?vid=13603010-4ba6-45d8-8742-faf7a41367fa"},"vehicle_type_id":"4","last_reported":1750241487,"current_range_meters":8400,"station_id":"","pricing_plan_id":"cebpf4jnsgd1na2vs0mg"},{"bike_id":"a3c71096-a081-440f-9051-2c1952aac647","system_id":"levelo_inurba_marseille","lat":43.31206,"lon":5.36853,"is_reserved":false,"is_disabled":false,"rental_uris":{"android":"levelo://app?vid=a3c71096-a081-440f-9051-2c1952aac647","ios":"levelo://app?vid=a3c71096-a081-440f-9051-2c1952aac647"},"vehicle_type_id":"4","last_reported":1750241487,"current_range_meters":8400,"station_id":"ce4bgl92rcd13ifvqbq0","pricing_plan_id":"cebpf4jnsgd1na2vs0mg"},{"bike_id":"820df921-69fc-426c-b325-82acf4918bb0","system_id":"levelo_inurba_marseille","lat":43.30604,"lon":5.372023,"is_reserved":false,"is_disabled":false,"rental_uris":{"android":"levelo://app?vid=820df921-69fc-426c-b325-82acf4918bb0","ios":"levelo://app?vid=820df921-69fc-426c-b325-82acf4918bb0"},"vehicle_type_id":"4","last_reported":1750241487,"current_range_meters":8400,"station_id":"ce4bgqh2rcd13ifvqc4g","pricing_plan_id":"cebpf4jnsgd1na2vs0mg"},{"bike_id":"8952fcea-34cf-4372-8b51-bbeb0fed4148","system_id":"levelo_inurba_marseille","lat":43.31379,"lon":5.36715,"is_reserved":false,"is_disabled":false,"rental_uris":{"android":"levelo://app?vid=8952fcea-34cf-4372-8b51-bbeb0fed4148","ios":"levelo://app?vid=8952fcea-34cf-4372-8b51-bbeb0fed4148"},"vehicle_type_id":"4","last_reported":1750241487,"current_range_meters":8400,"station_id":"ce4bgr92rcd13ifvqc6g","pricing_plan_id":"cebpf4jnsgd1na2vs0mg"},{"bike_id":"0236841f-d315-4698-8c72-cd71d700f9c8","system_id":"levelo_inurba_marseille","lat":43.31697,"lon":5.40452,"is_reserved":false,"is_disabled":false,"rental_uris":{"android":"levelo://app?vid=0236841f-d315-4698-8c72-cd71d700f9c8","ios":"levelo://app?vid=0236841f-d315-4698-8c72-cd71d700f9c8"},"vehicle_type_id":"4","last_reported":1750241487,"current_range_meters":8400,"station_id":"ce4bh012rcd13ifvqd00","pricing_plan_id":"cebpf4jnsgd1na2vs0mg"},{"bike_id":"5181175a-8ffd-4ac1-a40e-7d1f29686248","system_id":"levelo_inurba_marseille","lat":43.27054,"lon":5.40263,"is_reserved":false,"is_disabled":false,"rental_uris":{"android":"levelo://app?vid=5181175a-8ffd-4ac1-a40e-7d1f29686248","ios":"levelo://app?vid=5181175a-8ffd-4ac1-a40e-7d1f29686248"},"vehicle_type_id":"4","last_reported":1750241487,"current_range_meters":8400,"station_id":"ce4bhk92rcd13ifvqgc0","pricing_plan_id":"cebpf4jnsgd1na2vs0mg"},{"bike_id":"6f3a0055-18ce-456d-886f-5dd53c809fc5","system_id":"levelo_inurba_marseille","lat":43.26769,"lon":5.42537,"is_reserved":false,"is_disabled":false,"rental_uris":{"android":"levelo://app?vid=6f3a0055-18ce-456d-886f-5dd53c809fc5","ios":"levelo://app?vid=6f3a0055-18ce-456d-886f-5dd53c809fc5"},"vehicle_type_id":"4","last_reported":1750241487,"current_range_meters":8800,"station_id":"","pricing_plan_id":"cebpf4jnsgd1na2vs0mg"},{"bike_id":"a6826c5a-c2ad-4cbf-99a2-79a5bb91cdb7","system_id":"levelo_inurba_marseille","lat":43.30923,"lon":5.36863,"is_reserved":false,"is_disabled":false,"rental_uris":{"android":"levelo://app?vid=a6826c5a-c2ad-4cbf-99a2-79a5bb91cdb7","ios":"levelo://app?vid=a6826c5a-c2ad-4cbf-99a2-79a5bb91cdb7"},"vehicle_type_id":"4","last_reported":1750241487,"current_range_meters":8800,"station_id":"ce4bgn92rcd13ifvqbvg","pricing_plan_id":"cebpf4jnsgd1na2vs0mg"},{"bike_id":"788f6fe4-44c1-42c0-9956-52135b1e4ff5","system_id":"levelo_inurba_marseille","lat":43.29774,"lon":5.37093,"is_reserved":false,"is_disabled":false,"rental_uris":{"android":"levelo://app?vid=788f6fe4-44c1-42c0-9956-52135b1e4ff5","ios":"levelo://app?vid=788f6fe4-44c1-42c0-9956-52135b1e4ff5"},"vehicle_type_id":"4","last_reported":1750241487,"current_range_meters":8800,"station_id":"ce4bgop2rcd13ifvqc1g","pricing_plan_id":"cebpf4jnsgd1na2vs0mg"},{"bike_id":"0c16fa7a-87bf-462a-bbfa-4a5736265631","system_id":"levelo_inurba_marseille","lat":43.30547,"lon":5.36528,"is_reserved":false,"is_disabled":false,"rental_uris":{"android":"levelo://app?vid=0c16fa7a-87bf-462a-bbfa-4a5736265631","ios":"levelo://app?vid=0c16fa7a-87bf-462a-bbfa-4a5736265631"},"vehicle_type_id":"4","last_reported":1750241487,"current_range_meters":8800,"station_id":"ce4bgs12rcd13ifvqcag","pricing_plan_id":"cebpf4jnsgd1na2vs0mg"},{"bike_id":"bd7c10e8-40d7-4839-819e-5b6b09296a4e","system_id":"levelo_inurba_marseille","lat":43.29872,"lon":5.38906,"is_reserved":false,"is_disabled":false,"rental_uris":{"android":"levelo://app?vid=bd7c10e8-40d7-4839-819e-5b6b09296a4e","ios":"levelo://app?vid=bd7c10e8-40d7-4839-819e-5b6b09296a4e"},"vehicle_type_id":"4","last_reported":1750241487,"current_range_meters":8800,"station_id":"ce4bh392rcd13ifvqdl0","pricing_plan_id":"cebpf4jnsgd1na2vs0mg"},{"bike_id":"e480a42a-ae46-4c73-b5bc-592cd4a5b15a","system_id":"levelo_inurba_marseille","lat":43.24385,"lon":5.37066,"is_reserved":false,"is_disabled":false,"rental_uris":{"android":"levelo://app?vid=e480a42a-ae46-4c73-b5bc-592cd4a5b15a","ios":"levelo://app?vid=e480a42a-ae46-4c73-b5bc-592cd4a5b15a"},"vehicle_type_id":"4","last_reported":1750241487,"current_range_meters":8800,"station_id":"ce4bhhh2rcd13ifvqfk0","pricing_plan_id":"cebpf4jnsgd1na2vs0mg"},{"bike_id":"b5002037-f4b0-4634-8bc4-796d0c74810e","system_id":"levelo_inurba_marseille","lat":43.24378,"lon":5.41149,"is_reserved":false,"is_disabled":false,"rental_uris":{"android":"levelo://app?vid=b5002037-f4b0-4634-8bc4-796d0c74810e","ios":"levelo://app?vid=b5002037-f4b0-4634-8bc4-796d0c74810e"},"vehicle_type_id":"4","last_reported":1750241487,"current_range_meters":9200,"station_id":"","pricing_plan_id":"cebpf4jnsgd1na2vs0mg"},{"bike_id":"94bcc58f-7023-41cb-871b-3595da7eac8b","system_id":"levelo_inurba_marseille","lat":43.32391,"lon":5.3821,"is_reserved":false,"is_disabled":false,"rental_uris":{"android":"levelo://app?vid=94bcc58f-7023-41cb-871b-3595da7eac8b","ios":"levelo://app?vid=94bcc58f-7023-41cb-871b-3595da7eac8b"},"vehicle_type_id":"4","last_reported":1750241487,"current_range_meters":9200,"station_id":"","pricing_plan_id":"cebpf4jnsgd1na2vs0mg"},{"bike_id":"3561babf-0bf4-4ae4-b838-e54edaaa378b","system_id":"levelo_inurba_marseille","lat":43.30565,"lon":5.38154,"is_reserved":false,"is_disabled":false,"rental_uris":{"android":"levelo://app?vid=3561babf-0bf4-4ae4-b838-e54edaaa378b","ios":"levelo://app?vid=3561babf-0bf4-4ae4-b838-e54edaaa378b"},"vehicle_type_id":"4","last_reported":1750241487,"current_range_meters":9200,"station_id":"","pricing_plan_id":"cebpf4jnsgd1na2vs0mg"},{"bike_id":"fef203aa-c49d-4e52-b64f-044341d7d7e3","system_id":"levelo_inurba_marseille","lat":43.30126,"lon":5.37408,"is_reserved":false,"is_disabled":false,"rental_uris":{"android":"levelo://app?vid=fef203aa-c49d-4e52-b64f-044341d7d7e3","ios":"levelo://app?vid=fef203aa-c49d-4e52-b64f-044341d7d7e3"},"vehicle_type_id":"4","last_reported":1750241487,"current_range_meters":9200,"station_id":"ce4bgs92rcd13ifvqcc0","pricing_plan_id":"cebpf4jnsgd1na2vs0mg"},{"bike_id":"4278b860-275a-4eb4-a960-faebca051967","system_id":"levelo_inurba_marseille","lat":43.31504,"lon":5.37298,"is_reserved":false,"is_disabled":false,"rental_uris":{"android":"levelo://app?vid=4278b860-275a-4eb4-a960-faebca051967","ios":"levelo://app?vid=4278b860-275a-4eb4-a960-faebca051967"},"vehicle_type_id":"4","last_reported":1750241487,"current_range_meters":9200,"station_id":"ce4bgt12rcd13ifvqcd0","pricing_plan_id":"cebpf4jnsgd1na2vs0mg"},{"bike_id":"300ca1f9-c608-4982-82af-3f268e1aada5","system_id":"levelo_inurba_marseille","lat":43.30541,"lon":5.36531,"is_reserved":false,"is_disabled":false,"rental_uris":{"android":"levelo://app?vid=300ca1f9-c608-4982-82af-3f268e1aada5","ios":"levelo://app?vid=300ca1f9-c608-4982-82af-3f268e1aada5"},"vehicle_type_id":"4","last_reported":1750241487,"current_range_meters":9600,"station_id":"ce4bgs12rcd13ifvqcag","pricing_plan_id":"cebpf4jnsgd1na2vs0mg"},{"bike_id":"849b1820-c4f5-42d0-a024-14baa0541ee0","system_id":"levelo_inurba_marseille","lat":43.30945,"lon":5.39028,"is_reserved":false,"is_disabled":false,"rental_uris":{"android":"levelo://app?vid=849b1820-c4f5-42d0-a024-14baa0541ee0","ios":"levelo://app?vid=849b1820-c4f5-42d0-a024-14baa0541ee0"},"vehicle_type_id":"4","last_reported":1750241487,"current_range_meters":9600,"station_id":"ce4bgup2rcd13ifvqco0","pricing_plan_id":"cebpf4jnsgd1na2vs0mg"},{"bike_id":"cbd4c147-dfb2-4a53-959f-84d2337345cf","system_id":"levelo_inurba_marseille","lat":43.2679,"lon":5.39413,"is_reserved":false,"is_disabled":false,"rental_uris":{"android":"levelo://app?vid=cbd4c147-dfb2-4a53-959f-84d2337345cf","ios":"levelo://app?vid=cbd4c147-dfb2-4a53-959f-84d2337345cf"},"vehicle_type_id":"4","last_reported":1750241487,"current_range_meters":9600,"station_id":"ce4bhh12rcd13ifvqfg0","pricing_plan_id":"cebpf4jnsgd1na2vs0mg"},{"bike_id":"76a2cb98-224c-4a20-9528-fd104d864420","system_id":"levelo_inurba_marseille","lat":43.24176,"lon":5.39734,"is_reserved":false,"is_disabled":false,"rental_uris":{"android":"levelo://app?vid=76a2cb98-224c-4a20-9528-fd104d864420","ios":"levelo://app?vid=76a2cb98-224c-4a20-9528-fd104d864420"},"vehicle_type_id":"4","last_reported":1750241487,"current_range_meters":9600,"station_id":"ce4bhn12rcd13ifvqgpg","pricing_plan_id":"cebpf4jnsgd1na2vs0mg"},{"bike_id":"ab5813be-9e79-4674-aaf5-4eb3469f532a","system_id":"levelo_inurba_marseille","lat":43.30127,"lon":5.38043,"is_reserved":false,"is_disabled":false,"rental_uris":{"android":"levelo://app?vid=ab5813be-9e79-4674-aaf5-4eb3469f532a","ios":"levelo://app?vid=ab5813be-9e79-4674-aaf5-4eb3469f532a"},"vehicle_type_id":"4","last_reported":1750241487,"current_range_meters":10000,"station_id":"ce4bgjp2rcd13ifvqbh0","pricing_plan_id":"cebpf4jnsgd1na2vs0mg"},{"bike_id":"0735ef8f-c526-4b7c-842a-40f2241dffb7","system_id":"levelo_inurba_marseille","lat":43.30139,"lon":5.37422,"is_reserved":false,"is_disabled":false,"rental_uris":{"android":"levelo://app?vid=0735ef8f-c526-4b7c-842a-40f2241dffb7","ios":"levelo://app?vid=0735ef8f-c526-4b7c-842a-40f2241dffb7"},"vehicle_type_id":"4","last_reported":1750241487,"current_range_meters":10000,"station_id":"ce4bgs92rcd13ifvqcc0","pricing_plan_id":"cebpf4jnsgd1na2vs0mg"},{"bike_id":"1ba0c422-e2d0-42e2-b94c-581514c3d51e","system_id":"levelo_inurba_marseille","lat":43.316963,"lon":5.404664,"is_reserved":false,"is_disabled":false,"rental_uris":{"android":"levelo://app?vid=1ba0c422-e2d0-42e2-b94c-581514c3d51e","ios":"levelo://app?vid=1ba0c422-e2d0-42e2-b94c-581514c3d51e"},"vehicle_type_id":"4","last_reported":1750241487,"current_range_meters":10000,"station_id":"ce4bh012rcd13ifvqd00","pricing_plan_id":"cebpf4jnsgd1na2vs0mg"},{"bike_id":"68e35e85-ff51-404e-b9d0-ec68e9447c24","system_id":"levelo_inurba_marseille","lat":43.290063,"lon":5.3814,"is_reserved":false,"is_disabled":false,"rental_uris":{"android":"levelo://app?vid=68e35e85-ff51-404e-b9d0-ec68e9447c24","ios":"levelo://app?vid=68e35e85-ff51-404e-b9d0-ec68e9447c24"},"vehicle_type_id":"4","last_reported":1750241487,"current_range_meters":10000,"station_id":"ce4bh4p2rcd13ifvqe1g","pricing_plan_id":"cebpf4jnsgd1na2vs0mg"},{"bike_id":"3796ad63-3d1c-4d8a-89ff-ffee322ba259","system_id":"levelo_inurba_marseille","lat":43.2501,"lon":5.38935,"is_reserved":false,"is_disabled":false,"rental_uris":{"android":"levelo://app?vid=3796ad63-3d1c-4d8a-89ff-ffee322ba259","ios":"levelo://app?vid=3796ad63-3d1c-4d8a-89ff-ffee322ba259"},"vehicle_type_id":"4","last_reported":1750241487,"current_range_meters":10000,"station_id":"ce4bhgp2rcd13ifvqfd0","pricing_plan_id":"cebpf4jnsgd1na2vs0mg"},{"bike_id":"83cfee7d-980d-496a-98c8-745c7e44c68d","system_id":"levelo_inurba_marseille","lat":43.32894,"lon":5.39093,"is_reserved":false,"is_disabled":false,"rental_uris":{"android":"levelo://app?vid=83cfee7d-980d-496a-98c8-745c7e44c68d","ios":"levelo://app?vid=83cfee7d-980d-496a-98c8-745c7e44c68d"},"vehicle_type_id":"4","last_reported":1750241487,"current_range_meters":10800,"station_id":"","pricing_plan_id":"cebpf4jnsgd1na2vs0mg"},{"bike_id":"d30f880b-8118-45d2-aac3-136366f21bb5","system_id":"levelo_inurba_marseille","lat":43.29851,"lon":5.36321,"is_reserved":false,"is_disabled":false,"rental_uris":{"android":"levelo://app?vid=d30f880b-8118-45d2-aac3-136366f21bb5","ios":"levelo://app?vid=d30f880b-8118-45d2-aac3-136366f21bb5"},"vehicle_type_id":"4","last_reported":1750241487,"current_range_meters":10800,"station_id":"ce4bgpp2rcd13ifvqc3g","pricing_plan_id":"cebpf4jnsgd1na2vs0mg"},{"bike_id":"998d0538-52e0-477f-8e72-1b383baadd73","system_id":"levelo_inurba_marseille","lat":43.23151,"lon":5.43711,"is_reserved":false,"is_disabled":false,"rental_uris":{"android":"levelo://app?vid=998d0538-52e0-477f-8e72-1b383baadd73","ios":"levelo://app?vid=998d0538-52e0-477f-8e72-1b383baadd73"},"vehicle_type_id":"4","last_reported":1750241487,"current_range_meters":10800,"station_id":"ce4bhmp2rcd13ifvqgog","pricing_plan_id":"cebpf4jnsgd1na2vs0mg"},{"bike_id":"3a0a03bd-930c-4579-a692-ca12ebc511ad","system_id":"levelo_inurba_marseille","lat":43.27493,"lon":5.424608,"is_reserved":false,"is_disabled":false,"rental_uris":{"android":"levelo://app?vid=3a0a03bd-930c-4579-a692-ca12ebc511ad","ios":"levelo://app?vid=3a0a03bd-930c-4579-a692-ca12ebc511ad"},"vehicle_type_id":"4","last_reported":1750241487,"current_range_meters":10800,"station_id":"ce4bhn92rcd13ifvqgrg","pricing_plan_id":"cebpf4jnsgd1na2vs0mg"},{"bike_id":"7b468e56-87c4-42f0-9674-d7cf7feaf7cd","system_id":"levelo_inurba_marseille","lat":43.29513,"lon":5.37504,"is_reserved":false,"is_disabled":false,"rental_uris":{"android":"levelo://app?vid=7b468e56-87c4-42f0-9674-d7cf7feaf7cd","ios":"levelo://app?vid=7b468e56-87c4-42f0-9674-d7cf7feaf7cd"},"vehicle_type_id":"4","last_reported":1750241487,"current_range_meters":11200,"station_id":"ce4bgkp2rcd13ifvqbmg","pricing_plan_id":"cebpf4jnsgd1na2vs0mg"},{"bike_id":"0c5e5c02-cb32-4283-8ad1-d304f2ae80d0","system_id":"levelo_inurba_marseille","lat":43.309464,"lon":5.390334,"is_reserved":false,"is_disabled":false,"rental_uris":{"android":"levelo://app?vid=0c5e5c02-cb32-4283-8ad1-d304f2ae80d0","ios":"levelo://app?vid=0c5e5c02-cb32-4283-8ad1-d304f2ae80d0"},"vehicle_type_id":"4","last_reported":1750241487,"current_range_meters":11200,"station_id":"ce4bgup2rcd13ifvqco0","pricing_plan_id":"cebpf4jnsgd1na2vs0mg"},{"bike_id":"15a71c21-b2b0-4d1c-99bc-29a02bccbf4c","system_id":"levelo_inurba_marseille","lat":43.25492,"lon":5.37654,"is_reserved":false,"is_disabled":false,"rental_uris":{"android":"levelo://app?vid=15a71c21-b2b0-4d1c-99bc-29a02bccbf4c","ios":"levelo://app?vid=15a71c21-b2b0-4d1c-99bc-29a02bccbf4c"},"vehicle_type_id":"4","last_reported":1750241487,"current_range_meters":11200,"station_id":"ce4bhh12rcd13ifvqff0","pricing_plan_id":"cebpf4jnsgd1na2vs0mg"},{"bike_id":"ec791070-eafa-4c06-b970-7958cef6417d","system_id":"levelo_inurba_marseille","lat":43.2319,"lon":5.35562,"is_reserved":false,"is_disabled":false,"rental_uris":{"android":"levelo://app?vid=ec791070-eafa-4c06-b970-7958cef6417d","ios":"levelo://app?vid=ec791070-eafa-4c06-b970-7958cef6417d"},"vehicle_type_id":"4","last_reported":1750241487,"current_range_meters":11200,"station_id":"ce4bhu92rcd13ifvqi70","pricing_plan_id":"cebpf4jnsgd1na2vs0mg"},{"bike_id":"960c85a1-5973-4697-9a13-ccb47f1e6891","system_id":"levelo_inurba_marseille","lat":43.229317,"lon":5.353706,"is_reserved":false,"is_disabled":false,"rental_uris":{"android":"levelo://app?vid=960c85a1-5973-4697-9a13-ccb47f1e6891","ios":"levelo://app?vid=960c85a1-5973-4697-9a13-ccb47f1e6891"},"vehicle_type_id":"4","last_reported":1750241487,"current_range_meters":11200,"station_id":"cpo3532slgdg3j2ikp40","pricing_plan_id":"cebpf4jnsgd1na2vs0mg"},{"bike_id":"8b2192dd-d895-4917-925b-d5ae0bdcf61f","system_id":"levelo_inurba_marseille","lat":43.27571,"lon":5.38415,"is_reserved":false,"is_disabled":false,"rental_uris":{"android":"levelo://app?vid=8b2192dd-d895-4917-925b-d5ae0bdcf61f","ios":"levelo://app?vid=8b2192dd-d895-4917-925b-d5ae0bdcf61f"},"vehicle_type_id":"4","last_reported":1750241487,"current_range_meters":11600,"station_id":"ce4bhh92rcd13ifvqfi0","pricing_plan_id":"cebpf4jnsgd1na2vs0mg"},{"bike_id":"14a3c6e4-c30a-4058-b40f-b359c0d3a2a0","system_id":"levelo_inurba_marseille","lat":43.24177,"lon":5.39727,"is_reserved":false,"is_disabled":false,"rental_uris":{"android":"levelo://app?vid=14a3c6e4-c30a-4058-b40f-b359c0d3a2a0","ios":"levelo://app?vid=14a3c6e4-c30a-4058-b40f-b359c0d3a2a0"},"vehicle_type_id":"4","last_reported":1750241487,"current_range_meters":11600,"station_id":"ce4bhn12rcd13ifvqgpg","pricing_plan_id":"cebpf4jnsgd1na2vs0mg"},{"bike_id":"de0f7c2b-5974-4035-a240-8ed367c0e3f3","system_id":"levelo_inurba_marseille","lat":43.31964,"lon":5.37623,"is_reserved":false,"is_disabled":false,"rental_uris":{"android":"levelo://app?vid=de0f7c2b-5974-4035-a240-8ed367c0e3f3","ios":"levelo://app?vid=de0f7c2b-5974-4035-a240-8ed367c0e3f3"},"vehicle_type_id":"4","last_reported":1750241487,"current_range_meters":12000,"station_id":"","pricing_plan_id":"cebpf4jnsgd1na2vs0mg"},{"bike_id":"3518210a-6d90-482f-a11b-11cb7c94acd1","system_id":"levelo_inurba_marseille","lat":43.264673,"lon":5.392001,"is_reserved":false,"is_disabled":false,"rental_uris":{"android":"levelo://app?vid=3518210a-6d90-482f-a11b-11cb7c94acd1","ios":"levelo://app?vid=3518210a-6d90-482f-a11b-11cb7c94acd1"},"vehicle_type_id":"4","last_reported":1750241487,"current_range_meters":12400,"station_id":"","pricing_plan_id":"cebpf4jnsgd1na2vs0mg"},{"bike_id":"e131d3c0-2166-4c28-87b2-db528a025098","system_id":"levelo_inurba_marseille","lat":43.23152,"lon":5.4371,"is_reserved":false,"is_disabled":false,"rental_uris":{"android":"levelo://app?vid=e131d3c0-2166-4c28-87b2-db528a025098","ios":"levelo://app?vid=e131d3c0-2166-4c28-87b2-db528a025098"},"vehicle_type_id":"4","last_reported":1750241487,"current_range_meters":12400,"station_id":"ce4bhmp2rcd13ifvqgog","pricing_plan_id":"cebpf4jnsgd1na2vs0mg"},{"bike_id":"f7fa858e-b7ee-404f-8191-6184cc003e2b","system_id":"levelo_inurba_marseille","lat":43.232012,"lon":5.355538,"is_reserved":false,"is_disabled":false,"rental_uris":{"android":"levelo://app?vid=f7fa858e-b7ee-404f-8191-6184cc003e2b","ios":"levelo://app?vid=f7fa858e-b7ee-404f-8191-6184cc003e2b"},"vehicle_type_id":"4","last_reported":1750241487,"current_range_meters":12400,"station_id":"ce4bhu92rcd13ifvqi70","pricing_plan_id":"cebpf4jnsgd1na2vs0mg"},{"bike_id":"b3afc617-92cc-4315-88cf-83af2bf0e167","system_id":"levelo_inurba_marseille","lat":43.21751,"lon":5.34596,"is_reserved":false,"is_disabled":false,"rental_uris":{"android":"levelo://app?vid=b3afc617-92cc-4315-88cf-83af2bf0e167","ios":"levelo://app?vid=b3afc617-92cc-4315-88cf-83af2bf0e167"},"vehicle_type_id":"4","last_reported":1750241487,"current_range_meters":12400,"station_id":"st_cvj6r9ubvosntc0bgbag","pricing_plan_id":"cebpf4jnsgd1na2vs0mg"},{"bike_id":"e0a889cf-2327-4278-9b67-453fc8c6ae2a","system_id":"levelo_inurba_marseille","lat":43.30247,"lon":5.37458,"is_reserved":false,"is_disabled":false,"rental_uris":{"android":"levelo://app?vid=e0a889cf-2327-4278-9b67-453fc8c6ae2a","ios":"levelo://app?vid=e0a889cf-2327-4278-9b67-453fc8c6ae2a"},"vehicle_type_id":"4","last_reported":1750241487,"current_range_meters":12800,"station_id":"","pricing_plan_id":"cebpf4jnsgd1na2vs0mg"},{"bike_id":"a606fdd7-7934-4688-b0e3-f9836cb862d5","system_id":"levelo_inurba_marseille","lat":43.29266,"lon":5.37632,"is_reserved":false,"is_disabled":false,"rental_uris":{"android":"levelo://app?vid=a606fdd7-7934-4688-b0e3-f9836cb862d5","ios":"levelo://app?vid=a606fdd7-7934-4688-b0e3-f9836cb862d5"},"vehicle_type_id":"4","last_reported":1750241487,"current_range_meters":12800,"station_id":"ce4bgi12rcd13ifvqb80","pricing_plan_id":"cebpf4jnsgd1na2vs0mg"},{"bike_id":"effc8f77-1b38-42c4-9983-ecffaceba898","system_id":"levelo_inurba_marseille","lat":43.300024,"lon":5.371781,"is_reserved":false,"is_disabled":false,"rental_uris":{"android":"levelo://app?vid=effc8f77-1b38-42c4-9983-ecffaceba898","ios":"levelo://app?vid=effc8f77-1b38-42c4-9983-ecffaceba898"},"vehicle_type_id":"4","last_reported":1750241487,"current_range_meters":12800,"station_id":"ce4bgr92rcd13ifvqc7g","pricing_plan_id":"cebpf4jnsgd1na2vs0mg"},{"bike_id":"db050af1-f835-4223-a311-c9072792c415","system_id":"levelo_inurba_marseille","lat":43.3302,"lon":5.39039,"is_reserved":false,"is_disabled":false,"rental_uris":{"android":"levelo://app?vid=db050af1-f835-4223-a311-c9072792c415","ios":"levelo://app?vid=db050af1-f835-4223-a311-c9072792c415"},"vehicle_type_id":"4","last_reported":1750241487,"current_range_meters":12800,"station_id":"ce4bhr92rcd13ifvqhrg","pricing_plan_id":"cebpf4jnsgd1na2vs0mg"},{"bike_id":"23473c5a-ff05-41d4-a194-b16ef02094df","system_id":"levelo_inurba_marseille","lat":43.30534,"lon":5.3652,"is_reserved":false,"is_disabled":false,"rental_uris":{"android":"levelo://app?vid=23473c5a-ff05-41d4-a194-b16ef02094df","ios":"levelo://app?vid=23473c5a-ff05-41d4-a194-b16ef02094df"},"vehicle_type_id":"4","last_reported":1750241487,"current_range_meters":13600,"station_id":"ce4bgs12rcd13ifvqcag","pricing_plan_id":"cebpf4jnsgd1na2vs0mg"},{"bike_id":"b92869b3-f0ab-4b3f-bade-c314fe0fcb6a","system_id":"levelo_inurba_marseille","lat":43.30277,"lon":5.37714,"is_reserved":false,"is_disabled":false,"rental_uris":{"android":"levelo://app?vid=b92869b3-f0ab-4b3f-bade-c314fe0fcb6a","ios":"levelo://app?vid=b92869b3-f0ab-4b3f-bade-c314fe0fcb6a"},"vehicle_type_id":"4","last_reported":1750241487,"current_range_meters":13600,"station_id":"ce4bguh2rcd13ifvqcj0","pricing_plan_id":"cebpf4jnsgd1na2vs0mg"},{"bike_id":"f96fac91-fcd6-4cf6-94db-3fb959156263","system_id":"levelo_inurba_marseille","lat":43.28268,"lon":5.35065,"is_reserved":false,"is_disabled":false,"rental_uris":{"android":"levelo://app?vid=f96fac91-fcd6-4cf6-94db-3fb959156263","ios":"levelo://app?vid=f96fac91-fcd6-4cf6-94db-3fb959156263"},"vehicle_type_id":"4","last_reported":1750241487,"current_range_meters":13600,"station_id":"ce4bhbp2rcd13ifvqerg","pricing_plan_id":"cebpf4jnsgd1na2vs0mg"},{"bike_id":"7bf5c02e-0bca-454a-9730-ca7733af91e9","system_id":"levelo_inurba_marseille","lat":43.23148,"lon":5.43714,"is_reserved":false,"is_disabled":false,"rental_uris":{"android":"levelo://app?vid=7bf5c02e-0bca-454a-9730-ca7733af91e9","ios":"levelo://app?vid=7bf5c02e-0bca-454a-9730-ca7733af91e9"},"vehicle_type_id":"4","last_reported":1750241487,"current_range_meters":13600,"station_id":"ce4bhmp2rcd13ifvqgog","pricing_plan_id":"cebpf4jnsgd1na2vs0mg"},{"bike_id":"5dcd7be4-2d6f-4395-a5ef-a9e2ece98440","system_id":"levelo_inurba_marseille","lat":43.23189,"lon":5.35555,"is_reserved":false,"is_disabled":false,"rental_uris":{"android":"levelo://app?vid=5dcd7be4-2d6f-4395-a5ef-a9e2ece98440","ios":"levelo://app?vid=5dcd7be4-2d6f-4395-a5ef-a9e2ece98440"},"vehicle_type_id":"4","last_reported":1750241487,"current_range_meters":13600,"station_id":"ce4bhu92rcd13ifvqi70","pricing_plan_id":"cebpf4jnsgd1na2vs0mg"},{"bike_id":"4b8da722-ee9e-48a4-a5e5-3a8a10364708","system_id":"levelo_inurba_marseille","lat":43.31216,"lon":5.37811,"is_reserved":false,"is_disabled":false,"rental_uris":{"android":"levelo://app?vid=4b8da722-ee9e-48a4-a5e5-3a8a10364708","ios":"levelo://app?vid=4b8da722-ee9e-48a4-a5e5-3a8a10364708"},"vehicle_type_id":"4","last_reported":1750241487,"current_range_meters":14000,"station_id":"","pricing_plan_id":"cebpf4jnsgd1na2vs0mg"},{"bike_id":"bf926316-c2d2-4b23-8f2b-109a2206ed7c","system_id":"levelo_inurba_marseille","lat":43.30164,"lon":5.37426,"is_reserved":false,"is_disabled":false,"rental_uris":{"android":"levelo://app?vid=bf926316-c2d2-4b23-8f2b-109a2206ed7c","ios":"levelo://app?vid=bf926316-c2d2-4b23-8f2b-109a2206ed7c"},"vehicle_type_id":"4","last_reported":1750241487,"current_range_meters":14000,"station_id":"ce4bgs92rcd13ifvqcc0","pricing_plan_id":"cebpf4jnsgd1na2vs0mg"},{"bike_id":"225060e6-a0fe-4f44-99e7-5857cd0cad6f","system_id":"levelo_inurba_marseille","lat":43.29192,"lon":5.35796,"is_reserved":false,"is_disabled":false,"rental_uris":{"android":"levelo://app?vid=225060e6-a0fe-4f44-99e7-5857cd0cad6f","ios":"levelo://app?vid=225060e6-a0fe-4f44-99e7-5857cd0cad6f"},"vehicle_type_id":"4","last_reported":1750241487,"current_range_meters":14000,"station_id":"ce4bhb12rcd13ifvqel0","pricing_plan_id":"cebpf4jnsgd1na2vs0mg"},{"bike_id":"d1cf4809-6529-41e3-8cbc-570ff5bdad5f","system_id":"levelo_inurba_marseille","lat":43.32107,"lon":5.36773,"is_reserved":false,"is_disabled":false,"rental_uris":{"android":"levelo://app?vid=d1cf4809-6529-41e3-8cbc-570ff5bdad5f","ios":"levelo://app?vid=d1cf4809-6529-41e3-8cbc-570ff5bdad5f"},"vehicle_type_id":"4","last_reported":1750241487,"current_range_meters":14000,"station_id":"ce4bhrh2rcd13ifvqhug","pricing_plan_id":"cebpf4jnsgd1na2vs0mg"},{"bike_id":"b9740617-416c-49ef-a593-d345aa13726b","system_id":"levelo_inurba_marseille","lat":43.26978,"lon":5.43149,"is_reserved":false,"is_disabled":false,"rental_uris":{"android":"levelo://app?vid=b9740617-416c-49ef-a593-d345aa13726b","ios":"levelo://app?vid=b9740617-416c-49ef-a593-d345aa13726b"},"vehicle_type_id":"4","last_reported":1750241487,"current_range_meters":14400,"station_id":"","pricing_plan_id":"cebpf4jnsgd1na2vs0mg"},{"bike_id":"0dedb6f6-6801-483b-bfb8-9cd4533d158f","system_id":"levelo_inurba_marseille","lat":43.31136,"lon":5.38118,"is_reserved":false,"is_disabled":false,"rental_uris":{"android":"levelo://app?vid=0dedb6f6-6801-483b-bfb8-9cd4533d158f","ios":"levelo://app?vid=0dedb6f6-6801-483b-bfb8-9cd4533d158f"},"vehicle_type_id":"4","last_reported":1750241487,"current_range_meters":14400,"station_id":"","pricing_plan_id":"cebpf4jnsgd1na2vs0mg"},{"bike_id":"a60724fd-2425-41c1-a369-875919c112ae","system_id":"levelo_inurba_marseille","lat":43.30529,"lon":5.3652,"is_reserved":false,"is_disabled":false,"rental_uris":{"android":"levelo://app?vid=a60724fd-2425-41c1-a369-875919c112ae","ios":"levelo://app?vid=a60724fd-2425-41c1-a369-875919c112ae"},"vehicle_type_id":"4","last_reported":1750241487,"current_range_meters":14400,"station_id":"","pricing_plan_id":"cebpf4jnsgd1na2vs0mg"},{"bike_id":"2d7e1778-300e-4769-8854-305c49557808","system_id":"levelo_inurba_marseille","lat":43.29544,"lon":5.37541,"is_reserved":false,"is_disabled":false,"rental_uris":{"android":"levelo://app?vid=2d7e1778-300e-4769-8854-305c49557808","ios":"levelo://app?vid=2d7e1778-300e-4769-8854-305c49557808"},"vehicle_type_id":"4","last_reported":1750241487,"current_range_meters":14400,"station_id":"ce4bgkp2rcd13ifvqbmg","pricing_plan_id":"cebpf4jnsgd1na2vs0mg"},{"bike_id":"9419eee2-4cbd-46ea-8a19-a98bf3b8c7ee","system_id":"levelo_inurba_marseille","lat":43.322472,"lon":5.382949,"is_reserved":false,"is_disabled":false,"rental_uris":{"android":"levelo://app?vid=9419eee2-4cbd-46ea-8a19-a98bf3b8c7ee","ios":"levelo://app?vid=9419eee2-4cbd-46ea-8a19-a98bf3b8c7ee"},"vehicle_type_id":"4","last_reported":1750241487,"current_range_meters":14400,"station_id":"ce4bhr12rcd13ifvqhqg","pricing_plan_id":"cebpf4jnsgd1na2vs0mg"},{"bike_id":"8dc3f506-d8c7-45a7-8cc8-ec897678ea5f","system_id":"levelo_inurba_marseille","lat":43.24163,"lon":5.36396,"is_reserved":false,"is_disabled":false,"rental_uris":{"android":"levelo://app?vid=8dc3f506-d8c7-45a7-8cc8-ec897678ea5f","ios":"levelo://app?vid=8dc3f506-d8c7-45a7-8cc8-ec897678ea5f"},"vehicle_type_id":"4","last_reported":1750241487,"current_range_meters":14400,"station_id":"cpo36qri1sfpv3e86is0","pricing_plan_id":"cebpf4jnsgd1na2vs0mg"},{"bike_id":"69834d75-b3f1-4442-87bd-665cb9ef1312","system_id":"levelo_inurba_marseille","lat":43.29257,"lon":5.37629,"is_reserved":false,"is_disabled":false,"rental_uris":{"android":"levelo://app?vid=69834d75-b3f1-4442-87bd-665cb9ef1312","ios":"levelo://app?vid=69834d75-b3f1-4442-87bd-665cb9ef1312"},"vehicle_type_id":"4","last_reported":1750241487,"current_range_meters":14800,"station_id":"ce4bgi12rcd13ifvqb80","pricing_plan_id":"cebpf4jnsgd1na2vs0mg"},{"bike_id":"960166e7-ecad-415f-8e9c-37dcaf3d6498","system_id":"levelo_inurba_marseille","lat":43.29195,"lon":5.35801,"is_reserved":false,"is_disabled":false,"rental_uris":{"android":"levelo://app?vid=960166e7-ecad-415f-8e9c-37dcaf3d6498","ios":"levelo://app?vid=960166e7-ecad-415f-8e9c-37dcaf3d6498"},"vehicle_type_id":"4","last_reported":1750241487,"current_range_meters":14800,"station_id":"ce4bhb12rcd13ifvqel0","pricing_plan_id":"cebpf4jnsgd1na2vs0mg"},{"bike_id":"c2a57914-7b95-42ca-bf16-3f0f8b1a49c1","system_id":"levelo_inurba_marseille","lat":43.27425,"lon":5.39421,"is_reserved":false,"is_disabled":false,"rental_uris":{"android":"levelo://app?vid=c2a57914-7b95-42ca-bf16-3f0f8b1a49c1","ios":"levelo://app?vid=c2a57914-7b95-42ca-bf16-3f0f8b1a49c1"},"vehicle_type_id":"4","last_reported":1750241487,"current_range_meters":14800,"station_id":"ce4bhdp2rcd13ifvqf20","pricing_plan_id":"cebpf4jnsgd1na2vs0mg"},{"bike_id":"9fd7bb63-ff0e-4a0d-8f74-13d436406339","system_id":"levelo_inurba_marseille","lat":43.24173,"lon":5.39718,"is_reserved":false,"is_disabled":false,"rental_uris":{"android":"levelo://app?vid=9fd7bb63-ff0e-4a0d-8f74-13d436406339","ios":"levelo://app?vid=9fd7bb63-ff0e-4a0d-8f74-13d436406339"},"vehicle_type_id":"4","last_reported":1750241487,"current_range_meters":14800,"station_id":"ce4bhn12rcd13ifvqgpg","pricing_plan_id":"cebpf4jnsgd1na2vs0mg"},{"bike_id":"9e6b6795-72a7-4c2f-ae9a-06b58fcd1632","system_id":"levelo_inurba_marseille","lat":43.25918,"lon":5.40901,"is_reserved":false,"is_disabled":false,"rental_uris":{"android":"levelo://app?vid=9e6b6795-72a7-4c2f-ae9a-06b58fcd1632","ios":"levelo://app?vid=9e6b6795-72a7-4c2f-ae9a-06b58fcd1632"},"vehicle_type_id":"4","last_reported":1750241487,"current_range_meters":15200,"station_id":"ce4bhm92rcd13ifvqglg","pricing_plan_id":"cebpf4jnsgd1na2vs0mg"},{"bike_id":"268aafb4-1331-426c-97bc-a7d6564caeb6","system_id":"levelo_inurba_marseille","lat":43.32933,"lon":5.37919,"is_reserved":false,"is_disabled":false,"rental_uris":{"android":"levelo://app?vid=268aafb4-1331-426c-97bc-a7d6564caeb6","ios":"levelo://app?vid=268aafb4-1331-426c-97bc-a7d6564caeb6"},"vehicle_type_id":"4","last_reported":1750241487,"current_range_meters":16000,"station_id":"","pricing_plan_id":"cebpf4jnsgd1na2vs0mg"},{"bike_id":"2d328219-5d0a-4cfc-829b-c48c09d27f58","system_id":"levelo_inurba_marseille","lat":43.21748,"lon":5.34597,"is_reserved":false,"is_disabled":false,"rental_uris":{"android":"levelo://app?vid=2d328219-5d0a-4cfc-829b-c48c09d27f58","ios":"levelo://app?vid=2d328219-5d0a-4cfc-829b-c48c09d27f58"},"vehicle_type_id":"4","last_reported":1750241487,"current_range_meters":16000,"station_id":"","pricing_plan_id":"cebpf4jnsgd1na2vs0mg"},{"bike_id":"3151b431-ae3a-411c-8189-09c45ab38d79","system_id":"levelo_inurba_marseille","lat":43.30864,"lon":5.37193,"is_reserved":false,"is_disabled":false,"rental_uris":{"android":"levelo://app?vid=3151b431-ae3a-411c-8189-09c45ab38d79","ios":"levelo://app?vid=3151b431-ae3a-411c-8189-09c45ab38d79"},"vehicle_type_id":"4","last_reported":1750241487,"current_range_meters":16000,"station_id":"ce4bguh2rcd13ifvqckg","pricing_plan_id":"cebpf4jnsgd1na2vs0mg"},{"bike_id":"261b5fae-8e34-4cd2-91ab-712e590025c9","system_id":"levelo_inurba_marseille","lat":43.28277,"lon":5.35068,"is_reserved":false,"is_disabled":false,"rental_uris":{"android":"levelo://app?vid=261b5fae-8e34-4cd2-91ab-712e590025c9","ios":"levelo://app?vid=261b5fae-8e34-4cd2-91ab-712e590025c9"},"vehicle_type_id":"4","last_reported":1750241487,"current_range_meters":16000,"station_id":"ce4bhbp2rcd13ifvqerg","pricing_plan_id":"cebpf4jnsgd1na2vs0mg"},{"bike_id":"70a08be0-ce5b-4d19-9244-d18a8a4e00b3","system_id":"levelo_inurba_marseille","lat":43.24164,"lon":5.39721,"is_reserved":false,"is_disabled":false,"rental_uris":{"android":"levelo://app?vid=70a08be0-ce5b-4d19-9244-d18a8a4e00b3","ios":"levelo://app?vid=70a08be0-ce5b-4d19-9244-d18a8a4e00b3"},"vehicle_type_id":"4","last_reported":1750241487,"current_range_meters":16000,"station_id":"ce4bhn12rcd13ifvqgpg","pricing_plan_id":"cebpf4jnsgd1na2vs0mg"},{"bike_id":"a8aee4ba-aa9a-45be-b4cf-b3f7389f99f8","system_id":"levelo_inurba_marseille","lat":43.29893,"lon":5.43668,"is_reserved":false,"is_disabled":false,"rental_uris":{"android":"levelo://app?vid=a8aee4ba-aa9a-45be-b4cf-b3f7389f99f8","ios":"levelo://app?vid=a8aee4ba-aa9a-45be-b4cf-b3f7389f99f8"},"vehicle_type_id":"4","last_reported":1750241487,"current_range_meters":16000,"station_id":"ce4bhpp2rcd13ifvqhfg","pricing_plan_id":"cebpf4jnsgd1na2vs0mg"},{"bike_id":"75bdddd2-5231-4b11-90bc-5b998201fdc4","system_id":"levelo_inurba_marseille","lat":43.24162,"lon":5.3639,"is_reserved":false,"is_disabled":false,"rental_uris":{"android":"levelo://app?vid=75bdddd2-5231-4b11-90bc-5b998201fdc4","ios":"levelo://app?vid=75bdddd2-5231-4b11-90bc-5b998201fdc4"},"vehicle_type_id":"4","last_reported":1750241487,"current_range_meters":16000,"station_id":"cpo36qri1sfpv3e86is0","pricing_plan_id":"cebpf4jnsgd1na2vs0mg"},{"bike_id":"1edd31f8-0128-4621-925e-4decf3aa47f1","system_id":"levelo_inurba_marseille","lat":43.21192,"lon":5.3507,"is_reserved":false,"is_disabled":false,"rental_uris":{"android":"levelo://app?vid=1edd31f8-0128-4621-925e-4decf3aa47f1","ios":"levelo://app?vid=1edd31f8-0128-4621-925e-4decf3aa47f1"},"vehicle_type_id":"4","last_reported":1750241487,"current_range_meters":16000,"station_id":"st_cvj6sg6p6f1abm77japg","pricing_plan_id":"cebpf4jnsgd1na2vs0mg"},{"bike_id":"f025e0b0-8595-426c-b214-cb9b74c5fcfd","system_id":"levelo_inurba_marseille","lat":43.32198,"lon":5.40583,"is_reserved":false,"is_disabled":false,"rental_uris":{"android":"levelo://app?vid=f025e0b0-8595-426c-b214-cb9b74c5fcfd","ios":"levelo://app?vid=f025e0b0-8595-426c-b214-cb9b74c5fcfd"},"vehicle_type_id":"4","last_reported":1750241487,"current_range_meters":16400,"station_id":"","pricing_plan_id":"cebpf4jnsgd1na2vs0mg"},{"bike_id":"8b146626-23e4-4258-8262-90b3b385fd5a","system_id":"levelo_inurba_marseille","lat":43.301819,"lon":5.36624,"is_reserved":false,"is_disabled":false,"rental_uris":{"android":"levelo://app?vid=8b146626-23e4-4258-8262-90b3b385fd5a","ios":"levelo://app?vid=8b146626-23e4-4258-8262-90b3b385fd5a"},"vehicle_type_id":"4","last_reported":1750241487,"current_range_meters":16400,"station_id":"ce4bgrh2rcd13ifvqc8g","pricing_plan_id":"cebpf4jnsgd1na2vs0mg"},{"bike_id":"faf048f0-ef47-45f8-8544-8137d956151e","system_id":"levelo_inurba_marseille","lat":43.31489,"lon":5.37293,"is_reserved":false,"is_disabled":false,"rental_uris":{"android":"levelo://app?vid=faf048f0-ef47-45f8-8544-8137d956151e","ios":"levelo://app?vid=faf048f0-ef47-45f8-8544-8137d956151e"},"vehicle_type_id":"4","last_reported":1750241487,"current_range_meters":16400,"station_id":"ce4bgt12rcd13ifvqcd0","pricing_plan_id":"cebpf4jnsgd1na2vs0mg"},{"bike_id":"b5af4ea9-6ca7-4012-a442-3dac3ef1e276","system_id":"levelo_inurba_marseille","lat":43.23208,"lon":5.35548,"is_reserved":false,"is_disabled":false,"rental_uris":{"android":"levelo://app?vid=b5af4ea9-6ca7-4012-a442-3dac3ef1e276","ios":"levelo://app?vid=b5af4ea9-6ca7-4012-a442-3dac3ef1e276"},"vehicle_type_id":"4","last_reported":1750241487,"current_range_meters":16400,"station_id":"ce4bhu92rcd13ifvqi70","pricing_plan_id":"cebpf4jnsgd1na2vs0mg"},{"bike_id":"d6b59448-6161-4e70-befd-235ecc0fb1fc","system_id":"levelo_inurba_marseille","lat":43.231935,"lon":5.355488,"is_reserved":false,"is_disabled":false,"rental_uris":{"android":"levelo://app?vid=d6b59448-6161-4e70-befd-235ecc0fb1fc","ios":"levelo://app?vid=d6b59448-6161-4e70-befd-235ecc0fb1fc"},"vehicle_type_id":"4","last_reported":1750241487,"current_range_meters":16400,"station_id":"ce4bhu92rcd13ifvqi70","pricing_plan_id":"cebpf4jnsgd1na2vs0mg"},{"bike_id":"9d993ade-3922-40c5-8263-dca4e469e9a1","system_id":"levelo_inurba_marseille","lat":43.21188,"lon":5.35071,"is_reserved":false,"is_disabled":false,"rental_uris":{"android":"levelo://app?vid=9d993ade-3922-40c5-8263-dca4e469e9a1","ios":"levelo://app?vid=9d993ade-3922-40c5-8263-dca4e469e9a1"},"vehicle_type_id":"4","last_reported":1750241487,"current_range_meters":16400,"station_id":"st_cvj6sg6p6f1abm77japg","pricing_plan_id":"cebpf4jnsgd1na2vs0mg"},{"bike_id":"e921cee3-b8ce-4c00-b7eb-8ab335b5e125","system_id":"levelo_inurba_marseille","lat":43.30195,"lon":5.4227,"is_reserved":false,"is_disabled":false,"rental_uris":{"android":"levelo://app?vid=e921cee3-b8ce-4c00-b7eb-8ab335b5e125","ios":"levelo://app?vid=e921cee3-b8ce-4c00-b7eb-8ab335b5e125"},"vehicle_type_id":"4","last_reported":1750241487,"current_range_meters":16800,"station_id":"","pricing_plan_id":"cebpf4jnsgd1na2vs0mg"},{"bike_id":"ae2fdae3-50bf-4bd1-ba6e-560530838045","system_id":"levelo_inurba_marseille","lat":43.2632,"lon":5.37394,"is_reserved":false,"is_disabled":false,"rental_uris":{"android":"levelo://app?vid=ae2fdae3-50bf-4bd1-ba6e-560530838045","ios":"levelo://app?vid=ae2fdae3-50bf-4bd1-ba6e-560530838045"},"vehicle_type_id":"4","last_reported":1750241487,"current_range_meters":16800,"station_id":"","pricing_plan_id":"cebpf4jnsgd1na2vs0mg"},{"bike_id":"ad139bc1-e4f7-4395-bb1e-d9932b0a72b5","system_id":"levelo_inurba_marseille","lat":43.293677,"lon":5.37847,"is_reserved":false,"is_disabled":false,"rental_uris":{"android":"levelo://app?vid=ad139bc1-e4f7-4395-bb1e-d9932b0a72b5","ios":"levelo://app?vid=ad139bc1-e4f7-4395-bb1e-d9932b0a72b5"},"vehicle_type_id":"4","last_reported":1750241487,"current_range_meters":16800,"station_id":"ce4bgjh2rcd13ifvqbf0","pricing_plan_id":"cebpf4jnsgd1na2vs0mg"},{"bike_id":"0af6827f-37b3-4b29-aa65-05e625b8db92","system_id":"levelo_inurba_marseille","lat":43.3134,"lon":5.36719,"is_reserved":false,"is_disabled":false,"rental_uris":{"android":"levelo://app?vid=0af6827f-37b3-4b29-aa65-05e625b8db92","ios":"levelo://app?vid=0af6827f-37b3-4b29-aa65-05e625b8db92"},"vehicle_type_id":"4","last_reported":1750241487,"current_range_meters":16800,"station_id":"ce4bgr92rcd13ifvqc6g","pricing_plan_id":"cebpf4jnsgd1na2vs0mg"},{"bike_id":"ecdc5470-6b95-4de5-8068-fe64d3a877e8","system_id":"levelo_inurba_marseille","lat":43.28259,"lon":5.35088,"is_reserved":false,"is_disabled":false,"rental_uris":{"android":"levelo://app?vid=ecdc5470-6b95-4de5-8068-fe64d3a877e8","ios":"levelo://app?vid=ecdc5470-6b95-4de5-8068-fe64d3a877e8"},"vehicle_type_id":"4","last_reported":1750241487,"current_range_meters":16800,"station_id":"ce4bhbp2rcd13ifvqerg","pricing_plan_id":"cebpf4jnsgd1na2vs0mg"},{"bike_id":"84e61c4f-7c00-4490-a97a-19ec3e35e2f4","system_id":"levelo_inurba_marseille","lat":43.25086,"lon":5.39518,"is_reserved":false,"is_disabled":false,"rental_uris":{"android":"levelo://app?vid=84e61c4f-7c00-4490-a97a-19ec3e35e2f4","ios":"levelo://app?vid=84e61c4f-7c00-4490-a97a-19ec3e35e2f4"},"vehicle_type_id":"4","last_reported":1750241487,"current_range_meters":16800,"station_id":"ce4bhm12rcd13ifvqgkg","pricing_plan_id":"cebpf4jnsgd1na2vs0mg"},{"bike_id":"4f3842ae-753d-4560-bc4f-364adf58b7f8","system_id":"levelo_inurba_marseille","lat":43.25896,"lon":5.4091,"is_reserved":false,"is_disabled":false,"rental_uris":{"android":"levelo://app?vid=4f3842ae-753d-4560-bc4f-364adf58b7f8","ios":"levelo://app?vid=4f3842ae-753d-4560-bc4f-364adf58b7f8"},"vehicle_type_id":"4","last_reported":1750241487,"current_range_meters":16800,"station_id":"ce4bhm92rcd13ifvqglg","pricing_plan_id":"cebpf4jnsgd1na2vs0mg"},{"bike_id":"5c9878b4-89f1-4442-84b0-44598b017874","system_id":"levelo_inurba_marseille","lat":43.25915,"lon":5.40863,"is_reserved":false,"is_disabled":false,"rental_uris":{"android":"levelo://app?vid=5c9878b4-89f1-4442-84b0-44598b017874","ios":"levelo://app?vid=5c9878b4-89f1-4442-84b0-44598b017874"},"vehicle_type_id":"4","last_reported":1750241487,"current_range_meters":16800,"station_id":"ce4bhm92rcd13ifvqglg","pricing_plan_id":"cebpf4jnsgd1na2vs0mg"},{"bike_id":"d1a40c3e-44a4-4b9a-97c3-90a5bd273762","system_id":"levelo_inurba_marseille","lat":43.2417,"lon":5.39729,"is_reserved":false,"is_disabled":false,"rental_uris":{"android":"levelo://app?vid=d1a40c3e-44a4-4b9a-97c3-90a5bd273762","ios":"levelo://app?vid=d1a40c3e-44a4-4b9a-97c3-90a5bd273762"},"vehicle_type_id":"4","last_reported":1750241487,"current_range_meters":16800,"station_id":"ce4bhn12rcd13ifvqgpg","pricing_plan_id":"cebpf4jnsgd1na2vs0mg"},{"bike_id":"4b6b2a2b-d3c4-4663-8ea1-de4eff39b7b2","system_id":"levelo_inurba_marseille","lat":43.2119,"lon":5.35073,"is_reserved":false,"is_disabled":false,"rental_uris":{"android":"levelo://app?vid=4b6b2a2b-d3c4-4663-8ea1-de4eff39b7b2","ios":"levelo://app?vid=4b6b2a2b-d3c4-4663-8ea1-de4eff39b7b2"},"vehicle_type_id":"4","last_reported":1750241487,"current_range_meters":16800,"station_id":"st_cvj6sg6p6f1abm77japg","pricing_plan_id":"cebpf4jnsgd1na2vs0mg"},{"bike_id":"eaaa9fcd-34d4-4d0b-8f90-fbf605a0610f","system_id":"levelo_inurba_marseille","lat":43.21191,"lon":5.35073,"is_reserved":false,"is_disabled":false,"rental_uris":{"android":"levelo://app?vid=eaaa9fcd-34d4-4d0b-8f90-fbf605a0610f","ios":"levelo://app?vid=eaaa9fcd-34d4-4d0b-8f90-fbf605a0610f"},"vehicle_type_id":"4","last_reported":1750241487,"current_range_meters":16800,"station_id":"st_cvj6sg6p6f1abm77japg","pricing_plan_id":"cebpf4jnsgd1na2vs0mg"},{"bike_id":"b99e364a-4e32-45d0-b124-97c188aaa468","system_id":"levelo_inurba_marseille","lat":43.29528,"lon":5.37504,"is_reserved":false,"is_disabled":false,"rental_uris":{"android":"levelo://app?vid=b99e364a-4e32-45d0-b124-97c188aaa468","ios":"levelo://app?vid=b99e364a-4e32-45d0-b124-97c188aaa468"},"vehicle_type_id":"4","last_reported":1750241487,"current_range_meters":17200,"station_id":"ce4bgkp2rcd13ifvqbmg","pricing_plan_id":"cebpf4jnsgd1na2vs0mg"},{"bike_id":"f8c15b9c-5a6e-40c0-9ddd-33b235c46a07","system_id":"levelo_inurba_marseille","lat":43.2962,"lon":5.37161,"is_reserved":false,"is_disabled":false,"rental_uris":{"android":"levelo://app?vid=f8c15b9c-5a6e-40c0-9ddd-33b235c46a07","ios":"levelo://app?vid=f8c15b9c-5a6e-40c0-9ddd-33b235c46a07"},"vehicle_type_id":"4","last_reported":1750241487,"current_range_meters":17200,"station_id":"ce4bgnh2rcd13ifvqc0g","pricing_plan_id":"cebpf4jnsgd1na2vs0mg"},{"bike_id":"fb4b946f-9b99-4a94-8ad1-726bc6c806e3","system_id":"levelo_inurba_marseille","lat":43.28839,"lon":5.3585,"is_reserved":false,"is_disabled":false,"rental_uris":{"android":"levelo://app?vid=fb4b946f-9b99-4a94-8ad1-726bc6c806e3","ios":"levelo://app?vid=fb4b946f-9b99-4a94-8ad1-726bc6c806e3"},"vehicle_type_id":"4","last_reported":1750241487,"current_range_meters":17200,"station_id":"ce4bhb12rcd13ifvqem0","pricing_plan_id":"cebpf4jnsgd1na2vs0mg"},{"bike_id":"cd6b0f39-6bc0-43fc-b665-ce02669d345a","system_id":"levelo_inurba_marseille","lat":43.28928,"lon":5.36139,"is_reserved":false,"is_disabled":false,"rental_uris":{"android":"levelo://app?vid=cd6b0f39-6bc0-43fc-b665-ce02669d345a","ios":"levelo://app?vid=cd6b0f39-6bc0-43fc-b665-ce02669d345a"},"vehicle_type_id":"4","last_reported":1750241487,"current_range_meters":17600,"station_id":"","pricing_plan_id":"cebpf4jnsgd1na2vs0mg"},{"bike_id":"d3f70947-c8a6-48ee-84f8-149c82f352fb","system_id":"levelo_inurba_marseille","lat":43.23961,"lon":5.36633,"is_reserved":false,"is_disabled":false,"rental_uris":{"android":"levelo://app?vid=d3f70947-c8a6-48ee-84f8-149c82f352fb","ios":"levelo://app?vid=d3f70947-c8a6-48ee-84f8-149c82f352fb"},"vehicle_type_id":"4","last_reported":1750241487,"current_range_meters":17600,"station_id":"ce4bhi12rcd13ifvqfp0","pricing_plan_id":"cebpf4jnsgd1na2vs0mg"},{"bike_id":"8a9f6814-6fbe-472c-95fa-308f54c3d50b","system_id":"levelo_inurba_marseille","lat":43.27838,"lon":5.39211,"is_reserved":false,"is_disabled":false,"rental_uris":{"android":"levelo://app?vid=8a9f6814-6fbe-472c-95fa-308f54c3d50b","ios":"levelo://app?vid=8a9f6814-6fbe-472c-95fa-308f54c3d50b"},"vehicle_type_id":"4","last_reported":1750241487,"current_range_meters":17600,"station_id":"ce4bhjp2rcd13ifvqga0","pricing_plan_id":"cebpf4jnsgd1na2vs0mg"},{"bike_id":"cfef7392-1433-476b-a989-3fb180315ec3","system_id":"levelo_inurba_marseille","lat":43.24173,"lon":5.3973,"is_reserved":false,"is_disabled":false,"rental_uris":{"android":"levelo://app?vid=cfef7392-1433-476b-a989-3fb180315ec3","ios":"levelo://app?vid=cfef7392-1433-476b-a989-3fb180315ec3"},"vehicle_type_id":"4","last_reported":1750241487,"current_range_meters":17600,"station_id":"ce4bhn12rcd13ifvqgpg","pricing_plan_id":"cebpf4jnsgd1na2vs0mg"},{"bike_id":"692ec672-50d2-4ad5-aba1-9c9616f65bee","system_id":"levelo_inurba_marseille","lat":43.301891,"lon":5.366275,"is_reserved":false,"is_disabled":false,"rental_uris":{"android":"levelo://app?vid=692ec672-50d2-4ad5-aba1-9c9616f65bee","ios":"levelo://app?vid=692ec672-50d2-4ad5-aba1-9c9616f65bee"},"vehicle_type_id":"4","last_reported":1750241487,"current_range_meters":18000,"station_id":"","pricing_plan_id":"cebpf4jnsgd1na2vs0mg"},{"bike_id":"a85b2000-e3ea-4c9d-8512-f632fbae13d6","system_id":"levelo_inurba_marseille","lat":43.30146,"lon":5.40097,"is_reserved":false,"is_disabled":false,"rental_uris":{"android":"levelo://app?vid=a85b2000-e3ea-4c9d-8512-f632fbae13d6","ios":"levelo://app?vid=a85b2000-e3ea-4c9d-8512-f632fbae13d6"},"vehicle_type_id":"4","last_reported":1750241487,"current_range_meters":18000,"station_id":"","pricing_plan_id":"cebpf4jnsgd1na2vs0mg"},{"bike_id":"77ac8037-3c3c-493a-82c2-904a9ad6c7d0","system_id":"levelo_inurba_marseille","lat":43.26817,"lon":5.39059,"is_reserved":false,"is_disabled":false,"rental_uris":{"android":"levelo://app?vid=77ac8037-3c3c-493a-82c2-904a9ad6c7d0","ios":"levelo://app?vid=77ac8037-3c3c-493a-82c2-904a9ad6c7d0"},"vehicle_type_id":"4","last_reported":1750241487,"current_range_meters":18000,"station_id":"","pricing_plan_id":"cebpf4jnsgd1na2vs0mg"},{"bike_id":"70e3e3d6-7b98-496a-b6c6-af3dbfb8fe08","system_id":"levelo_inurba_marseille","lat":43.2936,"lon":5.37832,"is_reserved":false,"is_disabled":false,"rental_uris":{"android":"levelo://app?vid=70e3e3d6-7b98-496a-b6c6-af3dbfb8fe08","ios":"levelo://app?vid=70e3e3d6-7b98-496a-b6c6-af3dbfb8fe08"},"vehicle_type_id":"4","last_reported":1750241487,"current_range_meters":18000,"station_id":"ce4bgjh2rcd13ifvqbf0","pricing_plan_id":"cebpf4jnsgd1na2vs0mg"},{"bike_id":"034d7c51-8c72-47e0-9cfe-e120f88c02b0","system_id":"levelo_inurba_marseille","lat":43.30538,"lon":5.36535,"is_reserved":false,"is_disabled":false,"rental_uris":{"android":"levelo://app?vid=034d7c51-8c72-47e0-9cfe-e120f88c02b0","ios":"levelo://app?vid=034d7c51-8c72-47e0-9cfe-e120f88c02b0"},"vehicle_type_id":"4","last_reported":1750241487,"current_range_meters":18000,"station_id":"ce4bgs12rcd13ifvqcag","pricing_plan_id":"cebpf4jnsgd1na2vs0mg"},{"bike_id":"a43da8b1-54d1-4d4d-80a0-0d1413f9877c","system_id":"levelo_inurba_marseille","lat":43.30549,"lon":5.36517,"is_reserved":false,"is_disabled":false,"rental_uris":{"android":"levelo://app?vid=a43da8b1-54d1-4d4d-80a0-0d1413f9877c","ios":"levelo://app?vid=a43da8b1-54d1-4d4d-80a0-0d1413f9877c"},"vehicle_type_id":"4","last_reported":1750241487,"current_range_meters":18000,"station_id":"ce4bgs12rcd13ifvqcag","pricing_plan_id":"cebpf4jnsgd1na2vs0mg"},{"bike_id":"1045cbb5-2783-402c-ba9b-01077b046095","system_id":"levelo_inurba_marseille","lat":43.28414,"lon":5.34982,"is_reserved":false,"is_disabled":false,"rental_uris":{"android":"levelo://app?vid=1045cbb5-2783-402c-ba9b-01077b046095","ios":"levelo://app?vid=1045cbb5-2783-402c-ba9b-01077b046095"},"vehicle_type_id":"4","last_reported":1750241487,"current_range_meters":18000,"station_id":"ce4bhbh2rcd13ifvqepg","pricing_plan_id":"cebpf4jnsgd1na2vs0mg"},{"bike_id":"7aeb9e5d-46cc-4fb2-89b7-7f55fa98e63b","system_id":"levelo_inurba_marseille","lat":43.26681,"lon":5.38266,"is_reserved":false,"is_disabled":false,"rental_uris":{"android":"levelo://app?vid=7aeb9e5d-46cc-4fb2-89b7-7f55fa98e63b","ios":"levelo://app?vid=7aeb9e5d-46cc-4fb2-89b7-7f55fa98e63b"},"vehicle_type_id":"4","last_reported":1750241487,"current_range_meters":18000,"station_id":"ce4bhg92rcd13ifvqf90","pricing_plan_id":"cebpf4jnsgd1na2vs0mg"},{"bike_id":"fb1d5b97-b8a3-4a02-802c-b957e0aaab2a","system_id":"levelo_inurba_marseille","lat":43.273,"lon":5.39076,"is_reserved":false,"is_disabled":false,"rental_uris":{"android":"levelo://app?vid=fb1d5b97-b8a3-4a02-802c-b957e0aaab2a","ios":"levelo://app?vid=fb1d5b97-b8a3-4a02-802c-b957e0aaab2a"},"vehicle_type_id":"4","last_reported":1750241487,"current_range_meters":18000,"station_id":"ce4bhgp2rcd13ifvqfe0","pricing_plan_id":"cebpf4jnsgd1na2vs0mg"},{"bike_id":"4037a0f6-4461-4c1e-bad0-03e7c1253ab3","system_id":"levelo_inurba_marseille","lat":43.25494,"lon":5.37655,"is_reserved":false,"is_disabled":false,"rental_uris":{"android":"levelo://app?vid=4037a0f6-4461-4c1e-bad0-03e7c1253ab3","ios":"levelo://app?vid=4037a0f6-4461-4c1e-bad0-03e7c1253ab3"},"vehicle_type_id":"4","last_reported":1750241487,"current_range_meters":18000,"station_id":"ce4bhh12rcd13ifvqff0","pricing_plan_id":"cebpf4jnsgd1na2vs0mg"},{"bike_id":"6ba4ca26-89c4-4664-a74d-96ac8f12e08f","system_id":"levelo_inurba_marseille","lat":43.27062,"lon":5.40254,"is_reserved":false,"is_disabled":false,"rental_uris":{"android":"levelo://app?vid=6ba4ca26-89c4-4664-a74d-96ac8f12e08f","ios":"levelo://app?vid=6ba4ca26-89c4-4664-a74d-96ac8f12e08f"},"vehicle_type_id":"4","last_reported":1750241487,"current_range_meters":18000,"station_id":"ce4bhk92rcd13ifvqgc0","pricing_plan_id":"cebpf4jnsgd1na2vs0mg"},{"bike_id":"2c55bff7-359f-4781-9dbb-5e46b474c792","system_id":"levelo_inurba_marseille","lat":43.28155,"lon":5.42638,"is_reserved":false,"is_disabled":false,"rental_uris":{"android":"levelo://app?vid=2c55bff7-359f-4781-9dbb-5e46b474c792","ios":"levelo://app?vid=2c55bff7-359f-4781-9dbb-5e46b474c792"},"vehicle_type_id":"4","last_reported":1750241487,"current_range_meters":18000,"station_id":"ce4bhnh2rcd13ifvqgug","pricing_plan_id":"cebpf4jnsgd1na2vs0mg"},{"bike_id":"e5863b13-0bb4-41ee-a7a1-72091c1036b5","system_id":"levelo_inurba_marseille","lat":43.31607,"lon":5.38395,"is_reserved":false,"is_disabled":false,"rental_uris":{"android":"levelo://app?vid=e5863b13-0bb4-41ee-a7a1-72091c1036b5","ios":"levelo://app?vid=e5863b13-0bb4-41ee-a7a1-72091c1036b5"},"vehicle_type_id":"4","last_reported":1750241487,"current_range_meters":18800,"station_id":"","pricing_plan_id":"cebpf4jnsgd1na2vs0mg"},{"bike_id":"4ce5b165-f22d-40cf-abd3-1cb294861955","system_id":"levelo_inurba_marseille","lat":43.211913,"lon":5.350746,"is_reserved":false,"is_disabled":false,"rental_uris":{"android":"levelo://app?vid=4ce5b165-f22d-40cf-abd3-1cb294861955","ios":"levelo://app?vid=4ce5b165-f22d-40cf-abd3-1cb294861955"},"vehicle_type_id":"4","last_reported":1750241487,"current_range_meters":18800,"station_id":"","pricing_plan_id":"cebpf4jnsgd1na2vs0mg"},{"bike_id":"78016a6c-3ca7-4eda-a2f7-853a8ae2c567","system_id":"levelo_inurba_marseille","lat":43.2936,"lon":5.37837,"is_reserved":false,"is_disabled":false,"rental_uris":{"android":"levelo://app?vid=78016a6c-3ca7-4eda-a2f7-853a8ae2c567","ios":"levelo://app?vid=78016a6c-3ca7-4eda-a2f7-853a8ae2c567"},"vehicle_type_id":"4","last_reported":1750241487,"current_range_meters":18800,"station_id":"ce4bgjh2rcd13ifvqbf0","pricing_plan_id":"cebpf4jnsgd1na2vs0mg"},{"bike_id":"20a43b94-2f1d-49ef-81cc-61a786bce14d","system_id":"levelo_inurba_marseille","lat":43.29794,"lon":5.40392,"is_reserved":false,"is_disabled":false,"rental_uris":{"android":"levelo://app?vid=20a43b94-2f1d-49ef-81cc-61a786bce14d","ios":"levelo://app?vid=20a43b94-2f1d-49ef-81cc-61a786bce14d"},"vehicle_type_id":"4","last_reported":1750241487,"current_range_meters":18800,"station_id":"ce4bh112rcd13ifvqd90","pricing_plan_id":"cebpf4jnsgd1na2vs0mg"},{"bike_id":"585259ad-ba2c-4ce6-8a01-013d223950d8","system_id":"levelo_inurba_marseille","lat":43.28414,"lon":5.34994,"is_reserved":false,"is_disabled":false,"rental_uris":{"android":"levelo://app?vid=585259ad-ba2c-4ce6-8a01-013d223950d8","ios":"levelo://app?vid=585259ad-ba2c-4ce6-8a01-013d223950d8"},"vehicle_type_id":"4","last_reported":1750241487,"current_range_meters":18800,"station_id":"ce4bhbh2rcd13ifvqepg","pricing_plan_id":"cebpf4jnsgd1na2vs0mg"},{"bike_id":"a3a68f0d-eb9e-48ee-80da-13fd93b3b099","system_id":"levelo_inurba_marseille","lat":43.28416,"lon":5.3498,"is_reserved":false,"is_disabled":false,"rental_uris":{"android":"levelo://app?vid=a3a68f0d-eb9e-48ee-80da-13fd93b3b099","ios":"levelo://app?vid=a3a68f0d-eb9e-48ee-80da-13fd93b3b099"},"vehicle_type_id":"4","last_reported":1750241487,"current_range_meters":18800,"station_id":"ce4bhbh2rcd13ifvqepg","pricing_plan_id":"cebpf4jnsgd1na2vs0mg"},{"bike_id":"70ccf38c-f40f-449b-ae32-3edf990b03ac","system_id":"levelo_inurba_marseille","lat":43.27068,"lon":5.42273,"is_reserved":false,"is_disabled":false,"rental_uris":{"android":"levelo://app?vid=70ccf38c-f40f-449b-ae32-3edf990b03ac","ios":"levelo://app?vid=70ccf38c-f40f-449b-ae32-3edf990b03ac"},"vehicle_type_id":"4","last_reported":1750241487,"current_range_meters":18800,"station_id":"ce4bhk92rcd13ifvqgb0","pricing_plan_id":"cebpf4jnsgd1na2vs0mg"},{"bike_id":"bcc573f7-4885-4e01-a82f-f27d067ecde3","system_id":"levelo_inurba_marseille","lat":43.24168,"lon":5.39717,"is_reserved":false,"is_disabled":false,"rental_uris":{"android":"levelo://app?vid=bcc573f7-4885-4e01-a82f-f27d067ecde3","ios":"levelo://app?vid=bcc573f7-4885-4e01-a82f-f27d067ecde3"},"vehicle_type_id":"4","last_reported":1750241487,"current_range_meters":18800,"station_id":"ce4bhn12rcd13ifvqgpg","pricing_plan_id":"cebpf4jnsgd1na2vs0mg"},{"bike_id":"b792d1c2-8a9e-4afa-b07e-74b8daa2a6f8","system_id":"levelo_inurba_marseille","lat":43.32107,"lon":5.36793,"is_reserved":false,"is_disabled":false,"rental_uris":{"android":"levelo://app?vid=b792d1c2-8a9e-4afa-b07e-74b8daa2a6f8","ios":"levelo://app?vid=b792d1c2-8a9e-4afa-b07e-74b8daa2a6f8"},"vehicle_type_id":"4","last_reported":1750241487,"current_range_meters":18800,"station_id":"ce4bhrh2rcd13ifvqhug","pricing_plan_id":"cebpf4jnsgd1na2vs0mg"},{"bike_id":"833b16e1-97ec-4192-81e4-91877b340a52","system_id":"levelo_inurba_marseille","lat":43.32473,"lon":5.3654,"is_reserved":false,"is_disabled":false,"rental_uris":{"android":"levelo://app?vid=833b16e1-97ec-4192-81e4-91877b340a52","ios":"levelo://app?vid=833b16e1-97ec-4192-81e4-91877b340a52"},"vehicle_type_id":"4","last_reported":1750241487,"current_range_meters":18800,"station_id":"ce4bhs12rcd13ifvqhvg","pricing_plan_id":"cebpf4jnsgd1na2vs0mg"},{"bike_id":"744b1c90-170f-4e99-8fd9-ae1376712de0","system_id":"levelo_inurba_marseille","lat":43.21749,"lon":5.346,"is_reserved":false,"is_disabled":false,"rental_uris":{"android":"levelo://app?vid=744b1c90-170f-4e99-8fd9-ae1376712de0","ios":"levelo://app?vid=744b1c90-170f-4e99-8fd9-ae1376712de0"},"vehicle_type_id":"4","last_reported":1750241487,"current_range_meters":18800,"station_id":"st_cvj6r9ubvosntc0bgbag","pricing_plan_id":"cebpf4jnsgd1na2vs0mg"},{"bike_id":"4e47707b-664a-40a0-a9b0-ffdcfe0d9f9b","system_id":"levelo_inurba_marseille","lat":43.29913,"lon":5.38136,"is_reserved":false,"is_disabled":false,"rental_uris":{"android":"levelo://app?vid=4e47707b-664a-40a0-a9b0-ffdcfe0d9f9b","ios":"levelo://app?vid=4e47707b-664a-40a0-a9b0-ffdcfe0d9f9b"},"vehicle_type_id":"4","last_reported":1750241487,"current_range_meters":19200,"station_id":"ce4bgj12rcd13ifvqbc0","pricing_plan_id":"cebpf4jnsgd1na2vs0mg"},{"bike_id":"03b64852-b343-4a41-a95d-964568f415a0","system_id":"levelo_inurba_marseille","lat":43.31377,"lon":5.36699,"is_reserved":false,"is_disabled":false,"rental_uris":{"android":"levelo://app?vid=03b64852-b343-4a41-a95d-964568f415a0","ios":"levelo://app?vid=03b64852-b343-4a41-a95d-964568f415a0"},"vehicle_type_id":"4","last_reported":1750241487,"current_range_meters":19200,"station_id":"ce4bgr92rcd13ifvqc6g","pricing_plan_id":"cebpf4jnsgd1na2vs0mg"},{"bike_id":"e6481258-239b-4001-b128-4fec88385847","system_id":"levelo_inurba_marseille","lat":43.31164,"lon":5.38724,"is_reserved":false,"is_disabled":false,"rental_uris":{"android":"levelo://app?vid=e6481258-239b-4001-b128-4fec88385847","ios":"levelo://app?vid=e6481258-239b-4001-b128-4fec88385847"},"vehicle_type_id":"4","last_reported":1750241487,"current_range_meters":19200,"station_id":"ce4bgv12rcd13ifvqcp0","pricing_plan_id":"cebpf4jnsgd1na2vs0mg"},{"bike_id":"cfc3fef4-f93f-49bc-ba62-ea97fc2c8db8","system_id":"levelo_inurba_marseille","lat":43.28411,"lon":5.34988,"is_reserved":false,"is_disabled":false,"rental_uris":{"android":"levelo://app?vid=cfc3fef4-f93f-49bc-ba62-ea97fc2c8db8","ios":"levelo://app?vid=cfc3fef4-f93f-49bc-ba62-ea97fc2c8db8"},"vehicle_type_id":"4","last_reported":1750241487,"current_range_meters":19200,"station_id":"ce4bhbh2rcd13ifvqepg","pricing_plan_id":"cebpf4jnsgd1na2vs0mg"},{"bike_id":"048f65fb-ea07-4912-8bef-beddc20b75e3","system_id":"levelo_inurba_marseille","lat":43.33604,"lon":5.41039,"is_reserved":false,"is_disabled":false,"rental_uris":{"android":"levelo://app?vid=048f65fb-ea07-4912-8bef-beddc20b75e3","ios":"levelo://app?vid=048f65fb-ea07-4912-8bef-beddc20b75e3"},"vehicle_type_id":"4","last_reported":1750241487,"current_range_meters":19200,"station_id":"ce4bhqh2rcd13ifvqhmg","pricing_plan_id":"cebpf4jnsgd1na2vs0mg"},{"bike_id":"57194aa0-05f4-435c-9bf0-68cf0d29eea0","system_id":"levelo_inurba_marseille","lat":43.33722,"lon":5.39193,"is_reserved":false,"is_disabled":false,"rental_uris":{"android":"levelo://app?vid=57194aa0-05f4-435c-9bf0-68cf0d29eea0","ios":"levelo://app?vid=57194aa0-05f4-435c-9bf0-68cf0d29eea0"},"vehicle_type_id":"4","last_reported":1750241487,"current_range_meters":19200,"station_id":"ce4bhr92rcd13ifvqhsg","pricing_plan_id":"cebpf4jnsgd1na2vs0mg"},{"bike_id":"8be41ec0-5b54-4b9d-9320-73d9387f1f37","system_id":"levelo_inurba_marseille","lat":43.31524,"lon":5.38039,"is_reserved":false,"is_disabled":false,"rental_uris":{"android":"levelo://app?vid=8be41ec0-5b54-4b9d-9320-73d9387f1f37","ios":"levelo://app?vid=8be41ec0-5b54-4b9d-9320-73d9387f1f37"},"vehicle_type_id":"4","last_reported":1750241487,"current_range_meters":19200,"station_id":"ce4bhsp2rcd13ifvqi50","pricing_plan_id":"cebpf4jnsgd1na2vs0mg"},{"bike_id":"27cd7138-8b58-4d27-b6bb-d957b614e63b","system_id":"levelo_inurba_marseille","lat":43.30158,"lon":5.3699,"is_reserved":false,"is_disabled":false,"rental_uris":{"android":"levelo://app?vid=27cd7138-8b58-4d27-b6bb-d957b614e63b","ios":"levelo://app?vid=27cd7138-8b58-4d27-b6bb-d957b614e63b"},"vehicle_type_id":"4","last_reported":1750241487,"current_range_meters":19600,"station_id":"","pricing_plan_id":"cebpf4jnsgd1na2vs0mg"},{"bike_id":"0f7e5e81-7965-4173-a008-75ed52a0b141","system_id":"levelo_inurba_marseille","lat":43.251048,"lon":5.403414,"is_reserved":false,"is_disabled":false,"rental_uris":{"android":"levelo://app?vid=0f7e5e81-7965-4173-a008-75ed52a0b141","ios":"levelo://app?vid=0f7e5e81-7965-4173-a008-75ed52a0b141"},"vehicle_type_id":"4","last_reported":1750241487,"current_range_meters":19600,"station_id":"ce4bhlh2rcd13ifvqgig","pricing_plan_id":"cebpf4jnsgd1na2vs0mg"},{"bike_id":"564c5ce2-4762-4209-b4b8-b924c3f1263e","system_id":"levelo_inurba_marseille","lat":43.24176,"lon":5.397314,"is_reserved":false,"is_disabled":false,"rental_uris":{"android":"levelo://app?vid=564c5ce2-4762-4209-b4b8-b924c3f1263e","ios":"levelo://app?vid=564c5ce2-4762-4209-b4b8-b924c3f1263e"},"vehicle_type_id":"4","last_reported":1750241487,"current_range_meters":19600,"station_id":"ce4bhn12rcd13ifvqgpg","pricing_plan_id":"cebpf4jnsgd1na2vs0mg"},{"bike_id":"32d393f9-b000-4470-9933-fe51eaa54316","system_id":"levelo_inurba_marseille","lat":43.22928,"lon":5.35374,"is_reserved":false,"is_disabled":false,"rental_uris":{"android":"levelo://app?vid=32d393f9-b000-4470-9933-fe51eaa54316","ios":"levelo://app?vid=32d393f9-b000-4470-9933-fe51eaa54316"},"vehicle_type_id":"4","last_reported":1750241487,"current_range_meters":19600,"station_id":"cpo3532slgdg3j2ikp40","pricing_plan_id":"cebpf4jnsgd1na2vs0mg"},{"bike_id":"cc7142c6-34ef-4b0c-a302-c657990c1b31","system_id":"levelo_inurba_marseille","lat":43.3052,"lon":5.36498,"is_reserved":false,"is_disabled":false,"rental_uris":{"android":"levelo://app?vid=cc7142c6-34ef-4b0c-a302-c657990c1b31","ios":"levelo://app?vid=cc7142c6-34ef-4b0c-a302-c657990c1b31"},"vehicle_type_id":"4","last_reported":1750241487,"current_range_meters":20000,"station_id":"ce4bgs12rcd13ifvqcag","pricing_plan_id":"cebpf4jnsgd1na2vs0mg"},{"bike_id":"5bee911e-2806-4dcb-81ca-7018139bd604","system_id":"levelo_inurba_marseille","lat":43.28417,"lon":5.34994,"is_reserved":false,"is_disabled":false,"rental_uris":{"android":"levelo://app?vid=5bee911e-2806-4dcb-81ca-7018139bd604","ios":"levelo://app?vid=5bee911e-2806-4dcb-81ca-7018139bd604"},"vehicle_type_id":"4","last_reported":1750241487,"current_range_meters":20000,"station_id":"ce4bhbh2rcd13ifvqepg","pricing_plan_id":"cebpf4jnsgd1na2vs0mg"},{"bike_id":"30d24ad2-8583-436d-be09-37806aa87e6a","system_id":"levelo_inurba_marseille","lat":43.24806,"lon":5.37454,"is_reserved":false,"is_disabled":false,"rental_uris":{"android":"levelo://app?vid=30d24ad2-8583-436d-be09-37806aa87e6a","ios":"levelo://app?vid=30d24ad2-8583-436d-be09-37806aa87e6a"},"vehicle_type_id":"4","last_reported":1750241487,"current_range_meters":20000,"station_id":"ce4bhgh2rcd13ifvqfb0","pricing_plan_id":"cebpf4jnsgd1na2vs0mg"},{"bike_id":"098be97e-d547-4221-af28-95ca48392d82","system_id":"levelo_inurba_marseille","lat":43.33733,"lon":5.39184,"is_reserved":false,"is_disabled":false,"rental_uris":{"android":"levelo://app?vid=098be97e-d547-4221-af28-95ca48392d82","ios":"levelo://app?vid=098be97e-d547-4221-af28-95ca48392d82"},"vehicle_type_id":"4","last_reported":1750241487,"current_range_meters":20000,"station_id":"ce4bhr92rcd13ifvqhsg","pricing_plan_id":"cebpf4jnsgd1na2vs0mg"},{"bike_id":"9d050037-4610-4b9c-a77a-2a0945aaa1c6","system_id":"levelo_inurba_marseille","lat":43.32109,"lon":5.36762,"is_reserved":false,"is_disabled":false,"rental_uris":{"android":"levelo://app?vid=9d050037-4610-4b9c-a77a-2a0945aaa1c6","ios":"levelo://app?vid=9d050037-4610-4b9c-a77a-2a0945aaa1c6"},"vehicle_type_id":"4","last_reported":1750241487,"current_range_meters":20000,"station_id":"ce4bhrh2rcd13ifvqhug","pricing_plan_id":"cebpf4jnsgd1na2vs0mg"},{"bike_id":"0c12b42a-9236-457d-90ee-545905291ba1","system_id":"levelo_inurba_marseille","lat":43.29848,"lon":5.36269,"is_reserved":false,"is_disabled":false,"rental_uris":{"android":"levelo://app?vid=0c12b42a-9236-457d-90ee-545905291ba1","ios":"levelo://app?vid=0c12b42a-9236-457d-90ee-545905291ba1"},"vehicle_type_id":"4","last_reported":1750241487,"current_range_meters":20400,"station_id":"ce4bgpp2rcd13ifvqc3g","pricing_plan_id":"cebpf4jnsgd1na2vs0mg"},{"bike_id":"ddec4a7d-8b99-4dd5-b074-146a85a99ed9","system_id":"levelo_inurba_marseille","lat":43.30102,"lon":5.3908,"is_reserved":false,"is_disabled":false,"rental_uris":{"android":"levelo://app?vid=ddec4a7d-8b99-4dd5-b074-146a85a99ed9","ios":"levelo://app?vid=ddec4a7d-8b99-4dd5-b074-146a85a99ed9"},"vehicle_type_id":"4","last_reported":1750241487,"current_range_meters":20400,"station_id":"ce4bh192rcd13ifvqdb0","pricing_plan_id":"cebpf4jnsgd1na2vs0mg"},{"bike_id":"27e61378-7dbe-42b1-b59e-6af30afd7058","system_id":"levelo_inurba_marseille","lat":43.26025,"lon":5.37548,"is_reserved":false,"is_disabled":false,"rental_uris":{"android":"levelo://app?vid=27e61378-7dbe-42b1-b59e-6af30afd7058","ios":"levelo://app?vid=27e61378-7dbe-42b1-b59e-6af30afd7058"},"vehicle_type_id":"4","last_reported":1750241487,"current_range_meters":20400,"station_id":"ce4bhgh2rcd13ifvqfa0","pricing_plan_id":"cebpf4jnsgd1na2vs0mg"},{"bike_id":"cf9033b4-6d91-4deb-82b9-802a292c2482","system_id":"levelo_inurba_marseille","lat":43.2731,"lon":5.39068,"is_reserved":false,"is_disabled":false,"rental_uris":{"android":"levelo://app?vid=cf9033b4-6d91-4deb-82b9-802a292c2482","ios":"levelo://app?vid=cf9033b4-6d91-4deb-82b9-802a292c2482"},"vehicle_type_id":"4","last_reported":1750241487,"current_range_meters":20400,"station_id":"ce4bhgp2rcd13ifvqfe0","pricing_plan_id":"cebpf4jnsgd1na2vs0mg"},{"bike_id":"109392b3-19b2-4b1c-93e6-ac5d5f2ccbfc","system_id":"levelo_inurba_marseille","lat":43.27212,"lon":5.3918,"is_reserved":false,"is_disabled":false,"rental_uris":{"android":"levelo://app?vid=109392b3-19b2-4b1c-93e6-ac5d5f2ccbfc","ios":"levelo://app?vid=109392b3-19b2-4b1c-93e6-ac5d5f2ccbfc"},"vehicle_type_id":"4","last_reported":1750241487,"current_range_meters":20400,"station_id":"ce4bhhp2rcd13ifvqfm0","pricing_plan_id":"cebpf4jnsgd1na2vs0mg"},{"bike_id":"0809e151-8afd-44d3-a7cc-90211a73a47e","system_id":"levelo_inurba_marseille","lat":43.32098,"lon":5.3677,"is_reserved":false,"is_disabled":false,"rental_uris":{"android":"levelo://app?vid=0809e151-8afd-44d3-a7cc-90211a73a47e","ios":"levelo://app?vid=0809e151-8afd-44d3-a7cc-90211a73a47e"},"vehicle_type_id":"4","last_reported":1750241487,"current_range_meters":20400,"station_id":"ce4bhrh2rcd13ifvqhug","pricing_plan_id":"cebpf4jnsgd1na2vs0mg"},{"bike_id":"e1c3726f-841e-4534-9ee4-a146eaffc46a","system_id":"levelo_inurba_marseille","lat":43.29971,"lon":5.38492,"is_reserved":false,"is_disabled":false,"rental_uris":{"android":"levelo://app?vid=e1c3726f-841e-4534-9ee4-a146eaffc46a","ios":"levelo://app?vid=e1c3726f-841e-4534-9ee4-a146eaffc46a"},"vehicle_type_id":"4","last_reported":1750241487,"current_range_meters":20800,"station_id":"ce4bgj92rcd13ifvqbd0","pricing_plan_id":"cebpf4jnsgd1na2vs0mg"},{"bike_id":"de53f114-13ff-49ee-9a7f-de46af6d2558","system_id":"levelo_inurba_marseille","lat":43.30168,"lon":5.38066,"is_reserved":false,"is_disabled":false,"rental_uris":{"android":"levelo://app?vid=de53f114-13ff-49ee-9a7f-de46af6d2558","ios":"levelo://app?vid=de53f114-13ff-49ee-9a7f-de46af6d2558"},"vehicle_type_id":"4","last_reported":1750241487,"current_range_meters":20800,"station_id":"ce4bgjp2rcd13ifvqbh0","pricing_plan_id":"cebpf4jnsgd1na2vs0mg"},{"bike_id":"6e4b53b9-aeeb-4d9e-b954-640bd88e729c","system_id":"levelo_inurba_marseille","lat":43.31365,"lon":5.36719,"is_reserved":false,"is_disabled":false,"rental_uris":{"android":"levelo://app?vid=6e4b53b9-aeeb-4d9e-b954-640bd88e729c","ios":"levelo://app?vid=6e4b53b9-aeeb-4d9e-b954-640bd88e729c"},"vehicle_type_id":"4","last_reported":1750241487,"current_range_meters":20800,"station_id":"ce4bgr92rcd13ifvqc6g","pricing_plan_id":"cebpf4jnsgd1na2vs0mg"},{"bike_id":"851b2c02-bc42-43ba-a0e4-874213141910","system_id":"levelo_inurba_marseille","lat":43.26686,"lon":5.38259,"is_reserved":false,"is_disabled":false,"rental_uris":{"android":"levelo://app?vid=851b2c02-bc42-43ba-a0e4-874213141910","ios":"levelo://app?vid=851b2c02-bc42-43ba-a0e4-874213141910"},"vehicle_type_id":"4","last_reported":1750241487,"current_range_meters":20800,"station_id":"ce4bhg92rcd13ifvqf90","pricing_plan_id":"cebpf4jnsgd1na2vs0mg"},{"bike_id":"22417aaa-cf2f-478b-af0a-19e521240772","system_id":"levelo_inurba_marseille","lat":43.24173,"lon":5.39726,"is_reserved":false,"is_disabled":false,"rental_uris":{"android":"levelo://app?vid=22417aaa-cf2f-478b-af0a-19e521240772","ios":"levelo://app?vid=22417aaa-cf2f-478b-af0a-19e521240772"},"vehicle_type_id":"4","last_reported":1750241487,"current_range_meters":20800,"station_id":"ce4bhn12rcd13ifvqgpg","pricing_plan_id":"cebpf4jnsgd1na2vs0mg"},{"bike_id":"75fd588d-acfb-46e9-8dd8-1fb428c7a2d5","system_id":"levelo_inurba_marseille","lat":43.3199,"lon":5.3816,"is_reserved":false,"is_disabled":false,"rental_uris":{"android":"levelo://app?vid=75fd588d-acfb-46e9-8dd8-1fb428c7a2d5","ios":"levelo://app?vid=75fd588d-acfb-46e9-8dd8-1fb428c7a2d5"},"vehicle_type_id":"4","last_reported":1750241487,"current_range_meters":20800,"station_id":"ce4bhr12rcd13ifvqhpg","pricing_plan_id":"cebpf4jnsgd1na2vs0mg"},{"bike_id":"d7cc7979-8856-447f-865f-e44e47815697","system_id":"levelo_inurba_marseille","lat":43.31381,"lon":5.36681,"is_reserved":false,"is_disabled":false,"rental_uris":{"android":"levelo://app?vid=d7cc7979-8856-447f-865f-e44e47815697","ios":"levelo://app?vid=d7cc7979-8856-447f-865f-e44e47815697"},"vehicle_type_id":"4","last_reported":1750241487,"current_range_meters":21600,"station_id":"","pricing_plan_id":"cebpf4jnsgd1na2vs0mg"},{"bike_id":"1fbf67cf-b649-4dc3-9b45-d3b1835381e3","system_id":"levelo_inurba_marseille","lat":43.332771,"lon":5.406919,"is_reserved":false,"is_disabled":false,"rental_uris":{"android":"levelo://app?vid=1fbf67cf-b649-4dc3-9b45-d3b1835381e3","ios":"levelo://app?vid=1fbf67cf-b649-4dc3-9b45-d3b1835381e3"},"vehicle_type_id":"4","last_reported":1750241487,"current_range_meters":21600,"station_id":"","pricing_plan_id":"cebpf4jnsgd1na2vs0mg"},{"bike_id":"f31956f3-5498-4629-95d0-4b3055fcdc61","system_id":"levelo_inurba_marseille","lat":43.29373,"lon":5.37841,"is_reserved":false,"is_disabled":false,"rental_uris":{"android":"levelo://app?vid=f31956f3-5498-4629-95d0-4b3055fcdc61","ios":"levelo://app?vid=f31956f3-5498-4629-95d0-4b3055fcdc61"},"vehicle_type_id":"4","last_reported":1750241487,"current_range_meters":21600,"station_id":"ce4bgjh2rcd13ifvqbf0","pricing_plan_id":"cebpf4jnsgd1na2vs0mg"},