{"last_updated":1758219306,"ttl":60,"version":"2.2","data":{"bikes":[{"bike_id":"5cf9331b-364c-4e94-93dc-7aec4975399d","system_id":"levelo_inurba_marseille","lat":43.3095,"lon":5.3903,"is_reserved":false,"is_disabled":false,"rental_uris":{"android":"levelo://app?vid=5cf9331b-364c-4e94-93dc-7aec4975399d","ios":"levelo://app?vid=5cf9331b-364c-4e94-93dc-7aec4975399d"},"vehicle_type_id":"4","last_reported":1758219307,"current_range_meters":3200,"station_id":"ce4bgup2rcd13ifvqco0","pricing_plan_id":"cebpf4jnsgd1na2vs0mg"},{"bike_id":"e7b19a72-1e16-412f-aefc-82ab690f3ccf","system_id":"levelo_inurba_marseille","lat":43.28727,"lon":5.37932,"is_reserved":false,"is_disabled":false,"rental_uris":{"android":"levelo://app?vid=e7b19a72-1e16-412f-aefc-82ab690f3ccf","ios":"levelo://app?vid=e7b19a72-1e16-412f-aefc-82ab690f3ccf"},"vehicle_type_id":"4","last_reported":1758219307,"current_range_meters":3200,"station_id":"ce4bh9p2rcd13ifvqec0","pricing_plan_id":"cebpf4jnsgd1na2vs0mg"},{"bike_id":"83767ece-a14f-4b7b-b26e-19b48c86af71","system_id":"levelo_inurba_marseille","lat":43.30727,"lon":5.42441,"is_reserved":false,"is_disabled":false,"rental_uris":{"android":"levelo://app?vid=83767ece-a14f-4b7b-b26e-19b48c86af71","ios":"levelo://app?vid=83767ece-a14f-4b7b-b26e-19b48c86af71"},"vehicle_type_id":"4","last_reported":1758219307,"current_range_meters":3200,"station_id":"st_cvj6ca6bvosntc0bfgr0","pricing_plan_id":"cebpf4jnsgd1na2vs0mg"},{"bike_id":"7dabf3a1-926b-49ad-9388-bd583b7316dd","system_id":"levelo_inurba_marseille","lat":43.29963,"lon":5.38506,"is_reserved":false,"is_disabled":false,"rental_uris":{"android":"levelo://app?vid=7dabf3a1-926b-49ad-9388-bd583b7316dd","ios":"levelo://app?vid=7dabf3a1-926b-49ad-9388-bd583b7316dd"},"vehicle_type_id":"4","last_reported":1758219307,"current_range_meters":3200,"station_id":"","pricing_plan_id":"cebpf4jnsgd1na2vs0mg"},{"bike_id":"a23abce7-1874-4278-801b-f94b098cf059","system_id":"levelo_inurba_marseille","lat":43.3171,"lon":5.37752,"is_reserved":false,"is_disabled":false,"rental_uris":{"android":"levelo://app?vid=a23abce7-1874-4278-801b-f94b098cf059","ios":"levelo://app?vid=a23abce7-1874-4278-801b-f94b098cf059"},"vehicle_type_id":"4","last_reported":1758219307,"current_range_meters":3600,"station_id":"ce4bgth2rcd13ifvqch0","pricing_plan_id":"cebpf4jnsgd1na2vs0mg"},{"bike_id":"f25b63f5-55b5-4fdd-9b68-655ffc2abf37","system_id":"levelo_inurba_marseille","lat":43.2927,"lon":5.3763,"is_reserved":false,"is_disabled":false,"rental_uris":{"android":"levelo://app?vid=f25b63f5-55b5-4fdd-9b68-655ffc2abf37","ios":"levelo://app?vid=f25b63f5-55b5-4fdd-9b68-655ffc2abf37"},"vehicle_type_id":"4","last_reported":1758219307,"current_range_meters":3600,"station_id":"ce4bgi12rcd13ifvqb80","pricing_plan_id":"cebpf4jnsgd1na2vs0mg"},{"bike_id":"5b1a3548-4384-418f-b6b2-16eb93ba4829","system_id":"levelo_inurba_marseille","lat":43.28651,"lon":5.36375,"is_reserved":false,"is_disabled":true,"rental_uris":{"android":"levelo://app?vid=5b1a3548-4384-418f-b6b2-16eb93ba4829","ios":"levelo://app?vid=5b1a3548-4384-418f-b6b2-16eb93ba4829"},"vehicle_type_id":"4","last_reported":1758219307,"current_range_meters":4000,"station_id":"ce4bhah2rcd13ifvqej0","pricing_plan_id":"cebpf4jnsgd1na2vs0mg"},{"bike_id":"775af279-8ac9-4585-9121-809be9b13265","system_id":"levelo_inurba_marseille","lat":43.33777,"lon":5.37492,"is_reserved":false,"is_disabled":false,"rental_uris":{"android":"levelo://app?vid=775af279-8ac9-4585-9121-809be9b13265","ios":"levelo://app?vid=775af279-8ac9-4585-9121-809be9b13265"},"vehicle_type_id":"4","last_reported":1758219307,"current_range_meters":4000,"station_id":"","pricing_plan_id":"cebpf4jnsgd1na2vs0mg"},{"bike_id":"bb67374c-d205-4ae1-a9dd-6b21ef664e5a","system_id":"levelo_inurba_marseille","lat":43.29039,"lon":5.38129,"is_reserved":false,"is_disabled":false,"rental_uris":{"android":"levelo://app?vid=bb67374c-d205-4ae1-a9dd-6b21ef664e5a","ios":"levelo://app?vid=bb67374c-d205-4ae1-a9dd-6b21ef664e5a"},"vehicle_type_id":"4","last_reported":1758219307,"current_range_meters":4000,"station_id":"ce4bh4p2rcd13ifvqe1g","pricing_plan_id":"cebpf4jnsgd1na2vs0mg"},{"bike_id":"6c539355-e3d6-41a4-bbe6-495934b558af","system_id":"levelo_inurba_marseille","lat":43.312243,"lon":5.368614,"is_reserved":false,"is_disabled":false,"rental_uris":{"android":"levelo://app?vid=6c539355-e3d6-41a4-bbe6-495934b558af","ios":"levelo://app?vid=6c539355-e3d6-41a4-bbe6-495934b558af"},"vehicle_type_id":"4","last_reported":1758219307,"current_range_meters":4000,"station_id":"ce4bgl92rcd13ifvqbq0","pricing_plan_id":"cebpf4jnsgd1na2vs0mg"},{"bike_id":"3f1deea6-0360-47d4-a21d-014e1bfe7dc1","system_id":"levelo_inurba_marseille","lat":43.30154,"lon":5.39843,"is_reserved":false,"is_disabled":false,"rental_uris":{"android":"levelo://app?vid=3f1deea6-0360-47d4-a21d-014e1bfe7dc1","ios":"levelo://app?vid=3f1deea6-0360-47d4-a21d-014e1bfe7dc1"},"vehicle_type_id":"4","last_reported":1758219307,"current_range_meters":4000,"station_id":"ce4bh0h2rcd13ifvqd40","pricing_plan_id":"cebpf4jnsgd1na2vs0mg"},{"bike_id":"22d7cf64-825d-42a7-96a8-6edd6d307ade","system_id":"levelo_inurba_marseille","lat":43.29307,"lon":5.37186,"is_reserved":false,"is_disabled":false,"rental_uris":{"android":"levelo://app?vid=22d7cf64-825d-42a7-96a8-6edd6d307ade","ios":"levelo://app?vid=22d7cf64-825d-42a7-96a8-6edd6d307ade"},"vehicle_type_id":"4","last_reported":1758219307,"current_range_meters":4000,"station_id":"","pricing_plan_id":"cebpf4jnsgd1na2vs0mg"},{"bike_id":"dbadcf8c-bb6e-4ef9-8458-74ac25fe71af","system_id":"levelo_inurba_marseille","lat":43.30873,"lon":5.39654,"is_reserved":false,"is_disabled":false,"rental_uris":{"android":"levelo://app?vid=dbadcf8c-bb6e-4ef9-8458-74ac25fe71af","ios":"levelo://app?vid=dbadcf8c-bb6e-4ef9-8458-74ac25fe71af"},"vehicle_type_id":"4","last_reported":1758219307,"current_range_meters":3600,"station_id":"ce4bh012rcd13ifvqcv0","pricing_plan_id":"cebpf4jnsgd1na2vs0mg"},{"bike_id":"003515e8-8117-44bb-979d-5f47e8d50fda","system_id":"levelo_inurba_marseille","lat":43.30628,"lon":5.37573,"is_reserved":false,"is_disabled":false,"rental_uris":{"android":"levelo://app?vid=003515e8-8117-44bb-979d-5f47e8d50fda","ios":"levelo://app?vid=003515e8-8117-44bb-979d-5f47e8d50fda"},"vehicle_type_id":"4","last_reported":1758219307,"current_range_meters":4400,"station_id":"","pricing_plan_id":"cebpf4jnsgd1na2vs0mg"},{"bike_id":"2552dd64-3654-4110-86d5-9e1bb9a2150c","system_id":"levelo_inurba_marseille","lat":43.262146,"lon":5.374386,"is_reserved":false,"is_disabled":false,"rental_uris":{"android":"levelo://app?vid=2552dd64-3654-4110-86d5-9e1bb9a2150c","ios":"levelo://app?vid=2552dd64-3654-4110-86d5-9e1bb9a2150c"},"vehicle_type_id":"4","last_reported":1758219307,"current_range_meters":4400,"station_id":"ce4bhgp2rcd13ifvqfc0","pricing_plan_id":"cebpf4jnsgd1na2vs0mg"},{"bike_id":"e4866abf-7b6c-485b-a3fa-c4b24c73d8b9","system_id":"levelo_inurba_marseille","lat":43.25067,"lon":5.39525,"is_reserved":false,"is_disabled":true,"rental_uris":{"android":"levelo://app?vid=e4866abf-7b6c-485b-a3fa-c4b24c73d8b9","ios":"levelo://app?vid=e4866abf-7b6c-485b-a3fa-c4b24c73d8b9"},"vehicle_type_id":"4","last_reported":1758219307,"current_range_meters":4400,"station_id":"ce4bhm12rcd13ifvqgkg","pricing_plan_id":"cebpf4jnsgd1na2vs0mg"},{"bike_id":"e7ede094-43c1-4772-90b0-fbc85e69ac06","system_id":"levelo_inurba_marseille","lat":43.30647,"lon":5.40102,"is_reserved":false,"is_disabled":false,"rental_uris":{"android":"levelo://app?vid=e7ede094-43c1-4772-90b0-fbc85e69ac06","ios":"levelo://app?vid=e7ede094-43c1-4772-90b0-fbc85e69ac06"},"vehicle_type_id":"4","last_reported":1758219307,"current_range_meters":5600,"station_id":"ce4bh112rcd13ifvqda0","pricing_plan_id":"cebpf4jnsgd1na2vs0mg"},{"bike_id":"a847f1ce-11a4-487c-9b1f-9a5bb764498a","system_id":"levelo_inurba_marseille","lat":43.26556,"lon":5.37284,"is_reserved":false,"is_disabled":false,"rental_uris":{"android":"levelo://app?vid=a847f1ce-11a4-487c-9b1f-9a5bb764498a","ios":"levelo://app?vid=a847f1ce-11a4-487c-9b1f-9a5bb764498a"},"vehicle_type_id":"4","last_reported":1758219307,"current_range_meters":4400,"station_id":"ce4bhg12rcd13ifvqf70","pricing_plan_id":"cebpf4jnsgd1na2vs0mg"},{"bike_id":"77585b06-3152-4cd5-ba3f-f2f93743fc6d","system_id":"levelo_inurba_marseille","lat":43.29023,"lon":5.38658,"is_reserved":false,"is_disabled":false,"rental_uris":{"android":"levelo://app?vid=77585b06-3152-4cd5-ba3f-f2f93743fc6d","ios":"levelo://app?vid=77585b06-3152-4cd5-ba3f-f2f93743fc6d"},"vehicle_type_id":"4","last_reported":1758219307,"current_range_meters":4400,"station_id":"ce4bh4p2rcd13ifvqe0g","pricing_plan_id":"cebpf4jnsgd1na2vs0mg"},{"bike_id":"6a8e8afc-3841-4f33-a8b1-18349fab3e9a","system_id":"levelo_inurba_marseille","lat":43.2957,"lon":5.37533,"is_reserved":false,"is_disabled":false,"rental_uris":{"android":"levelo://app?vid=6a8e8afc-3841-4f33-a8b1-18349fab3e9a","ios":"levelo://app?vid=6a8e8afc-3841-4f33-a8b1-18349fab3e9a"},"vehicle_type_id":"4","last_reported":1758219307,"current_range_meters":4800,"station_id":"","pricing_plan_id":"cebpf4jnsgd1na2vs0mg"},{"bike_id":"059c0ba7-1dcb-4f29-8d05-6060640937cc","system_id":"levelo_inurba_marseille","lat":43.3289,"lon":5.39217,"is_reserved":false,"is_disabled":false,"rental_uris":{"android":"levelo://app?vid=059c0ba7-1dcb-4f29-8d05-6060640937cc","ios":"levelo://app?vid=059c0ba7-1dcb-4f29-8d05-6060640937cc"},"vehicle_type_id":"4","last_reported":1758219307,"current_range_meters":4800,"station_id":"","pricing_plan_id":"cebpf4jnsgd1na2vs0mg"},{"bike_id":"c735ee41-7ab2-4b4d-a094-61e6eb4be0fa","system_id":"levelo_inurba_marseille","lat":43.29036,"lon":5.37559,"is_reserved":false,"is_disabled":false,"rental_uris":{"android":"levelo://app?vid=c735ee41-7ab2-4b4d-a094-61e6eb4be0fa","ios":"levelo://app?vid=c735ee41-7ab2-4b4d-a094-61e6eb4be0fa"},"vehicle_type_id":"4","last_reported":1758219307,"current_range_meters":4800,"station_id":"ce4bh692rcd13ifvqe90","pricing_plan_id":"cebpf4jnsgd1na2vs0mg"},{"bike_id":"405b8d3f-4382-4e15-9013-360eab09ad79","system_id":"levelo_inurba_marseille","lat":43.32288,"lon":5.38271,"is_reserved":false,"is_disabled":false,"rental_uris":{"android":"levelo://app?vid=405b8d3f-4382-4e15-9013-360eab09ad79","ios":"levelo://app?vid=405b8d3f-4382-4e15-9013-360eab09ad79"},"vehicle_type_id":"4","last_reported":1758219307,"current_range_meters":4800,"station_id":"ce4bhr12rcd13ifvqhqg","pricing_plan_id":"cebpf4jnsgd1na2vs0mg"},{"bike_id":"4eac4210-6b60-41e4-ac56-6b39e6a730fa","system_id":"levelo_inurba_marseille","lat":43.29585,"lon":5.37499,"is_reserved":false,"is_disabled":false,"rental_uris":{"android":"levelo://app?vid=4eac4210-6b60-41e4-ac56-6b39e6a730fa","ios":"levelo://app?vid=4eac4210-6b60-41e4-ac56-6b39e6a730fa"},"vehicle_type_id":"4","last_reported":1758219307,"current_range_meters":4800,"station_id":"","pricing_plan_id":"cebpf4jnsgd1na2vs0mg"},{"bike_id":"3a8b313f-42ae-4dd0-911f-818b32965d1b","system_id":"levelo_inurba_marseille","lat":43.290405,"lon":5.386489,"is_reserved":false,"is_disabled":false,"rental_uris":{"android":"levelo://app?vid=3a8b313f-42ae-4dd0-911f-818b32965d1b","ios":"levelo://app?vid=3a8b313f-42ae-4dd0-911f-818b32965d1b"},"vehicle_type_id":"4","last_reported":1758219307,"current_range_meters":4800,"station_id":"ce4bh4p2rcd13ifvqe0g","pricing_plan_id":"cebpf4jnsgd1na2vs0mg"},{"bike_id":"b6a849af-ac5e-4a53-b7a0-1ab6f8274914","system_id":"levelo_inurba_marseille","lat":43.29591,"lon":5.37699,"is_reserved":false,"is_disabled":true,"rental_uris":{"android":"levelo://app?vid=b6a849af-ac5e-4a53-b7a0-1ab6f8274914","ios":"levelo://app?vid=b6a849af-ac5e-4a53-b7a0-1ab6f8274914"},"vehicle_type_id":"4","last_reported":1758219307,"current_range_meters":4800,"station_id":"","pricing_plan_id":"cebpf4jnsgd1na2vs0mg"},{"bike_id":"92534122-acd3-4732-91b5-36da2c28837a","system_id":"levelo_inurba_marseille","lat":43.29626,"lon":5.37715,"is_reserved":false,"is_disabled":false,"rental_uris":{"android":"levelo://app?vid=92534122-acd3-4732-91b5-36da2c28837a","ios":"levelo://app?vid=92534122-acd3-4732-91b5-36da2c28837a"},"vehicle_type_id":"4","last_reported":1758219307,"current_range_meters":4800,"station_id":"","pricing_plan_id":"cebpf4jnsgd1na2vs0mg"},{"bike_id":"938f8536-0c89-45a5-8490-ec30a229abb8","system_id":"levelo_inurba_marseille","lat":43.21762,"lon":5.34603,"is_reserved":false,"is_disabled":false,"rental_uris":{"android":"levelo://app?vid=938f8536-0c89-45a5-8490-ec30a229abb8","ios":"levelo://app?vid=938f8536-0c89-45a5-8490-ec30a229abb8"},"vehicle_type_id":"4","last_reported":1758219307,"current_range_meters":5600,"station_id":"","pricing_plan_id":"cebpf4jnsgd1na2vs0mg"},{"bike_id":"e829ad29-aa61-466c-8172-6bcdfe7b80f2","system_id":"levelo_inurba_marseille","lat":43.29569,"lon":5.37521,"is_reserved":false,"is_disabled":false,"rental_uris":{"android":"levelo://app?vid=e829ad29-aa61-466c-8172-6bcdfe7b80f2","ios":"levelo://app?vid=e829ad29-aa61-466c-8172-6bcdfe7b80f2"},"vehicle_type_id":"4","last_reported":1758219307,"current_range_meters":5600,"station_id":"","pricing_plan_id":"cebpf4jnsgd1na2vs0mg"},{"bike_id":"3aab5c9e-a174-470d-9db3-5e5547ed8109","system_id":"levelo_inurba_marseille","lat":43.29544,"lon":5.38546,"is_reserved":false,"is_disabled":false,"rental_uris":{"android":"levelo://app?vid=3aab5c9e-a174-470d-9db3-5e5547ed8109","ios":"levelo://app?vid=3aab5c9e-a174-470d-9db3-5e5547ed8109"},"vehicle_type_id":"4","last_reported":1758219307,"current_range_meters":5600,"station_id":"ce4bgih2rcd13ifvqba0","pricing_plan_id":"cebpf4jnsgd1na2vs0mg"},{"bike_id":"44c0247a-f6b2-4da3-a3fd-849d657ad6e7","system_id":"levelo_inurba_marseille","lat":43.27843,"lon":5.39199,"is_reserved":false,"is_disabled":false,"rental_uris":{"android":"levelo://app?vid=44c0247a-f6b2-4da3-a3fd-849d657ad6e7","ios":"levelo://app?vid=44c0247a-f6b2-4da3-a3fd-849d657ad6e7"},"vehicle_type_id":"4","last_reported":1758219307,"current_range_meters":6000,"station_id":"ce4bhjp2rcd13ifvqga0","pricing_plan_id":"cebpf4jnsgd1na2vs0mg"},{"bike_id":"0fefa8ac-85a9-4c91-bbe7-0e3aabb104c2","system_id":"levelo_inurba_marseille","lat":43.305479,"lon":5.384136,"is_reserved":false,"is_disabled":false,"rental_uris":{"android":"levelo://app?vid=0fefa8ac-85a9-4c91-bbe7-0e3aabb104c2","ios":"levelo://app?vid=0fefa8ac-85a9-4c91-bbe7-0e3aabb104c2"},"vehicle_type_id":"4","last_reported":1758219307,"current_range_meters":6000,"station_id":"ce4bgg92rcd13ifvqb30","pricing_plan_id":"cebpf4jnsgd1na2vs0mg"},{"bike_id":"5cebaa99-7be9-4a3f-9cc0-5cdfdaef03f0","system_id":"levelo_inurba_marseille","lat":43.225319,"lon":5.348348,"is_reserved":false,"is_disabled":false,"rental_uris":{"android":"levelo://app?vid=5cebaa99-7be9-4a3f-9cc0-5cdfdaef03f0","ios":"levelo://app?vid=5cebaa99-7be9-4a3f-9cc0-5cdfdaef03f0"},"vehicle_type_id":"4","last_reported":1758219307,"current_range_meters":6000,"station_id":"","pricing_plan_id":"cebpf4jnsgd1na2vs0mg"},{"bike_id":"a8abe731-e431-47a1-8a18-54cc194d8744","system_id":"levelo_inurba_marseille","lat":43.231849,"lon":5.399808,"is_reserved":false,"is_disabled":false,"rental_uris":{"android":"levelo://app?vid=a8abe731-e431-47a1-8a18-54cc194d8744","ios":"levelo://app?vid=a8abe731-e431-47a1-8a18-54cc194d8744"},"vehicle_type_id":"4","last_reported":1758219307,"current_range_meters":6000,"station_id":"ce4bhn12rcd13ifvqgqg","pricing_plan_id":"cebpf4jnsgd1na2vs0mg"},{"bike_id":"e820c689-e974-4315-9bed-010e44b9c698","system_id":"levelo_inurba_marseille","lat":43.2812,"lon":5.35014,"is_reserved":false,"is_disabled":false,"rental_uris":{"android":"levelo://app?vid=e820c689-e974-4315-9bed-010e44b9c698","ios":"levelo://app?vid=e820c689-e974-4315-9bed-010e44b9c698"},"vehicle_type_id":"4","last_reported":1758219307,"current_range_meters":6400,"station_id":"","pricing_plan_id":"cebpf4jnsgd1na2vs0mg"},{"bike_id":"ee3a25b0-b6f9-4367-8444-1f32983fbef6","system_id":"levelo_inurba_marseille","lat":43.29697,"lon":5.3771,"is_reserved":false,"is_disabled":true,"rental_uris":{"android":"levelo://app?vid=ee3a25b0-b6f9-4367-8444-1f32983fbef6","ios":"levelo://app?vid=ee3a25b0-b6f9-4367-8444-1f32983fbef6"},"vehicle_type_id":"4","last_reported":1758219307,"current_range_meters":6400,"station_id":"","pricing_plan_id":"cebpf4jnsgd1na2vs0mg"},{"bike_id":"537146fd-77f3-4a7e-aef6-61209f803e53","system_id":"levelo_inurba_marseille","lat":43.302858,"lon":5.377,"is_reserved":false,"is_disabled":true,"rental_uris":{"android":"levelo://app?vid=537146fd-77f3-4a7e-aef6-61209f803e53","ios":"levelo://app?vid=537146fd-77f3-4a7e-aef6-61209f803e53"},"vehicle_type_id":"4","last_reported":1758219307,"current_range_meters":6400,"station_id":"","pricing_plan_id":"cebpf4jnsgd1na2vs0mg"},{"bike_id":"25b2da70-3345-491c-80f8-92888481b5a8","system_id":"levelo_inurba_marseille","lat":43.30142,"lon":5.37418,"is_reserved":false,"is_disabled":true,"rental_uris":{"android":"levelo://app?vid=25b2da70-3345-491c-80f8-92888481b5a8","ios":"levelo://app?vid=25b2da70-3345-491c-80f8-92888481b5a8"},"vehicle_type_id":"4","last_reported":1758219307,"current_range_meters":6400,"station_id":"","pricing_plan_id":"cebpf4jnsgd1na2vs0mg"},{"bike_id":"ddba727d-094a-48fc-8e68-c4fcd621b6f8","system_id":"levelo_inurba_marseille","lat":43.310511,"lon":5.370214,"is_reserved":false,"is_disabled":false,"rental_uris":{"android":"levelo://app?vid=ddba727d-094a-48fc-8e68-c4fcd621b6f8","ios":"levelo://app?vid=ddba727d-094a-48fc-8e68-c4fcd621b6f8"},"vehicle_type_id":"4","last_reported":1758219307,"current_range_meters":6800,"station_id":"ce4bguh2rcd13ifvqckg","pricing_plan_id":"cebpf4jnsgd1na2vs0mg"},{"bike_id":"4b7b2050-05f8-45b1-9654-fe7d1a1f1a04","system_id":"levelo_inurba_marseille","lat":43.30139,"lon":5.37415,"is_reserved":false,"is_disabled":true,"rental_uris":{"android":"levelo://app?vid=4b7b2050-05f8-45b1-9654-fe7d1a1f1a04","ios":"levelo://app?vid=4b7b2050-05f8-45b1-9654-fe7d1a1f1a04"},"vehicle_type_id":"4","last_reported":1758219307,"current_range_meters":6800,"station_id":"","pricing_plan_id":"cebpf4jnsgd1na2vs0mg"},{"bike_id":"81ea6637-4118-4bfe-b01c-7d60e0449db6","system_id":"levelo_inurba_marseille","lat":43.29578,"lon":5.37701,"is_reserved":false,"is_disabled":true,"rental_uris":{"android":"levelo://app?vid=81ea6637-4118-4bfe-b01c-7d60e0449db6","ios":"levelo://app?vid=81ea6637-4118-4bfe-b01c-7d60e0449db6"},"vehicle_type_id":"4","last_reported":1758219307,"current_range_meters":6800,"station_id":"","pricing_plan_id":"cebpf4jnsgd1na2vs0mg"},{"bike_id":"a3de2fd2-66bd-482d-8c7a-3205970c4f72","system_id":"levelo_inurba_marseille","lat":43.26545,"lon":5.37292,"is_reserved":false,"is_disabled":true,"rental_uris":{"android":"levelo://app?vid=a3de2fd2-66bd-482d-8c7a-3205970c4f72","ios":"levelo://app?vid=a3de2fd2-66bd-482d-8c7a-3205970c4f72"},"vehicle_type_id":"4","last_reported":1758219307,"current_range_meters":7200,"station_id":"ce4bhg12rcd13ifvqf70","pricing_plan_id":"cebpf4jnsgd1na2vs0mg"},{"bike_id":"32eabdcc-7900-4628-91b5-beca76dcf8cf","system_id":"levelo_inurba_marseille","lat":43.30307,"lon":5.39226,"is_reserved":false,"is_disabled":false,"rental_uris":{"android":"levelo://app?vid=32eabdcc-7900-4628-91b5-beca76dcf8cf","ios":"levelo://app?vid=32eabdcc-7900-4628-91b5-beca76dcf8cf"},"vehicle_type_id":"4","last_reported":1758219307,"current_range_meters":7200,"station_id":"ce4bgkh2rcd13ifvqbk0","pricing_plan_id":"cebpf4jnsgd1na2vs0mg"},{"bike_id":"54a73ed1-4c7c-44e6-a609-412406427760","system_id":"levelo_inurba_marseille","lat":43.29177,"lon":5.37146,"is_reserved":false,"is_disabled":true,"rental_uris":{"android":"levelo://app?vid=54a73ed1-4c7c-44e6-a609-412406427760","ios":"levelo://app?vid=54a73ed1-4c7c-44e6-a609-412406427760"},"vehicle_type_id":"4","last_reported":1758219307,"current_range_meters":7200,"station_id":"ce4bha92rcd13ifvqeh0","pricing_plan_id":"cebpf4jnsgd1na2vs0mg"},{"bike_id":"50598466-4886-46fb-b0ff-bb18b5b7abac","system_id":"levelo_inurba_marseille","lat":43.29702,"lon":5.36616,"is_reserved":false,"is_disabled":false,"rental_uris":{"android":"levelo://app?vid=50598466-4886-46fb-b0ff-bb18b5b7abac","ios":"levelo://app?vid=50598466-4886-46fb-b0ff-bb18b5b7abac"},"vehicle_type_id":"4","last_reported":1758219307,"current_range_meters":6800,"station_id":"ce4bgn12rcd13ifvqbt0","pricing_plan_id":"cebpf4jnsgd1na2vs0mg"},{"bike_id":"4c6b5eee-c1e6-4e14-8a1c-cccfdd0582ed","system_id":"levelo_inurba_marseille","lat":43.299701,"lon":5.384909,"is_reserved":false,"is_disabled":false,"rental_uris":{"android":"levelo://app?vid=4c6b5eee-c1e6-4e14-8a1c-cccfdd0582ed","ios":"levelo://app?vid=4c6b5eee-c1e6-4e14-8a1c-cccfdd0582ed"},"vehicle_type_id":"4","last_reported":1758219307,"current_range_meters":6800,"station_id":"ce4bgj92rcd13ifvqbd0","pricing_plan_id":"cebpf4jnsgd1na2vs0mg"},{"bike_id":"190d0825-c1b9-4efd-8a03-d87285d4a5b6","system_id":"levelo_inurba_marseille","lat":43.29756,"lon":5.37761,"is_reserved":false,"is_disabled":false,"rental_uris":{"android":"levelo://app?vid=190d0825-c1b9-4efd-8a03-d87285d4a5b6","ios":"levelo://app?vid=190d0825-c1b9-4efd-8a03-d87285d4a5b6"},"vehicle_type_id":"4","last_reported":1758219307,"current_range_meters":8000,"station_id":"","pricing_plan_id":"cebpf4jnsgd1na2vs0mg"},{"bike_id":"1d83f70e-e1fb-4905-9e0e-735de5a7a989","system_id":"levelo_inurba_marseille","lat":43.2794,"lon":5.41049,"is_reserved":false,"is_disabled":false,"rental_uris":{"android":"levelo://app?vid=1d83f70e-e1fb-4905-9e0e-735de5a7a989","ios":"levelo://app?vid=1d83f70e-e1fb-4905-9e0e-735de5a7a989"},"vehicle_type_id":"4","last_reported":1758219307,"current_range_meters":8000,"station_id":"ce4bhnp2rcd13ifvqh0g","pricing_plan_id":"cebpf4jnsgd1na2vs0mg"},{"bike_id":"8d52652e-8112-4d62-9e12-fa2271e721bc","system_id":"levelo_inurba_marseille","lat":43.2929,"lon":5.37449,"is_reserved":false,"is_disabled":false,"rental_uris":{"android":"levelo://app?vid=8d52652e-8112-4d62-9e12-fa2271e721bc","ios":"levelo://app?vid=8d52652e-8112-4d62-9e12-fa2271e721bc"},"vehicle_type_id":"4","last_reported":1758219307,"current_range_meters":8400,"station_id":"","pricing_plan_id":"cebpf4jnsgd1na2vs0mg"},{"bike_id":"a0b54020-9493-4a8e-8aac-dca6f2c5bb86","system_id":"levelo_inurba_marseille","lat":43.32335,"lon":5.40626,"is_reserved":false,"is_disabled":false,"rental_uris":{"android":"levelo://app?vid=a0b54020-9493-4a8e-8aac-dca6f2c5bb86","ios":"levelo://app?vid=a0b54020-9493-4a8e-8aac-dca6f2c5bb86"},"vehicle_type_id":"4","last_reported":1758219307,"current_range_meters":8400,"station_id":"ce4bhq92rcd13ifvqhjg","pricing_plan_id":"cebpf4jnsgd1na2vs0mg"},{"bike_id":"3b8b87b4-c2d4-49fb-97c9-8b8f774a7e66","system_id":"levelo_inurba_marseille","lat":43.337444,"lon":5.374475,"is_reserved":false,"is_disabled":false,"rental_uris":{"android":"levelo://app?vid=3b8b87b4-c2d4-49fb-97c9-8b8f774a7e66","ios":"levelo://app?vid=3b8b87b4-c2d4-49fb-97c9-8b8f774a7e66"},"vehicle_type_id":"4","last_reported":1758219307,"current_range_meters":8400,"station_id":"","pricing_plan_id":"cebpf4jnsgd1na2vs0mg"},{"bike_id":"fbc9ce63-836f-4b35-9a3a-27d69aad21fd","system_id":"levelo_inurba_marseille","lat":43.27562,"lon":5.3843,"is_reserved":false,"is_disabled":false,"rental_uris":{"android":"levelo://app?vid=fbc9ce63-836f-4b35-9a3a-27d69aad21fd","ios":"levelo://app?vid=fbc9ce63-836f-4b35-9a3a-27d69aad21fd"},"vehicle_type_id":"4","last_reported":1758219307,"current_range_meters":8400,"station_id":"ce4bhh92rcd13ifvqfi0","pricing_plan_id":"cebpf4jnsgd1na2vs0mg"},{"bike_id":"34204743-a723-4435-950f-16b638938353","system_id":"levelo_inurba_marseille","lat":43.22565,"lon":5.41631,"is_reserved":false,"is_disabled":false,"rental_uris":{"android":"levelo://app?vid=34204743-a723-4435-950f-16b638938353","ios":"levelo://app?vid=34204743-a723-4435-950f-16b638938353"},"vehicle_type_id":"4","last_reported":1758219307,"current_range_meters":8400,"station_id":"st_d2o4gvlbi1j2169b742g","pricing_plan_id":"cebpf4jnsgd1na2vs0mg"},{"bike_id":"b287a469-95bb-4732-ae08-c4fea41622ba","system_id":"levelo_inurba_marseille","lat":43.30538,"lon":5.38431,"is_reserved":false,"is_disabled":false,"rental_uris":{"android":"levelo://app?vid=b287a469-95bb-4732-ae08-c4fea41622ba","ios":"levelo://app?vid=b287a469-95bb-4732-ae08-c4fea41622ba"},"vehicle_type_id":"4","last_reported":1758219307,"current_range_meters":8800,"station_id":"ce4bgg92rcd13ifvqb30","pricing_plan_id":"cebpf4jnsgd1na2vs0mg"},{"bike_id":"e0e1380e-ab00-4e45-99a1-85f6a8a087c7","system_id":"levelo_inurba_marseille","lat":43.29971,"lon":5.37189,"is_reserved":false,"is_disabled":false,"rental_uris":{"android":"levelo://app?vid=e0e1380e-ab00-4e45-99a1-85f6a8a087c7","ios":"levelo://app?vid=e0e1380e-ab00-4e45-99a1-85f6a8a087c7"},"vehicle_type_id":"4","last_reported":1758219307,"current_range_meters":8800,"station_id":"ce4bgr92rcd13ifvqc7g","pricing_plan_id":"cebpf4jnsgd1na2vs0mg"},{"bike_id":"1504b3b7-b857-442c-95d7-c189afad0852","system_id":"levelo_inurba_marseille","lat":43.262555,"lon":5.402744,"is_reserved":false,"is_disabled":false,"rental_uris":{"android":"levelo://app?vid=1504b3b7-b857-442c-95d7-c189afad0852","ios":"levelo://app?vid=1504b3b7-b857-442c-95d7-c189afad0852"},"vehicle_type_id":"4","last_reported":1758219307,"current_range_meters":8800,"station_id":"ce501612rcd8frsf0b60","pricing_plan_id":"cebpf4jnsgd1na2vs0mg"},{"bike_id":"45afe5f4-5cbe-49c2-a913-33c967100178","system_id":"levelo_inurba_marseille","lat":43.29776,"lon":5.380931,"is_reserved":false,"is_disabled":false,"rental_uris":{"android":"levelo://app?vid=45afe5f4-5cbe-49c2-a913-33c967100178","ios":"levelo://app?vid=45afe5f4-5cbe-49c2-a913-33c967100178"},"vehicle_type_id":"4","last_reported":1758219307,"current_range_meters":8800,"station_id":"","pricing_plan_id":"cebpf4jnsgd1na2vs0mg"},{"bike_id":"2f8d845f-4b68-4fbf-a41b-0a87ad7c5e5f","system_id":"levelo_inurba_marseille","lat":43.31072,"lon":5.38348,"is_reserved":false,"is_disabled":false,"rental_uris":{"android":"levelo://app?vid=2f8d845f-4b68-4fbf-a41b-0a87ad7c5e5f","ios":"levelo://app?vid=2f8d845f-4b68-4fbf-a41b-0a87ad7c5e5f"},"vehicle_type_id":"4","last_reported":1758219307,"current_range_meters":9200,"station_id":"ce4bgv92rcd13ifvqcr0","pricing_plan_id":"cebpf4jnsgd1na2vs0mg"},{"bike_id":"a02e5768-b7be-467c-80ad-800ad01c5975","system_id":"levelo_inurba_marseille","lat":43.29292,"lon":5.37464,"is_reserved":false,"is_disabled":false,"rental_uris":{"android":"levelo://app?vid=a02e5768-b7be-467c-80ad-800ad01c5975","ios":"levelo://app?vid=a02e5768-b7be-467c-80ad-800ad01c5975"},"vehicle_type_id":"4","last_reported":1758219307,"current_range_meters":9200,"station_id":"","pricing_plan_id":"cebpf4jnsgd1na2vs0mg"},{"bike_id":"29eb35d2-1e3d-4941-a298-ac4ac31fc5da","system_id":"levelo_inurba_marseille","lat":43.30736,"lon":5.4245,"is_reserved":false,"is_disabled":false,"rental_uris":{"android":"levelo://app?vid=29eb35d2-1e3d-4941-a298-ac4ac31fc5da","ios":"levelo://app?vid=29eb35d2-1e3d-4941-a298-ac4ac31fc5da"},"vehicle_type_id":"4","last_reported":1758219307,"current_range_meters":9200,"station_id":"st_cvj6ca6bvosntc0bfgr0","pricing_plan_id":"cebpf4jnsgd1na2vs0mg"},{"bike_id":"8422f3eb-7e71-4512-9321-9126a3d49001","system_id":"levelo_inurba_marseille","lat":43.27809,"lon":5.40721,"is_reserved":false,"is_disabled":false,"rental_uris":{"android":"levelo://app?vid=8422f3eb-7e71-4512-9321-9126a3d49001","ios":"levelo://app?vid=8422f3eb-7e71-4512-9321-9126a3d49001"},"vehicle_type_id":"4","last_reported":1758219307,"current_range_meters":9200,"station_id":"ce4bhnh2rcd13ifvqgtg","pricing_plan_id":"cebpf4jnsgd1na2vs0mg"},{"bike_id":"14bc91f7-1f97-4271-bc15-ff02e78f3b21","system_id":"levelo_inurba_marseille","lat":43.23181,"lon":5.39992,"is_reserved":false,"is_disabled":false,"rental_uris":{"android":"levelo://app?vid=14bc91f7-1f97-4271-bc15-ff02e78f3b21","ios":"levelo://app?vid=14bc91f7-1f97-4271-bc15-ff02e78f3b21"},"vehicle_type_id":"4","last_reported":1758219307,"current_range_meters":9200,"station_id":"ce4bhn12rcd13ifvqgqg","pricing_plan_id":"cebpf4jnsgd1na2vs0mg"},{"bike_id":"87b1ed68-e506-42d2-a38a-5303cf6aab6c","system_id":"levelo_inurba_marseille","lat":43.27567,"lon":5.38429,"is_reserved":false,"is_disabled":false,"rental_uris":{"android":"levelo://app?vid=87b1ed68-e506-42d2-a38a-5303cf6aab6c","ios":"levelo://app?vid=87b1ed68-e506-42d2-a38a-5303cf6aab6c"},"vehicle_type_id":"4","last_reported":1758219307,"current_range_meters":9200,"station_id":"ce4bhh92rcd13ifvqfi0","pricing_plan_id":"cebpf4jnsgd1na2vs0mg"},{"bike_id":"55dfb17a-dc13-4669-82ac-2c676d600c2d","system_id":"levelo_inurba_marseille","lat":43.31351,"lon":5.37936,"is_reserved":false,"is_disabled":true,"rental_uris":{"android":"levelo://app?vid=55dfb17a-dc13-4669-82ac-2c676d600c2d","ios":"levelo://app?vid=55dfb17a-dc13-4669-82ac-2c676d600c2d"},"vehicle_type_id":"4","last_reported":1758219307,"current_range_meters":9600,"station_id":"","pricing_plan_id":"cebpf4jnsgd1na2vs0mg"},{"bike_id":"67df8158-2909-41b3-8de5-88ec92603a08","system_id":"levelo_inurba_marseille","lat":43.28819,"lon":5.3617,"is_reserved":false,"is_disabled":false,"rental_uris":{"android":"levelo://app?vid=67df8158-2909-41b3-8de5-88ec92603a08","ios":"levelo://app?vid=67df8158-2909-41b3-8de5-88ec92603a08"},"vehicle_type_id":"4","last_reported":1758219307,"current_range_meters":9600,"station_id":"","pricing_plan_id":"cebpf4jnsgd1na2vs0mg"},{"bike_id":"00eb9f17-88ed-40bc-83ed-836b8eaefc59","system_id":"levelo_inurba_marseille","lat":43.293631,"lon":5.378424,"is_reserved":false,"is_disabled":false,"rental_uris":{"android":"levelo://app?vid=00eb9f17-88ed-40bc-83ed-836b8eaefc59","ios":"levelo://app?vid=00eb9f17-88ed-40bc-83ed-836b8eaefc59"},"vehicle_type_id":"4","last_reported":1758219307,"current_range_meters":9600,"station_id":"ce4bgjh2rcd13ifvqbf0","pricing_plan_id":"cebpf4jnsgd1na2vs0mg"},{"bike_id":"30bf0cd8-e919-42e6-a337-4b1a8f1949cd","system_id":"levelo_inurba_marseille","lat":43.30129,"lon":5.3743,"is_reserved":false,"is_disabled":true,"rental_uris":{"android":"levelo://app?vid=30bf0cd8-e919-42e6-a337-4b1a8f1949cd","ios":"levelo://app?vid=30bf0cd8-e919-42e6-a337-4b1a8f1949cd"},"vehicle_type_id":"4","last_reported":1758219307,"current_range_meters":9600,"station_id":"","pricing_plan_id":"cebpf4jnsgd1na2vs0mg"},{"bike_id":"0a342afc-0d5b-4533-9985-0746f3f7a6c5","system_id":"levelo_inurba_marseille","lat":43.290114,"lon":5.37827,"is_reserved":false,"is_disabled":false,"rental_uris":{"android":"levelo://app?vid=0a342afc-0d5b-4533-9985-0746f3f7a6c5","ios":"levelo://app?vid=0a342afc-0d5b-4533-9985-0746f3f7a6c5"},"vehicle_type_id":"4","last_reported":1758219307,"current_range_meters":10000,"station_id":"ce4bh512rcd13ifvqe2g","pricing_plan_id":"cebpf4jnsgd1na2vs0mg"},{"bike_id":"aa295fb2-4529-4d90-ae0c-3cfe73431223","system_id":"levelo_inurba_marseille","lat":43.30349,"lon":5.4188,"is_reserved":false,"is_disabled":false,"rental_uris":{"android":"levelo://app?vid=aa295fb2-4529-4d90-ae0c-3cfe73431223","ios":"levelo://app?vid=aa295fb2-4529-4d90-ae0c-3cfe73431223"},"vehicle_type_id":"4","last_reported":1758219307,"current_range_meters":10000,"station_id":"ce4bhop2rcd13ifvqh7g","pricing_plan_id":"cebpf4jnsgd1na2vs0mg"},{"bike_id":"d507ce46-00f5-4d3f-ba03-b31a89c0d325","system_id":"levelo_inurba_marseille","lat":43.225353,"lon":5.348406,"is_reserved":false,"is_disabled":false,"rental_uris":{"android":"levelo://app?vid=d507ce46-00f5-4d3f-ba03-b31a89c0d325","ios":"levelo://app?vid=d507ce46-00f5-4d3f-ba03-b31a89c0d325"},"vehicle_type_id":"4","last_reported":1758219307,"current_range_meters":10000,"station_id":"","pricing_plan_id":"cebpf4jnsgd1na2vs0mg"},{"bike_id":"c112419f-3525-4322-b9da-398b70c286be","system_id":"levelo_inurba_marseille","lat":43.317612,"lon":5.390126,"is_reserved":false,"is_disabled":false,"rental_uris":{"android":"levelo://app?vid=c112419f-3525-4322-b9da-398b70c286be","ios":"levelo://app?vid=c112419f-3525-4322-b9da-398b70c286be"},"vehicle_type_id":"4","last_reported":1758219307,"current_range_meters":10800,"station_id":"ce4bhr12rcd13ifvqhqg","pricing_plan_id":"cebpf4jnsgd1na2vs0mg"},{"bike_id":"7d3ee420-a02d-41b0-804a-e520549ee7f2","system_id":"levelo_inurba_marseille","lat":43.25087,"lon":5.39508,"is_reserved":false,"is_disabled":false,"rental_uris":{"android":"levelo://app?vid=7d3ee420-a02d-41b0-804a-e520549ee7f2","ios":"levelo://app?vid=7d3ee420-a02d-41b0-804a-e520549ee7f2"},"vehicle_type_id":"4","last_reported":1758219307,"current_range_meters":10800,"station_id":"ce4bhm12rcd13ifvqgkg","pricing_plan_id":"cebpf4jnsgd1na2vs0mg"},{"bike_id":"964d6edb-2418-4d1c-95bb-5eaff60b3098","system_id":"levelo_inurba_marseille","lat":43.29558,"lon":5.37529,"is_reserved":false,"is_disabled":false,"rental_uris":{"android":"levelo://app?vid=964d6edb-2418-4d1c-95bb-5eaff60b3098","ios":"levelo://app?vid=964d6edb-2418-4d1c-95bb-5eaff60b3098"},"vehicle_type_id":"4","last_reported":1758219307,"current_range_meters":11200,"station_id":"","pricing_plan_id":"cebpf4jnsgd1na2vs0mg"},{"bike_id":"7455ab97-ba58-4b1f-9638-3798a732d1ab","system_id":"levelo_inurba_marseille","lat":43.22551,"lon":5.41633,"is_reserved":false,"is_disabled":false,"rental_uris":{"android":"levelo://app?vid=7455ab97-ba58-4b1f-9638-3798a732d1ab","ios":"levelo://app?vid=7455ab97-ba58-4b1f-9638-3798a732d1ab"},"vehicle_type_id":"4","last_reported":1758219307,"current_range_meters":11200,"station_id":"st_d2o4gvlbi1j2169b742g","pricing_plan_id":"cebpf4jnsgd1na2vs0mg"},{"bike_id":"0096a778-b452-4323-aa3a-fae4a56ca0d3","system_id":"levelo_inurba_marseille","lat":43.29016,"lon":5.38124,"is_reserved":false,"is_disabled":false,"rental_uris":{"android":"levelo://app?vid=0096a778-b452-4323-aa3a-fae4a56ca0d3","ios":"levelo://app?vid=0096a778-b452-4323-aa3a-fae4a56ca0d3"},"vehicle_type_id":"4","last_reported":1758219307,"current_range_meters":11200,"station_id":"ce4bh4p2rcd13ifvqe1g","pricing_plan_id":"cebpf4jnsgd1na2vs0mg"},{"bike_id":"4e2e9af7-0367-411d-b2ad-81c084c041b4","system_id":"levelo_inurba_marseille","lat":43.29262,"lon":5.37649,"is_reserved":false,"is_disabled":false,"rental_uris":{"android":"levelo://app?vid=4e2e9af7-0367-411d-b2ad-81c084c041b4","ios":"levelo://app?vid=4e2e9af7-0367-411d-b2ad-81c084c041b4"},"vehicle_type_id":"4","last_reported":1758219307,"current_range_meters":11600,"station_id":"ce4bgi12rcd13ifvqb80","pricing_plan_id":"cebpf4jnsgd1na2vs0mg"},{"bike_id":"a23c0072-b494-49f2-8d69-13fc4ebcba5a","system_id":"levelo_inurba_marseille","lat":43.30128,"lon":5.38801,"is_reserved":false,"is_disabled":false,"rental_uris":{"android":"levelo://app?vid=a23c0072-b494-49f2-8d69-13fc4ebcba5a","ios":"levelo://app?vid=a23c0072-b494-49f2-8d69-13fc4ebcba5a"},"vehicle_type_id":"4","last_reported":1758219307,"current_range_meters":11600,"station_id":"ce4bghh2rcd13ifvqb60","pricing_plan_id":"cebpf4jnsgd1na2vs0mg"},{"bike_id":"5701fe9c-3e98-4b9f-a910-5eb395d4e5d3","system_id":"levelo_inurba_marseille","lat":43.29943,"lon":5.37485,"is_reserved":false,"is_disabled":false,"rental_uris":{"android":"levelo://app?vid=5701fe9c-3e98-4b9f-a910-5eb395d4e5d3","ios":"levelo://app?vid=5701fe9c-3e98-4b9f-a910-5eb395d4e5d3"},"vehicle_type_id":"4","last_reported":1758219307,"current_range_meters":11600,"station_id":"","pricing_plan_id":"cebpf4jnsgd1na2vs0mg"},{"bike_id":"d1788760-0706-4b90-8999-db00a9e42210","system_id":"levelo_inurba_marseille","lat":43.32797,"lon":5.41011,"is_reserved":false,"is_disabled":true,"rental_uris":{"android":"levelo://app?vid=d1788760-0706-4b90-8999-db00a9e42210","ios":"levelo://app?vid=d1788760-0706-4b90-8999-db00a9e42210"},"vehicle_type_id":"4","last_reported":1758219307,"current_range_meters":11600,"station_id":"","pricing_plan_id":"cebpf4jnsgd1na2vs0mg"},{"bike_id":"3d27875c-0279-45b6-b306-6628d96c82b9","system_id":"levelo_inurba_marseille","lat":43.2927,"lon":5.3714,"is_reserved":false,"is_disabled":false,"rental_uris":{"android":"levelo://app?vid=3d27875c-0279-45b6-b306-6628d96c82b9","ios":"levelo://app?vid=3d27875c-0279-45b6-b306-6628d96c82b9"},"vehicle_type_id":"4","last_reported":1758219307,"current_range_meters":12000,"station_id":"ce4bgh92rcd13ifvqb40","pricing_plan_id":"cebpf4jnsgd1na2vs0mg"},{"bike_id":"64b8f5d2-16ee-4c85-a97d-7145fcb10104","system_id":"levelo_inurba_marseille","lat":43.225343,"lon":5.348349,"is_reserved":false,"is_disabled":false,"rental_uris":{"android":"levelo://app?vid=64b8f5d2-16ee-4c85-a97d-7145fcb10104","ios":"levelo://app?vid=64b8f5d2-16ee-4c85-a97d-7145fcb10104"},"vehicle_type_id":"4","last_reported":1758219307,"current_range_meters":12000,"station_id":"","pricing_plan_id":"cebpf4jnsgd1na2vs0mg"},{"bike_id":"1e9b81ff-73a9-4e0a-a8d7-7141e5c6374c","system_id":"levelo_inurba_marseille","lat":43.278093,"lon":5.407154,"is_reserved":false,"is_disabled":false,"rental_uris":{"android":"levelo://app?vid=1e9b81ff-73a9-4e0a-a8d7-7141e5c6374c","ios":"levelo://app?vid=1e9b81ff-73a9-4e0a-a8d7-7141e5c6374c"},"vehicle_type_id":"4","last_reported":1758219307,"current_range_meters":12000,"station_id":"ce4bhnh2rcd13ifvqgtg","pricing_plan_id":"cebpf4jnsgd1na2vs0mg"},{"bike_id":"cf66592a-d8fa-4c6c-9927-5d7a9fef5026","system_id":"levelo_inurba_marseille","lat":43.26239,"lon":5.39927,"is_reserved":false,"is_disabled":false,"rental_uris":{"android":"levelo://app?vid=cf66592a-d8fa-4c6c-9927-5d7a9fef5026","ios":"levelo://app?vid=cf66592a-d8fa-4c6c-9927-5d7a9fef5026"},"vehicle_type_id":"4","last_reported":1758219307,"current_range_meters":12000,"station_id":"","pricing_plan_id":"cebpf4jnsgd1na2vs0mg"},{"bike_id":"cd7ba681-2568-4a45-9280-823b5e08eaa5","system_id":"levelo_inurba_marseille","lat":43.29577,"lon":5.38117,"is_reserved":false,"is_disabled":false,"rental_uris":{"android":"levelo://app?vid=cd7ba681-2568-4a45-9280-823b5e08eaa5","ios":"levelo://app?vid=cd7ba681-2568-4a45-9280-823b5e08eaa5"},"vehicle_type_id":"4","last_reported":1758219307,"current_range_meters":12000,"station_id":"","pricing_plan_id":"cebpf4jnsgd1na2vs0mg"},{"bike_id":"315f367b-945e-48e9-9810-8183f084f5fc","system_id":"levelo_inurba_marseille","lat":43.274988,"lon":5.424542,"is_reserved":false,"is_disabled":true,"rental_uris":{"android":"levelo://app?vid=315f367b-945e-48e9-9810-8183f084f5fc","ios":"levelo://app?vid=315f367b-945e-48e9-9810-8183f084f5fc"},"vehicle_type_id":"4","last_reported":1758219307,"current_range_meters":12000,"station_id":"ce4bhn92rcd13ifvqgrg","pricing_plan_id":"cebpf4jnsgd1na2vs0mg"},{"bike_id":"6d04ecbb-a728-40b1-b701-23b740f7319e","system_id":"levelo_inurba_marseille","lat":43.21745,"lon":5.34607,"is_reserved":false,"is_disabled":true,"rental_uris":{"android":"levelo://app?vid=6d04ecbb-a728-40b1-b701-23b740f7319e","ios":"levelo://app?vid=6d04ecbb-a728-40b1-b701-23b740f7319e"},"vehicle_type_id":"4","last_reported":1758219307,"current_range_meters":12000,"station_id":"st_cvj6r9ubvosntc0bgbag","pricing_plan_id":"cebpf4jnsgd1na2vs0mg"},{"bike_id":"cf955a0a-ab70-49db-9c72-ac23c59f39c9","system_id":"levelo_inurba_marseille","lat":43.27846,"lon":5.39213,"is_reserved":false,"is_disabled":false,"rental_uris":{"android":"levelo://app?vid=cf955a0a-ab70-49db-9c72-ac23c59f39c9","ios":"levelo://app?vid=cf955a0a-ab70-49db-9c72-ac23c59f39c9"},"vehicle_type_id":"4","last_reported":1758219307,"current_range_meters":9600,"station_id":"ce4bhjp2rcd13ifvqga0","pricing_plan_id":"cebpf4jnsgd1na2vs0mg"},{"bike_id":"9ef36e8d-6f82-4656-8475-f0daef29b380","system_id":"levelo_inurba_marseille","lat":43.29794,"lon":5.38096,"is_reserved":false,"is_disabled":false,"rental_uris":{"android":"levelo://app?vid=9ef36e8d-6f82-4656-8475-f0daef29b380","ios":"levelo://app?vid=9ef36e8d-6f82-4656-8475-f0daef29b380"},"vehicle_type_id":"4","last_reported":1758219307,"current_range_meters":12400,"station_id":"ce4bgip2rcd13ifvqbb0","pricing_plan_id":"cebpf4jnsgd1na2vs0mg"},{"bike_id":"6fe5ee4d-d638-47ed-9e67-4166b3f93870","system_id":"levelo_inurba_marseille","lat":43.25342,"lon":5.42169,"is_reserved":false,"is_disabled":false,"rental_uris":{"android":"levelo://app?vid=6fe5ee4d-d638-47ed-9e67-4166b3f93870","ios":"levelo://app?vid=6fe5ee4d-d638-47ed-9e67-4166b3f93870"},"vehicle_type_id":"4","last_reported":1758219307,"current_range_meters":12800,"station_id":"st_d2m65c5bi1j21697t3ng","pricing_plan_id":"cebpf4jnsgd1na2vs0mg"},{"bike_id":"ca7e75dc-4cfd-41f3-a13c-e7bfbc0dfa44","system_id":"levelo_inurba_marseille","lat":43.29295,"lon":5.37454,"is_reserved":false,"is_disabled":false,"rental_uris":{"android":"levelo://app?vid=ca7e75dc-4cfd-41f3-a13c-e7bfbc0dfa44","ios":"levelo://app?vid=ca7e75dc-4cfd-41f3-a13c-e7bfbc0dfa44"},"vehicle_type_id":"4","last_reported":1758219307,"current_range_meters":12800,"station_id":"","pricing_plan_id":"cebpf4jnsgd1na2vs0mg"},{"bike_id":"42323a1a-489c-43cb-90ae-c675b27444d5","system_id":"levelo_inurba_marseille","lat":43.21648,"lon":5.34367,"is_reserved":false,"is_disabled":false,"rental_uris":{"android":"levelo://app?vid=42323a1a-489c-43cb-90ae-c675b27444d5","ios":"levelo://app?vid=42323a1a-489c-43cb-90ae-c675b27444d5"},"vehicle_type_id":"4","last_reported":1758219307,"current_range_meters":12800,"station_id":"","pricing_plan_id":"cebpf4jnsgd1na2vs0mg"},{"bike_id":"6cf1fc11-6420-4df5-a6be-09e640d96c6c","system_id":"levelo_inurba_marseille","lat":43.281487,"lon":5.426422,"is_reserved":false,"is_disabled":false,"rental_uris":{"android":"levelo://app?vid=6cf1fc11-6420-4df5-a6be-09e640d96c6c","ios":"levelo://app?vid=6cf1fc11-6420-4df5-a6be-09e640d96c6c"},"vehicle_type_id":"4","last_reported":1758219307,"current_range_meters":12800,"station_id":"ce4bhnh2rcd13ifvqgug","pricing_plan_id":"cebpf4jnsgd1na2vs0mg"},{"bike_id":"f1cb89fd-3aae-45dd-8b07-61c162b2375e","system_id":"levelo_inurba_marseille","lat":43.33766,"lon":5.37474,"is_reserved":false,"is_disabled":false,"rental_uris":{"android":"levelo://app?vid=f1cb89fd-3aae-45dd-8b07-61c162b2375e","ios":"levelo://app?vid=f1cb89fd-3aae-45dd-8b07-61c162b2375e"},"vehicle_type_id":"4","last_reported":1758219307,"current_range_meters":12800,"station_id":"","pricing_plan_id":"cebpf4jnsgd1na2vs0mg"},{"bike_id":"80a9a218-f77f-42ce-8136-b0dceb9fc366","system_id":"levelo_inurba_marseille","lat":43.267867,"lon":5.394102,"is_reserved":false,"is_disabled":false,"rental_uris":{"android":"levelo://app?vid=80a9a218-f77f-42ce-8136-b0dceb9fc366","ios":"levelo://app?vid=80a9a218-f77f-42ce-8136-b0dceb9fc366"},"vehicle_type_id":"4","last_reported":1758219307,"current_range_meters":13600,"station_id":"ce4bhh12rcd13ifvqfg0","pricing_plan_id":"cebpf4jnsgd1na2vs0mg"},{"bike_id":"ab5756b7-0bf0-4cda-830c-54f088c6bd28","system_id":"levelo_inurba_marseille","lat":43.248,"lon":5.37457,"is_reserved":false,"is_disabled":false,"rental_uris":{"android":"levelo://app?vid=ab5756b7-0bf0-4cda-830c-54f088c6bd28","ios":"levelo://app?vid=ab5756b7-0bf0-4cda-830c-54f088c6bd28"},"vehicle_type_id":"4","last_reported":1758219307,"current_range_meters":13600,"station_id":"ce4bhgh2rcd13ifvqfb0","pricing_plan_id":"cebpf4jnsgd1na2vs0mg"},{"bike_id":"c4943538-cf75-4110-ab97-fbdbe7d12c87","system_id":"levelo_inurba_marseille","lat":43.28605,"lon":5.37072,"is_reserved":false,"is_disabled":false,"rental_uris":{"android":"levelo://app?vid=c4943538-cf75-4110-ab97-fbdbe7d12c87","ios":"levelo://app?vid=c4943538-cf75-4110-ab97-fbdbe7d12c87"},"vehicle_type_id":"4","last_reported":1758219307,"current_range_meters":13600,"station_id":"ce4bht12rcd13ifvqi60","pricing_plan_id":"cebpf4jnsgd1na2vs0mg"},{"bike_id":"be9ee84b-9ec1-497c-800c-5907ad1418ae","system_id":"levelo_inurba_marseille","lat":43.22553,"lon":5.41645,"is_reserved":false,"is_disabled":false,"rental_uris":{"android":"levelo://app?vid=be9ee84b-9ec1-497c-800c-5907ad1418ae","ios":"levelo://app?vid=be9ee84b-9ec1-497c-800c-5907ad1418ae"},"vehicle_type_id":"4","last_reported":1758219307,"current_range_meters":13600,"station_id":"st_d2o4gvlbi1j2169b742g","pricing_plan_id":"cebpf4jnsgd1na2vs0mg"},{"bike_id":"a4faa1fd-62ee-404a-aff8-b79ea6b6b5d2","system_id":"levelo_inurba_marseille","lat":43.32986,"lon":5.39245,"is_reserved":false,"is_disabled":false,"rental_uris":{"android":"levelo://app?vid=a4faa1fd-62ee-404a-aff8-b79ea6b6b5d2","ios":"levelo://app?vid=a4faa1fd-62ee-404a-aff8-b79ea6b6b5d2"},"vehicle_type_id":"4","last_reported":1758219307,"current_range_meters":14000,"station_id":"","pricing_plan_id":"cebpf4jnsgd1na2vs0mg"},{"bike_id":"805c398a-6537-4cea-9826-fdabcb6b2f18","system_id":"levelo_inurba_marseille","lat":43.29886,"lon":5.38903,"is_reserved":false,"is_disabled":false,"rental_uris":{"android":"levelo://app?vid=805c398a-6537-4cea-9826-fdabcb6b2f18","ios":"levelo://app?vid=805c398a-6537-4cea-9826-fdabcb6b2f18"},"vehicle_type_id":"4","last_reported":1758219307,"current_range_meters":14000,"station_id":"ce4bh392rcd13ifvqdl0","pricing_plan_id":"cebpf4jnsgd1na2vs0mg"},{"bike_id":"d9f0ae84-d732-44f5-b420-064e325a0d60","system_id":"levelo_inurba_marseille","lat":43.320183,"lon":5.381343,"is_reserved":false,"is_disabled":false,"rental_uris":{"android":"levelo://app?vid=d9f0ae84-d732-44f5-b420-064e325a0d60","ios":"levelo://app?vid=d9f0ae84-d732-44f5-b420-064e325a0d60"},"vehicle_type_id":"4","last_reported":1758219307,"current_range_meters":14000,"station_id":"","pricing_plan_id":"cebpf4jnsgd1na2vs0mg"},{"bike_id":"fa0847a4-8d8b-47a2-9c0d-c16fe7a48c9b","system_id":"levelo_inurba_marseille","lat":43.330285,"lon":5.390556,"is_reserved":false,"is_disabled":false,"rental_uris":{"android":"levelo://app?vid=fa0847a4-8d8b-47a2-9c0d-c16fe7a48c9b","ios":"levelo://app?vid=fa0847a4-8d8b-47a2-9c0d-c16fe7a48c9b"},"vehicle_type_id":"4","last_reported":1758219307,"current_range_meters":14000,"station_id":"","pricing_plan_id":"cebpf4jnsgd1na2vs0mg"},{"bike_id":"ff44f1ad-2efa-4491-b8e1-7e77aa981a6b","system_id":"levelo_inurba_marseille","lat":43.30144,"lon":5.37398,"is_reserved":false,"is_disabled":true,"rental_uris":{"android":"levelo://app?vid=ff44f1ad-2efa-4491-b8e1-7e77aa981a6b","ios":"levelo://app?vid=ff44f1ad-2efa-4491-b8e1-7e77aa981a6b"},"vehicle_type_id":"4","last_reported":1758219307,"current_range_meters":14000,"station_id":"","pricing_plan_id":"cebpf4jnsgd1na2vs0mg"},{"bike_id":"28b4b9eb-682c-49f1-8277-a6d163a63050","system_id":"levelo_inurba_marseille","lat":43.3043,"lon":5.38888,"is_reserved":false,"is_disabled":false,"rental_uris":{"android":"levelo://app?vid=28b4b9eb-682c-49f1-8277-a6d163a63050","ios":"levelo://app?vid=28b4b9eb-682c-49f1-8277-a6d163a63050"},"vehicle_type_id":"4","last_reported":1758219307,"current_range_meters":14400,"station_id":"ce4bgk12rcd13ifvqbi0","pricing_plan_id":"cebpf4jnsgd1na2vs0mg"},{"bike_id":"b984469b-926b-4466-8aa4-6aef8238a5ef","system_id":"levelo_inurba_marseille","lat":43.27976,"lon":5.41661,"is_reserved":false,"is_disabled":false,"rental_uris":{"android":"levelo://app?vid=b984469b-926b-4466-8aa4-6aef8238a5ef","ios":"levelo://app?vid=b984469b-926b-4466-8aa4-6aef8238a5ef"},"vehicle_type_id":"4","last_reported":1758219307,"current_range_meters":14400,"station_id":"ce4bho12rcd13ifvqh1g","pricing_plan_id":"cebpf4jnsgd1na2vs0mg"},{"bike_id":"02e0b858-3064-4440-b5f8-ba64e8e8ba8f","system_id":"levelo_inurba_marseille","lat":43.295715,"lon":5.375208,"is_reserved":false,"is_disabled":false,"rental_uris":{"android":"levelo://app?vid=02e0b858-3064-4440-b5f8-ba64e8e8ba8f","ios":"levelo://app?vid=02e0b858-3064-4440-b5f8-ba64e8e8ba8f"},"vehicle_type_id":"4","last_reported":1758219307,"current_range_meters":14400,"station_id":"","pricing_plan_id":"cebpf4jnsgd1na2vs0mg"},{"bike_id":"2b5a86fe-5266-4ea3-b5bd-4c1066070324","system_id":"levelo_inurba_marseille","lat":43.33025,"lon":5.39049,"is_reserved":false,"is_disabled":false,"rental_uris":{"android":"levelo://app?vid=2b5a86fe-5266-4ea3-b5bd-4c1066070324","ios":"levelo://app?vid=2b5a86fe-5266-4ea3-b5bd-4c1066070324"},"vehicle_type_id":"4","last_reported":1758219307,"current_range_meters":12000,"station_id":"ce4bhr92rcd13ifvqhrg","pricing_plan_id":"cebpf4jnsgd1na2vs0mg"},{"bike_id":"fb570c1f-a85c-4000-a13e-ffae15dcb3ae","system_id":"levelo_inurba_marseille","lat":43.31883,"lon":5.40752,"is_reserved":false,"is_disabled":false,"rental_uris":{"android":"levelo://app?vid=fb570c1f-a85c-4000-a13e-ffae15dcb3ae","ios":"levelo://app?vid=fb570c1f-a85c-4000-a13e-ffae15dcb3ae"},"vehicle_type_id":"4","last_reported":1758219307,"current_range_meters":14400,"station_id":"ce4bhq12rcd13ifvqhig","pricing_plan_id":"cebpf4jnsgd1na2vs0mg"},{"bike_id":"22f0687d-25d3-4094-9c4a-293a61e189a6","system_id":"levelo_inurba_marseille","lat":43.2463,"lon":5.39626,"is_reserved":false,"is_disabled":false,"rental_uris":{"android":"levelo://app?vid=22f0687d-25d3-4094-9c4a-293a61e189a6","ios":"levelo://app?vid=22f0687d-25d3-4094-9c4a-293a61e189a6"},"vehicle_type_id":"4","last_reported":1758219307,"current_range_meters":14400,"station_id":"","pricing_plan_id":"cebpf4jnsgd1na2vs0mg"},{"bike_id":"bf8d5b9f-8db5-42ef-aa49-7190eacc429b","system_id":"levelo_inurba_marseille","lat":43.26563,"lon":5.39031,"is_reserved":false,"is_disabled":false,"rental_uris":{"android":"levelo://app?vid=bf8d5b9f-8db5-42ef-aa49-7190eacc429b","ios":"levelo://app?vid=bf8d5b9f-8db5-42ef-aa49-7190eacc429b"},"vehicle_type_id":"4","last_reported":1758219307,"current_range_meters":14400,"station_id":"ce4bhe12rcd13ifvqf30","pricing_plan_id":"cebpf4jnsgd1na2vs0mg"},{"bike_id":"14b0b536-1224-48a2-9649-a40684ff5788","system_id":"levelo_inurba_marseille","lat":43.296107,"lon":5.37721,"is_reserved":false,"is_disabled":true,"rental_uris":{"android":"levelo://app?vid=14b0b536-1224-48a2-9649-a40684ff5788","ios":"levelo://app?vid=14b0b536-1224-48a2-9649-a40684ff5788"},"vehicle_type_id":"4","last_reported":1758219307,"current_range_meters":14800,"station_id":"","pricing_plan_id":"cebpf4jnsgd1na2vs0mg"},{"bike_id":"7a2dcfd4-d01b-44ca-8423-ce983268c024","system_id":"levelo_inurba_marseille","lat":43.317586,"lon":5.390133,"is_reserved":false,"is_disabled":false,"rental_uris":{"android":"levelo://app?vid=7a2dcfd4-d01b-44ca-8423-ce983268c024","ios":"levelo://app?vid=7a2dcfd4-d01b-44ca-8423-ce983268c024"},"vehicle_type_id":"4","last_reported":1758219307,"current_range_meters":14800,"station_id":"ce4bhqp2rcd13ifvqhng","pricing_plan_id":"cebpf4jnsgd1na2vs0mg"},{"bike_id":"2f5a3d7a-f90a-434c-81da-f04f9d5aa4ce","system_id":"levelo_inurba_marseille","lat":43.31164,"lon":5.38727,"is_reserved":false,"is_disabled":false,"rental_uris":{"android":"levelo://app?vid=2f5a3d7a-f90a-434c-81da-f04f9d5aa4ce","ios":"levelo://app?vid=2f5a3d7a-f90a-434c-81da-f04f9d5aa4ce"},"vehicle_type_id":"4","last_reported":1758219307,"current_range_meters":14800,"station_id":"ce4bgv12rcd13ifvqcp0","pricing_plan_id":"cebpf4jnsgd1na2vs0mg"},{"bike_id":"cad97885-b582-49b2-8b83-0a6c3d079fc6","system_id":"levelo_inurba_marseille","lat":43.297018,"lon":5.365873,"is_reserved":false,"is_disabled":false,"rental_uris":{"android":"levelo://app?vid=cad97885-b582-49b2-8b83-0a6c3d079fc6","ios":"levelo://app?vid=cad97885-b582-49b2-8b83-0a6c3d079fc6"},"vehicle_type_id":"4","last_reported":1758219307,"current_range_meters":15200,"station_id":"ce4bgn12rcd13ifvqbt0","pricing_plan_id":"cebpf4jnsgd1na2vs0mg"},{"bike_id":"e942f984-8fe7-48d1-8f04-3806656b9996","system_id":"levelo_inurba_marseille","lat":43.33602,"lon":5.37949,"is_reserved":false,"is_disabled":false,"rental_uris":{"android":"levelo://app?vid=e942f984-8fe7-48d1-8f04-3806656b9996","ios":"levelo://app?vid=e942f984-8fe7-48d1-8f04-3806656b9996"},"vehicle_type_id":"4","last_reported":1758219307,"current_range_meters":15200,"station_id":"","pricing_plan_id":"cebpf4jnsgd1na2vs0mg"},{"bike_id":"7eed94c4-182d-4460-826b-78b4ef60c719","system_id":"levelo_inurba_marseille","lat":43.295859,"lon":5.375163,"is_reserved":false,"is_disabled":false,"rental_uris":{"android":"levelo://app?vid=7eed94c4-182d-4460-826b-78b4ef60c719","ios":"levelo://app?vid=7eed94c4-182d-4460-826b-78b4ef60c719"},"vehicle_type_id":"4","last_reported":1758219307,"current_range_meters":15200,"station_id":"","pricing_plan_id":"cebpf4jnsgd1na2vs0mg"},{"bike_id":"df89f565-628a-425c-baf2-1e765801d11b","system_id":"levelo_inurba_marseille","lat":43.29275,"lon":5.36849,"is_reserved":false,"is_disabled":false,"rental_uris":{"android":"levelo://app?vid=df89f565-628a-425c-baf2-1e765801d11b","ios":"levelo://app?vid=df89f565-628a-425c-baf2-1e765801d11b"},"vehicle_type_id":"4","last_reported":1758219307,"current_range_meters":15200,"station_id":"ce4bhbp2rcd13ifvqesg","pricing_plan_id":"cebpf4jnsgd1na2vs0mg"},{"bike_id":"fe0aea26-4a67-49c0-b3c3-c022327e8ea2","system_id":"levelo_inurba_marseille","lat":43.28162,"lon":5.42636,"is_reserved":false,"is_disabled":false,"rental_uris":{"android":"levelo://app?vid=fe0aea26-4a67-49c0-b3c3-c022327e8ea2","ios":"levelo://app?vid=fe0aea26-4a67-49c0-b3c3-c022327e8ea2"},"vehicle_type_id":"4","last_reported":1758219307,"current_range_meters":15200,"station_id":"ce4bhnh2rcd13ifvqgug","pricing_plan_id":"cebpf4jnsgd1na2vs0mg"},{"bike_id":"9d8b4944-013e-4958-9415-40d7b5ee9701","system_id":"levelo_inurba_marseille","lat":43.3161,"lon":5.38184,"is_reserved":false,"is_disabled":false,"rental_uris":{"android":"levelo://app?vid=9d8b4944-013e-4958-9415-40d7b5ee9701","ios":"levelo://app?vid=9d8b4944-013e-4958-9415-40d7b5ee9701"},"vehicle_type_id":"4","last_reported":1758219307,"current_range_meters":16000,"station_id":"","pricing_plan_id":"cebpf4jnsgd1na2vs0mg"},{"bike_id":"a24423d9-d623-4fe0-85cb-9f145cc5478f","system_id":"levelo_inurba_marseille","lat":43.28606,"lon":5.37068,"is_reserved":false,"is_disabled":false,"rental_uris":{"android":"levelo://app?vid=a24423d9-d623-4fe0-85cb-9f145cc5478f","ios":"levelo://app?vid=a24423d9-d623-4fe0-85cb-9f145cc5478f"},"vehicle_type_id":"4","last_reported":1758219307,"current_range_meters":16000,"station_id":"ce4bht12rcd13ifvqi60","pricing_plan_id":"cebpf4jnsgd1na2vs0mg"},{"bike_id":"438ead59-de14-4fa0-a61d-03a70a4122ae","system_id":"levelo_inurba_marseille","lat":43.31661,"lon":5.38233,"is_reserved":false,"is_disabled":false,"rental_uris":{"android":"levelo://app?vid=438ead59-de14-4fa0-a61d-03a70a4122ae","ios":"levelo://app?vid=438ead59-de14-4fa0-a61d-03a70a4122ae"},"vehicle_type_id":"4","last_reported":1758219307,"current_range_meters":16000,"station_id":"","pricing_plan_id":"cebpf4jnsgd1na2vs0mg"},{"bike_id":"f9418cc9-c64d-43d9-9060-3aeedd69cdee","system_id":"levelo_inurba_marseille","lat":43.33068,"lon":5.37874,"is_reserved":false,"is_disabled":false,"rental_uris":{"android":"levelo://app?vid=f9418cc9-c64d-43d9-9060-3aeedd69cdee","ios":"levelo://app?vid=f9418cc9-c64d-43d9-9060-3aeedd69cdee"},"vehicle_type_id":"4","last_reported":1758219307,"current_range_meters":16000,"station_id":"","pricing_plan_id":"cebpf4jnsgd1na2vs0mg"},{"bike_id":"e38ef77d-cca4-4755-8b6d-7ee45bad312b","system_id":"levelo_inurba_marseille","lat":43.31068,"lon":5.38352,"is_reserved":false,"is_disabled":false,"rental_uris":{"android":"levelo://app?vid=e38ef77d-cca4-4755-8b6d-7ee45bad312b","ios":"levelo://app?vid=e38ef77d-cca4-4755-8b6d-7ee45bad312b"},"vehicle_type_id":"4","last_reported":1758219307,"current_range_meters":16000,"station_id":"ce4bgv92rcd13ifvqcr0","pricing_plan_id":"cebpf4jnsgd1na2vs0mg"},{"bike_id":"fb78ea42-e26f-45b3-a617-d3474b811b72","system_id":"levelo_inurba_marseille","lat":43.298818,"lon":5.379427,"is_reserved":false,"is_disabled":false,"rental_uris":{"android":"levelo://app?vid=fb78ea42-e26f-45b3-a617-d3474b811b72","ios":"levelo://app?vid=fb78ea42-e26f-45b3-a617-d3474b811b72"},"vehicle_type_id":"4","last_reported":1758219307,"current_range_meters":16400,"station_id":"","pricing_plan_id":"cebpf4jnsgd1na2vs0mg"},{"bike_id":"87a10f9f-c23b-41bf-ad6c-4b8dbedce9ee","system_id":"levelo_inurba_marseille","lat":43.29846,"lon":5.36287,"is_reserved":false,"is_disabled":false,"rental_uris":{"android":"levelo://app?vid=87a10f9f-c23b-41bf-ad6c-4b8dbedce9ee","ios":"levelo://app?vid=87a10f9f-c23b-41bf-ad6c-4b8dbedce9ee"},"vehicle_type_id":"4","last_reported":1758219307,"current_range_meters":16400,"station_id":"ce4bgpp2rcd13ifvqc3g","pricing_plan_id":"cebpf4jnsgd1na2vs0mg"},{"bike_id":"ec5ad34d-1564-4a78-882e-604afaccc703","system_id":"levelo_inurba_marseille","lat":43.27621,"lon":5.3611,"is_reserved":false,"is_disabled":false,"rental_uris":{"android":"levelo://app?vid=ec5ad34d-1564-4a78-882e-604afaccc703","ios":"levelo://app?vid=ec5ad34d-1564-4a78-882e-604afaccc703"},"vehicle_type_id":"4","last_reported":1758219307,"current_range_meters":16800,"station_id":"ce4bgj92rcd13ifvqbe0","pricing_plan_id":"cebpf4jnsgd1na2vs0mg"},{"bike_id":"c43882b1-5e02-4ad9-b699-728f77e5b88f","system_id":"levelo_inurba_marseille","lat":43.31486,"lon":5.37286,"is_reserved":false,"is_disabled":true,"rental_uris":{"android":"levelo://app?vid=c43882b1-5e02-4ad9-b699-728f77e5b88f","ios":"levelo://app?vid=c43882b1-5e02-4ad9-b699-728f77e5b88f"},"vehicle_type_id":"4","last_reported":1758219307,"current_range_meters":16800,"station_id":"ce4bgt12rcd13ifvqcd0","pricing_plan_id":"cebpf4jnsgd1na2vs0mg"},{"bike_id":"bf6e6d27-c09e-4725-9fbc-20073fd5a515","system_id":"levelo_inurba_marseille","lat":43.289376,"lon":5.396214,"is_reserved":false,"is_disabled":false,"rental_uris":{"android":"levelo://app?vid=bf6e6d27-c09e-4725-9fbc-20073fd5a515","ios":"levelo://app?vid=bf6e6d27-c09e-4725-9fbc-20073fd5a515"},"vehicle_type_id":"4","last_reported":1758219307,"current_range_meters":16800,"station_id":"","pricing_plan_id":"cebpf4jnsgd1na2vs0mg"},{"bike_id":"1206c8bf-8db7-4f36-b3ce-29a5c16b4872","system_id":"levelo_inurba_marseille","lat":43.27942,"lon":5.41053,"is_reserved":false,"is_disabled":false,"rental_uris":{"android":"levelo://app?vid=1206c8bf-8db7-4f36-b3ce-29a5c16b4872","ios":"levelo://app?vid=1206c8bf-8db7-4f36-b3ce-29a5c16b4872"},"vehicle_type_id":"4","last_reported":1758219307,"current_range_meters":16800,"station_id":"ce4bhnp2rcd13ifvqh0g","pricing_plan_id":"cebpf4jnsgd1na2vs0mg"},{"bike_id":"0960e3dd-c358-4474-bd10-8223758e1f6b","system_id":"levelo_inurba_marseille","lat":43.296996,"lon":5.376855,"is_reserved":false,"is_disabled":false,"rental_uris":{"android":"levelo://app?vid=0960e3dd-c358-4474-bd10-8223758e1f6b","ios":"levelo://app?vid=0960e3dd-c358-4474-bd10-8223758e1f6b"},"vehicle_type_id":"4","last_reported":1758219307,"current_range_meters":16800,"station_id":"","pricing_plan_id":"cebpf4jnsgd1na2vs0mg"},{"bike_id":"a826ad86-657e-471a-9f88-068a8cb0ac1f","system_id":"levelo_inurba_marseille","lat":43.2816,"lon":5.42635,"is_reserved":false,"is_disabled":true,"rental_uris":{"android":"levelo://app?vid=a826ad86-657e-471a-9f88-068a8cb0ac1f","ios":"levelo://app?vid=a826ad86-657e-471a-9f88-068a8cb0ac1f"},"vehicle_type_id":"4","last_reported":1758219307,"current_range_meters":16800,"station_id":"ce4bhnh2rcd13ifvqgug","pricing_plan_id":"cebpf4jnsgd1na2vs0mg"},{"bike_id":"01ae8dba-af9a-4098-8b75-1fc141ec4f10","system_id":"levelo_inurba_marseille","lat":43.29304,"lon":5.37175,"is_reserved":false,"is_disabled":false,"rental_uris":{"android":"levelo://app?vid=01ae8dba-af9a-4098-8b75-1fc141ec4f10","ios":"levelo://app?vid=01ae8dba-af9a-4098-8b75-1fc141ec4f10"},"vehicle_type_id":"4","last_reported":1758219307,"current_range_meters":17200,"station_id":"","pricing_plan_id":"cebpf4jnsgd1na2vs0mg"},{"bike_id":"06319b1f-bb7d-4df8-beb6-4cc890d4ea37","system_id":"levelo_inurba_marseille","lat":43.337606,"lon":5.374494,"is_reserved":false,"is_disabled":false,"rental_uris":{"android":"levelo://app?vid=06319b1f-bb7d-4df8-beb6-4cc890d4ea37","ios":"levelo://app?vid=06319b1f-bb7d-4df8-beb6-4cc890d4ea37"},"vehicle_type_id":"4","last_reported":1758219307,"current_range_meters":17200,"station_id":"","pricing_plan_id":"cebpf4jnsgd1na2vs0mg"},{"bike_id":"4b25ad77-301b-4be3-89f8-94f9df20251d","system_id":"levelo_inurba_marseille","lat":43.274908,"lon":5.424653,"is_reserved":false,"is_disabled":true,"rental_uris":{"android":"levelo://app?vid=4b25ad77-301b-4be3-89f8-94f9df20251d","ios":"levelo://app?vid=4b25ad77-301b-4be3-89f8-94f9df20251d"},"vehicle_type_id":"4","last_reported":1758219307,"current_range_meters":17200,"station_id":"ce4bhn92rcd13ifvqgrg","pricing_plan_id":"cebpf4jnsgd1na2vs0mg"},{"bike_id":"f8a7b5e6-101d-405a-ae9f-10a3c673cfc0","system_id":"levelo_inurba_marseille","lat":43.29312,"lon":5.37171,"is_reserved":false,"is_disabled":false,"rental_uris":{"android":"levelo://app?vid=f8a7b5e6-101d-405a-ae9f-10a3c673cfc0","ios":"levelo://app?vid=f8a7b5e6-101d-405a-ae9f-10a3c673cfc0"},"vehicle_type_id":"4","last_reported":1758219307,"current_range_meters":16800,"station_id":"ce4bgh92rcd13ifvqb40","pricing_plan_id":"cebpf4jnsgd1na2vs0mg"},{"bike_id":"6500bd55-e154-41a4-a0d1-e0d720690444","system_id":"levelo_inurba_marseille","lat":43.30938,"lon":5.4014,"is_reserved":false,"is_disabled":false,"rental_uris":{"android":"levelo://app?vid=6500bd55-e154-41a4-a0d1-e0d720690444","ios":"levelo://app?vid=6500bd55-e154-41a4-a0d1-e0d720690444"},"vehicle_type_id":"4","last_reported":1758219307,"current_range_meters":17200,"station_id":"ce4bgvp2rcd13ifvqct0","pricing_plan_id":"cebpf4jnsgd1na2vs0mg"},{"bike_id":"83981190-f3d9-45bf-a46e-4ee5e9cd6e7e","system_id":"levelo_inurba_marseille","lat":43.2318,"lon":5.39998,"is_reserved":false,"is_disabled":false,"rental_uris":{"android":"levelo://app?vid=83981190-f3d9-45bf-a46e-4ee5e9cd6e7e","ios":"levelo://app?vid=83981190-f3d9-45bf-a46e-4ee5e9cd6e7e"},"vehicle_type_id":"4","last_reported":1758219307,"current_range_meters":17600,"station_id":"ce4bhn12rcd13ifvqgqg","pricing_plan_id":"cebpf4jnsgd1na2vs0mg"},{"bike_id":"76e1ff25-4876-4fc4-bef4-1a699ed12b2d","system_id":"levelo_inurba_marseille","lat":43.27851,"lon":5.39206,"is_reserved":false,"is_disabled":false,"rental_uris":{"android":"levelo://app?vid=76e1ff25-4876-4fc4-bef4-1a699ed12b2d","ios":"levelo://app?vid=76e1ff25-4876-4fc4-bef4-1a699ed12b2d"},"vehicle_type_id":"4","last_reported":1758219307,"current_range_meters":17600,"station_id":"ce4bhjp2rcd13ifvqga0","pricing_plan_id":"cebpf4jnsgd1na2vs0mg"},{"bike_id":"b06de2b4-9574-43d7-b3c8-c93e53f9a5f3","system_id":"levelo_inurba_marseille","lat":43.29311,"lon":5.37172,"is_reserved":false,"is_disabled":false,"rental_uris":{"android":"levelo://app?vid=b06de2b4-9574-43d7-b3c8-c93e53f9a5f3","ios":"levelo://app?vid=b06de2b4-9574-43d7-b3c8-c93e53f9a5f3"},"vehicle_type_id":"4","last_reported":1758219307,"current_range_meters":17600,"station_id":"ce4bgh92rcd13ifvqb40","pricing_plan_id":"cebpf4jnsgd1na2vs0mg"},{"bike_id":"43d57fd4-047e-4ac8-97e5-ec9b96239472","system_id":"levelo_inurba_marseille","lat":43.3289,"lon":5.39224,"is_reserved":false,"is_disabled":false,"rental_uris":{"android":"levelo://app?vid=43d57fd4-047e-4ac8-97e5-ec9b96239472","ios":"levelo://app?vid=43d57fd4-047e-4ac8-97e5-ec9b96239472"},"vehicle_type_id":"4","last_reported":1758219307,"current_range_meters":17600,"station_id":"","pricing_plan_id":"cebpf4jnsgd1na2vs0mg"},{"bike_id":"04b84dec-6cb3-4472-9115-2508c5ef72de","system_id":"levelo_inurba_marseille","lat":43.26555,"lon":5.39011,"is_reserved":false,"is_disabled":false,"rental_uris":{"android":"levelo://app?vid=04b84dec-6cb3-4472-9115-2508c5ef72de","ios":"levelo://app?vid=04b84dec-6cb3-4472-9115-2508c5ef72de"},"vehicle_type_id":"4","last_reported":1758219307,"current_range_meters":17600,"station_id":"ce4bhe12rcd13ifvqf30","pricing_plan_id":"cebpf4jnsgd1na2vs0mg"},{"bike_id":"aec4675e-cb23-4bb2-aecc-5623d9af3d3c","system_id":"levelo_inurba_marseille","lat":43.31702,"lon":5.43712,"is_reserved":false,"is_disabled":false,"rental_uris":{"android":"levelo://app?vid=aec4675e-cb23-4bb2-aecc-5623d9af3d3c","ios":"levelo://app?vid=aec4675e-cb23-4bb2-aecc-5623d9af3d3c"},"vehicle_type_id":"4","last_reported":1758219307,"current_range_meters":18000,"station_id":"ce4bhp92rcd13ifvqhcg","pricing_plan_id":"cebpf4jnsgd1na2vs0mg"},{"bike_id":"614cc61f-794d-49f2-8937-8f594bdf583a","system_id":"levelo_inurba_marseille","lat":43.24075,"lon":5.37757,"is_reserved":false,"is_disabled":true,"rental_uris":{"android":"levelo://app?vid=614cc61f-794d-49f2-8937-8f594bdf583a","ios":"levelo://app?vid=614cc61f-794d-49f2-8937-8f594bdf583a"},"vehicle_type_id":"4","last_reported":1758219307,"current_range_meters":18000,"station_id":"ce4bhnp2rcd13ifvqgvg","pricing_plan_id":"cebpf4jnsgd1na2vs0mg"},{"bike_id":"7df5983d-afc7-4c15-a3e6-ba7d41a736f9","system_id":"levelo_inurba_marseille","lat":43.24532,"lon":5.37327,"is_reserved":false,"is_disabled":true,"rental_uris":{"android":"levelo://app?vid=7df5983d-afc7-4c15-a3e6-ba7d41a736f9","ios":"levelo://app?vid=7df5983d-afc7-4c15-a3e6-ba7d41a736f9"},"vehicle_type_id":"4","last_reported":1758219307,"current_range_meters":18000,"station_id":"","pricing_plan_id":"cebpf4jnsgd1na2vs0mg"},{"bike_id":"586bcc68-9ce3-4e3a-bfe4-3723973c3c72","system_id":"levelo_inurba_marseille","lat":43.26214,"lon":5.37441,"is_reserved":false,"is_disabled":false,"rental_uris":{"android":"levelo://app?vid=586bcc68-9ce3-4e3a-bfe4-3723973c3c72","ios":"levelo://app?vid=586bcc68-9ce3-4e3a-bfe4-3723973c3c72"},"vehicle_type_id":"4","last_reported":1758219307,"current_range_meters":18000,"station_id":"ce4bhgp2rcd13ifvqfc0","pricing_plan_id":"cebpf4jnsgd1na2vs0mg"},{"bike_id":"9c0693b2-33f4-40d9-85fa-754a770a9d54","system_id":"levelo_inurba_marseille","lat":43.295188,"lon":5.390328,"is_reserved":false,"is_disabled":false,"rental_uris":{"android":"levelo://app?vid=9c0693b2-33f4-40d9-85fa-754a770a9d54","ios":"levelo://app?vid=9c0693b2-33f4-40d9-85fa-754a770a9d54"},"vehicle_type_id":"4","last_reported":1758219307,"current_range_meters":18000,"station_id":"ce4bh312rcd13ifvqdj0","pricing_plan_id":"cebpf4jnsgd1na2vs0mg"},{"bike_id":"0410e618-8717-4fe6-a930-aba5222abfdb","system_id":"levelo_inurba_marseille","lat":43.326599,"lon":5.409962,"is_reserved":false,"is_disabled":false,"rental_uris":{"android":"levelo://app?vid=0410e618-8717-4fe6-a930-aba5222abfdb","ios":"levelo://app?vid=0410e618-8717-4fe6-a930-aba5222abfdb"},"vehicle_type_id":"4","last_reported":1758219307,"current_range_meters":18000,"station_id":"ce4bhq92rcd13ifvqhkg","pricing_plan_id":"cebpf4jnsgd1na2vs0mg"},{"bike_id":"fa219f3e-6b42-4ab6-bff1-13aae658d523","system_id":"levelo_inurba_marseille","lat":43.292972,"lon":5.37467,"is_reserved":false,"is_disabled":false,"rental_uris":{"android":"levelo://app?vid=fa219f3e-6b42-4ab6-bff1-13aae658d523","ios":"levelo://app?vid=fa219f3e-6b42-4ab6-bff1-13aae658d523"},"vehicle_type_id":"4","last_reported":1758219307,"current_range_meters":18800,"station_id":"","pricing_plan_id":"cebpf4jnsgd1na2vs0mg"},{"bike_id":"f85a8c4d-f9d0-4136-9b57-8bfb28db950c","system_id":"levelo_inurba_marseille","lat":43.31916,"lon":5.37395,"is_reserved":false,"is_disabled":false,"rental_uris":{"android":"levelo://app?vid=f85a8c4d-f9d0-4136-9b57-8bfb28db950c","ios":"levelo://app?vid=f85a8c4d-f9d0-4136-9b57-8bfb28db950c"},"vehicle_type_id":"4","last_reported":1758219307,"current_range_meters":18800,"station_id":"","pricing_plan_id":"cebpf4jnsgd1na2vs0mg"},{"bike_id":"eae7c706-1ec7-4047-8db9-48df66a1f228","system_id":"levelo_inurba_marseille","lat":43.261895,"lon":5.374571,"is_reserved":false,"is_disabled":false,"rental_uris":{"android":"levelo://app?vid=eae7c706-1ec7-4047-8db9-48df66a1f228","ios":"levelo://app?vid=eae7c706-1ec7-4047-8db9-48df66a1f228"},"vehicle_type_id":"4","last_reported":1758219307,"current_range_meters":18800,"station_id":"ce4bhgp2rcd13ifvqfc0","pricing_plan_id":"cebpf4jnsgd1na2vs0mg"},{"bike_id":"4b8537a5-4736-4d92-b52d-2168a000a2e9","system_id":"levelo_inurba_marseille","lat":43.289264,"lon":5.363935,"is_reserved":false,"is_disabled":true,"rental_uris":{"android":"levelo://app?vid=4b8537a5-4736-4d92-b52d-2168a000a2e9","ios":"levelo://app?vid=4b8537a5-4736-4d92-b52d-2168a000a2e9"},"vehicle_type_id":"4","last_reported":1758219307,"current_range_meters":18800,"station_id":"ce4bhc92rcd13ifvqetg","pricing_plan_id":"cebpf4jnsgd1na2vs0mg"},{"bike_id":"b920be2e-94e6-4cdf-83c5-1192e3da1241","system_id":"levelo_inurba_marseille","lat":43.26208,"lon":5.37443,"is_reserved":false,"is_disabled":false,"rental_uris":{"android":"levelo://app?vid=b920be2e-94e6-4cdf-83c5-1192e3da1241","ios":"levelo://app?vid=b920be2e-94e6-4cdf-83c5-1192e3da1241"},"vehicle_type_id":"4","last_reported":1758219307,"current_range_meters":18800,"station_id":"ce4bhgp2rcd13ifvqfc0","pricing_plan_id":"cebpf4jnsgd1na2vs0mg"},{"bike_id":"f9bcdd25-64e0-4813-b06a-2580b536f6ea","system_id":"levelo_inurba_marseille","lat":43.27999,"lon":5.40014,"is_reserved":false,"is_disabled":false,"rental_uris":{"android":"levelo://app?vid=f9bcdd25-64e0-4813-b06a-2580b536f6ea","ios":"levelo://app?vid=f9bcdd25-64e0-4813-b06a-2580b536f6ea"},"vehicle_type_id":"4","last_reported":1758219307,"current_range_meters":18800,"station_id":"ce4bho92rcd13ifvqh4g","pricing_plan_id":"cebpf4jnsgd1na2vs0mg"},{"bike_id":"1fa387bd-766d-41e0-87b3-8d6eb25d0bc0","system_id":"levelo_inurba_marseille","lat":43.29581,"lon":5.37513,"is_reserved":false,"is_disabled":false,"rental_uris":{"android":"levelo://app?vid=1fa387bd-766d-41e0-87b3-8d6eb25d0bc0","ios":"levelo://app?vid=1fa387bd-766d-41e0-87b3-8d6eb25d0bc0"},"vehicle_type_id":"4","last_reported":1758219307,"current_range_meters":19200,"station_id":"","pricing_plan_id":"cebpf4jnsgd1na2vs0mg"},{"bike_id":"73d02e95-e5a4-4300-aaf4-5842cc070637","system_id":"levelo_inurba_marseille","lat":43.28486,"lon":5.38432,"is_reserved":false,"is_disabled":true,"rental_uris":{"android":"levelo://app?vid=73d02e95-e5a4-4300-aaf4-5842cc070637","ios":"levelo://app?vid=73d02e95-e5a4-4300-aaf4-5842cc070637"},"vehicle_type_id":"4","last_reported":1758219307,"current_range_meters":19200,"station_id":"ce4bh512rcd13ifvqe3g","pricing_plan_id":"cebpf4jnsgd1na2vs0mg"},{"bike_id":"9380fe91-e970-41b6-bdb4-f4d097385c12","system_id":"levelo_inurba_marseille","lat":43.2898,"lon":5.37821,"is_reserved":false,"is_disabled":false,"rental_uris":{"android":"levelo://app?vid=9380fe91-e970-41b6-bdb4-f4d097385c12","ios":"levelo://app?vid=9380fe91-e970-41b6-bdb4-f4d097385c12"},"vehicle_type_id":"4","last_reported":1758219307,"current_range_meters":18800,"station_id":"ce4bh9p2rcd13ifvqed0","pricing_plan_id":"cebpf4jnsgd1na2vs0mg"},{"bike_id":"4b3e8128-0cba-44be-a6fb-61899439f2dd","system_id":"levelo_inurba_marseille","lat":43.23191,"lon":5.39978,"is_reserved":false,"is_disabled":false,"rental_uris":{"android":"levelo://app?vid=4b3e8128-0cba-44be-a6fb-61899439f2dd","ios":"levelo://app?vid=4b3e8128-0cba-44be-a6fb-61899439f2dd"},"vehicle_type_id":"4","last_reported":1758219307,"current_range_meters":19200,"station_id":"ce4bhn12rcd13ifvqgqg","pricing_plan_id":"cebpf4jnsgd1na2vs0mg"},{"bike_id":"e32eba2b-4560-4ceb-a078-f96bb79ab144","system_id":"levelo_inurba_marseille","lat":43.29578,"lon":5.37508,"is_reserved":false,"is_disabled":false,"rental_uris":{"android":"levelo://app?vid=e32eba2b-4560-4ceb-a078-f96bb79ab144","ios":"levelo://app?vid=e32eba2b-4560-4ceb-a078-f96bb79ab144"},"vehicle_type_id":"4","last_reported":1758219307,"current_range_meters":19200,"station_id":"","pricing_plan_id":"cebpf4jnsgd1na2vs0mg"},{"bike_id":"524b1cd7-3337-4255-ba83-e2ea5f83eeb6","system_id":"levelo_inurba_marseille","lat":43.30351,"lon":5.41889,"is_reserved":false,"is_disabled":false,"rental_uris":{"android":"levelo://app?vid=524b1cd7-3337-4255-ba83-e2ea5f83eeb6","ios":"levelo://app?vid=524b1cd7-3337-4255-ba83-e2ea5f83eeb6"},"vehicle_type_id":"4","last_reported":1758219307,"current_range_meters":19200,"station_id":"ce4bhop2rcd13ifvqh7g","pricing_plan_id":"cebpf4jnsgd1na2vs0mg"},{"bike_id":"518eef5b-9e3c-4b06-94a9-56e70af9d262","system_id":"levelo_inurba_marseille","lat":43.30804,"lon":5.38158,"is_reserved":false,"is_disabled":true,"rental_uris":{"android":"levelo://app?vid=518eef5b-9e3c-4b06-94a9-56e70af9d262","ios":"levelo://app?vid=518eef5b-9e3c-4b06-94a9-56e70af9d262"},"vehicle_type_id":"4","last_reported":1758219307,"current_range_meters":19200,"station_id":"ce4bgt12rcd13ifvqce0","pricing_plan_id":"cebpf4jnsgd1na2vs0mg"},{"bike_id":"40646b6d-992c-4d14-b0f8-6c16472024c2","system_id":"levelo_inurba_marseille","lat":43.2174,"lon":5.34596,"is_reserved":false,"is_disabled":true,"rental_uris":{"android":"levelo://app?vid=40646b6d-992c-4d14-b0f8-6c16472024c2","ios":"levelo://app?vid=40646b6d-992c-4d14-b0f8-6c16472024c2"},"vehicle_type_id":"4","last_reported":1758219307,"current_range_meters":19600,"station_id":"","pricing_plan_id":"cebpf4jnsgd1na2vs0mg"},{"bike_id":"835975a0-27c7-47e7-bc1c-b8ba0b505127","system_id":"levelo_inurba_marseille","lat":43.32606,"lon":5.37829,"is_reserved":false,"is_disabled":false,"rental_uris":{"android":"levelo://app?vid=835975a0-27c7-47e7-bc1c-b8ba0b505127","ios":"levelo://app?vid=835975a0-27c7-47e7-bc1c-b8ba0b505127"},"vehicle_type_id":"4","last_reported":1758219307,"current_range_meters":19600,"station_id":"","pricing_plan_id":"cebpf4jnsgd1na2vs0mg"},{"bike_id":"274e8f81-389b-47f8-ae71-3a5968c40a04","system_id":"levelo_inurba_marseille","lat":43.27808,"lon":5.40728,"is_reserved":false,"is_disabled":false,"rental_uris":{"android":"levelo://app?vid=274e8f81-389b-47f8-ae71-3a5968c40a04","ios":"levelo://app?vid=274e8f81-389b-47f8-ae71-3a5968c40a04"},"vehicle_type_id":"4","last_reported":1758219307,"current_range_meters":19600,"station_id":"ce4bhnh2rcd13ifvqgtg","pricing_plan_id":"cebpf4jnsgd1na2vs0mg"},{"bike_id":"e8bb34b1-43d9-4575-95ff-8a45acbef9e4","system_id":"levelo_inurba_marseille","lat":43.26556,"lon":5.37281,"is_reserved":false,"is_disabled":false,"rental_uris":{"android":"levelo://app?vid=e8bb34b1-43d9-4575-95ff-8a45acbef9e4","ios":"levelo://app?vid=e8bb34b1-43d9-4575-95ff-8a45acbef9e4"},"vehicle_type_id":"4","last_reported":1758219307,"current_range_meters":20000,"station_id":"ce4bhgp2rcd13ifvqfc0","pricing_plan_id":"cebpf4jnsgd1na2vs0mg"},{"bike_id":"c4706891-6ce1-4440-91ff-a3ecf2ff007e","system_id":"levelo_inurba_marseille","lat":43.26374,"lon":5.40075,"is_reserved":false,"is_disabled":false,"rental_uris":{"android":"levelo://app?vid=c4706891-6ce1-4440-91ff-a3ecf2ff007e","ios":"levelo://app?vid=c4706891-6ce1-4440-91ff-a3ecf2ff007e"},"vehicle_type_id":"4","last_reported":1758219307,"current_range_meters":20000,"station_id":"","pricing_plan_id":"cebpf4jnsgd1na2vs0mg"},{"bike_id":"50031181-f5ce-4ae6-80ad-9bd645e0064d","system_id":"levelo_inurba_marseille","lat":43.31179,"lon":5.3871,"is_reserved":false,"is_disabled":false,"rental_uris":{"android":"levelo://app?vid=50031181-f5ce-4ae6-80ad-9bd645e0064d","ios":"levelo://app?vid=50031181-f5ce-4ae6-80ad-9bd645e0064d"},"vehicle_type_id":"4","last_reported":1758219307,"current_range_meters":20000,"station_id":"ce4bgv12rcd13ifvqcp0","pricing_plan_id":"cebpf4jnsgd1na2vs0mg"},{"bike_id":"c3c05da5-ccd9-49f3-9661-69dfd29ed25c","system_id":"levelo_inurba_marseille","lat":43.29543,"lon":5.38539,"is_reserved":false,"is_disabled":false,"rental_uris":{"android":"levelo://app?vid=c3c05da5-ccd9-49f3-9661-69dfd29ed25c","ios":"levelo://app?vid=c3c05da5-ccd9-49f3-9661-69dfd29ed25c"},"vehicle_type_id":"4","last_reported":1758219307,"current_range_meters":20400,"station_id":"ce4bgih2rcd13ifvqba0","pricing_plan_id":"cebpf4jnsgd1na2vs0mg"},{"bike_id":"0eda2df8-e078-4c8b-b031-6ac4115ed463","system_id":"levelo_inurba_marseille","lat":43.31976,"lon":5.38158,"is_reserved":false,"is_disabled":false,"rental_uris":{"android":"levelo://app?vid=0eda2df8-e078-4c8b-b031-6ac4115ed463","ios":"levelo://app?vid=0eda2df8-e078-4c8b-b031-6ac4115ed463"},"vehicle_type_id":"4","last_reported":1758219307,"current_range_meters":20000,"station_id":"ce4bhr12rcd13ifvqhpg","pricing_plan_id":"cebpf4jnsgd1na2vs0mg"},{"bike_id":"e1b2ca1f-8745-4f08-bbd9-1d6ff3577081","system_id":"levelo_inurba_marseille","lat":43.27809,"lon":5.40714,"is_reserved":false,"is_disabled":false,"rental_uris":{"android":"levelo://app?vid=e1b2ca1f-8745-4f08-bbd9-1d6ff3577081","ios":"levelo://app?vid=e1b2ca1f-8745-4f08-bbd9-1d6ff3577081"},"vehicle_type_id":"4","last_reported":1758219307,"current_range_meters":20400,"station_id":"ce4bhnh2rcd13ifvqgtg","pricing_plan_id":"cebpf4jnsgd1na2vs0mg"},{"bike_id":"55d1bc08-fd54-4a82-afc7-2adcaa7b1c4e","system_id":"levelo_inurba_marseille","lat":43.30017,"lon":5.37716,"is_reserved":false,"is_disabled":false,"rental_uris":{"android":"levelo://app?vid=55d1bc08-fd54-4a82-afc7-2adcaa7b1c4e","ios":"levelo://app?vid=55d1bc08-fd54-4a82-afc7-2adcaa7b1c4e"},"vehicle_type_id":"4","last_reported":1758219307,"current_range_meters":20400,"station_id":"","pricing_plan_id":"cebpf4jnsgd1na2vs0mg"},{"bike_id":"af92115d-6f7a-49ce-a65e-77f9182df835","system_id":"levelo_inurba_marseille","lat":43.21742,"lon":5.34613,"is_reserved":false,"is_disabled":true,"rental_uris":{"android":"levelo://app?vid=af92115d-6f7a-49ce-a65e-77f9182df835","ios":"levelo://app?vid=af92115d-6f7a-49ce-a65e-77f9182df835"},"vehicle_type_id":"4","last_reported":1758219307,"current_range_meters":20800,"station_id":"st_cvj6r9ubvosntc0bgbag","pricing_plan_id":"cebpf4jnsgd1na2vs0mg"},{"bike_id":"5304049e-91d5-46c7-b1ae-caae14291e88","system_id":"levelo_inurba_marseille","lat":43.29254,"lon":5.37645,"is_reserved":false,"is_disabled":true,"rental_uris":{"android":"levelo://app?vid=5304049e-91d5-46c7-b1ae-caae14291e88","ios":"levelo://app?vid=5304049e-91d5-46c7-b1ae-caae14291e88"},"vehicle_type_id":"4","last_reported":1758219307,"current_range_meters":20800,"station_id":"ce4bgi12rcd13ifvqb80","pricing_plan_id":"cebpf4jnsgd1na2vs0mg"},{"bike_id":"3989a98a-e940-4168-b2df-fffb6df0f78f","system_id":"levelo_inurba_marseille","lat":43.28004,"lon":5.40012,"is_reserved":false,"is_disabled":false,"rental_uris":{"android":"levelo://app?vid=3989a98a-e940-4168-b2df-fffb6df0f78f","ios":"levelo://app?vid=3989a98a-e940-4168-b2df-fffb6df0f78f"},"vehicle_type_id":"4","last_reported":1758219307,"current_range_meters":20800,"station_id":"ce4bho92rcd13ifvqh4g","pricing_plan_id":"cebpf4jnsgd1na2vs0mg"},{"bike_id":"161cad8a-69cf-4221-a60e-26db5a988d29","system_id":"levelo_inurba_marseille","lat":43.27492,"lon":5.4246,"is_reserved":false,"is_disabled":true,"rental_uris":{"android":"levelo://app?vid=161cad8a-69cf-4221-a60e-26db5a988d29","ios":"levelo://app?vid=161cad8a-69cf-4221-a60e-26db5a988d29"},"vehicle_type_id":"4","last_reported":1758219307,"current_range_meters":20800,"station_id":"ce4bhn92rcd13ifvqgrg","pricing_plan_id":"cebpf4jnsgd1na2vs0mg"},{"bike_id":"af0490b6-c1c9-4895-8a15-568d23e0a730","system_id":"levelo_inurba_marseille","lat":43.28073,"lon":5.40781,"is_reserved":false,"is_disabled":false,"rental_uris":{"android":"levelo://app?vid=af0490b6-c1c9-4895-8a15-568d23e0a730","ios":"levelo://app?vid=af0490b6-c1c9-4895-8a15-568d23e0a730"},"vehicle_type_id":"4","last_reported":1758219307,"current_range_meters":21600,"station_id":"","pricing_plan_id":"cebpf4jnsgd1na2vs0mg"},{"bike_id":"f837ced1-9809-42ab-926c-35cf3bf3ca16","system_id":"levelo_inurba_marseille","lat":43.28138,"lon":5.426626,"is_reserved":false,"is_disabled":false,"rental_uris":{"android":"levelo://app?vid=f837ced1-9809-42ab-926c-35cf3bf3ca16","ios":"levelo://app?vid=f837ced1-9809-42ab-926c-35cf3bf3ca16"},"vehicle_type_id":"4","last_reported":1758219307,"current_range_meters":21600,"station_id":"ce4bhnh2rcd13ifvqgug","pricing_plan_id":"cebpf4jnsgd1na2vs0mg"},{"bike_id":"3d158a28-bece-4b10-9f82-ab3eb3313408","system_id":"levelo_inurba_marseille","lat":43.337485,"lon":5.374512,"is_reserved":false,"is_disabled":false,"rental_uris":{"android":"levelo://app?vid=3d158a28-bece-4b10-9f82-ab3eb3313408","ios":"levelo://app?vid=3d158a28-bece-4b10-9f82-ab3eb3313408"},"vehicle_type_id":"4","last_reported":1758219307,"current_range_meters":21600,"station_id":"","pricing_plan_id":"cebpf4jnsgd1na2vs0mg"},{"bike_id":"62e4f37a-a1c3-4c05-b12e-0d6ffb4524ee","system_id":"levelo_inurba_marseille","lat":43.30537,"lon":5.38434,"is_reserved":false,"is_disabled":false,"rental_uris":{"android":"levelo://app?vid=62e4f37a-a1c3-4c05-b12e-0d6ffb4524ee","ios":"levelo://app?vid=62e4f37a-a1c3-4c05-b12e-0d6ffb4524ee"},"vehicle_type_id":"4","last_reported":1758219307,"current_range_meters":21600,"station_id":"ce4bgg92rcd13ifvqb30","pricing_plan_id":"cebpf4jnsgd1na2vs0mg"},{"bike_id":"d7bef412-2577-4ef8-9a48-17ed47d0fae4","system_id":"levelo_inurba_marseille","lat":43.225311,"lon":5.348271,"is_reserved":false,"is_disabled":false,"rental_uris":{"android":"levelo://app?vid=d7bef412-2577-4ef8-9a48-17ed47d0fae4","ios":"levelo://app?vid=d7bef412-2577-4ef8-9a48-17ed47d0fae4"},"vehicle_type_id":"4","last_reported":1758219307,"current_range_meters":22000,"station_id":"","pricing_plan_id":"cebpf4jnsgd1na2vs0mg"},{"bike_id":"b810ec46-97ab-4356-95f9-0c9d02506d5a","system_id":"levelo_inurba_marseille","lat":43.24458,"lon":5.39039,"is_reserved":false,"is_disabled":false,"rental_uris":{"android":"levelo://app?vid=b810ec46-97ab-4356-95f9-0c9d02506d5a","ios":"levelo://app?vid=b810ec46-97ab-4356-95f9-0c9d02506d5a"},"vehicle_type_id":"4","last_reported":1758219307,"current_range_meters":22000,"station_id":"","pricing_plan_id":"cebpf4jnsgd1na2vs0mg"},{"bike_id":"ebff6dbd-3785-4eeb-ba95-82c61c08d843","system_id":"levelo_inurba_marseille","lat":43.29521,"lon":5.3752,"is_reserved":false,"is_disabled":false,"rental_uris":{"android":"levelo://app?vid=ebff6dbd-3785-4eeb-ba95-82c61c08d843","ios":"levelo://app?vid=ebff6dbd-3785-4eeb-ba95-82c61c08d843"},"vehicle_type_id":"4","last_reported":1758219307,"current_range_meters":22000,"station_id":"ce4bgkp2rcd13ifvqbmg","pricing_plan_id":"cebpf4jnsgd1na2vs0mg"},{"bike_id":"5c95060e-45a8-4eec-8240-37aa1f32c2d9","system_id":"levelo_inurba_marseille","lat":43.26583,"lon":5.40344,"is_reserved":false,"is_disabled":false,"rental_uris":{"android":"levelo://app?vid=5c95060e-45a8-4eec-8240-37aa1f32c2d9","ios":"levelo://app?vid=5c95060e-45a8-4eec-8240-37aa1f32c2d9"},"vehicle_type_id":"4","last_reported":1758219307,"current_range_meters":22000,"station_id":"ce4bhmp2rcd13ifvqgng","pricing_plan_id":"cebpf4jnsgd1na2vs0mg"},{"bike_id":"fe472a0c-5f61-4474-ae1f-d3030dbf21f5","system_id":"levelo_inurba_marseille","lat":43.29778,"lon":5.3933,"is_reserved":false,"is_disabled":false,"rental_uris":{"android":"levelo://app?vid=fe472a0c-5f61-4474-ae1f-d3030dbf21f5","ios":"levelo://app?vid=fe472a0c-5f61-4474-ae1f-d3030dbf21f5"},"vehicle_type_id":"4","last_reported":1758219307,"current_range_meters":22400,"station_id":"chh1huq6cuj3fo74tm60","pricing_plan_id":"cebpf4jnsgd1na2vs0mg"},{"bike_id":"36350d87-1f00-4121-b62b-316c79c883c2","system_id":"levelo_inurba_marseille","lat":43.287262,"lon":5.388835,"is_reserved":false,"is_disabled":false,"rental_uris":{"android":"levelo://app?vid=36350d87-1f00-4121-b62b-316c79c883c2","ios":"levelo://app?vid=36350d87-1f00-4121-b62b-316c79c883c2"},"vehicle_type_id":"4","last_reported":1758219307,"current_range_meters":22000,"station_id":"ce4bh492rcd13ifvqdug","pricing_plan_id":"cebpf4jnsgd1na2vs0mg"},{"bike_id":"17e2a758-4bfa-4040-919a-c52801e1eaab","system_id":"levelo_inurba_marseille","lat":43.308915,"lon":5.396585,"is_reserved":false,"is_disabled":true,"rental_uris":{"android":"levelo://app?vid=17e2a758-4bfa-4040-919a-c52801e1eaab","ios":"levelo://app?vid=17e2a758-4bfa-4040-919a-c52801e1eaab"},"vehicle_type_id":"4","last_reported":1758219307,"current_range_meters":22000,"station_id":"ce4bh012rcd13ifvqcv0","pricing_plan_id":"cebpf4jnsgd1na2vs0mg"},{"bike_id":"0f7caa9f-1d1a-40d7-9b4a-2f8720e63681","system_id":"levelo_inurba_marseille","lat":43.30857,"lon":5.37511,"is_reserved":false,"is_disabled":false,"rental_uris":{"android":"levelo://app?vid=0f7caa9f-1d1a-40d7-9b4a-2f8720e63681","ios":"levelo://app?vid=0f7caa9f-1d1a-40d7-9b4a-2f8720e63681"},"vehicle_type_id":"4","last_reported":1758219307,"current_range_meters":22400,"station_id":"","pricing_plan_id":"cebpf4jnsgd1na2vs0mg"},{"bike_id":"43656096-3901-4c1c-ba91-d79ba028e521","system_id":"levelo_inurba_marseille","lat":43.27491,"lon":5.42463,"is_reserved":false,"is_disabled":true,"rental_uris":{"android":"levelo://app?vid=43656096-3901-4c1c-ba91-d79ba028e521","ios":"levelo://app?vid=43656096-3901-4c1c-ba91-d79ba028e521"},"vehicle_type_id":"4","last_reported":1758219307,"current_range_meters":22400,"station_id":"ce4bhn92rcd13ifvqgrg","pricing_plan_id":"cebpf4jnsgd1na2vs0mg"},{"bike_id":"b10e3b88-54c2-4b80-8e3b-3278a12c56dd","system_id":"levelo_inurba_marseille","lat":43.29555,"lon":5.37537,"is_reserved":false,"is_disabled":false,"rental_uris":{"android":"levelo://app?vid=b10e3b88-54c2-4b80-8e3b-3278a12c56dd","ios":"levelo://app?vid=b10e3b88-54c2-4b80-8e3b-3278a12c56dd"},"vehicle_type_id":"4","last_reported":1758219307,"current_range_meters":22400,"station_id":"","pricing_plan_id":"cebpf4jnsgd1na2vs0mg"},{"bike_id":"ca6cfb19-1dc3-4908-b50d-fcb1e1ef8339","system_id":"levelo_inurba_marseille","lat":43.27368,"lon":5.36273,"is_reserved":false,"is_disabled":false,"rental_uris":{"android":"levelo://app?vid=ca6cfb19-1dc3-4908-b50d-fcb1e1ef8339","ios":"levelo://app?vid=ca6cfb19-1dc3-4908-b50d-fcb1e1ef8339"},"vehicle_type_id":"4","last_reported":1758219307,"current_range_meters":22400,"station_id":"ce4bhbh2rcd13ifvqeo0","pricing_plan_id":"cebpf4jnsgd1na2vs0mg"},{"bike_id":"36da2039-11b0-490b-a9dd-2dbc8a8f441c","system_id":"levelo_inurba_marseille","lat":43.28159,"lon":5.42636,"is_reserved":false,"is_disabled":false,"rental_uris":{"android":"levelo://app?vid=36da2039-11b0-490b-a9dd-2dbc8a8f441c","ios":"levelo://app?vid=36da2039-11b0-490b-a9dd-2dbc8a8f441c"},"vehicle_type_id":"4","last_reported":1758219307,"current_range_meters":22400,"station_id":"ce4bhnh2rcd13ifvqgug","pricing_plan_id":"cebpf4jnsgd1na2vs0mg"},{"bike_id":"4217fd4e-b2b8-4b2b-b20a-c34fe9724352","system_id":"levelo_inurba_marseille","lat":43.29027,"lon":5.38128,"is_reserved":false,"is_disabled":false,"rental_uris":{"android":"levelo://app?vid=4217fd4e-b2b8-4b2b-b20a-c34fe9724352","ios":"levelo://app?vid=4217fd4e-b2b8-4b2b-b20a-c34fe9724352"},"vehicle_type_id":"4","last_reported":1758219307,"current_range_meters":22400,"station_id":"ce4bh4p2rcd13ifvqe1g","pricing_plan_id":"cebpf4jnsgd1na2vs0mg"},{"bike_id":"44e729b2-5579-4d80-bf9f-d6fa94ed1678","system_id":"levelo_inurba_marseille","lat":43.28145,"lon":5.42665,"is_reserved":false,"is_disabled":false,"rental_uris":{"android":"levelo://app?vid=44e729b2-5579-4d80-bf9f-d6fa94ed1678","ios":"levelo://app?vid=44e729b2-5579-4d80-bf9f-d6fa94ed1678"},"vehicle_type_id":"4","last_reported":1758219307,"current_range_meters":22400,"station_id":"ce4bhnh2rcd13ifvqgug","pricing_plan_id":"cebpf4jnsgd1na2vs0mg"},{"bike_id":"e2dc5126-05e7-487c-b5e3-0c4f8aee1a81","system_id":"levelo_inurba_marseille","lat":43.31541,"lon":5.38049,"is_reserved":false,"is_disabled":false,"rental_uris":{"android":"levelo://app?vid=e2dc5126-05e7-487c-b5e3-0c4f8aee1a81","ios":"levelo://app?vid=e2dc5126-05e7-487c-b5e3-0c4f8aee1a81"},"vehicle_type_id":"4","last_reported":1758219307,"current_range_meters":22400,"station_id":"ce4bhsp2rcd13ifvqi50","pricing_plan_id":"cebpf4jnsgd1na2vs0mg"},{"bike_id":"a07a513e-e5a9-4481-8592-d991379bc662","system_id":"levelo_inurba_marseille","lat":43.337536,"lon":5.374536,"is_reserved":false,"is_disabled":false,"rental_uris":{"android":"levelo://app?vid=a07a513e-e5a9-4481-8592-d991379bc662","ios":"levelo://app?vid=a07a513e-e5a9-4481-8592-d991379bc662"},"vehicle_type_id":"4","last_reported":1758219307,"current_range_meters":22400,"station_id":"","pricing_plan_id":"cebpf4jnsgd1na2vs0mg"},{"bike_id":"effba664-507c-485b-84be-5fe4fdaddb10","system_id":"levelo_inurba_marseille","lat":43.284898,"lon":5.385513,"is_reserved":false,"is_disabled":false,"rental_uris":{"android":"levelo://app?vid=effba664-507c-485b-84be-5fe4fdaddb10","ios":"levelo://app?vid=effba664-507c-485b-84be-5fe4fdaddb10"},"vehicle_type_id":"4","last_reported":1758219307,"current_range_meters":22400,"station_id":"ce4bh8p2rcd13ifvqeb0","pricing_plan_id":"cebpf4jnsgd1na2vs0mg"},{"bike_id":"2c734c36-442f-468e-ab47-e34ad5183e32","system_id":"levelo_inurba_marseille","lat":43.25772,"lon":5.41047,"is_reserved":false,"is_disabled":false,"rental_uris":{"android":"levelo://app?vid=2c734c36-442f-468e-ab47-e34ad5183e32","ios":"levelo://app?vid=2c734c36-442f-468e-ab47-e34ad5183e32"},"vehicle_type_id":"4","last_reported":1758219307,"current_range_meters":22800,"station_id":"","pricing_plan_id":"cebpf4jnsgd1na2vs0mg"},{"bike_id":"969e50c3-a6fa-49a2-8381-35f10a15b038","system_id":"levelo_inurba_marseille","lat":43.22558,"lon":5.41636,"is_reserved":false,"is_disabled":false,"rental_uris":{"android":"levelo://app?vid=969e50c3-a6fa-49a2-8381-35f10a15b038","ios":"levelo://app?vid=969e50c3-a6fa-49a2-8381-35f10a15b038"},"vehicle_type_id":"4","last_reported":1758219307,"current_range_meters":22800,"station_id":"st_d2o4gvlbi1j2169b742g","pricing_plan_id":"cebpf4jnsgd1na2vs0mg"},{"bike_id":"4a749a94-5918-421d-86d7-2bf8486fd35c","system_id":"levelo_inurba_marseille","lat":43.28417,"lon":5.37554,"is_reserved":false,"is_disabled":false,"rental_uris":{"android":"levelo://app?vid=4a749a94-5918-421d-86d7-2bf8486fd35c","ios":"levelo://app?vid=4a749a94-5918-421d-86d7-2bf8486fd35c"},"vehicle_type_id":"4","last_reported":1758219307,"current_range_meters":22800,"station_id":"ce4bh412rcd13ifvqds0","pricing_plan_id":"cebpf4jnsgd1na2vs0mg"},{"bike_id":"95913ca2-1462-4825-a4f2-85b2cee0ee58","system_id":"levelo_inurba_marseille","lat":43.297,"lon":5.37301,"is_reserved":false,"is_disabled":false,"rental_uris":{"android":"levelo://app?vid=95913ca2-1462-4825-a4f2-85b2cee0ee58","ios":"levelo://app?vid=95913ca2-1462-4825-a4f2-85b2cee0ee58"},"vehicle_type_id":"4","last_reported":1758219307,"current_range_meters":23200,"station_id":"","pricing_plan_id":"cebpf4jnsgd1na2vs0mg"},{"bike_id":"c4d5a605-6d7a-4860-b3f2-50abcd402838","system_id":"levelo_inurba_marseille","lat":43.29266,"lon":5.38442,"is_reserved":false,"is_disabled":false,"rental_uris":{"android":"levelo://app?vid=c4d5a605-6d7a-4860-b3f2-50abcd402838","ios":"levelo://app?vid=c4d5a605-6d7a-4860-b3f2-50abcd402838"},"vehicle_type_id":"4","last_reported":1758219307,"current_range_meters":23200,"station_id":"ce4bh692rcd13ifvqea0","pricing_plan_id":"cebpf4jnsgd1na2vs0mg"},{"bike_id":"10fd8eb3-ac84-402a-a722-a4dcecd42f05","system_id":"levelo_inurba_marseille","lat":43.29607,"lon":5.38095,"is_reserved":false,"is_disabled":false,"rental_uris":{"android":"levelo://app?vid=10fd8eb3-ac84-402a-a722-a4dcecd42f05","ios":"levelo://app?vid=10fd8eb3-ac84-402a-a722-a4dcecd42f05"},"vehicle_type_id":"4","last_reported":1758219307,"current_range_meters":23200,"station_id":"","pricing_plan_id":"cebpf4jnsgd1na2vs0mg"},{"bike_id":"bf115dd3-2eac-415c-9d18-6f834078c91f","system_id":"levelo_inurba_marseille","lat":43.31116,"lon":5.37766,"is_reserved":false,"is_disabled":false,"rental_uris":{"android":"levelo://app?vid=bf115dd3-2eac-415c-9d18-6f834078c91f","ios":"levelo://app?vid=bf115dd3-2eac-415c-9d18-6f834078c91f"},"vehicle_type_id":"4","last_reported":1758219307,"current_range_meters":23200,"station_id":"ce4bgt92rcd13ifvqcg0","pricing_plan_id":"cebpf4jnsgd1na2vs0mg"},{"bike_id":"4f36a2a5-dbb4-4f74-9b72-d68418c17e37","system_id":"levelo_inurba_marseille","lat":43.27938,"lon":5.41043,"is_reserved":false,"is_disabled":false,"rental_uris":{"android":"levelo://app?vid=4f36a2a5-dbb4-4f74-9b72-d68418c17e37","ios":"levelo://app?vid=4f36a2a5-dbb4-4f74-9b72-d68418c17e37"},"vehicle_type_id":"4","last_reported":1758219307,"current_range_meters":23200,"station_id":"ce4bhnp2rcd13ifvqh0g","pricing_plan_id":"cebpf4jnsgd1na2vs0mg"},{"bike_id":"2a00cb84-e9e6-4781-804d-0494d7480777","system_id":"levelo_inurba_marseille","lat":43.22549,"lon":5.41648,"is_reserved":false,"is_disabled":false,"rental_uris":{"android":"levelo://app?vid=2a00cb84-e9e6-4781-804d-0494d7480777","ios":"levelo://app?vid=2a00cb84-e9e6-4781-804d-0494d7480777"},"vehicle_type_id":"4","last_reported":1758219307,"current_range_meters":24000,"station_id":"st_d2o4gvlbi1j2169b742g","pricing_plan_id":"cebpf4jnsgd1na2vs0mg"},{"bike_id":"68adab37-f5ad-4072-b58a-fe6c68285ca6","system_id":"levelo_inurba_marseille","lat":43.30615,"lon":5.3766,"is_reserved":false,"is_disabled":false,"rental_uris":{"android":"levelo://app?vid=68adab37-f5ad-4072-b58a-fe6c68285ca6","ios":"levelo://app?vid=68adab37-f5ad-4072-b58a-fe6c68285ca6"},"vehicle_type_id":"4","last_reported":1758219307,"current_range_meters":24000,"station_id":"","pricing_plan_id":"cebpf4jnsgd1na2vs0mg"},{"bike_id":"c524b380-105b-4d5b-b66f-7c669109d10d","system_id":"levelo_inurba_marseille","lat":43.30439,"lon":5.38889,"is_reserved":false,"is_disabled":false,"rental_uris":{"android":"levelo://app?vid=c524b380-105b-4d5b-b66f-7c669109d10d","ios":"levelo://app?vid=c524b380-105b-4d5b-b66f-7c669109d10d"},"vehicle_type_id":"4","last_reported":1758219307,"current_range_meters":23200,"station_id":"ce4bgk12rcd13ifvqbi0","pricing_plan_id":"cebpf4jnsgd1na2vs0mg"},{"bike_id":"9501c2e6-fad2-49b6-bb01-b4bc9cfae6ca","system_id":"levelo_inurba_marseille","lat":43.28081,"lon":5.39666,"is_reserved":false,"is_disabled":false,"rental_uris":{"android":"levelo://app?vid=9501c2e6-fad2-49b6-bb01-b4bc9cfae6ca","ios":"levelo://app?vid=9501c2e6-fad2-49b6-bb01-b4bc9cfae6ca"},"vehicle_type_id":"4","last_reported":1758219307,"current_range_meters":24000,"station_id":"ce4bho12rcd13ifvqh2g","pricing_plan_id":"cebpf4jnsgd1na2vs0mg"},{"bike_id":"c3bc81fc-c751-46ca-81f2-f72dc625ff3f","system_id":"levelo_inurba_marseille","lat":43.290074,"lon":5.381393,"is_reserved":false,"is_disabled":false,"rental_uris":{"android":"levelo://app?vid=c3bc81fc-c751-46ca-81f2-f72dc625ff3f","ios":"levelo://app?vid=c3bc81fc-c751-46ca-81f2-f72dc625ff3f"},"vehicle_type_id":"4","last_reported":1758219307,"current_range_meters":24000,"station_id":"ce4bh4p2rcd13ifvqe1g","pricing_plan_id":"cebpf4jnsgd1na2vs0mg"},{"bike_id":"ad3caa63-5ce8-4bc3-af0f-e932737fb77c","system_id":"levelo_inurba_marseille","lat":43.28,"lon":5.4001,"is_reserved":false,"is_disabled":false,"rental_uris":{"android":"levelo://app?vid=ad3caa63-5ce8-4bc3-af0f-e932737fb77c","ios":"levelo://app?vid=ad3caa63-5ce8-4bc3-af0f-e932737fb77c"},"vehicle_type_id":"4","last_reported":1758219307,"current_range_meters":24400,"station_id":"ce4bho92rcd13ifvqh4g","pricing_plan_id":"cebpf4jnsgd1na2vs0mg"},{"bike_id":"c6f25aca-ea5f-4eba-9396-6f671d46772b","system_id":"levelo_inurba_marseille","lat":43.262272,"lon":5.404475,"is_reserved":false,"is_disabled":false,"rental_uris":{"android":"levelo://app?vid=c6f25aca-ea5f-4eba-9396-6f671d46772b","ios":"levelo://app?vid=c6f25aca-ea5f-4eba-9396-6f671d46772b"},"vehicle_type_id":"4","last_reported":1758219307,"current_range_meters":24400,"station_id":"ce4bhmh2rcd13ifvqgmg","pricing_plan_id":"cebpf4jnsgd1na2vs0mg"},{"bike_id":"7f0caab0-894b-42f9-94eb-6d9e6311403c","system_id":"levelo_inurba_marseille","lat":43.3013,"lon":5.37408,"is_reserved":false,"is_disabled":true,"rental_uris":{"android":"levelo://app?vid=7f0caab0-894b-42f9-94eb-6d9e6311403c","ios":"levelo://app?vid=7f0caab0-894b-42f9-94eb-6d9e6311403c"},"vehicle_type_id":"4","last_reported":1758219307,"current_range_meters":24400,"station_id":"","pricing_plan_id":"cebpf4jnsgd1na2vs0mg"},{"bike_id":"97514a44-1f4d-4ae1-a270-04ca7b75c621","system_id":"levelo_inurba_marseille","lat":43.28858,"lon":5.42536,"is_reserved":false,"is_disabled":false,"rental_uris":{"android":"levelo://app?vid=97514a44-1f4d-4ae1-a270-04ca7b75c621","ios":"levelo://app?vid=97514a44-1f4d-4ae1-a270-04ca7b75c621"},"vehicle_type_id":"4","last_reported":1758219307,"current_range_meters":24400,"station_id":"","pricing_plan_id":"cebpf4jnsgd1na2vs0mg"},{"bike_id":"b6b6d8b4-6b46-416f-bf54-69b27afd4ea9","system_id":"levelo_inurba_marseille","lat":43.29296,"lon":5.37461,"is_reserved":false,"is_disabled":false,"rental_uris":{"android":"levelo://app?vid=b6b6d8b4-6b46-416f-bf54-69b27afd4ea9","ios":"levelo://app?vid=b6b6d8b4-6b46-416f-bf54-69b27afd4ea9"},"vehicle_type_id":"4","last_reported":1758219307,"current_range_meters":24400,"station_id":"","pricing_plan_id":"cebpf4jnsgd1na2vs0mg"},{"bike_id":"5bb48656-f026-4930-8f9d-b230b96ba26e","system_id":"levelo_inurba_marseille","lat":43.31121,"lon":5.37758,"is_reserved":false,"is_disabled":false,"rental_uris":{"android":"levelo://app?vid=5bb48656-f026-4930-8f9d-b230b96ba26e","ios":"levelo://app?vid=5bb48656-f026-4930-8f9d-b230b96ba26e"},"vehicle_type_id":"4","last_reported":1758219307,"current_range_meters":24400,"station_id":"ce4bgt92rcd13ifvqcg0","pricing_plan_id":"cebpf4jnsgd1na2vs0mg"},{"bike_id":"959f4d5a-1bb0-44fd-b2e7-f8c822ec5a34","system_id":"levelo_inurba_marseille","lat":43.28479,"lon":5.3841,"is_reserved":false,"is_disabled":false,"rental_uris":{"android":"levelo://app?vid=959f4d5a-1bb0-44fd-b2e7-f8c822ec5a34","ios":"levelo://app?vid=959f4d5a-1bb0-44fd-b2e7-f8c822ec5a34"},"vehicle_type_id":"4","last_reported":1758219307,"current_range_meters":22800,"station_id":"ce4bh512rcd13ifvqe3g","pricing_plan_id":"cebpf4jnsgd1na2vs0mg"},{"bike_id":"96863cdd-b199-42d2-b9ee-fa7ad9271704","system_id":"levelo_inurba_marseille","lat":43.29776,"lon":5.39351,"is_reserved":false,"is_disabled":false,"rental_uris":{"android":"levelo://app?vid=96863cdd-b199-42d2-b9ee-fa7ad9271704","ios":"levelo://app?vid=96863cdd-b199-42d2-b9ee-fa7ad9271704"},"vehicle_type_id":"4","last_reported":1758219307,"current_range_meters":24400,"station_id":"chh1huq6cuj3fo74tm60","pricing_plan_id":"cebpf4jnsgd1na2vs0mg"},{"bike_id":"e2210011-dd7e-48e2-a8e7-c885ad93852c","system_id":"levelo_inurba_marseille","lat":43.25452,"lon":5.4187,"is_reserved":false,"is_disabled":false,"rental_uris":{"android":"levelo://app?vid=e2210011-dd7e-48e2-a8e7-c885ad93852c","ios":"levelo://app?vid=e2210011-dd7e-48e2-a8e7-c885ad93852c"},"vehicle_type_id":"4","last_reported":1758219307,"current_range_meters":24400,"station_id":"","pricing_plan_id":"cebpf4jnsgd1na2vs0mg"},{"bike_id":"354861a6-a1a6-45ce-92fc-0e9708507fd2","system_id":"levelo_inurba_marseille","lat":43.29026,"lon":5.38646,"is_reserved":false,"is_disabled":false,"rental_uris":{"android":"levelo://app?vid=354861a6-a1a6-45ce-92fc-0e9708507fd2","ios":"levelo://app?vid=354861a6-a1a6-45ce-92fc-0e9708507fd2"},"vehicle_type_id":"4","last_reported":1758219307,"current_range_meters":24400,"station_id":"ce4bh4p2rcd13ifvqe0g","pricing_plan_id":"cebpf4jnsgd1na2vs0mg"},{"bike_id":"b8af4056-fb36-4e39-a4f0-5cd179383459","system_id":"levelo_inurba_marseille","lat":43.32918,"lon":5.38949,"is_reserved":false,"is_disabled":false,"rental_uris":{"android":"levelo://app?vid=b8af4056-fb36-4e39-a4f0-5cd179383459","ios":"levelo://app?vid=b8af4056-fb36-4e39-a4f0-5cd179383459"},"vehicle_type_id":"4","last_reported":1758219307,"current_range_meters":24400,"station_id":"","pricing_plan_id":"cebpf4jnsgd1na2vs0mg"},{"bike_id":"bf1823f1-49f2-40df-b602-84149aa89c3c","system_id":"levelo_inurba_marseille","lat":43.24078,"lon":5.37754,"is_reserved":false,"is_disabled":false,"rental_uris":{"android":"levelo://app?vid=bf1823f1-49f2-40df-b602-84149aa89c3c","ios":"levelo://app?vid=bf1823f1-49f2-40df-b602-84149aa89c3c"},"vehicle_type_id":"4","last_reported":1758219307,"current_range_meters":24800,"station_id":"ce4bhnp2rcd13ifvqgvg","pricing_plan_id":"cebpf4jnsgd1na2vs0mg"},{"bike_id":"cfe6dec4-7099-43b3-9e41-3212cd5eeadd","system_id":"levelo_inurba_marseille","lat":43.29589,"lon":5.37748,"is_reserved":false,"is_disabled":true,"rental_uris":{"android":"levelo://app?vid=cfe6dec4-7099-43b3-9e41-3212cd5eeadd","ios":"levelo://app?vid=cfe6dec4-7099-43b3-9e41-3212cd5eeadd"},"vehicle_type_id":"4","last_reported":1758219307,"current_range_meters":24800,"station_id":"","pricing_plan_id":"cebpf4jnsgd1na2vs0mg"},{"bike_id":"932aaedf-dd17-4047-8c0a-8fa28c4ede96","system_id":"levelo_inurba_marseille","lat":43.33768,"lon":5.37493,"is_reserved":false,"is_disabled":false,"rental_uris":{"android":"levelo://app?vid=932aaedf-dd17-4047-8c0a-8fa28c4ede96","ios":"levelo://app?vid=932aaedf-dd17-4047-8c0a-8fa28c4ede96"},"vehicle_type_id":"4","last_reported":1758219307,"current_range_meters":24800,"station_id":"","pricing_plan_id":"cebpf4jnsgd1na2vs0mg"},{"bike_id":"46d871ac-545f-4321-8c8c-fdc1b0cd638d","system_id":"levelo_inurba_marseille","lat":43.29579,"lon":5.37487,"is_reserved":false,"is_disabled":false,"rental_uris":{"android":"levelo://app?vid=46d871ac-545f-4321-8c8c-fdc1b0cd638d","ios":"levelo://app?vid=46d871ac-545f-4321-8c8c-fdc1b0cd638d"},"vehicle_type_id":"4","last_reported":1758219307,"current_range_meters":24800,"station_id":"","pricing_plan_id":"cebpf4jnsgd1na2vs0mg"},