{"last_updated":1746050940,"ttl":60,"version":"2.2","data":{"bikes":[{"bike_id":"a25bffc1-9ce1-4f39-bb69-3af7012d493e","system_id":"levelo_inurba_marseille","lat":43.29263,"lon":5.384417,"is_reserved":false,"is_disabled":false,"rental_uris":{"android":"levelo://app?vid=a25bffc1-9ce1-4f39-bb69-3af7012d493e","ios":"levelo://app?vid=a25bffc1-9ce1-4f39-bb69-3af7012d493e"},"vehicle_type_id":"4","last_reported":1746050940,"current_range_meters":2800,"station_id":"ce4bh692rcd13ifvqea0","pricing_plan_id":"cebpf4jnsgd1na2vs0mg"},{"bike_id":"561531d4-c9b7-4f3d-9d89-f7a83fe50b4d","system_id":"levelo_inurba_marseille","lat":43.27812,"lon":5.40722,"is_reserved":false,"is_disabled":false,"rental_uris":{"android":"levelo://app?vid=561531d4-c9b7-4f3d-9d89-f7a83fe50b4d","ios":"levelo://app?vid=561531d4-c9b7-4f3d-9d89-f7a83fe50b4d"},"vehicle_type_id":"4","last_reported":1746050940,"current_range_meters":2800,"station_id":"ce4bhnh2rcd13ifvqgtg","pricing_plan_id":"cebpf4jnsgd1na2vs0mg"},{"bike_id":"c3d1d198-05cd-41ec-b674-830fcb4e8ca3","system_id":"levelo_inurba_marseille","lat":43.29887,"lon":5.3891,"is_reserved":false,"is_disabled":false,"rental_uris":{"android":"levelo://app?vid=c3d1d198-05cd-41ec-b674-830fcb4e8ca3","ios":"levelo://app?vid=c3d1d198-05cd-41ec-b674-830fcb4e8ca3"},"vehicle_type_id":"4","last_reported":1746050940,"current_range_meters":11200,"station_id":"ce4bh392rcd13ifvqdl0","pricing_plan_id":"cebpf4jnsgd1na2vs0mg"},{"bike_id":"bbd2c16f-e9d7-4104-a3ca-04e45cffbb51","system_id":"levelo_inurba_marseille","lat":43.29759,"lon":5.38117,"is_reserved":false,"is_disabled":false,"rental_uris":{"android":"levelo://app?vid=bbd2c16f-e9d7-4104-a3ca-04e45cffbb51","ios":"levelo://app?vid=bbd2c16f-e9d7-4104-a3ca-04e45cffbb51"},"vehicle_type_id":"4","last_reported":1746050940,"current_range_meters":3200,"station_id":"","pricing_plan_id":"cebpf4jnsgd1na2vs0mg"},{"bike_id":"7464f497-18e4-4799-b290-9db9c1fcdcf7","system_id":"levelo_inurba_marseille","lat":43.30956,"lon":5.39034,"is_reserved":false,"is_disabled":false,"rental_uris":{"android":"levelo://app?vid=7464f497-18e4-4799-b290-9db9c1fcdcf7","ios":"levelo://app?vid=7464f497-18e4-4799-b290-9db9c1fcdcf7"},"vehicle_type_id":"4","last_reported":1746050940,"current_range_meters":3200,"station_id":"ce4bgup2rcd13ifvqco0","pricing_plan_id":"cebpf4jnsgd1na2vs0mg"},{"bike_id":"d8834ec9-5a9c-4825-8f0d-cdf93fa7aaf0","system_id":"levelo_inurba_marseille","lat":43.29631,"lon":5.37293,"is_reserved":false,"is_disabled":false,"rental_uris":{"android":"levelo://app?vid=d8834ec9-5a9c-4825-8f0d-cdf93fa7aaf0","ios":"levelo://app?vid=d8834ec9-5a9c-4825-8f0d-cdf93fa7aaf0"},"vehicle_type_id":"4","last_reported":1746050940,"current_range_meters":3200,"station_id":"","pricing_plan_id":"cebpf4jnsgd1na2vs0mg"},{"bike_id":"72956bec-cc5e-40fa-bdff-3af76cad7d69","system_id":"levelo_inurba_marseille","lat":43.33602,"lon":5.41033,"is_reserved":false,"is_disabled":false,"rental_uris":{"android":"levelo://app?vid=72956bec-cc5e-40fa-bdff-3af76cad7d69","ios":"levelo://app?vid=72956bec-cc5e-40fa-bdff-3af76cad7d69"},"vehicle_type_id":"4","last_reported":1746050940,"current_range_meters":3600,"station_id":"ce4bhqh2rcd13ifvqhmg","pricing_plan_id":"cebpf4jnsgd1na2vs0mg"},{"bike_id":"06bb3fbc-1701-4a06-9cc8-e6b4858e3eeb","system_id":"levelo_inurba_marseille","lat":43.29539,"lon":5.36522,"is_reserved":false,"is_disabled":false,"rental_uris":{"android":"levelo://app?vid=06bb3fbc-1701-4a06-9cc8-e6b4858e3eeb","ios":"levelo://app?vid=06bb3fbc-1701-4a06-9cc8-e6b4858e3eeb"},"vehicle_type_id":"4","last_reported":1746050940,"current_range_meters":3600,"station_id":"","pricing_plan_id":"cebpf4jnsgd1na2vs0mg"},{"bike_id":"d5b74762-40e9-46f4-8e27-c516360c5c22","system_id":"levelo_inurba_marseille","lat":43.25861,"lon":5.39913,"is_reserved":false,"is_disabled":false,"rental_uris":{"android":"levelo://app?vid=d5b74762-40e9-46f4-8e27-c516360c5c22","ios":"levelo://app?vid=d5b74762-40e9-46f4-8e27-c516360c5c22"},"vehicle_type_id":"4","last_reported":1746050940,"current_range_meters":4000,"station_id":"ce4bhl92rcd13ifvqghg","pricing_plan_id":"cebpf4jnsgd1na2vs0mg"},{"bike_id":"e36447b0-c9d4-453b-98fb-be56708f6358","system_id":"levelo_inurba_marseille","lat":43.29775,"lon":5.381371,"is_reserved":false,"is_disabled":false,"rental_uris":{"android":"levelo://app?vid=e36447b0-c9d4-453b-98fb-be56708f6358","ios":"levelo://app?vid=e36447b0-c9d4-453b-98fb-be56708f6358"},"vehicle_type_id":"4","last_reported":1746050940,"current_range_meters":4000,"station_id":"ce4bgi92rcd13ifvqb90","pricing_plan_id":"cebpf4jnsgd1na2vs0mg"},{"bike_id":"a20bba77-f224-462e-aa5e-47b051927e85","system_id":"levelo_inurba_marseille","lat":43.31084,"lon":5.42431,"is_reserved":false,"is_disabled":false,"rental_uris":{"android":"levelo://app?vid=a20bba77-f224-462e-aa5e-47b051927e85","ios":"levelo://app?vid=a20bba77-f224-462e-aa5e-47b051927e85"},"vehicle_type_id":"4","last_reported":1746050940,"current_range_meters":4000,"station_id":"ce4bhp92rcd13ifvqhag","pricing_plan_id":"cebpf4jnsgd1na2vs0mg"},{"bike_id":"fa0013e1-384c-4a43-9dc8-c63fff3d2b7e","system_id":"levelo_inurba_marseille","lat":43.23198,"lon":5.39976,"is_reserved":false,"is_disabled":false,"rental_uris":{"android":"levelo://app?vid=fa0013e1-384c-4a43-9dc8-c63fff3d2b7e","ios":"levelo://app?vid=fa0013e1-384c-4a43-9dc8-c63fff3d2b7e"},"vehicle_type_id":"4","last_reported":1746050940,"current_range_meters":4400,"station_id":"ce4bhn12rcd13ifvqgqg","pricing_plan_id":"cebpf4jnsgd1na2vs0mg"},{"bike_id":"11b87bac-a357-4bf6-8670-5e80a4b4b3f9","system_id":"levelo_inurba_marseille","lat":43.30797,"lon":5.38156,"is_reserved":false,"is_disabled":false,"rental_uris":{"android":"levelo://app?vid=11b87bac-a357-4bf6-8670-5e80a4b4b3f9","ios":"levelo://app?vid=11b87bac-a357-4bf6-8670-5e80a4b4b3f9"},"vehicle_type_id":"4","last_reported":1746050940,"current_range_meters":4800,"station_id":"ce4bgt12rcd13ifvqce0","pricing_plan_id":"cebpf4jnsgd1na2vs0mg"},{"bike_id":"6c8d0bd9-a5b2-48e2-8a76-37d0543d4781","system_id":"levelo_inurba_marseille","lat":43.291034,"lon":5.381363,"is_reserved":false,"is_disabled":false,"rental_uris":{"android":"levelo://app?vid=6c8d0bd9-a5b2-48e2-8a76-37d0543d4781","ios":"levelo://app?vid=6c8d0bd9-a5b2-48e2-8a76-37d0543d4781"},"vehicle_type_id":"4","last_reported":1746050940,"current_range_meters":4800,"station_id":"ce4bh512rcd13ifvqe2g","pricing_plan_id":"cebpf4jnsgd1na2vs0mg"},{"bike_id":"b1bfb736-c8c8-4a70-82c6-750086e1d0f6","system_id":"levelo_inurba_marseille","lat":43.28496,"lon":5.38417,"is_reserved":false,"is_disabled":false,"rental_uris":{"android":"levelo://app?vid=b1bfb736-c8c8-4a70-82c6-750086e1d0f6","ios":"levelo://app?vid=b1bfb736-c8c8-4a70-82c6-750086e1d0f6"},"vehicle_type_id":"4","last_reported":1746050940,"current_range_meters":5600,"station_id":"ce4bh512rcd13ifvqe3g","pricing_plan_id":"cebpf4jnsgd1na2vs0mg"},{"bike_id":"16224d15-cfd5-4ad6-8985-36c67148782b","system_id":"levelo_inurba_marseille","lat":43.27831,"lon":5.39209,"is_reserved":false,"is_disabled":false,"rental_uris":{"android":"levelo://app?vid=16224d15-cfd5-4ad6-8985-36c67148782b","ios":"levelo://app?vid=16224d15-cfd5-4ad6-8985-36c67148782b"},"vehicle_type_id":"4","last_reported":1746050940,"current_range_meters":5600,"station_id":"ce4bhjp2rcd13ifvqga0","pricing_plan_id":"cebpf4jnsgd1na2vs0mg"},{"bike_id":"24fe4670-2cfb-49d4-a3ec-2dd67a898c28","system_id":"levelo_inurba_marseille","lat":43.25728,"lon":5.41107,"is_reserved":false,"is_disabled":false,"rental_uris":{"android":"levelo://app?vid=24fe4670-2cfb-49d4-a3ec-2dd67a898c28","ios":"levelo://app?vid=24fe4670-2cfb-49d4-a3ec-2dd67a898c28"},"vehicle_type_id":"4","last_reported":1746050940,"current_range_meters":5600,"station_id":"ce4bhkp2rcd13ifvqgd0","pricing_plan_id":"cebpf4jnsgd1na2vs0mg"},{"bike_id":"027cd4b0-c18d-4e0c-a8a2-08dc31e89444","system_id":"levelo_inurba_marseille","lat":43.31686,"lon":5.40465,"is_reserved":false,"is_disabled":false,"rental_uris":{"android":"levelo://app?vid=027cd4b0-c18d-4e0c-a8a2-08dc31e89444","ios":"levelo://app?vid=027cd4b0-c18d-4e0c-a8a2-08dc31e89444"},"vehicle_type_id":"4","last_reported":1746050940,"current_range_meters":5600,"station_id":"ce4bh012rcd13ifvqd00","pricing_plan_id":"cebpf4jnsgd1na2vs0mg"},{"bike_id":"45fe344c-0af3-4c49-b29e-53206f0eb805","system_id":"levelo_inurba_marseille","lat":43.30785,"lon":5.37638,"is_reserved":false,"is_disabled":false,"rental_uris":{"android":"levelo://app?vid=45fe344c-0af3-4c49-b29e-53206f0eb805","ios":"levelo://app?vid=45fe344c-0af3-4c49-b29e-53206f0eb805"},"vehicle_type_id":"4","last_reported":1746050940,"current_range_meters":5600,"station_id":"ce4bgv92rcd13ifvqcq0","pricing_plan_id":"cebpf4jnsgd1na2vs0mg"},{"bike_id":"1f70d46f-d800-458c-9efc-2a5ffd9be588","system_id":"levelo_inurba_marseille","lat":43.33603,"lon":5.41033,"is_reserved":false,"is_disabled":false,"rental_uris":{"android":"levelo://app?vid=1f70d46f-d800-458c-9efc-2a5ffd9be588","ios":"levelo://app?vid=1f70d46f-d800-458c-9efc-2a5ffd9be588"},"vehicle_type_id":"4","last_reported":1746050940,"current_range_meters":6000,"station_id":"ce4bhqh2rcd13ifvqhmg","pricing_plan_id":"cebpf4jnsgd1na2vs0mg"},{"bike_id":"49eec2ca-00f8-45e7-8ea0-3457e20be8c0","system_id":"levelo_inurba_marseille","lat":43.29527,"lon":5.38544,"is_reserved":false,"is_disabled":false,"rental_uris":{"android":"levelo://app?vid=49eec2ca-00f8-45e7-8ea0-3457e20be8c0","ios":"levelo://app?vid=49eec2ca-00f8-45e7-8ea0-3457e20be8c0"},"vehicle_type_id":"4","last_reported":1746050940,"current_range_meters":5600,"station_id":"ce4bgih2rcd13ifvqba0","pricing_plan_id":"cebpf4jnsgd1na2vs0mg"},{"bike_id":"d0739ae9-4b24-4c29-8a69-64ac15819537","system_id":"levelo_inurba_marseille","lat":43.27913,"lon":5.39572,"is_reserved":false,"is_disabled":false,"rental_uris":{"android":"levelo://app?vid=d0739ae9-4b24-4c29-8a69-64ac15819537","ios":"levelo://app?vid=d0739ae9-4b24-4c29-8a69-64ac15819537"},"vehicle_type_id":"4","last_reported":1746050940,"current_range_meters":6400,"station_id":"ce4bhf92rcd13ifvqf40","pricing_plan_id":"cebpf4jnsgd1na2vs0mg"},{"bike_id":"673a0c3f-8ece-48df-a2aa-4780ac191d8f","system_id":"levelo_inurba_marseille","lat":43.32055,"lon":5.41588,"is_reserved":false,"is_disabled":false,"rental_uris":{"android":"levelo://app?vid=673a0c3f-8ece-48df-a2aa-4780ac191d8f","ios":"levelo://app?vid=673a0c3f-8ece-48df-a2aa-4780ac191d8f"},"vehicle_type_id":"4","last_reported":1746050940,"current_range_meters":6400,"station_id":"ce4bhq92rcd13ifvqhkg","pricing_plan_id":"cebpf4jnsgd1na2vs0mg"},{"bike_id":"b4413f63-aefa-44a5-a1a7-ae903596471d","system_id":"levelo_inurba_marseille","lat":43.28354,"lon":5.38104,"is_reserved":false,"is_disabled":false,"rental_uris":{"android":"levelo://app?vid=b4413f63-aefa-44a5-a1a7-ae903596471d","ios":"levelo://app?vid=b4413f63-aefa-44a5-a1a7-ae903596471d"},"vehicle_type_id":"4","last_reported":1746050940,"current_range_meters":6400,"station_id":"ce4bh412rcd13ifvqdr0","pricing_plan_id":"cebpf4jnsgd1na2vs0mg"},{"bike_id":"e06e3ad6-0e5a-49f2-98bb-d0b7ffaaf745","system_id":"levelo_inurba_marseille","lat":43.23389,"lon":5.36101,"is_reserved":false,"is_disabled":false,"rental_uris":{"android":"levelo://app?vid=e06e3ad6-0e5a-49f2-98bb-d0b7ffaaf745","ios":"levelo://app?vid=e06e3ad6-0e5a-49f2-98bb-d0b7ffaaf745"},"vehicle_type_id":"4","last_reported":1746050940,"current_range_meters":6400,"station_id":"","pricing_plan_id":"cebpf4jnsgd1na2vs0mg"},{"bike_id":"11030378-0600-47dc-8993-218a0b1ab3df","system_id":"levelo_inurba_marseille","lat":43.23954,"lon":5.36625,"is_reserved":false,"is_disabled":false,"rental_uris":{"android":"levelo://app?vid=11030378-0600-47dc-8993-218a0b1ab3df","ios":"levelo://app?vid=11030378-0600-47dc-8993-218a0b1ab3df"},"vehicle_type_id":"4","last_reported":1746050940,"current_range_meters":6400,"station_id":"ce4bhi12rcd13ifvqfp0","pricing_plan_id":"cebpf4jnsgd1na2vs0mg"},{"bike_id":"6f736823-3df1-483c-bbe8-119ed4ebe940","system_id":"levelo_inurba_marseille","lat":43.28933,"lon":5.36642,"is_reserved":false,"is_disabled":false,"rental_uris":{"android":"levelo://app?vid=6f736823-3df1-483c-bbe8-119ed4ebe940","ios":"levelo://app?vid=6f736823-3df1-483c-bbe8-119ed4ebe940"},"vehicle_type_id":"4","last_reported":1746050940,"current_range_meters":6800,"station_id":"ce4bhap2rcd13ifvqek0","pricing_plan_id":"cebpf4jnsgd1na2vs0mg"},{"bike_id":"2d0fea3e-041c-4d20-aeb7-63739e3d5c27","system_id":"levelo_inurba_marseille","lat":43.30637,"lon":5.36585,"is_reserved":false,"is_disabled":false,"rental_uris":{"android":"levelo://app?vid=2d0fea3e-041c-4d20-aeb7-63739e3d5c27","ios":"levelo://app?vid=2d0fea3e-041c-4d20-aeb7-63739e3d5c27"},"vehicle_type_id":"4","last_reported":1746050940,"current_range_meters":6800,"station_id":"","pricing_plan_id":"cebpf4jnsgd1na2vs0mg"},{"bike_id":"305aaecf-eb32-42bd-917c-af78bc9b312f","system_id":"levelo_inurba_marseille","lat":43.30649,"lon":5.40125,"is_reserved":false,"is_disabled":false,"rental_uris":{"android":"levelo://app?vid=305aaecf-eb32-42bd-917c-af78bc9b312f","ios":"levelo://app?vid=305aaecf-eb32-42bd-917c-af78bc9b312f"},"vehicle_type_id":"4","last_reported":1746050940,"current_range_meters":6800,"station_id":"ce4bh112rcd13ifvqda0","pricing_plan_id":"cebpf4jnsgd1na2vs0mg"},{"bike_id":"387bc5ea-7c2b-41e1-a1e6-3b4cc71c9638","system_id":"levelo_inurba_marseille","lat":43.24167,"lon":5.39703,"is_reserved":false,"is_disabled":false,"rental_uris":{"android":"levelo://app?vid=387bc5ea-7c2b-41e1-a1e6-3b4cc71c9638","ios":"levelo://app?vid=387bc5ea-7c2b-41e1-a1e6-3b4cc71c9638"},"vehicle_type_id":"4","last_reported":1746050940,"current_range_meters":6800,"station_id":"ce4bhn12rcd13ifvqgpg","pricing_plan_id":"cebpf4jnsgd1na2vs0mg"},{"bike_id":"4ce08a39-c360-47c1-8a38-3691f475c66d","system_id":"levelo_inurba_marseille","lat":43.2408,"lon":5.37754,"is_reserved":false,"is_disabled":false,"rental_uris":{"android":"levelo://app?vid=4ce08a39-c360-47c1-8a38-3691f475c66d","ios":"levelo://app?vid=4ce08a39-c360-47c1-8a38-3691f475c66d"},"vehicle_type_id":"4","last_reported":1746050940,"current_range_meters":6800,"station_id":"ce4bhnp2rcd13ifvqgvg","pricing_plan_id":"cebpf4jnsgd1na2vs0mg"},{"bike_id":"5db32c50-5a98-4e95-a076-bd33a3d6f201","system_id":"levelo_inurba_marseille","lat":43.3095,"lon":5.39036,"is_reserved":false,"is_disabled":false,"rental_uris":{"android":"levelo://app?vid=5db32c50-5a98-4e95-a076-bd33a3d6f201","ios":"levelo://app?vid=5db32c50-5a98-4e95-a076-bd33a3d6f201"},"vehicle_type_id":"4","last_reported":1746050940,"current_range_meters":6800,"station_id":"ce4bgup2rcd13ifvqco0","pricing_plan_id":"cebpf4jnsgd1na2vs0mg"},{"bike_id":"bc1d975a-af42-46ea-a9c7-0b3364dd6004","system_id":"levelo_inurba_marseille","lat":43.28412,"lon":5.37507,"is_reserved":false,"is_disabled":false,"rental_uris":{"android":"levelo://app?vid=bc1d975a-af42-46ea-a9c7-0b3364dd6004","ios":"levelo://app?vid=bc1d975a-af42-46ea-a9c7-0b3364dd6004"},"vehicle_type_id":"4","last_reported":1746050940,"current_range_meters":7200,"station_id":"ce4bh412rcd13ifvqds0","pricing_plan_id":"cebpf4jnsgd1na2vs0mg"},{"bike_id":"00c45f7a-ad05-4552-bfdd-a700b1ae6d02","system_id":"levelo_inurba_marseille","lat":43.30078,"lon":5.3908,"is_reserved":false,"is_disabled":false,"rental_uris":{"android":"levelo://app?vid=00c45f7a-ad05-4552-bfdd-a700b1ae6d02","ios":"levelo://app?vid=00c45f7a-ad05-4552-bfdd-a700b1ae6d02"},"vehicle_type_id":"4","last_reported":1746050940,"current_range_meters":7200,"station_id":"ce4bh192rcd13ifvqdb0","pricing_plan_id":"cebpf4jnsgd1na2vs0mg"},{"bike_id":"7ba197c6-c955-4563-9b57-dd9d0dec0a6d","system_id":"levelo_inurba_marseille","lat":43.29573,"lon":5.38626,"is_reserved":false,"is_disabled":false,"rental_uris":{"android":"levelo://app?vid=7ba197c6-c955-4563-9b57-dd9d0dec0a6d","ios":"levelo://app?vid=7ba197c6-c955-4563-9b57-dd9d0dec0a6d"},"vehicle_type_id":"4","last_reported":1746050940,"current_range_meters":7200,"station_id":"","pricing_plan_id":"cebpf4jnsgd1na2vs0mg"},{"bike_id":"0a580c72-65f8-4504-8cc8-37a29c681a2a","system_id":"levelo_inurba_marseille","lat":43.306,"lon":5.37211,"is_reserved":false,"is_disabled":false,"rental_uris":{"android":"levelo://app?vid=0a580c72-65f8-4504-8cc8-37a29c681a2a","ios":"levelo://app?vid=0a580c72-65f8-4504-8cc8-37a29c681a2a"},"vehicle_type_id":"4","last_reported":1746050940,"current_range_meters":7200,"station_id":"ce4bgqh2rcd13ifvqc4g","pricing_plan_id":"cebpf4jnsgd1na2vs0mg"},{"bike_id":"1f1f8c35-5e32-47e2-bf8d-d650b1576b88","system_id":"levelo_inurba_marseille","lat":43.274943,"lon":5.424522,"is_reserved":false,"is_disabled":false,"rental_uris":{"android":"levelo://app?vid=1f1f8c35-5e32-47e2-bf8d-d650b1576b88","ios":"levelo://app?vid=1f1f8c35-5e32-47e2-bf8d-d650b1576b88"},"vehicle_type_id":"4","last_reported":1746050940,"current_range_meters":7200,"station_id":"ce4bhn92rcd13ifvqgrg","pricing_plan_id":"cebpf4jnsgd1na2vs0mg"},{"bike_id":"d8e069fa-f962-4c86-a240-3596991f493d","system_id":"levelo_inurba_marseille","lat":43.30366,"lon":5.41912,"is_reserved":false,"is_disabled":false,"rental_uris":{"android":"levelo://app?vid=d8e069fa-f962-4c86-a240-3596991f493d","ios":"levelo://app?vid=d8e069fa-f962-4c86-a240-3596991f493d"},"vehicle_type_id":"4","last_reported":1746050940,"current_range_meters":7200,"station_id":"ce4bhop2rcd13ifvqh7g","pricing_plan_id":"cebpf4jnsgd1na2vs0mg"},{"bike_id":"59b7d06d-7759-4bc9-82b0-25b44c52d62d","system_id":"levelo_inurba_marseille","lat":43.24324,"lon":5.38528,"is_reserved":false,"is_disabled":false,"rental_uris":{"android":"levelo://app?vid=59b7d06d-7759-4bc9-82b0-25b44c52d62d","ios":"levelo://app?vid=59b7d06d-7759-4bc9-82b0-25b44c52d62d"},"vehicle_type_id":"4","last_reported":1746050940,"current_range_meters":8000,"station_id":"","pricing_plan_id":"cebpf4jnsgd1na2vs0mg"},{"bike_id":"38888685-ecee-457f-b7f2-6a456f769de8","system_id":"levelo_inurba_marseille","lat":43.32367,"lon":5.38889,"is_reserved":false,"is_disabled":false,"rental_uris":{"android":"levelo://app?vid=38888685-ecee-457f-b7f2-6a456f769de8","ios":"levelo://app?vid=38888685-ecee-457f-b7f2-6a456f769de8"},"vehicle_type_id":"4","last_reported":1746050940,"current_range_meters":8000,"station_id":"ce4bhqp2rcd13ifvqhog","pricing_plan_id":"cebpf4jnsgd1na2vs0mg"},{"bike_id":"105ffea5-2499-4f85-9991-784a7d24e273","system_id":"levelo_inurba_marseille","lat":43.28464,"lon":5.35892,"is_reserved":false,"is_disabled":false,"rental_uris":{"android":"levelo://app?vid=105ffea5-2499-4f85-9991-784a7d24e273","ios":"levelo://app?vid=105ffea5-2499-4f85-9991-784a7d24e273"},"vehicle_type_id":"4","last_reported":1746050940,"current_range_meters":8000,"station_id":"ce4bhah2rcd13ifvqei0","pricing_plan_id":"cebpf4jnsgd1na2vs0mg"},{"bike_id":"2806b558-e7ec-472b-9609-45e5c29e99f3","system_id":"levelo_inurba_marseille","lat":43.28754,"lon":5.37698,"is_reserved":false,"is_disabled":false,"rental_uris":{"android":"levelo://app?vid=2806b558-e7ec-472b-9609-45e5c29e99f3","ios":"levelo://app?vid=2806b558-e7ec-472b-9609-45e5c29e99f3"},"vehicle_type_id":"4","last_reported":1746050940,"current_range_meters":8000,"station_id":"","pricing_plan_id":"cebpf4jnsgd1na2vs0mg"},{"bike_id":"af45928f-99f5-4c10-8488-a1690bf972d2","system_id":"levelo_inurba_marseille","lat":43.29442,"lon":5.39758,"is_reserved":false,"is_disabled":true,"rental_uris":{"android":"levelo://app?vid=af45928f-99f5-4c10-8488-a1690bf972d2","ios":"levelo://app?vid=af45928f-99f5-4c10-8488-a1690bf972d2"},"vehicle_type_id":"4","last_reported":1746050940,"current_range_meters":8000,"station_id":"ce4bh3h2rcd13ifvqdo0","pricing_plan_id":"cebpf4jnsgd1na2vs0mg"},{"bike_id":"c2822950-d0b4-4023-8870-6743aa9d2122","system_id":"levelo_inurba_marseille","lat":43.26778,"lon":5.39414,"is_reserved":false,"is_disabled":false,"rental_uris":{"android":"levelo://app?vid=c2822950-d0b4-4023-8870-6743aa9d2122","ios":"levelo://app?vid=c2822950-d0b4-4023-8870-6743aa9d2122"},"vehicle_type_id":"4","last_reported":1746050940,"current_range_meters":8000,"station_id":"ce4bhh12rcd13ifvqfg0","pricing_plan_id":"cebpf4jnsgd1na2vs0mg"},{"bike_id":"00d6f668-ccb9-47ae-b8ce-c39b1f313b6e","system_id":"levelo_inurba_marseille","lat":43.29303,"lon":5.37186,"is_reserved":false,"is_disabled":true,"rental_uris":{"android":"levelo://app?vid=00d6f668-ccb9-47ae-b8ce-c39b1f313b6e","ios":"levelo://app?vid=00d6f668-ccb9-47ae-b8ce-c39b1f313b6e"},"vehicle_type_id":"4","last_reported":1746050940,"current_range_meters":8000,"station_id":"ce4bgh92rcd13ifvqb40","pricing_plan_id":"cebpf4jnsgd1na2vs0mg"},{"bike_id":"9965e496-e128-48a0-9487-d7af7b498698","system_id":"levelo_inurba_marseille","lat":43.29221,"lon":5.39301,"is_reserved":false,"is_disabled":true,"rental_uris":{"android":"levelo://app?vid=9965e496-e128-48a0-9487-d7af7b498698","ios":"levelo://app?vid=9965e496-e128-48a0-9487-d7af7b498698"},"vehicle_type_id":"4","last_reported":1746050940,"current_range_meters":8000,"station_id":"ce4bh192rcd13ifvqdd0","pricing_plan_id":"cebpf4jnsgd1na2vs0mg"},{"bike_id":"8fe0cc0b-a043-4280-a5e4-0783063c5830","system_id":"levelo_inurba_marseille","lat":43.31759,"lon":5.390125,"is_reserved":false,"is_disabled":false,"rental_uris":{"android":"levelo://app?vid=8fe0cc0b-a043-4280-a5e4-0783063c5830","ios":"levelo://app?vid=8fe0cc0b-a043-4280-a5e4-0783063c5830"},"vehicle_type_id":"4","last_reported":1746050940,"current_range_meters":8000,"station_id":"ce4bhqp2rcd13ifvqhng","pricing_plan_id":"cebpf4jnsgd1na2vs0mg"},{"bike_id":"76a9cd10-fdd4-4a05-acce-121be760d6db","system_id":"levelo_inurba_marseille","lat":43.27344,"lon":5.39086,"is_reserved":false,"is_disabled":true,"rental_uris":{"android":"levelo://app?vid=76a9cd10-fdd4-4a05-acce-121be760d6db","ios":"levelo://app?vid=76a9cd10-fdd4-4a05-acce-121be760d6db"},"vehicle_type_id":"4","last_reported":1746050940,"current_range_meters":8000,"station_id":"ce4bhgp2rcd13ifvqfe0","pricing_plan_id":"cebpf4jnsgd1na2vs0mg"},{"bike_id":"489415b8-9254-45c1-b00c-e7554d56755c","system_id":"levelo_inurba_marseille","lat":43.245253,"lon":5.412148,"is_reserved":false,"is_disabled":false,"rental_uris":{"android":"levelo://app?vid=489415b8-9254-45c1-b00c-e7554d56755c","ios":"levelo://app?vid=489415b8-9254-45c1-b00c-e7554d56755c"},"vehicle_type_id":"4","last_reported":1746050940,"current_range_meters":8400,"station_id":"","pricing_plan_id":"cebpf4jnsgd1na2vs0mg"},{"bike_id":"fe9083d3-036c-45c9-9372-5aa64c224af0","system_id":"levelo_inurba_marseille","lat":43.30892,"lon":5.37193,"is_reserved":false,"is_disabled":false,"rental_uris":{"android":"levelo://app?vid=fe9083d3-036c-45c9-9372-5aa64c224af0","ios":"levelo://app?vid=fe9083d3-036c-45c9-9372-5aa64c224af0"},"vehicle_type_id":"4","last_reported":1746050940,"current_range_meters":8000,"station_id":"ce4bguh2rcd13ifvqckg","pricing_plan_id":"cebpf4jnsgd1na2vs0mg"},{"bike_id":"07edfd45-c3fa-4b57-b865-cf1bf9963264","system_id":"levelo_inurba_marseille","lat":43.23416,"lon":5.36429,"is_reserved":false,"is_disabled":false,"rental_uris":{"android":"levelo://app?vid=07edfd45-c3fa-4b57-b865-cf1bf9963264","ios":"levelo://app?vid=07edfd45-c3fa-4b57-b865-cf1bf9963264"},"vehicle_type_id":"4","last_reported":1746050940,"current_range_meters":8400,"station_id":"","pricing_plan_id":"cebpf4jnsgd1na2vs0mg"},{"bike_id":"fa29caa2-bb4d-4f82-8b06-45eb1616aa5b","system_id":"levelo_inurba_marseille","lat":43.30532,"lon":5.36722,"is_reserved":false,"is_disabled":false,"rental_uris":{"android":"levelo://app?vid=fa29caa2-bb4d-4f82-8b06-45eb1616aa5b","ios":"levelo://app?vid=fa29caa2-bb4d-4f82-8b06-45eb1616aa5b"},"vehicle_type_id":"4","last_reported":1746050940,"current_range_meters":8000,"station_id":"ce4bgrp2rcd13ifvqc9g","pricing_plan_id":"cebpf4jnsgd1na2vs0mg"},{"bike_id":"dad54bb9-6632-4c33-936b-89758dc8e106","system_id":"levelo_inurba_marseille","lat":43.26938,"lon":5.39097,"is_reserved":false,"is_disabled":false,"rental_uris":{"android":"levelo://app?vid=dad54bb9-6632-4c33-936b-89758dc8e106","ios":"levelo://app?vid=dad54bb9-6632-4c33-936b-89758dc8e106"},"vehicle_type_id":"4","last_reported":1746050940,"current_range_meters":8400,"station_id":"ce4bhhp2rcd13ifvqfm0","pricing_plan_id":"cebpf4jnsgd1na2vs0mg"},{"bike_id":"56f27f6b-2e3e-46f2-b555-40d71230b8fc","system_id":"levelo_inurba_marseille","lat":43.29194,"lon":5.39318,"is_reserved":false,"is_disabled":false,"rental_uris":{"android":"levelo://app?vid=56f27f6b-2e3e-46f2-b555-40d71230b8fc","ios":"levelo://app?vid=56f27f6b-2e3e-46f2-b555-40d71230b8fc"},"vehicle_type_id":"4","last_reported":1746050940,"current_range_meters":8400,"station_id":"ce4bh192rcd13ifvqdd0","pricing_plan_id":"cebpf4jnsgd1na2vs0mg"},{"bike_id":"4783f7ce-a657-4873-8b5b-c64ccfb0d6e3","system_id":"levelo_inurba_marseille","lat":43.29453,"lon":5.39758,"is_reserved":false,"is_disabled":false,"rental_uris":{"android":"levelo://app?vid=4783f7ce-a657-4873-8b5b-c64ccfb0d6e3","ios":"levelo://app?vid=4783f7ce-a657-4873-8b5b-c64ccfb0d6e3"},"vehicle_type_id":"4","last_reported":1746050940,"current_range_meters":8800,"station_id":"ce4bh3h2rcd13ifvqdo0","pricing_plan_id":"cebpf4jnsgd1na2vs0mg"},{"bike_id":"e97d015f-9174-4fdd-84d0-a13f0543d396","system_id":"levelo_inurba_marseille","lat":43.28358,"lon":5.38105,"is_reserved":false,"is_disabled":false,"rental_uris":{"android":"levelo://app?vid=e97d015f-9174-4fdd-84d0-a13f0543d396","ios":"levelo://app?vid=e97d015f-9174-4fdd-84d0-a13f0543d396"},"vehicle_type_id":"4","last_reported":1746050940,"current_range_meters":8800,"station_id":"ce4bh412rcd13ifvqdr0","pricing_plan_id":"cebpf4jnsgd1na2vs0mg"},{"bike_id":"2e9a0f22-21e4-41fc-aa62-512d9e695c76","system_id":"levelo_inurba_marseille","lat":43.25116,"lon":5.40313,"is_reserved":false,"is_disabled":false,"rental_uris":{"android":"levelo://app?vid=2e9a0f22-21e4-41fc-aa62-512d9e695c76","ios":"levelo://app?vid=2e9a0f22-21e4-41fc-aa62-512d9e695c76"},"vehicle_type_id":"4","last_reported":1746050940,"current_range_meters":8400,"station_id":"ce4bhlh2rcd13ifvqgig","pricing_plan_id":"cebpf4jnsgd1na2vs0mg"},{"bike_id":"16b3be1b-f522-406d-bd69-62ab255e5198","system_id":"levelo_inurba_marseille","lat":43.32107,"lon":5.36769,"is_reserved":false,"is_disabled":false,"rental_uris":{"android":"levelo://app?vid=16b3be1b-f522-406d-bd69-62ab255e5198","ios":"levelo://app?vid=16b3be1b-f522-406d-bd69-62ab255e5198"},"vehicle_type_id":"4","last_reported":1746050940,"current_range_meters":8800,"station_id":"ce4bhrh2rcd13ifvqhug","pricing_plan_id":"cebpf4jnsgd1na2vs0mg"},{"bike_id":"06d2d3c8-9fc9-4d69-a070-0ce5daa9cb28","system_id":"levelo_inurba_marseille","lat":43.26948,"lon":5.40258,"is_reserved":false,"is_disabled":true,"rental_uris":{"android":"levelo://app?vid=06d2d3c8-9fc9-4d69-a070-0ce5daa9cb28","ios":"levelo://app?vid=06d2d3c8-9fc9-4d69-a070-0ce5daa9cb28"},"vehicle_type_id":"4","last_reported":1746050940,"current_range_meters":8800,"station_id":"cjm6bp8fraef2m0cb0m0","pricing_plan_id":"cebpf4jnsgd1na2vs0mg"},{"bike_id":"605a12db-4145-42a5-877a-b4a375a7cf38","system_id":"levelo_inurba_marseille","lat":43.31688,"lon":5.40449,"is_reserved":false,"is_disabled":false,"rental_uris":{"android":"levelo://app?vid=605a12db-4145-42a5-877a-b4a375a7cf38","ios":"levelo://app?vid=605a12db-4145-42a5-877a-b4a375a7cf38"},"vehicle_type_id":"4","last_reported":1746050940,"current_range_meters":8800,"station_id":"ce4bh012rcd13ifvqd00","pricing_plan_id":"cebpf4jnsgd1na2vs0mg"},{"bike_id":"e9bde5a2-3e5e-4bff-b182-a1d9b9c4923f","system_id":"levelo_inurba_marseille","lat":43.2857,"lon":5.39506,"is_reserved":false,"is_disabled":false,"rental_uris":{"android":"levelo://app?vid=e9bde5a2-3e5e-4bff-b182-a1d9b9c4923f","ios":"levelo://app?vid=e9bde5a2-3e5e-4bff-b182-a1d9b9c4923f"},"vehicle_type_id":"4","last_reported":1746050940,"current_range_meters":9200,"station_id":"ce4bh292rcd13ifvqdg0","pricing_plan_id":"cebpf4jnsgd1na2vs0mg"},{"bike_id":"1f2d1f2f-4dfc-4838-b8d0-f314c0be0544","system_id":"levelo_inurba_marseille","lat":43.29559,"lon":5.3747,"is_reserved":false,"is_disabled":false,"rental_uris":{"android":"levelo://app?vid=1f2d1f2f-4dfc-4838-b8d0-f314c0be0544","ios":"levelo://app?vid=1f2d1f2f-4dfc-4838-b8d0-f314c0be0544"},"vehicle_type_id":"4","last_reported":1746050940,"current_range_meters":9200,"station_id":"ce4bgkp2rcd13ifvqbmg","pricing_plan_id":"cebpf4jnsgd1na2vs0mg"},{"bike_id":"58ea75ac-ba33-486d-953a-cfa6f13eb988","system_id":"levelo_inurba_marseille","lat":43.28418,"lon":5.37513,"is_reserved":false,"is_disabled":false,"rental_uris":{"android":"levelo://app?vid=58ea75ac-ba33-486d-953a-cfa6f13eb988","ios":"levelo://app?vid=58ea75ac-ba33-486d-953a-cfa6f13eb988"},"vehicle_type_id":"4","last_reported":1746050940,"current_range_meters":9200,"station_id":"ce4bh412rcd13ifvqds0","pricing_plan_id":"cebpf4jnsgd1na2vs0mg"},{"bike_id":"7ad84b71-458a-41ec-be66-bdab5a47d7f5","system_id":"levelo_inurba_marseille","lat":43.30136,"lon":5.38791,"is_reserved":false,"is_disabled":false,"rental_uris":{"android":"levelo://app?vid=7ad84b71-458a-41ec-be66-bdab5a47d7f5","ios":"levelo://app?vid=7ad84b71-458a-41ec-be66-bdab5a47d7f5"},"vehicle_type_id":"4","last_reported":1746050940,"current_range_meters":9200,"station_id":"ce4bghh2rcd13ifvqb60","pricing_plan_id":"cebpf4jnsgd1na2vs0mg"},{"bike_id":"f43b3dfc-5bda-4cce-b1d5-2a8429c99f4d","system_id":"levelo_inurba_marseille","lat":43.2791,"lon":5.38012,"is_reserved":false,"is_disabled":false,"rental_uris":{"android":"levelo://app?vid=f43b3dfc-5bda-4cce-b1d5-2a8429c99f4d","ios":"levelo://app?vid=f43b3dfc-5bda-4cce-b1d5-2a8429c99f4d"},"vehicle_type_id":"4","last_reported":1746050940,"current_range_meters":9600,"station_id":"ce4bhf92rcd13ifvqf50","pricing_plan_id":"cebpf4jnsgd1na2vs0mg"},{"bike_id":"b35319f1-b87e-4db8-ab3a-f11a22b07a4b","system_id":"levelo_inurba_marseille","lat":43.24701,"lon":5.38152,"is_reserved":false,"is_disabled":true,"rental_uris":{"android":"levelo://app?vid=b35319f1-b87e-4db8-ab3a-f11a22b07a4b","ios":"levelo://app?vid=b35319f1-b87e-4db8-ab3a-f11a22b07a4b"},"vehicle_type_id":"4","last_reported":1746050940,"current_range_meters":9600,"station_id":"ce4bhih2rcd13ifvqfr0","pricing_plan_id":"cebpf4jnsgd1na2vs0mg"},{"bike_id":"7f770ba9-2e48-47c9-8bb4-942855273bad","system_id":"levelo_inurba_marseille","lat":43.25413,"lon":5.42392,"is_reserved":false,"is_disabled":false,"rental_uris":{"android":"levelo://app?vid=7f770ba9-2e48-47c9-8bb4-942855273bad","ios":"levelo://app?vid=7f770ba9-2e48-47c9-8bb4-942855273bad"},"vehicle_type_id":"4","last_reported":1746050940,"current_range_meters":9600,"station_id":"","pricing_plan_id":"cebpf4jnsgd1na2vs0mg"},{"bike_id":"f749cfeb-40fc-4c29-8d8f-4f1eb1793156","system_id":"levelo_inurba_marseille","lat":43.28107,"lon":5.37837,"is_reserved":false,"is_disabled":false,"rental_uris":{"android":"levelo://app?vid=f749cfeb-40fc-4c29-8d8f-4f1eb1793156","ios":"levelo://app?vid=f749cfeb-40fc-4c29-8d8f-4f1eb1793156"},"vehicle_type_id":"4","last_reported":1746050940,"current_range_meters":9600,"station_id":"ce4bha12rcd13ifvqee0","pricing_plan_id":"cebpf4jnsgd1na2vs0mg"},{"bike_id":"fe0ff6dd-05ba-4287-b077-8e26999e3dc6","system_id":"levelo_inurba_marseille","lat":43.28856,"lon":5.35862,"is_reserved":false,"is_disabled":false,"rental_uris":{"android":"levelo://app?vid=fe0ff6dd-05ba-4287-b077-8e26999e3dc6","ios":"levelo://app?vid=fe0ff6dd-05ba-4287-b077-8e26999e3dc6"},"vehicle_type_id":"4","last_reported":1746050940,"current_range_meters":9600,"station_id":"ce4bhb12rcd13ifvqem0","pricing_plan_id":"cebpf4jnsgd1na2vs0mg"},{"bike_id":"77b25cec-2632-406f-b5cc-f6778e648562","system_id":"levelo_inurba_marseille","lat":43.29543,"lon":5.38546,"is_reserved":false,"is_disabled":false,"rental_uris":{"android":"levelo://app?vid=77b25cec-2632-406f-b5cc-f6778e648562","ios":"levelo://app?vid=77b25cec-2632-406f-b5cc-f6778e648562"},"vehicle_type_id":"4","last_reported":1746050940,"current_range_meters":10000,"station_id":"ce4bgih2rcd13ifvqba0","pricing_plan_id":"cebpf4jnsgd1na2vs0mg"},{"bike_id":"4ff0db05-be29-471d-80d9-4fc345b5a0ff","system_id":"levelo_inurba_marseille","lat":43.30667,"lon":5.40075,"is_reserved":false,"is_disabled":false,"rental_uris":{"android":"levelo://app?vid=4ff0db05-be29-471d-80d9-4fc345b5a0ff","ios":"levelo://app?vid=4ff0db05-be29-471d-80d9-4fc345b5a0ff"},"vehicle_type_id":"4","last_reported":1746050940,"current_range_meters":10000,"station_id":"ce4bh112rcd13ifvqda0","pricing_plan_id":"cebpf4jnsgd1na2vs0mg"},{"bike_id":"f3288ce6-c25f-42a6-8fd2-a51487b479f2","system_id":"levelo_inurba_marseille","lat":43.29436,"lon":5.39752,"is_reserved":false,"is_disabled":false,"rental_uris":{"android":"levelo://app?vid=f3288ce6-c25f-42a6-8fd2-a51487b479f2","ios":"levelo://app?vid=f3288ce6-c25f-42a6-8fd2-a51487b479f2"},"vehicle_type_id":"4","last_reported":1746050940,"current_range_meters":10000,"station_id":"ce4bh3h2rcd13ifvqdo0","pricing_plan_id":"cebpf4jnsgd1na2vs0mg"},{"bike_id":"7dafe052-71fa-4dec-9d6b-84e6ec8f8e61","system_id":"levelo_inurba_marseille","lat":43.28482,"lon":5.38532,"is_reserved":false,"is_disabled":false,"rental_uris":{"android":"levelo://app?vid=7dafe052-71fa-4dec-9d6b-84e6ec8f8e61","ios":"levelo://app?vid=7dafe052-71fa-4dec-9d6b-84e6ec8f8e61"},"vehicle_type_id":"4","last_reported":1746050940,"current_range_meters":9600,"station_id":"ce4bh8p2rcd13ifvqeb0","pricing_plan_id":"cebpf4jnsgd1na2vs0mg"},{"bike_id":"5bad94cc-7f01-4910-af58-47d9a595bbc1","system_id":"levelo_inurba_marseille","lat":43.27829,"lon":5.39205,"is_reserved":false,"is_disabled":false,"rental_uris":{"android":"levelo://app?vid=5bad94cc-7f01-4910-af58-47d9a595bbc1","ios":"levelo://app?vid=5bad94cc-7f01-4910-af58-47d9a595bbc1"},"vehicle_type_id":"4","last_reported":1746050940,"current_range_meters":10000,"station_id":"ce4bhjp2rcd13ifvqga0","pricing_plan_id":"cebpf4jnsgd1na2vs0mg"},{"bike_id":"bf3fc117-790e-46e2-82ad-3400966af7eb","system_id":"levelo_inurba_marseille","lat":43.2781,"lon":5.40706,"is_reserved":false,"is_disabled":false,"rental_uris":{"android":"levelo://app?vid=bf3fc117-790e-46e2-82ad-3400966af7eb","ios":"levelo://app?vid=bf3fc117-790e-46e2-82ad-3400966af7eb"},"vehicle_type_id":"4","last_reported":1746050940,"current_range_meters":10000,"station_id":"ce4bhnh2rcd13ifvqgtg","pricing_plan_id":"cebpf4jnsgd1na2vs0mg"},{"bike_id":"cbee673f-ee6b-4ca3-a98a-538584b89d92","system_id":"levelo_inurba_marseille","lat":43.291201,"lon":5.382911,"is_reserved":false,"is_disabled":false,"rental_uris":{"android":"levelo://app?vid=cbee673f-ee6b-4ca3-a98a-538584b89d92","ios":"levelo://app?vid=cbee673f-ee6b-4ca3-a98a-538584b89d92"},"vehicle_type_id":"4","last_reported":1746050940,"current_range_meters":10000,"station_id":"ce4bhjp2rcd13ifvqga0","pricing_plan_id":"cebpf4jnsgd1na2vs0mg"},{"bike_id":"6e761f1d-2cf0-4abb-a96c-044d96b92151","system_id":"levelo_inurba_marseille","lat":43.28947,"lon":5.36639,"is_reserved":false,"is_disabled":false,"rental_uris":{"android":"levelo://app?vid=6e761f1d-2cf0-4abb-a96c-044d96b92151","ios":"levelo://app?vid=6e761f1d-2cf0-4abb-a96c-044d96b92151"},"vehicle_type_id":"4","last_reported":1746050940,"current_range_meters":9600,"station_id":"ce4bhap2rcd13ifvqek0","pricing_plan_id":"cebpf4jnsgd1na2vs0mg"},{"bike_id":"b19d8851-54f8-4d7a-96ed-00a209849020","system_id":"levelo_inurba_marseille","lat":43.23187,"lon":5.39975,"is_reserved":false,"is_disabled":false,"rental_uris":{"android":"levelo://app?vid=b19d8851-54f8-4d7a-96ed-00a209849020","ios":"levelo://app?vid=b19d8851-54f8-4d7a-96ed-00a209849020"},"vehicle_type_id":"4","last_reported":1746050940,"current_range_meters":9600,"station_id":"ce4bhn12rcd13ifvqgqg","pricing_plan_id":"cebpf4jnsgd1na2vs0mg"},{"bike_id":"18bcc53b-efc9-4a3b-96e5-dc3dffd20c0f","system_id":"levelo_inurba_marseille","lat":43.29631,"lon":5.40594,"is_reserved":false,"is_disabled":false,"rental_uris":{"android":"levelo://app?vid=18bcc53b-efc9-4a3b-96e5-dc3dffd20c0f","ios":"levelo://app?vid=18bcc53b-efc9-4a3b-96e5-dc3dffd20c0f"},"vehicle_type_id":"4","last_reported":1746050940,"current_range_meters":10000,"station_id":"ce4bh0h2rcd13ifvqd60","pricing_plan_id":"cebpf4jnsgd1na2vs0mg"},{"bike_id":"840f277e-e047-441a-b1e2-f885788a15c6","system_id":"levelo_inurba_marseille","lat":43.2827,"lon":5.35066,"is_reserved":false,"is_disabled":false,"rental_uris":{"android":"levelo://app?vid=840f277e-e047-441a-b1e2-f885788a15c6","ios":"levelo://app?vid=840f277e-e047-441a-b1e2-f885788a15c6"},"vehicle_type_id":"4","last_reported":1746050940,"current_range_meters":9600,"station_id":"ce4bhbp2rcd13ifvqerg","pricing_plan_id":"cebpf4jnsgd1na2vs0mg"},{"bike_id":"455ed17d-d19f-4d21-ade5-622f968c1b28","system_id":"levelo_inurba_marseille","lat":43.30924,"lon":5.40147,"is_reserved":false,"is_disabled":false,"rental_uris":{"android":"levelo://app?vid=455ed17d-d19f-4d21-ade5-622f968c1b28","ios":"levelo://app?vid=455ed17d-d19f-4d21-ade5-622f968c1b28"},"vehicle_type_id":"4","last_reported":1746050940,"current_range_meters":10000,"station_id":"ce4bgvp2rcd13ifvqct0","pricing_plan_id":"cebpf4jnsgd1na2vs0mg"},{"bike_id":"c46a383e-fe2a-4bdf-abdd-1d3dfbbf9ff7","system_id":"levelo_inurba_marseille","lat":43.28668,"lon":5.36351,"is_reserved":false,"is_disabled":false,"rental_uris":{"android":"levelo://app?vid=c46a383e-fe2a-4bdf-abdd-1d3dfbbf9ff7","ios":"levelo://app?vid=c46a383e-fe2a-4bdf-abdd-1d3dfbbf9ff7"},"vehicle_type_id":"4","last_reported":1746050940,"current_range_meters":10000,"station_id":"ce4bhah2rcd13ifvqej0","pricing_plan_id":"cebpf4jnsgd1na2vs0mg"},{"bike_id":"8261973d-7fd9-4c15-8fb8-294a251b0456","system_id":"levelo_inurba_marseille","lat":43.29216,"lon":5.38598,"is_reserved":false,"is_disabled":false,"rental_uris":{"android":"levelo://app?vid=8261973d-7fd9-4c15-8fb8-294a251b0456","ios":"levelo://app?vid=8261973d-7fd9-4c15-8fb8-294a251b0456"},"vehicle_type_id":"4","last_reported":1746050940,"current_range_meters":10000,"station_id":"","pricing_plan_id":"cebpf4jnsgd1na2vs0mg"},{"bike_id":"a74adcd2-7747-4565-964a-f172dc6b997c","system_id":"levelo_inurba_marseille","lat":43.29196,"lon":5.39319,"is_reserved":false,"is_disabled":false,"rental_uris":{"android":"levelo://app?vid=a74adcd2-7747-4565-964a-f172dc6b997c","ios":"levelo://app?vid=a74adcd2-7747-4565-964a-f172dc6b997c"},"vehicle_type_id":"4","last_reported":1746050940,"current_range_meters":10000,"station_id":"ce4bh192rcd13ifvqdd0","pricing_plan_id":"cebpf4jnsgd1na2vs0mg"},{"bike_id":"94c67595-7de3-4443-ab76-ab1b2a1e805b","system_id":"levelo_inurba_marseille","lat":43.28411,"lon":5.37496,"is_reserved":false,"is_disabled":false,"rental_uris":{"android":"levelo://app?vid=94c67595-7de3-4443-ab76-ab1b2a1e805b","ios":"levelo://app?vid=94c67595-7de3-4443-ab76-ab1b2a1e805b"},"vehicle_type_id":"4","last_reported":1746050940,"current_range_meters":10800,"station_id":"ce4bh412rcd13ifvqds0","pricing_plan_id":"cebpf4jnsgd1na2vs0mg"},{"bike_id":"f9f7e2fe-4a94-4233-8531-fb973b01f0d3","system_id":"levelo_inurba_marseille","lat":43.27815,"lon":5.40712,"is_reserved":false,"is_disabled":false,"rental_uris":{"android":"levelo://app?vid=f9f7e2fe-4a94-4233-8531-fb973b01f0d3","ios":"levelo://app?vid=f9f7e2fe-4a94-4233-8531-fb973b01f0d3"},"vehicle_type_id":"4","last_reported":1746050940,"current_range_meters":10800,"station_id":"ce4bhnh2rcd13ifvqgtg","pricing_plan_id":"cebpf4jnsgd1na2vs0mg"},{"bike_id":"e6f71df6-fb40-48ca-9517-bfb63a22a1c3","system_id":"levelo_inurba_marseille","lat":43.31071,"lon":5.38363,"is_reserved":false,"is_disabled":false,"rental_uris":{"android":"levelo://app?vid=e6f71df6-fb40-48ca-9517-bfb63a22a1c3","ios":"levelo://app?vid=e6f71df6-fb40-48ca-9517-bfb63a22a1c3"},"vehicle_type_id":"4","last_reported":1746050940,"current_range_meters":10800,"station_id":"ce4bgv92rcd13ifvqcr0","pricing_plan_id":"cebpf4jnsgd1na2vs0mg"},{"bike_id":"7924b638-6bb2-4d04-8752-d92a7a4ba43a","system_id":"levelo_inurba_marseille","lat":43.2418,"lon":5.39731,"is_reserved":false,"is_disabled":false,"rental_uris":{"android":"levelo://app?vid=7924b638-6bb2-4d04-8752-d92a7a4ba43a","ios":"levelo://app?vid=7924b638-6bb2-4d04-8752-d92a7a4ba43a"},"vehicle_type_id":"4","last_reported":1746050940,"current_range_meters":10800,"station_id":"ce4bhn12rcd13ifvqgpg","pricing_plan_id":"cebpf4jnsgd1na2vs0mg"},{"bike_id":"c5552acd-50fa-4b0d-95c7-8f6dc5626569","system_id":"levelo_inurba_marseille","lat":43.28078,"lon":5.39658,"is_reserved":false,"is_disabled":false,"rental_uris":{"android":"levelo://app?vid=c5552acd-50fa-4b0d-95c7-8f6dc5626569","ios":"levelo://app?vid=c5552acd-50fa-4b0d-95c7-8f6dc5626569"},"vehicle_type_id":"4","last_reported":1746050940,"current_range_meters":10800,"station_id":"ce4bho12rcd13ifvqh2g","pricing_plan_id":"cebpf4jnsgd1na2vs0mg"},{"bike_id":"705f299d-aace-4d16-8dd4-7cb5b3e39d5f","system_id":"levelo_inurba_marseille","lat":43.30145,"lon":5.38079,"is_reserved":false,"is_disabled":false,"rental_uris":{"android":"levelo://app?vid=705f299d-aace-4d16-8dd4-7cb5b3e39d5f","ios":"levelo://app?vid=705f299d-aace-4d16-8dd4-7cb5b3e39d5f"},"vehicle_type_id":"4","last_reported":1746050940,"current_range_meters":10800,"station_id":"ce4bgjp2rcd13ifvqbh0","pricing_plan_id":"cebpf4jnsgd1na2vs0mg"},{"bike_id":"e5e92a64-e709-4b1a-a9b1-cbffe85789ca","system_id":"levelo_inurba_marseille","lat":43.255439,"lon":5.381368,"is_reserved":false,"is_disabled":false,"rental_uris":{"android":"levelo://app?vid=e5e92a64-e709-4b1a-a9b1-cbffe85789ca","ios":"levelo://app?vid=e5e92a64-e709-4b1a-a9b1-cbffe85789ca"},"vehicle_type_id":"4","last_reported":1746050940,"current_range_meters":10800,"station_id":"","pricing_plan_id":"cebpf4jnsgd1na2vs0mg"},{"bike_id":"9f7dcf3b-5de8-4203-b8f3-1867275b9acd","system_id":"levelo_inurba_marseille","lat":43.31711,"lon":5.40434,"is_reserved":false,"is_disabled":false,"rental_uris":{"android":"levelo://app?vid=9f7dcf3b-5de8-4203-b8f3-1867275b9acd","ios":"levelo://app?vid=9f7dcf3b-5de8-4203-b8f3-1867275b9acd"},"vehicle_type_id":"4","last_reported":1746050940,"current_range_meters":10800,"station_id":"ce4bh012rcd13ifvqd00","pricing_plan_id":"cebpf4jnsgd1na2vs0mg"},{"bike_id":"74ddc4a0-a37a-415b-a52a-027f104e13d2","system_id":"levelo_inurba_marseille","lat":43.28845,"lon":5.35869,"is_reserved":false,"is_disabled":false,"rental_uris":{"android":"levelo://app?vid=74ddc4a0-a37a-415b-a52a-027f104e13d2","ios":"levelo://app?vid=74ddc4a0-a37a-415b-a52a-027f104e13d2"},"vehicle_type_id":"4","last_reported":1746050940,"current_range_meters":11200,"station_id":"ce4bhb12rcd13ifvqem0","pricing_plan_id":"cebpf4jnsgd1na2vs0mg"},{"bike_id":"fca9dc8b-9c20-4eab-83ff-17d0ce9a6922","system_id":"levelo_inurba_marseille","lat":43.2602,"lon":5.41738,"is_reserved":false,"is_disabled":false,"rental_uris":{"android":"levelo://app?vid=fca9dc8b-9c20-4eab-83ff-17d0ce9a6922","ios":"levelo://app?vid=fca9dc8b-9c20-4eab-83ff-17d0ce9a6922"},"vehicle_type_id":"4","last_reported":1746050940,"current_range_meters":11200,"station_id":"","pricing_plan_id":"cebpf4jnsgd1na2vs0mg"},{"bike_id":"1f303245-4981-4fbe-b75a-6373e04d2d5a","system_id":"levelo_inurba_marseille","lat":43.25112,"lon":5.40324,"is_reserved":false,"is_disabled":false,"rental_uris":{"android":"levelo://app?vid=1f303245-4981-4fbe-b75a-6373e04d2d5a","ios":"levelo://app?vid=1f303245-4981-4fbe-b75a-6373e04d2d5a"},"vehicle_type_id":"4","last_reported":1746050940,"current_range_meters":10800,"station_id":"ce4bhlh2rcd13ifvqgig","pricing_plan_id":"cebpf4jnsgd1na2vs0mg"},{"bike_id":"032564e3-7c6f-4dae-8fee-5f63b3bd85c6","system_id":"levelo_inurba_marseille","lat":43.26956,"lon":5.40287,"is_reserved":false,"is_disabled":false,"rental_uris":{"android":"levelo://app?vid=032564e3-7c6f-4dae-8fee-5f63b3bd85c6","ios":"levelo://app?vid=032564e3-7c6f-4dae-8fee-5f63b3bd85c6"},"vehicle_type_id":"4","last_reported":1746050940,"current_range_meters":11200,"station_id":"cjm6bp8fraef2m0cb0m0","pricing_plan_id":"cebpf4jnsgd1na2vs0mg"},{"bike_id":"f31bf073-e687-4787-90ee-691c464f7f3e","system_id":"levelo_inurba_marseille","lat":43.25729,"lon":5.41104,"is_reserved":false,"is_disabled":false,"rental_uris":{"android":"levelo://app?vid=f31bf073-e687-4787-90ee-691c464f7f3e","ios":"levelo://app?vid=f31bf073-e687-4787-90ee-691c464f7f3e"},"vehicle_type_id":"4","last_reported":1746050940,"current_range_meters":11200,"station_id":"ce4bhkp2rcd13ifvqgd0","pricing_plan_id":"cebpf4jnsgd1na2vs0mg"},{"bike_id":"22e1e4a0-462b-4458-a280-92f7c22f61a6","system_id":"levelo_inurba_marseille","lat":43.27564,"lon":5.38413,"is_reserved":false,"is_disabled":false,"rental_uris":{"android":"levelo://app?vid=22e1e4a0-462b-4458-a280-92f7c22f61a6","ios":"levelo://app?vid=22e1e4a0-462b-4458-a280-92f7c22f61a6"},"vehicle_type_id":"4","last_reported":1746050940,"current_range_meters":11200,"station_id":"ce4bhh92rcd13ifvqfi0","pricing_plan_id":"cebpf4jnsgd1na2vs0mg"},{"bike_id":"02783f7f-2c1d-4034-beb1-3e59cdee1bf5","system_id":"levelo_inurba_marseille","lat":43.27994,"lon":5.4002,"is_reserved":false,"is_disabled":false,"rental_uris":{"android":"levelo://app?vid=02783f7f-2c1d-4034-beb1-3e59cdee1bf5","ios":"levelo://app?vid=02783f7f-2c1d-4034-beb1-3e59cdee1bf5"},"vehicle_type_id":"4","last_reported":1746050940,"current_range_meters":11200,"station_id":"ce4bho92rcd13ifvqh4g","pricing_plan_id":"cebpf4jnsgd1na2vs0mg"},{"bike_id":"2c21380e-fb37-4bcd-8f06-c36ef13852df","system_id":"levelo_inurba_marseille","lat":43.27375,"lon":5.36254,"is_reserved":false,"is_disabled":false,"rental_uris":{"android":"levelo://app?vid=2c21380e-fb37-4bcd-8f06-c36ef13852df","ios":"levelo://app?vid=2c21380e-fb37-4bcd-8f06-c36ef13852df"},"vehicle_type_id":"4","last_reported":1746050940,"current_range_meters":11200,"station_id":"ce4bhbh2rcd13ifvqeo0","pricing_plan_id":"cebpf4jnsgd1na2vs0mg"},{"bike_id":"03aa2c9e-a11c-4a6d-996a-f7fce9cc6e0a","system_id":"levelo_inurba_marseille","lat":43.28354,"lon":5.38108,"is_reserved":false,"is_disabled":false,"rental_uris":{"android":"levelo://app?vid=03aa2c9e-a11c-4a6d-996a-f7fce9cc6e0a","ios":"levelo://app?vid=03aa2c9e-a11c-4a6d-996a-f7fce9cc6e0a"},"vehicle_type_id":"4","last_reported":1746050940,"current_range_meters":11600,"station_id":"ce4bh412rcd13ifvqdr0","pricing_plan_id":"cebpf4jnsgd1na2vs0mg"},{"bike_id":"372a693a-d76c-42cb-b8a9-989f5451e1cd","system_id":"levelo_inurba_marseille","lat":43.29036,"lon":5.39953,"is_reserved":false,"is_disabled":false,"rental_uris":{"android":"levelo://app?vid=372a693a-d76c-42cb-b8a9-989f5451e1cd","ios":"levelo://app?vid=372a693a-d76c-42cb-b8a9-989f5451e1cd"},"vehicle_type_id":"4","last_reported":1746050940,"current_range_meters":11200,"station_id":"ce4bh392rcd13ifvqdm0","pricing_plan_id":"cebpf4jnsgd1na2vs0mg"},{"bike_id":"77942475-b9df-43a6-af61-b22087b935d2","system_id":"levelo_inurba_marseille","lat":43.29249,"lon":5.38429,"is_reserved":false,"is_disabled":true,"rental_uris":{"android":"levelo://app?vid=77942475-b9df-43a6-af61-b22087b935d2","ios":"levelo://app?vid=77942475-b9df-43a6-af61-b22087b935d2"},"vehicle_type_id":"4","last_reported":1746050940,"current_range_meters":11600,"station_id":"ce4bh692rcd13ifvqea0","pricing_plan_id":"cebpf4jnsgd1na2vs0mg"},{"bike_id":"379b8933-bc6e-4164-9d36-daaf2941e50f","system_id":"levelo_inurba_marseille","lat":43.3077,"lon":5.3749,"is_reserved":false,"is_disabled":false,"rental_uris":{"android":"levelo://app?vid=379b8933-bc6e-4164-9d36-daaf2941e50f","ios":"levelo://app?vid=379b8933-bc6e-4164-9d36-daaf2941e50f"},"vehicle_type_id":"4","last_reported":1746050940,"current_range_meters":11600,"station_id":"","pricing_plan_id":"cebpf4jnsgd1na2vs0mg"},{"bike_id":"c1cbc237-cfab-474a-aa26-81a87506105a","system_id":"levelo_inurba_marseille","lat":43.21737,"lon":5.346,"is_reserved":false,"is_disabled":false,"rental_uris":{"android":"levelo://app?vid=c1cbc237-cfab-474a-aa26-81a87506105a","ios":"levelo://app?vid=c1cbc237-cfab-474a-aa26-81a87506105a"},"vehicle_type_id":"4","last_reported":1746050940,"current_range_meters":11600,"station_id":"st_cvj6r9ubvosntc0bgbag","pricing_plan_id":"cebpf4jnsgd1na2vs0mg"},{"bike_id":"3ce5a6a0-7c75-4b93-962c-2dd6ababc3c9","system_id":"levelo_inurba_marseille","lat":43.22511,"lon":5.34771,"is_reserved":false,"is_disabled":false,"rental_uris":{"android":"levelo://app?vid=3ce5a6a0-7c75-4b93-962c-2dd6ababc3c9","ios":"levelo://app?vid=3ce5a6a0-7c75-4b93-962c-2dd6ababc3c9"},"vehicle_type_id":"4","last_reported":1746050940,"current_range_meters":11600,"station_id":"st_cvj5dfep6f1abm77gieg","pricing_plan_id":"cebpf4jnsgd1na2vs0mg"},{"bike_id":"8a7bf387-a745-46df-ad2f-17881a58a19d","system_id":"levelo_inurba_marseille","lat":43.27214,"lon":5.39169,"is_reserved":false,"is_disabled":false,"rental_uris":{"android":"levelo://app?vid=8a7bf387-a745-46df-ad2f-17881a58a19d","ios":"levelo://app?vid=8a7bf387-a745-46df-ad2f-17881a58a19d"},"vehicle_type_id":"4","last_reported":1746050940,"current_range_meters":11600,"station_id":"ce4bhhp2rcd13ifvqfm0","pricing_plan_id":"cebpf4jnsgd1na2vs0mg"},{"bike_id":"bc859335-0d0f-4be2-a38c-1f16424b9cb4","system_id":"levelo_inurba_marseille","lat":43.2808,"lon":5.3965,"is_reserved":false,"is_disabled":false,"rental_uris":{"android":"levelo://app?vid=bc859335-0d0f-4be2-a38c-1f16424b9cb4","ios":"levelo://app?vid=bc859335-0d0f-4be2-a38c-1f16424b9cb4"},"vehicle_type_id":"4","last_reported":1746050940,"current_range_meters":11200,"station_id":"ce4bho12rcd13ifvqh2g","pricing_plan_id":"cebpf4jnsgd1na2vs0mg"},{"bike_id":"6a8a1fbc-036f-4d52-83f6-304f0d1e5e7e","system_id":"levelo_inurba_marseille","lat":43.28691,"lon":5.37393,"is_reserved":false,"is_disabled":false,"rental_uris":{"android":"levelo://app?vid=6a8a1fbc-036f-4d52-83f6-304f0d1e5e7e","ios":"levelo://app?vid=6a8a1fbc-036f-4d52-83f6-304f0d1e5e7e"},"vehicle_type_id":"4","last_reported":1746050940,"current_range_meters":11600,"station_id":"ce4bh3p2rcd13ifvqdq0","pricing_plan_id":"cebpf4jnsgd1na2vs0mg"},{"bike_id":"e370df9e-3a4b-4fae-838a-af0da592ed5c","system_id":"levelo_inurba_marseille","lat":43.25726,"lon":5.41107,"is_reserved":false,"is_disabled":false,"rental_uris":{"android":"levelo://app?vid=e370df9e-3a4b-4fae-838a-af0da592ed5c","ios":"levelo://app?vid=e370df9e-3a4b-4fae-838a-af0da592ed5c"},"vehicle_type_id":"4","last_reported":1746050940,"current_range_meters":12000,"station_id":"ce4bhkp2rcd13ifvqgd0","pricing_plan_id":"cebpf4jnsgd1na2vs0mg"},{"bike_id":"22286c02-65f1-44f8-9b48-9ce28fa0cd7b","system_id":"levelo_inurba_marseille","lat":43.292,"lon":5.3932,"is_reserved":false,"is_disabled":false,"rental_uris":{"android":"levelo://app?vid=22286c02-65f1-44f8-9b48-9ce28fa0cd7b","ios":"levelo://app?vid=22286c02-65f1-44f8-9b48-9ce28fa0cd7b"},"vehicle_type_id":"4","last_reported":1746050940,"current_range_meters":12000,"station_id":"ce4bh192rcd13ifvqdd0","pricing_plan_id":"cebpf4jnsgd1na2vs0mg"},{"bike_id":"b8feccfa-4923-4995-84ae-609fa42fd20c","system_id":"levelo_inurba_marseille","lat":43.28007,"lon":5.39996,"is_reserved":false,"is_disabled":false,"rental_uris":{"android":"levelo://app?vid=b8feccfa-4923-4995-84ae-609fa42fd20c","ios":"levelo://app?vid=b8feccfa-4923-4995-84ae-609fa42fd20c"},"vehicle_type_id":"4","last_reported":1746050940,"current_range_meters":12000,"station_id":"ce4bho92rcd13ifvqh4g","pricing_plan_id":"cebpf4jnsgd1na2vs0mg"},{"bike_id":"8ab8f219-1642-4a0d-af2a-eaa8ea6c816f","system_id":"levelo_inurba_marseille","lat":43.3178,"lon":5.3901,"is_reserved":false,"is_disabled":false,"rental_uris":{"android":"levelo://app?vid=8ab8f219-1642-4a0d-af2a-eaa8ea6c816f","ios":"levelo://app?vid=8ab8f219-1642-4a0d-af2a-eaa8ea6c816f"},"vehicle_type_id":"4","last_reported":1746050940,"current_range_meters":12000,"station_id":"ce4bhqp2rcd13ifvqhng","pricing_plan_id":"cebpf4jnsgd1na2vs0mg"},{"bike_id":"742c40f0-9239-4d30-92f3-e376741a7dfa","system_id":"levelo_inurba_marseille","lat":43.31376,"lon":5.38494,"is_reserved":false,"is_disabled":false,"rental_uris":{"android":"levelo://app?vid=742c40f0-9239-4d30-92f3-e376741a7dfa","ios":"levelo://app?vid=742c40f0-9239-4d30-92f3-e376741a7dfa"},"vehicle_type_id":"4","last_reported":1746050940,"current_range_meters":12000,"station_id":"ce4bgt92rcd13ifvqcf0","pricing_plan_id":"cebpf4jnsgd1na2vs0mg"},{"bike_id":"d08fe425-042c-4938-b862-c3dc2ac034aa","system_id":"levelo_inurba_marseille","lat":43.32366,"lon":5.38876,"is_reserved":false,"is_disabled":false,"rental_uris":{"android":"levelo://app?vid=d08fe425-042c-4938-b862-c3dc2ac034aa","ios":"levelo://app?vid=d08fe425-042c-4938-b862-c3dc2ac034aa"},"vehicle_type_id":"4","last_reported":1746050940,"current_range_meters":12000,"station_id":"ce4bhqp2rcd13ifvqhog","pricing_plan_id":"cebpf4jnsgd1na2vs0mg"},{"bike_id":"607c2c4a-518c-4a6b-998b-f67c9a85ee64","system_id":"levelo_inurba_marseille","lat":43.28708,"lon":5.37395,"is_reserved":false,"is_disabled":false,"rental_uris":{"android":"levelo://app?vid=607c2c4a-518c-4a6b-998b-f67c9a85ee64","ios":"levelo://app?vid=607c2c4a-518c-4a6b-998b-f67c9a85ee64"},"vehicle_type_id":"4","last_reported":1746050940,"current_range_meters":12000,"station_id":"ce4bh3p2rcd13ifvqdq0","pricing_plan_id":"cebpf4jnsgd1na2vs0mg"},{"bike_id":"7d981a24-ab9c-4d5b-b5fc-9f4e27dadc31","system_id":"levelo_inurba_marseille","lat":43.3169,"lon":5.40469,"is_reserved":false,"is_disabled":false,"rental_uris":{"android":"levelo://app?vid=7d981a24-ab9c-4d5b-b5fc-9f4e27dadc31","ios":"levelo://app?vid=7d981a24-ab9c-4d5b-b5fc-9f4e27dadc31"},"vehicle_type_id":"4","last_reported":1746050940,"current_range_meters":12400,"station_id":"ce4bh012rcd13ifvqd00","pricing_plan_id":"cebpf4jnsgd1na2vs0mg"},{"bike_id":"42979274-76ae-42a2-b009-8dde9f74aa65","system_id":"levelo_inurba_marseille","lat":43.3303,"lon":5.39033,"is_reserved":false,"is_disabled":false,"rental_uris":{"android":"levelo://app?vid=42979274-76ae-42a2-b009-8dde9f74aa65","ios":"levelo://app?vid=42979274-76ae-42a2-b009-8dde9f74aa65"},"vehicle_type_id":"4","last_reported":1746050940,"current_range_meters":12400,"station_id":"ce4bhr92rcd13ifvqhrg","pricing_plan_id":"cebpf4jnsgd1na2vs0mg"},{"bike_id":"562276dc-22b8-4d74-876e-58926664ab2e","system_id":"levelo_inurba_marseille","lat":43.29024,"lon":5.35631,"is_reserved":false,"is_disabled":true,"rental_uris":{"android":"levelo://app?vid=562276dc-22b8-4d74-876e-58926664ab2e","ios":"levelo://app?vid=562276dc-22b8-4d74-876e-58926664ab2e"},"vehicle_type_id":"4","last_reported":1746050940,"current_range_meters":12400,"station_id":"ce4bhb92rcd13ifvqen0","pricing_plan_id":"cebpf4jnsgd1na2vs0mg"},{"bike_id":"60339cc4-2441-49bb-997f-5cb8bd77245f","system_id":"levelo_inurba_marseille","lat":43.29646,"lon":5.40605,"is_reserved":false,"is_disabled":false,"rental_uris":{"android":"levelo://app?vid=60339cc4-2441-49bb-997f-5cb8bd77245f","ios":"levelo://app?vid=60339cc4-2441-49bb-997f-5cb8bd77245f"},"vehicle_type_id":"4","last_reported":1746050940,"current_range_meters":12400,"station_id":"ce4bh0h2rcd13ifvqd60","pricing_plan_id":"cebpf4jnsgd1na2vs0mg"},{"bike_id":"9f87d872-9836-4a68-a4bb-b0ab837e0461","system_id":"levelo_inurba_marseille","lat":43.30538,"lon":5.36708,"is_reserved":false,"is_disabled":true,"rental_uris":{"android":"levelo://app?vid=9f87d872-9836-4a68-a4bb-b0ab837e0461","ios":"levelo://app?vid=9f87d872-9836-4a68-a4bb-b0ab837e0461"},"vehicle_type_id":"4","last_reported":1746050940,"current_range_meters":12400,"station_id":"ce4bgrp2rcd13ifvqc9g","pricing_plan_id":"cebpf4jnsgd1na2vs0mg"},{"bike_id":"16ad080c-2a27-4832-ad35-fe5be02af25b","system_id":"levelo_inurba_marseille","lat":43.3043,"lon":5.39744,"is_reserved":false,"is_disabled":false,"rental_uris":{"android":"levelo://app?vid=16ad080c-2a27-4832-ad35-fe5be02af25b","ios":"levelo://app?vid=16ad080c-2a27-4832-ad35-fe5be02af25b"},"vehicle_type_id":"4","last_reported":1746050940,"current_range_meters":12400,"station_id":"ce4bh092rcd13ifvqd20","pricing_plan_id":"cebpf4jnsgd1na2vs0mg"},{"bike_id":"34a5f2ab-5733-43a7-a2fc-2021ac472643","system_id":"levelo_inurba_marseille","lat":43.3017,"lon":5.36618,"is_reserved":false,"is_disabled":false,"rental_uris":{"android":"levelo://app?vid=34a5f2ab-5733-43a7-a2fc-2021ac472643","ios":"levelo://app?vid=34a5f2ab-5733-43a7-a2fc-2021ac472643"},"vehicle_type_id":"4","last_reported":1746050940,"current_range_meters":12400,"station_id":"ce4bgrh2rcd13ifvqc8g","pricing_plan_id":"cebpf4jnsgd1na2vs0mg"},{"bike_id":"e3c1eb7c-4d00-4665-a433-bd557a4a2b40","system_id":"levelo_inurba_marseille","lat":43.29888,"lon":5.38893,"is_reserved":false,"is_disabled":false,"rental_uris":{"android":"levelo://app?vid=e3c1eb7c-4d00-4665-a433-bd557a4a2b40","ios":"levelo://app?vid=e3c1eb7c-4d00-4665-a433-bd557a4a2b40"},"vehicle_type_id":"4","last_reported":1746050940,"current_range_meters":12400,"station_id":"ce4bh392rcd13ifvqdl0","pricing_plan_id":"cebpf4jnsgd1na2vs0mg"},{"bike_id":"3fb1206a-af4b-4af4-bb3e-d6e2d47d16ff","system_id":"levelo_inurba_marseille","lat":43.27207,"lon":5.39177,"is_reserved":false,"is_disabled":false,"rental_uris":{"android":"levelo://app?vid=3fb1206a-af4b-4af4-bb3e-d6e2d47d16ff","ios":"levelo://app?vid=3fb1206a-af4b-4af4-bb3e-d6e2d47d16ff"},"vehicle_type_id":"4","last_reported":1746050940,"current_range_meters":12400,"station_id":"ce4bhhp2rcd13ifvqfm0","pricing_plan_id":"cebpf4jnsgd1na2vs0mg"},{"bike_id":"2e996120-0564-42fc-90d7-8d5858debb06","system_id":"levelo_inurba_marseille","lat":43.299255,"lon":5.365483,"is_reserved":false,"is_disabled":false,"rental_uris":{"android":"levelo://app?vid=2e996120-0564-42fc-90d7-8d5858debb06","ios":"levelo://app?vid=2e996120-0564-42fc-90d7-8d5858debb06"},"vehicle_type_id":"4","last_reported":1746050940,"current_range_meters":12800,"station_id":"ce4bgpp2rcd13ifvqc3g","pricing_plan_id":"cebpf4jnsgd1na2vs0mg"},{"bike_id":"80651a87-6c3b-4ad8-a524-9ca686ad66c6","system_id":"levelo_inurba_marseille","lat":43.33013,"lon":5.39019,"is_reserved":false,"is_disabled":false,"rental_uris":{"android":"levelo://app?vid=80651a87-6c3b-4ad8-a524-9ca686ad66c6","ios":"levelo://app?vid=80651a87-6c3b-4ad8-a524-9ca686ad66c6"},"vehicle_type_id":"4","last_reported":1746050940,"current_range_meters":12800,"station_id":"ce4bhr92rcd13ifvqhrg","pricing_plan_id":"cebpf4jnsgd1na2vs0mg"},{"bike_id":"94fa547e-f4f7-4195-a3e2-fadbc709a334","system_id":"levelo_inurba_marseille","lat":43.30329,"lon":5.40432,"is_reserved":false,"is_disabled":false,"rental_uris":{"android":"levelo://app?vid=94fa547e-f4f7-4195-a3e2-fadbc709a334","ios":"levelo://app?vid=94fa547e-f4f7-4195-a3e2-fadbc709a334"},"vehicle_type_id":"4","last_reported":1746050940,"current_range_meters":12800,"station_id":"ce4bh012rcd13ifvqd10","pricing_plan_id":"cebpf4jnsgd1na2vs0mg"},{"bike_id":"b54499c4-23c6-4daf-b341-1f375f963ef4","system_id":"levelo_inurba_marseille","lat":43.2873,"lon":5.36075,"is_reserved":false,"is_disabled":false,"rental_uris":{"android":"levelo://app?vid=b54499c4-23c6-4daf-b341-1f375f963ef4","ios":"levelo://app?vid=b54499c4-23c6-4daf-b341-1f375f963ef4"},"vehicle_type_id":"4","last_reported":1746050940,"current_range_meters":12800,"station_id":"cki0cbj6b192h4jlfktg","pricing_plan_id":"cebpf4jnsgd1na2vs0mg"},{"bike_id":"d81abb63-9e29-43ff-affe-f5dd120de981","system_id":"levelo_inurba_marseille","lat":43.32368,"lon":5.38883,"is_reserved":false,"is_disabled":false,"rental_uris":{"android":"levelo://app?vid=d81abb63-9e29-43ff-affe-f5dd120de981","ios":"levelo://app?vid=d81abb63-9e29-43ff-affe-f5dd120de981"},"vehicle_type_id":"4","last_reported":1746050940,"current_range_meters":12800,"station_id":"ce4bhqp2rcd13ifvqhog","pricing_plan_id":"cebpf4jnsgd1na2vs0mg"},{"bike_id":"93c3535d-3cb4-4d5e-8674-4af1ca712961","system_id":"levelo_inurba_marseille","lat":43.3229,"lon":5.38269,"is_reserved":false,"is_disabled":false,"rental_uris":{"android":"levelo://app?vid=93c3535d-3cb4-4d5e-8674-4af1ca712961","ios":"levelo://app?vid=93c3535d-3cb4-4d5e-8674-4af1ca712961"},"vehicle_type_id":"4","last_reported":1746050940,"current_range_meters":13600,"station_id":"ce4bhr12rcd13ifvqhqg","pricing_plan_id":"cebpf4jnsgd1na2vs0mg"},{"bike_id":"0e911735-59b5-40e9-9b2b-02c8d3b36add","system_id":"levelo_inurba_marseille","lat":43.30442,"lon":5.38893,"is_reserved":false,"is_disabled":false,"rental_uris":{"android":"levelo://app?vid=0e911735-59b5-40e9-9b2b-02c8d3b36add","ios":"levelo://app?vid=0e911735-59b5-40e9-9b2b-02c8d3b36add"},"vehicle_type_id":"4","last_reported":1746050940,"current_range_meters":13600,"station_id":"ce4bgk12rcd13ifvqbi0","pricing_plan_id":"cebpf4jnsgd1na2vs0mg"},{"bike_id":"022bbe08-f438-4035-b90d-e31f48ac1061","system_id":"levelo_inurba_marseille","lat":43.31379,"lon":5.38495,"is_reserved":false,"is_disabled":false,"rental_uris":{"android":"levelo://app?vid=022bbe08-f438-4035-b90d-e31f48ac1061","ios":"levelo://app?vid=022bbe08-f438-4035-b90d-e31f48ac1061"},"vehicle_type_id":"4","last_reported":1746050940,"current_range_meters":13600,"station_id":"ce4bgt92rcd13ifvqcf0","pricing_plan_id":"cebpf4jnsgd1na2vs0mg"},{"bike_id":"abe23265-0ab7-4fdd-9daa-0e50aa43b4ea","system_id":"levelo_inurba_marseille","lat":43.28948,"lon":5.36629,"is_reserved":false,"is_disabled":false,"rental_uris":{"android":"levelo://app?vid=abe23265-0ab7-4fdd-9daa-0e50aa43b4ea","ios":"levelo://app?vid=abe23265-0ab7-4fdd-9daa-0e50aa43b4ea"},"vehicle_type_id":"4","last_reported":1746050940,"current_range_meters":13600,"station_id":"ce4bhap2rcd13ifvqek0","pricing_plan_id":"cebpf4jnsgd1na2vs0mg"},{"bike_id":"0df22f61-9c25-424e-bd02-bc390c358bcf","system_id":"levelo_inurba_marseille","lat":43.27943,"lon":5.41039,"is_reserved":false,"is_disabled":false,"rental_uris":{"android":"levelo://app?vid=0df22f61-9c25-424e-bd02-bc390c358bcf","ios":"levelo://app?vid=0df22f61-9c25-424e-bd02-bc390c358bcf"},"vehicle_type_id":"4","last_reported":1746050940,"current_range_meters":14000,"station_id":"ce4bhnp2rcd13ifvqh0g","pricing_plan_id":"cebpf4jnsgd1na2vs0mg"},{"bike_id":"da557341-b4a1-447e-9606-415e0f9c6127","system_id":"levelo_inurba_marseille","lat":43.30456,"lon":5.37894,"is_reserved":false,"is_disabled":true,"rental_uris":{"android":"levelo://app?vid=da557341-b4a1-447e-9606-415e0f9c6127","ios":"levelo://app?vid=da557341-b4a1-447e-9606-415e0f9c6127"},"vehicle_type_id":"4","last_reported":1746050940,"current_range_meters":14000,"station_id":"ce4bgup2rcd13ifvqcn0","pricing_plan_id":"cebpf4jnsgd1na2vs0mg"},{"bike_id":"bded5638-5663-46d5-b164-b8214836c3ea","system_id":"levelo_inurba_marseille","lat":43.27298,"lon":5.39212,"is_reserved":false,"is_disabled":false,"rental_uris":{"android":"levelo://app?vid=bded5638-5663-46d5-b164-b8214836c3ea","ios":"levelo://app?vid=bded5638-5663-46d5-b164-b8214836c3ea"},"vehicle_type_id":"4","last_reported":1746050940,"current_range_meters":14400,"station_id":"","pricing_plan_id":"cebpf4jnsgd1na2vs0mg"},{"bike_id":"af3f45f8-1432-45b2-bdf9-13841f39b0f6","system_id":"levelo_inurba_marseille","lat":43.30426,"lon":5.39748,"is_reserved":false,"is_disabled":false,"rental_uris":{"android":"levelo://app?vid=af3f45f8-1432-45b2-bdf9-13841f39b0f6","ios":"levelo://app?vid=af3f45f8-1432-45b2-bdf9-13841f39b0f6"},"vehicle_type_id":"4","last_reported":1746050940,"current_range_meters":14000,"station_id":"ce4bh092rcd13ifvqd20","pricing_plan_id":"cebpf4jnsgd1na2vs0mg"},{"bike_id":"fb330424-740e-4ba2-9603-0572fe1101bf","system_id":"levelo_inurba_marseille","lat":43.30297,"lon":5.37708,"is_reserved":false,"is_disabled":false,"rental_uris":{"android":"levelo://app?vid=fb330424-740e-4ba2-9603-0572fe1101bf","ios":"levelo://app?vid=fb330424-740e-4ba2-9603-0572fe1101bf"},"vehicle_type_id":"4","last_reported":1746050940,"current_range_meters":14000,"station_id":"ce4bguh2rcd13ifvqcj0","pricing_plan_id":"cebpf4jnsgd1na2vs0mg"},{"bike_id":"d8f69332-d7da-463e-98da-8052c52b547e","system_id":"levelo_inurba_marseille","lat":43.2781,"lon":5.40712,"is_reserved":false,"is_disabled":false,"rental_uris":{"android":"levelo://app?vid=d8f69332-d7da-463e-98da-8052c52b547e","ios":"levelo://app?vid=d8f69332-d7da-463e-98da-8052c52b547e"},"vehicle_type_id":"4","last_reported":1746050940,"current_range_meters":14400,"station_id":"ce4bhnh2rcd13ifvqgtg","pricing_plan_id":"cebpf4jnsgd1na2vs0mg"},{"bike_id":"64981ae5-9d65-4547-8181-90035c8fdb2e","system_id":"levelo_inurba_marseille","lat":43.3285,"lon":5.3658,"is_reserved":false,"is_disabled":false,"rental_uris":{"android":"levelo://app?vid=64981ae5-9d65-4547-8181-90035c8fdb2e","ios":"levelo://app?vid=64981ae5-9d65-4547-8181-90035c8fdb2e"},"vehicle_type_id":"4","last_reported":1746050940,"current_range_meters":14400,"station_id":"","pricing_plan_id":"cebpf4jnsgd1na2vs0mg"},{"bike_id":"a732b3d6-472a-46b2-b5fc-7d86a14ed2fc","system_id":"levelo_inurba_marseille","lat":43.33035,"lon":5.39019,"is_reserved":false,"is_disabled":false,"rental_uris":{"android":"levelo://app?vid=a732b3d6-472a-46b2-b5fc-7d86a14ed2fc","ios":"levelo://app?vid=a732b3d6-472a-46b2-b5fc-7d86a14ed2fc"},"vehicle_type_id":"4","last_reported":1746050940,"current_range_meters":14400,"station_id":"ce4bhr92rcd13ifvqhrg","pricing_plan_id":"cebpf4jnsgd1na2vs0mg"},{"bike_id":"2d828031-3686-4a0f-8654-da2775f70430","system_id":"levelo_inurba_marseille","lat":43.29635,"lon":5.40597,"is_reserved":false,"is_disabled":false,"rental_uris":{"android":"levelo://app?vid=2d828031-3686-4a0f-8654-da2775f70430","ios":"levelo://app?vid=2d828031-3686-4a0f-8654-da2775f70430"},"vehicle_type_id":"4","last_reported":1746050940,"current_range_meters":14400,"station_id":"ce4bh0h2rcd13ifvqd60","pricing_plan_id":"cebpf4jnsgd1na2vs0mg"},{"bike_id":"fd427e05-8ad1-4dac-ba3a-e42fe8245eb3","system_id":"levelo_inurba_marseille","lat":43.28418,"lon":5.35004,"is_reserved":false,"is_disabled":true,"rental_uris":{"android":"levelo://app?vid=fd427e05-8ad1-4dac-ba3a-e42fe8245eb3","ios":"levelo://app?vid=fd427e05-8ad1-4dac-ba3a-e42fe8245eb3"},"vehicle_type_id":"4","last_reported":1746050940,"current_range_meters":14400,"station_id":"ce4bhbh2rcd13ifvqepg","pricing_plan_id":"cebpf4jnsgd1na2vs0mg"},{"bike_id":"b83f5607-a228-4cfe-8c56-ad92f785f2d2","system_id":"levelo_inurba_marseille","lat":43.28355,"lon":5.38103,"is_reserved":false,"is_disabled":false,"rental_uris":{"android":"levelo://app?vid=b83f5607-a228-4cfe-8c56-ad92f785f2d2","ios":"levelo://app?vid=b83f5607-a228-4cfe-8c56-ad92f785f2d2"},"vehicle_type_id":"4","last_reported":1746050940,"current_range_meters":14400,"station_id":"ce4bh412rcd13ifvqdr0","pricing_plan_id":"cebpf4jnsgd1na2vs0mg"},{"bike_id":"86c2979e-8cf6-48ed-bdb1-835ff11e3adc","system_id":"levelo_inurba_marseille","lat":43.25363,"lon":5.41852,"is_reserved":false,"is_disabled":false,"rental_uris":{"android":"levelo://app?vid=86c2979e-8cf6-48ed-bdb1-835ff11e3adc","ios":"levelo://app?vid=86c2979e-8cf6-48ed-bdb1-835ff11e3adc"},"vehicle_type_id":"4","last_reported":1746050940,"current_range_meters":14400,"station_id":"","pricing_plan_id":"cebpf4jnsgd1na2vs0mg"},{"bike_id":"d8fa65b3-1c18-41b9-8825-97ff98716e4f","system_id":"levelo_inurba_marseille","lat":43.28443,"lon":5.39206,"is_reserved":false,"is_disabled":false,"rental_uris":{"android":"levelo://app?vid=d8fa65b3-1c18-41b9-8825-97ff98716e4f","ios":"levelo://app?vid=d8fa65b3-1c18-41b9-8825-97ff98716e4f"},"vehicle_type_id":"4","last_reported":1746050940,"current_range_meters":14400,"station_id":"ce4bhoh2rcd13ifvqh5g","pricing_plan_id":"cebpf4jnsgd1na2vs0mg"},{"bike_id":"bb35006e-7423-4ec9-8c10-c5159a6efa98","system_id":"levelo_inurba_marseille","lat":43.30431,"lon":5.39751,"is_reserved":false,"is_disabled":false,"rental_uris":{"android":"levelo://app?vid=bb35006e-7423-4ec9-8c10-c5159a6efa98","ios":"levelo://app?vid=bb35006e-7423-4ec9-8c10-c5159a6efa98"},"vehicle_type_id":"4","last_reported":1746050940,"current_range_meters":14400,"station_id":"ce4bh092rcd13ifvqd20","pricing_plan_id":"cebpf4jnsgd1na2vs0mg"},{"bike_id":"547f5086-5fb0-419a-ae49-937fffb96b04","system_id":"levelo_inurba_marseille","lat":43.28157,"lon":5.42637,"is_reserved":false,"is_disabled":false,"rental_uris":{"android":"levelo://app?vid=547f5086-5fb0-419a-ae49-937fffb96b04","ios":"levelo://app?vid=547f5086-5fb0-419a-ae49-937fffb96b04"},"vehicle_type_id":"4","last_reported":1746050940,"current_range_meters":14800,"station_id":"ce4bhnh2rcd13ifvqgug","pricing_plan_id":"cebpf4jnsgd1na2vs0mg"},{"bike_id":"a688b131-ae29-4f11-8812-f85f61aa6706","system_id":"levelo_inurba_marseille","lat":43.292101,"lon":5.393194,"is_reserved":false,"is_disabled":true,"rental_uris":{"android":"levelo://app?vid=a688b131-ae29-4f11-8812-f85f61aa6706","ios":"levelo://app?vid=a688b131-ae29-4f11-8812-f85f61aa6706"},"vehicle_type_id":"4","last_reported":1746050940,"current_range_meters":14800,"station_id":"ce4bhbh2rcd13ifvqeo0","pricing_plan_id":"cebpf4jnsgd1na2vs0mg"},{"bike_id":"03599276-5e0a-44f6-918f-21df64f6e246","system_id":"levelo_inurba_marseille","lat":43.30266,"lon":5.40075,"is_reserved":false,"is_disabled":false,"rental_uris":{"android":"levelo://app?vid=03599276-5e0a-44f6-918f-21df64f6e246","ios":"levelo://app?vid=03599276-5e0a-44f6-918f-21df64f6e246"},"vehicle_type_id":"4","last_reported":1746050940,"current_range_meters":14800,"station_id":"ce4bgvh2rcd13ifvqcs0","pricing_plan_id":"cebpf4jnsgd1na2vs0mg"},{"bike_id":"36ebeaa0-a0c0-4fb4-9b32-6806993c43d4","system_id":"levelo_inurba_marseille","lat":43.2857,"lon":5.39503,"is_reserved":false,"is_disabled":false,"rental_uris":{"android":"levelo://app?vid=36ebeaa0-a0c0-4fb4-9b32-6806993c43d4","ios":"levelo://app?vid=36ebeaa0-a0c0-4fb4-9b32-6806993c43d4"},"vehicle_type_id":"4","last_reported":1746050940,"current_range_meters":14400,"station_id":"ce4bh292rcd13ifvqdg0","pricing_plan_id":"cebpf4jnsgd1na2vs0mg"},{"bike_id":"cf8f473b-ccc3-498b-a47e-db8db59902ba","system_id":"levelo_inurba_marseille","lat":43.30605,"lon":5.37231,"is_reserved":false,"is_disabled":false,"rental_uris":{"android":"levelo://app?vid=cf8f473b-ccc3-498b-a47e-db8db59902ba","ios":"levelo://app?vid=cf8f473b-ccc3-498b-a47e-db8db59902ba"},"vehicle_type_id":"4","last_reported":1746050940,"current_range_meters":14400,"station_id":"ce4bgqh2rcd13ifvqc4g","pricing_plan_id":"cebpf4jnsgd1na2vs0mg"},{"bike_id":"7940bc1b-eaa7-4f49-a435-46dc9391f6a1","system_id":"levelo_inurba_marseille","lat":43.21201,"lon":5.35064,"is_reserved":false,"is_disabled":false,"rental_uris":{"android":"levelo://app?vid=7940bc1b-eaa7-4f49-a435-46dc9391f6a1","ios":"levelo://app?vid=7940bc1b-eaa7-4f49-a435-46dc9391f6a1"},"vehicle_type_id":"4","last_reported":1746050940,"current_range_meters":14800,"station_id":"st_cvj6sg6p6f1abm77japg","pricing_plan_id":"cebpf4jnsgd1na2vs0mg"},{"bike_id":"34b484ab-c0f1-4e55-b51a-e2bafdafb63e","system_id":"levelo_inurba_marseille","lat":43.23069,"lon":5.35472,"is_reserved":false,"is_disabled":false,"rental_uris":{"android":"levelo://app?vid=34b484ab-c0f1-4e55-b51a-e2bafdafb63e","ios":"levelo://app?vid=34b484ab-c0f1-4e55-b51a-e2bafdafb63e"},"vehicle_type_id":"4","last_reported":1746050940,"current_range_meters":14800,"station_id":"cpo3342slgdg3j2ifvpg","pricing_plan_id":"cebpf4jnsgd1na2vs0mg"},{"bike_id":"1ec08578-bd7b-492b-8abb-8d73d722fcda","system_id":"levelo_inurba_marseille","lat":43.2844,"lon":5.39177,"is_reserved":false,"is_disabled":false,"rental_uris":{"android":"levelo://app?vid=1ec08578-bd7b-492b-8abb-8d73d722fcda","ios":"levelo://app?vid=1ec08578-bd7b-492b-8abb-8d73d722fcda"},"vehicle_type_id":"4","last_reported":1746050940,"current_range_meters":14400,"station_id":"ce4bhoh2rcd13ifvqh5g","pricing_plan_id":"cebpf4jnsgd1na2vs0mg"},{"bike_id":"d32a64f6-9000-467e-98fd-c83514f49197","system_id":"levelo_inurba_marseille","lat":43.31317,"lon":5.39684,"is_reserved":false,"is_disabled":false,"rental_uris":{"android":"levelo://app?vid=d32a64f6-9000-467e-98fd-c83514f49197","ios":"levelo://app?vid=d32a64f6-9000-467e-98fd-c83514f49197"},"vehicle_type_id":"4","last_reported":1746050940,"current_range_meters":15200,"station_id":"ce4bgvp2rcd13ifvqcu0","pricing_plan_id":"cebpf4jnsgd1na2vs0mg"},{"bike_id":"eaaa3568-2329-4f85-8464-9fd4d6346345","system_id":"levelo_inurba_marseille","lat":43.29301,"lon":5.37449,"is_reserved":false,"is_disabled":false,"rental_uris":{"android":"levelo://app?vid=eaaa3568-2329-4f85-8464-9fd4d6346345","ios":"levelo://app?vid=eaaa3568-2329-4f85-8464-9fd4d6346345"},"vehicle_type_id":"4","last_reported":1746050940,"current_range_meters":14800,"station_id":"ce4bgi12rcd13ifvqb70","pricing_plan_id":"cebpf4jnsgd1na2vs0mg"},{"bike_id":"34d14631-1875-493b-9629-38f94698b325","system_id":"levelo_inurba_marseille","lat":43.31269,"lon":5.4016,"is_reserved":false,"is_disabled":false,"rental_uris":{"android":"levelo://app?vid=34d14631-1875-493b-9629-38f94698b325","ios":"levelo://app?vid=34d14631-1875-493b-9629-38f94698b325"},"vehicle_type_id":"4","last_reported":1746050940,"current_range_meters":14800,"station_id":"ce4bh092rcd13ifvqd30","pricing_plan_id":"cebpf4jnsgd1na2vs0mg"},{"bike_id":"083163f5-e2fd-40d2-9e4f-7b3d2d85df31","system_id":"levelo_inurba_marseille","lat":43.2701,"lon":5.38764,"is_reserved":false,"is_disabled":true,"rental_uris":{"android":"levelo://app?vid=083163f5-e2fd-40d2-9e4f-7b3d2d85df31","ios":"levelo://app?vid=083163f5-e2fd-40d2-9e4f-7b3d2d85df31"},"vehicle_type_id":"4","last_reported":1746050940,"current_range_meters":15200,"station_id":"","pricing_plan_id":"cebpf4jnsgd1na2vs0mg"},{"bike_id":"fd7875a1-1cd0-47f8-880b-6ef58a6b7e2e","system_id":"levelo_inurba_marseille","lat":43.22935,"lon":5.35373,"is_reserved":false,"is_disabled":false,"rental_uris":{"android":"levelo://app?vid=fd7875a1-1cd0-47f8-880b-6ef58a6b7e2e","ios":"levelo://app?vid=fd7875a1-1cd0-47f8-880b-6ef58a6b7e2e"},"vehicle_type_id":"4","last_reported":1746050940,"current_range_meters":15200,"station_id":"cpo3532slgdg3j2ikp40","pricing_plan_id":"cebpf4jnsgd1na2vs0mg"},{"bike_id":"4215e336-130f-4e4e-ac75-ab1f2791ea4d","system_id":"levelo_inurba_marseille","lat":43.31683,"lon":5.40467,"is_reserved":false,"is_disabled":false,"rental_uris":{"android":"levelo://app?vid=4215e336-130f-4e4e-ac75-ab1f2791ea4d","ios":"levelo://app?vid=4215e336-130f-4e4e-ac75-ab1f2791ea4d"},"vehicle_type_id":"4","last_reported":1746050940,"current_range_meters":10000,"station_id":"ce4bh012rcd13ifvqd00","pricing_plan_id":"cebpf4jnsgd1na2vs0mg"},{"bike_id":"fd474a4c-e4f0-45e4-bb5e-22aea07fb998","system_id":"levelo_inurba_marseille","lat":43.29433,"lon":5.38609,"is_reserved":false,"is_disabled":false,"rental_uris":{"android":"levelo://app?vid=fd474a4c-e4f0-45e4-bb5e-22aea07fb998","ios":"levelo://app?vid=fd474a4c-e4f0-45e4-bb5e-22aea07fb998"},"vehicle_type_id":"4","last_reported":1746050940,"current_range_meters":16000,"station_id":"ce4bh2h2rcd13ifvqdh0","pricing_plan_id":"cebpf4jnsgd1na2vs0mg"},{"bike_id":"da62e04f-aabf-4f2b-9e7f-761fdf6d967b","system_id":"levelo_inurba_marseille","lat":43.2841,"lon":5.37518,"is_reserved":false,"is_disabled":false,"rental_uris":{"android":"levelo://app?vid=da62e04f-aabf-4f2b-9e7f-761fdf6d967b","ios":"levelo://app?vid=da62e04f-aabf-4f2b-9e7f-761fdf6d967b"},"vehicle_type_id":"4","last_reported":1746050940,"current_range_meters":16000,"station_id":"ce4bh412rcd13ifvqds0","pricing_plan_id":"cebpf4jnsgd1na2vs0mg"},{"bike_id":"9cdf1141-77f5-4471-88f6-8f6741e63bd6","system_id":"levelo_inurba_marseille","lat":43.30799,"lon":5.3816,"is_reserved":false,"is_disabled":false,"rental_uris":{"android":"levelo://app?vid=9cdf1141-77f5-4471-88f6-8f6741e63bd6","ios":"levelo://app?vid=9cdf1141-77f5-4471-88f6-8f6741e63bd6"},"vehicle_type_id":"4","last_reported":1746050940,"current_range_meters":16000,"station_id":"ce4bgt12rcd13ifvqce0","pricing_plan_id":"cebpf4jnsgd1na2vs0mg"},{"bike_id":"76d01a31-d823-4407-ba13-8d338a805a6d","system_id":"levelo_inurba_marseille","lat":43.29885,"lon":5.38902,"is_reserved":false,"is_disabled":false,"rental_uris":{"android":"levelo://app?vid=76d01a31-d823-4407-ba13-8d338a805a6d","ios":"levelo://app?vid=76d01a31-d823-4407-ba13-8d338a805a6d"},"vehicle_type_id":"4","last_reported":1746050940,"current_range_meters":16000,"station_id":"ce4bh392rcd13ifvqdl0","pricing_plan_id":"cebpf4jnsgd1na2vs0mg"},{"bike_id":"00737384-3579-4a71-9d23-efcd3a2de0ec","system_id":"levelo_inurba_marseille","lat":43.30905,"lon":5.37188,"is_reserved":false,"is_disabled":false,"rental_uris":{"android":"levelo://app?vid=00737384-3579-4a71-9d23-efcd3a2de0ec","ios":"levelo://app?vid=00737384-3579-4a71-9d23-efcd3a2de0ec"},"vehicle_type_id":"4","last_reported":1746050940,"current_range_meters":15200,"station_id":"ce4bguh2rcd13ifvqckg","pricing_plan_id":"cebpf4jnsgd1na2vs0mg"},{"bike_id":"66cf9de5-17de-4e38-9ee0-8d2cef3b4ab3","system_id":"levelo_inurba_marseille","lat":43.3065,"lon":5.40072,"is_reserved":false,"is_disabled":true,"rental_uris":{"android":"levelo://app?vid=66cf9de5-17de-4e38-9ee0-8d2cef3b4ab3","ios":"levelo://app?vid=66cf9de5-17de-4e38-9ee0-8d2cef3b4ab3"},"vehicle_type_id":"4","last_reported":1746050940,"current_range_meters":16000,"station_id":"ce4bh112rcd13ifvqda0","pricing_plan_id":"cebpf4jnsgd1na2vs0mg"},{"bike_id":"e88a22b4-75bd-423e-ad28-751e2d7af086","system_id":"levelo_inurba_marseille","lat":43.30593,"lon":5.39363,"is_reserved":false,"is_disabled":false,"rental_uris":{"android":"levelo://app?vid=e88a22b4-75bd-423e-ad28-751e2d7af086","ios":"levelo://app?vid=e88a22b4-75bd-423e-ad28-751e2d7af086"},"vehicle_type_id":"4","last_reported":1746050940,"current_range_meters":16000,"station_id":"ce4bh0p2rcd13ifvqd80","pricing_plan_id":"cebpf4jnsgd1na2vs0mg"},{"bike_id":"dfd685e2-5571-4ab9-8dba-04a38b46622f","system_id":"levelo_inurba_marseille","lat":43.28443,"lon":5.39187,"is_reserved":false,"is_disabled":false,"rental_uris":{"android":"levelo://app?vid=dfd685e2-5571-4ab9-8dba-04a38b46622f","ios":"levelo://app?vid=dfd685e2-5571-4ab9-8dba-04a38b46622f"},"vehicle_type_id":"4","last_reported":1746050940,"current_range_meters":16400,"station_id":"ce4bhoh2rcd13ifvqh5g","pricing_plan_id":"cebpf4jnsgd1na2vs0mg"},{"bike_id":"8cc9ccba-8c39-4154-8daf-1c2574671f16","system_id":"levelo_inurba_marseille","lat":43.28718,"lon":5.3794,"is_reserved":false,"is_disabled":false,"rental_uris":{"android":"levelo://app?vid=8cc9ccba-8c39-4154-8daf-1c2574671f16","ios":"levelo://app?vid=8cc9ccba-8c39-4154-8daf-1c2574671f16"},"vehicle_type_id":"4","last_reported":1746050940,"current_range_meters":16400,"station_id":"ce4bh9p2rcd13ifvqec0","pricing_plan_id":"cebpf4jnsgd1na2vs0mg"},{"bike_id":"eba926d0-a22e-4eec-9de3-d8b6db8c0601","system_id":"levelo_inurba_marseille","lat":43.29874,"lon":5.39738,"is_reserved":false,"is_disabled":false,"rental_uris":{"android":"levelo://app?vid=eba926d0-a22e-4eec-9de3-d8b6db8c0601","ios":"levelo://app?vid=eba926d0-a22e-4eec-9de3-d8b6db8c0601"},"vehicle_type_id":"4","last_reported":1746050940,"current_range_meters":16400,"station_id":"ce4bh0h2rcd13ifvqd50","pricing_plan_id":"cebpf4jnsgd1na2vs0mg"},{"bike_id":"29c83c5f-975b-458a-9146-22b8a4f98ae6","system_id":"levelo_inurba_marseille","lat":43.29543,"lon":5.37491,"is_reserved":false,"is_disabled":false,"rental_uris":{"android":"levelo://app?vid=29c83c5f-975b-458a-9146-22b8a4f98ae6","ios":"levelo://app?vid=29c83c5f-975b-458a-9146-22b8a4f98ae6"},"vehicle_type_id":"4","last_reported":1746050940,"current_range_meters":16400,"station_id":"ce4bgkp2rcd13ifvqbmg","pricing_plan_id":"cebpf4jnsgd1na2vs0mg"},{"bike_id":"3d13519f-8c59-4500-915b-0e3325a7d2e1","system_id":"levelo_inurba_marseille","lat":43.2994,"lon":5.38339,"is_reserved":false,"is_disabled":false,"rental_uris":{"android":"levelo://app?vid=3d13519f-8c59-4500-915b-0e3325a7d2e1","ios":"levelo://app?vid=3d13519f-8c59-4500-915b-0e3325a7d2e1"},"vehicle_type_id":"4","last_reported":1746050940,"current_range_meters":16400,"station_id":"","pricing_plan_id":"cebpf4jnsgd1na2vs0mg"},{"bike_id":"3176fa51-2630-4c8f-82c7-15208575ea7c","system_id":"levelo_inurba_marseille","lat":43.28036,"lon":5.3694,"is_reserved":false,"is_disabled":false,"rental_uris":{"android":"levelo://app?vid=3176fa51-2630-4c8f-82c7-15208575ea7c","ios":"levelo://app?vid=3176fa51-2630-4c8f-82c7-15208575ea7c"},"vehicle_type_id":"4","last_reported":1746050940,"current_range_meters":16400,"station_id":"ce4bha12rcd13ifvqef0","pricing_plan_id":"cebpf4jnsgd1na2vs0mg"},{"bike_id":"f620480c-6963-47c7-98f1-c5d07142d6dd","system_id":"levelo_inurba_marseille","lat":43.30457,"lon":5.37887,"is_reserved":false,"is_disabled":false,"rental_uris":{"android":"levelo://app?vid=f620480c-6963-47c7-98f1-c5d07142d6dd","ios":"levelo://app?vid=f620480c-6963-47c7-98f1-c5d07142d6dd"},"vehicle_type_id":"4","last_reported":1746050940,"current_range_meters":16400,"station_id":"ce4bgup2rcd13ifvqcn0","pricing_plan_id":"cebpf4jnsgd1na2vs0mg"},{"bike_id":"dd2dc8cc-5776-4e7c-bb0c-ec8f5d94f0b7","system_id":"levelo_inurba_marseille","lat":43.2835,"lon":5.38112,"is_reserved":false,"is_disabled":false,"rental_uris":{"android":"levelo://app?vid=dd2dc8cc-5776-4e7c-bb0c-ec8f5d94f0b7","ios":"levelo://app?vid=dd2dc8cc-5776-4e7c-bb0c-ec8f5d94f0b7"},"vehicle_type_id":"4","last_reported":1746050940,"current_range_meters":16400,"station_id":"ce4bh412rcd13ifvqdr0","pricing_plan_id":"cebpf4jnsgd1na2vs0mg"},{"bike_id":"fdd498b4-7e2d-44e6-af5a-287682f76db2","system_id":"levelo_inurba_marseille","lat":43.31383,"lon":5.38489,"is_reserved":false,"is_disabled":false,"rental_uris":{"android":"levelo://app?vid=fdd498b4-7e2d-44e6-af5a-287682f76db2","ios":"levelo://app?vid=fdd498b4-7e2d-44e6-af5a-287682f76db2"},"vehicle_type_id":"4","last_reported":1746050940,"current_range_meters":16000,"station_id":"ce4bgt92rcd13ifvqcf0","pricing_plan_id":"cebpf4jnsgd1na2vs0mg"},{"bike_id":"782077f1-430c-4aca-a37c-b00e1b4fbdb1","system_id":"levelo_inurba_marseille","lat":43.28731,"lon":5.36094,"is_reserved":false,"is_disabled":false,"rental_uris":{"android":"levelo://app?vid=782077f1-430c-4aca-a37c-b00e1b4fbdb1","ios":"levelo://app?vid=782077f1-430c-4aca-a37c-b00e1b4fbdb1"},"vehicle_type_id":"4","last_reported":1746050940,"current_range_meters":16400,"station_id":"cki0cbj6b192h4jlfktg","pricing_plan_id":"cebpf4jnsgd1na2vs0mg"},{"bike_id":"c35597fb-1101-4993-a40d-1c35a23af9d5","system_id":"levelo_inurba_marseille","lat":43.30213,"lon":5.39459,"is_reserved":false,"is_disabled":false,"rental_uris":{"android":"levelo://app?vid=c35597fb-1101-4993-a40d-1c35a23af9d5","ios":"levelo://app?vid=c35597fb-1101-4993-a40d-1c35a23af9d5"},"vehicle_type_id":"4","last_reported":1746050940,"current_range_meters":16000,"station_id":"ce4bh0p2rcd13ifvqd70","pricing_plan_id":"cebpf4jnsgd1na2vs0mg"},{"bike_id":"aa1220d4-7fa1-4ad4-8aa5-3dbf237cf05a","system_id":"levelo_inurba_marseille","lat":43.283537,"lon":5.381073,"is_reserved":false,"is_disabled":false,"rental_uris":{"android":"levelo://app?vid=aa1220d4-7fa1-4ad4-8aa5-3dbf237cf05a","ios":"levelo://app?vid=aa1220d4-7fa1-4ad4-8aa5-3dbf237cf05a"},"vehicle_type_id":"4","last_reported":1746050940,"current_range_meters":16400,"station_id":"ce4bh412rcd13ifvqdr0","pricing_plan_id":"cebpf4jnsgd1na2vs0mg"},{"bike_id":"42b181a5-9321-40dd-b686-9fca5cedf8ff","system_id":"levelo_inurba_marseille","lat":43.29443,"lon":5.3975,"is_reserved":false,"is_disabled":false,"rental_uris":{"android":"levelo://app?vid=42b181a5-9321-40dd-b686-9fca5cedf8ff","ios":"levelo://app?vid=42b181a5-9321-40dd-b686-9fca5cedf8ff"},"vehicle_type_id":"4","last_reported":1746050940,"current_range_meters":16400,"station_id":"ce4bh3h2rcd13ifvqdo0","pricing_plan_id":"cebpf4jnsgd1na2vs0mg"},{"bike_id":"f02ae64c-9233-4a17-8305-23ebd345c78b","system_id":"levelo_inurba_marseille","lat":43.2319,"lon":5.39984,"is_reserved":false,"is_disabled":false,"rental_uris":{"android":"levelo://app?vid=f02ae64c-9233-4a17-8305-23ebd345c78b","ios":"levelo://app?vid=f02ae64c-9233-4a17-8305-23ebd345c78b"},"vehicle_type_id":"4","last_reported":1746050940,"current_range_meters":16400,"station_id":"ce4bhn12rcd13ifvqgqg","pricing_plan_id":"cebpf4jnsgd1na2vs0mg"},{"bike_id":"1276ff5c-0e07-4a84-8274-86c8fab8119b","system_id":"levelo_inurba_marseille","lat":43.29026,"lon":5.386375,"is_reserved":false,"is_disabled":true,"rental_uris":{"android":"levelo://app?vid=1276ff5c-0e07-4a84-8274-86c8fab8119b","ios":"levelo://app?vid=1276ff5c-0e07-4a84-8274-86c8fab8119b"},"vehicle_type_id":"4","last_reported":1746050940,"current_range_meters":16400,"station_id":"ce4bh4p2rcd13ifvqe0g","pricing_plan_id":"cebpf4jnsgd1na2vs0mg"},{"bike_id":"68387bcf-91b9-4d94-9345-8087e5f6d466","system_id":"levelo_inurba_marseille","lat":43.31333,"lon":5.36771,"is_reserved":false,"is_disabled":true,"rental_uris":{"android":"levelo://app?vid=68387bcf-91b9-4d94-9345-8087e5f6d466","ios":"levelo://app?vid=68387bcf-91b9-4d94-9345-8087e5f6d466"},"vehicle_type_id":"4","last_reported":1746050940,"current_range_meters":16800,"station_id":"","pricing_plan_id":"cebpf4jnsgd1na2vs0mg"},{"bike_id":"a80efe56-7ec7-41b2-959d-a20ff548881b","system_id":"levelo_inurba_marseille","lat":43.323644,"lon":5.388818,"is_reserved":false,"is_disabled":false,"rental_uris":{"android":"levelo://app?vid=a80efe56-7ec7-41b2-959d-a20ff548881b","ios":"levelo://app?vid=a80efe56-7ec7-41b2-959d-a20ff548881b"},"vehicle_type_id":"4","last_reported":1746050940,"current_range_meters":16800,"station_id":"ce4bhqp2rcd13ifvqhog","pricing_plan_id":"cebpf4jnsgd1na2vs0mg"},{"bike_id":"8d8655d0-c647-407e-bea1-3d8813426ea9","system_id":"levelo_inurba_marseille","lat":43.29073,"lon":5.37185,"is_reserved":false,"is_disabled":false,"rental_uris":{"android":"levelo://app?vid=8d8655d0-c647-407e-bea1-3d8813426ea9","ios":"levelo://app?vid=8d8655d0-c647-407e-bea1-3d8813426ea9"},"vehicle_type_id":"4","last_reported":1746050940,"current_range_meters":16800,"station_id":"ce4bh5p2rcd13ifvqe4g","pricing_plan_id":"cebpf4jnsgd1na2vs0mg"},{"bike_id":"b58385b2-d1b2-4ecc-af75-eb7cf4772905","system_id":"levelo_inurba_marseille","lat":43.23048,"lon":5.35497,"is_reserved":false,"is_disabled":false,"rental_uris":{"android":"levelo://app?vid=b58385b2-d1b2-4ecc-af75-eb7cf4772905","ios":"levelo://app?vid=b58385b2-d1b2-4ecc-af75-eb7cf4772905"},"vehicle_type_id":"4","last_reported":1746050940,"current_range_meters":16800,"station_id":"cpo3342slgdg3j2ifvpg","pricing_plan_id":"cebpf4jnsgd1na2vs0mg"},{"bike_id":"c3c0f113-91ae-4e6f-8f00-55857c9a43a2","system_id":"levelo_inurba_marseille","lat":43.31326,"lon":5.39702,"is_reserved":false,"is_disabled":false,"rental_uris":{"android":"levelo://app?vid=c3c0f113-91ae-4e6f-8f00-55857c9a43a2","ios":"levelo://app?vid=c3c0f113-91ae-4e6f-8f00-55857c9a43a2"},"vehicle_type_id":"4","last_reported":1746050940,"current_range_meters":16800,"station_id":"ce4bgvp2rcd13ifvqcu0","pricing_plan_id":"cebpf4jnsgd1na2vs0mg"},{"bike_id":"90265f84-5847-49bc-982a-e1c84c7fa40e","system_id":"levelo_inurba_marseille","lat":43.31363,"lon":5.38491,"is_reserved":false,"is_disabled":false,"rental_uris":{"android":"levelo://app?vid=90265f84-5847-49bc-982a-e1c84c7fa40e","ios":"levelo://app?vid=90265f84-5847-49bc-982a-e1c84c7fa40e"},"vehicle_type_id":"4","last_reported":1746050940,"current_range_meters":16800,"station_id":"ce4bgt92rcd13ifvqcf0","pricing_plan_id":"cebpf4jnsgd1na2vs0mg"},{"bike_id":"a2514ac6-6c30-4b2f-9237-95a624d076b7","system_id":"levelo_inurba_marseille","lat":43.30537,"lon":5.38431,"is_reserved":false,"is_disabled":false,"rental_uris":{"android":"levelo://app?vid=a2514ac6-6c30-4b2f-9237-95a624d076b7","ios":"levelo://app?vid=a2514ac6-6c30-4b2f-9237-95a624d076b7"},"vehicle_type_id":"4","last_reported":1746050940,"current_range_meters":16800,"station_id":"ce4bgg92rcd13ifvqb30","pricing_plan_id":"cebpf4jnsgd1na2vs0mg"},{"bike_id":"58e61467-50db-4ef1-a23a-155c99fb9f5b","system_id":"levelo_inurba_marseille","lat":43.31485,"lon":5.37278,"is_reserved":false,"is_disabled":false,"rental_uris":{"android":"levelo://app?vid=58e61467-50db-4ef1-a23a-155c99fb9f5b","ios":"levelo://app?vid=58e61467-50db-4ef1-a23a-155c99fb9f5b"},"vehicle_type_id":"4","last_reported":1746050940,"current_range_meters":17200,"station_id":"ce4bgt12rcd13ifvqcd0","pricing_plan_id":"cebpf4jnsgd1na2vs0mg"},{"bike_id":"28c478a7-0b7e-4b24-88a2-e28466cd2e5e","system_id":"levelo_inurba_marseille","lat":43.28356,"lon":5.38104,"is_reserved":false,"is_disabled":false,"rental_uris":{"android":"levelo://app?vid=28c478a7-0b7e-4b24-88a2-e28466cd2e5e","ios":"levelo://app?vid=28c478a7-0b7e-4b24-88a2-e28466cd2e5e"},"vehicle_type_id":"4","last_reported":1746050940,"current_range_meters":17200,"station_id":"ce4bh412rcd13ifvqdr0","pricing_plan_id":"cebpf4jnsgd1na2vs0mg"},{"bike_id":"6747bfd4-5fea-47ec-8dd2-8008999e2e36","system_id":"levelo_inurba_marseille","lat":43.29532,"lon":5.39406,"is_reserved":false,"is_disabled":false,"rental_uris":{"android":"levelo://app?vid=6747bfd4-5fea-47ec-8dd2-8008999e2e36","ios":"levelo://app?vid=6747bfd4-5fea-47ec-8dd2-8008999e2e36"},"vehicle_type_id":"4","last_reported":1746050940,"current_range_meters":16800,"station_id":"ce4bh292rcd13ifvqdf0","pricing_plan_id":"cebpf4jnsgd1na2vs0mg"},{"bike_id":"b89af027-08a6-4c10-aa2f-073d7911af6d","system_id":"levelo_inurba_marseille","lat":43.3061,"lon":5.37206,"is_reserved":false,"is_disabled":false,"rental_uris":{"android":"levelo://app?vid=b89af027-08a6-4c10-aa2f-073d7911af6d","ios":"levelo://app?vid=b89af027-08a6-4c10-aa2f-073d7911af6d"},"vehicle_type_id":"4","last_reported":1746050940,"current_range_meters":17200,"station_id":"ce4bgqh2rcd13ifvqc4g","pricing_plan_id":"cebpf4jnsgd1na2vs0mg"},{"bike_id":"02da72de-37d7-49a7-a585-e585aa826501","system_id":"levelo_inurba_marseille","lat":43.29044,"lon":5.35921,"is_reserved":false,"is_disabled":false,"rental_uris":{"android":"levelo://app?vid=02da72de-37d7-49a7-a585-e585aa826501","ios":"levelo://app?vid=02da72de-37d7-49a7-a585-e585aa826501"},"vehicle_type_id":"4","last_reported":1746050940,"current_range_meters":16800,"station_id":"ce4bha92rcd13ifvqeg0","pricing_plan_id":"cebpf4jnsgd1na2vs0mg"},{"bike_id":"367fdc0d-6ae3-4e68-a05e-496770277cf1","system_id":"levelo_inurba_marseille","lat":43.29871,"lon":5.38914,"is_reserved":false,"is_disabled":false,"rental_uris":{"android":"levelo://app?vid=367fdc0d-6ae3-4e68-a05e-496770277cf1","ios":"levelo://app?vid=367fdc0d-6ae3-4e68-a05e-496770277cf1"},"vehicle_type_id":"4","last_reported":1746050940,"current_range_meters":17200,"station_id":"ce4bh392rcd13ifvqdl0","pricing_plan_id":"cebpf4jnsgd1na2vs0mg"},{"bike_id":"e14f59a5-0222-4844-97b7-07de15de0abb","system_id":"levelo_inurba_marseille","lat":43.30599,"lon":5.37213,"is_reserved":false,"is_disabled":false,"rental_uris":{"android":"levelo://app?vid=e14f59a5-0222-4844-97b7-07de15de0abb","ios":"levelo://app?vid=e14f59a5-0222-4844-97b7-07de15de0abb"},"vehicle_type_id":"4","last_reported":1746050940,"current_range_meters":17200,"station_id":"ce4bgqh2rcd13ifvqc4g","pricing_plan_id":"cebpf4jnsgd1na2vs0mg"},{"bike_id":"51fab5ef-a00d-4e32-90af-91019d86dee9","system_id":"levelo_inurba_marseille","lat":43.31991,"lon":5.38142,"is_reserved":false,"is_disabled":true,"rental_uris":{"android":"levelo://app?vid=51fab5ef-a00d-4e32-90af-91019d86dee9","ios":"levelo://app?vid=51fab5ef-a00d-4e32-90af-91019d86dee9"},"vehicle_type_id":"4","last_reported":1746050940,"current_range_meters":17200,"station_id":"ce4bhr12rcd13ifvqhpg","pricing_plan_id":"cebpf4jnsgd1na2vs0mg"},{"bike_id":"ed9fd33a-bb57-4391-9d70-dc7fa7edb81f","system_id":"levelo_inurba_marseille","lat":43.29269,"lon":5.37617,"is_reserved":false,"is_disabled":false,"rental_uris":{"android":"levelo://app?vid=ed9fd33a-bb57-4391-9d70-dc7fa7edb81f","ios":"levelo://app?vid=ed9fd33a-bb57-4391-9d70-dc7fa7edb81f"},"vehicle_type_id":"4","last_reported":1746050940,"current_range_meters":17200,"station_id":"ce4bgi12rcd13ifvqb80","pricing_plan_id":"cebpf4jnsgd1na2vs0mg"},{"bike_id":"cc8e22bf-8002-4132-88d5-03764903a777","system_id":"levelo_inurba_marseille","lat":43.30136,"lon":5.39852,"is_reserved":false,"is_disabled":false,"rental_uris":{"android":"levelo://app?vid=cc8e22bf-8002-4132-88d5-03764903a777","ios":"levelo://app?vid=cc8e22bf-8002-4132-88d5-03764903a777"},"vehicle_type_id":"4","last_reported":1746050940,"current_range_meters":17200,"station_id":"ce4bh0h2rcd13ifvqd40","pricing_plan_id":"cebpf4jnsgd1na2vs0mg"},{"bike_id":"3ded7a41-ced1-4ad5-adb2-c2df2e3cd232","system_id":"levelo_inurba_marseille","lat":43.29437,"lon":5.38614,"is_reserved":false,"is_disabled":false,"rental_uris":{"android":"levelo://app?vid=3ded7a41-ced1-4ad5-adb2-c2df2e3cd232","ios":"levelo://app?vid=3ded7a41-ced1-4ad5-adb2-c2df2e3cd232"},"vehicle_type_id":"4","last_reported":1746050940,"current_range_meters":17200,"station_id":"ce4bh2h2rcd13ifvqdh0","pricing_plan_id":"cebpf4jnsgd1na2vs0mg"},{"bike_id":"dc2dfdc7-73a2-4f18-837a-0677b3a23fbe","system_id":"levelo_inurba_marseille","lat":43.33582,"lon":5.40995,"is_reserved":false,"is_disabled":false,"rental_uris":{"android":"levelo://app?vid=dc2dfdc7-73a2-4f18-837a-0677b3a23fbe","ios":"levelo://app?vid=dc2dfdc7-73a2-4f18-837a-0677b3a23fbe"},"vehicle_type_id":"4","last_reported":1746050940,"current_range_meters":17200,"station_id":"ce4bhqh2rcd13ifvqhmg","pricing_plan_id":"cebpf4jnsgd1na2vs0mg"},{"bike_id":"a58aa7bb-9b75-40be-b3a8-83ce5caac509","system_id":"levelo_inurba_marseille","lat":43.30805,"lon":5.38156,"is_reserved":false,"is_disabled":false,"rental_uris":{"android":"levelo://app?vid=a58aa7bb-9b75-40be-b3a8-83ce5caac509","ios":"levelo://app?vid=a58aa7bb-9b75-40be-b3a8-83ce5caac509"},"vehicle_type_id":"4","last_reported":1746050940,"current_range_meters":17600,"station_id":"ce4bgt12rcd13ifvqce0","pricing_plan_id":"cebpf4jnsgd1na2vs0mg"},{"bike_id":"5529f5b4-47fa-488a-9c59-c8e06a4456b4","system_id":"levelo_inurba_marseille","lat":43.28453,"lon":5.35881,"is_reserved":false,"is_disabled":false,"rental_uris":{"android":"levelo://app?vid=5529f5b4-47fa-488a-9c59-c8e06a4456b4","ios":"levelo://app?vid=5529f5b4-47fa-488a-9c59-c8e06a4456b4"},"vehicle_type_id":"4","last_reported":1746050940,"current_range_meters":17600,"station_id":"ce4bhah2rcd13ifvqei0","pricing_plan_id":"cebpf4jnsgd1na2vs0mg"},{"bike_id":"d59f2b05-8dd3-4535-988e-5f1b35cc976a","system_id":"levelo_inurba_marseille","lat":43.28716,"lon":5.39955,"is_reserved":false,"is_disabled":false,"rental_uris":{"android":"levelo://app?vid=d59f2b05-8dd3-4535-988e-5f1b35cc976a","ios":"levelo://app?vid=d59f2b05-8dd3-4535-988e-5f1b35cc976a"},"vehicle_type_id":"4","last_reported":1746050940,"current_range_meters":16800,"station_id":"ce4bho92rcd13ifvqh3g","pricing_plan_id":"cebpf4jnsgd1na2vs0mg"},{"bike_id":"c6704ae8-c9e9-40ed-964f-a1e24e0ab4d5","system_id":"levelo_inurba_marseille","lat":43.30304,"lon":5.36882,"is_reserved":false,"is_disabled":false,"rental_uris":{"android":"levelo://app?vid=c6704ae8-c9e9-40ed-964f-a1e24e0ab4d5","ios":"levelo://app?vid=c6704ae8-c9e9-40ed-964f-a1e24e0ab4d5"},"vehicle_type_id":"4","last_reported":1746050940,"current_range_meters":17200,"station_id":"ce4bgqh2rcd13ifvqc5g","pricing_plan_id":"cebpf4jnsgd1na2vs0mg"},{"bike_id":"3d242acb-1e7f-49f8-bd8f-8d6eb2ba9121","system_id":"levelo_inurba_marseille","lat":43.28101,"lon":5.37834,"is_reserved":false,"is_disabled":false,"rental_uris":{"android":"levelo://app?vid=3d242acb-1e7f-49f8-bd8f-8d6eb2ba9121","ios":"levelo://app?vid=3d242acb-1e7f-49f8-bd8f-8d6eb2ba9121"},"vehicle_type_id":"4","last_reported":1746050940,"current_range_meters":17600,"station_id":"ce4bha12rcd13ifvqee0","pricing_plan_id":"cebpf4jnsgd1na2vs0mg"},{"bike_id":"88d19297-d51e-432b-a3a2-ed6eff8b0ec5","system_id":"levelo_inurba_marseille","lat":43.28682,"lon":5.387332,"is_reserved":false,"is_disabled":false,"rental_uris":{"android":"levelo://app?vid=88d19297-d51e-432b-a3a2-ed6eff8b0ec5","ios":"levelo://app?vid=88d19297-d51e-432b-a3a2-ed6eff8b0ec5"},"vehicle_type_id":"4","last_reported":1746050940,"current_range_meters":18000,"station_id":"ce4bh392rcd13ifvqdm0","pricing_plan_id":"cebpf4jnsgd1na2vs0mg"},{"bike_id":"862fd2ed-345b-44a0-8887-dd8efd4dfe5e","system_id":"levelo_inurba_marseille","lat":43.285711,"lon":5.395015,"is_reserved":false,"is_disabled":false,"rental_uris":{"android":"levelo://app?vid=862fd2ed-345b-44a0-8887-dd8efd4dfe5e","ios":"levelo://app?vid=862fd2ed-345b-44a0-8887-dd8efd4dfe5e"},"vehicle_type_id":"4","last_reported":1746050940,"current_range_meters":18000,"station_id":"ce4bh292rcd13ifvqdg0","pricing_plan_id":"cebpf4jnsgd1na2vs0mg"},{"bike_id":"b1b4d74f-092b-476b-abae-f60870c92748","system_id":"levelo_inurba_marseille","lat":43.25097,"lon":5.39527,"is_reserved":false,"is_disabled":false,"rental_uris":{"android":"levelo://app?vid=b1b4d74f-092b-476b-abae-f60870c92748","ios":"levelo://app?vid=b1b4d74f-092b-476b-abae-f60870c92748"},"vehicle_type_id":"4","last_reported":1746050940,"current_range_meters":18000,"station_id":"ce4bhm12rcd13ifvqgkg","pricing_plan_id":"cebpf4jnsgd1na2vs0mg"},{"bike_id":"949cfdb8-5645-42a3-99bf-e68384f69f7c","system_id":"levelo_inurba_marseille","lat":43.2953,"lon":5.38543,"is_reserved":false,"is_disabled":false,"rental_uris":{"android":"levelo://app?vid=949cfdb8-5645-42a3-99bf-e68384f69f7c","ios":"levelo://app?vid=949cfdb8-5645-42a3-99bf-e68384f69f7c"},"vehicle_type_id":"4","last_reported":1746050940,"current_range_meters":18000,"station_id":"ce4bgih2rcd13ifvqba0","pricing_plan_id":"cebpf4jnsgd1na2vs0mg"},{"bike_id":"5a92311b-afc6-484e-ba35-449afe75ce34","system_id":"levelo_inurba_marseille","lat":43.29769,"lon":5.38113,"is_reserved":false,"is_disabled":true,"rental_uris":{"android":"levelo://app?vid=5a92311b-afc6-484e-ba35-449afe75ce34","ios":"levelo://app?vid=5a92311b-afc6-484e-ba35-449afe75ce34"},"vehicle_type_id":"4","last_reported":1746050940,"current_range_meters":18000,"station_id":"ce4bgip2rcd13ifvqbb0","pricing_plan_id":"cebpf4jnsgd1na2vs0mg"},{"bike_id":"7a1911cc-e5e3-4e4d-bed3-1bdfa9b787b2","system_id":"levelo_inurba_marseille","lat":43.26058,"lon":5.39398,"is_reserved":false,"is_disabled":false,"rental_uris":{"android":"levelo://app?vid=7a1911cc-e5e3-4e4d-bed3-1bdfa9b787b2","ios":"levelo://app?vid=7a1911cc-e5e3-4e4d-bed3-1bdfa9b787b2"},"vehicle_type_id":"4","last_reported":1746050940,"current_range_meters":18000,"station_id":"ce4bhh92rcd13ifvqfj0","pricing_plan_id":"cebpf4jnsgd1na2vs0mg"},{"bike_id":"51a5e045-97e9-43a4-b9f0-40b340753da1","system_id":"levelo_inurba_marseille","lat":43.308815,"lon":5.396448,"is_reserved":false,"is_disabled":false,"rental_uris":{"android":"levelo://app?vid=51a5e045-97e9-43a4-b9f0-40b340753da1","ios":"levelo://app?vid=51a5e045-97e9-43a4-b9f0-40b340753da1"},"vehicle_type_id":"4","last_reported":1746050940,"current_range_meters":18000,"station_id":"ce4bh012rcd13ifvqcv0","pricing_plan_id":"cebpf4jnsgd1na2vs0mg"},{"bike_id":"233c582a-8cf4-4564-8af7-c957efbd81ae","system_id":"levelo_inurba_marseille","lat":43.26558,"lon":5.37281,"is_reserved":false,"is_disabled":false,"rental_uris":{"android":"levelo://app?vid=233c582a-8cf4-4564-8af7-c957efbd81ae","ios":"levelo://app?vid=233c582a-8cf4-4564-8af7-c957efbd81ae"},"vehicle_type_id":"4","last_reported":1746050940,"current_range_meters":18000,"station_id":"ce4bhg12rcd13ifvqf70","pricing_plan_id":"cebpf4jnsgd1na2vs0mg"},{"bike_id":"ee796bf5-dfa2-4fd6-a6ce-9789629742f6","system_id":"levelo_inurba_marseille","lat":43.28159,"lon":5.4263,"is_reserved":false,"is_disabled":false,"rental_uris":{"android":"levelo://app?vid=ee796bf5-dfa2-4fd6-a6ce-9789629742f6","ios":"levelo://app?vid=ee796bf5-dfa2-4fd6-a6ce-9789629742f6"},"vehicle_type_id":"4","last_reported":1746050940,"current_range_meters":17600,"station_id":"ce4bhnh2rcd13ifvqgug","pricing_plan_id":"cebpf4jnsgd1na2vs0mg"},{"bike_id":"c9f1e898-b9ae-4459-b700-c95b5bd5aa44","system_id":"levelo_inurba_marseille","lat":43.30309,"lon":5.39205,"is_reserved":false,"is_disabled":false,"rental_uris":{"android":"levelo://app?vid=c9f1e898-b9ae-4459-b700-c95b5bd5aa44","ios":"levelo://app?vid=c9f1e898-b9ae-4459-b700-c95b5bd5aa44"},"vehicle_type_id":"4","last_reported":1746050940,"current_range_meters":17600,"station_id":"ce4bgkh2rcd13ifvqbk0","pricing_plan_id":"cebpf4jnsgd1na2vs0mg"},{"bike_id":"ed54fc85-4f68-4a61-b5a6-0ca0fb867416","system_id":"levelo_inurba_marseille","lat":43.3137,"lon":5.38494,"is_reserved":false,"is_disabled":false,"rental_uris":{"android":"levelo://app?vid=ed54fc85-4f68-4a61-b5a6-0ca0fb867416","ios":"levelo://app?vid=ed54fc85-4f68-4a61-b5a6-0ca0fb867416"},"vehicle_type_id":"4","last_reported":1746050940,"current_range_meters":18000,"station_id":"ce4bgt92rcd13ifvqcf0","pricing_plan_id":"cebpf4jnsgd1na2vs0mg"},{"bike_id":"c8581763-0ce2-4bab-ab9e-b4108eaa2ed7","system_id":"levelo_inurba_marseille","lat":43.32348,"lon":5.3887,"is_reserved":false,"is_disabled":false,"rental_uris":{"android":"levelo://app?vid=c8581763-0ce2-4bab-ab9e-b4108eaa2ed7","ios":"levelo://app?vid=c8581763-0ce2-4bab-ab9e-b4108eaa2ed7"},