{"last_updated":1751756977,"ttl":60,"version":"2.2","data":{"bikes":[{"bike_id":"3da29fb8-fc97-44c6-b9ac-31dd456b2fd4","system_id":"levelo_inurba_marseille","lat":43.33771,"lon":5.37424,"is_reserved":false,"is_disabled":true,"rental_uris":{"android":"levelo://app?vid=3da29fb8-fc97-44c6-b9ac-31dd456b2fd4","ios":"levelo://app?vid=3da29fb8-fc97-44c6-b9ac-31dd456b2fd4"},"vehicle_type_id":"4","last_reported":1751756977,"current_range_meters":0,"station_id":"","pricing_plan_id":"cebpf4jnsgd1na2vs0mg"},{"bike_id":"01861ad8-a8d7-4be6-816e-651927c87584","system_id":"levelo_inurba_marseille","lat":43.33751,"lon":5.37456,"is_reserved":false,"is_disabled":true,"rental_uris":{"android":"levelo://app?vid=01861ad8-a8d7-4be6-816e-651927c87584","ios":"levelo://app?vid=01861ad8-a8d7-4be6-816e-651927c87584"},"vehicle_type_id":"4","last_reported":1751756977,"current_range_meters":0,"station_id":"","pricing_plan_id":"cebpf4jnsgd1na2vs0mg"},{"bike_id":"6ab681e5-d25a-428f-824b-a23bdde9ea95","system_id":"levelo_inurba_marseille","lat":43.29608,"lon":5.37006,"is_reserved":false,"is_disabled":true,"rental_uris":{"android":"levelo://app?vid=6ab681e5-d25a-428f-824b-a23bdde9ea95","ios":"levelo://app?vid=6ab681e5-d25a-428f-824b-a23bdde9ea95"},"vehicle_type_id":"4","last_reported":1751756977,"current_range_meters":0,"station_id":"","pricing_plan_id":"cebpf4jnsgd1na2vs0mg"},{"bike_id":"cddb5251-270f-404e-b73c-121bbad16e06","system_id":"levelo_inurba_marseille","lat":43.31203,"lon":5.38656,"is_reserved":false,"is_disabled":true,"rental_uris":{"android":"levelo://app?vid=cddb5251-270f-404e-b73c-121bbad16e06","ios":"levelo://app?vid=cddb5251-270f-404e-b73c-121bbad16e06"},"vehicle_type_id":"4","last_reported":1751756977,"current_range_meters":0,"station_id":"","pricing_plan_id":"cebpf4jnsgd1na2vs0mg"},{"bike_id":"48b47ef6-8eef-4577-8012-85f3dd71899b","system_id":"levelo_inurba_marseille","lat":43.30213,"lon":5.39962,"is_reserved":false,"is_disabled":true,"rental_uris":{"android":"levelo://app?vid=48b47ef6-8eef-4577-8012-85f3dd71899b","ios":"levelo://app?vid=48b47ef6-8eef-4577-8012-85f3dd71899b"},"vehicle_type_id":"4","last_reported":1751756977,"current_range_meters":0,"station_id":"","pricing_plan_id":"cebpf4jnsgd1na2vs0mg"},{"bike_id":"1c57a3c7-1fe2-49b4-93b2-29842e960d9b","system_id":"levelo_inurba_marseille","lat":43.253191,"lon":5.3802,"is_reserved":false,"is_disabled":true,"rental_uris":{"android":"levelo://app?vid=1c57a3c7-1fe2-49b4-93b2-29842e960d9b","ios":"levelo://app?vid=1c57a3c7-1fe2-49b4-93b2-29842e960d9b"},"vehicle_type_id":"4","last_reported":1751756977,"current_range_meters":0,"station_id":"","pricing_plan_id":"cebpf4jnsgd1na2vs0mg"},{"bike_id":"ac88a006-2be6-4197-b278-d14985c64a70","system_id":"levelo_inurba_marseille","lat":43.309303,"lon":5.401458,"is_reserved":false,"is_disabled":true,"rental_uris":{"android":"levelo://app?vid=ac88a006-2be6-4197-b278-d14985c64a70","ios":"levelo://app?vid=ac88a006-2be6-4197-b278-d14985c64a70"},"vehicle_type_id":"4","last_reported":1751756977,"current_range_meters":0,"station_id":"ce4bgvp2rcd13ifvqct0","pricing_plan_id":"cebpf4jnsgd1na2vs0mg"},{"bike_id":"5240e08b-5c3c-46db-b468-bc09499746d4","system_id":"levelo_inurba_marseille","lat":43.28607,"lon":5.35122,"is_reserved":false,"is_disabled":true,"rental_uris":{"android":"levelo://app?vid=5240e08b-5c3c-46db-b468-bc09499746d4","ios":"levelo://app?vid=5240e08b-5c3c-46db-b468-bc09499746d4"},"vehicle_type_id":"4","last_reported":1751756977,"current_range_meters":0,"station_id":"ce4bhch2rcd13ifvqeug","pricing_plan_id":"cebpf4jnsgd1na2vs0mg"},{"bike_id":"08b443a0-e0a9-4c3e-bb70-b3b2ad931f2d","system_id":"levelo_inurba_marseille","lat":43.2655,"lon":5.37344,"is_reserved":false,"is_disabled":true,"rental_uris":{"android":"levelo://app?vid=08b443a0-e0a9-4c3e-bb70-b3b2ad931f2d","ios":"levelo://app?vid=08b443a0-e0a9-4c3e-bb70-b3b2ad931f2d"},"vehicle_type_id":"4","last_reported":1751756977,"current_range_meters":0,"station_id":"ce4bhg12rcd13ifvqf70","pricing_plan_id":"cebpf4jnsgd1na2vs0mg"},{"bike_id":"e4f518f1-f959-45ca-a3e5-0fc0505ca563","system_id":"levelo_inurba_marseille","lat":43.24173,"lon":5.36395,"is_reserved":false,"is_disabled":true,"rental_uris":{"android":"levelo://app?vid=e4f518f1-f959-45ca-a3e5-0fc0505ca563","ios":"levelo://app?vid=e4f518f1-f959-45ca-a3e5-0fc0505ca563"},"vehicle_type_id":"4","last_reported":1751756977,"current_range_meters":0,"station_id":"cpo36qri1sfpv3e86is0","pricing_plan_id":"cebpf4jnsgd1na2vs0mg"},{"bike_id":"0c49a7d6-f9db-4a6c-978f-71d3ca86d4a3","system_id":"levelo_inurba_marseille","lat":43.22509,"lon":5.3478,"is_reserved":false,"is_disabled":true,"rental_uris":{"android":"levelo://app?vid=0c49a7d6-f9db-4a6c-978f-71d3ca86d4a3","ios":"levelo://app?vid=0c49a7d6-f9db-4a6c-978f-71d3ca86d4a3"},"vehicle_type_id":"4","last_reported":1751756977,"current_range_meters":0,"station_id":"st_cvj5dfep6f1abm77gieg","pricing_plan_id":"cebpf4jnsgd1na2vs0mg"},{"bike_id":"9bfc7d3d-4e60-4f8a-9c32-ef3d0e77ec5b","system_id":"levelo_inurba_marseille","lat":43.21182,"lon":5.35098,"is_reserved":false,"is_disabled":true,"rental_uris":{"android":"levelo://app?vid=9bfc7d3d-4e60-4f8a-9c32-ef3d0e77ec5b","ios":"levelo://app?vid=9bfc7d3d-4e60-4f8a-9c32-ef3d0e77ec5b"},"vehicle_type_id":"4","last_reported":1751756977,"current_range_meters":400,"station_id":"st_cvj6sg6p6f1abm77japg","pricing_plan_id":"cebpf4jnsgd1na2vs0mg"},{"bike_id":"580c02cd-3628-4ebc-9561-33ae3eda1731","system_id":"levelo_inurba_marseille","lat":43.2942,"lon":5.38608,"is_reserved":false,"is_disabled":true,"rental_uris":{"android":"levelo://app?vid=580c02cd-3628-4ebc-9561-33ae3eda1731","ios":"levelo://app?vid=580c02cd-3628-4ebc-9561-33ae3eda1731"},"vehicle_type_id":"4","last_reported":1751756977,"current_range_meters":800,"station_id":"ce4bh2h2rcd13ifvqdh0","pricing_plan_id":"cebpf4jnsgd1na2vs0mg"},{"bike_id":"cbf02b56-1ad3-4618-8b49-86fd31d1c631","system_id":"levelo_inurba_marseille","lat":43.25117,"lon":5.4032,"is_reserved":false,"is_disabled":true,"rental_uris":{"android":"levelo://app?vid=cbf02b56-1ad3-4618-8b49-86fd31d1c631","ios":"levelo://app?vid=cbf02b56-1ad3-4618-8b49-86fd31d1c631"},"vehicle_type_id":"4","last_reported":1751756977,"current_range_meters":800,"station_id":"ce4bhlh2rcd13ifvqgig","pricing_plan_id":"cebpf4jnsgd1na2vs0mg"},{"bike_id":"e8f8a8a6-9ab5-4b58-bbd4-ba54da9558cd","system_id":"levelo_inurba_marseille","lat":43.27983,"lon":5.41657,"is_reserved":false,"is_disabled":true,"rental_uris":{"android":"levelo://app?vid=e8f8a8a6-9ab5-4b58-bbd4-ba54da9558cd","ios":"levelo://app?vid=e8f8a8a6-9ab5-4b58-bbd4-ba54da9558cd"},"vehicle_type_id":"4","last_reported":1751756977,"current_range_meters":800,"station_id":"ce4bho12rcd13ifvqh1g","pricing_plan_id":"cebpf4jnsgd1na2vs0mg"},{"bike_id":"cfdb3c12-09a8-4115-8675-5edc7a534127","system_id":"levelo_inurba_marseille","lat":43.29301,"lon":5.37454,"is_reserved":false,"is_disabled":true,"rental_uris":{"android":"levelo://app?vid=cfdb3c12-09a8-4115-8675-5edc7a534127","ios":"levelo://app?vid=cfdb3c12-09a8-4115-8675-5edc7a534127"},"vehicle_type_id":"4","last_reported":1751756977,"current_range_meters":1200,"station_id":"ce4bgi12rcd13ifvqb70","pricing_plan_id":"cebpf4jnsgd1na2vs0mg"},{"bike_id":"cd3f1456-c1b7-4a2f-bbcd-e8ccaefb6b7f","system_id":"levelo_inurba_marseille","lat":43.29709,"lon":5.36592,"is_reserved":false,"is_disabled":true,"rental_uris":{"android":"levelo://app?vid=cd3f1456-c1b7-4a2f-bbcd-e8ccaefb6b7f","ios":"levelo://app?vid=cd3f1456-c1b7-4a2f-bbcd-e8ccaefb6b7f"},"vehicle_type_id":"4","last_reported":1751756977,"current_range_meters":1200,"station_id":"ce4bgn12rcd13ifvqbt0","pricing_plan_id":"cebpf4jnsgd1na2vs0mg"},{"bike_id":"4e1a1ca3-a09b-41ea-b13b-156e7004c311","system_id":"levelo_inurba_marseille","lat":43.28448,"lon":5.34961,"is_reserved":false,"is_disabled":true,"rental_uris":{"android":"levelo://app?vid=4e1a1ca3-a09b-41ea-b13b-156e7004c311","ios":"levelo://app?vid=4e1a1ca3-a09b-41ea-b13b-156e7004c311"},"vehicle_type_id":"4","last_reported":1751756977,"current_range_meters":1200,"station_id":"ce4bhbh2rcd13ifvqepg","pricing_plan_id":"cebpf4jnsgd1na2vs0mg"},{"bike_id":"4dd83934-63f9-476f-bd4a-e107db13f320","system_id":"levelo_inurba_marseille","lat":43.28959,"lon":5.36397,"is_reserved":false,"is_disabled":true,"rental_uris":{"android":"levelo://app?vid=4dd83934-63f9-476f-bd4a-e107db13f320","ios":"levelo://app?vid=4dd83934-63f9-476f-bd4a-e107db13f320"},"vehicle_type_id":"4","last_reported":1751756977,"current_range_meters":1200,"station_id":"ce4bhc92rcd13ifvqetg","pricing_plan_id":"cebpf4jnsgd1na2vs0mg"},{"bike_id":"305c4d12-7aa7-48b9-847b-016ee3d0961c","system_id":"levelo_inurba_marseille","lat":43.26195,"lon":5.37458,"is_reserved":false,"is_disabled":true,"rental_uris":{"android":"levelo://app?vid=305c4d12-7aa7-48b9-847b-016ee3d0961c","ios":"levelo://app?vid=305c4d12-7aa7-48b9-847b-016ee3d0961c"},"vehicle_type_id":"4","last_reported":1751756977,"current_range_meters":1200,"station_id":"ce4bhgp2rcd13ifvqfc0","pricing_plan_id":"cebpf4jnsgd1na2vs0mg"},{"bike_id":"80d130ed-d945-46c4-8953-04ce7c1dc47c","system_id":"levelo_inurba_marseille","lat":43.2621,"lon":5.37441,"is_reserved":false,"is_disabled":true,"rental_uris":{"android":"levelo://app?vid=80d130ed-d945-46c4-8953-04ce7c1dc47c","ios":"levelo://app?vid=80d130ed-d945-46c4-8953-04ce7c1dc47c"},"vehicle_type_id":"4","last_reported":1751756977,"current_range_meters":1200,"station_id":"ce4bhgp2rcd13ifvqfc0","pricing_plan_id":"cebpf4jnsgd1na2vs0mg"},{"bike_id":"dd1a50e6-a860-45be-8d54-545ce66680e9","system_id":"levelo_inurba_marseille","lat":43.24168,"lon":5.36395,"is_reserved":false,"is_disabled":true,"rental_uris":{"android":"levelo://app?vid=dd1a50e6-a860-45be-8d54-545ce66680e9","ios":"levelo://app?vid=dd1a50e6-a860-45be-8d54-545ce66680e9"},"vehicle_type_id":"4","last_reported":1751756977,"current_range_meters":1200,"station_id":"cpo36qri1sfpv3e86is0","pricing_plan_id":"cebpf4jnsgd1na2vs0mg"},{"bike_id":"8d4accf4-8c7a-4f64-8068-7b7561ef1695","system_id":"levelo_inurba_marseille","lat":43.30928,"lon":5.40151,"is_reserved":false,"is_disabled":true,"rental_uris":{"android":"levelo://app?vid=8d4accf4-8c7a-4f64-8068-7b7561ef1695","ios":"levelo://app?vid=8d4accf4-8c7a-4f64-8068-7b7561ef1695"},"vehicle_type_id":"4","last_reported":1751756977,"current_range_meters":1600,"station_id":"ce4bgvp2rcd13ifvqct0","pricing_plan_id":"cebpf4jnsgd1na2vs0mg"},{"bike_id":"d1444e94-489f-4fa9-9e06-4bdf6ba47149","system_id":"levelo_inurba_marseille","lat":43.22502,"lon":5.34795,"is_reserved":false,"is_disabled":true,"rental_uris":{"android":"levelo://app?vid=d1444e94-489f-4fa9-9e06-4bdf6ba47149","ios":"levelo://app?vid=d1444e94-489f-4fa9-9e06-4bdf6ba47149"},"vehicle_type_id":"4","last_reported":1751756977,"current_range_meters":1600,"station_id":"st_cvj5dfep6f1abm77gieg","pricing_plan_id":"cebpf4jnsgd1na2vs0mg"},{"bike_id":"49ad882e-92c6-42a6-bbc4-6416ec17addd","system_id":"levelo_inurba_marseille","lat":43.305328,"lon":5.384241,"is_reserved":false,"is_disabled":false,"rental_uris":{"android":"levelo://app?vid=49ad882e-92c6-42a6-bbc4-6416ec17addd","ios":"levelo://app?vid=49ad882e-92c6-42a6-bbc4-6416ec17addd"},"vehicle_type_id":"4","last_reported":1751756977,"current_range_meters":2800,"station_id":"ce4bgg92rcd13ifvqb30","pricing_plan_id":"cebpf4jnsgd1na2vs0mg"},{"bike_id":"19b38bc0-3344-4a75-8252-deb64f805974","system_id":"levelo_inurba_marseille","lat":43.2927,"lon":5.40136,"is_reserved":false,"is_disabled":false,"rental_uris":{"android":"levelo://app?vid=19b38bc0-3344-4a75-8252-deb64f805974","ios":"levelo://app?vid=19b38bc0-3344-4a75-8252-deb64f805974"},"vehicle_type_id":"4","last_reported":1751756977,"current_range_meters":2800,"station_id":"ce4bh312rcd13ifvqdk0","pricing_plan_id":"cebpf4jnsgd1na2vs0mg"},{"bike_id":"39693fb7-b118-419f-a5b0-5cc374a772ee","system_id":"levelo_inurba_marseille","lat":43.28466,"lon":5.38439,"is_reserved":false,"is_disabled":false,"rental_uris":{"android":"levelo://app?vid=39693fb7-b118-419f-a5b0-5cc374a772ee","ios":"levelo://app?vid=39693fb7-b118-419f-a5b0-5cc374a772ee"},"vehicle_type_id":"4","last_reported":1751756977,"current_range_meters":2800,"station_id":"ce4bh512rcd13ifvqe3g","pricing_plan_id":"cebpf4jnsgd1na2vs0mg"},{"bike_id":"5805d006-61a1-433b-8e97-3dfaec9e8cb3","system_id":"levelo_inurba_marseille","lat":43.25119,"lon":5.40316,"is_reserved":false,"is_disabled":false,"rental_uris":{"android":"levelo://app?vid=5805d006-61a1-433b-8e97-3dfaec9e8cb3","ios":"levelo://app?vid=5805d006-61a1-433b-8e97-3dfaec9e8cb3"},"vehicle_type_id":"4","last_reported":1751756977,"current_range_meters":2800,"station_id":"ce4bhlh2rcd13ifvqgig","pricing_plan_id":"cebpf4jnsgd1na2vs0mg"},{"bike_id":"10b5ba01-5680-4e63-a3a3-c6503d1eeb7b","system_id":"levelo_inurba_marseille","lat":43.29785,"lon":5.3811,"is_reserved":false,"is_disabled":false,"rental_uris":{"android":"levelo://app?vid=10b5ba01-5680-4e63-a3a3-c6503d1eeb7b","ios":"levelo://app?vid=10b5ba01-5680-4e63-a3a3-c6503d1eeb7b"},"vehicle_type_id":"4","last_reported":1751756977,"current_range_meters":3200,"station_id":"ce4bgip2rcd13ifvqbb0","pricing_plan_id":"cebpf4jnsgd1na2vs0mg"},{"bike_id":"31b665b7-9503-4118-a906-e6856634cd3a","system_id":"levelo_inurba_marseille","lat":43.31344,"lon":5.38493,"is_reserved":false,"is_disabled":false,"rental_uris":{"android":"levelo://app?vid=31b665b7-9503-4118-a906-e6856634cd3a","ios":"levelo://app?vid=31b665b7-9503-4118-a906-e6856634cd3a"},"vehicle_type_id":"4","last_reported":1751756977,"current_range_meters":3200,"station_id":"ce4bgt92rcd13ifvqcf0","pricing_plan_id":"cebpf4jnsgd1na2vs0mg"},{"bike_id":"820fe228-8a81-4f2c-8f51-a7fcba0bbebe","system_id":"levelo_inurba_marseille","lat":43.31126,"lon":5.37767,"is_reserved":false,"is_disabled":false,"rental_uris":{"android":"levelo://app?vid=820fe228-8a81-4f2c-8f51-a7fcba0bbebe","ios":"levelo://app?vid=820fe228-8a81-4f2c-8f51-a7fcba0bbebe"},"vehicle_type_id":"4","last_reported":1751756977,"current_range_meters":3200,"station_id":"ce4bgt92rcd13ifvqcg0","pricing_plan_id":"cebpf4jnsgd1na2vs0mg"},{"bike_id":"7092c43f-e7b0-4222-910a-c636837cd9b0","system_id":"levelo_inurba_marseille","lat":43.2844,"lon":5.39188,"is_reserved":false,"is_disabled":false,"rental_uris":{"android":"levelo://app?vid=7092c43f-e7b0-4222-910a-c636837cd9b0","ios":"levelo://app?vid=7092c43f-e7b0-4222-910a-c636837cd9b0"},"vehicle_type_id":"4","last_reported":1751756977,"current_range_meters":3200,"station_id":"ce4bhoh2rcd13ifvqh5g","pricing_plan_id":"cebpf4jnsgd1na2vs0mg"},{"bike_id":"64fc1c92-ff37-41bd-a336-99bf99460fa0","system_id":"levelo_inurba_marseille","lat":43.295323,"lon":5.385459,"is_reserved":false,"is_disabled":false,"rental_uris":{"android":"levelo://app?vid=64fc1c92-ff37-41bd-a336-99bf99460fa0","ios":"levelo://app?vid=64fc1c92-ff37-41bd-a336-99bf99460fa0"},"vehicle_type_id":"4","last_reported":1751756977,"current_range_meters":3600,"station_id":"","pricing_plan_id":"cebpf4jnsgd1na2vs0mg"},{"bike_id":"46fe1bf0-f25a-471c-b460-a3b1b94976ae","system_id":"levelo_inurba_marseille","lat":43.312277,"lon":5.368445,"is_reserved":false,"is_disabled":false,"rental_uris":{"android":"levelo://app?vid=46fe1bf0-f25a-471c-b460-a3b1b94976ae","ios":"levelo://app?vid=46fe1bf0-f25a-471c-b460-a3b1b94976ae"},"vehicle_type_id":"4","last_reported":1751756977,"current_range_meters":4000,"station_id":"ce4bgl92rcd13ifvqbq0","pricing_plan_id":"cebpf4jnsgd1na2vs0mg"},{"bike_id":"f00eb48d-4981-48df-8c48-a43158363332","system_id":"levelo_inurba_marseille","lat":43.3117,"lon":5.3871,"is_reserved":false,"is_disabled":false,"rental_uris":{"android":"levelo://app?vid=f00eb48d-4981-48df-8c48-a43158363332","ios":"levelo://app?vid=f00eb48d-4981-48df-8c48-a43158363332"},"vehicle_type_id":"4","last_reported":1751756977,"current_range_meters":4000,"station_id":"ce4bgv12rcd13ifvqcp0","pricing_plan_id":"cebpf4jnsgd1na2vs0mg"},{"bike_id":"2d9ac6d7-e871-4482-ba49-a2906b24e431","system_id":"levelo_inurba_marseille","lat":43.28342,"lon":5.38104,"is_reserved":false,"is_disabled":false,"rental_uris":{"android":"levelo://app?vid=2d9ac6d7-e871-4482-ba49-a2906b24e431","ios":"levelo://app?vid=2d9ac6d7-e871-4482-ba49-a2906b24e431"},"vehicle_type_id":"4","last_reported":1751756977,"current_range_meters":4400,"station_id":"ce4bh412rcd13ifvqdr0","pricing_plan_id":"cebpf4jnsgd1na2vs0mg"},{"bike_id":"e3e3a825-08ce-47d4-80ad-0831e0cc5c0a","system_id":"levelo_inurba_marseille","lat":43.290161,"lon":5.386458,"is_reserved":false,"is_disabled":false,"rental_uris":{"android":"levelo://app?vid=e3e3a825-08ce-47d4-80ad-0831e0cc5c0a","ios":"levelo://app?vid=e3e3a825-08ce-47d4-80ad-0831e0cc5c0a"},"vehicle_type_id":"4","last_reported":1751756977,"current_range_meters":4400,"station_id":"ce4bh4p2rcd13ifvqe0g","pricing_plan_id":"cebpf4jnsgd1na2vs0mg"},{"bike_id":"4143aee4-5bd8-4687-ac43-08608bb2cba3","system_id":"levelo_inurba_marseille","lat":43.323235,"lon":5.367784,"is_reserved":false,"is_disabled":false,"rental_uris":{"android":"levelo://app?vid=4143aee4-5bd8-4687-ac43-08608bb2cba3","ios":"levelo://app?vid=4143aee4-5bd8-4687-ac43-08608bb2cba3"},"vehicle_type_id":"4","last_reported":1751756977,"current_range_meters":4800,"station_id":"","pricing_plan_id":"cebpf4jnsgd1na2vs0mg"},{"bike_id":"d20b3406-c35b-4b42-95fc-b70101b15a10","system_id":"levelo_inurba_marseille","lat":43.27962,"lon":5.3874,"is_reserved":false,"is_disabled":false,"rental_uris":{"android":"levelo://app?vid=d20b3406-c35b-4b42-95fc-b70101b15a10","ios":"levelo://app?vid=d20b3406-c35b-4b42-95fc-b70101b15a10"},"vehicle_type_id":"4","last_reported":1751756977,"current_range_meters":4800,"station_id":"ce4bhg12rcd13ifvqf80","pricing_plan_id":"cebpf4jnsgd1na2vs0mg"},{"bike_id":"4a5202f4-258a-431c-ba84-05c1437f6cb4","system_id":"levelo_inurba_marseille","lat":43.2808,"lon":5.39664,"is_reserved":false,"is_disabled":false,"rental_uris":{"android":"levelo://app?vid=4a5202f4-258a-431c-ba84-05c1437f6cb4","ios":"levelo://app?vid=4a5202f4-258a-431c-ba84-05c1437f6cb4"},"vehicle_type_id":"4","last_reported":1751756977,"current_range_meters":4800,"station_id":"ce4bho12rcd13ifvqh2g","pricing_plan_id":"cebpf4jnsgd1na2vs0mg"},{"bike_id":"03ca0614-bb2f-4ccf-9211-f6c4cdc9f023","system_id":"levelo_inurba_marseille","lat":43.31892,"lon":5.40732,"is_reserved":false,"is_disabled":false,"rental_uris":{"android":"levelo://app?vid=03ca0614-bb2f-4ccf-9211-f6c4cdc9f023","ios":"levelo://app?vid=03ca0614-bb2f-4ccf-9211-f6c4cdc9f023"},"vehicle_type_id":"4","last_reported":1751756977,"current_range_meters":4800,"station_id":"ce4bhq12rcd13ifvqhig","pricing_plan_id":"cebpf4jnsgd1na2vs0mg"},{"bike_id":"7bf33de3-a539-45ce-a1dc-7634f699f4c5","system_id":"levelo_inurba_marseille","lat":43.26065,"lon":5.37364,"is_reserved":false,"is_disabled":false,"rental_uris":{"android":"levelo://app?vid=7bf33de3-a539-45ce-a1dc-7634f699f4c5","ios":"levelo://app?vid=7bf33de3-a539-45ce-a1dc-7634f699f4c5"},"vehicle_type_id":"4","last_reported":1751756977,"current_range_meters":5600,"station_id":"","pricing_plan_id":"cebpf4jnsgd1na2vs0mg"},{"bike_id":"ba154a12-11bd-42a5-958a-5992f5d043d1","system_id":"levelo_inurba_marseille","lat":43.305047,"lon":5.37095,"is_reserved":false,"is_disabled":false,"rental_uris":{"android":"levelo://app?vid=ba154a12-11bd-42a5-958a-5992f5d043d1","ios":"levelo://app?vid=ba154a12-11bd-42a5-958a-5992f5d043d1"},"vehicle_type_id":"4","last_reported":1751756977,"current_range_meters":5600,"station_id":"","pricing_plan_id":"cebpf4jnsgd1na2vs0mg"},{"bike_id":"c4ec2ded-02b9-4c52-9e31-96af95ecdbb6","system_id":"levelo_inurba_marseille","lat":43.28977,"lon":5.37835,"is_reserved":false,"is_disabled":false,"rental_uris":{"android":"levelo://app?vid=c4ec2ded-02b9-4c52-9e31-96af95ecdbb6","ios":"levelo://app?vid=c4ec2ded-02b9-4c52-9e31-96af95ecdbb6"},"vehicle_type_id":"4","last_reported":1751756977,"current_range_meters":5600,"station_id":"ce4bh9p2rcd13ifvqed0","pricing_plan_id":"cebpf4jnsgd1na2vs0mg"},{"bike_id":"a0c2efe2-fcf0-4ffb-aeef-62f40fe67d9c","system_id":"levelo_inurba_marseille","lat":43.284642,"lon":5.358848,"is_reserved":false,"is_disabled":false,"rental_uris":{"android":"levelo://app?vid=a0c2efe2-fcf0-4ffb-aeef-62f40fe67d9c","ios":"levelo://app?vid=a0c2efe2-fcf0-4ffb-aeef-62f40fe67d9c"},"vehicle_type_id":"4","last_reported":1751756977,"current_range_meters":5600,"station_id":"ce4bhah2rcd13ifvqei0","pricing_plan_id":"cebpf4jnsgd1na2vs0mg"},{"bike_id":"d13d9016-7c35-4095-a399-ac89fde82279","system_id":"levelo_inurba_marseille","lat":43.29341,"lon":5.38335,"is_reserved":false,"is_disabled":false,"rental_uris":{"android":"levelo://app?vid=d13d9016-7c35-4095-a399-ac89fde82279","ios":"levelo://app?vid=d13d9016-7c35-4095-a399-ac89fde82279"},"vehicle_type_id":"4","last_reported":1751756977,"current_range_meters":6000,"station_id":"","pricing_plan_id":"cebpf4jnsgd1na2vs0mg"},{"bike_id":"0c4b7fdb-b39e-49b3-a2b0-ae3d0f43e89d","system_id":"levelo_inurba_marseille","lat":43.3314,"lon":5.40679,"is_reserved":false,"is_disabled":false,"rental_uris":{"android":"levelo://app?vid=0c4b7fdb-b39e-49b3-a2b0-ae3d0f43e89d","ios":"levelo://app?vid=0c4b7fdb-b39e-49b3-a2b0-ae3d0f43e89d"},"vehicle_type_id":"4","last_reported":1751756977,"current_range_meters":6000,"station_id":"","pricing_plan_id":"cebpf4jnsgd1na2vs0mg"},{"bike_id":"bd304b4d-1b09-445d-b600-05586f634583","system_id":"levelo_inurba_marseille","lat":43.295594,"lon":5.381486,"is_reserved":false,"is_disabled":false,"rental_uris":{"android":"levelo://app?vid=bd304b4d-1b09-445d-b600-05586f634583","ios":"levelo://app?vid=bd304b4d-1b09-445d-b600-05586f634583"},"vehicle_type_id":"4","last_reported":1751756977,"current_range_meters":7200,"station_id":"","pricing_plan_id":"cebpf4jnsgd1na2vs0mg"},{"bike_id":"d320efcb-9ab5-4511-a37e-48c6debda3fb","system_id":"levelo_inurba_marseille","lat":43.313591,"lon":5.384868,"is_reserved":false,"is_disabled":false,"rental_uris":{"android":"levelo://app?vid=d320efcb-9ab5-4511-a37e-48c6debda3fb","ios":"levelo://app?vid=d320efcb-9ab5-4511-a37e-48c6debda3fb"},"vehicle_type_id":"4","last_reported":1751756977,"current_range_meters":7200,"station_id":"ce4bgt12rcd13ifvqce0","pricing_plan_id":"cebpf4jnsgd1na2vs0mg"},{"bike_id":"83911c45-d14e-412d-b0a8-69d457eee03c","system_id":"levelo_inurba_marseille","lat":43.29265,"lon":5.40901,"is_reserved":false,"is_disabled":false,"rental_uris":{"android":"levelo://app?vid=83911c45-d14e-412d-b0a8-69d457eee03c","ios":"levelo://app?vid=83911c45-d14e-412d-b0a8-69d457eee03c"},"vehicle_type_id":"4","last_reported":1751756977,"current_range_meters":7200,"station_id":"ce4bh192rcd13ifvqdc0","pricing_plan_id":"cebpf4jnsgd1na2vs0mg"},{"bike_id":"826f3fc7-6079-4cb3-919c-f73243bd34e6","system_id":"levelo_inurba_marseille","lat":43.29034,"lon":5.35915,"is_reserved":false,"is_disabled":false,"rental_uris":{"android":"levelo://app?vid=826f3fc7-6079-4cb3-919c-f73243bd34e6","ios":"levelo://app?vid=826f3fc7-6079-4cb3-919c-f73243bd34e6"},"vehicle_type_id":"4","last_reported":1751756977,"current_range_meters":7200,"station_id":"ce4bha92rcd13ifvqeg0","pricing_plan_id":"cebpf4jnsgd1na2vs0mg"},{"bike_id":"9fa3d6ba-178a-4b47-b29d-6e65ecf630f7","system_id":"levelo_inurba_marseille","lat":43.28841,"lon":5.35856,"is_reserved":false,"is_disabled":false,"rental_uris":{"android":"levelo://app?vid=9fa3d6ba-178a-4b47-b29d-6e65ecf630f7","ios":"levelo://app?vid=9fa3d6ba-178a-4b47-b29d-6e65ecf630f7"},"vehicle_type_id":"4","last_reported":1751756977,"current_range_meters":7200,"station_id":"ce4bhb12rcd13ifvqem0","pricing_plan_id":"cebpf4jnsgd1na2vs0mg"},{"bike_id":"99dc2ed8-0ef4-4564-91c3-3b533117c683","system_id":"levelo_inurba_marseille","lat":43.25105,"lon":5.40331,"is_reserved":false,"is_disabled":false,"rental_uris":{"android":"levelo://app?vid=99dc2ed8-0ef4-4564-91c3-3b533117c683","ios":"levelo://app?vid=99dc2ed8-0ef4-4564-91c3-3b533117c683"},"vehicle_type_id":"4","last_reported":1751756977,"current_range_meters":7200,"station_id":"ce4bhlh2rcd13ifvqgig","pricing_plan_id":"cebpf4jnsgd1na2vs0mg"},{"bike_id":"cb42095f-04dd-46c2-af39-3d71f7c38983","system_id":"levelo_inurba_marseille","lat":43.3171,"lon":5.43705,"is_reserved":false,"is_disabled":false,"rental_uris":{"android":"levelo://app?vid=cb42095f-04dd-46c2-af39-3d71f7c38983","ios":"levelo://app?vid=cb42095f-04dd-46c2-af39-3d71f7c38983"},"vehicle_type_id":"4","last_reported":1751756977,"current_range_meters":7200,"station_id":"ce4bhp92rcd13ifvqhcg","pricing_plan_id":"cebpf4jnsgd1na2vs0mg"},{"bike_id":"a99366c4-96aa-4b0c-98dc-1fd6afaba80b","system_id":"levelo_inurba_marseille","lat":43.30881,"lon":5.39642,"is_reserved":false,"is_disabled":false,"rental_uris":{"android":"levelo://app?vid=a99366c4-96aa-4b0c-98dc-1fd6afaba80b","ios":"levelo://app?vid=a99366c4-96aa-4b0c-98dc-1fd6afaba80b"},"vehicle_type_id":"4","last_reported":1751756977,"current_range_meters":8000,"station_id":"ce4bh012rcd13ifvqcv0","pricing_plan_id":"cebpf4jnsgd1na2vs0mg"},{"bike_id":"16a3c47f-14f9-40b9-a31f-ceea82999cd6","system_id":"levelo_inurba_marseille","lat":43.3043,"lon":5.39744,"is_reserved":false,"is_disabled":false,"rental_uris":{"android":"levelo://app?vid=16a3c47f-14f9-40b9-a31f-ceea82999cd6","ios":"levelo://app?vid=16a3c47f-14f9-40b9-a31f-ceea82999cd6"},"vehicle_type_id":"4","last_reported":1751756977,"current_range_meters":8000,"station_id":"ce4bh092rcd13ifvqd20","pricing_plan_id":"cebpf4jnsgd1na2vs0mg"},{"bike_id":"1c8ab180-05fd-405f-9922-b2b2c2d5142f","system_id":"levelo_inurba_marseille","lat":43.3378,"lon":5.38152,"is_reserved":false,"is_disabled":false,"rental_uris":{"android":"levelo://app?vid=1c8ab180-05fd-405f-9922-b2b2c2d5142f","ios":"levelo://app?vid=1c8ab180-05fd-405f-9922-b2b2c2d5142f"},"vehicle_type_id":"4","last_reported":1751756977,"current_range_meters":8400,"station_id":"","pricing_plan_id":"cebpf4jnsgd1na2vs0mg"},{"bike_id":"20d6d52c-9d10-4fe3-860d-e3b0552a90c3","system_id":"levelo_inurba_marseille","lat":43.30408,"lon":5.41296,"is_reserved":false,"is_disabled":false,"rental_uris":{"android":"levelo://app?vid=20d6d52c-9d10-4fe3-860d-e3b0552a90c3","ios":"levelo://app?vid=20d6d52c-9d10-4fe3-860d-e3b0552a90c3"},"vehicle_type_id":"4","last_reported":1751756977,"current_range_meters":8400,"station_id":"","pricing_plan_id":"cebpf4jnsgd1na2vs0mg"},{"bike_id":"8205bdf4-ee83-4bb6-bcbe-d476b17ea327","system_id":"levelo_inurba_marseille","lat":43.32012,"lon":5.43272,"is_reserved":false,"is_disabled":false,"rental_uris":{"android":"levelo://app?vid=8205bdf4-ee83-4bb6-bcbe-d476b17ea327","ios":"levelo://app?vid=8205bdf4-ee83-4bb6-bcbe-d476b17ea327"},"vehicle_type_id":"4","last_reported":1751756977,"current_range_meters":8400,"station_id":"","pricing_plan_id":"cebpf4jnsgd1na2vs0mg"},{"bike_id":"b26fae72-751e-4090-a9c4-76ff5de1ad66","system_id":"levelo_inurba_marseille","lat":43.33232,"lon":5.38042,"is_reserved":false,"is_disabled":false,"rental_uris":{"android":"levelo://app?vid=b26fae72-751e-4090-a9c4-76ff5de1ad66","ios":"levelo://app?vid=b26fae72-751e-4090-a9c4-76ff5de1ad66"},"vehicle_type_id":"4","last_reported":1751756977,"current_range_meters":8400,"station_id":"","pricing_plan_id":"cebpf4jnsgd1na2vs0mg"},{"bike_id":"32bbae7d-bc96-4831-8ccb-b58efc87f2a4","system_id":"levelo_inurba_marseille","lat":43.30882,"lon":5.37195,"is_reserved":false,"is_disabled":false,"rental_uris":{"android":"levelo://app?vid=32bbae7d-bc96-4831-8ccb-b58efc87f2a4","ios":"levelo://app?vid=32bbae7d-bc96-4831-8ccb-b58efc87f2a4"},"vehicle_type_id":"4","last_reported":1751756977,"current_range_meters":8400,"station_id":"ce4bguh2rcd13ifvqckg","pricing_plan_id":"cebpf4jnsgd1na2vs0mg"},{"bike_id":"a268abc2-3eff-49ae-be83-4adbef212994","system_id":"levelo_inurba_marseille","lat":43.296317,"lon":5.406073,"is_reserved":false,"is_disabled":false,"rental_uris":{"android":"levelo://app?vid=a268abc2-3eff-49ae-be83-4adbef212994","ios":"levelo://app?vid=a268abc2-3eff-49ae-be83-4adbef212994"},"vehicle_type_id":"4","last_reported":1751756977,"current_range_meters":8400,"station_id":"ce4bh0h2rcd13ifvqd60","pricing_plan_id":"cebpf4jnsgd1na2vs0mg"},{"bike_id":"4fb31fff-0fc2-4434-afd9-8dcf03fd0c6c","system_id":"levelo_inurba_marseille","lat":43.23138,"lon":5.43735,"is_reserved":false,"is_disabled":false,"rental_uris":{"android":"levelo://app?vid=4fb31fff-0fc2-4434-afd9-8dcf03fd0c6c","ios":"levelo://app?vid=4fb31fff-0fc2-4434-afd9-8dcf03fd0c6c"},"vehicle_type_id":"4","last_reported":1751756977,"current_range_meters":8400,"station_id":"ce4bhmp2rcd13ifvqgog","pricing_plan_id":"cebpf4jnsgd1na2vs0mg"},{"bike_id":"f829840f-b30f-4e75-81f9-544ac7cf70f8","system_id":"levelo_inurba_marseille","lat":43.29799,"lon":5.39343,"is_reserved":false,"is_disabled":false,"rental_uris":{"android":"levelo://app?vid=f829840f-b30f-4e75-81f9-544ac7cf70f8","ios":"levelo://app?vid=f829840f-b30f-4e75-81f9-544ac7cf70f8"},"vehicle_type_id":"4","last_reported":1751756977,"current_range_meters":8400,"station_id":"chh1huq6cuj3fo74tm60","pricing_plan_id":"cebpf4jnsgd1na2vs0mg"},{"bike_id":"01e88dea-27ca-471b-9a41-d4fb96706907","system_id":"levelo_inurba_marseille","lat":43.2954,"lon":5.38535,"is_reserved":false,"is_disabled":false,"rental_uris":{"android":"levelo://app?vid=01e88dea-27ca-471b-9a41-d4fb96706907","ios":"levelo://app?vid=01e88dea-27ca-471b-9a41-d4fb96706907"},"vehicle_type_id":"4","last_reported":1751756977,"current_range_meters":8800,"station_id":"ce4bgih2rcd13ifvqba0","pricing_plan_id":"cebpf4jnsgd1na2vs0mg"},{"bike_id":"4c89c8c1-b0df-4454-a003-cf159cf98115","system_id":"levelo_inurba_marseille","lat":43.31359,"lon":5.38502,"is_reserved":false,"is_disabled":false,"rental_uris":{"android":"levelo://app?vid=4c89c8c1-b0df-4454-a003-cf159cf98115","ios":"levelo://app?vid=4c89c8c1-b0df-4454-a003-cf159cf98115"},"vehicle_type_id":"4","last_reported":1751756977,"current_range_meters":8800,"station_id":"ce4bgt92rcd13ifvqcf0","pricing_plan_id":"cebpf4jnsgd1na2vs0mg"},{"bike_id":"6d4d0dfa-1d3a-4c59-adf5-39a71676b331","system_id":"levelo_inurba_marseille","lat":43.29507,"lon":5.394,"is_reserved":false,"is_disabled":false,"rental_uris":{"android":"levelo://app?vid=6d4d0dfa-1d3a-4c59-adf5-39a71676b331","ios":"levelo://app?vid=6d4d0dfa-1d3a-4c59-adf5-39a71676b331"},"vehicle_type_id":"4","last_reported":1751756977,"current_range_meters":8800,"station_id":"ce4bh292rcd13ifvqdf0","pricing_plan_id":"cebpf4jnsgd1na2vs0mg"},{"bike_id":"30069dda-7031-4d02-b8e7-ede7522710df","system_id":"levelo_inurba_marseille","lat":43.28348,"lon":5.3811,"is_reserved":false,"is_disabled":false,"rental_uris":{"android":"levelo://app?vid=30069dda-7031-4d02-b8e7-ede7522710df","ios":"levelo://app?vid=30069dda-7031-4d02-b8e7-ede7522710df"},"vehicle_type_id":"4","last_reported":1751756977,"current_range_meters":8800,"station_id":"ce4bh412rcd13ifvqdr0","pricing_plan_id":"cebpf4jnsgd1na2vs0mg"},{"bike_id":"463373c5-47c5-4dbe-a9e7-59583e234762","system_id":"levelo_inurba_marseille","lat":43.24169,"lon":5.364,"is_reserved":false,"is_disabled":false,"rental_uris":{"android":"levelo://app?vid=463373c5-47c5-4dbe-a9e7-59583e234762","ios":"levelo://app?vid=463373c5-47c5-4dbe-a9e7-59583e234762"},"vehicle_type_id":"4","last_reported":1751756977,"current_range_meters":8800,"station_id":"cpo36qri1sfpv3e86is0","pricing_plan_id":"cebpf4jnsgd1na2vs0mg"},{"bike_id":"4b8da722-ee9e-48a4-a5e5-3a8a10364708","system_id":"levelo_inurba_marseille","lat":43.31226,"lon":5.37811,"is_reserved":false,"is_disabled":false,"rental_uris":{"android":"levelo://app?vid=4b8da722-ee9e-48a4-a5e5-3a8a10364708","ios":"levelo://app?vid=4b8da722-ee9e-48a4-a5e5-3a8a10364708"},"vehicle_type_id":"4","last_reported":1751756977,"current_range_meters":9200,"station_id":"","pricing_plan_id":"cebpf4jnsgd1na2vs0mg"},{"bike_id":"69c2280d-9883-47db-99f2-c073a6babae6","system_id":"levelo_inurba_marseille","lat":43.30851,"lon":5.37031,"is_reserved":false,"is_disabled":false,"rental_uris":{"android":"levelo://app?vid=69c2280d-9883-47db-99f2-c073a6babae6","ios":"levelo://app?vid=69c2280d-9883-47db-99f2-c073a6babae6"},"vehicle_type_id":"4","last_reported":1751756977,"current_range_meters":9200,"station_id":"","pricing_plan_id":"cebpf4jnsgd1na2vs0mg"},{"bike_id":"71ae1b96-3c87-47f6-84c1-eb797576bd71","system_id":"levelo_inurba_marseille","lat":43.31504,"lon":5.38375,"is_reserved":false,"is_disabled":false,"rental_uris":{"android":"levelo://app?vid=71ae1b96-3c87-47f6-84c1-eb797576bd71","ios":"levelo://app?vid=71ae1b96-3c87-47f6-84c1-eb797576bd71"},"vehicle_type_id":"4","last_reported":1751756977,"current_range_meters":9200,"station_id":"","pricing_plan_id":"cebpf4jnsgd1na2vs0mg"},{"bike_id":"16d144eb-03d5-4a7a-bfca-9dbcae1f835f","system_id":"levelo_inurba_marseille","lat":43.31162,"lon":5.38734,"is_reserved":false,"is_disabled":false,"rental_uris":{"android":"levelo://app?vid=16d144eb-03d5-4a7a-bfca-9dbcae1f835f","ios":"levelo://app?vid=16d144eb-03d5-4a7a-bfca-9dbcae1f835f"},"vehicle_type_id":"4","last_reported":1751756977,"current_range_meters":9200,"station_id":"ce4bgv12rcd13ifvqcp0","pricing_plan_id":"cebpf4jnsgd1na2vs0mg"},{"bike_id":"dd94b1ec-ec0d-4753-86be-1386016c953b","system_id":"levelo_inurba_marseille","lat":43.28717,"lon":5.37928,"is_reserved":false,"is_disabled":false,"rental_uris":{"android":"levelo://app?vid=dd94b1ec-ec0d-4753-86be-1386016c953b","ios":"levelo://app?vid=dd94b1ec-ec0d-4753-86be-1386016c953b"},"vehicle_type_id":"4","last_reported":1751756977,"current_range_meters":9200,"station_id":"ce4bh9p2rcd13ifvqec0","pricing_plan_id":"cebpf4jnsgd1na2vs0mg"},{"bike_id":"95b72578-b25c-449e-813a-4a21b4992b9e","system_id":"levelo_inurba_marseille","lat":43.2969,"lon":5.37696,"is_reserved":false,"is_disabled":false,"rental_uris":{"android":"levelo://app?vid=95b72578-b25c-449e-813a-4a21b4992b9e","ios":"levelo://app?vid=95b72578-b25c-449e-813a-4a21b4992b9e"},"vehicle_type_id":"4","last_reported":1751756977,"current_range_meters":10000,"station_id":"","pricing_plan_id":"cebpf4jnsgd1na2vs0mg"},{"bike_id":"4db45513-e520-4598-82fa-5809d80d4f3d","system_id":"levelo_inurba_marseille","lat":43.28102,"lon":5.35485,"is_reserved":false,"is_disabled":false,"rental_uris":{"android":"levelo://app?vid=4db45513-e520-4598-82fa-5809d80d4f3d","ios":"levelo://app?vid=4db45513-e520-4598-82fa-5809d80d4f3d"},"vehicle_type_id":"4","last_reported":1751756977,"current_range_meters":10000,"station_id":"","pricing_plan_id":"cebpf4jnsgd1na2vs0mg"},{"bike_id":"1e04b9e2-27c6-4b30-b902-6c81e18716e2","system_id":"levelo_inurba_marseille","lat":43.311739,"lon":5.377455,"is_reserved":false,"is_disabled":false,"rental_uris":{"android":"levelo://app?vid=1e04b9e2-27c6-4b30-b902-6c81e18716e2","ios":"levelo://app?vid=1e04b9e2-27c6-4b30-b902-6c81e18716e2"},"vehicle_type_id":"4","last_reported":1751756977,"current_range_meters":10000,"station_id":"","pricing_plan_id":"cebpf4jnsgd1na2vs0mg"},{"bike_id":"acc7bed9-f4ec-4ae2-8989-7bdcda94d05b","system_id":"levelo_inurba_marseille","lat":43.28709,"lon":5.37953,"is_reserved":false,"is_disabled":false,"rental_uris":{"android":"levelo://app?vid=acc7bed9-f4ec-4ae2-8989-7bdcda94d05b","ios":"levelo://app?vid=acc7bed9-f4ec-4ae2-8989-7bdcda94d05b"},"vehicle_type_id":"4","last_reported":1751756977,"current_range_meters":10000,"station_id":"ce4bh9p2rcd13ifvqec0","pricing_plan_id":"cebpf4jnsgd1na2vs0mg"},{"bike_id":"8eb283fe-44c7-4bb1-836e-cde6c55f1adf","system_id":"levelo_inurba_marseille","lat":43.31807,"lon":5.36816,"is_reserved":false,"is_disabled":false,"rental_uris":{"android":"levelo://app?vid=8eb283fe-44c7-4bb1-836e-cde6c55f1adf","ios":"levelo://app?vid=8eb283fe-44c7-4bb1-836e-cde6c55f1adf"},"vehicle_type_id":"4","last_reported":1751756977,"current_range_meters":10800,"station_id":"","pricing_plan_id":"cebpf4jnsgd1na2vs0mg"},{"bike_id":"d8a048cb-7087-4b35-ab7d-11f27251e90d","system_id":"levelo_inurba_marseille","lat":43.308089,"lon":5.381381,"is_reserved":false,"is_disabled":false,"rental_uris":{"android":"levelo://app?vid=d8a048cb-7087-4b35-ab7d-11f27251e90d","ios":"levelo://app?vid=d8a048cb-7087-4b35-ab7d-11f27251e90d"},"vehicle_type_id":"4","last_reported":1751756977,"current_range_meters":10800,"station_id":"","pricing_plan_id":"cebpf4jnsgd1na2vs0mg"},{"bike_id":"c8d54838-4cbf-4bae-bd38-eee89ae6662f","system_id":"levelo_inurba_marseille","lat":43.29531,"lon":5.38539,"is_reserved":false,"is_disabled":false,"rental_uris":{"android":"levelo://app?vid=c8d54838-4cbf-4bae-bd38-eee89ae6662f","ios":"levelo://app?vid=c8d54838-4cbf-4bae-bd38-eee89ae6662f"},"vehicle_type_id":"4","last_reported":1751756977,"current_range_meters":10800,"station_id":"ce4bgih2rcd13ifvqba0","pricing_plan_id":"cebpf4jnsgd1na2vs0mg"},{"bike_id":"8f179975-57fa-4791-8439-9f5c06f26d1c","system_id":"levelo_inurba_marseille","lat":43.28701,"lon":5.38651,"is_reserved":false,"is_disabled":false,"rental_uris":{"android":"levelo://app?vid=8f179975-57fa-4791-8439-9f5c06f26d1c","ios":"levelo://app?vid=8f179975-57fa-4791-8439-9f5c06f26d1c"},"vehicle_type_id":"4","last_reported":1751756977,"current_range_meters":10800,"station_id":"ce4bh492rcd13ifvqdug","pricing_plan_id":"cebpf4jnsgd1na2vs0mg"},{"bike_id":"deb8371c-a65e-4535-b294-4f85e0a23a52","system_id":"levelo_inurba_marseille","lat":43.28669,"lon":5.36347,"is_reserved":false,"is_disabled":false,"rental_uris":{"android":"levelo://app?vid=deb8371c-a65e-4535-b294-4f85e0a23a52","ios":"levelo://app?vid=deb8371c-a65e-4535-b294-4f85e0a23a52"},"vehicle_type_id":"4","last_reported":1751756977,"current_range_meters":10800,"station_id":"ce4bhah2rcd13ifvqej0","pricing_plan_id":"cebpf4jnsgd1na2vs0mg"},{"bike_id":"07614cf4-41e5-4846-a312-2aea8ebfa4df","system_id":"levelo_inurba_marseille","lat":43.27669,"lon":5.38869,"is_reserved":false,"is_disabled":false,"rental_uris":{"android":"levelo://app?vid=07614cf4-41e5-4846-a312-2aea8ebfa4df","ios":"levelo://app?vid=07614cf4-41e5-4846-a312-2aea8ebfa4df"},"vehicle_type_id":"4","last_reported":1751756977,"current_range_meters":10800,"station_id":"ce4bhi12rcd13ifvqfo0","pricing_plan_id":"cebpf4jnsgd1na2vs0mg"},{"bike_id":"262d0b98-5b39-4eff-8d56-9ccb98d97f75","system_id":"levelo_inurba_marseille","lat":43.25866,"lon":5.39902,"is_reserved":false,"is_disabled":false,"rental_uris":{"android":"levelo://app?vid=262d0b98-5b39-4eff-8d56-9ccb98d97f75","ios":"levelo://app?vid=262d0b98-5b39-4eff-8d56-9ccb98d97f75"},"vehicle_type_id":"4","last_reported":1751756977,"current_range_meters":10800,"station_id":"ce4bhl92rcd13ifvqghg","pricing_plan_id":"cebpf4jnsgd1na2vs0mg"},{"bike_id":"334252c5-9075-4181-a4e4-9e4eb418e741","system_id":"levelo_inurba_marseille","lat":43.31156,"lon":5.38724,"is_reserved":false,"is_disabled":false,"rental_uris":{"android":"levelo://app?vid=334252c5-9075-4181-a4e4-9e4eb418e741","ios":"levelo://app?vid=334252c5-9075-4181-a4e4-9e4eb418e741"},"vehicle_type_id":"4","last_reported":1751756977,"current_range_meters":11200,"station_id":"ce4bgv12rcd13ifvqcp0","pricing_plan_id":"cebpf4jnsgd1na2vs0mg"},{"bike_id":"b26f4b81-8ee5-4928-a4f7-32e415148079","system_id":"levelo_inurba_marseille","lat":43.28444,"lon":5.39169,"is_reserved":false,"is_disabled":false,"rental_uris":{"android":"levelo://app?vid=b26f4b81-8ee5-4928-a4f7-32e415148079","ios":"levelo://app?vid=b26f4b81-8ee5-4928-a4f7-32e415148079"},"vehicle_type_id":"4","last_reported":1751756977,"current_range_meters":11200,"station_id":"ce4bhoh2rcd13ifvqh5g","pricing_plan_id":"cebpf4jnsgd1na2vs0mg"},{"bike_id":"117bf855-d050-44c3-9ad2-ec324a6c5dc7","system_id":"levelo_inurba_marseille","lat":43.21757,"lon":5.34601,"is_reserved":false,"is_disabled":false,"rental_uris":{"android":"levelo://app?vid=117bf855-d050-44c3-9ad2-ec324a6c5dc7","ios":"levelo://app?vid=117bf855-d050-44c3-9ad2-ec324a6c5dc7"},"vehicle_type_id":"4","last_reported":1751756977,"current_range_meters":11200,"station_id":"st_cvj6r9ubvosntc0bgbag","pricing_plan_id":"cebpf4jnsgd1na2vs0mg"},{"bike_id":"b1d40197-e49c-4962-8cd8-0babe05d31a6","system_id":"levelo_inurba_marseille","lat":43.21258,"lon":5.352751,"is_reserved":false,"is_disabled":false,"rental_uris":{"android":"levelo://app?vid=b1d40197-e49c-4962-8cd8-0babe05d31a6","ios":"levelo://app?vid=b1d40197-e49c-4962-8cd8-0babe05d31a6"},"vehicle_type_id":"4","last_reported":1751756977,"current_range_meters":11600,"station_id":"","pricing_plan_id":"cebpf4jnsgd1na2vs0mg"},{"bike_id":"89e89211-6f79-4828-944f-edafaa212cc5","system_id":"levelo_inurba_marseille","lat":43.299824,"lon":5.371762,"is_reserved":false,"is_disabled":false,"rental_uris":{"android":"levelo://app?vid=89e89211-6f79-4828-944f-edafaa212cc5","ios":"levelo://app?vid=89e89211-6f79-4828-944f-edafaa212cc5"},"vehicle_type_id":"4","last_reported":1751756977,"current_range_meters":11600,"station_id":"ce4bgr92rcd13ifvqc7g","pricing_plan_id":"cebpf4jnsgd1na2vs0mg"},{"bike_id":"9c308ab8-7bd6-4ce7-af7e-397827444bb3","system_id":"levelo_inurba_marseille","lat":43.29576,"lon":5.3996,"is_reserved":false,"is_disabled":false,"rental_uris":{"android":"levelo://app?vid=9c308ab8-7bd6-4ce7-af7e-397827444bb3","ios":"levelo://app?vid=9c308ab8-7bd6-4ce7-af7e-397827444bb3"},"vehicle_type_id":"4","last_reported":1751756977,"current_range_meters":11600,"station_id":"ce4bh312rcd13ifvqdj0","pricing_plan_id":"cebpf4jnsgd1na2vs0mg"},{"bike_id":"f6195b45-52e6-4a3d-8870-2a8a1bddd5b5","system_id":"levelo_inurba_marseille","lat":43.28722,"lon":5.37939,"is_reserved":false,"is_disabled":false,"rental_uris":{"android":"levelo://app?vid=f6195b45-52e6-4a3d-8870-2a8a1bddd5b5","ios":"levelo://app?vid=f6195b45-52e6-4a3d-8870-2a8a1bddd5b5"},"vehicle_type_id":"4","last_reported":1751756977,"current_range_meters":11600,"station_id":"ce4bh9p2rcd13ifvqec0","pricing_plan_id":"cebpf4jnsgd1na2vs0mg"},{"bike_id":"86c92dc1-b4da-49d9-acb8-ba390f939865","system_id":"levelo_inurba_marseille","lat":43.33015,"lon":5.39252,"is_reserved":false,"is_disabled":false,"rental_uris":{"android":"levelo://app?vid=86c92dc1-b4da-49d9-acb8-ba390f939865","ios":"levelo://app?vid=86c92dc1-b4da-49d9-acb8-ba390f939865"},"vehicle_type_id":"4","last_reported":1751756977,"current_range_meters":12000,"station_id":"","pricing_plan_id":"cebpf4jnsgd1na2vs0mg"},{"bike_id":"e0da62f2-1bcb-4012-90c0-b41331fea55e","system_id":"levelo_inurba_marseille","lat":43.30424,"lon":5.3974,"is_reserved":false,"is_disabled":false,"rental_uris":{"android":"levelo://app?vid=e0da62f2-1bcb-4012-90c0-b41331fea55e","ios":"levelo://app?vid=e0da62f2-1bcb-4012-90c0-b41331fea55e"},"vehicle_type_id":"4","last_reported":1751756977,"current_range_meters":12000,"station_id":"ce4bh092rcd13ifvqd20","pricing_plan_id":"cebpf4jnsgd1na2vs0mg"},{"bike_id":"36f9c75b-5d6c-412a-b395-ad8ffc2d771a","system_id":"levelo_inurba_marseille","lat":43.26011,"lon":5.4175,"is_reserved":false,"is_disabled":false,"rental_uris":{"android":"levelo://app?vid=36f9c75b-5d6c-412a-b395-ad8ffc2d771a","ios":"levelo://app?vid=36f9c75b-5d6c-412a-b395-ad8ffc2d771a"},"vehicle_type_id":"4","last_reported":1751756977,"current_range_meters":12400,"station_id":"","pricing_plan_id":"cebpf4jnsgd1na2vs0mg"},{"bike_id":"11e0b4b1-70ef-4ebc-8feb-35a987d89107","system_id":"levelo_inurba_marseille","lat":43.29036,"lon":5.39953,"is_reserved":false,"is_disabled":false,"rental_uris":{"android":"levelo://app?vid=11e0b4b1-70ef-4ebc-8feb-35a987d89107","ios":"levelo://app?vid=11e0b4b1-70ef-4ebc-8feb-35a987d89107"},"vehicle_type_id":"4","last_reported":1751756977,"current_range_meters":12400,"station_id":"ce4bh392rcd13ifvqdm0","pricing_plan_id":"cebpf4jnsgd1na2vs0mg"},{"bike_id":"e163648e-726b-44ee-86fe-af9008fed0c9","system_id":"levelo_inurba_marseille","lat":43.27943,"lon":5.41042,"is_reserved":false,"is_disabled":false,"rental_uris":{"android":"levelo://app?vid=e163648e-726b-44ee-86fe-af9008fed0c9","ios":"levelo://app?vid=e163648e-726b-44ee-86fe-af9008fed0c9"},"vehicle_type_id":"4","last_reported":1751756977,"current_range_meters":12400,"station_id":"ce4bhnp2rcd13ifvqh0g","pricing_plan_id":"cebpf4jnsgd1na2vs0mg"},{"bike_id":"adf1d38d-1f03-40cf-9b57-0a8f15f62b2d","system_id":"levelo_inurba_marseille","lat":43.329587,"lon":5.363789,"is_reserved":false,"is_disabled":false,"rental_uris":{"android":"levelo://app?vid=adf1d38d-1f03-40cf-9b57-0a8f15f62b2d","ios":"levelo://app?vid=adf1d38d-1f03-40cf-9b57-0a8f15f62b2d"},"vehicle_type_id":"4","last_reported":1751756977,"current_range_meters":12800,"station_id":"","pricing_plan_id":"cebpf4jnsgd1na2vs0mg"},{"bike_id":"ac63a80e-8b8e-4ef0-bddc-069d8e448701","system_id":"levelo_inurba_marseille","lat":43.3116,"lon":5.38719,"is_reserved":false,"is_disabled":false,"rental_uris":{"android":"levelo://app?vid=ac63a80e-8b8e-4ef0-bddc-069d8e448701","ios":"levelo://app?vid=ac63a80e-8b8e-4ef0-bddc-069d8e448701"},"vehicle_type_id":"4","last_reported":1751756977,"current_range_meters":12800,"station_id":"ce4bgv12rcd13ifvqcp0","pricing_plan_id":"cebpf4jnsgd1na2vs0mg"},{"bike_id":"763bf510-9a5f-4e67-886d-c1e23e28d9f1","system_id":"levelo_inurba_marseille","lat":43.29277,"lon":5.40119,"is_reserved":false,"is_disabled":false,"rental_uris":{"android":"levelo://app?vid=763bf510-9a5f-4e67-886d-c1e23e28d9f1","ios":"levelo://app?vid=763bf510-9a5f-4e67-886d-c1e23e28d9f1"},"vehicle_type_id":"4","last_reported":1751756977,"current_range_meters":12800,"station_id":"ce4bh312rcd13ifvqdk0","pricing_plan_id":"cebpf4jnsgd1na2vs0mg"},{"bike_id":"00d046c1-c97a-4cbf-9104-df0b8a144efc","system_id":"levelo_inurba_marseille","lat":43.275,"lon":5.424558,"is_reserved":false,"is_disabled":false,"rental_uris":{"android":"levelo://app?vid=00d046c1-c97a-4cbf-9104-df0b8a144efc","ios":"levelo://app?vid=00d046c1-c97a-4cbf-9104-df0b8a144efc"},"vehicle_type_id":"4","last_reported":1751756977,"current_range_meters":12800,"station_id":"ce4bhn92rcd13ifvqgrg","pricing_plan_id":"cebpf4jnsgd1na2vs0mg"},{"bike_id":"8ff8677b-996f-458b-8a04-1f7c3806d312","system_id":"levelo_inurba_marseille","lat":43.27998,"lon":5.41666,"is_reserved":false,"is_disabled":false,"rental_uris":{"android":"levelo://app?vid=8ff8677b-996f-458b-8a04-1f7c3806d312","ios":"levelo://app?vid=8ff8677b-996f-458b-8a04-1f7c3806d312"},"vehicle_type_id":"4","last_reported":1751756977,"current_range_meters":12800,"station_id":"ce4bho12rcd13ifvqh1g","pricing_plan_id":"cebpf4jnsgd1na2vs0mg"},{"bike_id":"f1f6e0f4-a0d4-48bb-a082-d7f13ee79674","system_id":"levelo_inurba_marseille","lat":43.29436,"lon":5.397495,"is_reserved":false,"is_disabled":false,"rental_uris":{"android":"levelo://app?vid=f1f6e0f4-a0d4-48bb-a082-d7f13ee79674","ios":"levelo://app?vid=f1f6e0f4-a0d4-48bb-a082-d7f13ee79674"},"vehicle_type_id":"4","last_reported":1751756977,"current_range_meters":13600,"station_id":"ce4bh3h2rcd13ifvqdo0","pricing_plan_id":"cebpf4jnsgd1na2vs0mg"},{"bike_id":"f3a41270-bf4a-44c2-b8b3-49d43b798002","system_id":"levelo_inurba_marseille","lat":43.29003,"lon":5.38649,"is_reserved":false,"is_disabled":false,"rental_uris":{"android":"levelo://app?vid=f3a41270-bf4a-44c2-b8b3-49d43b798002","ios":"levelo://app?vid=f3a41270-bf4a-44c2-b8b3-49d43b798002"},"vehicle_type_id":"4","last_reported":1751756977,"current_range_meters":13600,"station_id":"ce4bh4p2rcd13ifvqe0g","pricing_plan_id":"cebpf4jnsgd1na2vs0mg"},{"bike_id":"637fcc3b-c74d-473a-96c1-57ab4bb52ed7","system_id":"levelo_inurba_marseille","lat":43.25912,"lon":5.40873,"is_reserved":false,"is_disabled":false,"rental_uris":{"android":"levelo://app?vid=637fcc3b-c74d-473a-96c1-57ab4bb52ed7","ios":"levelo://app?vid=637fcc3b-c74d-473a-96c1-57ab4bb52ed7"},"vehicle_type_id":"4","last_reported":1751756977,"current_range_meters":13600,"station_id":"ce4bhm92rcd13ifvqglg","pricing_plan_id":"cebpf4jnsgd1na2vs0mg"},{"bike_id":"3e87c73e-dcf6-4408-a12d-c9ce37eb9c62","system_id":"levelo_inurba_marseille","lat":43.2781,"lon":5.40708,"is_reserved":false,"is_disabled":false,"rental_uris":{"android":"levelo://app?vid=3e87c73e-dcf6-4408-a12d-c9ce37eb9c62","ios":"levelo://app?vid=3e87c73e-dcf6-4408-a12d-c9ce37eb9c62"},"vehicle_type_id":"4","last_reported":1751756977,"current_range_meters":13600,"station_id":"ce4bhnh2rcd13ifvqgtg","pricing_plan_id":"cebpf4jnsgd1na2vs0mg"},{"bike_id":"fe8ee84c-fdfc-40aa-a1c2-6e36409c0740","system_id":"levelo_inurba_marseille","lat":43.26811,"lon":5.39059,"is_reserved":false,"is_disabled":false,"rental_uris":{"android":"levelo://app?vid=fe8ee84c-fdfc-40aa-a1c2-6e36409c0740","ios":"levelo://app?vid=fe8ee84c-fdfc-40aa-a1c2-6e36409c0740"},"vehicle_type_id":"4","last_reported":1751756977,"current_range_meters":14000,"station_id":"","pricing_plan_id":"cebpf4jnsgd1na2vs0mg"},{"bike_id":"d712008c-4f25-4a2b-bf71-9d59dbc29da6","system_id":"levelo_inurba_marseille","lat":43.2573,"lon":5.41107,"is_reserved":false,"is_disabled":false,"rental_uris":{"android":"levelo://app?vid=d712008c-4f25-4a2b-bf71-9d59dbc29da6","ios":"levelo://app?vid=d712008c-4f25-4a2b-bf71-9d59dbc29da6"},"vehicle_type_id":"4","last_reported":1751756977,"current_range_meters":14000,"station_id":"","pricing_plan_id":"cebpf4jnsgd1na2vs0mg"},{"bike_id":"5cbffb22-8992-4ee8-ac73-9eaef90fbbff","system_id":"levelo_inurba_marseille","lat":43.29572,"lon":5.37534,"is_reserved":false,"is_disabled":false,"rental_uris":{"android":"levelo://app?vid=5cbffb22-8992-4ee8-ac73-9eaef90fbbff","ios":"levelo://app?vid=5cbffb22-8992-4ee8-ac73-9eaef90fbbff"},"vehicle_type_id":"4","last_reported":1751756977,"current_range_meters":14000,"station_id":"ce4bgh92rcd13ifvqb50","pricing_plan_id":"cebpf4jnsgd1na2vs0mg"},{"bike_id":"fe4aa8ed-2ac9-4209-9c47-e12cf02aef05","system_id":"levelo_inurba_marseille","lat":43.31356,"lon":5.385107,"is_reserved":false,"is_disabled":false,"rental_uris":{"android":"levelo://app?vid=fe4aa8ed-2ac9-4209-9c47-e12cf02aef05","ios":"levelo://app?vid=fe4aa8ed-2ac9-4209-9c47-e12cf02aef05"},"vehicle_type_id":"4","last_reported":1751756977,"current_range_meters":14000,"station_id":"ce4bgt92rcd13ifvqcf0","pricing_plan_id":"cebpf4jnsgd1na2vs0mg"},{"bike_id":"8a4b9310-789f-4276-882c-28d82f59dd89","system_id":"levelo_inurba_marseille","lat":43.28998,"lon":5.35609,"is_reserved":false,"is_disabled":false,"rental_uris":{"android":"levelo://app?vid=8a4b9310-789f-4276-882c-28d82f59dd89","ios":"levelo://app?vid=8a4b9310-789f-4276-882c-28d82f59dd89"},"vehicle_type_id":"4","last_reported":1751756977,"current_range_meters":14000,"station_id":"ce4bhb92rcd13ifvqen0","pricing_plan_id":"cebpf4jnsgd1na2vs0mg"},{"bike_id":"ffca34d7-f4eb-4557-9157-30dd818c27b7","system_id":"levelo_inurba_marseille","lat":43.2582,"lon":5.39436,"is_reserved":false,"is_disabled":false,"rental_uris":{"android":"levelo://app?vid=ffca34d7-f4eb-4557-9157-30dd818c27b7","ios":"levelo://app?vid=ffca34d7-f4eb-4557-9157-30dd818c27b7"},"vehicle_type_id":"4","last_reported":1751756977,"current_range_meters":14000,"station_id":"ce4bhip2rcd13ifvqft0","pricing_plan_id":"cebpf4jnsgd1na2vs0mg"},{"bike_id":"1133fa96-960d-45e6-9328-aa458deeee07","system_id":"levelo_inurba_marseille","lat":43.26228,"lon":5.4043,"is_reserved":false,"is_disabled":false,"rental_uris":{"android":"levelo://app?vid=1133fa96-960d-45e6-9328-aa458deeee07","ios":"levelo://app?vid=1133fa96-960d-45e6-9328-aa458deeee07"},"vehicle_type_id":"4","last_reported":1751756977,"current_range_meters":14000,"station_id":"ce4bhmh2rcd13ifvqgmg","pricing_plan_id":"cebpf4jnsgd1na2vs0mg"},{"bike_id":"37cd4b79-a10d-4edd-b60b-c80f44a2a812","system_id":"levelo_inurba_marseille","lat":43.24178,"lon":5.39727,"is_reserved":false,"is_disabled":false,"rental_uris":{"android":"levelo://app?vid=37cd4b79-a10d-4edd-b60b-c80f44a2a812","ios":"levelo://app?vid=37cd4b79-a10d-4edd-b60b-c80f44a2a812"},"vehicle_type_id":"4","last_reported":1751756977,"current_range_meters":14000,"station_id":"ce4bhn12rcd13ifvqgpg","pricing_plan_id":"cebpf4jnsgd1na2vs0mg"},{"bike_id":"c4ff648a-f214-4632-8118-32b7fd04476a","system_id":"levelo_inurba_marseille","lat":43.31527,"lon":5.380308,"is_reserved":false,"is_disabled":false,"rental_uris":{"android":"levelo://app?vid=c4ff648a-f214-4632-8118-32b7fd04476a","ios":"levelo://app?vid=c4ff648a-f214-4632-8118-32b7fd04476a"},"vehicle_type_id":"4","last_reported":1751756977,"current_range_meters":14000,"station_id":"ce4bhsp2rcd13ifvqi50","pricing_plan_id":"cebpf4jnsgd1na2vs0mg"},{"bike_id":"895be296-b3a7-4e2d-8ace-b5e41798826d","system_id":"levelo_inurba_marseille","lat":43.26907,"lon":5.40259,"is_reserved":false,"is_disabled":false,"rental_uris":{"android":"levelo://app?vid=895be296-b3a7-4e2d-8ace-b5e41798826d","ios":"levelo://app?vid=895be296-b3a7-4e2d-8ace-b5e41798826d"},"vehicle_type_id":"4","last_reported":1751756977,"current_range_meters":14000,"station_id":"cjm6bp8fraef2m0cb0m0","pricing_plan_id":"cebpf4jnsgd1na2vs0mg"},{"bike_id":"1bdb02c3-7bbc-4c30-abd2-cd7dee2e633d","system_id":"levelo_inurba_marseille","lat":43.26891,"lon":5.40244,"is_reserved":false,"is_disabled":false,"rental_uris":{"android":"levelo://app?vid=1bdb02c3-7bbc-4c30-abd2-cd7dee2e633d","ios":"levelo://app?vid=1bdb02c3-7bbc-4c30-abd2-cd7dee2e633d"},"vehicle_type_id":"4","last_reported":1751756977,"current_range_meters":14400,"station_id":"","pricing_plan_id":"cebpf4jnsgd1na2vs0mg"},{"bike_id":"4d8942c7-0e64-4b67-b6b6-d1a5c3d08cfb","system_id":"levelo_inurba_marseille","lat":43.224823,"lon":5.347908,"is_reserved":false,"is_disabled":false,"rental_uris":{"android":"levelo://app?vid=4d8942c7-0e64-4b67-b6b6-d1a5c3d08cfb","ios":"levelo://app?vid=4d8942c7-0e64-4b67-b6b6-d1a5c3d08cfb"},"vehicle_type_id":"4","last_reported":1751756977,"current_range_meters":14400,"station_id":"","pricing_plan_id":"cebpf4jnsgd1na2vs0mg"},{"bike_id":"f24de232-65c7-4be7-9e98-e4a9a828fd58","system_id":"levelo_inurba_marseille","lat":43.24253,"lon":5.38852,"is_reserved":false,"is_disabled":false,"rental_uris":{"android":"levelo://app?vid=f24de232-65c7-4be7-9e98-e4a9a828fd58","ios":"levelo://app?vid=f24de232-65c7-4be7-9e98-e4a9a828fd58"},"vehicle_type_id":"4","last_reported":1751756977,"current_range_meters":14400,"station_id":"","pricing_plan_id":"cebpf4jnsgd1na2vs0mg"},{"bike_id":"e55cea4f-26d4-4f9c-bf7a-025fd9a4a22d","system_id":"levelo_inurba_marseille","lat":43.23438,"lon":5.35942,"is_reserved":false,"is_disabled":false,"rental_uris":{"android":"levelo://app?vid=e55cea4f-26d4-4f9c-bf7a-025fd9a4a22d","ios":"levelo://app?vid=e55cea4f-26d4-4f9c-bf7a-025fd9a4a22d"},"vehicle_type_id":"4","last_reported":1751756977,"current_range_meters":14400,"station_id":"","pricing_plan_id":"cebpf4jnsgd1na2vs0mg"},{"bike_id":"38f7fbb9-ddf9-4adc-90d7-9ce9e9c6f27c","system_id":"levelo_inurba_marseille","lat":43.28218,"lon":5.38643,"is_reserved":false,"is_disabled":false,"rental_uris":{"android":"levelo://app?vid=38f7fbb9-ddf9-4adc-90d7-9ce9e9c6f27c","ios":"levelo://app?vid=38f7fbb9-ddf9-4adc-90d7-9ce9e9c6f27c"},"vehicle_type_id":"4","last_reported":1751756977,"current_range_meters":14400,"station_id":"","pricing_plan_id":"cebpf4jnsgd1na2vs0mg"},{"bike_id":"883a31b2-32d0-40ae-abfb-0a8cad9f140f","system_id":"levelo_inurba_marseille","lat":43.309354,"lon":5.390348,"is_reserved":false,"is_disabled":false,"rental_uris":{"android":"levelo://app?vid=883a31b2-32d0-40ae-abfb-0a8cad9f140f","ios":"levelo://app?vid=883a31b2-32d0-40ae-abfb-0a8cad9f140f"},"vehicle_type_id":"4","last_reported":1751756977,"current_range_meters":14400,"station_id":"","pricing_plan_id":"cebpf4jnsgd1na2vs0mg"},{"bike_id":"3f7401d9-d29b-4d8f-a46e-088d196d4511","system_id":"levelo_inurba_marseille","lat":43.29546,"lon":5.38539,"is_reserved":false,"is_disabled":false,"rental_uris":{"android":"levelo://app?vid=3f7401d9-d29b-4d8f-a46e-088d196d4511","ios":"levelo://app?vid=3f7401d9-d29b-4d8f-a46e-088d196d4511"},"vehicle_type_id":"4","last_reported":1751756977,"current_range_meters":14400,"station_id":"ce4bgih2rcd13ifvqba0","pricing_plan_id":"cebpf4jnsgd1na2vs0mg"},{"bike_id":"4f0cc79d-a138-4a4e-a8cf-0b4b82f54682","system_id":"levelo_inurba_marseille","lat":43.313012,"lon":5.374578,"is_reserved":false,"is_disabled":false,"rental_uris":{"android":"levelo://app?vid=4f0cc79d-a138-4a4e-a8cf-0b4b82f54682","ios":"levelo://app?vid=4f0cc79d-a138-4a4e-a8cf-0b4b82f54682"},"vehicle_type_id":"4","last_reported":1751756977,"current_range_meters":14400,"station_id":"ce4bgt12rcd13ifvqcd0","pricing_plan_id":"cebpf4jnsgd1na2vs0mg"},{"bike_id":"591617c0-aaf6-4a5c-b86f-5f40c081f792","system_id":"levelo_inurba_marseille","lat":43.28352,"lon":5.38099,"is_reserved":false,"is_disabled":false,"rental_uris":{"android":"levelo://app?vid=591617c0-aaf6-4a5c-b86f-5f40c081f792","ios":"levelo://app?vid=591617c0-aaf6-4a5c-b86f-5f40c081f792"},"vehicle_type_id":"4","last_reported":1751756977,"current_range_meters":14400,"station_id":"ce4bh412rcd13ifvqdr0","pricing_plan_id":"cebpf4jnsgd1na2vs0mg"},{"bike_id":"7f0c1e3c-145d-459e-b135-55934e2c45cf","system_id":"levelo_inurba_marseille","lat":43.28144,"lon":5.42655,"is_reserved":false,"is_disabled":false,"rental_uris":{"android":"levelo://app?vid=7f0c1e3c-145d-459e-b135-55934e2c45cf","ios":"levelo://app?vid=7f0c1e3c-145d-459e-b135-55934e2c45cf"},"vehicle_type_id":"4","last_reported":1751756977,"current_range_meters":14400,"station_id":"ce4bhnh2rcd13ifvqgug","pricing_plan_id":"cebpf4jnsgd1na2vs0mg"},{"bike_id":"65a60e9c-aa5d-4ad3-a232-50bbe96d9867","system_id":"levelo_inurba_marseille","lat":43.31718,"lon":5.424,"is_reserved":false,"is_disabled":false,"rental_uris":{"android":"levelo://app?vid=65a60e9c-aa5d-4ad3-a232-50bbe96d9867","ios":"levelo://app?vid=65a60e9c-aa5d-4ad3-a232-50bbe96d9867"},"vehicle_type_id":"4","last_reported":1751756977,"current_range_meters":14400,"station_id":"ce4bhp92rcd13ifvqhbg","pricing_plan_id":"cebpf4jnsgd1na2vs0mg"},{"bike_id":"9cf0249f-eeef-4d62-bbc1-75b39c7cd182","system_id":"levelo_inurba_marseille","lat":43.29533,"lon":5.38543,"is_reserved":false,"is_disabled":false,"rental_uris":{"android":"levelo://app?vid=9cf0249f-eeef-4d62-bbc1-75b39c7cd182","ios":"levelo://app?vid=9cf0249f-eeef-4d62-bbc1-75b39c7cd182"},"vehicle_type_id":"4","last_reported":1751756977,"current_range_meters":14800,"station_id":"ce4bgih2rcd13ifvqba0","pricing_plan_id":"cebpf4jnsgd1na2vs0mg"},{"bike_id":"c2605c04-ed62-4cd1-a921-b67e24362106","system_id":"levelo_inurba_marseille","lat":43.31357,"lon":5.385122,"is_reserved":false,"is_disabled":false,"rental_uris":{"android":"levelo://app?vid=c2605c04-ed62-4cd1-a921-b67e24362106","ios":"levelo://app?vid=c2605c04-ed62-4cd1-a921-b67e24362106"},"vehicle_type_id":"4","last_reported":1751756977,"current_range_meters":14800,"station_id":"ce4bgt92rcd13ifvqcf0","pricing_plan_id":"cebpf4jnsgd1na2vs0mg"},{"bike_id":"bd622e46-7a81-40e1-8551-5615563e2881","system_id":"levelo_inurba_marseille","lat":43.3025,"lon":5.40081,"is_reserved":false,"is_disabled":false,"rental_uris":{"android":"levelo://app?vid=bd622e46-7a81-40e1-8551-5615563e2881","ios":"levelo://app?vid=bd622e46-7a81-40e1-8551-5615563e2881"},"vehicle_type_id":"4","last_reported":1751756977,"current_range_meters":14800,"station_id":"ce4bgvh2rcd13ifvqcs0","pricing_plan_id":"cebpf4jnsgd1na2vs0mg"},{"bike_id":"26c8a650-1c3c-4715-8471-86732a63f297","system_id":"levelo_inurba_marseille","lat":43.30138,"lon":5.39856,"is_reserved":false,"is_disabled":false,"rental_uris":{"android":"levelo://app?vid=26c8a650-1c3c-4715-8471-86732a63f297","ios":"levelo://app?vid=26c8a650-1c3c-4715-8471-86732a63f297"},"vehicle_type_id":"4","last_reported":1751756977,"current_range_meters":14800,"station_id":"ce4bh0h2rcd13ifvqd40","pricing_plan_id":"cebpf4jnsgd1na2vs0mg"},{"bike_id":"5c6b5d6d-2314-4d1e-9e1b-c4cf8c63bab8","system_id":"levelo_inurba_marseille","lat":43.301826,"lon":5.401318,"is_reserved":false,"is_disabled":false,"rental_uris":{"android":"levelo://app?vid=5c6b5d6d-2314-4d1e-9e1b-c4cf8c63bab8","ios":"levelo://app?vid=5c6b5d6d-2314-4d1e-9e1b-c4cf8c63bab8"},"vehicle_type_id":"4","last_reported":1751756977,"current_range_meters":14800,"station_id":"ce4bh0h2rcd13ifvqd50","pricing_plan_id":"cebpf4jnsgd1na2vs0mg"},{"bike_id":"b7d536ad-baa2-42e1-af16-09063e0e5277","system_id":"levelo_inurba_marseille","lat":43.26061,"lon":5.39387,"is_reserved":false,"is_disabled":false,"rental_uris":{"android":"levelo://app?vid=b7d536ad-baa2-42e1-af16-09063e0e5277","ios":"levelo://app?vid=b7d536ad-baa2-42e1-af16-09063e0e5277"},"vehicle_type_id":"4","last_reported":1751756977,"current_range_meters":14800,"station_id":"ce4bhh92rcd13ifvqfj0","pricing_plan_id":"cebpf4jnsgd1na2vs0mg"},{"bike_id":"eea94861-a6bb-4f50-ad7c-c29cee846ce3","system_id":"levelo_inurba_marseille","lat":43.25573,"lon":5.38251,"is_reserved":false,"is_disabled":false,"rental_uris":{"android":"levelo://app?vid=eea94861-a6bb-4f50-ad7c-c29cee846ce3","ios":"levelo://app?vid=eea94861-a6bb-4f50-ad7c-c29cee846ce3"},"vehicle_type_id":"4","last_reported":1751756977,"current_range_meters":14800,"station_id":"ce4bhih2rcd13ifvqfs0","pricing_plan_id":"cebpf4jnsgd1na2vs0mg"},{"bike_id":"4ff0a587-b444-4d32-942b-15bf910e854b","system_id":"levelo_inurba_marseille","lat":43.31685,"lon":5.43709,"is_reserved":false,"is_disabled":false,"rental_uris":{"android":"levelo://app?vid=4ff0a587-b444-4d32-942b-15bf910e854b","ios":"levelo://app?vid=4ff0a587-b444-4d32-942b-15bf910e854b"},"vehicle_type_id":"4","last_reported":1751756977,"current_range_meters":14800,"station_id":"ce4bhp92rcd13ifvqhcg","pricing_plan_id":"cebpf4jnsgd1na2vs0mg"},{"bike_id":"41101348-ca41-4d1e-91a2-fc07f24e2d90","system_id":"levelo_inurba_marseille","lat":43.30442,"lon":5.38891,"is_reserved":false,"is_disabled":false,"rental_uris":{"android":"levelo://app?vid=41101348-ca41-4d1e-91a2-fc07f24e2d90","ios":"levelo://app?vid=41101348-ca41-4d1e-91a2-fc07f24e2d90"},"vehicle_type_id":"4","last_reported":1751756977,"current_range_meters":15200,"station_id":"ce4bgk12rcd13ifvqbi0","pricing_plan_id":"cebpf4jnsgd1na2vs0mg"},{"bike_id":"d9b6ee14-5457-481f-b05d-adb755ae4cf4","system_id":"levelo_inurba_marseille","lat":43.30889,"lon":5.37193,"is_reserved":false,"is_disabled":false,"rental_uris":{"android":"levelo://app?vid=d9b6ee14-5457-481f-b05d-adb755ae4cf4","ios":"levelo://app?vid=d9b6ee14-5457-481f-b05d-adb755ae4cf4"},"vehicle_type_id":"4","last_reported":1751756977,"current_range_meters":15200,"station_id":"ce4bguh2rcd13ifvqckg","pricing_plan_id":"cebpf4jnsgd1na2vs0mg"},{"bike_id":"f4083786-8573-439f-9aac-f7840641a4f4","system_id":"levelo_inurba_marseille","lat":43.23196,"lon":5.39988,"is_reserved":false,"is_disabled":false,"rental_uris":{"android":"levelo://app?vid=f4083786-8573-439f-9aac-f7840641a4f4","ios":"levelo://app?vid=f4083786-8573-439f-9aac-f7840641a4f4"},"vehicle_type_id":"4","last_reported":1751756977,"current_range_meters":15200,"station_id":"ce4bhn12rcd13ifvqgqg","pricing_plan_id":"cebpf4jnsgd1na2vs0mg"},{"bike_id":"d858b784-4fd9-41d7-8169-6d2f7e176251","system_id":"levelo_inurba_marseille","lat":43.30018,"lon":5.37814,"is_reserved":false,"is_disabled":false,"rental_uris":{"android":"levelo://app?vid=d858b784-4fd9-41d7-8169-6d2f7e176251","ios":"levelo://app?vid=d858b784-4fd9-41d7-8169-6d2f7e176251"},"vehicle_type_id":"4","last_reported":1751756977,"current_range_meters":16000,"station_id":"","pricing_plan_id":"cebpf4jnsgd1na2vs0mg"},{"bike_id":"d8679dc8-784a-42e4-afea-f89f8ef2b3fa","system_id":"levelo_inurba_marseille","lat":43.24714,"lon":5.41173,"is_reserved":false,"is_disabled":false,"rental_uris":{"android":"levelo://app?vid=d8679dc8-784a-42e4-afea-f89f8ef2b3fa","ios":"levelo://app?vid=d8679dc8-784a-42e4-afea-f89f8ef2b3fa"},"vehicle_type_id":"4","last_reported":1751756977,"current_range_meters":16000,"station_id":"","pricing_plan_id":"cebpf4jnsgd1na2vs0mg"},{"bike_id":"13d8a271-ad04-4641-b85a-b7620cf99438","system_id":"levelo_inurba_marseille","lat":43.30238,"lon":5.40064,"is_reserved":false,"is_disabled":false,"rental_uris":{"android":"levelo://app?vid=13d8a271-ad04-4641-b85a-b7620cf99438","ios":"levelo://app?vid=13d8a271-ad04-4641-b85a-b7620cf99438"},"vehicle_type_id":"4","last_reported":1751756977,"current_range_meters":16000,"station_id":"ce4bgvh2rcd13ifvqcs0","pricing_plan_id":"cebpf4jnsgd1na2vs0mg"},{"bike_id":"e882e80e-53a0-47fc-95f2-c6929f800945","system_id":"levelo_inurba_marseille","lat":43.28939,"lon":5.39618,"is_reserved":false,"is_disabled":false,"rental_uris":{"android":"levelo://app?vid=e882e80e-53a0-47fc-95f2-c6929f800945","ios":"levelo://app?vid=e882e80e-53a0-47fc-95f2-c6929f800945"},"vehicle_type_id":"4","last_reported":1751756977,"current_range_meters":16000,"station_id":"ce4bh3h2rcd13ifvqdn0","pricing_plan_id":"cebpf4jnsgd1na2vs0mg"},{"bike_id":"18e903c3-bd69-4cad-bc4b-fefd2f289489","system_id":"levelo_inurba_marseille","lat":43.26231,"lon":5.40466,"is_reserved":false,"is_disabled":false,"rental_uris":{"android":"levelo://app?vid=18e903c3-bd69-4cad-bc4b-fefd2f289489","ios":"levelo://app?vid=18e903c3-bd69-4cad-bc4b-fefd2f289489"},"vehicle_type_id":"4","last_reported":1751756977,"current_range_meters":16000,"station_id":"ce4bhmh2rcd13ifvqgmg","pricing_plan_id":"cebpf4jnsgd1na2vs0mg"},{"bike_id":"e934df3a-55ad-4287-be0e-970eb81a614c","system_id":"levelo_inurba_marseille","lat":43.33744,"lon":5.39194,"is_reserved":false,"is_disabled":false,"rental_uris":{"android":"levelo://app?vid=e934df3a-55ad-4287-be0e-970eb81a614c","ios":"levelo://app?vid=e934df3a-55ad-4287-be0e-970eb81a614c"},"vehicle_type_id":"4","last_reported":1751756977,"current_range_meters":16000,"station_id":"ce4bhr92rcd13ifvqhsg","pricing_plan_id":"cebpf4jnsgd1na2vs0mg"},{"bike_id":"19c552da-55bc-46d8-97cb-d1fbabdad01a","system_id":"levelo_inurba_marseille","lat":43.21198,"lon":5.35075,"is_reserved":false,"is_disabled":false,"rental_uris":{"android":"levelo://app?vid=19c552da-55bc-46d8-97cb-d1fbabdad01a","ios":"levelo://app?vid=19c552da-55bc-46d8-97cb-d1fbabdad01a"},"vehicle_type_id":"4","last_reported":1751756977,"current_range_meters":16000,"station_id":"st_cvj6sg6p6f1abm77japg","pricing_plan_id":"cebpf4jnsgd1na2vs0mg"},{"bike_id":"452e8211-4f44-45d0-814a-3e9e25b8c44e","system_id":"levelo_inurba_marseille","lat":43.21189,"lon":5.35081,"is_reserved":false,"is_disabled":false,"rental_uris":{"android":"levelo://app?vid=452e8211-4f44-45d0-814a-3e9e25b8c44e","ios":"levelo://app?vid=452e8211-4f44-45d0-814a-3e9e25b8c44e"},"vehicle_type_id":"4","last_reported":1751756977,"current_range_meters":16000,"station_id":"st_cvj6sg6p6f1abm77japg","pricing_plan_id":"cebpf4jnsgd1na2vs0mg"},{"bike_id":"336ecdac-5394-4653-baf1-4b616e9b91fa","system_id":"levelo_inurba_marseille","lat":43.30315,"lon":5.40435,"is_reserved":false,"is_disabled":false,"rental_uris":{"android":"levelo://app?vid=336ecdac-5394-4653-baf1-4b616e9b91fa","ios":"levelo://app?vid=336ecdac-5394-4653-baf1-4b616e9b91fa"},"vehicle_type_id":"4","last_reported":1751756977,"current_range_meters":16400,"station_id":"ce4bh012rcd13ifvqd10","pricing_plan_id":"cebpf4jnsgd1na2vs0mg"},{"bike_id":"2dfe9a6c-c017-4c3c-b211-38be4ceaca18","system_id":"levelo_inurba_marseille","lat":43.25076,"lon":5.39533,"is_reserved":false,"is_disabled":false,"rental_uris":{"android":"levelo://app?vid=2dfe9a6c-c017-4c3c-b211-38be4ceaca18","ios":"levelo://app?vid=2dfe9a6c-c017-4c3c-b211-38be4ceaca18"},"vehicle_type_id":"4","last_reported":1751756977,"current_range_meters":16400,"station_id":"ce4bhm12rcd13ifvqgkg","pricing_plan_id":"cebpf4jnsgd1na2vs0mg"},{"bike_id":"382ea2c3-c684-4d31-b8bb-d2fb731b9609","system_id":"levelo_inurba_marseille","lat":43.27996,"lon":5.41661,"is_reserved":false,"is_disabled":false,"rental_uris":{"android":"levelo://app?vid=382ea2c3-c684-4d31-b8bb-d2fb731b9609","ios":"levelo://app?vid=382ea2c3-c684-4d31-b8bb-d2fb731b9609"},"vehicle_type_id":"4","last_reported":1751756977,"current_range_meters":16400,"station_id":"ce4bho12rcd13ifvqh1g","pricing_plan_id":"cebpf4jnsgd1na2vs0mg"},{"bike_id":"96a0f744-b0b6-4347-85f0-0896ec669583","system_id":"levelo_inurba_marseille","lat":43.31994,"lon":5.38164,"is_reserved":false,"is_disabled":false,"rental_uris":{"android":"levelo://app?vid=96a0f744-b0b6-4347-85f0-0896ec669583","ios":"levelo://app?vid=96a0f744-b0b6-4347-85f0-0896ec669583"},"vehicle_type_id":"4","last_reported":1751756977,"current_range_meters":16400,"station_id":"ce4bhr12rcd13ifvqhpg","pricing_plan_id":"cebpf4jnsgd1na2vs0mg"},{"bike_id":"2839a6fa-69e6-491b-846d-9ad46f5e4b06","system_id":"levelo_inurba_marseille","lat":43.32091,"lon":5.36782,"is_reserved":false,"is_disabled":false,"rental_uris":{"android":"levelo://app?vid=2839a6fa-69e6-491b-846d-9ad46f5e4b06","ios":"levelo://app?vid=2839a6fa-69e6-491b-846d-9ad46f5e4b06"},"vehicle_type_id":"4","last_reported":1751756977,"current_range_meters":16400,"station_id":"ce4bhrh2rcd13ifvqhug","pricing_plan_id":"cebpf4jnsgd1na2vs0mg"},{"bike_id":"cd6f91d4-bdaf-4e38-b4f5-14f6e83055e8","system_id":"levelo_inurba_marseille","lat":43.21184,"lon":5.35095,"is_reserved":false,"is_disabled":false,"rental_uris":{"android":"levelo://app?vid=cd6f91d4-bdaf-4e38-b4f5-14f6e83055e8","ios":"levelo://app?vid=cd6f91d4-bdaf-4e38-b4f5-14f6e83055e8"},"vehicle_type_id":"4","last_reported":1751756977,"current_range_meters":16400,"station_id":"st_cvj6sg6p6f1abm77japg","pricing_plan_id":"cebpf4jnsgd1na2vs0mg"},{"bike_id":"57eb87ae-ada6-4ec3-8528-9064837e5876","system_id":"levelo_inurba_marseille","lat":43.31347,"lon":5.38516,"is_reserved":false,"is_disabled":false,"rental_uris":{"android":"levelo://app?vid=57eb87ae-ada6-4ec3-8528-9064837e5876","ios":"levelo://app?vid=57eb87ae-ada6-4ec3-8528-9064837e5876"},"vehicle_type_id":"4","last_reported":1751756977,"current_range_meters":16800,"station_id":"ce4bgt92rcd13ifvqcf0","pricing_plan_id":"cebpf4jnsgd1na2vs0mg"},{"bike_id":"41d928e6-b9b0-4e48-84e1-7ba52781d76b","system_id":"levelo_inurba_marseille","lat":43.246813,"lon":5.381435,"is_reserved":false,"is_disabled":false,"rental_uris":{"android":"levelo://app?vid=41d928e6-b9b0-4e48-84e1-7ba52781d76b","ios":"levelo://app?vid=41d928e6-b9b0-4e48-84e1-7ba52781d76b"},"vehicle_type_id":"4","last_reported":1751756977,"current_range_meters":16800,"station_id":"ce4bhih2rcd13ifvqfr0","pricing_plan_id":"cebpf4jnsgd1na2vs0mg"},{"bike_id":"f0f5480c-40ba-4897-b55b-fcab9ada1fbe","system_id":"levelo_inurba_marseille","lat":43.27941,"lon":5.4104,"is_reserved":false,"is_disabled":false,"rental_uris":{"android":"levelo://app?vid=f0f5480c-40ba-4897-b55b-fcab9ada1fbe","ios":"levelo://app?vid=f0f5480c-40ba-4897-b55b-fcab9ada1fbe"},"vehicle_type_id":"4","last_reported":1751756977,"current_range_meters":16800,"station_id":"ce4bhnp2rcd13ifvqh0g","pricing_plan_id":"cebpf4jnsgd1na2vs0mg"},{"bike_id":"aca47642-4ceb-4a40-bae0-66b7f0d6dee2","system_id":"levelo_inurba_marseille","lat":43.22509,"lon":5.3478,"is_reserved":false,"is_disabled":false,"rental_uris":{"android":"levelo://app?vid=aca47642-4ceb-4a40-bae0-66b7f0d6dee2","ios":"levelo://app?vid=aca47642-4ceb-4a40-bae0-66b7f0d6dee2"},"vehicle_type_id":"4","last_reported":1751756977,"current_range_meters":16800,"station_id":"st_cvj5dfep6f1abm77gieg","pricing_plan_id":"cebpf4jnsgd1na2vs0mg"},{"bike_id":"52928a1c-1edc-47ad-9463-56de5df1ff03","system_id":"levelo_inurba_marseille","lat":43.29525,"lon":5.38548,"is_reserved":false,"is_disabled":false,"rental_uris":{"android":"levelo://app?vid=52928a1c-1edc-47ad-9463-56de5df1ff03","ios":"levelo://app?vid=52928a1c-1edc-47ad-9463-56de5df1ff03"},"vehicle_type_id":"4","last_reported":1751756977,"current_range_meters":17200,"station_id":"ce4bgih2rcd13ifvqba0","pricing_plan_id":"cebpf4jnsgd1na2vs0mg"},{"bike_id":"aa7cc5b6-4458-4026-b90e-182527b84227","system_id":"levelo_inurba_marseille","lat":43.31326,"lon":5.39694,"is_reserved":false,"is_disabled":false,"rental_uris":{"android":"levelo://app?vid=aa7cc5b6-4458-4026-b90e-182527b84227","ios":"levelo://app?vid=aa7cc5b6-4458-4026-b90e-182527b84227"},"vehicle_type_id":"4","last_reported":1751756977,"current_range_meters":17200,"station_id":"ce4bgvp2rcd13ifvqcu0","pricing_plan_id":"cebpf4jnsgd1na2vs0mg"},{"bike_id":"9c84e6bf-7181-4f55-9501-4734f5c5ee3d","system_id":"levelo_inurba_marseille","lat":43.276803,"lon":5.388703,"is_reserved":false,"is_disabled":false,"rental_uris":{"android":"levelo://app?vid=9c84e6bf-7181-4f55-9501-4734f5c5ee3d","ios":"levelo://app?vid=9c84e6bf-7181-4f55-9501-4734f5c5ee3d"},"vehicle_type_id":"4","last_reported":1751756977,"current_range_meters":17200,"station_id":"ce4bhi12rcd13ifvqfo0","pricing_plan_id":"cebpf4jnsgd1na2vs0mg"},{"bike_id":"6bea4ff2-ba1e-458f-9b66-1468e30ac94b","system_id":"levelo_inurba_marseille","lat":43.260995,"lon":5.400833,"is_reserved":false,"is_disabled":false,"rental_uris":{"android":"levelo://app?vid=6bea4ff2-ba1e-458f-9b66-1468e30ac94b","ios":"levelo://app?vid=6bea4ff2-ba1e-458f-9b66-1468e30ac94b"},"vehicle_type_id":"4","last_reported":1751756977,"current_range_meters":17200,"station_id":"ce4bhl92rcd13ifvqghg","pricing_plan_id":"cebpf4jnsgd1na2vs0mg"},{"bike_id":"8ff468c8-d5a3-466e-88fc-90eac9be3f72","system_id":"levelo_inurba_marseille","lat":43.25086,"lon":5.39517,"is_reserved":false,"is_disabled":false,"rental_uris":{"android":"levelo://app?vid=8ff468c8-d5a3-466e-88fc-90eac9be3f72","ios":"levelo://app?vid=8ff468c8-d5a3-466e-88fc-90eac9be3f72"},"vehicle_type_id":"4","last_reported":1751756977,"current_range_meters":17200,"station_id":"ce4bhm12rcd13ifvqgkg","pricing_plan_id":"cebpf4jnsgd1na2vs0mg"},{"bike_id":"fdfc3e0d-21e4-473d-9207-6a32da3e00e7","system_id":"levelo_inurba_marseille","lat":43.28704,"lon":5.39952,"is_reserved":false,"is_disabled":false,"rental_uris":{"android":"levelo://app?vid=fdfc3e0d-21e4-473d-9207-6a32da3e00e7","ios":"levelo://app?vid=fdfc3e0d-21e4-473d-9207-6a32da3e00e7"},"vehicle_type_id":"4","last_reported":1751756977,"current_range_meters":17200,"station_id":"ce4bho92rcd13ifvqh3g","pricing_plan_id":"cebpf4jnsgd1na2vs0mg"},{"bike_id":"f864dc7d-6f06-4447-8cdc-a8ca416c24f9","system_id":"levelo_inurba_marseille","lat":43.30427,"lon":5.39747,"is_reserved":false,"is_disabled":false,"rental_uris":{"android":"levelo://app?vid=f864dc7d-6f06-4447-8cdc-a8ca416c24f9","ios":"levelo://app?vid=f864dc7d-6f06-4447-8cdc-a8ca416c24f9"},"vehicle_type_id":"4","last_reported":1751756977,"current_range_meters":17600,"station_id":"ce4bh092rcd13ifvqd20","pricing_plan_id":"cebpf4jnsgd1na2vs0mg"},{"bike_id":"4b785229-72f5-4328-abd6-81861d24514d","system_id":"levelo_inurba_marseille","lat":43.2903,"lon":5.35914,"is_reserved":false,"is_disabled":false,"rental_uris":{"android":"levelo://app?vid=4b785229-72f5-4328-abd6-81861d24514d","ios":"levelo://app?vid=4b785229-72f5-4328-abd6-81861d24514d"},"vehicle_type_id":"4","last_reported":1751756977,"current_range_meters":17600,"station_id":"ce4bha92rcd13ifvqeg0","pricing_plan_id":"cebpf4jnsgd1na2vs0mg"},{"bike_id":"e5c4c808-c6ff-452a-a9cc-455a0043edcb","system_id":"levelo_inurba_marseille","lat":43.2846,"lon":5.3589,"is_reserved":false,"is_disabled":false,"rental_uris":{"android":"levelo://app?vid=e5c4c808-c6ff-452a-a9cc-455a0043edcb","ios":"levelo://app?vid=e5c4c808-c6ff-452a-a9cc-455a0043edcb"},"vehicle_type_id":"4","last_reported":1751756977,"current_range_meters":17600,"station_id":"ce4bhah2rcd13ifvqei0","pricing_plan_id":"cebpf4jnsgd1na2vs0mg"},{"bike_id":"09477c97-98e3-42fd-800d-d7e6e7d10e81","system_id":"levelo_inurba_marseille","lat":43.24063,"lon":5.37749,"is_reserved":false,"is_disabled":false,"rental_uris":{"android":"levelo://app?vid=09477c97-98e3-42fd-800d-d7e6e7d10e81","ios":"levelo://app?vid=09477c97-98e3-42fd-800d-d7e6e7d10e81"},"vehicle_type_id":"4","last_reported":1751756977,"current_range_meters":17600,"station_id":"ce4bhnp2rcd13ifvqgvg","pricing_plan_id":"cebpf4jnsgd1na2vs0mg"},{"bike_id":"e9b3e318-2ebf-455f-83a6-6010799d6582","system_id":"levelo_inurba_marseille","lat":43.32476,"lon":5.36566,"is_reserved":false,"is_disabled":false,"rental_uris":{"android":"levelo://app?vid=e9b3e318-2ebf-455f-83a6-6010799d6582","ios":"levelo://app?vid=e9b3e318-2ebf-455f-83a6-6010799d6582"},"vehicle_type_id":"4","last_reported":1751756977,"current_range_meters":17600,"station_id":"ce4bhs12rcd13ifvqhvg","pricing_plan_id":"cebpf4jnsgd1na2vs0mg"},{"bike_id":"743e496d-6cc3-4fe1-abc5-d6a5f00246eb","system_id":"levelo_inurba_marseille","lat":43.24167,"lon":5.36394,"is_reserved":false,"is_disabled":false,"rental_uris":{"android":"levelo://app?vid=743e496d-6cc3-4fe1-abc5-d6a5f00246eb","ios":"levelo://app?vid=743e496d-6cc3-4fe1-abc5-d6a5f00246eb"},"vehicle_type_id":"4","last_reported":1751756977,"current_range_meters":17600,"station_id":"cpo36qri1sfpv3e86is0","pricing_plan_id":"cebpf4jnsgd1na2vs0mg"},{"bike_id":"3dfc66ab-1391-4797-bd00-e91babc9c17c","system_id":"levelo_inurba_marseille","lat":43.313315,"lon":5.396907,"is_reserved":false,"is_disabled":false,"rental_uris":{"android":"levelo://app?vid=3dfc66ab-1391-4797-bd00-e91babc9c17c","ios":"levelo://app?vid=3dfc66ab-1391-4797-bd00-e91babc9c17c"},"vehicle_type_id":"4","last_reported":1751756977,"current_range_meters":18000,"station_id":"ce4bgvp2rcd13ifvqcu0","pricing_plan_id":"cebpf4jnsgd1na2vs0mg"},{"bike_id":"48263a7c-0f9a-47ca-adce-543e4b642fff","system_id":"levelo_inurba_marseille","lat":43.24664,"lon":5.3816,"is_reserved":false,"is_disabled":false,"rental_uris":{"android":"levelo://app?vid=48263a7c-0f9a-47ca-adce-543e4b642fff","ios":"levelo://app?vid=48263a7c-0f9a-47ca-adce-543e4b642fff"},"vehicle_type_id":"4","last_reported":1751756977,"current_range_meters":18000,"station_id":"ce4bhih2rcd13ifvqfr0","pricing_plan_id":"cebpf4jnsgd1na2vs0mg"},{"bike_id":"83b675fd-1904-4cf7-bde7-95cad47ffafe","system_id":"levelo_inurba_marseille","lat":43.29413,"lon":5.38553,"is_reserved":false,"is_disabled":false,"rental_uris":{"android":"levelo://app?vid=83b675fd-1904-4cf7-bde7-95cad47ffafe","ios":"levelo://app?vid=83b675fd-1904-4cf7-bde7-95cad47ffafe"},"vehicle_type_id":"4","last_reported":1751756977,"current_range_meters":18800,"station_id":"","pricing_plan_id":"cebpf4jnsgd1na2vs0mg"},{"bike_id":"3b22f952-d0bc-4c00-8fd3-7e27b88aea23","system_id":"levelo_inurba_marseille","lat":43.29659,"lon":5.36245,"is_reserved":false,"is_disabled":false,"rental_uris":{"android":"levelo://app?vid=3b22f952-d0bc-4c00-8fd3-7e27b88aea23","ios":"levelo://app?vid=3b22f952-d0bc-4c00-8fd3-7e27b88aea23"},"vehicle_type_id":"4","last_reported":1751756977,"current_range_meters":18800,"station_id":"","pricing_plan_id":"cebpf4jnsgd1na2vs0mg"},{"bike_id":"9b346f10-a955-4089-b466-e5754562e5e4","system_id":"levelo_inurba_marseille","lat":43.29536,"lon":5.38533,"is_reserved":false,"is_disabled":false,"rental_uris":{"android":"levelo://app?vid=9b346f10-a955-4089-b466-e5754562e5e4","ios":"levelo://app?vid=9b346f10-a955-4089-b466-e5754562e5e4"},"vehicle_type_id":"4","last_reported":1751756977,"current_range_meters":18800,"station_id":"ce4bgih2rcd13ifvqba0","pricing_plan_id":"cebpf4jnsgd1na2vs0mg"},{"bike_id":"08d4f90e-e066-489d-8368-6de709b7e3a7","system_id":"levelo_inurba_marseille","lat":43.30321,"lon":5.40443,"is_reserved":false,"is_disabled":false,"rental_uris":{"android":"levelo://app?vid=08d4f90e-e066-489d-8368-6de709b7e3a7","ios":"levelo://app?vid=08d4f90e-e066-489d-8368-6de709b7e3a7"},"vehicle_type_id":"4","last_reported":1751756977,"current_range_meters":18800,"station_id":"ce4bh012rcd13ifvqd10","pricing_plan_id":"cebpf4jnsgd1na2vs0mg"},{"bike_id":"db9c8262-39e9-4ace-9599-8b329257677f","system_id":"levelo_inurba_marseille","lat":43.2957,"lon":5.39983,"is_reserved":false,"is_disabled":false,"rental_uris":{"android":"levelo://app?vid=db9c8262-39e9-4ace-9599-8b329257677f","ios":"levelo://app?vid=db9c8262-39e9-4ace-9599-8b329257677f"},"vehicle_type_id":"4","last_reported":1751756977,"current_range_meters":18800,"station_id":"ce4bh312rcd13ifvqdj0","pricing_plan_id":"cebpf4jnsgd1na2vs0mg"},{"bike_id":"0622a6c0-09b8-434f-8d33-15d28ec3537e","system_id":"levelo_inurba_marseille","lat":43.2928,"lon":5.40137,"is_reserved":false,"is_disabled":false,"rental_uris":{"android":"levelo://app?vid=0622a6c0-09b8-434f-8d33-15d28ec3537e","ios":"levelo://app?vid=0622a6c0-09b8-434f-8d33-15d28ec3537e"},"vehicle_type_id":"4","last_reported":1751756977,"current_range_meters":18800,"station_id":"ce4bh312rcd13ifvqdk0","pricing_plan_id":"cebpf4jnsgd1na2vs0mg"},{"bike_id":"604a9082-4bf3-4649-a36a-1faa8be4377e","system_id":"levelo_inurba_marseille","lat":43.28913,"lon":5.38399,"is_reserved":false,"is_disabled":false,"rental_uris":{"android":"levelo://app?vid=604a9082-4bf3-4649-a36a-1faa8be4377e","ios":"levelo://app?vid=604a9082-4bf3-4649-a36a-1faa8be4377e"},"vehicle_type_id":"4","last_reported":1751756977,"current_range_meters":18800,"station_id":"ce4bh612rcd13ifvqe6g","pricing_plan_id":"cebpf4jnsgd1na2vs0mg"},{"bike_id":"f6a86765-c626-42dc-b436-5d5f093f6792","system_id":"levelo_inurba_marseille","lat":43.24653,"lon":5.38166,"is_reserved":false,"is_disabled":false,"rental_uris":{"android":"levelo://app?vid=f6a86765-c626-42dc-b436-5d5f093f6792","ios":"levelo://app?vid=f6a86765-c626-42dc-b436-5d5f093f6792"},"vehicle_type_id":"4","last_reported":1751756977,"current_range_meters":18800,"station_id":"ce4bhih2rcd13ifvqfr0","pricing_plan_id":"cebpf4jnsgd1na2vs0mg"},{"bike_id":"0d6eaa25-1afc-4fd4-be0b-1f9d53e99f03","system_id":"levelo_inurba_marseille","lat":43.2319,"lon":5.39974,"is_reserved":false,"is_disabled":false,"rental_uris":{"android":"levelo://app?vid=0d6eaa25-1afc-4fd4-be0b-1f9d53e99f03","ios":"levelo://app?vid=0d6eaa25-1afc-4fd4-be0b-1f9d53e99f03"},"vehicle_type_id":"4","last_reported":1751756977,"current_range_meters":18800,"station_id":"ce4bhn12rcd13ifvqgqg","pricing_plan_id":"cebpf4jnsgd1na2vs0mg"},{"bike_id":"e113175a-26c2-4709-bd2e-8b90ec8dd3ee","system_id":"levelo_inurba_marseille","lat":43.27507,"lon":5.42443,"is_reserved":false,"is_disabled":false,"rental_uris":{"android":"levelo://app?vid=e113175a-26c2-4709-bd2e-8b90ec8dd3ee","ios":"levelo://app?vid=e113175a-26c2-4709-bd2e-8b90ec8dd3ee"},"vehicle_type_id":"4","last_reported":1751756977,"current_range_meters":18800,"station_id":"ce4bhn92rcd13ifvqgrg","pricing_plan_id":"cebpf4jnsgd1na2vs0mg"},{"bike_id":"dea857c0-e04d-4b8b-9c91-1f86ad0f3591","system_id":"levelo_inurba_marseille","lat":43.31901,"lon":5.4073,"is_reserved":false,"is_disabled":false,"rental_uris":{"android":"levelo://app?vid=dea857c0-e04d-4b8b-9c91-1f86ad0f3591","ios":"levelo://app?vid=dea857c0-e04d-4b8b-9c91-1f86ad0f3591"},"vehicle_type_id":"4","last_reported":1751756977,"current_range_meters":18800,"station_id":"ce4bhq12rcd13ifvqhig","pricing_plan_id":"cebpf4jnsgd1na2vs0mg"},{"bike_id":"aa8f61d8-323f-47e5-890f-90ad80dab82c","system_id":"levelo_inurba_marseille","lat":43.33732,"lon":5.39206,"is_reserved":false,"is_disabled":false,"rental_uris":{"android":"levelo://app?vid=aa8f61d8-323f-47e5-890f-90ad80dab82c","ios":"levelo://app?vid=aa8f61d8-323f-47e5-890f-90ad80dab82c"},"vehicle_type_id":"4","last_reported":1751756977,"current_range_meters":18800,"station_id":"ce4bhr92rcd13ifvqhsg","pricing_plan_id":"cebpf4jnsgd1na2vs0mg"},{"bike_id":"d5ef770d-9759-47e3-b3a5-7d2785ef76db","system_id":"levelo_inurba_marseille","lat":43.32932,"lon":5.38992,"is_reserved":false,"is_disabled":false,"rental_uris":{"android":"levelo://app?vid=d5ef770d-9759-47e3-b3a5-7d2785ef76db","ios":"levelo://app?vid=d5ef770d-9759-47e3-b3a5-7d2785ef76db"},"vehicle_type_id":"4","last_reported":1751756977,"current_range_meters":19200,"station_id":"","pricing_plan_id":"cebpf4jnsgd1na2vs0mg"},{"bike_id":"80955d0f-8669-4c02-b90f-c6fe20790c37","system_id":"levelo_inurba_marseille","lat":43.23184,"lon":5.35009,"is_reserved":false,"is_disabled":false,"rental_uris":{"android":"levelo://app?vid=80955d0f-8669-4c02-b90f-c6fe20790c37","ios":"levelo://app?vid=80955d0f-8669-4c02-b90f-c6fe20790c37"},"vehicle_type_id":"4","last_reported":1751756977,"current_range_meters":19200,"station_id":"","pricing_plan_id":"cebpf4jnsgd1na2vs0mg"},{"bike_id":"ad35e9c5-194e-450b-bed8-7ca855cfff07","system_id":"levelo_inurba_marseille","lat":43.24796,"lon":5.3747,"is_reserved":false,"is_disabled":false,"rental_uris":{"android":"levelo://app?vid=ad35e9c5-194e-450b-bed8-7ca855cfff07","ios":"levelo://app?vid=ad35e9c5-194e-450b-bed8-7ca855cfff07"},"vehicle_type_id":"4","last_reported":1751756977,"current_range_meters":19200,"station_id":"ce4bhgh2rcd13ifvqfb0","pricing_plan_id":"cebpf4jnsgd1na2vs0mg"},{"bike_id":"001c84d9-0c03-4f27-9212-9eb28e27f49d","system_id":"levelo_inurba_marseille","lat":43.25102,"lon":5.40324,"is_reserved":false,"is_disabled":false,"rental_uris":{"android":"levelo://app?vid=001c84d9-0c03-4f27-9212-9eb28e27f49d","ios":"levelo://app?vid=001c84d9-0c03-4f27-9212-9eb28e27f49d"},"vehicle_type_id":"4","last_reported":1751756977,"current_range_meters":19200,"station_id":"ce4bhlh2rcd13ifvqgig","pricing_plan_id":"cebpf4jnsgd1na2vs0mg"},{"bike_id":"e8d7fcf5-14a0-430b-a247-ddceafd06b95","system_id":"levelo_inurba_marseille","lat":43.22505,"lon":5.34785,"is_reserved":false,"is_disabled":false,"rental_uris":{"android":"levelo://app?vid=e8d7fcf5-14a0-430b-a247-ddceafd06b95","ios":"levelo://app?vid=e8d7fcf5-14a0-430b-a247-ddceafd06b95"},"vehicle_type_id":"4","last_reported":1751756977,"current_range_meters":19200,"station_id":"st_cvj5dfep6f1abm77gieg","pricing_plan_id":"cebpf4jnsgd1na2vs0mg"},{"bike_id":"d0f90c24-dd03-411b-9731-55305f76b7c8","system_id":"levelo_inurba_marseille","lat":43.211936,"lon":5.350729,"is_reserved":false,"is_disabled":false,"rental_uris":{"android":"levelo://app?vid=d0f90c24-dd03-411b-9731-55305f76b7c8","ios":"levelo://app?vid=d0f90c24-dd03-411b-9731-55305f76b7c8"},"vehicle_type_id":"4","last_reported":1751756977,"current_range_meters":19200,"station_id":"st_cvj6sg6p6f1abm77japg","pricing_plan_id":"cebpf4jnsgd1na2vs0mg"},{"bike_id":"37f2becd-23f9-4f13-a711-38b8024eeec7","system_id":"levelo_inurba_marseille","lat":43.33768,"lon":5.37516,"is_reserved":false,"is_disabled":false,"rental_uris":{"android":"levelo://app?vid=37f2becd-23f9-4f13-a711-38b8024eeec7","ios":"levelo://app?vid=37f2becd-23f9-4f13-a711-38b8024eeec7"},"vehicle_type_id":"4","last_reported":1751756977,"current_range_meters":19600,"station_id":"","pricing_plan_id":"cebpf4jnsgd1na2vs0mg"},{"bike_id":"5990f216-ff49-45d0-b9cd-dfa8cb8d6e0a","system_id":"levelo_inurba_marseille","lat":43.299955,"lon":5.387976,"is_reserved":false,"is_disabled":false,"rental_uris":{"android":"levelo://app?vid=5990f216-ff49-45d0-b9cd-dfa8cb8d6e0a","ios":"levelo://app?vid=5990f216-ff49-45d0-b9cd-dfa8cb8d6e0a"},"vehicle_type_id":"4","last_reported":1751756977,"current_range_meters":19600,"station_id":"ce4bgg92rcd13ifvqb30","pricing_plan_id":"cebpf4jnsgd1na2vs0mg"},{"bike_id":"e8ad2680-f594-4f79-93f1-ae75f7ffc21c","system_id":"levelo_inurba_marseille","lat":43.3095,"lon":5.39037,"is_reserved":false,"is_disabled":false,"rental_uris":{"android":"levelo://app?vid=e8ad2680-f594-4f79-93f1-ae75f7ffc21c","ios":"levelo://app?vid=e8ad2680-f594-4f79-93f1-ae75f7ffc21c"},"vehicle_type_id":"4","last_reported":1751756977,"current_range_meters":19600,"station_id":"ce4bgup2rcd13ifvqco0","pricing_plan_id":"cebpf4jnsgd1na2vs0mg"},{"bike_id":"ed12c1c7-d20a-4a0a-a336-0560f8c41a9a","system_id":"levelo_inurba_marseille","lat":43.30641,"lon":5.40072,"is_reserved":false,"is_disabled":false,"rental_uris":{"android":"levelo://app?vid=ed12c1c7-d20a-4a0a-a336-0560f8c41a9a","ios":"levelo://app?vid=ed12c1c7-d20a-4a0a-a336-0560f8c41a9a"},"vehicle_type_id":"4","last_reported":1751756977,"current_range_meters":19600,"station_id":"ce4bh112rcd13ifvqda0","pricing_plan_id":"cebpf4jnsgd1na2vs0mg"},{"bike_id":"b1696f50-cc01-42b0-bc10-1ea09e81fd3d","system_id":"levelo_inurba_marseille","lat":43.27441,"lon":5.39405,"is_reserved":false,"is_disabled":false,"rental_uris":{"android":"levelo://app?vid=b1696f50-cc01-42b0-bc10-1ea09e81fd3d","ios":"levelo://app?vid=b1696f50-cc01-42b0-bc10-1ea09e81fd3d"},"vehicle_type_id":"4","last_reported":1751756977,"current_range_meters":19600,"station_id":"ce4bhdp2rcd13ifvqf20","pricing_plan_id":"cebpf4jnsgd1na2vs0mg"},{"bike_id":"51d4d77c-0374-4108-b7d2-962ceefa4559","system_id":"levelo_inurba_marseille","lat":43.24664,"lon":5.38163,"is_reserved":false,"is_disabled":false,"rental_uris":{"android":"levelo://app?vid=51d4d77c-0374-4108-b7d2-962ceefa4559","ios":"levelo://app?vid=51d4d77c-0374-4108-b7d2-962ceefa4559"},"vehicle_type_id":"4","last_reported":1751756977,"current_range_meters":19600,"station_id":"ce4bhih2rcd13ifvqfr0","pricing_plan_id":"cebpf4jnsgd1na2vs0mg"},{"bike_id":"2bf4b9e0-53d7-40d0-88f8-3e7c1317d4b5","system_id":"levelo_inurba_marseille","lat":43.286932,"lon":5.399871,"is_reserved":false,"is_disabled":false,"rental_uris":{"android":"levelo://app?vid=2bf4b9e0-53d7-40d0-88f8-3e7c1317d4b5","ios":"levelo://app?vid=2bf4b9e0-53d7-40d0-88f8-3e7c1317d4b5"},"vehicle_type_id":"4","last_reported":1751756977,"current_range_meters":19600,"station_id":"ce4bho92rcd13ifvqh3g","pricing_plan_id":"cebpf4jnsgd1na2vs0mg"},{"bike_id":"4a808b65-855d-4beb-9862-f7b3d6acebe2","system_id":"levelo_inurba_marseille","lat":43.3248,"lon":5.3656,"is_reserved":false,"is_disabled":false,"rental_uris":{"android":"levelo://app?vid=4a808b65-855d-4beb-9862-f7b3d6acebe2","ios":"levelo://app?vid=4a808b65-855d-4beb-9862-f7b3d6acebe2"},"vehicle_type_id":"4","last_reported":1751756977,"current_range_meters":19600,"station_id":"ce4bhs12rcd13ifvqhvg","pricing_plan_id":"cebpf4jnsgd1na2vs0mg"},{"bike_id":"5f3dfc4a-bfac-442a-9db2-c77b38ebf2ea","system_id":"levelo_inurba_marseille","lat":43.30571,"lon":5.37263,"is_reserved":false,"is_disabled":false,"rental_uris":{"android":"levelo://app?vid=5f3dfc4a-bfac-442a-9db2-c77b38ebf2ea","ios":"levelo://app?vid=5f3dfc4a-bfac-442a-9db2-c77b38ebf2ea"},"vehicle_type_id":"4","last_reported":1751756977,"current_range_meters":20400,"station_id":"ce4bgqh2rcd13ifvqc4g","pricing_plan_id":"cebpf4jnsgd1na2vs0mg"},{"bike_id":"2dc9a4f4-54d5-4bfa-bed3-98e14ccae335","system_id":"levelo_inurba_marseille","lat":43.30803,"lon":5.38141,"is_reserved":false,"is_disabled":false,"rental_uris":{"android":"levelo://app?vid=2dc9a4f4-54d5-4bfa-bed3-98e14ccae335","ios":"levelo://app?vid=2dc9a4f4-54d5-4bfa-bed3-98e14ccae335"},"vehicle_type_id":"4","last_reported":1751756977,"current_range_meters":20400,"station_id":"ce4bgt12rcd13ifvqce0","pricing_plan_id":"cebpf4jnsgd1na2vs0mg"},{"bike_id":"29f534f3-f43b-40a1-972c-ff4928125cc6","system_id":"levelo_inurba_marseille","lat":43.31373,"lon":5.38495,"is_reserved":false,"is_disabled":false,"rental_uris":{"android":"levelo://app?vid=29f534f3-f43b-40a1-972c-ff4928125cc6","ios":"levelo://app?vid=29f534f3-f43b-40a1-972c-ff4928125cc6"},"vehicle_type_id":"4","last_reported":1751756977,"current_range_meters":20400,"station_id":"ce4bgt92rcd13ifvqcf0","pricing_plan_id":"cebpf4jnsgd1na2vs0mg"},{"bike_id":"737639fa-5860-4174-8499-5e07693117dc","system_id":"levelo_inurba_marseille","lat":43.31353,"lon":5.38505,"is_reserved":false,"is_disabled":false,"rental_uris":{"android":"levelo://app?vid=737639fa-5860-4174-8499-5e07693117dc","ios":"levelo://app?vid=737639fa-5860-4174-8499-5e07693117dc"},"vehicle_type_id":"4","last_reported":1751756977,"current_range_meters":20400,"station_id":"ce4bgt92rcd13ifvqcf0","pricing_plan_id":"cebpf4jnsgd1na2vs0mg"},{"bike_id":"ab52247b-5360-4609-8e6c-17288817534c","system_id":"levelo_inurba_marseille","lat":43.30319,"lon":5.40438,"is_reserved":false,"is_disabled":false,"rental_uris":{"android":"levelo://app?vid=ab52247b-5360-4609-8e6c-17288817534c","ios":"levelo://app?vid=ab52247b-5360-4609-8e6c-17288817534c"},"vehicle_type_id":"4","last_reported":1751756977,"current_range_meters":20400,"station_id":"ce4bh012rcd13ifvqd10","pricing_plan_id":"cebpf4jnsgd1na2vs0mg"},{"bike_id":"beae969a-a16d-4c6a-8c0a-1a5789fe1e82","system_id":"levelo_inurba_marseille","lat":43.23964,"lon":5.3663,"is_reserved":false,"is_disabled":false,"rental_uris":{"android":"levelo://app?vid=beae969a-a16d-4c6a-8c0a-1a5789fe1e82","ios":"levelo://app?vid=beae969a-a16d-4c6a-8c0a-1a5789fe1e82"},"vehicle_type_id":"4","last_reported":1751756977,"current_range_meters":20400,"station_id":"ce4bhi12rcd13ifvqfp0","pricing_plan_id":"cebpf4jnsgd1na2vs0mg"},{"bike_id":"7febba82-4ee5-4c18-8db2-651774aa92ef","system_id":"levelo_inurba_marseille","lat":43.24085,"lon":5.3775,"is_reserved":false,"is_disabled":false,"rental_uris":{"android":"levelo://app?vid=7febba82-4ee5-4c18-8db2-651774aa92ef","ios":"levelo://app?vid=7febba82-4ee5-4c18-8db2-651774aa92ef"},"vehicle_type_id":"4","last_reported":1751756977,"current_range_meters":20400,"station_id":"ce4bhnp2rcd13ifvqgvg","pricing_plan_id":"cebpf4jnsgd1na2vs0mg"},{"bike_id":"782b3025-334b-495f-abfb-7f1d25f8b2ce","system_id":"levelo_inurba_marseille","lat":43.2955,"lon":5.42295,"is_reserved":false,"is_disabled":false,"rental_uris":{"android":"levelo://app?vid=782b3025-334b-495f-abfb-7f1d25f8b2ce","ios":"levelo://app?vid=782b3025-334b-495f-abfb-7f1d25f8b2ce"},"vehicle_type_id":"4","last_reported":1751756977,"current_range_meters":20400,"station_id":"ce4bhph2rcd13ifvqhdg","pricing_plan_id":"cebpf4jnsgd1na2vs0mg"},{"bike_id":"c7397c87-5738-4812-9f4b-0d531a6f59f6","system_id":"levelo_inurba_marseille","lat":43.27998,"lon":5.40016,"is_reserved":false,"is_disabled":false,"rental_uris":{"android":"levelo://app?vid=c7397c87-5738-4812-9f4b-0d531a6f59f6","ios":"levelo://app?vid=c7397c87-5738-4812-9f4b-0d531a6f59f6"},"vehicle_type_id":"4","last_reported":1751756977,"current_range_meters":20800,"station_id":"","pricing_plan_id":"cebpf4jnsgd1na2vs0mg"},{"bike_id":"b1820b2a-283d-4900-bbc2-ae4916c2a015","system_id":"levelo_inurba_marseille","lat":43.31702,"lon":5.43701,"is_reserved":false,"is_disabled":false,"rental_uris":{"android":"levelo://app?vid=b1820b2a-283d-4900-bbc2-ae4916c2a015","ios":"levelo://app?vid=b1820b2a-283d-4900-bbc2-ae4916c2a015"},"vehicle_type_id":"4","last_reported":1751756977,"current_range_meters":20800,"station_id":"ce4bhp92rcd13ifvqhcg","pricing_plan_id":"cebpf4jnsgd1na2vs0mg"},{"bike_id":"369c8dd5-1813-419d-a4e5-23b99d5734f3","system_id":"levelo_inurba_marseille","lat":43.21188,"lon":5.35088,"is_reserved":false,"is_disabled":false,"rental_uris":{"android":"levelo://app?vid=369c8dd5-1813-419d-a4e5-23b99d5734f3","ios":"levelo://app?vid=369c8dd5-1813-419d-a4e5-23b99d5734f3"},"vehicle_type_id":"4","last_reported":1751756977,"current_range_meters":21600,"station_id":"","pricing_plan_id":"cebpf4jnsgd1na2vs0mg"},{"bike_id":"3deb7fe5-4b7f-4afa-9ce8-4eda11befed5","system_id":"levelo_inurba_marseille","lat":43.29774,"lon":5.37098,"is_reserved":false,"is_disabled":false,"rental_uris":{"android":"levelo://app?vid=3deb7fe5-4b7f-4afa-9ce8-4eda11befed5","ios":"levelo://app?vid=3deb7fe5-4b7f-4afa-9ce8-4eda11befed5"},"vehicle_type_id":"4","last_reported":1751756977,"current_range_meters":21600,"station_id":"ce4bgop2rcd13ifvqc1g","pricing_plan_id":"cebpf4jnsgd1na2vs0mg"},{"bike_id":"d3378bf5-79bc-4076-8203-d9ef1a33097e","system_id":"levelo_inurba_marseille","lat":43.308813,"lon":5.396515,"is_reserved":false,"is_disabled":false,"rental_uris":{"android":"levelo://app?vid=d3378bf5-79bc-4076-8203-d9ef1a33097e","ios":"levelo://app?vid=d3378bf5-79bc-4076-8203-d9ef1a33097e"},"vehicle_type_id":"4","last_reported":1751756977,"current_range_meters":21600,"station_id":"ce4bh012rcd13ifvqcv0","pricing_plan_id":"cebpf4jnsgd1na2vs0mg"},{"bike_id":"9f3ce6dc-941e-4b46-b23b-a8a7148579bf","system_id":"levelo_inurba_marseille","lat":43.29626,"lon":5.40612,"is_reserved":false,"is_disabled":false,"rental_uris":{"android":"levelo://app?vid=9f3ce6dc-941e-4b46-b23b-a8a7148579bf","ios":"levelo://app?vid=9f3ce6dc-941e-4b46-b23b-a8a7148579bf"},"vehicle_type_id":"4","last_reported":1751756977,"current_range_meters":21600,"station_id":"ce4bh0h2rcd13ifvqd60","pricing_plan_id":"cebpf4jnsgd1na2vs0mg"},{"bike_id":"0eb1894a-9049-41ec-93ee-6d77d7db3de0","system_id":"levelo_inurba_marseille","lat":43.3059,"lon":5.39366,"is_reserved":false,"is_disabled":false,"rental_uris":{"android":"levelo://app?vid=0eb1894a-9049-41ec-93ee-6d77d7db3de0","ios":"levelo://app?vid=0eb1894a-9049-41ec-93ee-6d77d7db3de0"},"vehicle_type_id":"4","last_reported":1751756977,"current_range_meters":21600,"station_id":"ce4bh0p2rcd13ifvqd80","pricing_plan_id":"cebpf4jnsgd1na2vs0mg"},{"bike_id":"5f22506e-f57d-48f1-99cc-23ad0b080983","system_id":"levelo_inurba_marseille","lat":43.27066,"lon":5.42293,"is_reserved":false,"is_disabled":false,"rental_uris":{"android":"levelo://app?vid=5f22506e-f57d-48f1-99cc-23ad0b080983","ios":"levelo://app?vid=5f22506e-f57d-48f1-99cc-23ad0b080983"},"vehicle_type_id":"4","last_reported":1751756977,"current_range_meters":21600,"station_id":"ce4bhk92rcd13ifvqgb0","pricing_plan_id":"cebpf4jnsgd1na2vs0mg"},{"bike_id":"8ebfd25a-e2f5-4b64-8815-88dd33e0b5f8","system_id":"levelo_inurba_marseille","lat":43.26898,"lon":5.40308,"is_reserved":false,"is_disabled":false,"rental_uris":{"android":"levelo://app?vid=8ebfd25a-e2f5-4b64-8815-88dd33e0b5f8","ios":"levelo://app?vid=8ebfd25a-e2f5-4b64-8815-88dd33e0b5f8"},"vehicle_type_id":"4","last_reported":1751756977,"current_range_meters":21600,"station_id":"cjm6bp8fraef2m0cb0m0","pricing_plan_id":"cebpf4jnsgd1na2vs0mg"},{"bike_id":"e7137259-a8cc-465f-80c9-301193a6bbc3","system_id":"levelo_inurba_marseille","lat":43.211963,"lon":5.350741,"is_reserved":false,"is_disabled":false,"rental_uris":{"android":"levelo://app?vid=e7137259-a8cc-465f-80c9-301193a6bbc3","ios":"levelo://app?vid=e7137259-a8cc-465f-80c9-301193a6bbc3"},"vehicle_type_id":"4","last_reported":1751756977,"current_range_meters":21600,"station_id":"st_cvj6sg6p6f1abm77japg","pricing_plan_id":"cebpf4jnsgd1na2vs0mg"},{"bike_id":"dc4d1d68-e685-4133-a44f-2028dcd38608","system_id":"levelo_inurba_marseille","lat":43.29532,"lon":5.38536,"is_reserved":false,"is_disabled":false,"rental_uris":{"android":"levelo://app?vid=dc4d1d68-e685-4133-a44f-2028dcd38608","ios":"levelo://app?vid=dc4d1d68-e685-4133-a44f-2028dcd38608"},"vehicle_type_id":"4","last_reported":1751756977,"current_range_meters":22000,"station_id":"ce4bgih2rcd13ifvqba0","pricing_plan_id":"cebpf4jnsgd1na2vs0mg"},{"bike_id":"368a1f36-b967-4133-865d-e4da63701359","system_id":"levelo_inurba_marseille","lat":43.30478,"lon":5.36524,"is_reserved":false,"is_disabled":false,"rental_uris":{"android":"levelo://app?vid=368a1f36-b967-4133-865d-e4da63701359","ios":"levelo://app?vid=368a1f36-b967-4133-865d-e4da63701359"},"vehicle_type_id":"4","last_reported":1751756977,"current_range_meters":22000,"station_id":"ce4bgt12rcd13ifvqcd0","pricing_plan_id":"cebpf4jnsgd1na2vs0mg"},{"bike_id":"3a429a7b-8fe3-42a8-982b-d55ef23c63cc","system_id":"levelo_inurba_marseille","lat":43.28971,"lon":5.37833,"is_reserved":false,"is_disabled":false,"rental_uris":{"android":"levelo://app?vid=3a429a7b-8fe3-42a8-982b-d55ef23c63cc","ios":"levelo://app?vid=3a429a7b-8fe3-42a8-982b-d55ef23c63cc"},"vehicle_type_id":"4","last_reported":1751756977,"current_range_meters":22000,"station_id":"ce4bh9p2rcd13ifvqed0","pricing_plan_id":"cebpf4jnsgd1na2vs0mg"},{"bike_id":"131dfe46-032d-4c15-9e73-cb0840f1073d","system_id":"levelo_inurba_marseille","lat":43.29566,"lon":5.39967,"is_reserved":false,"is_disabled":false,"rental_uris":{"android":"levelo://app?vid=131dfe46-032d-4c15-9e73-cb0840f1073d","ios":"levelo://app?vid=131dfe46-032d-4c15-9e73-cb0840f1073d"},"vehicle_type_id":"4","last_reported":1751756977,"current_range_meters":22400,"station_id":"ce4bh312rcd13ifvqdj0","pricing_plan_id":"cebpf4jnsgd1na2vs0mg"},{"bike_id":"91f7b738-c721-44b4-88c4-ce16570d3293","system_id":"levelo_inurba_marseille","lat":43.28941,"lon":5.39628,"is_reserved":false,"is_disabled":false,"rental_uris":{"android":"levelo://app?vid=91f7b738-c721-44b4-88c4-ce16570d3293","ios":"levelo://app?vid=91f7b738-c721-44b4-88c4-ce16570d3293"},"vehicle_type_id":"4","last_reported":1751756977,"current_range_meters":22400,"station_id":"ce4bh3h2rcd13ifvqdn0","pricing_plan_id":"cebpf4jnsgd1na2vs0mg"},{"bike_id":"2ec25d45-1068-4632-bb2a-cc404365b91c","system_id":"levelo_inurba_marseille","lat":43.28421,"lon":5.37518,"is_reserved":false,"is_disabled":false,"rental_uris":{"android":"levelo://app?vid=2ec25d45-1068-4632-bb2a-cc404365b91c","ios":"levelo://app?vid=2ec25d45-1068-4632-bb2a-cc404365b91c"},"vehicle_type_id":"4","last_reported":1751756977,"current_range_meters":22400,"station_id":"ce4bh412rcd13ifvqds0","pricing_plan_id":"cebpf4jnsgd1na2vs0mg"},{"bike_id":"d66061d3-35c8-4fc9-ba01-a8490208ca4f","system_id":"levelo_inurba_marseille","lat":43.27942,"lon":5.4105,"is_reserved":false,"is_disabled":false,"rental_uris":{"android":"levelo://app?vid=d66061d3-35c8-4fc9-ba01-a8490208ca4f","ios":"levelo://app?vid=d66061d3-35c8-4fc9-ba01-a8490208ca4f"},