{"last_updated":1778724639,"ttl":60,"version":"2.2","data":{"bikes":[{"bike_id":"33082b2f-7bae-4291-b2c5-c40c1bda03ab","system_id":"levelo_inurba_marseille","lat":43.28291,"lon":5.36959,"is_reserved":false,"is_disabled":false,"rental_uris":{"android":"levelo://app?vid=33082b2f-7bae-4291-b2c5-c40c1bda03ab","ios":"levelo://app?vid=33082b2f-7bae-4291-b2c5-c40c1bda03ab"},"vehicle_type_id":"4","last_reported":1778724640,"current_range_meters":2800,"station_id":"","pricing_plan_id":"cebpf4jnsgd1na2vs0mg"},{"bike_id":"c19818e9-ee0d-4d65-90d3-7c16b1604222","system_id":"levelo_inurba_marseille","lat":43.27241,"lon":5.39218,"is_reserved":false,"is_disabled":false,"rental_uris":{"android":"levelo://app?vid=c19818e9-ee0d-4d65-90d3-7c16b1604222","ios":"levelo://app?vid=c19818e9-ee0d-4d65-90d3-7c16b1604222"},"vehicle_type_id":"4","last_reported":1778724640,"current_range_meters":2800,"station_id":"ce4bhhp2rcd13ifvqfm0","pricing_plan_id":"cebpf4jnsgd1na2vs0mg"},{"bike_id":"2a8b24e9-9caf-4306-b9f8-0461eeb21443","system_id":"levelo_inurba_marseille","lat":43.3134,"lon":5.37918,"is_reserved":false,"is_disabled":false,"rental_uris":{"android":"levelo://app?vid=2a8b24e9-9caf-4306-b9f8-0461eeb21443","ios":"levelo://app?vid=2a8b24e9-9caf-4306-b9f8-0461eeb21443"},"vehicle_type_id":"4","last_reported":1778724640,"current_range_meters":2800,"station_id":"","pricing_plan_id":"cebpf4jnsgd1na2vs0mg"},{"bike_id":"fa19c95e-b0d4-41e6-bb85-ef4ada0d1439","system_id":"levelo_inurba_marseille","lat":43.29178,"lon":5.39924,"is_reserved":false,"is_disabled":false,"rental_uris":{"android":"levelo://app?vid=fa19c95e-b0d4-41e6-bb85-ef4ada0d1439","ios":"levelo://app?vid=fa19c95e-b0d4-41e6-bb85-ef4ada0d1439"},"vehicle_type_id":"4","last_reported":1778724640,"current_range_meters":2800,"station_id":"","pricing_plan_id":"cebpf4jnsgd1na2vs0mg"},{"bike_id":"b08622a3-72db-4a2e-bcf0-dfe85e04359c","system_id":"levelo_inurba_marseille","lat":43.28661,"lon":5.36257,"is_reserved":false,"is_disabled":false,"rental_uris":{"android":"levelo://app?vid=b08622a3-72db-4a2e-bcf0-dfe85e04359c","ios":"levelo://app?vid=b08622a3-72db-4a2e-bcf0-dfe85e04359c"},"vehicle_type_id":"4","last_reported":1778724640,"current_range_meters":2800,"station_id":"","pricing_plan_id":"cebpf4jnsgd1na2vs0mg"},{"bike_id":"4fa4b39a-f640-40a3-82d4-b22062366cfc","system_id":"levelo_inurba_marseille","lat":43.30004,"lon":5.36725,"is_reserved":false,"is_disabled":false,"rental_uris":{"android":"levelo://app?vid=4fa4b39a-f640-40a3-82d4-b22062366cfc","ios":"levelo://app?vid=4fa4b39a-f640-40a3-82d4-b22062366cfc"},"vehicle_type_id":"4","last_reported":1778724640,"current_range_meters":2800,"station_id":"","pricing_plan_id":"cebpf4jnsgd1na2vs0mg"},{"bike_id":"5dd68511-b4a3-4276-9fb9-d30a191306db","system_id":"levelo_inurba_marseille","lat":43.33761,"lon":5.37453,"is_reserved":false,"is_disabled":false,"rental_uris":{"android":"levelo://app?vid=5dd68511-b4a3-4276-9fb9-d30a191306db","ios":"levelo://app?vid=5dd68511-b4a3-4276-9fb9-d30a191306db"},"vehicle_type_id":"4","last_reported":1778724640,"current_range_meters":3200,"station_id":"","pricing_plan_id":"cebpf4jnsgd1na2vs0mg"},{"bike_id":"3549c190-ba25-4a06-b751-5b52c4ff2b2c","system_id":"levelo_inurba_marseille","lat":43.225323,"lon":5.348352,"is_reserved":false,"is_disabled":false,"rental_uris":{"android":"levelo://app?vid=3549c190-ba25-4a06-b751-5b52c4ff2b2c","ios":"levelo://app?vid=3549c190-ba25-4a06-b751-5b52c4ff2b2c"},"vehicle_type_id":"4","last_reported":1778724640,"current_range_meters":3200,"station_id":"st_cvj5dfep6f1abm77gieg","pricing_plan_id":"cebpf4jnsgd1na2vs0mg"},{"bike_id":"69feb249-9d6a-4a06-8dce-edac51ef3fc8","system_id":"levelo_inurba_marseille","lat":43.27371,"lon":5.36255,"is_reserved":false,"is_disabled":false,"rental_uris":{"android":"levelo://app?vid=69feb249-9d6a-4a06-8dce-edac51ef3fc8","ios":"levelo://app?vid=69feb249-9d6a-4a06-8dce-edac51ef3fc8"},"vehicle_type_id":"4","last_reported":1778724640,"current_range_meters":3200,"station_id":"ce4bhbh2rcd13ifvqeo0","pricing_plan_id":"cebpf4jnsgd1na2vs0mg"},{"bike_id":"cc5b7f7a-0cd1-4ae4-b884-39eb267c4489","system_id":"levelo_inurba_marseille","lat":43.27549,"lon":5.38433,"is_reserved":false,"is_disabled":false,"rental_uris":{"android":"levelo://app?vid=cc5b7f7a-0cd1-4ae4-b884-39eb267c4489","ios":"levelo://app?vid=cc5b7f7a-0cd1-4ae4-b884-39eb267c4489"},"vehicle_type_id":"4","last_reported":1778724640,"current_range_meters":3200,"station_id":"ce4bhh92rcd13ifvqfi0","pricing_plan_id":"cebpf4jnsgd1na2vs0mg"},{"bike_id":"b93f308d-6e17-4743-88cf-22d1124332e6","system_id":"levelo_inurba_marseille","lat":43.25328,"lon":5.4216,"is_reserved":false,"is_disabled":false,"rental_uris":{"android":"levelo://app?vid=b93f308d-6e17-4743-88cf-22d1124332e6","ios":"levelo://app?vid=b93f308d-6e17-4743-88cf-22d1124332e6"},"vehicle_type_id":"4","last_reported":1778724640,"current_range_meters":3200,"station_id":"st_d2m65c5bi1j21697t3ng","pricing_plan_id":"cebpf4jnsgd1na2vs0mg"},{"bike_id":"4595b322-692e-4720-a634-72f010d75d85","system_id":"levelo_inurba_marseille","lat":43.28147,"lon":5.42646,"is_reserved":false,"is_disabled":false,"rental_uris":{"android":"levelo://app?vid=4595b322-692e-4720-a634-72f010d75d85","ios":"levelo://app?vid=4595b322-692e-4720-a634-72f010d75d85"},"vehicle_type_id":"4","last_reported":1778724640,"current_range_meters":3200,"station_id":"ce4bhnh2rcd13ifvqgug","pricing_plan_id":"cebpf4jnsgd1na2vs0mg"},{"bike_id":"3ffc93a6-bb76-4eaf-bf6b-a7895365a766","system_id":"levelo_inurba_marseille","lat":43.34146,"lon":5.40904,"is_reserved":false,"is_disabled":false,"rental_uris":{"android":"levelo://app?vid=3ffc93a6-bb76-4eaf-bf6b-a7895365a766","ios":"levelo://app?vid=3ffc93a6-bb76-4eaf-bf6b-a7895365a766"},"vehicle_type_id":"4","last_reported":1778724640,"current_range_meters":3600,"station_id":"ce4bhqh2rcd13ifvqhlg","pricing_plan_id":"cebpf4jnsgd1na2vs0mg"},{"bike_id":"5f55c865-0bd0-4394-a2ae-c01c075b4bd3","system_id":"levelo_inurba_marseille","lat":43.2893,"lon":5.396344,"is_reserved":false,"is_disabled":false,"rental_uris":{"android":"levelo://app?vid=5f55c865-0bd0-4394-a2ae-c01c075b4bd3","ios":"levelo://app?vid=5f55c865-0bd0-4394-a2ae-c01c075b4bd3"},"vehicle_type_id":"4","last_reported":1778724640,"current_range_meters":3600,"station_id":"ce4bh392rcd13ifvqdm0","pricing_plan_id":"cebpf4jnsgd1na2vs0mg"},{"bike_id":"f3acf221-ac54-4ed5-b1ec-a3daba4e5770","system_id":"levelo_inurba_marseille","lat":43.288594,"lon":5.425146,"is_reserved":false,"is_disabled":true,"rental_uris":{"android":"levelo://app?vid=f3acf221-ac54-4ed5-b1ec-a3daba4e5770","ios":"levelo://app?vid=f3acf221-ac54-4ed5-b1ec-a3daba4e5770"},"vehicle_type_id":"4","last_reported":1778724640,"current_range_meters":3600,"station_id":"","pricing_plan_id":"cebpf4jnsgd1na2vs0mg"},{"bike_id":"4da48f13-ce67-400d-81c5-eb81135e0572","system_id":"levelo_inurba_marseille","lat":43.28661,"lon":5.40046,"is_reserved":false,"is_disabled":false,"rental_uris":{"android":"levelo://app?vid=4da48f13-ce67-400d-81c5-eb81135e0572","ios":"levelo://app?vid=4da48f13-ce67-400d-81c5-eb81135e0572"},"vehicle_type_id":"4","last_reported":1778724640,"current_range_meters":3600,"station_id":"","pricing_plan_id":"cebpf4jnsgd1na2vs0mg"},{"bike_id":"b9c7cd32-9284-4f54-9cbe-6b2a766e20fb","system_id":"levelo_inurba_marseille","lat":43.25082,"lon":5.39514,"is_reserved":false,"is_disabled":false,"rental_uris":{"android":"levelo://app?vid=b9c7cd32-9284-4f54-9cbe-6b2a766e20fb","ios":"levelo://app?vid=b9c7cd32-9284-4f54-9cbe-6b2a766e20fb"},"vehicle_type_id":"4","last_reported":1778724640,"current_range_meters":3600,"station_id":"ce4bhm12rcd13ifvqgkg","pricing_plan_id":"cebpf4jnsgd1na2vs0mg"},{"bike_id":"b8c52f40-c88b-41d6-98f6-76196ddf5d74","system_id":"levelo_inurba_marseille","lat":43.29121,"lon":5.3806,"is_reserved":false,"is_disabled":false,"rental_uris":{"android":"levelo://app?vid=b8c52f40-c88b-41d6-98f6-76196ddf5d74","ios":"levelo://app?vid=b8c52f40-c88b-41d6-98f6-76196ddf5d74"},"vehicle_type_id":"4","last_reported":1778724640,"current_range_meters":3600,"station_id":"","pricing_plan_id":"cebpf4jnsgd1na2vs0mg"},{"bike_id":"ab5a67cc-2b0d-4199-b45d-a9d7d6047cab","system_id":"levelo_inurba_marseille","lat":43.302,"lon":5.36889,"is_reserved":false,"is_disabled":false,"rental_uris":{"android":"levelo://app?vid=ab5a67cc-2b0d-4199-b45d-a9d7d6047cab","ios":"levelo://app?vid=ab5a67cc-2b0d-4199-b45d-a9d7d6047cab"},"vehicle_type_id":"4","last_reported":1778724640,"current_range_meters":4000,"station_id":"","pricing_plan_id":"cebpf4jnsgd1na2vs0mg"},{"bike_id":"492bc1b5-62c1-45cd-be18-d591945c5eae","system_id":"levelo_inurba_marseille","lat":43.25871,"lon":5.39897,"is_reserved":false,"is_disabled":true,"rental_uris":{"android":"levelo://app?vid=492bc1b5-62c1-45cd-be18-d591945c5eae","ios":"levelo://app?vid=492bc1b5-62c1-45cd-be18-d591945c5eae"},"vehicle_type_id":"4","last_reported":1778724640,"current_range_meters":4000,"station_id":"ce4bhl92rcd13ifvqghg","pricing_plan_id":"cebpf4jnsgd1na2vs0mg"},{"bike_id":"04457e6f-0405-4b98-9944-c702e39a01bd","system_id":"levelo_inurba_marseille","lat":43.3144,"lon":5.37392,"is_reserved":false,"is_disabled":false,"rental_uris":{"android":"levelo://app?vid=04457e6f-0405-4b98-9944-c702e39a01bd","ios":"levelo://app?vid=04457e6f-0405-4b98-9944-c702e39a01bd"},"vehicle_type_id":"4","last_reported":1778724640,"current_range_meters":4000,"station_id":"","pricing_plan_id":"cebpf4jnsgd1na2vs0mg"},{"bike_id":"6d5846d2-0874-495b-b7bc-c517b4a30462","system_id":"levelo_inurba_marseille","lat":43.30202,"lon":5.38062,"is_reserved":false,"is_disabled":false,"rental_uris":{"android":"levelo://app?vid=6d5846d2-0874-495b-b7bc-c517b4a30462","ios":"levelo://app?vid=6d5846d2-0874-495b-b7bc-c517b4a30462"},"vehicle_type_id":"4","last_reported":1778724640,"current_range_meters":4000,"station_id":"","pricing_plan_id":"cebpf4jnsgd1na2vs0mg"},{"bike_id":"35b6ecdf-03fe-450e-88d8-82bb00199c3c","system_id":"levelo_inurba_marseille","lat":43.29776,"lon":5.38171,"is_reserved":false,"is_disabled":true,"rental_uris":{"android":"levelo://app?vid=35b6ecdf-03fe-450e-88d8-82bb00199c3c","ios":"levelo://app?vid=35b6ecdf-03fe-450e-88d8-82bb00199c3c"},"vehicle_type_id":"4","last_reported":1778724640,"current_range_meters":4000,"station_id":"","pricing_plan_id":"cebpf4jnsgd1na2vs0mg"},{"bike_id":"ffbaabd0-3fec-4045-81eb-607ce59006bb","system_id":"levelo_inurba_marseille","lat":43.26956,"lon":5.38622,"is_reserved":false,"is_disabled":false,"rental_uris":{"android":"levelo://app?vid=ffbaabd0-3fec-4045-81eb-607ce59006bb","ios":"levelo://app?vid=ffbaabd0-3fec-4045-81eb-607ce59006bb"},"vehicle_type_id":"4","last_reported":1778724640,"current_range_meters":4000,"station_id":"ce4bhh92rcd13ifvqfh0","pricing_plan_id":"cebpf4jnsgd1na2vs0mg"},{"bike_id":"cc31278c-36fe-4fe3-b81e-47404d3535f1","system_id":"levelo_inurba_marseille","lat":43.27921,"lon":5.39579,"is_reserved":false,"is_disabled":false,"rental_uris":{"android":"levelo://app?vid=cc31278c-36fe-4fe3-b81e-47404d3535f1","ios":"levelo://app?vid=cc31278c-36fe-4fe3-b81e-47404d3535f1"},"vehicle_type_id":"4","last_reported":1778724640,"current_range_meters":4000,"station_id":"ce4bhf92rcd13ifvqf40","pricing_plan_id":"cebpf4jnsgd1na2vs0mg"},{"bike_id":"72d9b333-6340-445d-b4a3-2541590e555d","system_id":"levelo_inurba_marseille","lat":43.24682,"lon":5.3816,"is_reserved":false,"is_disabled":false,"rental_uris":{"android":"levelo://app?vid=72d9b333-6340-445d-b4a3-2541590e555d","ios":"levelo://app?vid=72d9b333-6340-445d-b4a3-2541590e555d"},"vehicle_type_id":"4","last_reported":1778724640,"current_range_meters":4000,"station_id":"ce4bhih2rcd13ifvqfr0","pricing_plan_id":"cebpf4jnsgd1na2vs0mg"},{"bike_id":"5d951d1b-01cb-4029-ade9-4d46c2c8af4d","system_id":"levelo_inurba_marseille","lat":43.292282,"lon":5.360742,"is_reserved":false,"is_disabled":false,"rental_uris":{"android":"levelo://app?vid=5d951d1b-01cb-4029-ade9-4d46c2c8af4d","ios":"levelo://app?vid=5d951d1b-01cb-4029-ade9-4d46c2c8af4d"},"vehicle_type_id":"4","last_reported":1778724640,"current_range_meters":4000,"station_id":"ce4bhbh2rcd13ifvqeqg","pricing_plan_id":"cebpf4jnsgd1na2vs0mg"},{"bike_id":"66bb1d1a-0a66-445e-b553-a38109b764e6","system_id":"levelo_inurba_marseille","lat":43.30648,"lon":5.40063,"is_reserved":false,"is_disabled":false,"rental_uris":{"android":"levelo://app?vid=66bb1d1a-0a66-445e-b553-a38109b764e6","ios":"levelo://app?vid=66bb1d1a-0a66-445e-b553-a38109b764e6"},"vehicle_type_id":"4","last_reported":1778724640,"current_range_meters":4400,"station_id":"ce4bh112rcd13ifvqda0","pricing_plan_id":"cebpf4jnsgd1na2vs0mg"},{"bike_id":"f12e41db-7b84-42e9-886a-42bcc41b9e50","system_id":"levelo_inurba_marseille","lat":43.26192,"lon":5.3745,"is_reserved":false,"is_disabled":false,"rental_uris":{"android":"levelo://app?vid=f12e41db-7b84-42e9-886a-42bcc41b9e50","ios":"levelo://app?vid=f12e41db-7b84-42e9-886a-42bcc41b9e50"},"vehicle_type_id":"4","last_reported":1778724640,"current_range_meters":4400,"station_id":"ce4bhgp2rcd13ifvqfc0","pricing_plan_id":"cebpf4jnsgd1na2vs0mg"},{"bike_id":"002dd5c2-43d5-4b4b-b355-153088b22174","system_id":"levelo_inurba_marseille","lat":43.29811,"lon":5.39721,"is_reserved":false,"is_disabled":false,"rental_uris":{"android":"levelo://app?vid=002dd5c2-43d5-4b4b-b355-153088b22174","ios":"levelo://app?vid=002dd5c2-43d5-4b4b-b355-153088b22174"},"vehicle_type_id":"4","last_reported":1778724640,"current_range_meters":4400,"station_id":"","pricing_plan_id":"cebpf4jnsgd1na2vs0mg"},{"bike_id":"fccd6290-f257-4455-a6cf-4131f4f4feef","system_id":"levelo_inurba_marseille","lat":43.298634,"lon":5.397389,"is_reserved":false,"is_disabled":false,"rental_uris":{"android":"levelo://app?vid=fccd6290-f257-4455-a6cf-4131f4f4feef","ios":"levelo://app?vid=fccd6290-f257-4455-a6cf-4131f4f4feef"},"vehicle_type_id":"4","last_reported":1778724640,"current_range_meters":4400,"station_id":"ce4bh0h2rcd13ifvqd50","pricing_plan_id":"cebpf4jnsgd1na2vs0mg"},{"bike_id":"34cd8bea-a8f6-49af-9554-9386e6d99017","system_id":"levelo_inurba_marseille","lat":43.28175,"lon":5.42659,"is_reserved":false,"is_disabled":false,"rental_uris":{"android":"levelo://app?vid=34cd8bea-a8f6-49af-9554-9386e6d99017","ios":"levelo://app?vid=34cd8bea-a8f6-49af-9554-9386e6d99017"},"vehicle_type_id":"4","last_reported":1778724640,"current_range_meters":4400,"station_id":"ce4bhnh2rcd13ifvqgug","pricing_plan_id":"cebpf4jnsgd1na2vs0mg"},{"bike_id":"a5dd4f48-8c1d-414f-a826-ff039e97ddca","system_id":"levelo_inurba_marseille","lat":43.23069,"lon":5.36191,"is_reserved":false,"is_disabled":false,"rental_uris":{"android":"levelo://app?vid=a5dd4f48-8c1d-414f-a826-ff039e97ddca","ios":"levelo://app?vid=a5dd4f48-8c1d-414f-a826-ff039e97ddca"},"vehicle_type_id":"4","last_reported":1778724640,"current_range_meters":4400,"station_id":"","pricing_plan_id":"cebpf4jnsgd1na2vs0mg"},{"bike_id":"b244e8a0-4ef5-4c09-954f-74dd108ccfc9","system_id":"levelo_inurba_marseille","lat":43.31262,"lon":5.39828,"is_reserved":false,"is_disabled":false,"rental_uris":{"android":"levelo://app?vid=b244e8a0-4ef5-4c09-954f-74dd108ccfc9","ios":"levelo://app?vid=b244e8a0-4ef5-4c09-954f-74dd108ccfc9"},"vehicle_type_id":"4","last_reported":1778724640,"current_range_meters":4400,"station_id":"","pricing_plan_id":"cebpf4jnsgd1na2vs0mg"},{"bike_id":"53ab3346-6ae3-47d4-9670-f84e0aea8e0c","system_id":"levelo_inurba_marseille","lat":43.24798,"lon":5.37463,"is_reserved":false,"is_disabled":false,"rental_uris":{"android":"levelo://app?vid=53ab3346-6ae3-47d4-9670-f84e0aea8e0c","ios":"levelo://app?vid=53ab3346-6ae3-47d4-9670-f84e0aea8e0c"},"vehicle_type_id":"4","last_reported":1778724640,"current_range_meters":4400,"station_id":"ce4bhgh2rcd13ifvqfb0","pricing_plan_id":"cebpf4jnsgd1na2vs0mg"},{"bike_id":"55575535-2d5b-40c7-a495-9ae194b84263","system_id":"levelo_inurba_marseille","lat":43.29729,"lon":5.43771,"is_reserved":false,"is_disabled":false,"rental_uris":{"android":"levelo://app?vid=55575535-2d5b-40c7-a495-9ae194b84263","ios":"levelo://app?vid=55575535-2d5b-40c7-a495-9ae194b84263"},"vehicle_type_id":"4","last_reported":1778724640,"current_range_meters":4400,"station_id":"","pricing_plan_id":"cebpf4jnsgd1na2vs0mg"},{"bike_id":"aa3f6d5a-caf7-4884-92ce-12eb0b9c9e82","system_id":"levelo_inurba_marseille","lat":43.28009,"lon":5.39339,"is_reserved":false,"is_disabled":false,"rental_uris":{"android":"levelo://app?vid=aa3f6d5a-caf7-4884-92ce-12eb0b9c9e82","ios":"levelo://app?vid=aa3f6d5a-caf7-4884-92ce-12eb0b9c9e82"},"vehicle_type_id":"4","last_reported":1778724640,"current_range_meters":4400,"station_id":"","pricing_plan_id":"cebpf4jnsgd1na2vs0mg"},{"bike_id":"0f37d688-46c0-4558-9b09-89bb1915d2b6","system_id":"levelo_inurba_marseille","lat":43.33525,"lon":5.37476,"is_reserved":false,"is_disabled":false,"rental_uris":{"android":"levelo://app?vid=0f37d688-46c0-4558-9b09-89bb1915d2b6","ios":"levelo://app?vid=0f37d688-46c0-4558-9b09-89bb1915d2b6"},"vehicle_type_id":"4","last_reported":1778724640,"current_range_meters":4400,"station_id":"st_d46tts09ee8s73dlu43g","pricing_plan_id":"cebpf4jnsgd1na2vs0mg"},{"bike_id":"90696508-a5d0-432c-92b1-dc6f9bd70bd0","system_id":"levelo_inurba_marseille","lat":43.299713,"lon":5.37188,"is_reserved":false,"is_disabled":false,"rental_uris":{"android":"levelo://app?vid=90696508-a5d0-432c-92b1-dc6f9bd70bd0","ios":"levelo://app?vid=90696508-a5d0-432c-92b1-dc6f9bd70bd0"},"vehicle_type_id":"4","last_reported":1778724640,"current_range_meters":4800,"station_id":"ce4bgr92rcd13ifvqc7g","pricing_plan_id":"cebpf4jnsgd1na2vs0mg"},{"bike_id":"386a0781-ba44-458a-8526-4864b27dc5e8","system_id":"levelo_inurba_marseille","lat":43.23195,"lon":5.39979,"is_reserved":false,"is_disabled":false,"rental_uris":{"android":"levelo://app?vid=386a0781-ba44-458a-8526-4864b27dc5e8","ios":"levelo://app?vid=386a0781-ba44-458a-8526-4864b27dc5e8"},"vehicle_type_id":"4","last_reported":1778724640,"current_range_meters":4800,"station_id":"ce4bhn12rcd13ifvqgqg","pricing_plan_id":"cebpf4jnsgd1na2vs0mg"},{"bike_id":"a0606dcd-56a2-486d-a97d-ece2bbdc6e78","system_id":"levelo_inurba_marseille","lat":43.33154,"lon":5.37688,"is_reserved":false,"is_disabled":false,"rental_uris":{"android":"levelo://app?vid=a0606dcd-56a2-486d-a97d-ece2bbdc6e78","ios":"levelo://app?vid=a0606dcd-56a2-486d-a97d-ece2bbdc6e78"},"vehicle_type_id":"4","last_reported":1778724640,"current_range_meters":4800,"station_id":"st_d46cu089ee8s73dldbu0","pricing_plan_id":"cebpf4jnsgd1na2vs0mg"},{"bike_id":"dbb34851-cc12-43aa-8265-f89dd28f33e1","system_id":"levelo_inurba_marseille","lat":43.28571,"lon":5.39491,"is_reserved":false,"is_disabled":false,"rental_uris":{"android":"levelo://app?vid=dbb34851-cc12-43aa-8265-f89dd28f33e1","ios":"levelo://app?vid=dbb34851-cc12-43aa-8265-f89dd28f33e1"},"vehicle_type_id":"4","last_reported":1778724640,"current_range_meters":4800,"station_id":"ce4bh292rcd13ifvqdg0","pricing_plan_id":"cebpf4jnsgd1na2vs0mg"},{"bike_id":"7076757c-102e-4b9a-8844-ed202ef3c20c","system_id":"levelo_inurba_marseille","lat":43.28481,"lon":5.48396,"is_reserved":false,"is_disabled":false,"rental_uris":{"android":"levelo://app?vid=7076757c-102e-4b9a-8844-ed202ef3c20c","ios":"levelo://app?vid=7076757c-102e-4b9a-8844-ed202ef3c20c"},"vehicle_type_id":"4","last_reported":1778724640,"current_range_meters":4800,"station_id":"","pricing_plan_id":"cebpf4jnsgd1na2vs0mg"},{"bike_id":"48066121-841a-4b69-bb96-5a67813041e0","system_id":"levelo_inurba_marseille","lat":43.287,"lon":5.46678,"is_reserved":false,"is_disabled":false,"rental_uris":{"android":"levelo://app?vid=48066121-841a-4b69-bb96-5a67813041e0","ios":"levelo://app?vid=48066121-841a-4b69-bb96-5a67813041e0"},"vehicle_type_id":"4","last_reported":1778724640,"current_range_meters":4800,"station_id":"st_d6tc3vkotcvc738tfjhg","pricing_plan_id":"cebpf4jnsgd1na2vs0mg"},{"bike_id":"0f4a975b-7889-43db-857b-2d6fb8450403","system_id":"levelo_inurba_marseille","lat":43.27371,"lon":5.36258,"is_reserved":false,"is_disabled":false,"rental_uris":{"android":"levelo://app?vid=0f4a975b-7889-43db-857b-2d6fb8450403","ios":"levelo://app?vid=0f4a975b-7889-43db-857b-2d6fb8450403"},"vehicle_type_id":"4","last_reported":1778724640,"current_range_meters":4800,"station_id":"ce4bhbh2rcd13ifvqeo0","pricing_plan_id":"cebpf4jnsgd1na2vs0mg"},{"bike_id":"4675731c-2cef-41f0-887a-b31afaa64d8f","system_id":"levelo_inurba_marseille","lat":43.28675,"lon":5.38657,"is_reserved":false,"is_disabled":false,"rental_uris":{"android":"levelo://app?vid=4675731c-2cef-41f0-887a-b31afaa64d8f","ios":"levelo://app?vid=4675731c-2cef-41f0-887a-b31afaa64d8f"},"vehicle_type_id":"4","last_reported":1778724640,"current_range_meters":4800,"station_id":"ce4bh492rcd13ifvqdug","pricing_plan_id":"cebpf4jnsgd1na2vs0mg"},{"bike_id":"5fb8929d-8102-448c-b915-edd3a3b92015","system_id":"levelo_inurba_marseille","lat":43.3312,"lon":5.37896,"is_reserved":false,"is_disabled":false,"rental_uris":{"android":"levelo://app?vid=5fb8929d-8102-448c-b915-edd3a3b92015","ios":"levelo://app?vid=5fb8929d-8102-448c-b915-edd3a3b92015"},"vehicle_type_id":"4","last_reported":1778724640,"current_range_meters":4800,"station_id":"","pricing_plan_id":"cebpf4jnsgd1na2vs0mg"},{"bike_id":"bc5e2925-16a2-4686-bd58-cc9a88f025e6","system_id":"levelo_inurba_marseille","lat":43.25845,"lon":5.39919,"is_reserved":false,"is_disabled":false,"rental_uris":{"android":"levelo://app?vid=bc5e2925-16a2-4686-bd58-cc9a88f025e6","ios":"levelo://app?vid=bc5e2925-16a2-4686-bd58-cc9a88f025e6"},"vehicle_type_id":"4","last_reported":1778724640,"current_range_meters":4800,"station_id":"ce4bhl92rcd13ifvqghg","pricing_plan_id":"cebpf4jnsgd1na2vs0mg"},{"bike_id":"eb778b7f-d6bc-49a0-94fa-f96e2976ee7d","system_id":"levelo_inurba_marseille","lat":43.25623,"lon":5.41983,"is_reserved":false,"is_disabled":false,"rental_uris":{"android":"levelo://app?vid=eb778b7f-d6bc-49a0-94fa-f96e2976ee7d","ios":"levelo://app?vid=eb778b7f-d6bc-49a0-94fa-f96e2976ee7d"},"vehicle_type_id":"4","last_reported":1778724640,"current_range_meters":4800,"station_id":"","pricing_plan_id":"cebpf4jnsgd1na2vs0mg"},{"bike_id":"405f1dbf-c088-4880-9365-03325b4d46a5","system_id":"levelo_inurba_marseille","lat":43.28007,"lon":5.39994,"is_reserved":false,"is_disabled":false,"rental_uris":{"android":"levelo://app?vid=405f1dbf-c088-4880-9365-03325b4d46a5","ios":"levelo://app?vid=405f1dbf-c088-4880-9365-03325b4d46a5"},"vehicle_type_id":"4","last_reported":1778724640,"current_range_meters":5600,"station_id":"ce4bho92rcd13ifvqh4g","pricing_plan_id":"cebpf4jnsgd1na2vs0mg"},{"bike_id":"4b2a07a7-0d6c-4702-a9af-dc1c6cdb7501","system_id":"levelo_inurba_marseille","lat":43.2948,"lon":5.4331,"is_reserved":false,"is_disabled":false,"rental_uris":{"android":"levelo://app?vid=4b2a07a7-0d6c-4702-a9af-dc1c6cdb7501","ios":"levelo://app?vid=4b2a07a7-0d6c-4702-a9af-dc1c6cdb7501"},"vehicle_type_id":"4","last_reported":1778724640,"current_range_meters":5600,"station_id":"st_d3j5ugp08ojc73fj9d10","pricing_plan_id":"cebpf4jnsgd1na2vs0mg"},{"bike_id":"ed4c3f2a-5d31-4810-95b1-c0338c5b21d1","system_id":"levelo_inurba_marseille","lat":43.33785,"lon":5.37432,"is_reserved":false,"is_disabled":false,"rental_uris":{"android":"levelo://app?vid=ed4c3f2a-5d31-4810-95b1-c0338c5b21d1","ios":"levelo://app?vid=ed4c3f2a-5d31-4810-95b1-c0338c5b21d1"},"vehicle_type_id":"4","last_reported":1778724640,"current_range_meters":5600,"station_id":"","pricing_plan_id":"cebpf4jnsgd1na2vs0mg"},{"bike_id":"4660d09c-3d67-4691-b901-cf7c81798d2c","system_id":"levelo_inurba_marseille","lat":43.27483,"lon":5.41587,"is_reserved":false,"is_disabled":true,"rental_uris":{"android":"levelo://app?vid=4660d09c-3d67-4691-b901-cf7c81798d2c","ios":"levelo://app?vid=4660d09c-3d67-4691-b901-cf7c81798d2c"},"vehicle_type_id":"4","last_reported":1778724640,"current_range_meters":5600,"station_id":"st_d6im8g6chgec73a5pndg","pricing_plan_id":"cebpf4jnsgd1na2vs0mg"},{"bike_id":"e87d90bf-7f27-4494-86f8-3a1d5cd041da","system_id":"levelo_inurba_marseille","lat":43.23795,"lon":5.36646,"is_reserved":false,"is_disabled":false,"rental_uris":{"android":"levelo://app?vid=e87d90bf-7f27-4494-86f8-3a1d5cd041da","ios":"levelo://app?vid=e87d90bf-7f27-4494-86f8-3a1d5cd041da"},"vehicle_type_id":"4","last_reported":1778724640,"current_range_meters":5600,"station_id":"st_d3nk18o9ro0c73en2l3g","pricing_plan_id":"cebpf4jnsgd1na2vs0mg"},{"bike_id":"43a06db5-04b5-4a22-9e6f-f46b3fa2bbc7","system_id":"levelo_inurba_marseille","lat":43.32056,"lon":5.36805,"is_reserved":false,"is_disabled":false,"rental_uris":{"android":"levelo://app?vid=43a06db5-04b5-4a22-9e6f-f46b3fa2bbc7","ios":"levelo://app?vid=43a06db5-04b5-4a22-9e6f-f46b3fa2bbc7"},"vehicle_type_id":"4","last_reported":1778724640,"current_range_meters":5600,"station_id":"ce4bhrh2rcd13ifvqhug","pricing_plan_id":"cebpf4jnsgd1na2vs0mg"},{"bike_id":"b539794b-9564-41c4-af5b-33f37d930411","system_id":"levelo_inurba_marseille","lat":43.29853,"lon":5.38919,"is_reserved":false,"is_disabled":false,"rental_uris":{"android":"levelo://app?vid=b539794b-9564-41c4-af5b-33f37d930411","ios":"levelo://app?vid=b539794b-9564-41c4-af5b-33f37d930411"},"vehicle_type_id":"4","last_reported":1778724640,"current_range_meters":5600,"station_id":"ce4bh392rcd13ifvqdl0","pricing_plan_id":"cebpf4jnsgd1na2vs0mg"},{"bike_id":"557cfc67-cfbb-45a9-8dcc-2924d8cb0795","system_id":"levelo_inurba_marseille","lat":43.30274,"lon":5.39244,"is_reserved":false,"is_disabled":false,"rental_uris":{"android":"levelo://app?vid=557cfc67-cfbb-45a9-8dcc-2924d8cb0795","ios":"levelo://app?vid=557cfc67-cfbb-45a9-8dcc-2924d8cb0795"},"vehicle_type_id":"4","last_reported":1778724640,"current_range_meters":5600,"station_id":"ce4bgkh2rcd13ifvqbk0","pricing_plan_id":"cebpf4jnsgd1na2vs0mg"},{"bike_id":"4c2ebf2f-679f-4d9d-8fea-3fc309890292","system_id":"levelo_inurba_marseille","lat":43.30107,"lon":5.37505,"is_reserved":false,"is_disabled":true,"rental_uris":{"android":"levelo://app?vid=4c2ebf2f-679f-4d9d-8fea-3fc309890292","ios":"levelo://app?vid=4c2ebf2f-679f-4d9d-8fea-3fc309890292"},"vehicle_type_id":"4","last_reported":1778724640,"current_range_meters":5600,"station_id":"","pricing_plan_id":"cebpf4jnsgd1na2vs0mg"},{"bike_id":"02b0c393-3fce-4646-8e55-954077194616","system_id":"levelo_inurba_marseille","lat":43.2737,"lon":5.36264,"is_reserved":false,"is_disabled":false,"rental_uris":{"android":"levelo://app?vid=02b0c393-3fce-4646-8e55-954077194616","ios":"levelo://app?vid=02b0c393-3fce-4646-8e55-954077194616"},"vehicle_type_id":"4","last_reported":1778724640,"current_range_meters":5600,"station_id":"ce4bhbh2rcd13ifvqeo0","pricing_plan_id":"cebpf4jnsgd1na2vs0mg"},{"bike_id":"93cc585f-6b6e-4293-a6af-bae019dca712","system_id":"levelo_inurba_marseille","lat":43.28405,"lon":5.3752,"is_reserved":false,"is_disabled":false,"rental_uris":{"android":"levelo://app?vid=93cc585f-6b6e-4293-a6af-bae019dca712","ios":"levelo://app?vid=93cc585f-6b6e-4293-a6af-bae019dca712"},"vehicle_type_id":"4","last_reported":1778724640,"current_range_meters":5600,"station_id":"ce4bh412rcd13ifvqds0","pricing_plan_id":"cebpf4jnsgd1na2vs0mg"},{"bike_id":"1301d2af-c91a-458f-a0c0-3744da869577","system_id":"levelo_inurba_marseille","lat":43.21201,"lon":5.35079,"is_reserved":false,"is_disabled":false,"rental_uris":{"android":"levelo://app?vid=1301d2af-c91a-458f-a0c0-3744da869577","ios":"levelo://app?vid=1301d2af-c91a-458f-a0c0-3744da869577"},"vehicle_type_id":"4","last_reported":1778724640,"current_range_meters":5600,"station_id":"st_cvj6sg6p6f1abm77japg","pricing_plan_id":"cebpf4jnsgd1na2vs0mg"},{"bike_id":"1b92dc77-fa37-4622-8e11-1fa6fd28c9b8","system_id":"levelo_inurba_marseille","lat":43.31341,"lon":5.397,"is_reserved":false,"is_disabled":false,"rental_uris":{"android":"levelo://app?vid=1b92dc77-fa37-4622-8e11-1fa6fd28c9b8","ios":"levelo://app?vid=1b92dc77-fa37-4622-8e11-1fa6fd28c9b8"},"vehicle_type_id":"4","last_reported":1778724640,"current_range_meters":5600,"station_id":"ce4bgvp2rcd13ifvqcu0","pricing_plan_id":"cebpf4jnsgd1na2vs0mg"},{"bike_id":"64a34069-83c6-4aa1-8414-4d1796fa1f0d","system_id":"levelo_inurba_marseille","lat":43.24468,"lon":5.42529,"is_reserved":false,"is_disabled":false,"rental_uris":{"android":"levelo://app?vid=64a34069-83c6-4aa1-8414-4d1796fa1f0d","ios":"levelo://app?vid=64a34069-83c6-4aa1-8414-4d1796fa1f0d"},"vehicle_type_id":"4","last_reported":1778724640,"current_range_meters":5600,"station_id":"st_d4a3vfp97mjs738cd8kg","pricing_plan_id":"cebpf4jnsgd1na2vs0mg"},{"bike_id":"88fc0704-7ae9-4b21-a817-5ad0923d8660","system_id":"levelo_inurba_marseille","lat":43.28933,"lon":5.37744,"is_reserved":false,"is_disabled":false,"rental_uris":{"android":"levelo://app?vid=88fc0704-7ae9-4b21-a817-5ad0923d8660","ios":"levelo://app?vid=88fc0704-7ae9-4b21-a817-5ad0923d8660"},"vehicle_type_id":"4","last_reported":1778724640,"current_range_meters":5600,"station_id":"","pricing_plan_id":"cebpf4jnsgd1na2vs0mg"},{"bike_id":"0dac72c1-f82f-4c1f-95e6-fbf0c1410ae5","system_id":"levelo_inurba_marseille","lat":43.23967,"lon":5.36638,"is_reserved":false,"is_disabled":false,"rental_uris":{"android":"levelo://app?vid=0dac72c1-f82f-4c1f-95e6-fbf0c1410ae5","ios":"levelo://app?vid=0dac72c1-f82f-4c1f-95e6-fbf0c1410ae5"},"vehicle_type_id":"4","last_reported":1778724640,"current_range_meters":5600,"station_id":"ce4bhi12rcd13ifvqfp0","pricing_plan_id":"cebpf4jnsgd1na2vs0mg"},{"bike_id":"30388078-cd88-4dde-9070-5a1bdfc97cfb","system_id":"levelo_inurba_marseille","lat":43.31128,"lon":5.39508,"is_reserved":false,"is_disabled":false,"rental_uris":{"android":"levelo://app?vid=30388078-cd88-4dde-9070-5a1bdfc97cfb","ios":"levelo://app?vid=30388078-cd88-4dde-9070-5a1bdfc97cfb"},"vehicle_type_id":"4","last_reported":1778724640,"current_range_meters":6000,"station_id":"","pricing_plan_id":"cebpf4jnsgd1na2vs0mg"},{"bike_id":"e82b5d42-3586-42a6-8cf2-e549c0dabdad","system_id":"levelo_inurba_marseille","lat":43.297894,"lon":5.393496,"is_reserved":false,"is_disabled":false,"rental_uris":{"android":"levelo://app?vid=e82b5d42-3586-42a6-8cf2-e549c0dabdad","ios":"levelo://app?vid=e82b5d42-3586-42a6-8cf2-e549c0dabdad"},"vehicle_type_id":"4","last_reported":1778724640,"current_range_meters":6000,"station_id":"chh1huq6cuj3fo74tm60","pricing_plan_id":"cebpf4jnsgd1na2vs0mg"},{"bike_id":"6e855303-55c2-4763-9425-8d7d0f002e10","system_id":"levelo_inurba_marseille","lat":43.27918,"lon":5.39585,"is_reserved":false,"is_disabled":false,"rental_uris":{"android":"levelo://app?vid=6e855303-55c2-4763-9425-8d7d0f002e10","ios":"levelo://app?vid=6e855303-55c2-4763-9425-8d7d0f002e10"},"vehicle_type_id":"4","last_reported":1778724640,"current_range_meters":6000,"station_id":"ce4bhf92rcd13ifvqf40","pricing_plan_id":"cebpf4jnsgd1na2vs0mg"},{"bike_id":"72179d6d-4306-495c-979e-7fc83e24d3fc","system_id":"levelo_inurba_marseille","lat":43.302,"lon":5.36608,"is_reserved":false,"is_disabled":false,"rental_uris":{"android":"levelo://app?vid=72179d6d-4306-495c-979e-7fc83e24d3fc","ios":"levelo://app?vid=72179d6d-4306-495c-979e-7fc83e24d3fc"},"vehicle_type_id":"4","last_reported":1778724640,"current_range_meters":6000,"station_id":"ce4bgrh2rcd13ifvqc8g","pricing_plan_id":"cebpf4jnsgd1na2vs0mg"},{"bike_id":"2155b81d-4ed5-458a-9a0a-b79f20514091","system_id":"levelo_inurba_marseille","lat":43.2738,"lon":5.36267,"is_reserved":false,"is_disabled":false,"rental_uris":{"android":"levelo://app?vid=2155b81d-4ed5-458a-9a0a-b79f20514091","ios":"levelo://app?vid=2155b81d-4ed5-458a-9a0a-b79f20514091"},"vehicle_type_id":"4","last_reported":1778724640,"current_range_meters":6000,"station_id":"ce4bhbh2rcd13ifvqeo0","pricing_plan_id":"cebpf4jnsgd1na2vs0mg"},{"bike_id":"1f112192-95fd-4aea-8243-a6c6717394e5","system_id":"levelo_inurba_marseille","lat":43.2494,"lon":5.40496,"is_reserved":false,"is_disabled":false,"rental_uris":{"android":"levelo://app?vid=1f112192-95fd-4aea-8243-a6c6717394e5","ios":"levelo://app?vid=1f112192-95fd-4aea-8243-a6c6717394e5"},"vehicle_type_id":"4","last_reported":1778724640,"current_range_meters":6000,"station_id":"st_d2ngiaodas8pm72gd1h0","pricing_plan_id":"cebpf4jnsgd1na2vs0mg"},{"bike_id":"1f5556bc-4bf7-481f-9874-e3e1df7edc42","system_id":"levelo_inurba_marseille","lat":43.28524,"lon":5.44096,"is_reserved":false,"is_disabled":true,"rental_uris":{"android":"levelo://app?vid=1f5556bc-4bf7-481f-9874-e3e1df7edc42","ios":"levelo://app?vid=1f5556bc-4bf7-481f-9874-e3e1df7edc42"},"vehicle_type_id":"4","last_reported":1778724640,"current_range_meters":6000,"station_id":"st_d3j3df2ikq2c7380ej80","pricing_plan_id":"cebpf4jnsgd1na2vs0mg"},{"bike_id":"788dfa8a-456b-4e1b-8663-b20f000fa194","system_id":"levelo_inurba_marseille","lat":43.26908,"lon":5.40247,"is_reserved":false,"is_disabled":false,"rental_uris":{"android":"levelo://app?vid=788dfa8a-456b-4e1b-8663-b20f000fa194","ios":"levelo://app?vid=788dfa8a-456b-4e1b-8663-b20f000fa194"},"vehicle_type_id":"4","last_reported":1778724640,"current_range_meters":6000,"station_id":"cjm6bp8fraef2m0cb0m0","pricing_plan_id":"cebpf4jnsgd1na2vs0mg"},{"bike_id":"cc07bf0e-fbfe-4b5f-bef1-ce0ea8b187cc","system_id":"levelo_inurba_marseille","lat":43.304287,"lon":5.397473,"is_reserved":false,"is_disabled":false,"rental_uris":{"android":"levelo://app?vid=cc07bf0e-fbfe-4b5f-bef1-ce0ea8b187cc","ios":"levelo://app?vid=cc07bf0e-fbfe-4b5f-bef1-ce0ea8b187cc"},"vehicle_type_id":"4","last_reported":1778724640,"current_range_meters":6000,"station_id":"ce4bh092rcd13ifvqd20","pricing_plan_id":"cebpf4jnsgd1na2vs0mg"},{"bike_id":"805de22b-1219-4f85-96ef-75e6cd60b5f0","system_id":"levelo_inurba_marseille","lat":43.25612,"lon":5.3819,"is_reserved":false,"is_disabled":false,"rental_uris":{"android":"levelo://app?vid=805de22b-1219-4f85-96ef-75e6cd60b5f0","ios":"levelo://app?vid=805de22b-1219-4f85-96ef-75e6cd60b5f0"},"vehicle_type_id":"4","last_reported":1778724640,"current_range_meters":6000,"station_id":"ce4bhih2rcd13ifvqfs0","pricing_plan_id":"cebpf4jnsgd1na2vs0mg"},{"bike_id":"6e70dae6-54d0-47a0-93ef-de0e8a081ba0","system_id":"levelo_inurba_marseille","lat":43.30123,"lon":5.37408,"is_reserved":false,"is_disabled":true,"rental_uris":{"android":"levelo://app?vid=6e70dae6-54d0-47a0-93ef-de0e8a081ba0","ios":"levelo://app?vid=6e70dae6-54d0-47a0-93ef-de0e8a081ba0"},"vehicle_type_id":"4","last_reported":1778724640,"current_range_meters":6000,"station_id":"ce4bgs92rcd13ifvqcc0","pricing_plan_id":"cebpf4jnsgd1na2vs0mg"},{"bike_id":"88675d7a-85fd-4d50-8665-07d1abbd3625","system_id":"levelo_inurba_marseille","lat":43.28441,"lon":5.35894,"is_reserved":false,"is_disabled":false,"rental_uris":{"android":"levelo://app?vid=88675d7a-85fd-4d50-8665-07d1abbd3625","ios":"levelo://app?vid=88675d7a-85fd-4d50-8665-07d1abbd3625"},"vehicle_type_id":"4","last_reported":1778724640,"current_range_meters":6000,"station_id":"ce4bhah2rcd13ifvqei0","pricing_plan_id":"cebpf4jnsgd1na2vs0mg"},{"bike_id":"6206d17b-cf9d-41b3-a41d-c6052f6a6ce2","system_id":"levelo_inurba_marseille","lat":43.33539,"lon":5.37472,"is_reserved":false,"is_disabled":false,"rental_uris":{"android":"levelo://app?vid=6206d17b-cf9d-41b3-a41d-c6052f6a6ce2","ios":"levelo://app?vid=6206d17b-cf9d-41b3-a41d-c6052f6a6ce2"},"vehicle_type_id":"4","last_reported":1778724640,"current_range_meters":6400,"station_id":"st_d46tts09ee8s73dlu43g","pricing_plan_id":"cebpf4jnsgd1na2vs0mg"},{"bike_id":"65191135-268b-4aca-b249-8c026a0bfedd","system_id":"levelo_inurba_marseille","lat":43.27191,"lon":5.40976,"is_reserved":false,"is_disabled":false,"rental_uris":{"android":"levelo://app?vid=65191135-268b-4aca-b249-8c026a0bfedd","ios":"levelo://app?vid=65191135-268b-4aca-b249-8c026a0bfedd"},"vehicle_type_id":"4","last_reported":1778724640,"current_range_meters":6400,"station_id":"ce4bhl12rcd13ifvqgf0","pricing_plan_id":"cebpf4jnsgd1na2vs0mg"},{"bike_id":"a69bbb17-e904-4bbe-b1a6-d8e7b08362c7","system_id":"levelo_inurba_marseille","lat":43.23974,"lon":5.39924,"is_reserved":false,"is_disabled":false,"rental_uris":{"android":"levelo://app?vid=a69bbb17-e904-4bbe-b1a6-d8e7b08362c7","ios":"levelo://app?vid=a69bbb17-e904-4bbe-b1a6-d8e7b08362c7"},"vehicle_type_id":"4","last_reported":1778724640,"current_range_meters":6400,"station_id":"","pricing_plan_id":"cebpf4jnsgd1na2vs0mg"},{"bike_id":"95c02ffd-d429-4bb4-9cec-b7834d99f0f6","system_id":"levelo_inurba_marseille","lat":43.33153,"lon":5.37694,"is_reserved":false,"is_disabled":false,"rental_uris":{"android":"levelo://app?vid=95c02ffd-d429-4bb4-9cec-b7834d99f0f6","ios":"levelo://app?vid=95c02ffd-d429-4bb4-9cec-b7834d99f0f6"},"vehicle_type_id":"4","last_reported":1778724640,"current_range_meters":6400,"station_id":"st_d46cu089ee8s73dldbu0","pricing_plan_id":"cebpf4jnsgd1na2vs0mg"},{"bike_id":"f7b71e8a-de3b-4d59-8cbd-1c1ed6357a73","system_id":"levelo_inurba_marseille","lat":43.26956,"lon":5.40289,"is_reserved":false,"is_disabled":true,"rental_uris":{"android":"levelo://app?vid=f7b71e8a-de3b-4d59-8cbd-1c1ed6357a73","ios":"levelo://app?vid=f7b71e8a-de3b-4d59-8cbd-1c1ed6357a73"},"vehicle_type_id":"4","last_reported":1778724640,"current_range_meters":6400,"station_id":"cjm6bp8fraef2m0cb0m0","pricing_plan_id":"cebpf4jnsgd1na2vs0mg"},{"bike_id":"f699b1a6-b755-4ca7-a83a-8d35df338884","system_id":"levelo_inurba_marseille","lat":43.29038,"lon":5.39986,"is_reserved":false,"is_disabled":false,"rental_uris":{"android":"levelo://app?vid=f699b1a6-b755-4ca7-a83a-8d35df338884","ios":"levelo://app?vid=f699b1a6-b755-4ca7-a83a-8d35df338884"},"vehicle_type_id":"4","last_reported":1778724640,"current_range_meters":6400,"station_id":"ce4bh392rcd13ifvqdm0","pricing_plan_id":"cebpf4jnsgd1na2vs0mg"},{"bike_id":"312fb3a9-1961-4502-8821-ba78ffe643ee","system_id":"levelo_inurba_marseille","lat":43.31021,"lon":5.37159,"is_reserved":false,"is_disabled":false,"rental_uris":{"android":"levelo://app?vid=312fb3a9-1961-4502-8821-ba78ffe643ee","ios":"levelo://app?vid=312fb3a9-1961-4502-8821-ba78ffe643ee"},"vehicle_type_id":"4","last_reported":1778724640,"current_range_meters":6400,"station_id":"st_d4kl2rp97mjs73e7tdfg","pricing_plan_id":"cebpf4jnsgd1na2vs0mg"},{"bike_id":"af7711e0-e575-40a0-b091-6facadb6b1b3","system_id":"levelo_inurba_marseille","lat":43.28689,"lon":5.36312,"is_reserved":false,"is_disabled":false,"rental_uris":{"android":"levelo://app?vid=af7711e0-e575-40a0-b091-6facadb6b1b3","ios":"levelo://app?vid=af7711e0-e575-40a0-b091-6facadb6b1b3"},"vehicle_type_id":"4","last_reported":1778724640,"current_range_meters":6400,"station_id":"ce4bhah2rcd13ifvqej0","pricing_plan_id":"cebpf4jnsgd1na2vs0mg"},{"bike_id":"0ddd1a44-6a20-4f20-87bb-54f6dbe51696","system_id":"levelo_inurba_marseille","lat":43.31736,"lon":5.40192,"is_reserved":false,"is_disabled":false,"rental_uris":{"android":"levelo://app?vid=0ddd1a44-6a20-4f20-87bb-54f6dbe51696","ios":"levelo://app?vid=0ddd1a44-6a20-4f20-87bb-54f6dbe51696"},"vehicle_type_id":"4","last_reported":1778724640,"current_range_meters":6400,"station_id":"","pricing_plan_id":"cebpf4jnsgd1na2vs0mg"},{"bike_id":"e0e3f93f-16e8-4b39-b089-98387a4c334d","system_id":"levelo_inurba_marseille","lat":43.3354,"lon":5.3747,"is_reserved":false,"is_disabled":false,"rental_uris":{"android":"levelo://app?vid=e0e3f93f-16e8-4b39-b089-98387a4c334d","ios":"levelo://app?vid=e0e3f93f-16e8-4b39-b089-98387a4c334d"},"vehicle_type_id":"4","last_reported":1778724640,"current_range_meters":6400,"station_id":"st_d46tts09ee8s73dlu43g","pricing_plan_id":"cebpf4jnsgd1na2vs0mg"},{"bike_id":"64c247da-b0be-4aaa-bd52-5aa02afec6aa","system_id":"levelo_inurba_marseille","lat":43.28501,"lon":5.38544,"is_reserved":false,"is_disabled":false,"rental_uris":{"android":"levelo://app?vid=64c247da-b0be-4aaa-bd52-5aa02afec6aa","ios":"levelo://app?vid=64c247da-b0be-4aaa-bd52-5aa02afec6aa"},"vehicle_type_id":"4","last_reported":1778724640,"current_range_meters":6400,"station_id":"ce4bh8p2rcd13ifvqeb0","pricing_plan_id":"cebpf4jnsgd1na2vs0mg"},{"bike_id":"23dd7e9d-979a-4281-b8ae-d54103af534b","system_id":"levelo_inurba_marseille","lat":43.25834,"lon":5.39436,"is_reserved":false,"is_disabled":false,"rental_uris":{"android":"levelo://app?vid=23dd7e9d-979a-4281-b8ae-d54103af534b","ios":"levelo://app?vid=23dd7e9d-979a-4281-b8ae-d54103af534b"},"vehicle_type_id":"4","last_reported":1778724640,"current_range_meters":6400,"station_id":"ce4bhip2rcd13ifvqft0","pricing_plan_id":"cebpf4jnsgd1na2vs0mg"},{"bike_id":"db725f8f-4e6f-454b-99a6-7614e8722dfa","system_id":"levelo_inurba_marseille","lat":43.31386,"lon":5.38495,"is_reserved":false,"is_disabled":false,"rental_uris":{"android":"levelo://app?vid=db725f8f-4e6f-454b-99a6-7614e8722dfa","ios":"levelo://app?vid=db725f8f-4e6f-454b-99a6-7614e8722dfa"},"vehicle_type_id":"4","last_reported":1778724640,"current_range_meters":6400,"station_id":"ce4bgt92rcd13ifvqcf0","pricing_plan_id":"cebpf4jnsgd1na2vs0mg"},{"bike_id":"1dee72ea-cbbb-4f0f-b373-7962e2bff9d2","system_id":"levelo_inurba_marseille","lat":43.24642,"lon":5.38975,"is_reserved":false,"is_disabled":false,"rental_uris":{"android":"levelo://app?vid=1dee72ea-cbbb-4f0f-b373-7962e2bff9d2","ios":"levelo://app?vid=1dee72ea-cbbb-4f0f-b373-7962e2bff9d2"},"vehicle_type_id":"4","last_reported":1778724640,"current_range_meters":6400,"station_id":"","pricing_plan_id":"cebpf4jnsgd1na2vs0mg"},{"bike_id":"3baf60fe-0260-4ac0-9a4d-b71fdd4d99a9","system_id":"levelo_inurba_marseille","lat":43.3173,"lon":5.40438,"is_reserved":false,"is_disabled":false,"rental_uris":{"android":"levelo://app?vid=3baf60fe-0260-4ac0-9a4d-b71fdd4d99a9","ios":"levelo://app?vid=3baf60fe-0260-4ac0-9a4d-b71fdd4d99a9"},"vehicle_type_id":"4","last_reported":1778724640,"current_range_meters":6800,"station_id":"","pricing_plan_id":"cebpf4jnsgd1na2vs0mg"},{"bike_id":"b010d68e-2434-4145-8078-37d4a28eadfd","system_id":"levelo_inurba_marseille","lat":43.30169,"lon":5.3807,"is_reserved":false,"is_disabled":false,"rental_uris":{"android":"levelo://app?vid=b010d68e-2434-4145-8078-37d4a28eadfd","ios":"levelo://app?vid=b010d68e-2434-4145-8078-37d4a28eadfd"},"vehicle_type_id":"4","last_reported":1778724640,"current_range_meters":6800,"station_id":"ce4bgjp2rcd13ifvqbh0","pricing_plan_id":"cebpf4jnsgd1na2vs0mg"},{"bike_id":"974155a8-15e9-4961-bf5a-c20f8b52fd28","system_id":"levelo_inurba_marseille","lat":43.31323,"lon":5.39709,"is_reserved":false,"is_disabled":false,"rental_uris":{"android":"levelo://app?vid=974155a8-15e9-4961-bf5a-c20f8b52fd28","ios":"levelo://app?vid=974155a8-15e9-4961-bf5a-c20f8b52fd28"},"vehicle_type_id":"4","last_reported":1778724640,"current_range_meters":6800,"station_id":"ce4bgvp2rcd13ifvqcu0","pricing_plan_id":"cebpf4jnsgd1na2vs0mg"},{"bike_id":"3b61f2d0-287d-4914-af0e-dee4eef3526c","system_id":"levelo_inurba_marseille","lat":43.28222,"lon":5.39045,"is_reserved":false,"is_disabled":false,"rental_uris":{"android":"levelo://app?vid=3b61f2d0-287d-4914-af0e-dee4eef3526c","ios":"levelo://app?vid=3b61f2d0-287d-4914-af0e-dee4eef3526c"},"vehicle_type_id":"4","last_reported":1778724640,"current_range_meters":6800,"station_id":"ce4bhn92rcd13ifvqgsg","pricing_plan_id":"cebpf4jnsgd1na2vs0mg"},{"bike_id":"87c81631-4451-4236-92c6-4b297de3f797","system_id":"levelo_inurba_marseille","lat":43.31379,"lon":5.38493,"is_reserved":false,"is_disabled":false,"rental_uris":{"android":"levelo://app?vid=87c81631-4451-4236-92c6-4b297de3f797","ios":"levelo://app?vid=87c81631-4451-4236-92c6-4b297de3f797"},"vehicle_type_id":"4","last_reported":1778724640,"current_range_meters":6800,"station_id":"ce4bgt92rcd13ifvqcf0","pricing_plan_id":"cebpf4jnsgd1na2vs0mg"},{"bike_id":"ce46e338-2b3c-4540-bcec-12f047be9263","system_id":"levelo_inurba_marseille","lat":43.28198,"lon":5.40591,"is_reserved":false,"is_disabled":false,"rental_uris":{"android":"levelo://app?vid=ce46e338-2b3c-4540-bcec-12f047be9263","ios":"levelo://app?vid=ce46e338-2b3c-4540-bcec-12f047be9263"},"vehicle_type_id":"4","last_reported":1778724640,"current_range_meters":6800,"station_id":"","pricing_plan_id":"cebpf4jnsgd1na2vs0mg"},{"bike_id":"4118b0ae-0089-403c-b061-2637c601fef5","system_id":"levelo_inurba_marseille","lat":43.28411,"lon":5.34993,"is_reserved":false,"is_disabled":false,"rental_uris":{"android":"levelo://app?vid=4118b0ae-0089-403c-b061-2637c601fef5","ios":"levelo://app?vid=4118b0ae-0089-403c-b061-2637c601fef5"},"vehicle_type_id":"4","last_reported":1778724640,"current_range_meters":6800,"station_id":"ce4bhbh2rcd13ifvqepg","pricing_plan_id":"cebpf4jnsgd1na2vs0mg"},{"bike_id":"85c4beb0-759e-43b8-96d0-4a792eb6f9e1","system_id":"levelo_inurba_marseille","lat":43.248,"lon":5.37466,"is_reserved":false,"is_disabled":false,"rental_uris":{"android":"levelo://app?vid=85c4beb0-759e-43b8-96d0-4a792eb6f9e1","ios":"levelo://app?vid=85c4beb0-759e-43b8-96d0-4a792eb6f9e1"},"vehicle_type_id":"4","last_reported":1778724640,"current_range_meters":6800,"station_id":"ce4bhgh2rcd13ifvqfb0","pricing_plan_id":"cebpf4jnsgd1na2vs0mg"},{"bike_id":"d7bbce33-4845-419c-9761-61bbb5b4af7e","system_id":"levelo_inurba_marseille","lat":43.2866,"lon":5.36379,"is_reserved":false,"is_disabled":false,"rental_uris":{"android":"levelo://app?vid=d7bbce33-4845-419c-9761-61bbb5b4af7e","ios":"levelo://app?vid=d7bbce33-4845-419c-9761-61bbb5b4af7e"},"vehicle_type_id":"4","last_reported":1778724640,"current_range_meters":6800,"station_id":"ce4bhah2rcd13ifvqej0","pricing_plan_id":"cebpf4jnsgd1na2vs0mg"},{"bike_id":"96cfd789-c593-41fa-98ca-46dbfdd0476a","system_id":"levelo_inurba_marseille","lat":43.26379,"lon":5.41041,"is_reserved":false,"is_disabled":false,"rental_uris":{"android":"levelo://app?vid=96cfd789-c593-41fa-98ca-46dbfdd0476a","ios":"levelo://app?vid=96cfd789-c593-41fa-98ca-46dbfdd0476a"},"vehicle_type_id":"4","last_reported":1778724640,"current_range_meters":6800,"station_id":"st_d4e5ca6na9uc73bfl5fg","pricing_plan_id":"cebpf4jnsgd1na2vs0mg"},{"bike_id":"8bb75740-110f-4d4e-8348-fb9d76c42c05","system_id":"levelo_inurba_marseille","lat":43.28642,"lon":5.46761,"is_reserved":false,"is_disabled":false,"rental_uris":{"android":"levelo://app?vid=8bb75740-110f-4d4e-8348-fb9d76c42c05","ios":"levelo://app?vid=8bb75740-110f-4d4e-8348-fb9d76c42c05"},"vehicle_type_id":"4","last_reported":1778724640,"current_range_meters":6800,"station_id":"st_d6tc3vkotcvc738tfjhg","pricing_plan_id":"cebpf4jnsgd1na2vs0mg"},{"bike_id":"b630733c-36b3-46cd-9655-9aac8fe315cf","system_id":"levelo_inurba_marseille","lat":43.30487,"lon":5.37322,"is_reserved":false,"is_disabled":false,"rental_uris":{"android":"levelo://app?vid=b630733c-36b3-46cd-9655-9aac8fe315cf","ios":"levelo://app?vid=b630733c-36b3-46cd-9655-9aac8fe315cf"},"vehicle_type_id":"4","last_reported":1778724640,"current_range_meters":6800,"station_id":"","pricing_plan_id":"cebpf4jnsgd1na2vs0mg"},{"bike_id":"4751127d-3aa2-446e-8601-6629ed659fa5","system_id":"levelo_inurba_marseille","lat":43.22556,"lon":5.41638,"is_reserved":false,"is_disabled":false,"rental_uris":{"android":"levelo://app?vid=4751127d-3aa2-446e-8601-6629ed659fa5","ios":"levelo://app?vid=4751127d-3aa2-446e-8601-6629ed659fa5"},"vehicle_type_id":"4","last_reported":1778724640,"current_range_meters":6800,"station_id":"st_d2o4gvlbi1j2169b742g","pricing_plan_id":"cebpf4jnsgd1na2vs0mg"},{"bike_id":"8c213e32-c8d9-4960-bc93-fa01f8be8240","system_id":"levelo_inurba_marseille","lat":43.31067,"lon":5.37075,"is_reserved":false,"is_disabled":false,"rental_uris":{"android":"levelo://app?vid=8c213e32-c8d9-4960-bc93-fa01f8be8240","ios":"levelo://app?vid=8c213e32-c8d9-4960-bc93-fa01f8be8240"},"vehicle_type_id":"4","last_reported":1778724640,"current_range_meters":7200,"station_id":"","pricing_plan_id":"cebpf4jnsgd1na2vs0mg"},{"bike_id":"92ab43c4-65a8-40ad-9026-0da4c99cc465","system_id":"levelo_inurba_marseille","lat":43.25875,"lon":5.40514,"is_reserved":false,"is_disabled":false,"rental_uris":{"android":"levelo://app?vid=92ab43c4-65a8-40ad-9026-0da4c99cc465","ios":"levelo://app?vid=92ab43c4-65a8-40ad-9026-0da4c99cc465"},"vehicle_type_id":"4","last_reported":1778724640,"current_range_meters":7200,"station_id":"","pricing_plan_id":"cebpf4jnsgd1na2vs0mg"},{"bike_id":"464c74fd-fe31-4df7-9dc5-c340692a38f5","system_id":"levelo_inurba_marseille","lat":43.24949,"lon":5.40494,"is_reserved":false,"is_disabled":false,"rental_uris":{"android":"levelo://app?vid=464c74fd-fe31-4df7-9dc5-c340692a38f5","ios":"levelo://app?vid=464c74fd-fe31-4df7-9dc5-c340692a38f5"},"vehicle_type_id":"4","last_reported":1778724640,"current_range_meters":7200,"station_id":"st_d2ngiaodas8pm72gd1h0","pricing_plan_id":"cebpf4jnsgd1na2vs0mg"},{"bike_id":"11bfc38c-9d4c-45ee-b922-1948cd421490","system_id":"levelo_inurba_marseille","lat":43.24757,"lon":5.37506,"is_reserved":false,"is_disabled":false,"rental_uris":{"android":"levelo://app?vid=11bfc38c-9d4c-45ee-b922-1948cd421490","ios":"levelo://app?vid=11bfc38c-9d4c-45ee-b922-1948cd421490"},"vehicle_type_id":"4","last_reported":1778724640,"current_range_meters":7200,"station_id":"","pricing_plan_id":"cebpf4jnsgd1na2vs0mg"},{"bike_id":"2eaa840a-f8ca-45a2-bc4a-9d7b0be45bff","system_id":"levelo_inurba_marseille","lat":43.31116,"lon":5.37762,"is_reserved":false,"is_disabled":false,"rental_uris":{"android":"levelo://app?vid=2eaa840a-f8ca-45a2-bc4a-9d7b0be45bff","ios":"levelo://app?vid=2eaa840a-f8ca-45a2-bc4a-9d7b0be45bff"},"vehicle_type_id":"4","last_reported":1778724640,"current_range_meters":7200,"station_id":"ce4bgt92rcd13ifvqcg0","pricing_plan_id":"cebpf4jnsgd1na2vs0mg"},{"bike_id":"35e8ee96-f021-41ee-8a16-5cd416ace246","system_id":"levelo_inurba_marseille","lat":43.28177,"lon":5.42667,"is_reserved":false,"is_disabled":false,"rental_uris":{"android":"levelo://app?vid=35e8ee96-f021-41ee-8a16-5cd416ace246","ios":"levelo://app?vid=35e8ee96-f021-41ee-8a16-5cd416ace246"},"vehicle_type_id":"4","last_reported":1778724640,"current_range_meters":7200,"station_id":"ce4bhnh2rcd13ifvqgug","pricing_plan_id":"cebpf4jnsgd1na2vs0mg"},{"bike_id":"b1f85c10-3a72-4895-b4df-4b7782abd0b1","system_id":"levelo_inurba_marseille","lat":43.28622,"lon":5.44012,"is_reserved":false,"is_disabled":false,"rental_uris":{"android":"levelo://app?vid=b1f85c10-3a72-4895-b4df-4b7782abd0b1","ios":"levelo://app?vid=b1f85c10-3a72-4895-b4df-4b7782abd0b1"},"vehicle_type_id":"4","last_reported":1778724640,"current_range_meters":7200,"station_id":"","pricing_plan_id":"cebpf4jnsgd1na2vs0mg"},{"bike_id":"34cc106d-e88f-464c-b290-ce7702652b61","system_id":"levelo_inurba_marseille","lat":43.289,"lon":5.36408,"is_reserved":false,"is_disabled":false,"rental_uris":{"android":"levelo://app?vid=34cc106d-e88f-464c-b290-ce7702652b61","ios":"levelo://app?vid=34cc106d-e88f-464c-b290-ce7702652b61"},"vehicle_type_id":"4","last_reported":1778724640,"current_range_meters":7200,"station_id":"","pricing_plan_id":"cebpf4jnsgd1na2vs0mg"},{"bike_id":"d11788de-43b6-41c2-ad4d-b52eeab9398d","system_id":"levelo_inurba_marseille","lat":43.30461,"lon":5.37905,"is_reserved":false,"is_disabled":false,"rental_uris":{"android":"levelo://app?vid=d11788de-43b6-41c2-ad4d-b52eeab9398d","ios":"levelo://app?vid=d11788de-43b6-41c2-ad4d-b52eeab9398d"},"vehicle_type_id":"4","last_reported":1778724640,"current_range_meters":7200,"station_id":"ce4bgup2rcd13ifvqcn0","pricing_plan_id":"cebpf4jnsgd1na2vs0mg"},{"bike_id":"72c4b5ec-6750-4385-ac59-50206ebfe355","system_id":"levelo_inurba_marseille","lat":43.27913,"lon":5.39574,"is_reserved":false,"is_disabled":false,"rental_uris":{"android":"levelo://app?vid=72c4b5ec-6750-4385-ac59-50206ebfe355","ios":"levelo://app?vid=72c4b5ec-6750-4385-ac59-50206ebfe355"},"vehicle_type_id":"4","last_reported":1778724640,"current_range_meters":7200,"station_id":"ce4bhf92rcd13ifvqf40","pricing_plan_id":"cebpf4jnsgd1na2vs0mg"},{"bike_id":"1c8551e7-65a0-49fa-ba5d-23c46f24083e","system_id":"levelo_inurba_marseille","lat":43.28703,"lon":5.46689,"is_reserved":false,"is_disabled":false,"rental_uris":{"android":"levelo://app?vid=1c8551e7-65a0-49fa-ba5d-23c46f24083e","ios":"levelo://app?vid=1c8551e7-65a0-49fa-ba5d-23c46f24083e"},"vehicle_type_id":"4","last_reported":1778724640,"current_range_meters":7200,"station_id":"st_d6tc3vkotcvc738tfjhg","pricing_plan_id":"cebpf4jnsgd1na2vs0mg"},{"bike_id":"bdec0714-2661-4d5d-b0ca-dfb1e5acc403","system_id":"levelo_inurba_marseille","lat":43.21691,"lon":5.34631,"is_reserved":false,"is_disabled":true,"rental_uris":{"android":"levelo://app?vid=bdec0714-2661-4d5d-b0ca-dfb1e5acc403","ios":"levelo://app?vid=bdec0714-2661-4d5d-b0ca-dfb1e5acc403"},"vehicle_type_id":"4","last_reported":1778724640,"current_range_meters":7200,"station_id":"","pricing_plan_id":"cebpf4jnsgd1na2vs0mg"},{"bike_id":"6f1235fd-a52b-4e07-86ed-37a9f496ac8d","system_id":"levelo_inurba_marseille","lat":43.28346,"lon":5.38117,"is_reserved":false,"is_disabled":false,"rental_uris":{"android":"levelo://app?vid=6f1235fd-a52b-4e07-86ed-37a9f496ac8d","ios":"levelo://app?vid=6f1235fd-a52b-4e07-86ed-37a9f496ac8d"},"vehicle_type_id":"4","last_reported":1778724640,"current_range_meters":7200,"station_id":"ce4bh412rcd13ifvqdr0","pricing_plan_id":"cebpf4jnsgd1na2vs0mg"},{"bike_id":"b299766d-661b-4293-b516-1846fa5fb91f","system_id":"levelo_inurba_marseille","lat":43.28578,"lon":5.38629,"is_reserved":false,"is_disabled":false,"rental_uris":{"android":"levelo://app?vid=b299766d-661b-4293-b516-1846fa5fb91f","ios":"levelo://app?vid=b299766d-661b-4293-b516-1846fa5fb91f"},"vehicle_type_id":"4","last_reported":1778724640,"current_range_meters":7200,"station_id":"","pricing_plan_id":"cebpf4jnsgd1na2vs0mg"},{"bike_id":"76abce95-1fbb-457c-83c9-8be31c1ba964","system_id":"levelo_inurba_marseille","lat":43.23189,"lon":5.39975,"is_reserved":false,"is_disabled":true,"rental_uris":{"android":"levelo://app?vid=76abce95-1fbb-457c-83c9-8be31c1ba964","ios":"levelo://app?vid=76abce95-1fbb-457c-83c9-8be31c1ba964"},"vehicle_type_id":"4","last_reported":1778724640,"current_range_meters":7200,"station_id":"ce4bhn12rcd13ifvqgqg","pricing_plan_id":"cebpf4jnsgd1na2vs0mg"},{"bike_id":"f171c396-4196-4e3c-ab00-70b65e955c5f","system_id":"levelo_inurba_marseille","lat":43.30417,"lon":5.39762,"is_reserved":false,"is_disabled":false,"rental_uris":{"android":"levelo://app?vid=f171c396-4196-4e3c-ab00-70b65e955c5f","ios":"levelo://app?vid=f171c396-4196-4e3c-ab00-70b65e955c5f"},"vehicle_type_id":"4","last_reported":1778724640,"current_range_meters":7200,"station_id":"ce4bh092rcd13ifvqd20","pricing_plan_id":"cebpf4jnsgd1na2vs0mg"},{"bike_id":"198aa3ee-97ca-4e4b-8831-da2f9e67eae3","system_id":"levelo_inurba_marseille","lat":43.31524,"lon":5.37293,"is_reserved":false,"is_disabled":false,"rental_uris":{"android":"levelo://app?vid=198aa3ee-97ca-4e4b-8831-da2f9e67eae3","ios":"levelo://app?vid=198aa3ee-97ca-4e4b-8831-da2f9e67eae3"},"vehicle_type_id":"4","last_reported":1778724640,"current_range_meters":7200,"station_id":"ce4bgt12rcd13ifvqcd0","pricing_plan_id":"cebpf4jnsgd1na2vs0mg"},{"bike_id":"6a19ed57-ac73-42b5-8e17-cb7b62700533","system_id":"levelo_inurba_marseille","lat":43.23193,"lon":5.35562,"is_reserved":false,"is_disabled":false,"rental_uris":{"android":"levelo://app?vid=6a19ed57-ac73-42b5-8e17-cb7b62700533","ios":"levelo://app?vid=6a19ed57-ac73-42b5-8e17-cb7b62700533"},"vehicle_type_id":"4","last_reported":1778724640,"current_range_meters":7200,"station_id":"ce4bhu92rcd13ifvqi70","pricing_plan_id":"cebpf4jnsgd1na2vs0mg"},{"bike_id":"ce615a8c-7a08-4252-af33-b8071ad3e1a3","system_id":"levelo_inurba_marseille","lat":43.29764,"lon":5.39341,"is_reserved":false,"is_disabled":false,"rental_uris":{"android":"levelo://app?vid=ce615a8c-7a08-4252-af33-b8071ad3e1a3","ios":"levelo://app?vid=ce615a8c-7a08-4252-af33-b8071ad3e1a3"},"vehicle_type_id":"4","last_reported":1778724640,"current_range_meters":8000,"station_id":"chh1huq6cuj3fo74tm60","pricing_plan_id":"cebpf4jnsgd1na2vs0mg"},{"bike_id":"5e57f13f-0095-4757-85ab-b6d06c068367","system_id":"levelo_inurba_marseille","lat":43.28006,"lon":5.36944,"is_reserved":false,"is_disabled":false,"rental_uris":{"android":"levelo://app?vid=5e57f13f-0095-4757-85ab-b6d06c068367","ios":"levelo://app?vid=5e57f13f-0095-4757-85ab-b6d06c068367"},"vehicle_type_id":"4","last_reported":1778724640,"current_range_meters":8000,"station_id":"ce4bha12rcd13ifvqef0","pricing_plan_id":"cebpf4jnsgd1na2vs0mg"},{"bike_id":"ffb3d7f7-6459-4e3d-8b24-278faf4681ca","system_id":"levelo_inurba_marseille","lat":43.28568,"lon":5.395,"is_reserved":false,"is_disabled":false,"rental_uris":{"android":"levelo://app?vid=ffb3d7f7-6459-4e3d-8b24-278faf4681ca","ios":"levelo://app?vid=ffb3d7f7-6459-4e3d-8b24-278faf4681ca"},"vehicle_type_id":"4","last_reported":1778724640,"current_range_meters":8000,"station_id":"ce4bh292rcd13ifvqdg0","pricing_plan_id":"cebpf4jnsgd1na2vs0mg"},{"bike_id":"844741a2-f80e-4514-aadd-d1fe2ac89ebf","system_id":"levelo_inurba_marseille","lat":43.22928,"lon":5.35372,"is_reserved":false,"is_disabled":false,"rental_uris":{"android":"levelo://app?vid=844741a2-f80e-4514-aadd-d1fe2ac89ebf","ios":"levelo://app?vid=844741a2-f80e-4514-aadd-d1fe2ac89ebf"},"vehicle_type_id":"4","last_reported":1778724640,"current_range_meters":8000,"station_id":"cpo3532slgdg3j2ikp40","pricing_plan_id":"cebpf4jnsgd1na2vs0mg"},{"bike_id":"9a7cc937-a6ec-4087-a3df-066ca7655994","system_id":"levelo_inurba_marseille","lat":43.33728,"lon":5.37461,"is_reserved":false,"is_disabled":false,"rental_uris":{"android":"levelo://app?vid=9a7cc937-a6ec-4087-a3df-066ca7655994","ios":"levelo://app?vid=9a7cc937-a6ec-4087-a3df-066ca7655994"},"vehicle_type_id":"4","last_reported":1778724640,"current_range_meters":8000,"station_id":"","pricing_plan_id":"cebpf4jnsgd1na2vs0mg"},{"bike_id":"02513213-42ee-4c0e-a640-42c7d9c36ea3","system_id":"levelo_inurba_marseille","lat":43.28699,"lon":5.37982,"is_reserved":false,"is_disabled":false,"rental_uris":{"android":"levelo://app?vid=02513213-42ee-4c0e-a640-42c7d9c36ea3","ios":"levelo://app?vid=02513213-42ee-4c0e-a640-42c7d9c36ea3"},"vehicle_type_id":"4","last_reported":1778724640,"current_range_meters":8000,"station_id":"ce4bh9p2rcd13ifvqec0","pricing_plan_id":"cebpf4jnsgd1na2vs0mg"},{"bike_id":"9bb62d1d-98d2-456f-8ada-1bbcaeb98c00","system_id":"levelo_inurba_marseille","lat":43.28555,"lon":5.38455,"is_reserved":false,"is_disabled":false,"rental_uris":{"android":"levelo://app?vid=9bb62d1d-98d2-456f-8ada-1bbcaeb98c00","ios":"levelo://app?vid=9bb62d1d-98d2-456f-8ada-1bbcaeb98c00"},"vehicle_type_id":"4","last_reported":1778724640,"current_range_meters":8000,"station_id":"","pricing_plan_id":"cebpf4jnsgd1na2vs0mg"},{"bike_id":"d42a7cf1-1fa2-40ee-b441-c73427ab11ef","system_id":"levelo_inurba_marseille","lat":43.23979,"lon":5.36605,"is_reserved":false,"is_disabled":false,"rental_uris":{"android":"levelo://app?vid=d42a7cf1-1fa2-40ee-b441-c73427ab11ef","ios":"levelo://app?vid=d42a7cf1-1fa2-40ee-b441-c73427ab11ef"},"vehicle_type_id":"4","last_reported":1778724640,"current_range_meters":8000,"station_id":"ce4bhi12rcd13ifvqfp0","pricing_plan_id":"cebpf4jnsgd1na2vs0mg"},{"bike_id":"961ae3cb-3fb8-4279-8e42-ea1f7ab378e9","system_id":"levelo_inurba_marseille","lat":43.23191,"lon":5.39971,"is_reserved":false,"is_disabled":false,"rental_uris":{"android":"levelo://app?vid=961ae3cb-3fb8-4279-8e42-ea1f7ab378e9","ios":"levelo://app?vid=961ae3cb-3fb8-4279-8e42-ea1f7ab378e9"},"vehicle_type_id":"4","last_reported":1778724640,"current_range_meters":8000,"station_id":"ce4bhn12rcd13ifvqgqg","pricing_plan_id":"cebpf4jnsgd1na2vs0mg"},{"bike_id":"16b5c46e-5a79-48d3-8144-a17155e83234","system_id":"levelo_inurba_marseille","lat":43.28704,"lon":5.3865,"is_reserved":false,"is_disabled":false,"rental_uris":{"android":"levelo://app?vid=16b5c46e-5a79-48d3-8144-a17155e83234","ios":"levelo://app?vid=16b5c46e-5a79-48d3-8144-a17155e83234"},"vehicle_type_id":"4","last_reported":1778724640,"current_range_meters":8000,"station_id":"","pricing_plan_id":"cebpf4jnsgd1na2vs0mg"},{"bike_id":"18df3caf-e3cd-46b1-8a56-af0d8c09400e","system_id":"levelo_inurba_marseille","lat":43.24167,"lon":5.36404,"is_reserved":false,"is_disabled":false,"rental_uris":{"android":"levelo://app?vid=18df3caf-e3cd-46b1-8a56-af0d8c09400e","ios":"levelo://app?vid=18df3caf-e3cd-46b1-8a56-af0d8c09400e"},"vehicle_type_id":"4","last_reported":1778724640,"current_range_meters":8000,"station_id":"cpo36qri1sfpv3e86is0","pricing_plan_id":"cebpf4jnsgd1na2vs0mg"},{"bike_id":"0da6948a-b597-4317-b926-141efbb7181d","system_id":"levelo_inurba_marseille","lat":43.25505,"lon":5.37649,"is_reserved":false,"is_disabled":false,"rental_uris":{"android":"levelo://app?vid=0da6948a-b597-4317-b926-141efbb7181d","ios":"levelo://app?vid=0da6948a-b597-4317-b926-141efbb7181d"},"vehicle_type_id":"4","last_reported":1778724640,"current_range_meters":8000,"station_id":"ce4bhh12rcd13ifvqff0","pricing_plan_id":"cebpf4jnsgd1na2vs0mg"},{"bike_id":"e7639aa3-651f-4e26-8dc2-eebbc9adb5f8","system_id":"levelo_inurba_marseille","lat":43.24643,"lon":5.38891,"is_reserved":false,"is_disabled":true,"rental_uris":{"android":"levelo://app?vid=e7639aa3-651f-4e26-8dc2-eebbc9adb5f8","ios":"levelo://app?vid=e7639aa3-651f-4e26-8dc2-eebbc9adb5f8"},"vehicle_type_id":"4","last_reported":1778724640,"current_range_meters":8000,"station_id":"ce4bhg12rcd13ifvqf60","pricing_plan_id":"cebpf4jnsgd1na2vs0mg"},{"bike_id":"7f2cf64e-d432-4a6f-b804-e1e718732a8a","system_id":"levelo_inurba_marseille","lat":43.29169,"lon":5.35791,"is_reserved":false,"is_disabled":false,"rental_uris":{"android":"levelo://app?vid=7f2cf64e-d432-4a6f-b804-e1e718732a8a","ios":"levelo://app?vid=7f2cf64e-d432-4a6f-b804-e1e718732a8a"},"vehicle_type_id":"4","last_reported":1778724640,"current_range_meters":8000,"station_id":"ce4bhb12rcd13ifvqel0","pricing_plan_id":"cebpf4jnsgd1na2vs0mg"},{"bike_id":"4a568d14-8b20-4b0f-a249-47ba1e0114bd","system_id":"levelo_inurba_marseille","lat":43.26201,"lon":5.37451,"is_reserved":false,"is_disabled":true,"rental_uris":{"android":"levelo://app?vid=4a568d14-8b20-4b0f-a249-47ba1e0114bd","ios":"levelo://app?vid=4a568d14-8b20-4b0f-a249-47ba1e0114bd"},"vehicle_type_id":"4","last_reported":1778724640,"current_range_meters":8000,"station_id":"ce4bhgp2rcd13ifvqfc0","pricing_plan_id":"cebpf4jnsgd1na2vs0mg"},{"bike_id":"4d2f6501-f59d-42f5-8f2d-638fca42e820","system_id":"levelo_inurba_marseille","lat":43.28472,"lon":5.48439,"is_reserved":false,"is_disabled":false,"rental_uris":{"android":"levelo://app?vid=4d2f6501-f59d-42f5-8f2d-638fca42e820","ios":"levelo://app?vid=4d2f6501-f59d-42f5-8f2d-638fca42e820"},"vehicle_type_id":"4","last_reported":1778724640,"current_range_meters":8000,"station_id":"st_d3svhcjqgbts73a3dn0g","pricing_plan_id":"cebpf4jnsgd1na2vs0mg"},{"bike_id":"99caa207-9f3f-475f-971f-75549c3fc682","system_id":"levelo_inurba_marseille","lat":43.28886,"lon":5.39285,"is_reserved":false,"is_disabled":false,"rental_uris":{"android":"levelo://app?vid=99caa207-9f3f-475f-971f-75549c3fc682","ios":"levelo://app?vid=99caa207-9f3f-475f-971f-75549c3fc682"},"vehicle_type_id":"4","last_reported":1778724640,"current_range_meters":8000,"station_id":"ce4bh2p2rcd13ifvqdi0","pricing_plan_id":"cebpf4jnsgd1na2vs0mg"},{"bike_id":"8ffde7c2-1094-43fc-ac69-aea8b1da0880","system_id":"levelo_inurba_marseille","lat":43.24393,"lon":5.37059,"is_reserved":false,"is_disabled":false,"rental_uris":{"android":"levelo://app?vid=8ffde7c2-1094-43fc-ac69-aea8b1da0880","ios":"levelo://app?vid=8ffde7c2-1094-43fc-ac69-aea8b1da0880"},"vehicle_type_id":"4","last_reported":1778724640,"current_range_meters":8000,"station_id":"ce4bhhh2rcd13ifvqfk0","pricing_plan_id":"cebpf4jnsgd1na2vs0mg"},{"bike_id":"1a828908-75e2-45ab-90c5-6e8aa8e3fac7","system_id":"levelo_inurba_marseille","lat":43.24802,"lon":5.37452,"is_reserved":false,"is_disabled":false,"rental_uris":{"android":"levelo://app?vid=1a828908-75e2-45ab-90c5-6e8aa8e3fac7","ios":"levelo://app?vid=1a828908-75e2-45ab-90c5-6e8aa8e3fac7"},"vehicle_type_id":"4","last_reported":1778724640,"current_range_meters":8000,"station_id":"ce4bhgh2rcd13ifvqfb0","pricing_plan_id":"cebpf4jnsgd1na2vs0mg"},{"bike_id":"8882e8da-5af3-44e8-ab4e-8407de440b57","system_id":"levelo_inurba_marseille","lat":43.24946,"lon":5.40507,"is_reserved":false,"is_disabled":false,"rental_uris":{"android":"levelo://app?vid=8882e8da-5af3-44e8-ab4e-8407de440b57","ios":"levelo://app?vid=8882e8da-5af3-44e8-ab4e-8407de440b57"},"vehicle_type_id":"4","last_reported":1778724640,"current_range_meters":8000,"station_id":"st_d2ngiaodas8pm72gd1h0","pricing_plan_id":"cebpf4jnsgd1na2vs0mg"},{"bike_id":"43dc5ec9-cce1-48fb-99af-2b40ca7b9483","system_id":"levelo_inurba_marseille","lat":43.21752,"lon":5.34599,"is_reserved":false,"is_disabled":false,"rental_uris":{"android":"levelo://app?vid=43dc5ec9-cce1-48fb-99af-2b40ca7b9483","ios":"levelo://app?vid=43dc5ec9-cce1-48fb-99af-2b40ca7b9483"},"vehicle_type_id":"4","last_reported":1778724640,"current_range_meters":8400,"station_id":"st_cvj6r9ubvosntc0bgbag","pricing_plan_id":"cebpf4jnsgd1na2vs0mg"},{"bike_id":"81ae9a97-046f-4685-b3d6-f0657cc0dac1","system_id":"levelo_inurba_marseille","lat":43.26862,"lon":5.4036,"is_reserved":false,"is_disabled":false,"rental_uris":{"android":"levelo://app?vid=81ae9a97-046f-4685-b3d6-f0657cc0dac1","ios":"levelo://app?vid=81ae9a97-046f-4685-b3d6-f0657cc0dac1"},"vehicle_type_id":"4","last_reported":1778724640,"current_range_meters":8400,"station_id":"","pricing_plan_id":"cebpf4jnsgd1na2vs0mg"},{"bike_id":"f009bb4b-625b-4482-8ff8-5aeca90a33f4","system_id":"levelo_inurba_marseille","lat":43.2621,"lon":5.37442,"is_reserved":false,"is_disabled":false,"rental_uris":{"android":"levelo://app?vid=f009bb4b-625b-4482-8ff8-5aeca90a33f4","ios":"levelo://app?vid=f009bb4b-625b-4482-8ff8-5aeca90a33f4"},"vehicle_type_id":"4","last_reported":1778724640,"current_range_meters":8400,"station_id":"ce4bhgp2rcd13ifvqfc0","pricing_plan_id":"cebpf4jnsgd1na2vs0mg"},{"bike_id":"4066804f-6245-416c-a2b8-375581408be7","system_id":"levelo_inurba_marseille","lat":43.29133,"lon":5.42442,"is_reserved":false,"is_disabled":false,"rental_uris":{"android":"levelo://app?vid=4066804f-6245-416c-a2b8-375581408be7","ios":"levelo://app?vid=4066804f-6245-416c-a2b8-375581408be7"},"vehicle_type_id":"4","last_reported":1778724640,"current_range_meters":8400,"station_id":"","pricing_plan_id":"cebpf4jnsgd1na2vs0mg"},{"bike_id":"b7aef511-a30b-48e6-924f-5b7ff92819c7","system_id":"levelo_inurba_marseille","lat":43.28144,"lon":5.42628,"is_reserved":false,"is_disabled":true,"rental_uris":{"android":"levelo://app?vid=b7aef511-a30b-48e6-924f-5b7ff92819c7","ios":"levelo://app?vid=b7aef511-a30b-48e6-924f-5b7ff92819c7"},"vehicle_type_id":"4","last_reported":1778724640,"current_range_meters":8400,"station_id":"ce4bhnh2rcd13ifvqgug","pricing_plan_id":"cebpf4jnsgd1na2vs0mg"},{"bike_id":"f6fcf2d3-59dc-446e-8e5d-6c4db3de3165","system_id":"levelo_inurba_marseille","lat":43.308026,"lon":5.381497,"is_reserved":false,"is_disabled":false,"rental_uris":{"android":"levelo://app?vid=f6fcf2d3-59dc-446e-8e5d-6c4db3de3165","ios":"levelo://app?vid=f6fcf2d3-59dc-446e-8e5d-6c4db3de3165"},"vehicle_type_id":"4","last_reported":1778724640,"current_range_meters":8400,"station_id":"","pricing_plan_id":"cebpf4jnsgd1na2vs0mg"},{"bike_id":"9b43bf63-6625-4b22-b83e-5ca26f4837e7","system_id":"levelo_inurba_marseille","lat":43.26805,"lon":5.40268,"is_reserved":false,"is_disabled":false,"rental_uris":{"android":"levelo://app?vid=9b43bf63-6625-4b22-b83e-5ca26f4837e7","ios":"levelo://app?vid=9b43bf63-6625-4b22-b83e-5ca26f4837e7"},"vehicle_type_id":"4","last_reported":1778724640,"current_range_meters":8400,"station_id":"ce501612rcd8frsf0b60","pricing_plan_id":"cebpf4jnsgd1na2vs0mg"},{"bike_id":"a623fb6f-ee93-4c43-bbce-a5556c69223f","system_id":"levelo_inurba_marseille","lat":43.29703,"lon":5.36603,"is_reserved":false,"is_disabled":false,"rental_uris":{"android":"levelo://app?vid=a623fb6f-ee93-4c43-bbce-a5556c69223f","ios":"levelo://app?vid=a623fb6f-ee93-4c43-bbce-a5556c69223f"},"vehicle_type_id":"4","last_reported":1778724640,"current_range_meters":8400,"station_id":"ce4bgn12rcd13ifvqbt0","pricing_plan_id":"cebpf4jnsgd1na2vs0mg"},{"bike_id":"10ea7793-89fc-4210-8abc-ada687913ea7","system_id":"levelo_inurba_marseille","lat":43.32098,"lon":5.36778,"is_reserved":false,"is_disabled":false,"rental_uris":{"android":"levelo://app?vid=10ea7793-89fc-4210-8abc-ada687913ea7","ios":"levelo://app?vid=10ea7793-89fc-4210-8abc-ada687913ea7"},"vehicle_type_id":"4","last_reported":1778724640,"current_range_meters":8400,"station_id":"ce4bhrh2rcd13ifvqhug","pricing_plan_id":"cebpf4jnsgd1na2vs0mg"},{"bike_id":"0bc3c181-5a56-49f5-a1e7-73368f35dd11","system_id":"levelo_inurba_marseille","lat":43.27347,"lon":5.36278,"is_reserved":false,"is_disabled":false,"rental_uris":{"android":"levelo://app?vid=0bc3c181-5a56-49f5-a1e7-73368f35dd11","ios":"levelo://app?vid=0bc3c181-5a56-49f5-a1e7-73368f35dd11"},"vehicle_type_id":"4","last_reported":1778724640,"current_range_meters":8400,"station_id":"ce4bhbh2rcd13ifvqeo0","pricing_plan_id":"cebpf4jnsgd1na2vs0mg"},{"bike_id":"e775c99b-0b70-4f8c-ba25-de3c681ed645","system_id":"levelo_inurba_marseille","lat":43.24635,"lon":5.38922,"is_reserved":false,"is_disabled":false,"rental_uris":{"android":"levelo://app?vid=e775c99b-0b70-4f8c-ba25-de3c681ed645","ios":"levelo://app?vid=e775c99b-0b70-4f8c-ba25-de3c681ed645"},"vehicle_type_id":"4","last_reported":1778724640,"current_range_meters":8400,"station_id":"ce4bhg12rcd13ifvqf60","pricing_plan_id":"cebpf4jnsgd1na2vs0mg"},{"bike_id":"03d79ccb-0d3d-4459-a92d-65dd8d8533bb","system_id":"levelo_inurba_marseille","lat":43.24797,"lon":5.3745,"is_reserved":false,"is_disabled":false,"rental_uris":{"android":"levelo://app?vid=03d79ccb-0d3d-4459-a92d-65dd8d8533bb","ios":"levelo://app?vid=03d79ccb-0d3d-4459-a92d-65dd8d8533bb"},"vehicle_type_id":"4","last_reported":1778724640,"current_range_meters":8400,"station_id":"ce4bhgh2rcd13ifvqfb0","pricing_plan_id":"cebpf4jnsgd1na2vs0mg"},{"bike_id":"e72267be-afd9-4703-b5f6-a0613154ef33","system_id":"levelo_inurba_marseille","lat":43.303168,"lon":5.369031,"is_reserved":false,"is_disabled":false,"rental_uris":{"android":"levelo://app?vid=e72267be-afd9-4703-b5f6-a0613154ef33","ios":"levelo://app?vid=e72267be-afd9-4703-b5f6-a0613154ef33"},"vehicle_type_id":"4","last_reported":1778724640,"current_range_meters":8400,"station_id":"ce4bgqh2rcd13ifvqc5g","pricing_plan_id":"cebpf4jnsgd1na2vs0mg"},{"bike_id":"9ab268a0-a8ea-4091-be12-135023a9af46","system_id":"levelo_inurba_marseille","lat":43.30401,"lon":5.39764,"is_reserved":false,"is_disabled":false,"rental_uris":{"android":"levelo://app?vid=9ab268a0-a8ea-4091-be12-135023a9af46","ios":"levelo://app?vid=9ab268a0-a8ea-4091-be12-135023a9af46"},"vehicle_type_id":"4","last_reported":1778724640,"current_range_meters":8400,"station_id":"ce4bh092rcd13ifvqd20","pricing_plan_id":"cebpf4jnsgd1na2vs0mg"},{"bike_id":"66fd8018-0de1-49f2-826e-b4cee9b193a8","system_id":"levelo_inurba_marseille","lat":43.30216,"lon":5.36632,"is_reserved":false,"is_disabled":true,"rental_uris":{"android":"levelo://app?vid=66fd8018-0de1-49f2-826e-b4cee9b193a8","ios":"levelo://app?vid=66fd8018-0de1-49f2-826e-b4cee9b193a8"},"vehicle_type_id":"4","last_reported":1778724640,"current_range_meters":8400,"station_id":"ce4bgrh2rcd13ifvqc8g","pricing_plan_id":"cebpf4jnsgd1na2vs0mg"},{"bike_id":"0e0085c3-fe65-4ad3-a236-774b9ecc552e","system_id":"levelo_inurba_marseille","lat":43.24395,"lon":5.3705,"is_reserved":false,"is_disabled":false,"rental_uris":{"android":"levelo://app?vid=0e0085c3-fe65-4ad3-a236-774b9ecc552e","ios":"levelo://app?vid=0e0085c3-fe65-4ad3-a236-774b9ecc552e"},"vehicle_type_id":"4","last_reported":1778724640,"current_range_meters":8400,"station_id":"ce4bhhh2rcd13ifvqfk0","pricing_plan_id":"cebpf4jnsgd1na2vs0mg"},{"bike_id":"42236ca7-bf38-4f70-9da1-18244b38a87d","system_id":"levelo_inurba_marseille","lat":43.31327,"lon":5.39698,"is_reserved":false,"is_disabled":false,"rental_uris":{"android":"levelo://app?vid=42236ca7-bf38-4f70-9da1-18244b38a87d","ios":"levelo://app?vid=42236ca7-bf38-4f70-9da1-18244b38a87d"},"vehicle_type_id":"4","last_reported":1778724640,"current_range_meters":8400,"station_id":"ce4bgvp2rcd13ifvqcu0","pricing_plan_id":"cebpf4jnsgd1na2vs0mg"},{"bike_id":"6ad6ae18-21fc-4cd2-8d6b-b443438f9ca8","system_id":"levelo_inurba_marseille","lat":43.29031,"lon":5.42844,"is_reserved":false,"is_disabled":false,"rental_uris":{"android":"levelo://app?vid=6ad6ae18-21fc-4cd2-8d6b-b443438f9ca8","ios":"levelo://app?vid=6ad6ae18-21fc-4cd2-8d6b-b443438f9ca8"},"vehicle_type_id":"4","last_reported":1778724640,"current_range_meters":8400,"station_id":"","pricing_plan_id":"cebpf4jnsgd1na2vs0mg"},{"bike_id":"ac18aef5-2326-4bbc-bc41-64d4ee6d3ba3","system_id":"levelo_inurba_marseille","lat":43.31366,"lon":5.38525,"is_reserved":false,"is_disabled":false,"rental_uris":{"android":"levelo://app?vid=ac18aef5-2326-4bbc-bc41-64d4ee6d3ba3","ios":"levelo://app?vid=ac18aef5-2326-4bbc-bc41-64d4ee6d3ba3"},"vehicle_type_id":"4","last_reported":1778724640,"current_range_meters":8400,"station_id":"ce4bgt92rcd13ifvqcf0","pricing_plan_id":"cebpf4jnsgd1na2vs0mg"},{"bike_id":"ead892c9-b844-4758-9093-438046339052","system_id":"levelo_inurba_marseille","lat":43.33554,"lon":5.37443,"is_reserved":false,"is_disabled":false,"rental_uris":{"android":"levelo://app?vid=ead892c9-b844-4758-9093-438046339052","ios":"levelo://app?vid=ead892c9-b844-4758-9093-438046339052"},"vehicle_type_id":"4","last_reported":1778724640,"current_range_meters":8400,"station_id":"st_d46tts09ee8s73dlu43g","pricing_plan_id":"cebpf4jnsgd1na2vs0mg"},{"bike_id":"0f39ab81-4ec8-4110-bdec-ad4c73ac1f43","system_id":"levelo_inurba_marseille","lat":43.28521,"lon":5.44089,"is_reserved":false,"is_disabled":false,"rental_uris":{"android":"levelo://app?vid=0f39ab81-4ec8-4110-bdec-ad4c73ac1f43","ios":"levelo://app?vid=0f39ab81-4ec8-4110-bdec-ad4c73ac1f43"},"vehicle_type_id":"4","last_reported":1778724640,"current_range_meters":8400,"station_id":"st_d3j3df2ikq2c7380ej80","pricing_plan_id":"cebpf4jnsgd1na2vs0mg"},{"bike_id":"d1be613e-085b-4259-9861-d62c7bd1b056","system_id":"levelo_inurba_marseille","lat":43.3192,"lon":5.36826,"is_reserved":false,"is_disabled":false,"rental_uris":{"android":"levelo://app?vid=d1be613e-085b-4259-9861-d62c7bd1b056","ios":"levelo://app?vid=d1be613e-085b-4259-9861-d62c7bd1b056"},"vehicle_type_id":"4","last_reported":1778724640,"current_range_meters":8400,"station_id":"st_d6o2h0d0559c73evc1b0","pricing_plan_id":"cebpf4jnsgd1na2vs0mg"},{"bike_id":"b2b4314a-5925-4700-bab3-038d34f53a7d","system_id":"levelo_inurba_marseille","lat":43.28699,"lon":5.46689,"is_reserved":false,"is_disabled":false,"rental_uris":{"android":"levelo://app?vid=b2b4314a-5925-4700-bab3-038d34f53a7d","ios":"levelo://app?vid=b2b4314a-5925-4700-bab3-038d34f53a7d"},"vehicle_type_id":"4","last_reported":1778724640,"current_range_meters":8800,"station_id":"st_d6tc3vkotcvc738tfjhg","pricing_plan_id":"cebpf4jnsgd1na2vs0mg"},{"bike_id":"2675c90f-e52e-445b-9cb1-1ef30c9a7a44","system_id":"levelo_inurba_marseille","lat":43.31326,"lon":5.39709,"is_reserved":false,"is_disabled":false,"rental_uris":{"android":"levelo://app?vid=2675c90f-e52e-445b-9cb1-1ef30c9a7a44","ios":"levelo://app?vid=2675c90f-e52e-445b-9cb1-1ef30c9a7a44"},"vehicle_type_id":"4","last_reported":1778724640,"current_range_meters":8800,"station_id":"ce4bgvp2rcd13ifvqcu0","pricing_plan_id":"cebpf4jnsgd1na2vs0mg"},{"bike_id":"1f07e132-97a9-4528-b9b3-ef7c62abf882","system_id":"levelo_inurba_marseille","lat":43.27612,"lon":5.36109,"is_reserved":false,"is_disabled":false,"rental_uris":{"android":"levelo://app?vid=1f07e132-97a9-4528-b9b3-ef7c62abf882","ios":"levelo://app?vid=1f07e132-97a9-4528-b9b3-ef7c62abf882"},"vehicle_type_id":"4","last_reported":1778724640,"current_range_meters":8800,"station_id":"ce4bgj92rcd13ifvqbe0","pricing_plan_id":"cebpf4jnsgd1na2vs0mg"},{"bike_id":"91eeadf8-9cc7-4358-8f0a-69d93f2e05ce","system_id":"levelo_inurba_marseille","lat":43.31153,"lon":5.36896,"is_reserved":false,"is_disabled":false,"rental_uris":{"android":"levelo://app?vid=91eeadf8-9cc7-4358-8f0a-69d93f2e05ce","ios":"levelo://app?vid=91eeadf8-9cc7-4358-8f0a-69d93f2e05ce"},"vehicle_type_id":"4","last_reported":1778724640,"current_range_meters":8800,"station_id":"","pricing_plan_id":"cebpf4jnsgd1na2vs0mg"},{"bike_id":"55ab020e-68f6-412a-b977-6fdf5b6f3f56","system_id":"levelo_inurba_marseille","lat":43.31377,"lon":5.38497,"is_reserved":false,"is_disabled":false,"rental_uris":{"android":"levelo://app?vid=55ab020e-68f6-412a-b977-6fdf5b6f3f56","ios":"levelo://app?vid=55ab020e-68f6-412a-b977-6fdf5b6f3f56"},"vehicle_type_id":"4","last_reported":1778724640,"current_range_meters":8800,"station_id":"ce4bgt92rcd13ifvqcf0","pricing_plan_id":"cebpf4jnsgd1na2vs0mg"},{"bike_id":"ed122cb0-9c4b-4104-b359-218c1bf83706","system_id":"levelo_inurba_marseille","lat":43.29567,"lon":5.39973,"is_reserved":false,"is_disabled":true,"rental_uris":{"android":"levelo://app?vid=ed122cb0-9c4b-4104-b359-218c1bf83706","ios":"levelo://app?vid=ed122cb0-9c4b-4104-b359-218c1bf83706"},"vehicle_type_id":"4","last_reported":1778724640,"current_range_meters":8800,"station_id":"ce4bh312rcd13ifvqdj0","pricing_plan_id":"cebpf4jnsgd1na2vs0mg"},{"bike_id":"668a9b41-354e-4bee-bad3-4c0c0c7f49fe","system_id":"levelo_inurba_marseille","lat":43.27973,"lon":5.38671,"is_reserved":false,"is_disabled":true,"rental_uris":{"android":"levelo://app?vid=668a9b41-354e-4bee-bad3-4c0c0c7f49fe","ios":"levelo://app?vid=668a9b41-354e-4bee-bad3-4c0c0c7f49fe"},"vehicle_type_id":"4","last_reported":1778724640,"current_range_meters":8800,"station_id":"","pricing_plan_id":"cebpf4jnsgd1na2vs0mg"},{"bike_id":"04fab4f5-3865-44d6-9da6-cd03201dc7b5","system_id":"levelo_inurba_marseille","lat":43.29556,"lon":5.39097,"is_reserved":false,"is_disabled":false,"rental_uris":{"android":"levelo://app?vid=04fab4f5-3865-44d6-9da6-cd03201dc7b5","ios":"levelo://app?vid=04fab4f5-3865-44d6-9da6-cd03201dc7b5"},"vehicle_type_id":"4","last_reported":1778724640,"current_range_meters":8800,"station_id":"","pricing_plan_id":"cebpf4jnsgd1na2vs0mg"},{"bike_id":"cd382ef6-e165-4c5a-9266-61b6eb8de4e7","system_id":"levelo_inurba_marseille","lat":43.2666,"lon":5.37295,"is_reserved":false,"is_disabled":false,"rental_uris":{"android":"levelo://app?vid=cd382ef6-e165-4c5a-9266-61b6eb8de4e7","ios":"levelo://app?vid=cd382ef6-e165-4c5a-9266-61b6eb8de4e7"},"vehicle_type_id":"4","last_reported":1778724640,"current_range_meters":8800,"station_id":"","pricing_plan_id":"cebpf4jnsgd1na2vs0mg"},{"bike_id":"20fd4451-2c2d-4b01-baab-aee936a8f996","system_id":"levelo_inurba_marseille","lat":43.29575,"lon":5.3752,"is_reserved":false,"is_disabled":true,"rental_uris":{"android":"levelo://app?vid=20fd4451-2c2d-4b01-baab-aee936a8f996","ios":"levelo://app?vid=20fd4451-2c2d-4b01-baab-aee936a8f996"},"vehicle_type_id":"4","last_reported":1778724640,"current_range_meters":8800,"station_id":"ce4bgh92rcd13ifvqb50","pricing_plan_id":"cebpf4jnsgd1na2vs0mg"},{"bike_id":"a805dd41-a9d9-4ba0-b517-cd11edd5e755","system_id":"levelo_inurba_marseille","lat":43.28527,"lon":5.44088,"is_reserved":false,"is_disabled":false,"rental_uris":{"android":"levelo://app?vid=a805dd41-a9d9-4ba0-b517-cd11edd5e755","ios":"levelo://app?vid=a805dd41-a9d9-4ba0-b517-cd11edd5e755"},"vehicle_type_id":"4","last_reported":1778724640,"current_range_meters":8800,"station_id":"st_d3j3df2ikq2c7380ej80","pricing_plan_id":"cebpf4jnsgd1na2vs0mg"},{"bike_id":"38eba388-b23e-4bd3-997b-1949f4d112e2","system_id":"levelo_inurba_marseille","lat":43.31278,"lon":5.40162,"is_reserved":false,"is_disabled":false,"rental_uris":{"android":"levelo://app?vid=38eba388-b23e-4bd3-997b-1949f4d112e2","ios":"levelo://app?vid=38eba388-b23e-4bd3-997b-1949f4d112e2"},"vehicle_type_id":"4","last_reported":1778724640,"current_range_meters":8800,"station_id":"ce4bh092rcd13ifvqd30","pricing_plan_id":"cebpf4jnsgd1na2vs0mg"},{"bike_id":"cc90a0a8-a1f0-4a30-a8be-482630da4418","system_id":"levelo_inurba_marseille","lat":43.29675,"lon":5.37702,"is_reserved":false,"is_disabled":true,"rental_uris":{"android":"levelo://app?vid=cc90a0a8-a1f0-4a30-a8be-482630da4418","ios":"levelo://app?vid=cc90a0a8-a1f0-4a30-a8be-482630da4418"},"vehicle_type_id":"4","last_reported":1778724640,"current_range_meters":8800,"station_id":"ce4bgkh2rcd13ifvqbl0","pricing_plan_id":"cebpf4jnsgd1na2vs0mg"},{"bike_id":"716cfd71-7de1-4117-ac46-aed121b9c691","system_id":"levelo_inurba_marseille","lat":43.27207,"lon":5.39184,"is_reserved":false,"is_disabled":false,"rental_uris":{"android":"levelo://app?vid=716cfd71-7de1-4117-ac46-aed121b9c691","ios":"levelo://app?vid=716cfd71-7de1-4117-ac46-aed121b9c691"},"vehicle_type_id":"4","last_reported":1778724640,"current_range_meters":8800,"station_id":"ce4bhhp2rcd13ifvqfm0","pricing_plan_id":"cebpf4jnsgd1na2vs0mg"},{"bike_id":"9062255f-0238-4e6e-b972-b53f3708ba09","system_id":"levelo_inurba_marseille","lat":43.2534,"lon":5.42174,"is_reserved":false,"is_disabled":false,"rental_uris":{"android":"levelo://app?vid=9062255f-0238-4e6e-b972-b53f3708ba09","ios":"levelo://app?vid=9062255f-0238-4e6e-b972-b53f3708ba09"},"vehicle_type_id":"4","last_reported":1778724640,"current_range_meters":8800,"station_id":"st_d2m65c5bi1j21697t3ng","pricing_plan_id":"cebpf4jnsgd1na2vs0mg"},{"bike_id":"3eb17ea7-504c-4154-a442-3f77f9eb2f74","system_id":"levelo_inurba_marseille","lat":43.2548,"lon":5.37641,"is_reserved":false,"is_disabled":false,"rental_uris":{"android":"levelo://app?vid=3eb17ea7-504c-4154-a442-3f77f9eb2f74","ios":"levelo://app?vid=3eb17ea7-504c-4154-a442-3f77f9eb2f74"},"vehicle_type_id":"4","last_reported":1778724640,"current_range_meters":8800,"station_id":"ce4bhh12rcd13ifvqff0","pricing_plan_id":"cebpf4jnsgd1na2vs0mg"},{"bike_id":"77809bd6-a135-4592-835b-b672d628122d","system_id":"levelo_inurba_marseille","lat":43.27172,"lon":5.40997,"is_reserved":false,"is_disabled":false,"rental_uris":{"android":"levelo://app?vid=77809bd6-a135-4592-835b-b672d628122d","ios":"levelo://app?vid=77809bd6-a135-4592-835b-b672d628122d"},"vehicle_type_id":"4","last_reported":1778724640,"current_range_meters":8800,"station_id":"ce4bhl12rcd13ifvqgf0","pricing_plan_id":"cebpf4jnsgd1na2vs0mg"},{"bike_id":"eed4ce53-a4b7-4a20-8aed-e525aa277104","system_id":"levelo_inurba_marseille","lat":43.29789,"lon":5.38077,"is_reserved":false,"is_disabled":true,"rental_uris":{"android":"levelo://app?vid=eed4ce53-a4b7-4a20-8aed-e525aa277104","ios":"levelo://app?vid=eed4ce53-a4b7-4a20-8aed-e525aa277104"},"vehicle_type_id":"4","last_reported":1778724640,"current_range_meters":8800,"station_id":"ce4bgip2rcd13ifvqbb0","pricing_plan_id":"cebpf4jnsgd1na2vs0mg"},{"bike_id":"af705914-bb9c-47f1-9802-e7ff0d2548f0","system_id":"levelo_inurba_marseille","lat":43.25492,"lon":5.37645,"is_reserved":false,"is_disabled":false,"rental_uris":{"android":"levelo://app?vid=af705914-bb9c-47f1-9802-e7ff0d2548f0","ios":"levelo://app?vid=af705914-bb9c-47f1-9802-e7ff0d2548f0"},"vehicle_type_id":"4","last_reported":1778724640,"current_range_meters":8800,"station_id":"ce4bhh12rcd13ifvqff0","pricing_plan_id":"cebpf4jnsgd1na2vs0mg"},{"bike_id":"cf86c92c-3641-4c56-b4a8-89ebd58517ee","system_id":"levelo_inurba_marseille","lat":43.32092,"lon":5.36817,"is_reserved":false,"is_disabled":false,"rental_uris":{"android":"levelo://app?vid=cf86c92c-3641-4c56-b4a8-89ebd58517ee","ios":"levelo://app?vid=cf86c92c-3641-4c56-b4a8-89ebd58517ee"},"vehicle_type_id":"4","last_reported":1778724640,"current_range_meters":8800,"station_id":"ce4bhrh2rcd13ifvqhug","pricing_plan_id":"cebpf4jnsgd1na2vs0mg"},{"bike_id":"ec6737dc-1772-471f-a98e-a46a0f4e17f5","system_id":"levelo_inurba_marseille","lat":43.27179,"lon":5.40999,"is_reserved":false,"is_disabled":true,"rental_uris":{"android":"levelo://app?vid=ec6737dc-1772-471f-a98e-a46a0f4e17f5","ios":"levelo://app?vid=ec6737dc-1772-471f-a98e-a46a0f4e17f5"},"vehicle_type_id":"4","last_reported":1778724640,"current_range_meters":8800,"station_id":"ce4bhl12rcd13ifvqgf0","pricing_plan_id":"cebpf4jnsgd1na2vs0mg"},{"bike_id":"c1c72d3d-55e4-49c0-b252-4cb84958352d","system_id":"levelo_inurba_marseille","lat":43.30901,"lon":5.40205,"is_reserved":false,"is_disabled":false,"rental_uris":{"android":"levelo://app?vid=c1c72d3d-55e4-49c0-b252-4cb84958352d","ios":"levelo://app?vid=c1c72d3d-55e4-49c0-b252-4cb84958352d"},"vehicle_type_id":"4","last_reported":1778724640,"current_range_meters":8800,"station_id":"","pricing_plan_id":"cebpf4jnsgd1na2vs0mg"},{"bike_id":"fb6a4e03-6a4e-4ff2-aa3f-8e60f26d6bc9","system_id":"levelo_inurba_marseille","lat":43.28891,"lon":5.35817,"is_reserved":false,"is_disabled":false,"rental_uris":{"android":"levelo://app?vid=fb6a4e03-6a4e-4ff2-aa3f-8e60f26d6bc9","ios":"levelo://app?vid=fb6a4e03-6a4e-4ff2-aa3f-8e60f26d6bc9"},"vehicle_type_id":"4","last_reported":1778724640,"current_range_meters":8800,"station_id":"ce4bhb12rcd13ifvqem0","pricing_plan_id":"cebpf4jnsgd1na2vs0mg"},{"bike_id":"6ca71038-9f95-4ab6-abac-0a0dca643d0a","system_id":"levelo_inurba_marseille","lat":43.29565,"lon":5.39989,"is_reserved":false,"is_disabled":false,"rental_uris":{"android":"levelo://app?vid=6ca71038-9f95-4ab6-abac-0a0dca643d0a","ios":"levelo://app?vid=6ca71038-9f95-4ab6-abac-0a0dca643d0a"},"vehicle_type_id":"4","last_reported":1778724640,"current_range_meters":8800,"station_id":"ce4bh312rcd13ifvqdj0","pricing_plan_id":"cebpf4jnsgd1na2vs0mg"},{"bike_id":"cd0e15e6-383e-4ca1-af5d-9dc8c2dea329","system_id":"levelo_inurba_marseille","lat":43.3094,"lon":5.40135,"is_reserved":false,"is_disabled":false,"rental_uris":{"android":"levelo://app?vid=cd0e15e6-383e-4ca1-af5d-9dc8c2dea329","ios":"levelo://app?vid=cd0e15e6-383e-4ca1-af5d-9dc8c2dea329"},"vehicle_type_id":"4","last_reported":1778724640,"current_range_meters":8800,"station_id":"ce4bgvp2rcd13ifvqct0","pricing_plan_id":"cebpf4jnsgd1na2vs0mg"},{"bike_id":"8af38655-e65c-465e-83e2-1c3ed295a51f","system_id":"levelo_inurba_marseille","lat":43.24459,"lon":5.4247,"is_reserved":false,"is_disabled":false,"rental_uris":{"android":"levelo://app?vid=8af38655-e65c-465e-83e2-1c3ed295a51f","ios":"levelo://app?vid=8af38655-e65c-465e-83e2-1c3ed295a51f"},"vehicle_type_id":"4","last_reported":1778724640,"current_range_meters":9200,"station_id":"","pricing_plan_id":"cebpf4jnsgd1na2vs0mg"},{"bike_id":"e21152b8-d489-4151-83e2-605c867fd03b","system_id":"levelo_inurba_marseille","lat":43.28474,"lon":5.35871,"is_reserved":false,"is_disabled":false,"rental_uris":{"android":"levelo://app?vid=e21152b8-d489-4151-83e2-605c867fd03b","ios":"levelo://app?vid=e21152b8-d489-4151-83e2-605c867fd03b"},"vehicle_type_id":"4","last_reported":1778724640,"current_range_meters":9200,"station_id":"ce4bhah2rcd13ifvqei0","pricing_plan_id":"cebpf4jnsgd1na2vs0mg"},{"bike_id":"92d5bd85-40f0-4a40-abdf-ba1ea4e82af3","system_id":"levelo_inurba_marseille","lat":43.30154,"lon":5.3808,"is_reserved":false,"is_disabled":false,"rental_uris":{"android":"levelo://app?vid=92d5bd85-40f0-4a40-abdf-ba1ea4e82af3","ios":"levelo://app?vid=92d5bd85-40f0-4a40-abdf-ba1ea4e82af3"},"vehicle_type_id":"4","last_reported":1778724640,"current_range_meters":9200,"station_id":"ce4bgjp2rcd13ifvqbh0","pricing_plan_id":"cebpf4jnsgd1na2vs0mg"},{"bike_id":"1700d583-7597-4737-8882-3cff6f507183","system_id":"levelo_inurba_marseille","lat":43.30646,"lon":5.40084,"is_reserved":false,"is_disabled":false,"rental_uris":{"android":"levelo://app?vid=1700d583-7597-4737-8882-3cff6f507183","ios":"levelo://app?vid=1700d583-7597-4737-8882-3cff6f507183"},"vehicle_type_id":"4","last_reported":1778724640,"current_range_meters":9200,"station_id":"ce4bh112rcd13ifvqda0","pricing_plan_id":"cebpf4jnsgd1na2vs0mg"},{"bike_id":"c44be256-fdbb-473a-a347-eefe8ee70887","system_id":"levelo_inurba_marseille","lat":43.23117,"lon":5.43733,"is_reserved":false,"is_disabled":false,"rental_uris":{"android":"levelo://app?vid=c44be256-fdbb-473a-a347-eefe8ee70887","ios":"levelo://app?vid=c44be256-fdbb-473a-a347-eefe8ee70887"},"vehicle_type_id":"4","last_reported":1778724640,"current_range_meters":9200,"station_id":"ce4bhmp2rcd13ifvqgog","pricing_plan_id":"cebpf4jnsgd1na2vs0mg"},{"bike_id":"97584df1-b6f6-4d5b-a233-f0962dc7cb39","system_id":"levelo_inurba_marseille","lat":43.26033,"lon":5.37537,"is_reserved":false,"is_disabled":false,"rental_uris":{"android":"levelo://app?vid=97584df1-b6f6-4d5b-a233-f0962dc7cb39","ios":"levelo://app?vid=97584df1-b6f6-4d5b-a233-f0962dc7cb39"},"vehicle_type_id":"4","last_reported":1778724640,"current_range_meters":9200,"station_id":"ce4bhgh2rcd13ifvqfa0","pricing_plan_id":"cebpf4jnsgd1na2vs0mg"},{"bike_id":"aa12297c-fd71-4c28-a646-27376e528c12","system_id":"levelo_inurba_marseille","lat":43.29731,"lon":5.37669,"is_reserved":false,"is_disabled":true,"rental_uris":{"android":"levelo://app?vid=aa12297c-fd71-4c28-a646-27376e528c12","ios":"levelo://app?vid=aa12297c-fd71-4c28-a646-27376e528c12"},"vehicle_type_id":"4","last_reported":1778724640,"current_range_meters":9200,"station_id":"ce4bgkh2rcd13ifvqbl0","pricing_plan_id":"cebpf4jnsgd1na2vs0mg"},{"bike_id":"dc6960a7-1f93-4b4e-85c3-4c612c60a34a","system_id":"levelo_inurba_marseille","lat":43.29145,"lon":5.4004,"is_reserved":false,"is_disabled":false,"rental_uris":{"android":"levelo://app?vid=dc6960a7-1f93-4b4e-85c3-4c612c60a34a","ios":"levelo://app?vid=dc6960a7-1f93-4b4e-85c3-4c612c60a34a"},"vehicle_type_id":"4","last_reported":1778724640,"current_range_meters":9200,"station_id":"","pricing_plan_id":"cebpf4jnsgd1na2vs0mg"},{"bike_id":"b68725fb-48bd-4094-a63b-2967d5e783dd","system_id":"levelo_inurba_marseille","lat":43.27915,"lon":5.39587,"is_reserved":false,"is_disabled":true,"rental_uris":{"android":"levelo://app?vid=b68725fb-48bd-4094-a63b-2967d5e783dd","ios":"levelo://app?vid=b68725fb-48bd-4094-a63b-2967d5e783dd"},"vehicle_type_id":"4","last_reported":1778724640,"current_range_meters":9200,"station_id":"ce4bhf92rcd13ifvqf40","pricing_plan_id":"cebpf4jnsgd1na2vs0mg"},{"bike_id":"6558a215-088b-4d96-81b8-6bad41db068e","system_id":"levelo_inurba_marseille","lat":43.31106,"lon":5.40011,"is_reserved":false,"is_disabled":false,"rental_uris":{"android":"levelo://app?vid=6558a215-088b-4d96-81b8-6bad41db068e","ios":"levelo://app?vid=6558a215-088b-4d96-81b8-6bad41db068e"},"vehicle_type_id":"4","last_reported":1778724640,"current_range_meters":9200,"station_id":"ce4bgvp2rcd13ifvqct0","pricing_plan_id":"cebpf4jnsgd1na2vs0mg"},{"bike_id":"ac613f80-68b4-4285-b46b-fb14fdccedcb","system_id":"levelo_inurba_marseille","lat":43.28881,"lon":5.35822,"is_reserved":false,"is_disabled":false,"rental_uris":{"android":"levelo://app?vid=ac613f80-68b4-4285-b46b-fb14fdccedcb","ios":"levelo://app?vid=ac613f80-68b4-4285-b46b-fb14fdccedcb"},"vehicle_type_id":"4","last_reported":1778724640,"current_range_meters":9200,"station_id":"ce4bhb12rcd13ifvqem0","pricing_plan_id":"cebpf4jnsgd1na2vs0mg"},{"bike_id":"b4557c18-0c64-4ad3-9e11-156aa838e06c","system_id":"levelo_inurba_marseille","lat":43.31327,"lon":5.39725,"is_reserved":false,"is_disabled":false,"rental_uris":{"android":"levelo://app?vid=b4557c18-0c64-4ad3-9e11-156aa838e06c","ios":"levelo://app?vid=b4557c18-0c64-4ad3-9e11-156aa838e06c"},"vehicle_type_id":"4","last_reported":1778724640,"current_range_meters":9200,"station_id":"ce4bgvp2rcd13ifvqcu0","pricing_plan_id":"cebpf4jnsgd1na2vs0mg"},{"bike_id":"5e36af05-b91e-4935-abc0-8d532a0ac838","system_id":"levelo_inurba_marseille","lat":43.28657,"lon":5.37418,"is_reserved":false,"is_disabled":false,"rental_uris":{"android":"levelo://app?vid=5e36af05-b91e-4935-abc0-8d532a0ac838","ios":"levelo://app?vid=5e36af05-b91e-4935-abc0-8d532a0ac838"},"vehicle_type_id":"4","last_reported":1778724640,"current_range_meters":9200,"station_id":"","pricing_plan_id":"cebpf4jnsgd1na2vs0mg"},{"bike_id":"95990583-3178-4c07-80ff-998f745c5916","system_id":"levelo_inurba_marseille","lat":43.28405,"lon":5.37523,"is_reserved":false,"is_disabled":false,"rental_uris":{"android":"levelo://app?vid=95990583-3178-4c07-80ff-998f745c5916","ios":"levelo://app?vid=95990583-3178-4c07-80ff-998f745c5916"},"vehicle_type_id":"4","last_reported":1778724640,"current_range_meters":9600,"station_id":"ce4bh412rcd13ifvqds0","pricing_plan_id":"cebpf4jnsgd1na2vs0mg"},{"bike_id":"48bd556d-b77b-4887-87eb-0c845466b78e","system_id":"levelo_inurba_marseille","lat":43.27995,"lon":5.40013,"is_reserved":false,"is_disabled":false,"rental_uris":{"android":"levelo://app?vid=48bd556d-b77b-4887-87eb-0c845466b78e","ios":"levelo://app?vid=48bd556d-b77b-4887-87eb-0c845466b78e"},"vehicle_type_id":"4","last_reported":1778724640,"current_range_meters":9600,"station_id":"ce4bho92rcd13ifvqh4g","pricing_plan_id":"cebpf4jnsgd1na2vs0mg"},{"bike_id":"003baca3-1b51-47a6-bbf5-e479a5ad0ebd","system_id":"levelo_inurba_marseille","lat":43.33539,"lon":5.37462,"is_reserved":false,"is_disabled":false,"rental_uris":{"android":"levelo://app?vid=003baca3-1b51-47a6-bbf5-e479a5ad0ebd","ios":"levelo://app?vid=003baca3-1b51-47a6-bbf5-e479a5ad0ebd"},"vehicle_type_id":"4","last_reported":1778724640,"current_range_meters":9600,"station_id":"st_d46tts09ee8s73dlu43g","pricing_plan_id":"cebpf4jnsgd1na2vs0mg"},{"bike_id":"25043882-a0ad-4344-9bdf-83aaa6afe837","system_id":"levelo_inurba_marseille","lat":43.29215,"lon":5.39274,"is_reserved":false,"is_disabled":false,"rental_uris":{"android":"levelo://app?vid=25043882-a0ad-4344-9bdf-83aaa6afe837","ios":"levelo://app?vid=25043882-a0ad-4344-9bdf-83aaa6afe837"},"vehicle_type_id":"4","last_reported":1778724640,"current_range_meters":9600,"station_id":"ce4bh192rcd13ifvqdd0","pricing_plan_id":"cebpf4jnsgd1na2vs0mg"},{"bike_id":"355b9e66-6c32-4c74-81a4-ccb0813605fa","system_id":"levelo_inurba_marseille","lat":43.31272,"lon":5.40168,"is_reserved":false,"is_disabled":false,"rental_uris":{"android":"levelo://app?vid=355b9e66-6c32-4c74-81a4-ccb0813605fa","ios":"levelo://app?vid=355b9e66-6c32-4c74-81a4-ccb0813605fa"},"vehicle_type_id":"4","last_reported":1778724640,"current_range_meters":9600,"station_id":"ce4bh092rcd13ifvqd30","pricing_plan_id":"cebpf4jnsgd1na2vs0mg"},{"bike_id":"3469f700-545e-41e3-b24a-6a73a452f236","system_id":"levelo_inurba_marseille","lat":43.26501,"lon":5.39521,"is_reserved":false,"is_disabled":false,"rental_uris":{"android":"levelo://app?vid=3469f700-545e-41e3-b24a-6a73a452f236","ios":"levelo://app?vid=3469f700-545e-41e3-b24a-6a73a452f236"},"vehicle_type_id":"4","last_reported":1778724640,"current_range_meters":9600,"station_id":"ce4bhi12rcd13ifvqfq0","pricing_plan_id":"cebpf4jnsgd1na2vs0mg"},{"bike_id":"be5ec2e3-e51c-450e-b635-2e2a7b9f299b","system_id":"levelo_inurba_marseille","lat":43.24397,"lon":5.37049,"is_reserved":false,"is_disabled":false,"rental_uris":{"android":"levelo://app?vid=be5ec2e3-e51c-450e-b635-2e2a7b9f299b","ios":"levelo://app?vid=be5ec2e3-e51c-450e-b635-2e2a7b9f299b"},"vehicle_type_id":"4","last_reported":1778724640,"current_range_meters":9600,"station_id":"ce4bhhh2rcd13ifvqfk0","pricing_plan_id":"cebpf4jnsgd1na2vs0mg"},{"bike_id":"01d6866d-1fa3-4b9d-a3c3-f33e2c3346ea","system_id":"levelo_inurba_marseille","lat":43.23746,"lon":5.36649,"is_reserved":false,"is_disabled":false,"rental_uris":{"android":"levelo://app?vid=01d6866d-1fa3-4b9d-a3c3-f33e2c3346ea","ios":"levelo://app?vid=01d6866d-1fa3-4b9d-a3c3-f33e2c3346ea"},"vehicle_type_id":"4","last_reported":1778724640,"current_range_meters":9600,"station_id":"st_d3nk18o9ro0c73en2l3g","pricing_plan_id":"cebpf4jnsgd1na2vs0mg"},{"bike_id":"3642636a-a553-4860-880b-4c6d3b998fd1","system_id":"levelo_inurba_marseille","lat":43.2861,"lon":5.35107,"is_reserved":false,"is_disabled":false,"rental_uris":{"android":"levelo://app?vid=3642636a-a553-4860-880b-4c6d3b998fd1","ios":"levelo://app?vid=3642636a-a553-4860-880b-4c6d3b998fd1"},"vehicle_type_id":"4","last_reported":1778724640,"current_range_meters":9600,"station_id":"ce4bhch2rcd13ifvqeug","pricing_plan_id":"cebpf4jnsgd1na2vs0mg"},{"bike_id":"7c74475f-6058-4944-810e-ad2915af408c","system_id":"levelo_inurba_marseille","lat":43.26169,"lon":5.40543,"is_reserved":false,"is_disabled":false,"rental_uris":{"android":"levelo://app?vid=7c74475f-6058-4944-810e-ad2915af408c","ios":"levelo://app?vid=7c74475f-6058-4944-810e-ad2915af408c"},"vehicle_type_id":"4","last_reported":1778724640,"current_range_meters":9600,"station_id":"","pricing_plan_id":"cebpf4jnsgd1na2vs0mg"},{"bike_id":"da9692a2-1099-45a6-98a9-724b86dc7769","system_id":"levelo_inurba_marseille","lat":43.3084,"lon":5.40173,"is_reserved":false,"is_disabled":false,"rental_uris":{"android":"levelo://app?vid=da9692a2-1099-45a6-98a9-724b86dc7769","ios":"levelo://app?vid=da9692a2-1099-45a6-98a9-724b86dc7769"},"vehicle_type_id":"4","last_reported":1778724640,"current_range_meters":9600,"station_id":"","pricing_plan_id":"cebpf4jnsgd1na2vs0mg"},{"bike_id":"c1aea499-d26f-49bf-8367-447ce7aec604","system_id":"levelo_inurba_marseille","lat":43.25346,"lon":5.42175,"is_reserved":false,"is_disabled":false,"rental_uris":{"android":"levelo://app?vid=c1aea499-d26f-49bf-8367-447ce7aec604","ios":"levelo://app?vid=c1aea499-d26f-49bf-8367-447ce7aec604"},"vehicle_type_id":"4","last_reported":1778724640,"current_range_meters":9600,"station_id":"st_d2m65c5bi1j21697t3ng","pricing_plan_id":"cebpf4jnsgd1na2vs0mg"},{"bike_id":"f0ae77a3-32eb-4c7c-8efc-fba7b5d64db2","system_id":"levelo_inurba_marseille","lat":43.27831,"lon":5.39191,"is_reserved":false,"is_disabled":true,"rental_uris":{"android":"levelo://app?vid=f0ae77a3-32eb-4c7c-8efc-fba7b5d64db2","ios":"levelo://app?vid=f0ae77a3-32eb-4c7c-8efc-fba7b5d64db2"},"vehicle_type_id":"4","last_reported":1778724640,"current_range_meters":9600,"station_id":"ce4bhjp2rcd13ifvqga0","pricing_plan_id":"cebpf4jnsgd1na2vs0mg"},{"bike_id":"f0fddcf7-5d98-4d8a-9bda-e27dac14a45c","system_id":"levelo_inurba_marseille","lat":43.33543,"lon":5.37459,"is_reserved":false,"is_disabled":false,"rental_uris":{"android":"levelo://app?vid=f0fddcf7-5d98-4d8a-9bda-e27dac14a45c","ios":"levelo://app?vid=f0fddcf7-5d98-4d8a-9bda-e27dac14a45c"},"vehicle_type_id":"4","last_reported":1778724640,"current_range_meters":9600,"station_id":"st_d46tts09ee8s73dlu43g","pricing_plan_id":"cebpf4jnsgd1na2vs0mg"},{"bike_id":"befa7ca9-07da-4b3a-822a-5e23279d9209","system_id":"levelo_inurba_marseille","lat":43.29551,"lon":5.42288,"is_reserved":false,"is_disabled":false,"rental_uris":{"android":"levelo://app?vid=befa7ca9-07da-4b3a-822a-5e23279d9209","ios":"levelo://app?vid=befa7ca9-07da-4b3a-822a-5e23279d9209"},"vehicle_type_id":"4","last_reported":1778724640,"current_range_meters":9600,"station_id":"ce4bhph2rcd13ifvqhdg","pricing_plan_id":"cebpf4jnsgd1na2vs0mg"},{"bike_id":"d8b68879-59ba-4273-b219-2f9226170b3f","system_id":"levelo_inurba_marseille","lat":43.27955,"lon":5.41055,"is_reserved":false,"is_disabled":true,"rental_uris":{"android":"levelo://app?vid=d8b68879-59ba-4273-b219-2f9226170b3f","ios":"levelo://app?vid=d8b68879-59ba-4273-b219-2f9226170b3f"},"vehicle_type_id":"4","last_reported":1778724640,"current_range_meters":9600,"station_id":"ce4bhnp2rcd13ifvqh0g","pricing_plan_id":"cebpf4jnsgd1na2vs0mg"},{"bike_id":"fd926cd8-f3e7-4ea0-9811-e5d39a863ccd","system_id":"levelo_inurba_marseille","lat":43.29063,"lon":5.39968,"is_reserved":false,"is_disabled":true,"rental_uris":{"android":"levelo://app?vid=fd926cd8-f3e7-4ea0-9811-e5d39a863ccd","ios":"levelo://app?vid=fd926cd8-f3e7-4ea0-9811-e5d39a863ccd"},"vehicle_type_id":"4","last_reported":1778724640,"current_range_meters":9600,"station_id":"ce4bh392rcd13ifvqdm0","pricing_plan_id":"cebpf4jnsgd1na2vs0mg"},{"bike_id":"366aac1f-e1c4-4ce7-9807-fd5d5975aef8","system_id":"levelo_inurba_marseille","lat":43.29192,"lon":5.35767,"is_reserved":false,"is_disabled":false,"rental_uris":{"android":"levelo://app?vid=366aac1f-e1c4-4ce7-9807-fd5d5975aef8","ios":"levelo://app?vid=366aac1f-e1c4-4ce7-9807-fd5d5975aef8"},"vehicle_type_id":"4","last_reported":1778724640,"current_range_meters":9600,"station_id":"ce4bhb12rcd13ifvqel0","pricing_plan_id":"cebpf4jnsgd1na2vs0mg"},{"bike_id":"d06e21cb-7e20-41e8-9360-9b829e92b25c","system_id":"levelo_inurba_marseille","lat":43.33156,"lon":5.37686,"is_reserved":false,"is_disabled":false,"rental_uris":{"android":"levelo://app?vid=d06e21cb-7e20-41e8-9360-9b829e92b25c","ios":"levelo://app?vid=d06e21cb-7e20-41e8-9360-9b829e92b25c"},"vehicle_type_id":"4","last_reported":1778724640,"current_range_meters":9600,"station_id":"st_d46cu089ee8s73dldbu0","pricing_plan_id":"cebpf4jnsgd1na2vs0mg"},