{"last_updated":1730718584,"ttl":60,"version":"2.2","data":{"bikes":[{"bike_id":"aa4a5991-c369-4626-972d-569a5885f560","system_id":"levelo_inurba_marseille","lat":43.30335,"lon":5.40449,"is_reserved":false,"is_disabled":false,"rental_uris":{"android":"levelo://app?vid=aa4a5991-c369-4626-972d-569a5885f560","ios":"levelo://app?vid=aa4a5991-c369-4626-972d-569a5885f560"},"vehicle_type_id":"4","last_reported":1730718584,"current_range_meters":6400,"station_id":"ce4bh012rcd13ifvqd10","pricing_plan_id":"cebpf4jnsgd1na2vs0mg"},{"bike_id":"9a7847e0-6ffa-4090-92ad-fd5e07263073","system_id":"levelo_inurba_marseille","lat":43.28158,"lon":5.42638,"is_reserved":false,"is_disabled":false,"rental_uris":{"android":"levelo://app?vid=9a7847e0-6ffa-4090-92ad-fd5e07263073","ios":"levelo://app?vid=9a7847e0-6ffa-4090-92ad-fd5e07263073"},"vehicle_type_id":"4","last_reported":1730718584,"current_range_meters":6000,"station_id":"ce4bhnh2rcd13ifvqgug","pricing_plan_id":"cebpf4jnsgd1na2vs0mg"},{"bike_id":"de82462c-39c1-4979-bd28-edb42d99871f","system_id":"levelo_inurba_marseille","lat":43.31374,"lon":5.3849,"is_reserved":false,"is_disabled":false,"rental_uris":{"android":"levelo://app?vid=de82462c-39c1-4979-bd28-edb42d99871f","ios":"levelo://app?vid=de82462c-39c1-4979-bd28-edb42d99871f"},"vehicle_type_id":"4","last_reported":1730718584,"current_range_meters":31200,"station_id":"ce4bgt92rcd13ifvqcf0","pricing_plan_id":"cebpf4jnsgd1na2vs0mg"},{"bike_id":"2421bc84-2f57-4ee1-bdc8-99ef3ce70086","system_id":"levelo_inurba_marseille","lat":43.30131,"lon":5.39856,"is_reserved":false,"is_disabled":false,"rental_uris":{"android":"levelo://app?vid=2421bc84-2f57-4ee1-bdc8-99ef3ce70086","ios":"levelo://app?vid=2421bc84-2f57-4ee1-bdc8-99ef3ce70086"},"vehicle_type_id":"4","last_reported":1730718584,"current_range_meters":27600,"station_id":"ce4bh0h2rcd13ifvqd40","pricing_plan_id":"cebpf4jnsgd1na2vs0mg"},{"bike_id":"32e0bd39-8846-4b8b-9ff5-b45ce87f8492","system_id":"levelo_inurba_marseille","lat":43.25944,"lon":5.40896,"is_reserved":false,"is_disabled":false,"rental_uris":{"android":"levelo://app?vid=32e0bd39-8846-4b8b-9ff5-b45ce87f8492","ios":"levelo://app?vid=32e0bd39-8846-4b8b-9ff5-b45ce87f8492"},"vehicle_type_id":"4","last_reported":1730718584,"current_range_meters":24000,"station_id":"ce4bhm92rcd13ifvqglg","pricing_plan_id":"cebpf4jnsgd1na2vs0mg"},{"bike_id":"300ff029-b9f7-4cf4-83fe-58b8dae3f04d","system_id":"levelo_inurba_marseille","lat":43.29892,"lon":5.39736,"is_reserved":false,"is_disabled":false,"rental_uris":{"android":"levelo://app?vid=300ff029-b9f7-4cf4-83fe-58b8dae3f04d","ios":"levelo://app?vid=300ff029-b9f7-4cf4-83fe-58b8dae3f04d"},"vehicle_type_id":"4","last_reported":1730718584,"current_range_meters":38000,"station_id":"ce4bh0h2rcd13ifvqd50","pricing_plan_id":"cebpf4jnsgd1na2vs0mg"},{"bike_id":"b45d93e2-137e-40d9-b8b9-f9ceab009d23","system_id":"levelo_inurba_marseille","lat":43.24183,"lon":5.39734,"is_reserved":false,"is_disabled":false,"rental_uris":{"android":"levelo://app?vid=b45d93e2-137e-40d9-b8b9-f9ceab009d23","ios":"levelo://app?vid=b45d93e2-137e-40d9-b8b9-f9ceab009d23"},"vehicle_type_id":"4","last_reported":1730718584,"current_range_meters":39200,"station_id":"ce4bhn12rcd13ifvqgpg","pricing_plan_id":"cebpf4jnsgd1na2vs0mg"},{"bike_id":"30915423-b050-4a62-9993-5d62f6c2fa2e","system_id":"levelo_inurba_marseille","lat":43.26506,"lon":5.39543,"is_reserved":false,"is_disabled":false,"rental_uris":{"android":"levelo://app?vid=30915423-b050-4a62-9993-5d62f6c2fa2e","ios":"levelo://app?vid=30915423-b050-4a62-9993-5d62f6c2fa2e"},"vehicle_type_id":"4","last_reported":1730718584,"current_range_meters":36800,"station_id":"ce4bhi12rcd13ifvqfq0","pricing_plan_id":"cebpf4jnsgd1na2vs0mg"},{"bike_id":"88963283-e778-455e-8c78-d5f53f3c9b18","system_id":"levelo_inurba_marseille","lat":43.29682,"lon":5.38116,"is_reserved":false,"is_disabled":false,"rental_uris":{"android":"levelo://app?vid=88963283-e778-455e-8c78-d5f53f3c9b18","ios":"levelo://app?vid=88963283-e778-455e-8c78-d5f53f3c9b18"},"vehicle_type_id":"4","last_reported":1730718584,"current_range_meters":29600,"station_id":"ce4bgt92rcd13ifvqcg0","pricing_plan_id":"cebpf4jnsgd1na2vs0mg"},{"bike_id":"37c14f64-b8de-4bcf-822e-ff939133b996","system_id":"levelo_inurba_marseille","lat":43.2408,"lon":5.37744,"is_reserved":false,"is_disabled":false,"rental_uris":{"android":"levelo://app?vid=37c14f64-b8de-4bcf-822e-ff939133b996","ios":"levelo://app?vid=37c14f64-b8de-4bcf-822e-ff939133b996"},"vehicle_type_id":"4","last_reported":1730718584,"current_range_meters":20400,"station_id":"ce4bhnp2rcd13ifvqgvg","pricing_plan_id":"cebpf4jnsgd1na2vs0mg"},{"bike_id":"2a39fee9-2e1a-4506-90a5-52fa3c1e7f62","system_id":"levelo_inurba_marseille","lat":43.24079,"lon":5.37748,"is_reserved":false,"is_disabled":false,"rental_uris":{"android":"levelo://app?vid=2a39fee9-2e1a-4506-90a5-52fa3c1e7f62","ios":"levelo://app?vid=2a39fee9-2e1a-4506-90a5-52fa3c1e7f62"},"vehicle_type_id":"4","last_reported":1730718584,"current_range_meters":38000,"station_id":"ce4bhnp2rcd13ifvqgvg","pricing_plan_id":"cebpf4jnsgd1na2vs0mg"},{"bike_id":"ca6c56a4-cf5c-4ce9-8f54-b2a86d90f031","system_id":"levelo_inurba_marseille","lat":43.33025,"lon":5.39041,"is_reserved":false,"is_disabled":false,"rental_uris":{"android":"levelo://app?vid=ca6c56a4-cf5c-4ce9-8f54-b2a86d90f031","ios":"levelo://app?vid=ca6c56a4-cf5c-4ce9-8f54-b2a86d90f031"},"vehicle_type_id":"4","last_reported":1730718584,"current_range_meters":10800,"station_id":"ce4bhr92rcd13ifvqhrg","pricing_plan_id":"cebpf4jnsgd1na2vs0mg"},{"bike_id":"4147bbfb-4b14-4aca-b782-8ec6c0473609","system_id":"levelo_inurba_marseille","lat":43.23597,"lon":5.40357,"is_reserved":false,"is_disabled":false,"rental_uris":{"android":"levelo://app?vid=4147bbfb-4b14-4aca-b782-8ec6c0473609","ios":"levelo://app?vid=4147bbfb-4b14-4aca-b782-8ec6c0473609"},"vehicle_type_id":"4","last_reported":1730718584,"current_range_meters":16000,"station_id":"","pricing_plan_id":"cebpf4jnsgd1na2vs0mg"},{"bike_id":"3dac0d04-4602-40ab-a137-1c76c669c955","system_id":"levelo_inurba_marseille","lat":43.27943,"lon":5.41044,"is_reserved":false,"is_disabled":false,"rental_uris":{"android":"levelo://app?vid=3dac0d04-4602-40ab-a137-1c76c669c955","ios":"levelo://app?vid=3dac0d04-4602-40ab-a137-1c76c669c955"},"vehicle_type_id":"4","last_reported":1730718584,"current_range_meters":8800,"station_id":"ce4bhnp2rcd13ifvqh0g","pricing_plan_id":"cebpf4jnsgd1na2vs0mg"},{"bike_id":"7c0a34c7-1ebc-403d-99c6-cb22fa491d99","system_id":"levelo_inurba_marseille","lat":43.28712,"lon":5.37935,"is_reserved":false,"is_disabled":false,"rental_uris":{"android":"levelo://app?vid=7c0a34c7-1ebc-403d-99c6-cb22fa491d99","ios":"levelo://app?vid=7c0a34c7-1ebc-403d-99c6-cb22fa491d99"},"vehicle_type_id":"4","last_reported":1730718584,"current_range_meters":17600,"station_id":"ce4bh9p2rcd13ifvqec0","pricing_plan_id":"cebpf4jnsgd1na2vs0mg"},{"bike_id":"3b22801b-76cd-417e-9cc9-15c807b1bc8a","system_id":"levelo_inurba_marseille","lat":43.23965,"lon":5.36628,"is_reserved":false,"is_disabled":false,"rental_uris":{"android":"levelo://app?vid=3b22801b-76cd-417e-9cc9-15c807b1bc8a","ios":"levelo://app?vid=3b22801b-76cd-417e-9cc9-15c807b1bc8a"},"vehicle_type_id":"4","last_reported":1730718584,"current_range_meters":32000,"station_id":"ce4bhi12rcd13ifvqfp0","pricing_plan_id":"cebpf4jnsgd1na2vs0mg"},{"bike_id":"c3c4d41d-7148-4370-b749-aace2892e397","system_id":"levelo_inurba_marseille","lat":43.2315,"lon":5.43715,"is_reserved":false,"is_disabled":false,"rental_uris":{"android":"levelo://app?vid=c3c4d41d-7148-4370-b749-aace2892e397","ios":"levelo://app?vid=c3c4d41d-7148-4370-b749-aace2892e397"},"vehicle_type_id":"4","last_reported":1730718584,"current_range_meters":36400,"station_id":"ce4bhmp2rcd13ifvqgog","pricing_plan_id":"cebpf4jnsgd1na2vs0mg"},{"bike_id":"0d4d5bf6-795b-4382-9e63-c2e5027c000e","system_id":"levelo_inurba_marseille","lat":43.3123,"lon":5.36839,"is_reserved":false,"is_disabled":false,"rental_uris":{"android":"levelo://app?vid=0d4d5bf6-795b-4382-9e63-c2e5027c000e","ios":"levelo://app?vid=0d4d5bf6-795b-4382-9e63-c2e5027c000e"},"vehicle_type_id":"4","last_reported":1730718584,"current_range_meters":39200,"station_id":"ce4bgl92rcd13ifvqbq0","pricing_plan_id":"cebpf4jnsgd1na2vs0mg"},{"bike_id":"444c5960-1f6d-4e5e-8341-fce3ce90757f","system_id":"levelo_inurba_marseille","lat":43.29622,"lon":5.37171,"is_reserved":false,"is_disabled":false,"rental_uris":{"android":"levelo://app?vid=444c5960-1f6d-4e5e-8341-fce3ce90757f","ios":"levelo://app?vid=444c5960-1f6d-4e5e-8341-fce3ce90757f"},"vehicle_type_id":"4","last_reported":1730718584,"current_range_meters":39200,"station_id":"ce4bgnh2rcd13ifvqc0g","pricing_plan_id":"cebpf4jnsgd1na2vs0mg"},{"bike_id":"b97d9adc-ce60-4c39-8afd-921a04111eb6","system_id":"levelo_inurba_marseille","lat":43.34146,"lon":5.40897,"is_reserved":false,"is_disabled":false,"rental_uris":{"android":"levelo://app?vid=b97d9adc-ce60-4c39-8afd-921a04111eb6","ios":"levelo://app?vid=b97d9adc-ce60-4c39-8afd-921a04111eb6"},"vehicle_type_id":"4","last_reported":1730718584,"current_range_meters":38800,"station_id":"ce4bhqh2rcd13ifvqhlg","pricing_plan_id":"cebpf4jnsgd1na2vs0mg"},{"bike_id":"cf5971f6-baec-441a-b705-dcff49875a02","system_id":"levelo_inurba_marseille","lat":43.31081,"lon":5.38359,"is_reserved":false,"is_disabled":false,"rental_uris":{"android":"levelo://app?vid=cf5971f6-baec-441a-b705-dcff49875a02","ios":"levelo://app?vid=cf5971f6-baec-441a-b705-dcff49875a02"},"vehicle_type_id":"4","last_reported":1730718584,"current_range_meters":33600,"station_id":"ce4bgv92rcd13ifvqcr0","pricing_plan_id":"cebpf4jnsgd1na2vs0mg"},{"bike_id":"31acf9d6-4f8f-4cd3-b26d-c19842d16d03","system_id":"levelo_inurba_marseille","lat":43.30528,"lon":5.36698,"is_reserved":false,"is_disabled":false,"rental_uris":{"android":"levelo://app?vid=31acf9d6-4f8f-4cd3-b26d-c19842d16d03","ios":"levelo://app?vid=31acf9d6-4f8f-4cd3-b26d-c19842d16d03"},"vehicle_type_id":"4","last_reported":1730718584,"current_range_meters":27600,"station_id":"ce4bgrp2rcd13ifvqc9g","pricing_plan_id":"cebpf4jnsgd1na2vs0mg"},{"bike_id":"ba919c33-9011-4847-a466-fe2500753fcf","system_id":"levelo_inurba_marseille","lat":43.29628,"lon":5.40586,"is_reserved":false,"is_disabled":false,"rental_uris":{"android":"levelo://app?vid=ba919c33-9011-4847-a466-fe2500753fcf","ios":"levelo://app?vid=ba919c33-9011-4847-a466-fe2500753fcf"},"vehicle_type_id":"4","last_reported":1730718584,"current_range_meters":38800,"station_id":"ce4bh0h2rcd13ifvqd60","pricing_plan_id":"cebpf4jnsgd1na2vs0mg"},{"bike_id":"c9cbc836-212b-45e1-bc73-5bb9b72afa8b","system_id":"levelo_inurba_marseille","lat":43.30333,"lon":5.40436,"is_reserved":false,"is_disabled":false,"rental_uris":{"android":"levelo://app?vid=c9cbc836-212b-45e1-bc73-5bb9b72afa8b","ios":"levelo://app?vid=c9cbc836-212b-45e1-bc73-5bb9b72afa8b"},"vehicle_type_id":"4","last_reported":1730718584,"current_range_meters":18800,"station_id":"ce4bh012rcd13ifvqd10","pricing_plan_id":"cebpf4jnsgd1na2vs0mg"},{"bike_id":"baea6945-ac3f-4195-a6a4-4b887db0844f","system_id":"levelo_inurba_marseille","lat":43.27071,"lon":5.42274,"is_reserved":false,"is_disabled":false,"rental_uris":{"android":"levelo://app?vid=baea6945-ac3f-4195-a6a4-4b887db0844f","ios":"levelo://app?vid=baea6945-ac3f-4195-a6a4-4b887db0844f"},"vehicle_type_id":"4","last_reported":1730718584,"current_range_meters":39200,"station_id":"ce4bhk92rcd13ifvqgb0","pricing_plan_id":"cebpf4jnsgd1na2vs0mg"},{"bike_id":"2378f453-72a7-4eb2-ab3b-946285d406fd","system_id":"levelo_inurba_marseille","lat":43.292271,"lon":5.377299,"is_reserved":false,"is_disabled":false,"rental_uris":{"android":"levelo://app?vid=2378f453-72a7-4eb2-ab3b-946285d406fd","ios":"levelo://app?vid=2378f453-72a7-4eb2-ab3b-946285d406fd"},"vehicle_type_id":"4","last_reported":1730718584,"current_range_meters":8800,"station_id":"","pricing_plan_id":"cebpf4jnsgd1na2vs0mg"},{"bike_id":"69c5828b-16b5-4e21-9a89-eb78828b437f","system_id":"levelo_inurba_marseille","lat":43.27067,"lon":5.42266,"is_reserved":false,"is_disabled":false,"rental_uris":{"android":"levelo://app?vid=69c5828b-16b5-4e21-9a89-eb78828b437f","ios":"levelo://app?vid=69c5828b-16b5-4e21-9a89-eb78828b437f"},"vehicle_type_id":"4","last_reported":1730718584,"current_range_meters":33600,"station_id":"ce4bhk92rcd13ifvqgb0","pricing_plan_id":"cebpf4jnsgd1na2vs0mg"},{"bike_id":"d4a51c2f-afbf-49fc-a1f8-35b081e19868","system_id":"levelo_inurba_marseille","lat":43.284332,"lon":5.391971,"is_reserved":false,"is_disabled":false,"rental_uris":{"android":"levelo://app?vid=d4a51c2f-afbf-49fc-a1f8-35b081e19868","ios":"levelo://app?vid=d4a51c2f-afbf-49fc-a1f8-35b081e19868"},"vehicle_type_id":"4","last_reported":1730718584,"current_range_meters":9200,"station_id":"ce4bhoh2rcd13ifvqh5g","pricing_plan_id":"cebpf4jnsgd1na2vs0mg"},{"bike_id":"f65a5750-8f48-47e1-a4f3-7a0755ef340d","system_id":"levelo_inurba_marseille","lat":43.33763,"lon":5.37442,"is_reserved":false,"is_disabled":false,"rental_uris":{"android":"levelo://app?vid=f65a5750-8f48-47e1-a4f3-7a0755ef340d","ios":"levelo://app?vid=f65a5750-8f48-47e1-a4f3-7a0755ef340d"},"vehicle_type_id":"4","last_reported":1730718584,"current_range_meters":27200,"station_id":"","pricing_plan_id":"cebpf4jnsgd1na2vs0mg"},{"bike_id":"14792c36-645f-4c2a-b394-bf0eeaac67a9","system_id":"levelo_inurba_marseille","lat":43.24081,"lon":5.37749,"is_reserved":false,"is_disabled":false,"rental_uris":{"android":"levelo://app?vid=14792c36-645f-4c2a-b394-bf0eeaac67a9","ios":"levelo://app?vid=14792c36-645f-4c2a-b394-bf0eeaac67a9"},"vehicle_type_id":"4","last_reported":1730718584,"current_range_meters":25200,"station_id":"ce4bhnp2rcd13ifvqgvg","pricing_plan_id":"cebpf4jnsgd1na2vs0mg"},{"bike_id":"61dbaa79-fb29-4ce6-ad78-01486dfbbfff","system_id":"levelo_inurba_marseille","lat":43.23967,"lon":5.36628,"is_reserved":false,"is_disabled":false,"rental_uris":{"android":"levelo://app?vid=61dbaa79-fb29-4ce6-ad78-01486dfbbfff","ios":"levelo://app?vid=61dbaa79-fb29-4ce6-ad78-01486dfbbfff"},"vehicle_type_id":"4","last_reported":1730718584,"current_range_meters":38800,"station_id":"ce4bhi12rcd13ifvqfp0","pricing_plan_id":"cebpf4jnsgd1na2vs0mg"},{"bike_id":"8d1b79fc-650a-4f5e-aa51-c63e111832ad","system_id":"levelo_inurba_marseille","lat":43.31892,"lon":5.40727,"is_reserved":false,"is_disabled":false,"rental_uris":{"android":"levelo://app?vid=8d1b79fc-650a-4f5e-aa51-c63e111832ad","ios":"levelo://app?vid=8d1b79fc-650a-4f5e-aa51-c63e111832ad"},"vehicle_type_id":"4","last_reported":1730718584,"current_range_meters":32000,"station_id":"ce4bhq12rcd13ifvqhig","pricing_plan_id":"cebpf4jnsgd1na2vs0mg"},{"bike_id":"3bd62d41-958b-4c0c-872c-6a72b57371ab","system_id":"levelo_inurba_marseille","lat":43.24072,"lon":5.37752,"is_reserved":false,"is_disabled":false,"rental_uris":{"android":"levelo://app?vid=3bd62d41-958b-4c0c-872c-6a72b57371ab","ios":"levelo://app?vid=3bd62d41-958b-4c0c-872c-6a72b57371ab"},"vehicle_type_id":"4","last_reported":1730718584,"current_range_meters":25200,"station_id":"ce4bhnp2rcd13ifvqgvg","pricing_plan_id":"cebpf4jnsgd1na2vs0mg"},{"bike_id":"a175c8fa-88cc-4f5f-8525-91adae573ae4","system_id":"levelo_inurba_marseille","lat":43.28716,"lon":5.3794,"is_reserved":false,"is_disabled":false,"rental_uris":{"android":"levelo://app?vid=a175c8fa-88cc-4f5f-8525-91adae573ae4","ios":"levelo://app?vid=a175c8fa-88cc-4f5f-8525-91adae573ae4"},"vehicle_type_id":"4","last_reported":1730718584,"current_range_meters":27200,"station_id":"ce4bh9p2rcd13ifvqec0","pricing_plan_id":"cebpf4jnsgd1na2vs0mg"},{"bike_id":"dbaee213-8369-49f1-935e-faaf8a60f54c","system_id":"levelo_inurba_marseille","lat":43.30519,"lon":5.367,"is_reserved":false,"is_disabled":false,"rental_uris":{"android":"levelo://app?vid=dbaee213-8369-49f1-935e-faaf8a60f54c","ios":"levelo://app?vid=dbaee213-8369-49f1-935e-faaf8a60f54c"},"vehicle_type_id":"4","last_reported":1730718584,"current_range_meters":33200,"station_id":"ce4bgrp2rcd13ifvqc9g","pricing_plan_id":"cebpf4jnsgd1na2vs0mg"},{"bike_id":"5f182c0f-58e8-4d44-8169-760b9016320b","system_id":"levelo_inurba_marseille","lat":43.28153,"lon":5.42643,"is_reserved":false,"is_disabled":false,"rental_uris":{"android":"levelo://app?vid=5f182c0f-58e8-4d44-8169-760b9016320b","ios":"levelo://app?vid=5f182c0f-58e8-4d44-8169-760b9016320b"},"vehicle_type_id":"4","last_reported":1730718584,"current_range_meters":30000,"station_id":"ce4bhnh2rcd13ifvqgug","pricing_plan_id":"cebpf4jnsgd1na2vs0mg"},{"bike_id":"729ed762-2084-40cb-ba5b-e8d2d89903cd","system_id":"levelo_inurba_marseille","lat":43.25931,"lon":5.40909,"is_reserved":false,"is_disabled":false,"rental_uris":{"android":"levelo://app?vid=729ed762-2084-40cb-ba5b-e8d2d89903cd","ios":"levelo://app?vid=729ed762-2084-40cb-ba5b-e8d2d89903cd"},"vehicle_type_id":"4","last_reported":1730718584,"current_range_meters":18000,"station_id":"ce4bhm92rcd13ifvqglg","pricing_plan_id":"cebpf4jnsgd1na2vs0mg"},{"bike_id":"596273b7-bebf-4df1-947c-dfe51cccda25","system_id":"levelo_inurba_marseille","lat":43.29517,"lon":5.37498,"is_reserved":false,"is_disabled":false,"rental_uris":{"android":"levelo://app?vid=596273b7-bebf-4df1-947c-dfe51cccda25","ios":"levelo://app?vid=596273b7-bebf-4df1-947c-dfe51cccda25"},"vehicle_type_id":"4","last_reported":1730718584,"current_range_meters":6000,"station_id":"ce4bgkp2rcd13ifvqbmg","pricing_plan_id":"cebpf4jnsgd1na2vs0mg"},{"bike_id":"1f426912-0a52-4bca-b2ca-60a7d9494c81","system_id":"levelo_inurba_marseille","lat":43.29607,"lon":5.3771,"is_reserved":false,"is_disabled":false,"rental_uris":{"android":"levelo://app?vid=1f426912-0a52-4bca-b2ca-60a7d9494c81","ios":"levelo://app?vid=1f426912-0a52-4bca-b2ca-60a7d9494c81"},"vehicle_type_id":"4","last_reported":1730718584,"current_range_meters":34800,"station_id":"ce4bgi92rcd13ifvqb90","pricing_plan_id":"cebpf4jnsgd1na2vs0mg"},{"bike_id":"cbf9923e-c743-4db3-b744-506c36076ce6","system_id":"levelo_inurba_marseille","lat":43.3122,"lon":5.36859,"is_reserved":false,"is_disabled":false,"rental_uris":{"android":"levelo://app?vid=cbf9923e-c743-4db3-b744-506c36076ce6","ios":"levelo://app?vid=cbf9923e-c743-4db3-b744-506c36076ce6"},"vehicle_type_id":"4","last_reported":1730718584,"current_range_meters":37600,"station_id":"ce4bgl92rcd13ifvqbq0","pricing_plan_id":"cebpf4jnsgd1na2vs0mg"},{"bike_id":"06402548-52f4-49f0-8bea-ced4279aa796","system_id":"levelo_inurba_marseille","lat":43.28567,"lon":5.39505,"is_reserved":false,"is_disabled":false,"rental_uris":{"android":"levelo://app?vid=06402548-52f4-49f0-8bea-ced4279aa796","ios":"levelo://app?vid=06402548-52f4-49f0-8bea-ced4279aa796"},"vehicle_type_id":"4","last_reported":1730718584,"current_range_meters":37600,"station_id":"ce4bh292rcd13ifvqdg0","pricing_plan_id":"cebpf4jnsgd1na2vs0mg"},{"bike_id":"8dacdb03-4cd0-474a-aa66-aaf18857d775","system_id":"levelo_inurba_marseille","lat":43.30608,"lon":5.37225,"is_reserved":false,"is_disabled":false,"rental_uris":{"android":"levelo://app?vid=8dacdb03-4cd0-474a-aa66-aaf18857d775","ios":"levelo://app?vid=8dacdb03-4cd0-474a-aa66-aaf18857d775"},"vehicle_type_id":"4","last_reported":1730718584,"current_range_meters":38800,"station_id":"ce4bgqh2rcd13ifvqc4g","pricing_plan_id":"cebpf4jnsgd1na2vs0mg"},{"bike_id":"940d47f0-7f63-4a27-bdf6-d3a4b771f7fe","system_id":"levelo_inurba_marseille","lat":43.261993,"lon":5.374461,"is_reserved":false,"is_disabled":false,"rental_uris":{"android":"levelo://app?vid=940d47f0-7f63-4a27-bdf6-d3a4b771f7fe","ios":"levelo://app?vid=940d47f0-7f63-4a27-bdf6-d3a4b771f7fe"},"vehicle_type_id":"4","last_reported":1730718584,"current_range_meters":9200,"station_id":"ce4bhoh2rcd13ifvqh5g","pricing_plan_id":"cebpf4jnsgd1na2vs0mg"},{"bike_id":"55a197c9-26fa-4844-9251-0106f54fc153","system_id":"levelo_inurba_marseille","lat":43.31169,"lon":5.38725,"is_reserved":false,"is_disabled":false,"rental_uris":{"android":"levelo://app?vid=55a197c9-26fa-4844-9251-0106f54fc153","ios":"levelo://app?vid=55a197c9-26fa-4844-9251-0106f54fc153"},"vehicle_type_id":"4","last_reported":1730718584,"current_range_meters":30800,"station_id":"ce4bgv12rcd13ifvqcp0","pricing_plan_id":"cebpf4jnsgd1na2vs0mg"},{"bike_id":"bfb4e9f1-502b-4eee-ad84-0c905afe5629","system_id":"levelo_inurba_marseille","lat":43.32477,"lon":5.36579,"is_reserved":false,"is_disabled":false,"rental_uris":{"android":"levelo://app?vid=bfb4e9f1-502b-4eee-ad84-0c905afe5629","ios":"levelo://app?vid=bfb4e9f1-502b-4eee-ad84-0c905afe5629"},"vehicle_type_id":"4","last_reported":1730718584,"current_range_meters":29600,"station_id":"ce4bhs12rcd13ifvqhvg","pricing_plan_id":"cebpf4jnsgd1na2vs0mg"},{"bike_id":"7fa9e0db-d5db-4e00-9bab-71088473e9a3","system_id":"levelo_inurba_marseille","lat":43.28344,"lon":5.38097,"is_reserved":false,"is_disabled":false,"rental_uris":{"android":"levelo://app?vid=7fa9e0db-d5db-4e00-9bab-71088473e9a3","ios":"levelo://app?vid=7fa9e0db-d5db-4e00-9bab-71088473e9a3"},"vehicle_type_id":"4","last_reported":1730718584,"current_range_meters":30000,"station_id":"ce4bh412rcd13ifvqdr0","pricing_plan_id":"cebpf4jnsgd1na2vs0mg"},{"bike_id":"fcda431b-00f7-4fd8-bb18-897981fe927f","system_id":"levelo_inurba_marseille","lat":43.26679,"lon":5.38263,"is_reserved":false,"is_disabled":false,"rental_uris":{"android":"levelo://app?vid=fcda431b-00f7-4fd8-bb18-897981fe927f","ios":"levelo://app?vid=fcda431b-00f7-4fd8-bb18-897981fe927f"},"vehicle_type_id":"4","last_reported":1730718584,"current_range_meters":37600,"station_id":"ce4bhg92rcd13ifvqf90","pricing_plan_id":"cebpf4jnsgd1na2vs0mg"},{"bike_id":"ad7bb280-2dcb-4e3b-b0b2-4133644b0a49","system_id":"levelo_inurba_marseille","lat":43.27188,"lon":5.3915,"is_reserved":false,"is_disabled":false,"rental_uris":{"android":"levelo://app?vid=ad7bb280-2dcb-4e3b-b0b2-4133644b0a49","ios":"levelo://app?vid=ad7bb280-2dcb-4e3b-b0b2-4133644b0a49"},"vehicle_type_id":"4","last_reported":1730718584,"current_range_meters":37600,"station_id":"ce4bhhp2rcd13ifvqfm0","pricing_plan_id":"cebpf4jnsgd1na2vs0mg"},{"bike_id":"2b4d77df-7f2c-4ae7-b06d-0be0cd1df6d2","system_id":"levelo_inurba_marseille","lat":43.337444,"lon":5.374475,"is_reserved":false,"is_disabled":false,"rental_uris":{"android":"levelo://app?vid=2b4d77df-7f2c-4ae7-b06d-0be0cd1df6d2","ios":"levelo://app?vid=2b4d77df-7f2c-4ae7-b06d-0be0cd1df6d2"},"vehicle_type_id":"4","last_reported":1730718584,"current_range_meters":34000,"station_id":"ce4bho92rcd13ifvqh4g","pricing_plan_id":"cebpf4jnsgd1na2vs0mg"},{"bike_id":"a1db94ed-a22d-4026-9839-437c4b77e46b","system_id":"levelo_inurba_marseille","lat":43.31236,"lon":5.36869,"is_reserved":false,"is_disabled":false,"rental_uris":{"android":"levelo://app?vid=a1db94ed-a22d-4026-9839-437c4b77e46b","ios":"levelo://app?vid=a1db94ed-a22d-4026-9839-437c4b77e46b"},"vehicle_type_id":"4","last_reported":1730718584,"current_range_meters":35600,"station_id":"ce4bgl92rcd13ifvqbq0","pricing_plan_id":"cebpf4jnsgd1na2vs0mg"},{"bike_id":"1af71894-38c1-414e-83c3-2e2ef7ecd444","system_id":"levelo_inurba_marseille","lat":43.29541,"lon":5.39391,"is_reserved":false,"is_disabled":false,"rental_uris":{"android":"levelo://app?vid=1af71894-38c1-414e-83c3-2e2ef7ecd444","ios":"levelo://app?vid=1af71894-38c1-414e-83c3-2e2ef7ecd444"},"vehicle_type_id":"4","last_reported":1730718584,"current_range_meters":2000,"station_id":"ce4bh292rcd13ifvqdf0","pricing_plan_id":"cebpf4jnsgd1na2vs0mg"},{"bike_id":"68e6e4ba-53d1-4494-b1e0-e4bd8e29fea2","system_id":"levelo_inurba_marseille","lat":43.23153,"lon":5.4371,"is_reserved":false,"is_disabled":false,"rental_uris":{"android":"levelo://app?vid=68e6e4ba-53d1-4494-b1e0-e4bd8e29fea2","ios":"levelo://app?vid=68e6e4ba-53d1-4494-b1e0-e4bd8e29fea2"},"vehicle_type_id":"4","last_reported":1730718584,"current_range_meters":37600,"station_id":"ce4bhmp2rcd13ifvqgog","pricing_plan_id":"cebpf4jnsgd1na2vs0mg"},{"bike_id":"7ce77be2-28e6-467f-9494-16f057502bba","system_id":"levelo_inurba_marseille","lat":43.28153,"lon":5.42632,"is_reserved":false,"is_disabled":false,"rental_uris":{"android":"levelo://app?vid=7ce77be2-28e6-467f-9494-16f057502bba","ios":"levelo://app?vid=7ce77be2-28e6-467f-9494-16f057502bba"},"vehicle_type_id":"4","last_reported":1730718584,"current_range_meters":29600,"station_id":"ce4bhnh2rcd13ifvqgug","pricing_plan_id":"cebpf4jnsgd1na2vs0mg"},{"bike_id":"c5e9826f-17e5-4b49-a75c-a2439139d822","system_id":"levelo_inurba_marseille","lat":43.30156,"lon":5.38085,"is_reserved":false,"is_disabled":false,"rental_uris":{"android":"levelo://app?vid=c5e9826f-17e5-4b49-a75c-a2439139d822","ios":"levelo://app?vid=c5e9826f-17e5-4b49-a75c-a2439139d822"},"vehicle_type_id":"4","last_reported":1730718584,"current_range_meters":26000,"station_id":"ce4bgjp2rcd13ifvqbh0","pricing_plan_id":"cebpf4jnsgd1na2vs0mg"},{"bike_id":"75962bff-763a-4f2c-a411-2c4dbf0c08c7","system_id":"levelo_inurba_marseille","lat":43.25864,"lon":5.39898,"is_reserved":false,"is_disabled":false,"rental_uris":{"android":"levelo://app?vid=75962bff-763a-4f2c-a411-2c4dbf0c08c7","ios":"levelo://app?vid=75962bff-763a-4f2c-a411-2c4dbf0c08c7"},"vehicle_type_id":"4","last_reported":1730718584,"current_range_meters":5600,"station_id":"ce4bhl92rcd13ifvqghg","pricing_plan_id":"cebpf4jnsgd1na2vs0mg"},{"bike_id":"a9f99b00-a042-4565-abbc-db4b7d345f00","system_id":"levelo_inurba_marseille","lat":43.29967,"lon":5.38495,"is_reserved":false,"is_disabled":false,"rental_uris":{"android":"levelo://app?vid=a9f99b00-a042-4565-abbc-db4b7d345f00","ios":"levelo://app?vid=a9f99b00-a042-4565-abbc-db4b7d345f00"},"vehicle_type_id":"4","last_reported":1730718584,"current_range_meters":12000,"station_id":"ce4bgj92rcd13ifvqbd0","pricing_plan_id":"cebpf4jnsgd1na2vs0mg"},{"bike_id":"93c2f45f-e135-4a64-aac0-86e2cae5ae15","system_id":"levelo_inurba_marseille","lat":43.28716,"lon":5.37937,"is_reserved":false,"is_disabled":false,"rental_uris":{"android":"levelo://app?vid=93c2f45f-e135-4a64-aac0-86e2cae5ae15","ios":"levelo://app?vid=93c2f45f-e135-4a64-aac0-86e2cae5ae15"},"vehicle_type_id":"4","last_reported":1730718584,"current_range_meters":32400,"station_id":"ce4bh9p2rcd13ifvqec0","pricing_plan_id":"cebpf4jnsgd1na2vs0mg"},{"bike_id":"496d1592-f444-4219-9dc2-55373938e639","system_id":"levelo_inurba_marseille","lat":43.28156,"lon":5.42634,"is_reserved":false,"is_disabled":false,"rental_uris":{"android":"levelo://app?vid=496d1592-f444-4219-9dc2-55373938e639","ios":"levelo://app?vid=496d1592-f444-4219-9dc2-55373938e639"},"vehicle_type_id":"4","last_reported":1730718584,"current_range_meters":35600,"station_id":"ce4bhnh2rcd13ifvqgug","pricing_plan_id":"cebpf4jnsgd1na2vs0mg"},{"bike_id":"a00d593c-4c7a-4d12-adbe-01c899ca408a","system_id":"levelo_inurba_marseille","lat":43.27903,"lon":5.38002,"is_reserved":false,"is_disabled":false,"rental_uris":{"android":"levelo://app?vid=a00d593c-4c7a-4d12-adbe-01c899ca408a","ios":"levelo://app?vid=a00d593c-4c7a-4d12-adbe-01c899ca408a"},"vehicle_type_id":"4","last_reported":1730718584,"current_range_meters":38000,"station_id":"ce4bhf92rcd13ifvqf50","pricing_plan_id":"cebpf4jnsgd1na2vs0mg"},{"bike_id":"9dc3374b-0b85-4a8b-88a8-db8ad8f687c8","system_id":"levelo_inurba_marseille","lat":43.24075,"lon":5.3774,"is_reserved":false,"is_disabled":false,"rental_uris":{"android":"levelo://app?vid=9dc3374b-0b85-4a8b-88a8-db8ad8f687c8","ios":"levelo://app?vid=9dc3374b-0b85-4a8b-88a8-db8ad8f687c8"},"vehicle_type_id":"4","last_reported":1730718584,"current_range_meters":12000,"station_id":"ce4bhnp2rcd13ifvqgvg","pricing_plan_id":"cebpf4jnsgd1na2vs0mg"},{"bike_id":"5d36cb80-4b87-4f80-b274-0486cd5f7bf1","system_id":"levelo_inurba_marseille","lat":43.23153,"lon":5.43723,"is_reserved":false,"is_disabled":false,"rental_uris":{"android":"levelo://app?vid=5d36cb80-4b87-4f80-b274-0486cd5f7bf1","ios":"levelo://app?vid=5d36cb80-4b87-4f80-b274-0486cd5f7bf1"},"vehicle_type_id":"4","last_reported":1730718584,"current_range_meters":38800,"station_id":"ce4bhmp2rcd13ifvqgog","pricing_plan_id":"cebpf4jnsgd1na2vs0mg"},{"bike_id":"c6e847b9-0da7-4220-baaf-b696661d2f92","system_id":"levelo_inurba_marseille","lat":43.30152,"lon":5.37427,"is_reserved":false,"is_disabled":false,"rental_uris":{"android":"levelo://app?vid=c6e847b9-0da7-4220-baaf-b696661d2f92","ios":"levelo://app?vid=c6e847b9-0da7-4220-baaf-b696661d2f92"},"vehicle_type_id":"4","last_reported":1730718584,"current_range_meters":22800,"station_id":"ce4bgs92rcd13ifvqcc0","pricing_plan_id":"cebpf4jnsgd1na2vs0mg"},{"bike_id":"641f6c86-cb12-4318-bde4-1c8be0f10334","system_id":"levelo_inurba_marseille","lat":43.30601,"lon":5.37207,"is_reserved":false,"is_disabled":false,"rental_uris":{"android":"levelo://app?vid=641f6c86-cb12-4318-bde4-1c8be0f10334","ios":"levelo://app?vid=641f6c86-cb12-4318-bde4-1c8be0f10334"},"vehicle_type_id":"4","last_reported":1730718584,"current_range_meters":17600,"station_id":"ce4bgqh2rcd13ifvqc4g","pricing_plan_id":"cebpf4jnsgd1na2vs0mg"},{"bike_id":"1ea6064a-936b-4f40-bcff-f1ce4e9f5f23","system_id":"levelo_inurba_marseille","lat":43.286102,"lon":5.351053,"is_reserved":false,"is_disabled":false,"rental_uris":{"android":"levelo://app?vid=1ea6064a-936b-4f40-bcff-f1ce4e9f5f23","ios":"levelo://app?vid=1ea6064a-936b-4f40-bcff-f1ce4e9f5f23"},"vehicle_type_id":"4","last_reported":1730718584,"current_range_meters":32000,"station_id":"ce4bhch2rcd13ifvqeug","pricing_plan_id":"cebpf4jnsgd1na2vs0mg"},{"bike_id":"945ca102-b8cc-4205-be86-f6cba876d454","system_id":"levelo_inurba_marseille","lat":43.28943,"lon":5.3963,"is_reserved":false,"is_disabled":false,"rental_uris":{"android":"levelo://app?vid=945ca102-b8cc-4205-be86-f6cba876d454","ios":"levelo://app?vid=945ca102-b8cc-4205-be86-f6cba876d454"},"vehicle_type_id":"4","last_reported":1730718584,"current_range_meters":38800,"station_id":"ce4bh3h2rcd13ifvqdn0","pricing_plan_id":"cebpf4jnsgd1na2vs0mg"},{"bike_id":"29bf0c30-a409-4980-a9b2-61fa002bb48f","system_id":"levelo_inurba_marseille","lat":43.29279,"lon":5.36839,"is_reserved":false,"is_disabled":false,"rental_uris":{"android":"levelo://app?vid=29bf0c30-a409-4980-a9b2-61fa002bb48f","ios":"levelo://app?vid=29bf0c30-a409-4980-a9b2-61fa002bb48f"},"vehicle_type_id":"4","last_reported":1730718584,"current_range_meters":24800,"station_id":"ce4bhbp2rcd13ifvqesg","pricing_plan_id":"cebpf4jnsgd1na2vs0mg"},{"bike_id":"edd6181d-02cf-49c3-8386-d50835f0a5d1","system_id":"levelo_inurba_marseille","lat":43.29723,"lon":5.3769,"is_reserved":false,"is_disabled":false,"rental_uris":{"android":"levelo://app?vid=edd6181d-02cf-49c3-8386-d50835f0a5d1","ios":"levelo://app?vid=edd6181d-02cf-49c3-8386-d50835f0a5d1"},"vehicle_type_id":"4","last_reported":1730718584,"current_range_meters":33200,"station_id":"ce4bgkh2rcd13ifvqbl0","pricing_plan_id":"cebpf4jnsgd1na2vs0mg"},{"bike_id":"33f2f290-eaf4-4074-b58e-03c659678ecc","system_id":"levelo_inurba_marseille","lat":43.31084,"lon":5.42428,"is_reserved":false,"is_disabled":false,"rental_uris":{"android":"levelo://app?vid=33f2f290-eaf4-4074-b58e-03c659678ecc","ios":"levelo://app?vid=33f2f290-eaf4-4074-b58e-03c659678ecc"},"vehicle_type_id":"4","last_reported":1730718584,"current_range_meters":38000,"station_id":"ce4bhp92rcd13ifvqhag","pricing_plan_id":"cebpf4jnsgd1na2vs0mg"},{"bike_id":"85b2de4d-e034-4ae1-b121-bf77192b9d1b","system_id":"levelo_inurba_marseille","lat":43.2904,"lon":5.39966,"is_reserved":false,"is_disabled":false,"rental_uris":{"android":"levelo://app?vid=85b2de4d-e034-4ae1-b121-bf77192b9d1b","ios":"levelo://app?vid=85b2de4d-e034-4ae1-b121-bf77192b9d1b"},"vehicle_type_id":"4","last_reported":1730718584,"current_range_meters":35600,"station_id":"ce4bh392rcd13ifvqdm0","pricing_plan_id":"cebpf4jnsgd1na2vs0mg"},{"bike_id":"3a38eb60-07fa-498b-8680-f7a2deecf1cc","system_id":"levelo_inurba_marseille","lat":43.27173,"lon":5.40987,"is_reserved":false,"is_disabled":false,"rental_uris":{"android":"levelo://app?vid=3a38eb60-07fa-498b-8680-f7a2deecf1cc","ios":"levelo://app?vid=3a38eb60-07fa-498b-8680-f7a2deecf1cc"},"vehicle_type_id":"4","last_reported":1730718584,"current_range_meters":28400,"station_id":"ce4bhl12rcd13ifvqgf0","pricing_plan_id":"cebpf4jnsgd1na2vs0mg"},{"bike_id":"d4472d20-9c4b-4c70-ad00-3a005519a429","system_id":"levelo_inurba_marseille","lat":43.35385,"lon":5.35726,"is_reserved":false,"is_disabled":false,"rental_uris":{"android":"levelo://app?vid=d4472d20-9c4b-4c70-ad00-3a005519a429","ios":"levelo://app?vid=d4472d20-9c4b-4c70-ad00-3a005519a429"},"vehicle_type_id":"4","last_reported":1730718584,"current_range_meters":9600,"station_id":"","pricing_plan_id":"cebpf4jnsgd1na2vs0mg"},{"bike_id":"4bd01789-c771-47ac-86c8-73b3d5706e40","system_id":"levelo_inurba_marseille","lat":43.25927,"lon":5.40905,"is_reserved":false,"is_disabled":false,"rental_uris":{"android":"levelo://app?vid=4bd01789-c771-47ac-86c8-73b3d5706e40","ios":"levelo://app?vid=4bd01789-c771-47ac-86c8-73b3d5706e40"},"vehicle_type_id":"4","last_reported":1730718584,"current_range_meters":32800,"station_id":"ce4bhm92rcd13ifvqglg","pricing_plan_id":"cebpf4jnsgd1na2vs0mg"},{"bike_id":"e969c81a-4103-4ab3-bf99-e6fda438997d","system_id":"levelo_inurba_marseille","lat":43.3108,"lon":5.38355,"is_reserved":false,"is_disabled":false,"rental_uris":{"android":"levelo://app?vid=e969c81a-4103-4ab3-bf99-e6fda438997d","ios":"levelo://app?vid=e969c81a-4103-4ab3-bf99-e6fda438997d"},"vehicle_type_id":"4","last_reported":1730718584,"current_range_meters":37600,"station_id":"ce4bgv92rcd13ifvqcr0","pricing_plan_id":"cebpf4jnsgd1na2vs0mg"},{"bike_id":"c09a7329-74d9-48dd-a3d8-26a52258e13f","system_id":"levelo_inurba_marseille","lat":43.23151,"lon":5.43714,"is_reserved":false,"is_disabled":false,"rental_uris":{"android":"levelo://app?vid=c09a7329-74d9-48dd-a3d8-26a52258e13f","ios":"levelo://app?vid=c09a7329-74d9-48dd-a3d8-26a52258e13f"},"vehicle_type_id":"4","last_reported":1730718584,"current_range_meters":8000,"station_id":"ce4bhmp2rcd13ifvqgog","pricing_plan_id":"cebpf4jnsgd1na2vs0mg"},{"bike_id":"255a3061-1362-41f1-8c13-ee9fca9da59e","system_id":"levelo_inurba_marseille","lat":43.23059,"lon":5.35495,"is_reserved":false,"is_disabled":false,"rental_uris":{"android":"levelo://app?vid=255a3061-1362-41f1-8c13-ee9fca9da59e","ios":"levelo://app?vid=255a3061-1362-41f1-8c13-ee9fca9da59e"},"vehicle_type_id":"4","last_reported":1730718584,"current_range_meters":26000,"station_id":"cpo3342slgdg3j2ifvpg","pricing_plan_id":"cebpf4jnsgd1na2vs0mg"},{"bike_id":"0f8f14ee-1866-47bb-b28d-ae58cb8d7404","system_id":"levelo_inurba_marseille","lat":43.31229,"lon":5.36854,"is_reserved":false,"is_disabled":false,"rental_uris":{"android":"levelo://app?vid=0f8f14ee-1866-47bb-b28d-ae58cb8d7404","ios":"levelo://app?vid=0f8f14ee-1866-47bb-b28d-ae58cb8d7404"},"vehicle_type_id":"4","last_reported":1730718584,"current_range_meters":28000,"station_id":"ce4bgl92rcd13ifvqbq0","pricing_plan_id":"cebpf4jnsgd1na2vs0mg"},{"bike_id":"696cf5c3-d0bd-4b06-9489-1076b81fc0ed","system_id":"levelo_inurba_marseille","lat":43.2904,"lon":5.37568,"is_reserved":false,"is_disabled":false,"rental_uris":{"android":"levelo://app?vid=696cf5c3-d0bd-4b06-9489-1076b81fc0ed","ios":"levelo://app?vid=696cf5c3-d0bd-4b06-9489-1076b81fc0ed"},"vehicle_type_id":"4","last_reported":1730718584,"current_range_meters":37600,"station_id":"ce4bh692rcd13ifvqe90","pricing_plan_id":"cebpf4jnsgd1na2vs0mg"},{"bike_id":"8692c708-6749-4cff-a161-ad26fb2f62aa","system_id":"levelo_inurba_marseille","lat":43.30613,"lon":5.37216,"is_reserved":false,"is_disabled":false,"rental_uris":{"android":"levelo://app?vid=8692c708-6749-4cff-a161-ad26fb2f62aa","ios":"levelo://app?vid=8692c708-6749-4cff-a161-ad26fb2f62aa"},"vehicle_type_id":"4","last_reported":1730718584,"current_range_meters":38800,"station_id":"ce4bgqh2rcd13ifvqc4g","pricing_plan_id":"cebpf4jnsgd1na2vs0mg"},{"bike_id":"7f368203-ffdd-4fc5-9e6e-39282529f201","system_id":"levelo_inurba_marseille","lat":43.28615,"lon":5.351,"is_reserved":false,"is_disabled":false,"rental_uris":{"android":"levelo://app?vid=7f368203-ffdd-4fc5-9e6e-39282529f201","ios":"levelo://app?vid=7f368203-ffdd-4fc5-9e6e-39282529f201"},"vehicle_type_id":"4","last_reported":1730718584,"current_range_meters":28800,"station_id":"ce4bhch2rcd13ifvqeug","pricing_plan_id":"cebpf4jnsgd1na2vs0mg"},{"bike_id":"b14cb5d2-a3a0-4560-ac96-25061beacbf8","system_id":"levelo_inurba_marseille","lat":43.26032,"lon":5.37545,"is_reserved":false,"is_disabled":false,"rental_uris":{"android":"levelo://app?vid=b14cb5d2-a3a0-4560-ac96-25061beacbf8","ios":"levelo://app?vid=b14cb5d2-a3a0-4560-ac96-25061beacbf8"},"vehicle_type_id":"4","last_reported":1730718584,"current_range_meters":21600,"station_id":"ce4bhgh2rcd13ifvqfa0","pricing_plan_id":"cebpf4jnsgd1na2vs0mg"},{"bike_id":"eeb5af3d-79f9-45ed-95f9-f60e99a90a19","system_id":"levelo_inurba_marseille","lat":43.23152,"lon":5.43721,"is_reserved":false,"is_disabled":false,"rental_uris":{"android":"levelo://app?vid=eeb5af3d-79f9-45ed-95f9-f60e99a90a19","ios":"levelo://app?vid=eeb5af3d-79f9-45ed-95f9-f60e99a90a19"},"vehicle_type_id":"4","last_reported":1730718584,"current_range_meters":20400,"station_id":"ce4bhmp2rcd13ifvqgog","pricing_plan_id":"cebpf4jnsgd1na2vs0mg"},{"bike_id":"4fe43525-1285-4aba-9ae8-f2d36b5e2147","system_id":"levelo_inurba_marseille","lat":43.2796,"lon":5.38711,"is_reserved":false,"is_disabled":false,"rental_uris":{"android":"levelo://app?vid=4fe43525-1285-4aba-9ae8-f2d36b5e2147","ios":"levelo://app?vid=4fe43525-1285-4aba-9ae8-f2d36b5e2147"},"vehicle_type_id":"4","last_reported":1730718584,"current_range_meters":32800,"station_id":"ce4bhg12rcd13ifvqf80","pricing_plan_id":"cebpf4jnsgd1na2vs0mg"},{"bike_id":"128c6138-7b8f-41fb-8846-b155b9e9fc62","system_id":"levelo_inurba_marseille","lat":43.30955,"lon":5.39038,"is_reserved":false,"is_disabled":false,"rental_uris":{"android":"levelo://app?vid=128c6138-7b8f-41fb-8846-b155b9e9fc62","ios":"levelo://app?vid=128c6138-7b8f-41fb-8846-b155b9e9fc62"},"vehicle_type_id":"4","last_reported":1730718584,"current_range_meters":39200,"station_id":"ce4bgup2rcd13ifvqco0","pricing_plan_id":"cebpf4jnsgd1na2vs0mg"},{"bike_id":"40733afb-19be-48a8-9714-ec11f089b48a","system_id":"levelo_inurba_marseille","lat":43.28615,"lon":5.37059,"is_reserved":false,"is_disabled":false,"rental_uris":{"android":"levelo://app?vid=40733afb-19be-48a8-9714-ec11f089b48a","ios":"levelo://app?vid=40733afb-19be-48a8-9714-ec11f089b48a"},"vehicle_type_id":"4","last_reported":1730718584,"current_range_meters":38800,"station_id":"ce4bht12rcd13ifvqi60","pricing_plan_id":"cebpf4jnsgd1na2vs0mg"},{"bike_id":"94c8aa08-abc9-45cb-b45a-ab6494a06b08","system_id":"levelo_inurba_marseille","lat":43.30552,"lon":5.36533,"is_reserved":false,"is_disabled":false,"rental_uris":{"android":"levelo://app?vid=94c8aa08-abc9-45cb-b45a-ab6494a06b08","ios":"levelo://app?vid=94c8aa08-abc9-45cb-b45a-ab6494a06b08"},"vehicle_type_id":"4","last_reported":1730718584,"current_range_meters":38000,"station_id":"ce4bgs12rcd13ifvqcag","pricing_plan_id":"cebpf4jnsgd1na2vs0mg"},{"bike_id":"047c2de7-07cc-42b9-a607-ec4d58ef9aa4","system_id":"levelo_inurba_marseille","lat":43.28321,"lon":5.40585,"is_reserved":false,"is_disabled":false,"rental_uris":{"android":"levelo://app?vid=047c2de7-07cc-42b9-a607-ec4d58ef9aa4","ios":"levelo://app?vid=047c2de7-07cc-42b9-a607-ec4d58ef9aa4"},"vehicle_type_id":"4","last_reported":1730718584,"current_range_meters":6800,"station_id":"","pricing_plan_id":"cebpf4jnsgd1na2vs0mg"},{"bike_id":"99fc1322-3228-43a5-ba51-b868a2694937","system_id":"levelo_inurba_marseille","lat":43.29274,"lon":5.36841,"is_reserved":false,"is_disabled":false,"rental_uris":{"android":"levelo://app?vid=99fc1322-3228-43a5-ba51-b868a2694937","ios":"levelo://app?vid=99fc1322-3228-43a5-ba51-b868a2694937"},"vehicle_type_id":"4","last_reported":1730718584,"current_range_meters":7200,"station_id":"ce4bhbp2rcd13ifvqesg","pricing_plan_id":"cebpf4jnsgd1na2vs0mg"},{"bike_id":"1db175d3-3ea2-4883-b679-33db78b42664","system_id":"levelo_inurba_marseille","lat":43.27063,"lon":5.40258,"is_reserved":false,"is_disabled":false,"rental_uris":{"android":"levelo://app?vid=1db175d3-3ea2-4883-b679-33db78b42664","ios":"levelo://app?vid=1db175d3-3ea2-4883-b679-33db78b42664"},"vehicle_type_id":"4","last_reported":1730718584,"current_range_meters":30800,"station_id":"ce4bhk92rcd13ifvqgc0","pricing_plan_id":"cebpf4jnsgd1na2vs0mg"},{"bike_id":"c684f12b-d6d7-4512-a8d3-455052e1687e","system_id":"levelo_inurba_marseille","lat":43.30147,"lon":5.39845,"is_reserved":false,"is_disabled":false,"rental_uris":{"android":"levelo://app?vid=c684f12b-d6d7-4512-a8d3-455052e1687e","ios":"levelo://app?vid=c684f12b-d6d7-4512-a8d3-455052e1687e"},"vehicle_type_id":"4","last_reported":1730718584,"current_range_meters":16000,"station_id":"ce4bh0h2rcd13ifvqd40","pricing_plan_id":"cebpf4jnsgd1na2vs0mg"},{"bike_id":"a0c6e703-fdf2-4bac-8280-58cd2141469a","system_id":"levelo_inurba_marseille","lat":43.28941,"lon":5.39624,"is_reserved":false,"is_disabled":false,"rental_uris":{"android":"levelo://app?vid=a0c6e703-fdf2-4bac-8280-58cd2141469a","ios":"levelo://app?vid=a0c6e703-fdf2-4bac-8280-58cd2141469a"},"vehicle_type_id":"4","last_reported":1730718584,"current_range_meters":36800,"station_id":"ce4bh3h2rcd13ifvqdn0","pricing_plan_id":"cebpf4jnsgd1na2vs0mg"},{"bike_id":"bc81bfcf-5b35-44fa-a82f-7183fc697028","system_id":"levelo_inurba_marseille","lat":43.24662,"lon":5.38159,"is_reserved":false,"is_disabled":false,"rental_uris":{"android":"levelo://app?vid=bc81bfcf-5b35-44fa-a82f-7183fc697028","ios":"levelo://app?vid=bc81bfcf-5b35-44fa-a82f-7183fc697028"},"vehicle_type_id":"4","last_reported":1730718584,"current_range_meters":34800,"station_id":"ce4bhih2rcd13ifvqfr0","pricing_plan_id":"cebpf4jnsgd1na2vs0mg"},{"bike_id":"01bb7afb-09ed-44b8-977e-519fdfd82da2","system_id":"levelo_inurba_marseille","lat":43.29918,"lon":5.37467,"is_reserved":false,"is_disabled":false,"rental_uris":{"android":"levelo://app?vid=01bb7afb-09ed-44b8-977e-519fdfd82da2","ios":"levelo://app?vid=01bb7afb-09ed-44b8-977e-519fdfd82da2"},"vehicle_type_id":"4","last_reported":1730718584,"current_range_meters":38400,"station_id":"ce4bgjh2rcd13ifvqbg0","pricing_plan_id":"cebpf4jnsgd1na2vs0mg"},{"bike_id":"cfceb85a-8c7b-4241-b2ee-fb768a9758e3","system_id":"levelo_inurba_marseille","lat":43.27993,"lon":5.41659,"is_reserved":false,"is_disabled":false,"rental_uris":{"android":"levelo://app?vid=cfceb85a-8c7b-4241-b2ee-fb768a9758e3","ios":"levelo://app?vid=cfceb85a-8c7b-4241-b2ee-fb768a9758e3"},"vehicle_type_id":"4","last_reported":1730718584,"current_range_meters":36800,"station_id":"ce4bho12rcd13ifvqh1g","pricing_plan_id":"cebpf4jnsgd1na2vs0mg"},{"bike_id":"6d69a81a-5a8e-4b1d-9ffe-a94c5028de04","system_id":"levelo_inurba_marseille","lat":43.28722,"lon":5.37947,"is_reserved":false,"is_disabled":false,"rental_uris":{"android":"levelo://app?vid=6d69a81a-5a8e-4b1d-9ffe-a94c5028de04","ios":"levelo://app?vid=6d69a81a-5a8e-4b1d-9ffe-a94c5028de04"},"vehicle_type_id":"4","last_reported":1730718584,"current_range_meters":35200,"station_id":"ce4bh9p2rcd13ifvqec0","pricing_plan_id":"cebpf4jnsgd1na2vs0mg"},{"bike_id":"7aad5d6f-422f-478a-abc6-e20286c98efd","system_id":"levelo_inurba_marseille","lat":43.29588,"lon":5.37521,"is_reserved":false,"is_disabled":false,"rental_uris":{"android":"levelo://app?vid=7aad5d6f-422f-478a-abc6-e20286c98efd","ios":"levelo://app?vid=7aad5d6f-422f-478a-abc6-e20286c98efd"},"vehicle_type_id":"4","last_reported":1730718584,"current_range_meters":30000,"station_id":"ce4bgh92rcd13ifvqb50","pricing_plan_id":"cebpf4jnsgd1na2vs0mg"},{"bike_id":"cd86f92a-fd94-4e83-987d-8a818fb1366a","system_id":"levelo_inurba_marseille","lat":43.29419,"lon":5.38619,"is_reserved":false,"is_disabled":false,"rental_uris":{"android":"levelo://app?vid=cd86f92a-fd94-4e83-987d-8a818fb1366a","ios":"levelo://app?vid=cd86f92a-fd94-4e83-987d-8a818fb1366a"},"vehicle_type_id":"4","last_reported":1730718584,"current_range_meters":30000,"station_id":"ce4bh2h2rcd13ifvqdh0","pricing_plan_id":"cebpf4jnsgd1na2vs0mg"},{"bike_id":"a1637a4b-5969-42e5-b096-5a17078386cb","system_id":"levelo_inurba_marseille","lat":43.30601,"lon":5.37219,"is_reserved":false,"is_disabled":false,"rental_uris":{"android":"levelo://app?vid=a1637a4b-5969-42e5-b096-5a17078386cb","ios":"levelo://app?vid=a1637a4b-5969-42e5-b096-5a17078386cb"},"vehicle_type_id":"4","last_reported":1730718584,"current_range_meters":10800,"station_id":"ce4bgqh2rcd13ifvqc4g","pricing_plan_id":"cebpf4jnsgd1na2vs0mg"},{"bike_id":"0fb3a1bf-8d60-4830-a342-91a11563480e","system_id":"levelo_inurba_marseille","lat":43.33614,"lon":5.41027,"is_reserved":false,"is_disabled":false,"rental_uris":{"android":"levelo://app?vid=0fb3a1bf-8d60-4830-a342-91a11563480e","ios":"levelo://app?vid=0fb3a1bf-8d60-4830-a342-91a11563480e"},"vehicle_type_id":"4","last_reported":1730718584,"current_range_meters":12800,"station_id":"ce4bhqh2rcd13ifvqhmg","pricing_plan_id":"cebpf4jnsgd1na2vs0mg"},{"bike_id":"5908bc81-a7f9-48ff-a0cb-2e9155342915","system_id":"levelo_inurba_marseille","lat":43.31067,"lon":5.38345,"is_reserved":false,"is_disabled":false,"rental_uris":{"android":"levelo://app?vid=5908bc81-a7f9-48ff-a0cb-2e9155342915","ios":"levelo://app?vid=5908bc81-a7f9-48ff-a0cb-2e9155342915"},"vehicle_type_id":"4","last_reported":1730718584,"current_range_meters":24400,"station_id":"ce4bgv92rcd13ifvqcr0","pricing_plan_id":"cebpf4jnsgd1na2vs0mg"},{"bike_id":"4adb7e65-e18e-4ef1-be00-3ea3c7f6dd44","system_id":"levelo_inurba_marseille","lat":43.24076,"lon":5.37732,"is_reserved":false,"is_disabled":false,"rental_uris":{"android":"levelo://app?vid=4adb7e65-e18e-4ef1-be00-3ea3c7f6dd44","ios":"levelo://app?vid=4adb7e65-e18e-4ef1-be00-3ea3c7f6dd44"},"vehicle_type_id":"4","last_reported":1730718584,"current_range_meters":27600,"station_id":"ce4bhnp2rcd13ifvqgvg","pricing_plan_id":"cebpf4jnsgd1na2vs0mg"},{"bike_id":"ee3dccf9-22bf-4760-8927-68d482635c84","system_id":"levelo_inurba_marseille","lat":43.30541,"lon":5.36527,"is_reserved":false,"is_disabled":false,"rental_uris":{"android":"levelo://app?vid=ee3dccf9-22bf-4760-8927-68d482635c84","ios":"levelo://app?vid=ee3dccf9-22bf-4760-8927-68d482635c84"},"vehicle_type_id":"4","last_reported":1730718584,"current_range_meters":39200,"station_id":"ce4bgs12rcd13ifvqcag","pricing_plan_id":"cebpf4jnsgd1na2vs0mg"},{"bike_id":"717e8a48-40bc-4c1e-9067-b64ea8a81389","system_id":"levelo_inurba_marseille","lat":43.31756,"lon":5.39018,"is_reserved":false,"is_disabled":false,"rental_uris":{"android":"levelo://app?vid=717e8a48-40bc-4c1e-9067-b64ea8a81389","ios":"levelo://app?vid=717e8a48-40bc-4c1e-9067-b64ea8a81389"},"vehicle_type_id":"4","last_reported":1730718584,"current_range_meters":38400,"station_id":"ce4bhqp2rcd13ifvqhng","pricing_plan_id":"cebpf4jnsgd1na2vs0mg"},{"bike_id":"1b80601b-8be3-4b0b-bcc4-eebb89de1629","system_id":"levelo_inurba_marseille","lat":43.25831,"lon":5.39431,"is_reserved":false,"is_disabled":false,"rental_uris":{"android":"levelo://app?vid=1b80601b-8be3-4b0b-bcc4-eebb89de1629","ios":"levelo://app?vid=1b80601b-8be3-4b0b-bcc4-eebb89de1629"},"vehicle_type_id":"4","last_reported":1730718584,"current_range_meters":30000,"station_id":"ce4bhip2rcd13ifvqft0","pricing_plan_id":"cebpf4jnsgd1na2vs0mg"},{"bike_id":"d68eb4f1-f66f-4f23-8a73-f73518a80845","system_id":"levelo_inurba_marseille","lat":43.299307,"lon":5.36546,"is_reserved":false,"is_disabled":false,"rental_uris":{"android":"levelo://app?vid=d68eb4f1-f66f-4f23-8a73-f73518a80845","ios":"levelo://app?vid=d68eb4f1-f66f-4f23-8a73-f73518a80845"},"vehicle_type_id":"4","last_reported":1730718584,"current_range_meters":31200,"station_id":"ce4bgm92rcd13ifvqbr0","pricing_plan_id":"cebpf4jnsgd1na2vs0mg"},{"bike_id":"7d3777f4-ee99-40e1-9fc4-1f825ddd535f","system_id":"levelo_inurba_marseille","lat":43.27992,"lon":5.41662,"is_reserved":false,"is_disabled":false,"rental_uris":{"android":"levelo://app?vid=7d3777f4-ee99-40e1-9fc4-1f825ddd535f","ios":"levelo://app?vid=7d3777f4-ee99-40e1-9fc4-1f825ddd535f"},"vehicle_type_id":"4","last_reported":1730718584,"current_range_meters":3600,"station_id":"ce4bho12rcd13ifvqh1g","pricing_plan_id":"cebpf4jnsgd1na2vs0mg"},{"bike_id":"c76e6e4b-813a-4899-8c8c-39d5d13bbe21","system_id":"levelo_inurba_marseille","lat":43.29069,"lon":5.37171,"is_reserved":false,"is_disabled":false,"rental_uris":{"android":"levelo://app?vid=c76e6e4b-813a-4899-8c8c-39d5d13bbe21","ios":"levelo://app?vid=c76e6e4b-813a-4899-8c8c-39d5d13bbe21"},"vehicle_type_id":"4","last_reported":1730718584,"current_range_meters":28400,"station_id":"ce4bh5p2rcd13ifvqe4g","pricing_plan_id":"cebpf4jnsgd1na2vs0mg"},{"bike_id":"c8ff769d-3de8-4ba5-b126-ee1befb95d70","system_id":"levelo_inurba_marseille","lat":43.2386,"lon":5.38979,"is_reserved":false,"is_disabled":false,"rental_uris":{"android":"levelo://app?vid=c8ff769d-3de8-4ba5-b126-ee1befb95d70","ios":"levelo://app?vid=c8ff769d-3de8-4ba5-b126-ee1befb95d70"},"vehicle_type_id":"4","last_reported":1730718584,"current_range_meters":9200,"station_id":"","pricing_plan_id":"cebpf4jnsgd1na2vs0mg"},{"bike_id":"1751e87c-3dd4-4ebc-91e4-1968bdeaacdc","system_id":"levelo_inurba_marseille","lat":43.30538,"lon":5.36693,"is_reserved":false,"is_disabled":false,"rental_uris":{"android":"levelo://app?vid=1751e87c-3dd4-4ebc-91e4-1968bdeaacdc","ios":"levelo://app?vid=1751e87c-3dd4-4ebc-91e4-1968bdeaacdc"},"vehicle_type_id":"4","last_reported":1730718584,"current_range_meters":39200,"station_id":"ce4bgrp2rcd13ifvqc9g","pricing_plan_id":"cebpf4jnsgd1na2vs0mg"},{"bike_id":"beeef4e4-0d45-4dfa-9ccc-aedb2ce31115","system_id":"levelo_inurba_marseille","lat":43.32109,"lon":5.36778,"is_reserved":false,"is_disabled":false,"rental_uris":{"android":"levelo://app?vid=beeef4e4-0d45-4dfa-9ccc-aedb2ce31115","ios":"levelo://app?vid=beeef4e4-0d45-4dfa-9ccc-aedb2ce31115"},"vehicle_type_id":"4","last_reported":1730718584,"current_range_meters":30800,"station_id":"ce4bhrh2rcd13ifvqhug","pricing_plan_id":"cebpf4jnsgd1na2vs0mg"},{"bike_id":"46619f51-83b5-43d0-9fb2-f895a2600dbe","system_id":"levelo_inurba_marseille","lat":43.27963,"lon":5.38721,"is_reserved":false,"is_disabled":false,"rental_uris":{"android":"levelo://app?vid=46619f51-83b5-43d0-9fb2-f895a2600dbe","ios":"levelo://app?vid=46619f51-83b5-43d0-9fb2-f895a2600dbe"},"vehicle_type_id":"4","last_reported":1730718584,"current_range_meters":26800,"station_id":"ce4bhg12rcd13ifvqf80","pricing_plan_id":"cebpf4jnsgd1na2vs0mg"},{"bike_id":"e057b72f-da22-4f74-b632-7c26ad219f8c","system_id":"levelo_inurba_marseille","lat":43.32291,"lon":5.38279,"is_reserved":false,"is_disabled":false,"rental_uris":{"android":"levelo://app?vid=e057b72f-da22-4f74-b632-7c26ad219f8c","ios":"levelo://app?vid=e057b72f-da22-4f74-b632-7c26ad219f8c"},"vehicle_type_id":"4","last_reported":1730718584,"current_range_meters":39200,"station_id":"ce4bhr12rcd13ifvqhqg","pricing_plan_id":"cebpf4jnsgd1na2vs0mg"},{"bike_id":"2e1d0cd1-8441-4ba8-b68e-cd7faa70a2e3","system_id":"levelo_inurba_marseille","lat":43.30535,"lon":5.3652,"is_reserved":false,"is_disabled":false,"rental_uris":{"android":"levelo://app?vid=2e1d0cd1-8441-4ba8-b68e-cd7faa70a2e3","ios":"levelo://app?vid=2e1d0cd1-8441-4ba8-b68e-cd7faa70a2e3"},"vehicle_type_id":"4","last_reported":1730718584,"current_range_meters":35600,"station_id":"ce4bgs12rcd13ifvqcag","pricing_plan_id":"cebpf4jnsgd1na2vs0mg"},{"bike_id":"dcad223a-dec2-4896-b82b-a08ea958ce75","system_id":"levelo_inurba_marseille","lat":43.30138,"lon":5.3742,"is_reserved":false,"is_disabled":false,"rental_uris":{"android":"levelo://app?vid=dcad223a-dec2-4896-b82b-a08ea958ce75","ios":"levelo://app?vid=dcad223a-dec2-4896-b82b-a08ea958ce75"},"vehicle_type_id":"4","last_reported":1730718584,"current_range_meters":28400,"station_id":"ce4bgs92rcd13ifvqcc0","pricing_plan_id":"cebpf4jnsgd1na2vs0mg"},{"bike_id":"2bfdc676-a348-40bf-8f48-29e78a9dd7e7","system_id":"levelo_inurba_marseille","lat":43.29033,"lon":5.3996,"is_reserved":false,"is_disabled":false,"rental_uris":{"android":"levelo://app?vid=2bfdc676-a348-40bf-8f48-29e78a9dd7e7","ios":"levelo://app?vid=2bfdc676-a348-40bf-8f48-29e78a9dd7e7"},"vehicle_type_id":"4","last_reported":1730718584,"current_range_meters":3200,"station_id":"ce4bh392rcd13ifvqdm0","pricing_plan_id":"cebpf4jnsgd1na2vs0mg"},{"bike_id":"eacd66df-206c-472f-9531-edaa1ace1ca7","system_id":"levelo_inurba_marseille","lat":43.30119,"lon":5.3985,"is_reserved":false,"is_disabled":false,"rental_uris":{"android":"levelo://app?vid=eacd66df-206c-472f-9531-edaa1ace1ca7","ios":"levelo://app?vid=eacd66df-206c-472f-9531-edaa1ace1ca7"},"vehicle_type_id":"4","last_reported":1730718584,"current_range_meters":22400,"station_id":"ce4bh0h2rcd13ifvqd40","pricing_plan_id":"cebpf4jnsgd1na2vs0mg"},{"bike_id":"62e81eca-c0a7-4d30-a9e0-f8d733147216","system_id":"levelo_inurba_marseille","lat":43.255,"lon":5.37646,"is_reserved":false,"is_disabled":false,"rental_uris":{"android":"levelo://app?vid=62e81eca-c0a7-4d30-a9e0-f8d733147216","ios":"levelo://app?vid=62e81eca-c0a7-4d30-a9e0-f8d733147216"},"vehicle_type_id":"4","last_reported":1730718584,"current_range_meters":14400,"station_id":"ce4bhh12rcd13ifvqff0","pricing_plan_id":"cebpf4jnsgd1na2vs0mg"},{"bike_id":"905ab8e9-1f53-439c-a3ce-7d736f026964","system_id":"levelo_inurba_marseille","lat":43.3054,"lon":5.36702,"is_reserved":false,"is_disabled":false,"rental_uris":{"android":"levelo://app?vid=905ab8e9-1f53-439c-a3ce-7d736f026964","ios":"levelo://app?vid=905ab8e9-1f53-439c-a3ce-7d736f026964"},"vehicle_type_id":"4","last_reported":1730718584,"current_range_meters":39200,"station_id":"ce4bgrp2rcd13ifvqc9g","pricing_plan_id":"cebpf4jnsgd1na2vs0mg"},{"bike_id":"4783aed0-5b0b-4b8b-9cc3-515df70a4cea","system_id":"levelo_inurba_marseille","lat":43.27493,"lon":5.42455,"is_reserved":false,"is_disabled":false,"rental_uris":{"android":"levelo://app?vid=4783aed0-5b0b-4b8b-9cc3-515df70a4cea","ios":"levelo://app?vid=4783aed0-5b0b-4b8b-9cc3-515df70a4cea"},"vehicle_type_id":"4","last_reported":1730718584,"current_range_meters":30400,"station_id":"ce4bhn92rcd13ifvqgrg","pricing_plan_id":"cebpf4jnsgd1na2vs0mg"},{"bike_id":"c9dfda89-93c9-4ba1-a7dd-c697a467bab5","system_id":"levelo_inurba_marseille","lat":43.30931,"lon":5.40137,"is_reserved":false,"is_disabled":false,"rental_uris":{"android":"levelo://app?vid=c9dfda89-93c9-4ba1-a7dd-c697a467bab5","ios":"levelo://app?vid=c9dfda89-93c9-4ba1-a7dd-c697a467bab5"},"vehicle_type_id":"4","last_reported":1730718584,"current_range_meters":20000,"station_id":"ce4bgvp2rcd13ifvqct0","pricing_plan_id":"cebpf4jnsgd1na2vs0mg"},{"bike_id":"35e40d96-563b-46fc-b839-a47f20d6ce84","system_id":"levelo_inurba_marseille","lat":43.27056,"lon":5.40259,"is_reserved":false,"is_disabled":false,"rental_uris":{"android":"levelo://app?vid=35e40d96-563b-46fc-b839-a47f20d6ce84","ios":"levelo://app?vid=35e40d96-563b-46fc-b839-a47f20d6ce84"},"vehicle_type_id":"4","last_reported":1730718584,"current_range_meters":16800,"station_id":"ce4bhk92rcd13ifvqgc0","pricing_plan_id":"cebpf4jnsgd1na2vs0mg"},{"bike_id":"9050bedd-02b3-4bd8-ab35-93afcbbe6b9e","system_id":"levelo_inurba_marseille","lat":43.28363,"lon":5.38625,"is_reserved":false,"is_disabled":false,"rental_uris":{"android":"levelo://app?vid=9050bedd-02b3-4bd8-ab35-93afcbbe6b9e","ios":"levelo://app?vid=9050bedd-02b3-4bd8-ab35-93afcbbe6b9e"},"vehicle_type_id":"4","last_reported":1730718584,"current_range_meters":36000,"station_id":"ce4bh492rcd13ifvqdvg","pricing_plan_id":"cebpf4jnsgd1na2vs0mg"},{"bike_id":"7580d83e-3d7c-46be-82b1-25f013a114af","system_id":"levelo_inurba_marseille","lat":43.31077,"lon":5.40095,"is_reserved":false,"is_disabled":false,"rental_uris":{"android":"levelo://app?vid=7580d83e-3d7c-46be-82b1-25f013a114af","ios":"levelo://app?vid=7580d83e-3d7c-46be-82b1-25f013a114af"},"vehicle_type_id":"4","last_reported":1730718584,"current_range_meters":22400,"station_id":"","pricing_plan_id":"cebpf4jnsgd1na2vs0mg"},{"bike_id":"0beee424-e81f-4821-93f8-913a6e29e82e","system_id":"levelo_inurba_marseille","lat":43.2306,"lon":5.35489,"is_reserved":false,"is_disabled":false,"rental_uris":{"android":"levelo://app?vid=0beee424-e81f-4821-93f8-913a6e29e82e","ios":"levelo://app?vid=0beee424-e81f-4821-93f8-913a6e29e82e"},"vehicle_type_id":"4","last_reported":1730718584,"current_range_meters":16400,"station_id":"cpo3342slgdg3j2ifvpg","pricing_plan_id":"cebpf4jnsgd1na2vs0mg"},{"bike_id":"baba13d8-402b-42b5-8c4c-10061bfbd2dc","system_id":"levelo_inurba_marseille","lat":43.28461,"lon":5.35893,"is_reserved":false,"is_disabled":false,"rental_uris":{"android":"levelo://app?vid=baba13d8-402b-42b5-8c4c-10061bfbd2dc","ios":"levelo://app?vid=baba13d8-402b-42b5-8c4c-10061bfbd2dc"},"vehicle_type_id":"4","last_reported":1730718584,"current_range_meters":29600,"station_id":"ce4bhah2rcd13ifvqei0","pricing_plan_id":"cebpf4jnsgd1na2vs0mg"},{"bike_id":"23318a29-34d2-4d10-917f-6b9fe01ef36a","system_id":"levelo_inurba_marseille","lat":43.27496,"lon":5.42453,"is_reserved":false,"is_disabled":false,"rental_uris":{"android":"levelo://app?vid=23318a29-34d2-4d10-917f-6b9fe01ef36a","ios":"levelo://app?vid=23318a29-34d2-4d10-917f-6b9fe01ef36a"},"vehicle_type_id":"4","last_reported":1730718584,"current_range_meters":36000,"station_id":"ce4bhn92rcd13ifvqgrg","pricing_plan_id":"cebpf4jnsgd1na2vs0mg"},{"bike_id":"e4646c1b-3291-4da5-8c23-aca19f81a89a","system_id":"levelo_inurba_marseille","lat":43.30141,"lon":5.38088,"is_reserved":false,"is_disabled":false,"rental_uris":{"android":"levelo://app?vid=e4646c1b-3291-4da5-8c23-aca19f81a89a","ios":"levelo://app?vid=e4646c1b-3291-4da5-8c23-aca19f81a89a"},"vehicle_type_id":"4","last_reported":1730718584,"current_range_meters":18800,"station_id":"ce4bgjp2rcd13ifvqbh0","pricing_plan_id":"cebpf4jnsgd1na2vs0mg"},{"bike_id":"37e2ac36-77af-4e7b-b0fd-43420207efda","system_id":"levelo_inurba_marseille","lat":43.28056,"lon":5.40977,"is_reserved":false,"is_disabled":false,"rental_uris":{"android":"levelo://app?vid=37e2ac36-77af-4e7b-b0fd-43420207efda","ios":"levelo://app?vid=37e2ac36-77af-4e7b-b0fd-43420207efda"},"vehicle_type_id":"4","last_reported":1730718584,"current_range_meters":36800,"station_id":"","pricing_plan_id":"cebpf4jnsgd1na2vs0mg"},{"bike_id":"c268f8a8-c8a2-4a9d-9297-31e089741b69","system_id":"levelo_inurba_marseille","lat":43.30192,"lon":5.36618,"is_reserved":false,"is_disabled":false,"rental_uris":{"android":"levelo://app?vid=c268f8a8-c8a2-4a9d-9297-31e089741b69","ios":"levelo://app?vid=c268f8a8-c8a2-4a9d-9297-31e089741b69"},"vehicle_type_id":"4","last_reported":1730718584,"current_range_meters":38800,"station_id":"ce4bgrh2rcd13ifvqc8g","pricing_plan_id":"cebpf4jnsgd1na2vs0mg"},{"bike_id":"a938ad26-c31c-4cc6-9b4f-a3e0f58e10a8","system_id":"levelo_inurba_marseille","lat":43.24172,"lon":5.36394,"is_reserved":false,"is_disabled":false,"rental_uris":{"android":"levelo://app?vid=a938ad26-c31c-4cc6-9b4f-a3e0f58e10a8","ios":"levelo://app?vid=a938ad26-c31c-4cc6-9b4f-a3e0f58e10a8"},"vehicle_type_id":"4","last_reported":1730718584,"current_range_meters":38800,"station_id":"cpo36qri1sfpv3e86is0","pricing_plan_id":"cebpf4jnsgd1na2vs0mg"},{"bike_id":"7ecb3c5b-78f5-4408-bb26-5cc69d42fb6c","system_id":"levelo_inurba_marseille","lat":43.24048,"lon":5.37717,"is_reserved":false,"is_disabled":false,"rental_uris":{"android":"levelo://app?vid=7ecb3c5b-78f5-4408-bb26-5cc69d42fb6c","ios":"levelo://app?vid=7ecb3c5b-78f5-4408-bb26-5cc69d42fb6c"},"vehicle_type_id":"4","last_reported":1730718584,"current_range_meters":38800,"station_id":"ce4bhnp2rcd13ifvqgvg","pricing_plan_id":"cebpf4jnsgd1na2vs0mg"},{"bike_id":"325e86d5-5b48-4753-9057-b0de55e70742","system_id":"levelo_inurba_marseille","lat":43.26803,"lon":5.40259,"is_reserved":false,"is_disabled":false,"rental_uris":{"android":"levelo://app?vid=325e86d5-5b48-4753-9057-b0de55e70742","ios":"levelo://app?vid=325e86d5-5b48-4753-9057-b0de55e70742"},"vehicle_type_id":"4","last_reported":1730718584,"current_range_meters":37600,"station_id":"ce501612rcd8frsf0b60","pricing_plan_id":"cebpf4jnsgd1na2vs0mg"},{"bike_id":"d86f3399-8ba3-486d-a26b-9441d9d3bdd3","system_id":"levelo_inurba_marseille","lat":43.28,"lon":5.41661,"is_reserved":false,"is_disabled":false,"rental_uris":{"android":"levelo://app?vid=d86f3399-8ba3-486d-a26b-9441d9d3bdd3","ios":"levelo://app?vid=d86f3399-8ba3-486d-a26b-9441d9d3bdd3"},"vehicle_type_id":"4","last_reported":1730718584,"current_range_meters":2800,"station_id":"ce4bho12rcd13ifvqh1g","pricing_plan_id":"cebpf4jnsgd1na2vs0mg"},{"bike_id":"f256e407-b1cd-4ba4-8262-8d961bb4d647","system_id":"levelo_inurba_marseille","lat":43.25501,"lon":5.37651,"is_reserved":false,"is_disabled":false,"rental_uris":{"android":"levelo://app?vid=f256e407-b1cd-4ba4-8262-8d961bb4d647","ios":"levelo://app?vid=f256e407-b1cd-4ba4-8262-8d961bb4d647"},"vehicle_type_id":"4","last_reported":1730718584,"current_range_meters":38800,"station_id":"ce4bhh12rcd13ifvqff0","pricing_plan_id":"cebpf4jnsgd1na2vs0mg"},{"bike_id":"84826187-31ec-4949-bd9b-654531a44675","system_id":"levelo_inurba_marseille","lat":43.23155,"lon":5.43699,"is_reserved":false,"is_disabled":false,"rental_uris":{"android":"levelo://app?vid=84826187-31ec-4949-bd9b-654531a44675","ios":"levelo://app?vid=84826187-31ec-4949-bd9b-654531a44675"},"vehicle_type_id":"4","last_reported":1730718584,"current_range_meters":24000,"station_id":"ce4bhmp2rcd13ifvqgog","pricing_plan_id":"cebpf4jnsgd1na2vs0mg"},{"bike_id":"3c9cc150-6fa2-417e-baae-35b4a3356b0a","system_id":"levelo_inurba_marseille","lat":43.31324,"lon":5.39691,"is_reserved":false,"is_disabled":false,"rental_uris":{"android":"levelo://app?vid=3c9cc150-6fa2-417e-baae-35b4a3356b0a","ios":"levelo://app?vid=3c9cc150-6fa2-417e-baae-35b4a3356b0a"},"vehicle_type_id":"4","last_reported":1730718584,"current_range_meters":32000,"station_id":"ce4bgvp2rcd13ifvqcu0","pricing_plan_id":"cebpf4jnsgd1na2vs0mg"},{"bike_id":"0b597ca6-8a05-4580-9840-f0829a5e4450","system_id":"levelo_inurba_marseille","lat":43.26781,"lon":5.39421,"is_reserved":false,"is_disabled":false,"rental_uris":{"android":"levelo://app?vid=0b597ca6-8a05-4580-9840-f0829a5e4450","ios":"levelo://app?vid=0b597ca6-8a05-4580-9840-f0829a5e4450"},"vehicle_type_id":"4","last_reported":1730718584,"current_range_meters":25200,"station_id":"ce4bhh12rcd13ifvqfg0","pricing_plan_id":"cebpf4jnsgd1na2vs0mg"},{"bike_id":"710ee38e-77b0-4542-9111-fce7597ff620","system_id":"levelo_inurba_marseille","lat":43.27059,"lon":5.40256,"is_reserved":false,"is_disabled":false,"rental_uris":{"android":"levelo://app?vid=710ee38e-77b0-4542-9111-fce7597ff620","ios":"levelo://app?vid=710ee38e-77b0-4542-9111-fce7597ff620"},"vehicle_type_id":"4","last_reported":1730718584,"current_range_meters":11600,"station_id":"ce4bhk92rcd13ifvqgc0","pricing_plan_id":"cebpf4jnsgd1na2vs0mg"},{"bike_id":"3ff0dc3f-c9cf-45a9-9f30-b0e63d30490d","system_id":"levelo_inurba_marseille","lat":43.3017,"lon":5.36625,"is_reserved":false,"is_disabled":false,"rental_uris":{"android":"levelo://app?vid=3ff0dc3f-c9cf-45a9-9f30-b0e63d30490d","ios":"levelo://app?vid=3ff0dc3f-c9cf-45a9-9f30-b0e63d30490d"},"vehicle_type_id":"4","last_reported":1730718584,"current_range_meters":37600,"station_id":"ce4bgrh2rcd13ifvqc8g","pricing_plan_id":"cebpf4jnsgd1na2vs0mg"},{"bike_id":"f096c496-f8db-4185-9b36-b85c627b721a","system_id":"levelo_inurba_marseille","lat":43.33607,"lon":5.41025,"is_reserved":false,"is_disabled":false,"rental_uris":{"android":"levelo://app?vid=f096c496-f8db-4185-9b36-b85c627b721a","ios":"levelo://app?vid=f096c496-f8db-4185-9b36-b85c627b721a"},"vehicle_type_id":"4","last_reported":1730718584,"current_range_meters":8800,"station_id":"ce4bhqh2rcd13ifvqhmg","pricing_plan_id":"cebpf4jnsgd1na2vs0mg"},{"bike_id":"909fd824-d8fe-4d38-b958-5046d8c9169b","system_id":"levelo_inurba_marseille","lat":43.32491,"lon":5.36569,"is_reserved":false,"is_disabled":false,"rental_uris":{"android":"levelo://app?vid=909fd824-d8fe-4d38-b958-5046d8c9169b","ios":"levelo://app?vid=909fd824-d8fe-4d38-b958-5046d8c9169b"},"vehicle_type_id":"4","last_reported":1730718584,"current_range_meters":38800,"station_id":"ce4bhs12rcd13ifvqhvg","pricing_plan_id":"cebpf4jnsgd1na2vs0mg"},{"bike_id":"4cd638cb-c22d-46b7-a0cf-b8e376d73951","system_id":"levelo_inurba_marseille","lat":43.28107,"lon":5.37841,"is_reserved":false,"is_disabled":false,"rental_uris":{"android":"levelo://app?vid=4cd638cb-c22d-46b7-a0cf-b8e376d73951","ios":"levelo://app?vid=4cd638cb-c22d-46b7-a0cf-b8e376d73951"},"vehicle_type_id":"4","last_reported":1730718584,"current_range_meters":25200,"station_id":"ce4bha12rcd13ifvqee0","pricing_plan_id":"cebpf4jnsgd1na2vs0mg"},{"bike_id":"4bb91105-3f73-42eb-9b63-67f190809da1","system_id":"levelo_inurba_marseille","lat":43.27209,"lon":5.3918,"is_reserved":false,"is_disabled":false,"rental_uris":{"android":"levelo://app?vid=4bb91105-3f73-42eb-9b63-67f190809da1","ios":"levelo://app?vid=4bb91105-3f73-42eb-9b63-67f190809da1"},"vehicle_type_id":"4","last_reported":1730718584,"current_range_meters":8800,"station_id":"ce4bhhp2rcd13ifvqfm0","pricing_plan_id":"cebpf4jnsgd1na2vs0mg"},{"bike_id":"e576cf34-1b3c-4b70-885c-e6d124a382dd","system_id":"levelo_inurba_marseille","lat":43.29841,"lon":5.36272,"is_reserved":false,"is_disabled":false,"rental_uris":{"android":"levelo://app?vid=e576cf34-1b3c-4b70-885c-e6d124a382dd","ios":"levelo://app?vid=e576cf34-1b3c-4b70-885c-e6d124a382dd"},"vehicle_type_id":"4","last_reported":1730718584,"current_range_meters":19200,"station_id":"ce4bgpp2rcd13ifvqc3g","pricing_plan_id":"cebpf4jnsgd1na2vs0mg"},{"bike_id":"89063087-3d49-4ee6-a94b-3c05ea0d8582","system_id":"levelo_inurba_marseille","lat":43.24387,"lon":5.37054,"is_reserved":false,"is_disabled":false,"rental_uris":{"android":"levelo://app?vid=89063087-3d49-4ee6-a94b-3c05ea0d8582","ios":"levelo://app?vid=89063087-3d49-4ee6-a94b-3c05ea0d8582"},"vehicle_type_id":"4","last_reported":1730718584,"current_range_meters":37600,"station_id":"ce4bhhh2rcd13ifvqfk0","pricing_plan_id":"cebpf4jnsgd1na2vs0mg"},{"bike_id":"00fa663e-ca43-453d-afb5-fe8b2d7b7459","system_id":"levelo_inurba_marseille","lat":43.30541,"lon":5.36522,"is_reserved":false,"is_disabled":false,"rental_uris":{"android":"levelo://app?vid=00fa663e-ca43-453d-afb5-fe8b2d7b7459","ios":"levelo://app?vid=00fa663e-ca43-453d-afb5-fe8b2d7b7459"},"vehicle_type_id":"4","last_reported":1730718584,"current_range_meters":38800,"station_id":"ce4bgs12rcd13ifvqcag","pricing_plan_id":"cebpf4jnsgd1na2vs0mg"},{"bike_id":"8f31e753-c0d2-41d7-8ee6-6bafa8c9e072","system_id":"levelo_inurba_marseille","lat":43.2408,"lon":5.37747,"is_reserved":false,"is_disabled":false,"rental_uris":{"android":"levelo://app?vid=8f31e753-c0d2-41d7-8ee6-6bafa8c9e072","ios":"levelo://app?vid=8f31e753-c0d2-41d7-8ee6-6bafa8c9e072"},"vehicle_type_id":"4","last_reported":1730718584,"current_range_meters":32400,"station_id":"ce4bhnp2rcd13ifvqgvg","pricing_plan_id":"cebpf4jnsgd1na2vs0mg"},{"bike_id":"901f6a38-43ca-428b-9e4a-b583b6514a80","system_id":"levelo_inurba_marseille","lat":43.286145,"lon":5.374193,"is_reserved":false,"is_disabled":false,"rental_uris":{"android":"levelo://app?vid=901f6a38-43ca-428b-9e4a-b583b6514a80","ios":"levelo://app?vid=901f6a38-43ca-428b-9e4a-b583b6514a80"},"vehicle_type_id":"4","last_reported":1730718584,"current_range_meters":38000,"station_id":"ce4bh3p2rcd13ifvqdq0","pricing_plan_id":"cebpf4jnsgd1na2vs0mg"},{"bike_id":"4d169fd3-954a-4f23-a7c7-0cd191790808","system_id":"levelo_inurba_marseille","lat":43.30129,"lon":5.39849,"is_reserved":false,"is_disabled":false,"rental_uris":{"android":"levelo://app?vid=4d169fd3-954a-4f23-a7c7-0cd191790808","ios":"levelo://app?vid=4d169fd3-954a-4f23-a7c7-0cd191790808"},"vehicle_type_id":"4","last_reported":1730718584,"current_range_meters":28800,"station_id":"ce4bh0h2rcd13ifvqd40","pricing_plan_id":"cebpf4jnsgd1na2vs0mg"},{"bike_id":"9ab61900-a3a9-46dd-975a-732081bf7ad0","system_id":"levelo_inurba_marseille","lat":43.31272,"lon":5.40171,"is_reserved":false,"is_disabled":false,"rental_uris":{"android":"levelo://app?vid=9ab61900-a3a9-46dd-975a-732081bf7ad0","ios":"levelo://app?vid=9ab61900-a3a9-46dd-975a-732081bf7ad0"},"vehicle_type_id":"4","last_reported":1730718584,"current_range_meters":30000,"station_id":"ce4bh092rcd13ifvqd30","pricing_plan_id":"cebpf4jnsgd1na2vs0mg"},{"bike_id":"5cebc7c7-1425-4012-8ecc-1436e09ba8ae","system_id":"levelo_inurba_marseille","lat":43.30138,"lon":5.37412,"is_reserved":false,"is_disabled":false,"rental_uris":{"android":"levelo://app?vid=5cebc7c7-1425-4012-8ecc-1436e09ba8ae","ios":"levelo://app?vid=5cebc7c7-1425-4012-8ecc-1436e09ba8ae"},"vehicle_type_id":"4","last_reported":1730718584,"current_range_meters":18800,"station_id":"ce4bgs92rcd13ifvqcc0","pricing_plan_id":"cebpf4jnsgd1na2vs0mg"},{"bike_id":"b0672c50-2175-4879-9ad4-3ae408ab9c9a","system_id":"levelo_inurba_marseille","lat":43.33023,"lon":5.39044,"is_reserved":false,"is_disabled":false,"rental_uris":{"android":"levelo://app?vid=b0672c50-2175-4879-9ad4-3ae408ab9c9a","ios":"levelo://app?vid=b0672c50-2175-4879-9ad4-3ae408ab9c9a"},"vehicle_type_id":"4","last_reported":1730718584,"current_range_meters":8000,"station_id":"ce4bhr92rcd13ifvqhrg","pricing_plan_id":"cebpf4jnsgd1na2vs0mg"},{"bike_id":"20ba62ee-2151-4dc9-8a72-2d3c7b78e768","system_id":"levelo_inurba_marseille","lat":43.25931,"lon":5.40904,"is_reserved":false,"is_disabled":false,"rental_uris":{"android":"levelo://app?vid=20ba62ee-2151-4dc9-8a72-2d3c7b78e768","ios":"levelo://app?vid=20ba62ee-2151-4dc9-8a72-2d3c7b78e768"},"vehicle_type_id":"4","last_reported":1730718584,"current_range_meters":33600,"station_id":"ce4bhm92rcd13ifvqglg","pricing_plan_id":"cebpf4jnsgd1na2vs0mg"},{"bike_id":"fe144177-327f-48aa-98bf-b0d3318680db","system_id":"levelo_inurba_marseille","lat":43.24078,"lon":5.37748,"is_reserved":false,"is_disabled":false,"rental_uris":{"android":"levelo://app?vid=fe144177-327f-48aa-98bf-b0d3318680db","ios":"levelo://app?vid=fe144177-327f-48aa-98bf-b0d3318680db"},"vehicle_type_id":"4","last_reported":1730718584,"current_range_meters":10800,"station_id":"ce4bhnp2rcd13ifvqgvg","pricing_plan_id":"cebpf4jnsgd1na2vs0mg"},{"bike_id":"61864400-2b8e-4568-889d-c79c7cc8f788","system_id":"levelo_inurba_marseille","lat":43.23152,"lon":5.43717,"is_reserved":false,"is_disabled":false,"rental_uris":{"android":"levelo://app?vid=61864400-2b8e-4568-889d-c79c7cc8f788","ios":"levelo://app?vid=61864400-2b8e-4568-889d-c79c7cc8f788"},"vehicle_type_id":"4","last_reported":1730718584,"current_range_meters":9200,"station_id":"ce4bhmp2rcd13ifvqgog","pricing_plan_id":"cebpf4jnsgd1na2vs0mg"},{"bike_id":"7a58136c-3165-4313-8fac-2c364b399752","system_id":"levelo_inurba_marseille","lat":43.33723,"lon":5.39181,"is_reserved":false,"is_disabled":false,"rental_uris":{"android":"levelo://app?vid=7a58136c-3165-4313-8fac-2c364b399752","ios":"levelo://app?vid=7a58136c-3165-4313-8fac-2c364b399752"},"vehicle_type_id":"4","last_reported":1730718584,"current_range_meters":28800,"station_id":"ce4bhr92rcd13ifvqhsg","pricing_plan_id":"cebpf4jnsgd1na2vs0mg"},{"bike_id":"ef6c598b-12f7-4d6c-97fa-13e183c4e772","system_id":"levelo_inurba_marseille","lat":43.246857,"lon":5.3838,"is_reserved":false,"is_disabled":false,"rental_uris":{"android":"levelo://app?vid=ef6c598b-12f7-4d6c-97fa-13e183c4e772","ios":"levelo://app?vid=ef6c598b-12f7-4d6c-97fa-13e183c4e772"},"vehicle_type_id":"4","last_reported":1730718584,"current_range_meters":22800,"station_id":"ce4bhgh2rcd13ifvqfb0","pricing_plan_id":"cebpf4jnsgd1na2vs0mg"},{"bike_id":"fb18705b-7605-4bc1-b12d-a319d0445d3b","system_id":"levelo_inurba_marseille","lat":43.28,"lon":5.40011,"is_reserved":false,"is_disabled":false,"rental_uris":{"android":"levelo://app?vid=fb18705b-7605-4bc1-b12d-a319d0445d3b","ios":"levelo://app?vid=fb18705b-7605-4bc1-b12d-a319d0445d3b"},"vehicle_type_id":"4","last_reported":1730718584,"current_range_meters":28000,"station_id":"ce4bho92rcd13ifvqh4g","pricing_plan_id":"cebpf4jnsgd1na2vs0mg"},{"bike_id":"a3ae4c1b-8ed3-43f0-95b2-9f60ca274476","system_id":"levelo_inurba_marseille","lat":43.32484,"lon":5.36565,"is_reserved":false,"is_disabled":false,"rental_uris":{"android":"levelo://app?vid=a3ae4c1b-8ed3-43f0-95b2-9f60ca274476","ios":"levelo://app?vid=a3ae4c1b-8ed3-43f0-95b2-9f60ca274476"},"vehicle_type_id":"4","last_reported":1730718584,"current_range_meters":38800,"station_id":"ce4bhs12rcd13ifvqhvg","pricing_plan_id":"cebpf4jnsgd1na2vs0mg"},{"bike_id":"3bd766c1-0957-49eb-ba0f-eec475e5435b","system_id":"levelo_inurba_marseille","lat":43.30101,"lon":5.39074,"is_reserved":false,"is_disabled":false,"rental_uris":{"android":"levelo://app?vid=3bd766c1-0957-49eb-ba0f-eec475e5435b","ios":"levelo://app?vid=3bd766c1-0957-49eb-ba0f-eec475e5435b"},"vehicle_type_id":"4","last_reported":1730718584,"current_range_meters":27600,"station_id":"ce4bh192rcd13ifvqdb0","pricing_plan_id":"cebpf4jnsgd1na2vs0mg"},{"bike_id":"77da8c0e-0043-48d9-9bee-c58df7d82bb8","system_id":"levelo_inurba_marseille","lat":43.30529,"lon":5.36698,"is_reserved":false,"is_disabled":false,"rental_uris":{"android":"levelo://app?vid=77da8c0e-0043-48d9-9bee-c58df7d82bb8","ios":"levelo://app?vid=77da8c0e-0043-48d9-9bee-c58df7d82bb8"},"vehicle_type_id":"4","last_reported":1730718584,"current_range_meters":27200,"station_id":"ce4bgrp2rcd13ifvqc9g","pricing_plan_id":"cebpf4jnsgd1na2vs0mg"},{"bike_id":"bdc1a9fc-f1f2-47e9-8088-8c6e6ac71441","system_id":"levelo_inurba_marseille","lat":43.28611,"lon":5.37061,"is_reserved":false,"is_disabled":false,"rental_uris":{"android":"levelo://app?vid=bdc1a9fc-f1f2-47e9-8088-8c6e6ac71441","ios":"levelo://app?vid=bdc1a9fc-f1f2-47e9-8088-8c6e6ac71441"},"vehicle_type_id":"4","last_reported":1730718584,"current_range_meters":28800,"station_id":"ce4bhh92rcd13ifvqfj0","pricing_plan_id":"cebpf4jnsgd1na2vs0mg"},{"bike_id":"493d40b9-a581-4129-a3d4-fee20b359c39","system_id":"levelo_inurba_marseille","lat":43.31229,"lon":5.3685,"is_reserved":false,"is_disabled":false,"rental_uris":{"android":"levelo://app?vid=493d40b9-a581-4129-a3d4-fee20b359c39","ios":"levelo://app?vid=493d40b9-a581-4129-a3d4-fee20b359c39"},"vehicle_type_id":"4","last_reported":1730718584,"current_range_meters":32400,"station_id":"ce4bgl92rcd13ifvqbq0","pricing_plan_id":"cebpf4jnsgd1na2vs0mg"},{"bike_id":"d5154aa7-9f6d-4f09-8dd7-076b92df9944","system_id":"levelo_inurba_marseille","lat":43.30959,"lon":5.39021,"is_reserved":false,"is_disabled":false,"rental_uris":{"android":"levelo://app?vid=d5154aa7-9f6d-4f09-8dd7-076b92df9944","ios":"levelo://app?vid=d5154aa7-9f6d-4f09-8dd7-076b92df9944"},"vehicle_type_id":"4","last_reported":1730718584,"current_range_meters":34000,"station_id":"ce4bgup2rcd13ifvqco0","pricing_plan_id":"cebpf4jnsgd1na2vs0mg"},{"bike_id":"6e7dd636-a5c9-49a8-9da5-13f5d56a1f4c","system_id":"levelo_inurba_marseille","lat":43.30135,"lon":5.37412,"is_reserved":false,"is_disabled":false,"rental_uris":{"android":"levelo://app?vid=6e7dd636-a5c9-49a8-9da5-13f5d56a1f4c","ios":"levelo://app?vid=6e7dd636-a5c9-49a8-9da5-13f5d56a1f4c"},"vehicle_type_id":"4","last_reported":1730718584,"current_range_meters":12400,"station_id":"ce4bgs92rcd13ifvqcc0","pricing_plan_id":"cebpf4jnsgd1na2vs0mg"},{"bike_id":"ad6b9979-2833-497c-ae59-5afeb88a87ce","system_id":"levelo_inurba_marseille","lat":43.32359,"lon":5.36756,"is_reserved":false,"is_disabled":false,"rental_uris":{"android":"levelo://app?vid=ad6b9979-2833-497c-ae59-5afeb88a87ce","ios":"levelo://app?vid=ad6b9979-2833-497c-ae59-5afeb88a87ce"},"vehicle_type_id":"4","last_reported":1730718584,"current_range_meters":36800,"station_id":"ce4bhsh2rcd13ifvqi2g","pricing_plan_id":"cebpf4jnsgd1na2vs0mg"},{"bike_id":"d2b65f95-d863-40f7-af0b-733a9d76179a","system_id":"levelo_inurba_marseille","lat":43.29035,"lon":5.39966,"is_reserved":false,"is_disabled":false,"rental_uris":{"android":"levelo://app?vid=d2b65f95-d863-40f7-af0b-733a9d76179a","ios":"levelo://app?vid=d2b65f95-d863-40f7-af0b-733a9d76179a"},"vehicle_type_id":"4","last_reported":1730718584,"current_range_meters":6400,"station_id":"ce4bh392rcd13ifvqdm0","pricing_plan_id":"cebpf4jnsgd1na2vs0mg"},{"bike_id":"880c170a-1427-442d-aeb3-1d0018acc31c","system_id":"levelo_inurba_marseille","lat":43.32653,"lon":5.40986,"is_reserved":false,"is_disabled":false,"rental_uris":{"android":"levelo://app?vid=880c170a-1427-442d-aeb3-1d0018acc31c","ios":"levelo://app?vid=880c170a-1427-442d-aeb3-1d0018acc31c"},"vehicle_type_id":"4","last_reported":1730718584,"current_range_meters":38400,"station_id":"ce4bhpp2rcd13ifvqhgg","pricing_plan_id":"cebpf4jnsgd1na2vs0mg"},{"bike_id":"69d2a800-5d96-4d0d-ad5b-66c8cdcd122b","system_id":"levelo_inurba_marseille","lat":43.28941,"lon":5.39626,"is_reserved":false,"is_disabled":false,"rental_uris":{"android":"levelo://app?vid=69d2a800-5d96-4d0d-ad5b-66c8cdcd122b","ios":"levelo://app?vid=69d2a800-5d96-4d0d-ad5b-66c8cdcd122b"},"vehicle_type_id":"4","last_reported":1730718584,"current_range_meters":38800,"station_id":"ce4bh3h2rcd13ifvqdn0","pricing_plan_id":"cebpf4jnsgd1na2vs0mg"},{"bike_id":"aca15595-4d0b-4e26-ba02-b8d02f9c6ef1","system_id":"levelo_inurba_marseille","lat":43.30602,"lon":5.37212,"is_reserved":false,"is_disabled":false,"rental_uris":{"android":"levelo://app?vid=aca15595-4d0b-4e26-ba02-b8d02f9c6ef1","ios":"levelo://app?vid=aca15595-4d0b-4e26-ba02-b8d02f9c6ef1"},"vehicle_type_id":"4","last_reported":1730718584,"current_range_meters":32400,"station_id":"ce4bgqh2rcd13ifvqc4g","pricing_plan_id":"cebpf4jnsgd1na2vs0mg"},{"bike_id":"5d3c3804-2fe2-458d-8917-55765b91a260","system_id":"levelo_inurba_marseille","lat":43.24384,"lon":5.37057,"is_reserved":false,"is_disabled":false,"rental_uris":{"android":"levelo://app?vid=5d3c3804-2fe2-458d-8917-55765b91a260","ios":"levelo://app?vid=5d3c3804-2fe2-458d-8917-55765b91a260"},"vehicle_type_id":"4","last_reported":1730718584,"current_range_meters":31200,"station_id":"ce4bhhh2rcd13ifvqfk0","pricing_plan_id":"cebpf4jnsgd1na2vs0mg"},{"bike_id":"d2738cce-314b-4cee-88e4-e667009c47fa","system_id":"levelo_inurba_marseille","lat":43.25937,"lon":5.40894,"is_reserved":false,"is_disabled":false,"rental_uris":{"android":"levelo://app?vid=d2738cce-314b-4cee-88e4-e667009c47fa","ios":"levelo://app?vid=d2738cce-314b-4cee-88e4-e667009c47fa"},"vehicle_type_id":"4","last_reported":1730718584,"current_range_meters":7200,"station_id":"ce4bhm92rcd13ifvqglg","pricing_plan_id":"cebpf4jnsgd1na2vs0mg"},{"bike_id":"3070c640-07d6-40c9-95a3-a00f24995dc9","system_id":"levelo_inurba_marseille","lat":43.2837,"lon":5.38627,"is_reserved":false,"is_disabled":false,"rental_uris":{"android":"levelo://app?vid=3070c640-07d6-40c9-95a3-a00f24995dc9","ios":"levelo://app?vid=3070c640-07d6-40c9-95a3-a00f24995dc9"},"vehicle_type_id":"4","last_reported":1730718584,"current_range_meters":38800,"station_id":"ce4bh492rcd13ifvqdvg","pricing_plan_id":"cebpf4jnsgd1na2vs0mg"},{"bike_id":"ba25f597-89cc-40e3-85fe-a6d1f60acb12","system_id":"levelo_inurba_marseille","lat":43.29629,"lon":5.40591,"is_reserved":false,"is_disabled":false,"rental_uris":{"android":"levelo://app?vid=ba25f597-89cc-40e3-85fe-a6d1f60acb12","ios":"levelo://app?vid=ba25f597-89cc-40e3-85fe-a6d1f60acb12"},"vehicle_type_id":"4","last_reported":1730718584,"current_range_meters":37600,"station_id":"ce4bh0h2rcd13ifvqd60","pricing_plan_id":"cebpf4jnsgd1na2vs0mg"},{"bike_id":"0bf75fc2-2f26-4802-953f-374a41a5744c","system_id":"levelo_inurba_marseille","lat":43.27948,"lon":5.41044,"is_reserved":false,"is_disabled":false,"rental_uris":{"android":"levelo://app?vid=0bf75fc2-2f26-4802-953f-374a41a5744c","ios":"levelo://app?vid=0bf75fc2-2f26-4802-953f-374a41a5744c"},"vehicle_type_id":"4","last_reported":1730718584,"current_range_meters":26000,"station_id":"ce4bhnp2rcd13ifvqh0g","pricing_plan_id":"cebpf4jnsgd1na2vs0mg"},{"bike_id":"1e4f763b-eed0-4036-9bbe-2ffbd747890f","system_id":"levelo_inurba_marseille","lat":43.30959,"lon":5.39028,"is_reserved":false,"is_disabled":false,"rental_uris":{"android":"levelo://app?vid=1e4f763b-eed0-4036-9bbe-2ffbd747890f","ios":"levelo://app?vid=1e4f763b-eed0-4036-9bbe-2ffbd747890f"},"vehicle_type_id":"4","last_reported":1730718584,"current_range_meters":35200,"station_id":"ce4bgup2rcd13ifvqco0","pricing_plan_id":"cebpf4jnsgd1na2vs0mg"},{"bike_id":"3ea98146-e7ec-4434-906e-145512b44a69","system_id":"levelo_inurba_marseille","lat":43.30151,"lon":5.3742,"is_reserved":false,"is_disabled":false,"rental_uris":{"android":"levelo://app?vid=3ea98146-e7ec-4434-906e-145512b44a69","ios":"levelo://app?vid=3ea98146-e7ec-4434-906e-145512b44a69"},"vehicle_type_id":"4","last_reported":1730718584,"current_range_meters":36000,"station_id":"ce4bgs92rcd13ifvqcc0","pricing_plan_id":"cebpf4jnsgd1na2vs0mg"},{"bike_id":"38394bd9-7456-4425-abb3-097065681dee","system_id":"levelo_inurba_marseille","lat":43.2904,"lon":5.39958,"is_reserved":false,"is_disabled":false,"rental_uris":{"android":"levelo://app?vid=38394bd9-7456-4425-abb3-097065681dee","ios":"levelo://app?vid=38394bd9-7456-4425-abb3-097065681dee"},"vehicle_type_id":"4","last_reported":1730718584,"current_range_meters":38400,"station_id":"ce4bh392rcd13ifvqdm0","pricing_plan_id":"cebpf4jnsgd1na2vs0mg"},{"bike_id":"3a136821-bd06-4cab-b6da-b08ff12bb582","system_id":"levelo_inurba_marseille","lat":43.29424,"lon":5.38614,"is_reserved":false,"is_disabled":false,"rental_uris":{"android":"levelo://app?vid=3a136821-bd06-4cab-b6da-b08ff12bb582","ios":"levelo://app?vid=3a136821-bd06-4cab-b6da-b08ff12bb582"},"vehicle_type_id":"4","last_reported":1730718584,"current_range_meters":16400,"station_id":"ce4bh2h2rcd13ifvqdh0","pricing_plan_id":"cebpf4jnsgd1na2vs0mg"},{"bike_id":"d5de81a7-1d97-4d87-b55d-359dff98365a","system_id":"levelo_inurba_marseille","lat":43.28083,"lon":5.39662,"is_reserved":false,"is_disabled":false,"rental_uris":{"android":"levelo://app?vid=d5de81a7-1d97-4d87-b55d-359dff98365a","ios":"levelo://app?vid=d5de81a7-1d97-4d87-b55d-359dff98365a"},"vehicle_type_id":"4","last_reported":1730718584,"current_range_meters":22400,"station_id":"ce4bho12rcd13ifvqh2g","pricing_plan_id":"cebpf4jnsgd1na2vs0mg"},{"bike_id":"f761b98b-858b-4242-943f-5faf4a09ace9","system_id":"levelo_inurba_marseille","lat":43.27556,"lon":5.38424,"is_reserved":false,"is_disabled":false,"rental_uris":{"android":"levelo://app?vid=f761b98b-858b-4242-943f-5faf4a09ace9","ios":"levelo://app?vid=f761b98b-858b-4242-943f-5faf4a09ace9"},"vehicle_type_id":"4","last_reported":1730718584,"current_range_meters":33200,"station_id":"ce4bhh92rcd13ifvqfi0","pricing_plan_id":"cebpf4jnsgd1na2vs0mg"},{"bike_id":"d0dcbb3a-18eb-44e3-9933-f7f7f781950f","system_id":"levelo_inurba_marseille","lat":43.27204,"lon":5.39182,"is_reserved":false,"is_disabled":false,"rental_uris":{"android":"levelo://app?vid=d0dcbb3a-18eb-44e3-9933-f7f7f781950f","ios":"levelo://app?vid=d0dcbb3a-18eb-44e3-9933-f7f7f781950f"},"vehicle_type_id":"4","last_reported":1730718584,"current_range_meters":25600,"station_id":"ce4bhhp2rcd13ifvqfm0","pricing_plan_id":"cebpf4jnsgd1na2vs0mg"},{"bike_id":"a64a5ff0-f80b-4892-9926-9d135a50e0eb","system_id":"levelo_inurba_marseille","lat":43.30142,"lon":5.38063,"is_reserved":false,"is_disabled":false,"rental_uris":{"android":"levelo://app?vid=a64a5ff0-f80b-4892-9926-9d135a50e0eb","ios":"levelo://app?vid=a64a5ff0-f80b-4892-9926-9d135a50e0eb"},"vehicle_type_id":"4","last_reported":1730718584,"current_range_meters":16800,"station_id":"ce4bgjp2rcd13ifvqbh0","pricing_plan_id":"cebpf4jnsgd1na2vs0mg"},{"bike_id":"714dea4e-1707-4c77-a665-1761aea59e16","system_id":"levelo_inurba_marseille","lat":43.26801,"lon":5.40267,"is_reserved":false,"is_disabled":false,"rental_uris":{"android":"levelo://app?vid=714dea4e-1707-4c77-a665-1761aea59e16","ios":"levelo://app?vid=714dea4e-1707-4c77-a665-1761aea59e16"},"vehicle_type_id":"4","last_reported":1730718584,"current_range_meters":24000,"station_id":"ce501612rcd8frsf0b60","pricing_plan_id":"cebpf4jnsgd1na2vs0mg"},{"bike_id":"7d9ee8ba-656e-46e2-afbf-5eed9f48fbad","system_id":"levelo_inurba_marseille","lat":43.31225,"lon":5.36861,"is_reserved":false,"is_disabled":false,"rental_uris":{"android":"levelo://app?vid=7d9ee8ba-656e-46e2-afbf-5eed9f48fbad","ios":"levelo://app?vid=7d9ee8ba-656e-46e2-afbf-5eed9f48fbad"},"vehicle_type_id":"4","last_reported":1730718584,"current_range_meters":39200,"station_id":"ce4bgl92rcd13ifvqbq0","pricing_plan_id":"cebpf4jnsgd1na2vs0mg"},{"bike_id":"9cc0c0e0-f22e-422e-8353-f151445f4bd4","system_id":"levelo_inurba_marseille","lat":43.2979,"lon":5.38095,"is_reserved":false,"is_disabled":false,"rental_uris":{"android":"levelo://app?vid=9cc0c0e0-f22e-422e-8353-f151445f4bd4","ios":"levelo://app?vid=9cc0c0e0-f22e-422e-8353-f151445f4bd4"},"vehicle_type_id":"4","last_reported":1730718584,"current_range_meters":27200,"station_id":"ce4bgip2rcd13ifvqbb0","pricing_plan_id":"cebpf4jnsgd1na2vs0mg"},{"bike_id":"c0537801-5668-4203-98da-8ccde136e4ec","system_id":"levelo_inurba_marseille","lat":43.24807,"lon":5.37458,"is_reserved":false,"is_disabled":false,"rental_uris":{"android":"levelo://app?vid=c0537801-5668-4203-98da-8ccde136e4ec","ios":"levelo://app?vid=c0537801-5668-4203-98da-8ccde136e4ec"},"vehicle_type_id":"4","last_reported":1730718584,"current_range_meters":30400,"station_id":"ce4bhgh2rcd13ifvqfb0","pricing_plan_id":"cebpf4jnsgd1na2vs0mg"},{"bike_id":"cb81e8a1-f5c2-4c95-bfcd-076f7f535ffd","system_id":"levelo_inurba_marseille","lat":43.2973,"lon":5.37165,"is_reserved":false,"is_disabled":false,"rental_uris":{"android":"levelo://app?vid=cb81e8a1-f5c2-4c95-bfcd-076f7f535ffd","ios":"levelo://app?vid=cb81e8a1-f5c2-4c95-bfcd-076f7f535ffd"},"vehicle_type_id":"4","last_reported":1730718584,"current_range_meters":19600,"station_id":"","pricing_plan_id":"cebpf4jnsgd1na2vs0mg"},{"bike_id":"b002bdad-c1af-41c6-891d-1723b6bdf0d4","system_id":"levelo_inurba_marseille","lat":43.30967,"lon":5.39036,"is_reserved":false,"is_disabled":false,"rental_uris":{"android":"levelo://app?vid=b002bdad-c1af-41c6-891d-1723b6bdf0d4","ios":"levelo://app?vid=b002bdad-c1af-41c6-891d-1723b6bdf0d4"},"vehicle_type_id":"4","last_reported":1730718584,"current_range_meters":19600,"station_id":"ce4bgup2rcd13ifvqco0","pricing_plan_id":"cebpf4jnsgd1na2vs0mg"},{"bike_id":"5a5ca637-4a18-4597-b859-7ab9a6b224f3","system_id":"levelo_inurba_marseille","lat":43.2315,"lon":5.43714,"is_reserved":false,"is_disabled":false,"rental_uris":{"android":"levelo://app?vid=5a5ca637-4a18-4597-b859-7ab9a6b224f3","ios":"levelo://app?vid=5a5ca637-4a18-4597-b859-7ab9a6b224f3"},"vehicle_type_id":"4","last_reported":1730718584,"current_range_meters":9200,"station_id":"ce4bhmp2rcd13ifvqgog","pricing_plan_id":"cebpf4jnsgd1na2vs0mg"},{"bike_id":"01268264-f8ce-4852-84d1-e90a15dbb2ba","system_id":"levelo_inurba_marseille","lat":43.3205,"lon":5.41547,"is_reserved":false,"is_disabled":false,"rental_uris":{"android":"levelo://app?vid=01268264-f8ce-4852-84d1-e90a15dbb2ba","ios":"levelo://app?vid=01268264-f8ce-4852-84d1-e90a15dbb2ba"},"vehicle_type_id":"4","last_reported":1730718584,"current_range_meters":22000,"station_id":"ce4bhq92rcd13ifvqhkg","pricing_plan_id":"cebpf4jnsgd1na2vs0mg"},{"bike_id":"0e96aa8a-6651-4df6-8c72-fb29a760544e","system_id":"levelo_inurba_marseille","lat":43.29913,"lon":5.37471,"is_reserved":false,"is_disabled":false,"rental_uris":{"android":"levelo://app?vid=0e96aa8a-6651-4df6-8c72-fb29a760544e","ios":"levelo://app?vid=0e96aa8a-6651-4df6-8c72-fb29a760544e"},"vehicle_type_id":"4","last_reported":1730718584,"current_range_meters":21600,"station_id":"ce4bgjh2rcd13ifvqbg0","pricing_plan_id":"cebpf4jnsgd1na2vs0mg"},{"bike_id":"cf4c74d3-8a26-4e1d-999e-c0b7b9605364","system_id":"levelo_inurba_marseille","lat":43.29914,"lon":5.38139,"is_reserved":false,"is_disabled":false,"rental_uris":{"android":"levelo://app?vid=cf4c74d3-8a26-4e1d-999e-c0b7b9605364","ios":"levelo://app?vid=cf4c74d3-8a26-4e1d-999e-c0b7b9605364"},"vehicle_type_id":"4","last_reported":1730718584,"current_range_meters":37600,"station_id":"ce4bgj12rcd13ifvqbc0","pricing_plan_id":"cebpf4jnsgd1na2vs0mg"},{"bike_id":"335ca9fd-967d-414d-ae4f-f9703d0e8f09","system_id":"levelo_inurba_marseille","lat":43.28003,"lon":5.41667,"is_reserved":false,"is_disabled":false,"rental_uris":{"android":"levelo://app?vid=335ca9fd-967d-414d-ae4f-f9703d0e8f09","ios":"levelo://app?vid=335ca9fd-967d-414d-ae4f-f9703d0e8f09"},"vehicle_type_id":"4","last_reported":1730718584,"current_range_meters":26800,"station_id":"ce4bho12rcd13ifvqh1g","pricing_plan_id":"cebpf4jnsgd1na2vs0mg"},{"bike_id":"c2e5ff9a-9dd4-479a-9dd6-52948c6f960c","system_id":"levelo_inurba_marseille","lat":43.337568,"lon":5.374549,"is_reserved":false,"is_disabled":false,"rental_uris":{"android":"levelo://app?vid=c2e5ff9a-9dd4-479a-9dd6-52948c6f960c","ios":"levelo://app?vid=c2e5ff9a-9dd4-479a-9dd6-52948c6f960c"},"vehicle_type_id":"4","last_reported":1730718584,"current_range_meters":38000,"station_id":"","pricing_plan_id":"cebpf4jnsgd1na2vs0mg"},{"bike_id":"4c5875c5-3b40-4feb-9947-0393cd4f753a","system_id":"levelo_inurba_marseille","lat":43.30302,"lon":5.36892,"is_reserved":false,"is_disabled":false,"rental_uris":{"android":"levelo://app?vid=4c5875c5-3b40-4feb-9947-0393cd4f753a","ios":"levelo://app?vid=4c5875c5-3b40-4feb-9947-0393cd4f753a"},"vehicle_type_id":"4","last_reported":1730718584,"current_range_meters":33200,"station_id":"ce4bgqh2rcd13ifvqc5g","pricing_plan_id":"cebpf4jnsgd1na2vs0mg"},{"bike_id":"b1078aa1-07c9-43e0-baad-b05bfd4fd1d1","system_id":"levelo_inurba_marseille","lat":43.30529,"lon":5.36534,"is_reserved":false,"is_disabled":false,"rental_uris":{"android":"levelo://app?vid=b1078aa1-07c9-43e0-baad-b05bfd4fd1d1","ios":"levelo://app?vid=b1078aa1-07c9-43e0-baad-b05bfd4fd1d1"},"vehicle_type_id":"4","last_reported":1730718584,"current_range_meters":18800,"station_id":"ce4bgs12rcd13ifvqcag","pricing_plan_id":"cebpf4jnsgd1na2vs0mg"},{"bike_id":"a7ce3e07-385e-4247-9f14-8d58313f5c7d","system_id":"levelo_inurba_marseille","lat":43.3249,"lon":5.36574,"is_reserved":false,"is_disabled":false,"rental_uris":{"android":"levelo://app?vid=a7ce3e07-385e-4247-9f14-8d58313f5c7d","ios":"levelo://app?vid=a7ce3e07-385e-4247-9f14-8d58313f5c7d"},"vehicle_type_id":"4","last_reported":1730718584,"current_range_meters":28800,"station_id":"","pricing_plan_id":"cebpf4jnsgd1na2vs0mg"},{"bike_id":"b63470a3-afe7-437b-a108-7e37d58b9081","system_id":"levelo_inurba_marseille","lat":43.26934,"lon":5.38923,"is_reserved":false,"is_disabled":false,"rental_uris":{"android":"levelo://app?vid=b63470a3-afe7-437b-a108-7e37d58b9081","ios":"levelo://app?vid=b63470a3-afe7-437b-a108-7e37d58b9081"},"vehicle_type_id":"4","last_reported":1730718584,"current_range_meters":36400,"station_id":"ce4bhhh2rcd13ifvqfl0","pricing_plan_id":"cebpf4jnsgd1na2vs0mg"},{"bike_id":"177d27bf-5655-4b05-a49d-595b7faf5f84","system_id":"levelo_inurba_marseille","lat":43.32662,"lon":5.40991,"is_reserved":false,"is_disabled":false,"rental_uris":{"android":"levelo://app?vid=177d27bf-5655-4b05-a49d-595b7faf5f84","ios":"levelo://app?vid=177d27bf-5655-4b05-a49d-595b7faf5f84"},"vehicle_type_id":"4","last_reported":1730718584,"current_range_meters":25600,"station_id":"ce4bhpp2rcd13ifvqhgg","pricing_plan_id":"cebpf4jnsgd1na2vs0mg"},{"bike_id":"8e2c9e1b-c50b-4732-929e-e55139ef852d","system_id":"levelo_inurba_marseille","lat":43.26959,"lon":5.38635,"is_reserved":false,"is_disabled":false,"rental_uris":{"android":"levelo://app?vid=8e2c9e1b-c50b-4732-929e-e55139ef852d","ios":"levelo://app?vid=8e2c9e1b-c50b-4732-929e-e55139ef852d"},"vehicle_type_id":"4","last_reported":1730718584,"current_range_meters":38800,"station_id":"ce4bhh92rcd13ifvqfh0","pricing_plan_id":"cebpf4jnsgd1na2vs0mg"},{"bike_id":"b660520d-7bca-4b11-8965-e79652640606","system_id":"levelo_inurba_marseille","lat":43.32356,"lon":5.36752,"is_reserved":false,"is_disabled":false,"rental_uris":{"android":"levelo://app?vid=b660520d-7bca-4b11-8965-e79652640606","ios":"levelo://app?vid=b660520d-7bca-4b11-8965-e79652640606"},"vehicle_type_id":"4","last_reported":1730718584,"current_range_meters":8000,"station_id":"ce4bhsh2rcd13ifvqi2g","pricing_plan_id":"cebpf4jnsgd1na2vs0mg"},{"bike_id":"b1f425cc-b8c1-4021-86a2-2d0a01947b4e","system_id":"levelo_inurba_marseille","lat":43.2587,"lon":5.39898,"is_reserved":false,"is_disabled":false,"rental_uris":{"android":"levelo://app?vid=b1f425cc-b8c1-4021-86a2-2d0a01947b4e","ios":"levelo://app?vid=b1f425cc-b8c1-4021-86a2-2d0a01947b4e"},"vehicle_type_id":"4","last_reported":1730718584,"current_range_meters":4000,"station_id":"ce4bhl92rcd13ifvqghg","pricing_plan_id":"cebpf4jnsgd1na2vs0mg"},{"bike_id":"7b2daa43-2d7a-4e1a-b26e-724f64bf4f37","system_id":"levelo_inurba_marseille","lat":43.28422,"lon":5.34988,"is_reserved":false,"is_disabled":false,"rental_uris":{"android":"levelo://app?vid=7b2daa43-2d7a-4e1a-b26e-724f64bf4f37","ios":"levelo://app?vid=7b2daa43-2d7a-4e1a-b26e-724f64bf4f37"},"vehicle_type_id":"4","last_reported":1730718584,"current_range_meters":38400,"station_id":"ce4bhbh2rcd13ifvqepg","pricing_plan_id":"cebpf4jnsgd1na2vs0mg"},{"bike_id":"63a65b91-603b-4aa1-b0c4-693c0f219c31","system_id":"levelo_inurba_marseille","lat":43.2408,"lon":5.37757,"is_reserved":false,"is_disabled":false,"rental_uris":{"android":"levelo://app?vid=63a65b91-603b-4aa1-b0c4-693c0f219c31","ios":"levelo://app?vid=63a65b91-603b-4aa1-b0c4-693c0f219c31"},"vehicle_type_id":"4","last_reported":1730718584,"current_range_meters":32000,"station_id":"ce4bhnp2rcd13ifvqgvg","pricing_plan_id":"cebpf4jnsgd1na2vs0mg"},{"bike_id":"f5271804-b9d4-4c86-8e80-cd382767a853","system_id":"levelo_inurba_marseille","lat":43.27571,"lon":5.38423,"is_reserved":false,"is_disabled":false,"rental_uris":{"android":"levelo://app?vid=f5271804-b9d4-4c86-8e80-cd382767a853","ios":"levelo://app?vid=f5271804-b9d4-4c86-8e80-cd382767a853"},"vehicle_type_id":"4","last_reported":1730718584,"current_range_meters":33600,"station_id":"ce4bhh92rcd13ifvqfi0","pricing_plan_id":"cebpf4jnsgd1na2vs0mg"},{"bike_id":"cdce1c64-0f7f-4fb5-a603-95ef2412905f","system_id":"levelo_inurba_marseille","lat":43.26934,"lon":5.38919,"is_reserved":false,"is_disabled":false,"rental_uris":{"android":"levelo://app?vid=cdce1c64-0f7f-4fb5-a603-95ef2412905f","ios":"levelo://app?vid=cdce1c64-0f7f-4fb5-a603-95ef2412905f"},"vehicle_type_id":"4","last_reported":1730718584,"current_range_meters":28800,"station_id":"ce4bhhh2rcd13ifvqfl0","pricing_plan_id":"cebpf4jnsgd1na2vs0mg"},{"bike_id":"483875e9-68d0-44d0-9cf8-d75c8576fa5b","system_id":"levelo_inurba_marseille","lat":43.24074,"lon":5.37753,"is_reserved":false,"is_disabled":false,"rental_uris":{"android":"levelo://app?vid=483875e9-68d0-44d0-9cf8-d75c8576fa5b","ios":"levelo://app?vid=483875e9-68d0-44d0-9cf8-d75c8576fa5b"},"vehicle_type_id":"4","last_reported":1730718584,"current_range_meters":30000,"station_id":"ce4bhnp2rcd13ifvqgvg","pricing_plan_id":"cebpf4jnsgd1na2vs0mg"},{"bike_id":"7d0807df-aa4f-4091-9fcf-f0ec85d7fe69","system_id":"levelo_inurba_marseille","lat":43.29185,"lon":5.35793,"is_reserved":false,"is_disabled":false,"rental_uris":{"android":"levelo://app?vid=7d0807df-aa4f-4091-9fcf-f0ec85d7fe69","ios":"levelo://app?vid=7d0807df-aa4f-4091-9fcf-f0ec85d7fe69"},"vehicle_type_id":"4","last_reported":1730718584,"current_range_meters":18000,"station_id":"ce4bhb12rcd13ifvqel0","pricing_plan_id":"cebpf4jnsgd1na2vs0mg"},{"bike_id":"d0d6bad6-3100-4b7e-80b8-5b21ef1a16c2","system_id":"levelo_inurba_marseille","lat":43.31226,"lon":5.36851,"is_reserved":false,"is_disabled":false,"rental_uris":{"android":"levelo://app?vid=d0d6bad6-3100-4b7e-80b8-5b21ef1a16c2","ios":"levelo://app?vid=d0d6bad6-3100-4b7e-80b8-5b21ef1a16c2"},"vehicle_type_id":"4","last_reported":1730718584,"current_range_meters":6800,"station_id":"ce4bgl92rcd13ifvqbq0","pricing_plan_id":"cebpf4jnsgd1na2vs0mg"},{"bike_id":"353634c5-890c-413a-8504-1b45dd1caadb","system_id":"levelo_inurba_marseille","lat":43.27967,"lon":5.38725,"is_reserved":false,"is_disabled":false,"rental_uris":{"android":"levelo://app?vid=353634c5-890c-413a-8504-1b45dd1caadb","ios":"levelo://app?vid=353634c5-890c-413a-8504-1b45dd1caadb"},"vehicle_type_id":"4","last_reported":1730718584,"current_range_meters":17600,"station_id":"ce4bhg12rcd13ifvqf80","pricing_plan_id":"cebpf4jnsgd1na2vs0mg"},{"bike_id":"9a1c41a3-f55d-4915-aa7f-7fb054255dd0","system_id":"levelo_inurba_marseille","lat":43.26213,"lon":5.37441,"is_reserved":false,"is_disabled":false,"rental_uris":{"android":"levelo://app?vid=9a1c41a3-f55d-4915-aa7f-7fb054255dd0","ios":"levelo://app?vid=9a1c41a3-f55d-4915-aa7f-7fb054255dd0"},"vehicle_type_id":"4","last_reported":1730718584,"current_range_meters":22000,"station_id":"ce4bhgp2rcd13ifvqfc0","pricing_plan_id":"cebpf4jnsgd1na2vs0mg"},{"bike_id":"7030328a-edfe-4e0b-a1b1-f97055615cbe","system_id":"levelo_inurba_marseille","lat":43.29631,"lon":5.40592,"is_reserved":false,"is_disabled":false,"rental_uris":{"android":"levelo://app?vid=7030328a-edfe-4e0b-a1b1-f97055615cbe","ios":"levelo://app?vid=7030328a-edfe-4e0b-a1b1-f97055615cbe"},"vehicle_type_id":"4","last_reported":1730718584,"current_range_meters":12000,"station_id":"ce4bh0h2rcd13ifvqd60","pricing_plan_id":"cebpf4jnsgd1na2vs0mg"},{"bike_id":"87953497-0718-4edf-9fd9-38a5a46cc7f3","system_id":"levelo_inurba_marseille","lat":43.24076,"lon":5.3774,"is_reserved":false,"is_disabled":false,"rental_uris":{"android":"levelo://app?vid=87953497-0718-4edf-9fd9-38a5a46cc7f3","ios":"levelo://app?vid=87953497-0718-4edf-9fd9-38a5a46cc7f3"},"vehicle_type_id":"4","last_reported":1730718584,"current_range_meters":37600,"station_id":"ce4bhnp2rcd13ifvqgvg","pricing_plan_id":"cebpf4jnsgd1na2vs0mg"},{"bike_id":"eb1bb3ed-cbb8-4fd9-96d8-52c226f83b6c","system_id":"levelo_inurba_marseille","lat":43.29843,"lon":5.36274,"is_reserved":false,"is_disabled":false,"rental_uris":{"android":"levelo://app?vid=eb1bb3ed-cbb8-4fd9-96d8-52c226f83b6c","ios":"levelo://app?vid=eb1bb3ed-cbb8-4fd9-96d8-52c226f83b6c"},"vehicle_type_id":"4","last_reported":1730718584,"current_range_meters":38800,"station_id":"ce4bgpp2rcd13ifvqc3g","pricing_plan_id":"cebpf4jnsgd1na2vs0mg"},{"bike_id":"2ab439e5-80ab-4739-a233-9281aedfbcbb","system_id":"levelo_inurba_marseille","lat":43.25824,"lon":5.39434,"is_reserved":false,"is_disabled":false,"rental_uris":{"android":"levelo://app?vid=2ab439e5-80ab-4739-a233-9281aedfbcbb","ios":"levelo://app?vid=2ab439e5-80ab-4739-a233-9281aedfbcbb"},"vehicle_type_id":"4","last_reported":1730718584,"current_range_meters":11600,"station_id":"ce4bhip2rcd13ifvqft0","pricing_plan_id":"cebpf4jnsgd1na2vs0mg"},{"bike_id":"0c024f55-9e9f-4dde-8807-349d1463c02f","system_id":"levelo_inurba_marseille","lat":43.30098,"lon":5.39085,"is_reserved":false,"is_disabled":false,"rental_uris":{"android":"levelo://app?vid=0c024f55-9e9f-4dde-8807-349d1463c02f","ios":"levelo://app?vid=0c024f55-9e9f-4dde-8807-349d1463c02f"},"vehicle_type_id":"4","last_reported":1730718584,"current_range_meters":26000,"station_id":"ce4bh192rcd13ifvqdb0","pricing_plan_id":"cebpf4jnsgd1na2vs0mg"},{"bike_id":"4c8e72b5-aba7-4439-8dcc-1e2370b4bb8a","system_id":"levelo_inurba_marseille","lat":43.30792,"lon":5.43522,"is_reserved":false,"is_disabled":false,"rental_uris":{"android":"levelo://app?vid=4c8e72b5-aba7-4439-8dcc-1e2370b4bb8a","ios":"levelo://app?vid=4c8e72b5-aba7-4439-8dcc-1e2370b4bb8a"},"vehicle_type_id":"4","last_reported":1730718584,"current_range_meters":15200,"station_id":"ce4bhph2rcd13ifvqheg","pricing_plan_id":"cebpf4jnsgd1na2vs0mg"},{"bike_id":"d579d701-026d-417a-b833-12e2cbe8d1a7","system_id":"levelo_inurba_marseille","lat":43.23145,"lon":5.43714,"is_reserved":false,"is_disabled":false,"rental_uris":{"android":"levelo://app?vid=d579d701-026d-417a-b833-12e2cbe8d1a7","ios":"levelo://app?vid=d579d701-026d-417a-b833-12e2cbe8d1a7"},"vehicle_type_id":"4","last_reported":1730718584,"current_range_meters":24800,"station_id":"ce4bhmp2rcd13ifvqgog","pricing_plan_id":"cebpf4jnsgd1na2vs0mg"},{"bike_id":"76621f30-0b61-4abe-b2d3-bbb786758ecd","system_id":"levelo_inurba_marseille","lat":43.23971,"lon":5.36631,"is_reserved":false,"is_disabled":false,"rental_uris":{"android":"levelo://app?vid=76621f30-0b61-4abe-b2d3-bbb786758ecd","ios":"levelo://app?vid=76621f30-0b61-4abe-b2d3-bbb786758ecd"},"vehicle_type_id":"4","last_reported":1730718584,"current_range_meters":38800,"station_id":"ce4bhi12rcd13ifvqfp0","pricing_plan_id":"cebpf4jnsgd1na2vs0mg"},