{"last_updated":1730200089,"ttl":60,"version":"2.2","data":{"bikes":[{"bike_id":"d0b0a2fb-510e-455f-8d64-8ee752b317c9","system_id":"levelo_inurba_marseille","lat":43.31229,"lon":5.36856,"is_reserved":false,"is_disabled":false,"rental_uris":{"android":"levelo://app?vid=d0b0a2fb-510e-455f-8d64-8ee752b317c9","ios":"levelo://app?vid=d0b0a2fb-510e-455f-8d64-8ee752b317c9"},"vehicle_type_id":"4","last_reported":1730200089,"current_range_meters":34000,"station_id":"ce4bgl92rcd13ifvqbq0","pricing_plan_id":"cebpf4jnsgd1na2vs0mg"},{"bike_id":"57b602a8-c84e-4f60-b433-c10fcd1a9322","system_id":"levelo_inurba_marseille","lat":43.29849,"lon":5.36283,"is_reserved":false,"is_disabled":false,"rental_uris":{"android":"levelo://app?vid=57b602a8-c84e-4f60-b433-c10fcd1a9322","ios":"levelo://app?vid=57b602a8-c84e-4f60-b433-c10fcd1a9322"},"vehicle_type_id":"4","last_reported":1730200089,"current_range_meters":35600,"station_id":"ce4bgpp2rcd13ifvqc3g","pricing_plan_id":"cebpf4jnsgd1na2vs0mg"},{"bike_id":"6daefb7d-890b-4927-bca4-1e9b57c2727d","system_id":"levelo_inurba_marseille","lat":43.27179,"lon":5.40996,"is_reserved":false,"is_disabled":false,"rental_uris":{"android":"levelo://app?vid=6daefb7d-890b-4927-bca4-1e9b57c2727d","ios":"levelo://app?vid=6daefb7d-890b-4927-bca4-1e9b57c2727d"},"vehicle_type_id":"4","last_reported":1730200089,"current_range_meters":8000,"station_id":"ce4bhl12rcd13ifvqgf0","pricing_plan_id":"cebpf4jnsgd1na2vs0mg"},{"bike_id":"4412fcda-f252-4c84-82b4-cfcfbd45622b","system_id":"levelo_inurba_marseille","lat":43.29894,"lon":5.43658,"is_reserved":false,"is_disabled":false,"rental_uris":{"android":"levelo://app?vid=4412fcda-f252-4c84-82b4-cfcfbd45622b","ios":"levelo://app?vid=4412fcda-f252-4c84-82b4-cfcfbd45622b"},"vehicle_type_id":"4","last_reported":1730200089,"current_range_meters":40000,"station_id":"ce4bhpp2rcd13ifvqhfg","pricing_plan_id":"cebpf4jnsgd1na2vs0mg"},{"bike_id":"7728c6cd-92bf-48f0-9848-309e67c38641","system_id":"levelo_inurba_marseille","lat":43.322901,"lon":5.382797,"is_reserved":false,"is_disabled":false,"rental_uris":{"android":"levelo://app?vid=7728c6cd-92bf-48f0-9848-309e67c38641","ios":"levelo://app?vid=7728c6cd-92bf-48f0-9848-309e67c38641"},"vehicle_type_id":"4","last_reported":1730200089,"current_range_meters":38800,"station_id":"ce4bhr12rcd13ifvqhqg","pricing_plan_id":"cebpf4jnsgd1na2vs0mg"},{"bike_id":"89146a8e-4b67-409d-b7c9-de2fbe50837a","system_id":"levelo_inurba_marseille","lat":43.24176,"lon":5.39729,"is_reserved":false,"is_disabled":false,"rental_uris":{"android":"levelo://app?vid=89146a8e-4b67-409d-b7c9-de2fbe50837a","ios":"levelo://app?vid=89146a8e-4b67-409d-b7c9-de2fbe50837a"},"vehicle_type_id":"4","last_reported":1730200089,"current_range_meters":29600,"station_id":"ce4bhn12rcd13ifvqgpg","pricing_plan_id":"cebpf4jnsgd1na2vs0mg"},{"bike_id":"17262d5d-829f-4d6c-9a2a-fa24d903f484","system_id":"levelo_inurba_marseille","lat":43.30936,"lon":5.40145,"is_reserved":false,"is_disabled":false,"rental_uris":{"android":"levelo://app?vid=17262d5d-829f-4d6c-9a2a-fa24d903f484","ios":"levelo://app?vid=17262d5d-829f-4d6c-9a2a-fa24d903f484"},"vehicle_type_id":"4","last_reported":1730200089,"current_range_meters":24000,"station_id":"ce4bgvp2rcd13ifvqct0","pricing_plan_id":"cebpf4jnsgd1na2vs0mg"},{"bike_id":"7019b8ca-f923-42f4-b767-30d6c2983305","system_id":"levelo_inurba_marseille","lat":43.25102,"lon":5.40324,"is_reserved":false,"is_disabled":false,"rental_uris":{"android":"levelo://app?vid=7019b8ca-f923-42f4-b767-30d6c2983305","ios":"levelo://app?vid=7019b8ca-f923-42f4-b767-30d6c2983305"},"vehicle_type_id":"4","last_reported":1730200089,"current_range_meters":38800,"station_id":"ce4bhlh2rcd13ifvqgig","pricing_plan_id":"cebpf4jnsgd1na2vs0mg"},{"bike_id":"9cd28ed1-51d4-469f-80b1-db1aa7224fd9","system_id":"levelo_inurba_marseille","lat":43.31888,"lon":5.40735,"is_reserved":false,"is_disabled":false,"rental_uris":{"android":"levelo://app?vid=9cd28ed1-51d4-469f-80b1-db1aa7224fd9","ios":"levelo://app?vid=9cd28ed1-51d4-469f-80b1-db1aa7224fd9"},"vehicle_type_id":"4","last_reported":1730200089,"current_range_meters":36400,"station_id":"ce4bhq12rcd13ifvqhig","pricing_plan_id":"cebpf4jnsgd1na2vs0mg"},{"bike_id":"3ca0b335-dbf8-4581-818c-6ddd6394e456","system_id":"levelo_inurba_marseille","lat":43.30215,"lon":5.36621,"is_reserved":false,"is_disabled":false,"rental_uris":{"android":"levelo://app?vid=3ca0b335-dbf8-4581-818c-6ddd6394e456","ios":"levelo://app?vid=3ca0b335-dbf8-4581-818c-6ddd6394e456"},"vehicle_type_id":"4","last_reported":1730200089,"current_range_meters":22000,"station_id":"ce4bgrh2rcd13ifvqc8g","pricing_plan_id":"cebpf4jnsgd1na2vs0mg"},{"bike_id":"a6673e84-25f3-484d-8b51-de23ea8df9e3","system_id":"levelo_inurba_marseille","lat":43.27993,"lon":5.41664,"is_reserved":false,"is_disabled":false,"rental_uris":{"android":"levelo://app?vid=a6673e84-25f3-484d-8b51-de23ea8df9e3","ios":"levelo://app?vid=a6673e84-25f3-484d-8b51-de23ea8df9e3"},"vehicle_type_id":"4","last_reported":1730200089,"current_range_meters":23200,"station_id":"ce4bho12rcd13ifvqh1g","pricing_plan_id":"cebpf4jnsgd1na2vs0mg"},{"bike_id":"93666dc8-e685-4980-aa7f-a56d38448bbd","system_id":"levelo_inurba_marseille","lat":43.31229,"lon":5.36857,"is_reserved":false,"is_disabled":false,"rental_uris":{"android":"levelo://app?vid=93666dc8-e685-4980-aa7f-a56d38448bbd","ios":"levelo://app?vid=93666dc8-e685-4980-aa7f-a56d38448bbd"},"vehicle_type_id":"4","last_reported":1730200089,"current_range_meters":24000,"station_id":"ce4bgl92rcd13ifvqbq0","pricing_plan_id":"cebpf4jnsgd1na2vs0mg"},{"bike_id":"c279282d-2cf0-4b7b-8197-61307ea2437e","system_id":"levelo_inurba_marseille","lat":43.29004,"lon":5.35602,"is_reserved":false,"is_disabled":false,"rental_uris":{"android":"levelo://app?vid=c279282d-2cf0-4b7b-8197-61307ea2437e","ios":"levelo://app?vid=c279282d-2cf0-4b7b-8197-61307ea2437e"},"vehicle_type_id":"4","last_reported":1730200089,"current_range_meters":38800,"station_id":"ce4bhb92rcd13ifvqen0","pricing_plan_id":"cebpf4jnsgd1na2vs0mg"},{"bike_id":"4efc610e-02b4-467c-acf9-9ee68f6b7bf5","system_id":"levelo_inurba_marseille","lat":43.23196,"lon":5.35544,"is_reserved":false,"is_disabled":false,"rental_uris":{"android":"levelo://app?vid=4efc610e-02b4-467c-acf9-9ee68f6b7bf5","ios":"levelo://app?vid=4efc610e-02b4-467c-acf9-9ee68f6b7bf5"},"vehicle_type_id":"4","last_reported":1730200089,"current_range_meters":38800,"station_id":"ce4bhu92rcd13ifvqi70","pricing_plan_id":"cebpf4jnsgd1na2vs0mg"},{"bike_id":"96061fce-5a2e-4708-a678-7cbb7ad799a5","system_id":"levelo_inurba_marseille","lat":43.27329,"lon":5.39074,"is_reserved":false,"is_disabled":false,"rental_uris":{"android":"levelo://app?vid=96061fce-5a2e-4708-a678-7cbb7ad799a5","ios":"levelo://app?vid=96061fce-5a2e-4708-a678-7cbb7ad799a5"},"vehicle_type_id":"4","last_reported":1730200089,"current_range_meters":38400,"station_id":"ce4bhgp2rcd13ifvqfe0","pricing_plan_id":"cebpf4jnsgd1na2vs0mg"},{"bike_id":"960d455d-56ea-41f6-9c69-d1294353e87b","system_id":"levelo_inurba_marseille","lat":43.32488,"lon":5.36556,"is_reserved":false,"is_disabled":false,"rental_uris":{"android":"levelo://app?vid=960d455d-56ea-41f6-9c69-d1294353e87b","ios":"levelo://app?vid=960d455d-56ea-41f6-9c69-d1294353e87b"},"vehicle_type_id":"4","last_reported":1730200089,"current_range_meters":29600,"station_id":"ce4bhs12rcd13ifvqhvg","pricing_plan_id":"cebpf4jnsgd1na2vs0mg"},{"bike_id":"ee05755e-a937-4bb6-8a00-090a00e75ae8","system_id":"levelo_inurba_marseille","lat":43.30536,"lon":5.36698,"is_reserved":false,"is_disabled":false,"rental_uris":{"android":"levelo://app?vid=ee05755e-a937-4bb6-8a00-090a00e75ae8","ios":"levelo://app?vid=ee05755e-a937-4bb6-8a00-090a00e75ae8"},"vehicle_type_id":"4","last_reported":1730200089,"current_range_meters":37600,"station_id":"ce4bgrp2rcd13ifvqc9g","pricing_plan_id":"cebpf4jnsgd1na2vs0mg"},{"bike_id":"5cc952ca-0add-48fb-8412-d176e8a159b2","system_id":"levelo_inurba_marseille","lat":43.29903,"lon":5.3814,"is_reserved":false,"is_disabled":false,"rental_uris":{"android":"levelo://app?vid=5cc952ca-0add-48fb-8412-d176e8a159b2","ios":"levelo://app?vid=5cc952ca-0add-48fb-8412-d176e8a159b2"},"vehicle_type_id":"4","last_reported":1730200089,"current_range_meters":39200,"station_id":"ce4bgj12rcd13ifvqbc0","pricing_plan_id":"cebpf4jnsgd1na2vs0mg"},{"bike_id":"bf702446-ecd6-4a0e-824c-a67a1e1a9064","system_id":"levelo_inurba_marseille","lat":43.30092,"lon":5.3907,"is_reserved":false,"is_disabled":false,"rental_uris":{"android":"levelo://app?vid=bf702446-ecd6-4a0e-824c-a67a1e1a9064","ios":"levelo://app?vid=bf702446-ecd6-4a0e-824c-a67a1e1a9064"},"vehicle_type_id":"4","last_reported":1730200089,"current_range_meters":37600,"station_id":"ce4bh192rcd13ifvqdb0","pricing_plan_id":"cebpf4jnsgd1na2vs0mg"},{"bike_id":"bbf8802d-44dc-4bc5-8e85-218d8925f155","system_id":"levelo_inurba_marseille","lat":43.22935,"lon":5.35374,"is_reserved":false,"is_disabled":false,"rental_uris":{"android":"levelo://app?vid=bbf8802d-44dc-4bc5-8e85-218d8925f155","ios":"levelo://app?vid=bbf8802d-44dc-4bc5-8e85-218d8925f155"},"vehicle_type_id":"4","last_reported":1730200089,"current_range_meters":36800,"station_id":"cpo3532slgdg3j2ikp40","pricing_plan_id":"cebpf4jnsgd1na2vs0mg"},{"bike_id":"b2db73ba-e1ab-4e5c-bfa0-36d11f75c91b","system_id":"levelo_inurba_marseille","lat":43.26202,"lon":5.37928,"is_reserved":false,"is_disabled":false,"rental_uris":{"android":"levelo://app?vid=b2db73ba-e1ab-4e5c-bfa0-36d11f75c91b","ios":"levelo://app?vid=b2db73ba-e1ab-4e5c-bfa0-36d11f75c91b"},"vehicle_type_id":"4","last_reported":1730200089,"current_range_meters":39200,"station_id":"ce4bhjp2rcd13ifvqg90","pricing_plan_id":"cebpf4jnsgd1na2vs0mg"},{"bike_id":"8e1cf6e1-b26f-4ff5-aadf-710f6284a59f","system_id":"levelo_inurba_marseille","lat":43.28077,"lon":5.39622,"is_reserved":false,"is_disabled":false,"rental_uris":{"android":"levelo://app?vid=8e1cf6e1-b26f-4ff5-aadf-710f6284a59f","ios":"levelo://app?vid=8e1cf6e1-b26f-4ff5-aadf-710f6284a59f"},"vehicle_type_id":"4","last_reported":1730200089,"current_range_meters":39200,"station_id":"ce4bho12rcd13ifvqh2g","pricing_plan_id":"cebpf4jnsgd1na2vs0mg"},{"bike_id":"a3e8244e-561e-4359-a446-94df17fdbec9","system_id":"levelo_inurba_marseille","lat":43.27315,"lon":5.39088,"is_reserved":false,"is_disabled":false,"rental_uris":{"android":"levelo://app?vid=a3e8244e-561e-4359-a446-94df17fdbec9","ios":"levelo://app?vid=a3e8244e-561e-4359-a446-94df17fdbec9"},"vehicle_type_id":"4","last_reported":1730200089,"current_range_meters":33200,"station_id":"ce4bhgp2rcd13ifvqfe0","pricing_plan_id":"cebpf4jnsgd1na2vs0mg"},{"bike_id":"0a61a3d2-6641-4f3b-873d-011bf5852eb2","system_id":"levelo_inurba_marseille","lat":43.27979,"lon":5.38742,"is_reserved":false,"is_disabled":false,"rental_uris":{"android":"levelo://app?vid=0a61a3d2-6641-4f3b-873d-011bf5852eb2","ios":"levelo://app?vid=0a61a3d2-6641-4f3b-873d-011bf5852eb2"},"vehicle_type_id":"4","last_reported":1730200089,"current_range_meters":32800,"station_id":"ce4bhg12rcd13ifvqf80","pricing_plan_id":"cebpf4jnsgd1na2vs0mg"},{"bike_id":"8422bad2-f91d-4a87-addf-0641262800cd","system_id":"levelo_inurba_marseille","lat":43.23155,"lon":5.437,"is_reserved":false,"is_disabled":false,"rental_uris":{"android":"levelo://app?vid=8422bad2-f91d-4a87-addf-0641262800cd","ios":"levelo://app?vid=8422bad2-f91d-4a87-addf-0641262800cd"},"vehicle_type_id":"4","last_reported":1730200089,"current_range_meters":30800,"station_id":"ce4bhmp2rcd13ifvqgog","pricing_plan_id":"cebpf4jnsgd1na2vs0mg"},{"bike_id":"2311e58d-3e7f-4adc-8f2c-6edbe4f52aa3","system_id":"levelo_inurba_marseille","lat":43.29555,"lon":5.4228,"is_reserved":false,"is_disabled":false,"rental_uris":{"android":"levelo://app?vid=2311e58d-3e7f-4adc-8f2c-6edbe4f52aa3","ios":"levelo://app?vid=2311e58d-3e7f-4adc-8f2c-6edbe4f52aa3"},"vehicle_type_id":"4","last_reported":1730200089,"current_range_meters":32000,"station_id":"ce4bhph2rcd13ifvqhdg","pricing_plan_id":"cebpf4jnsgd1na2vs0mg"},{"bike_id":"bdf63b9f-8930-45e7-8177-b607568d23e7","system_id":"levelo_inurba_marseille","lat":43.30537,"lon":5.36689,"is_reserved":false,"is_disabled":false,"rental_uris":{"android":"levelo://app?vid=bdf63b9f-8930-45e7-8177-b607568d23e7","ios":"levelo://app?vid=bdf63b9f-8930-45e7-8177-b607568d23e7"},"vehicle_type_id":"4","last_reported":1730200089,"current_range_meters":38400,"station_id":"ce4bgrp2rcd13ifvqc9g","pricing_plan_id":"cebpf4jnsgd1na2vs0mg"},{"bike_id":"d465b022-0f90-4137-b136-33e7180f8126","system_id":"levelo_inurba_marseille","lat":43.31882,"lon":5.40736,"is_reserved":false,"is_disabled":false,"rental_uris":{"android":"levelo://app?vid=d465b022-0f90-4137-b136-33e7180f8126","ios":"levelo://app?vid=d465b022-0f90-4137-b136-33e7180f8126"},"vehicle_type_id":"4","last_reported":1730200089,"current_range_meters":20400,"station_id":"ce4bhq12rcd13ifvqhig","pricing_plan_id":"cebpf4jnsgd1na2vs0mg"},{"bike_id":"d2534b32-8221-4fe6-a00d-d48d5f027dba","system_id":"levelo_inurba_marseille","lat":43.29786,"lon":5.37098,"is_reserved":false,"is_disabled":false,"rental_uris":{"android":"levelo://app?vid=d2534b32-8221-4fe6-a00d-d48d5f027dba","ios":"levelo://app?vid=d2534b32-8221-4fe6-a00d-d48d5f027dba"},"vehicle_type_id":"4","last_reported":1730200089,"current_range_meters":28800,"station_id":"ce4bgop2rcd13ifvqc1g","pricing_plan_id":"cebpf4jnsgd1na2vs0mg"},{"bike_id":"889677b3-2fc6-41f0-a7f0-fec512f6b995","system_id":"levelo_inurba_marseille","lat":43.22934,"lon":5.35375,"is_reserved":false,"is_disabled":false,"rental_uris":{"android":"levelo://app?vid=889677b3-2fc6-41f0-a7f0-fec512f6b995","ios":"levelo://app?vid=889677b3-2fc6-41f0-a7f0-fec512f6b995"},"vehicle_type_id":"4","last_reported":1730200089,"current_range_meters":38000,"station_id":"cpo3532slgdg3j2ikp40","pricing_plan_id":"cebpf4jnsgd1na2vs0mg"},{"bike_id":"01df9339-677a-41cd-93b8-16675ea33e9d","system_id":"levelo_inurba_marseille","lat":43.28476,"lon":5.359252,"is_reserved":false,"is_disabled":false,"rental_uris":{"android":"levelo://app?vid=01df9339-677a-41cd-93b8-16675ea33e9d","ios":"levelo://app?vid=01df9339-677a-41cd-93b8-16675ea33e9d"},"vehicle_type_id":"4","last_reported":1730200089,"current_range_meters":38000,"station_id":"ce4bhah2rcd13ifvqei0","pricing_plan_id":"cebpf4jnsgd1na2vs0mg"},{"bike_id":"3202d1e7-e9d1-4e10-92a2-56884a4352a5","system_id":"levelo_inurba_marseille","lat":43.28938,"lon":5.3964,"is_reserved":false,"is_disabled":false,"rental_uris":{"android":"levelo://app?vid=3202d1e7-e9d1-4e10-92a2-56884a4352a5","ios":"levelo://app?vid=3202d1e7-e9d1-4e10-92a2-56884a4352a5"},"vehicle_type_id":"4","last_reported":1730200089,"current_range_meters":22000,"station_id":"ce4bh3h2rcd13ifvqdn0","pricing_plan_id":"cebpf4jnsgd1na2vs0mg"},{"bike_id":"1a01e51f-80b9-45b2-8546-6f6668da116a","system_id":"levelo_inurba_marseille","lat":43.25937,"lon":5.40896,"is_reserved":false,"is_disabled":false,"rental_uris":{"android":"levelo://app?vid=1a01e51f-80b9-45b2-8546-6f6668da116a","ios":"levelo://app?vid=1a01e51f-80b9-45b2-8546-6f6668da116a"},"vehicle_type_id":"4","last_reported":1730200089,"current_range_meters":35200,"station_id":"ce4bhm92rcd13ifvqglg","pricing_plan_id":"cebpf4jnsgd1na2vs0mg"},{"bike_id":"70bb78fe-4bef-4d56-a833-affc0bdfc9f3","system_id":"levelo_inurba_marseille","lat":43.23195,"lon":5.35554,"is_reserved":false,"is_disabled":false,"rental_uris":{"android":"levelo://app?vid=70bb78fe-4bef-4d56-a833-affc0bdfc9f3","ios":"levelo://app?vid=70bb78fe-4bef-4d56-a833-affc0bdfc9f3"},"vehicle_type_id":"4","last_reported":1730200089,"current_range_meters":38800,"station_id":"ce4bhu92rcd13ifvqi70","pricing_plan_id":"cebpf4jnsgd1na2vs0mg"},{"bike_id":"dee905d2-53f5-448d-93ad-07374654db11","system_id":"levelo_inurba_marseille","lat":43.29678,"lon":5.37288,"is_reserved":false,"is_disabled":false,"rental_uris":{"android":"levelo://app?vid=dee905d2-53f5-448d-93ad-07374654db11","ios":"levelo://app?vid=dee905d2-53f5-448d-93ad-07374654db11"},"vehicle_type_id":"4","last_reported":1730200089,"current_range_meters":11200,"station_id":"ce4bgk12rcd13ifvqbj0","pricing_plan_id":"cebpf4jnsgd1na2vs0mg"},{"bike_id":"7d059a43-bb3c-4555-9e51-db21365b796b","system_id":"levelo_inurba_marseille","lat":43.25935,"lon":5.40903,"is_reserved":false,"is_disabled":false,"rental_uris":{"android":"levelo://app?vid=7d059a43-bb3c-4555-9e51-db21365b796b","ios":"levelo://app?vid=7d059a43-bb3c-4555-9e51-db21365b796b"},"vehicle_type_id":"4","last_reported":1730200089,"current_range_meters":33200,"station_id":"ce4bhm92rcd13ifvqglg","pricing_plan_id":"cebpf4jnsgd1na2vs0mg"},{"bike_id":"587cf75b-ed99-428e-a288-b0792bfce2ad","system_id":"levelo_inurba_marseille","lat":43.29523,"lon":5.39033,"is_reserved":false,"is_disabled":false,"rental_uris":{"android":"levelo://app?vid=587cf75b-ed99-428e-a288-b0792bfce2ad","ios":"levelo://app?vid=587cf75b-ed99-428e-a288-b0792bfce2ad"},"vehicle_type_id":"4","last_reported":1730200089,"current_range_meters":36400,"station_id":"ce4bh3p2rcd13ifvqdp0","pricing_plan_id":"cebpf4jnsgd1na2vs0mg"},{"bike_id":"c5202c93-fa7d-440a-98a5-2daa5726ee19","system_id":"levelo_inurba_marseille","lat":43.28153,"lon":5.42648,"is_reserved":false,"is_disabled":false,"rental_uris":{"android":"levelo://app?vid=c5202c93-fa7d-440a-98a5-2daa5726ee19","ios":"levelo://app?vid=c5202c93-fa7d-440a-98a5-2daa5726ee19"},"vehicle_type_id":"4","last_reported":1730200089,"current_range_meters":35600,"station_id":"ce4bhnh2rcd13ifvqgug","pricing_plan_id":"cebpf4jnsgd1na2vs0mg"},{"bike_id":"954afce6-b8c0-4c4d-838f-423d489efa79","system_id":"levelo_inurba_marseille","lat":43.30881,"lon":5.37193,"is_reserved":false,"is_disabled":false,"rental_uris":{"android":"levelo://app?vid=954afce6-b8c0-4c4d-838f-423d489efa79","ios":"levelo://app?vid=954afce6-b8c0-4c4d-838f-423d489efa79"},"vehicle_type_id":"4","last_reported":1730200089,"current_range_meters":38800,"station_id":"ce4bguh2rcd13ifvqckg","pricing_plan_id":"cebpf4jnsgd1na2vs0mg"},{"bike_id":"3973ceb5-1b1a-46aa-be50-65b822965aae","system_id":"levelo_inurba_marseille","lat":43.25931,"lon":5.40907,"is_reserved":false,"is_disabled":false,"rental_uris":{"android":"levelo://app?vid=3973ceb5-1b1a-46aa-be50-65b822965aae","ios":"levelo://app?vid=3973ceb5-1b1a-46aa-be50-65b822965aae"},"vehicle_type_id":"4","last_reported":1730200089,"current_range_meters":20400,"station_id":"ce4bhm92rcd13ifvqglg","pricing_plan_id":"cebpf4jnsgd1na2vs0mg"},{"bike_id":"fe8d55a3-e101-4f0b-8418-3ec215e317fd","system_id":"levelo_inurba_marseille","lat":43.31083,"lon":5.42429,"is_reserved":false,"is_disabled":false,"rental_uris":{"android":"levelo://app?vid=fe8d55a3-e101-4f0b-8418-3ec215e317fd","ios":"levelo://app?vid=fe8d55a3-e101-4f0b-8418-3ec215e317fd"},"vehicle_type_id":"4","last_reported":1730200089,"current_range_meters":38000,"station_id":"ce4bhp92rcd13ifvqhag","pricing_plan_id":"cebpf4jnsgd1na2vs0mg"},{"bike_id":"185dcee3-8d36-4814-8cc0-e8b6ba138fdf","system_id":"levelo_inurba_marseille","lat":43.29615,"lon":5.37157,"is_reserved":false,"is_disabled":false,"rental_uris":{"android":"levelo://app?vid=185dcee3-8d36-4814-8cc0-e8b6ba138fdf","ios":"levelo://app?vid=185dcee3-8d36-4814-8cc0-e8b6ba138fdf"},"vehicle_type_id":"4","last_reported":1730200089,"current_range_meters":36800,"station_id":"ce4bgnh2rcd13ifvqc0g","pricing_plan_id":"cebpf4jnsgd1na2vs0mg"},{"bike_id":"cfa6cf15-679c-4872-9445-df7e29e269ac","system_id":"levelo_inurba_marseille","lat":43.29518,"lon":5.39039,"is_reserved":false,"is_disabled":false,"rental_uris":{"android":"levelo://app?vid=cfa6cf15-679c-4872-9445-df7e29e269ac","ios":"levelo://app?vid=cfa6cf15-679c-4872-9445-df7e29e269ac"},"vehicle_type_id":"4","last_reported":1730200089,"current_range_meters":24000,"station_id":"ce4bh3p2rcd13ifvqdp0","pricing_plan_id":"cebpf4jnsgd1na2vs0mg"},{"bike_id":"b6f18c1c-9478-4f09-a3a8-cb8635702213","system_id":"levelo_inurba_marseille","lat":43.3211,"lon":5.36765,"is_reserved":false,"is_disabled":false,"rental_uris":{"android":"levelo://app?vid=b6f18c1c-9478-4f09-a3a8-cb8635702213","ios":"levelo://app?vid=b6f18c1c-9478-4f09-a3a8-cb8635702213"},"vehicle_type_id":"4","last_reported":1730200089,"current_range_meters":37600,"station_id":"ce4bhrh2rcd13ifvqhug","pricing_plan_id":"cebpf4jnsgd1na2vs0mg"},{"bike_id":"1c36e968-b9ec-4e4e-a73e-52f85b4ded24","system_id":"levelo_inurba_marseille","lat":43.27169,"lon":5.40984,"is_reserved":false,"is_disabled":false,"rental_uris":{"android":"levelo://app?vid=1c36e968-b9ec-4e4e-a73e-52f85b4ded24","ios":"levelo://app?vid=1c36e968-b9ec-4e4e-a73e-52f85b4ded24"},"vehicle_type_id":"4","last_reported":1730200089,"current_range_meters":16000,"station_id":"ce4bhl12rcd13ifvqgf0","pricing_plan_id":"cebpf4jnsgd1na2vs0mg"},{"bike_id":"e625ddd5-61d5-441a-98c0-2154f83f35ae","system_id":"levelo_inurba_marseille","lat":43.23064,"lon":5.35489,"is_reserved":false,"is_disabled":false,"rental_uris":{"android":"levelo://app?vid=e625ddd5-61d5-441a-98c0-2154f83f35ae","ios":"levelo://app?vid=e625ddd5-61d5-441a-98c0-2154f83f35ae"},"vehicle_type_id":"4","last_reported":1730200089,"current_range_meters":20800,"station_id":"cpo3342slgdg3j2ifvpg","pricing_plan_id":"cebpf4jnsgd1na2vs0mg"},{"bike_id":"b7f9b6d0-c43d-460c-9d13-8f79fba12eb4","system_id":"levelo_inurba_marseille","lat":43.31496,"lon":5.37299,"is_reserved":false,"is_disabled":false,"rental_uris":{"android":"levelo://app?vid=b7f9b6d0-c43d-460c-9d13-8f79fba12eb4","ios":"levelo://app?vid=b7f9b6d0-c43d-460c-9d13-8f79fba12eb4"},"vehicle_type_id":"4","last_reported":1730200089,"current_range_meters":9600,"station_id":"ce4bgt12rcd13ifvqcd0","pricing_plan_id":"cebpf4jnsgd1na2vs0mg"},{"bike_id":"c5081d89-e03c-4862-a260-5f6086905af2","system_id":"levelo_inurba_marseille","lat":43.28271,"lon":5.35065,"is_reserved":false,"is_disabled":false,"rental_uris":{"android":"levelo://app?vid=c5081d89-e03c-4862-a260-5f6086905af2","ios":"levelo://app?vid=c5081d89-e03c-4862-a260-5f6086905af2"},"vehicle_type_id":"4","last_reported":1730200089,"current_range_meters":28800,"station_id":"ce4bhbp2rcd13ifvqerg","pricing_plan_id":"cebpf4jnsgd1na2vs0mg"},{"bike_id":"92adf987-4779-4b78-ad9c-8e29ab9175f3","system_id":"levelo_inurba_marseille","lat":43.23196,"lon":5.35557,"is_reserved":false,"is_disabled":false,"rental_uris":{"android":"levelo://app?vid=92adf987-4779-4b78-ad9c-8e29ab9175f3","ios":"levelo://app?vid=92adf987-4779-4b78-ad9c-8e29ab9175f3"},"vehicle_type_id":"4","last_reported":1730200089,"current_range_meters":19600,"station_id":"ce4bhu92rcd13ifvqi70","pricing_plan_id":"cebpf4jnsgd1na2vs0mg"},{"bike_id":"c63ef396-91d5-4bed-bc71-3b532c6892c2","system_id":"levelo_inurba_marseille","lat":43.25586,"lon":5.3823,"is_reserved":false,"is_disabled":false,"rental_uris":{"android":"levelo://app?vid=c63ef396-91d5-4bed-bc71-3b532c6892c2","ios":"levelo://app?vid=c63ef396-91d5-4bed-bc71-3b532c6892c2"},"vehicle_type_id":"4","last_reported":1730200089,"current_range_meters":38000,"station_id":"ce4bhih2rcd13ifvqfs0","pricing_plan_id":"cebpf4jnsgd1na2vs0mg"},{"bike_id":"8867a2c4-4169-479e-9238-935f6587bec8","system_id":"levelo_inurba_marseille","lat":43.29278,"lon":5.36848,"is_reserved":false,"is_disabled":false,"rental_uris":{"android":"levelo://app?vid=8867a2c4-4169-479e-9238-935f6587bec8","ios":"levelo://app?vid=8867a2c4-4169-479e-9238-935f6587bec8"},"vehicle_type_id":"4","last_reported":1730200089,"current_range_meters":38800,"station_id":"ce4bhbp2rcd13ifvqesg","pricing_plan_id":"cebpf4jnsgd1na2vs0mg"},{"bike_id":"f28cebc6-26d7-4196-a6c9-f46fcd43da38","system_id":"levelo_inurba_marseille","lat":43.30919,"lon":5.36851,"is_reserved":false,"is_disabled":false,"rental_uris":{"android":"levelo://app?vid=f28cebc6-26d7-4196-a6c9-f46fcd43da38","ios":"levelo://app?vid=f28cebc6-26d7-4196-a6c9-f46fcd43da38"},"vehicle_type_id":"4","last_reported":1730200089,"current_range_meters":19200,"station_id":"ce4bgn92rcd13ifvqbvg","pricing_plan_id":"cebpf4jnsgd1na2vs0mg"},{"bike_id":"c396cb77-8d25-4520-b221-db4ebf39e3a3","system_id":"levelo_inurba_marseille","lat":43.33739,"lon":5.37469,"is_reserved":false,"is_disabled":false,"rental_uris":{"android":"levelo://app?vid=c396cb77-8d25-4520-b221-db4ebf39e3a3","ios":"levelo://app?vid=c396cb77-8d25-4520-b221-db4ebf39e3a3"},"vehicle_type_id":"4","last_reported":1730200089,"current_range_meters":36400,"station_id":"","pricing_plan_id":"cebpf4jnsgd1na2vs0mg"},{"bike_id":"bdd4b560-7456-474a-8d43-7d179515bc00","system_id":"levelo_inurba_marseille","lat":43.33761,"lon":5.37467,"is_reserved":false,"is_disabled":false,"rental_uris":{"android":"levelo://app?vid=bdd4b560-7456-474a-8d43-7d179515bc00","ios":"levelo://app?vid=bdd4b560-7456-474a-8d43-7d179515bc00"},"vehicle_type_id":"4","last_reported":1730200089,"current_range_meters":38400,"station_id":"","pricing_plan_id":"cebpf4jnsgd1na2vs0mg"},{"bike_id":"d9752bf7-9408-4393-b436-e95811aed54f","system_id":"levelo_inurba_marseille","lat":43.29025,"lon":5.38142,"is_reserved":false,"is_disabled":false,"rental_uris":{"android":"levelo://app?vid=d9752bf7-9408-4393-b436-e95811aed54f","ios":"levelo://app?vid=d9752bf7-9408-4393-b436-e95811aed54f"},"vehicle_type_id":"4","last_reported":1730200089,"current_range_meters":36800,"station_id":"ce4bh4p2rcd13ifvqe1g","pricing_plan_id":"cebpf4jnsgd1na2vs0mg"},{"bike_id":"ff38b99f-d6ac-4422-a636-70aa22552253","system_id":"levelo_inurba_marseille","lat":43.23147,"lon":5.43711,"is_reserved":false,"is_disabled":false,"rental_uris":{"android":"levelo://app?vid=ff38b99f-d6ac-4422-a636-70aa22552253","ios":"levelo://app?vid=ff38b99f-d6ac-4422-a636-70aa22552253"},"vehicle_type_id":"4","last_reported":1730200089,"current_range_meters":8000,"station_id":"ce4bhmp2rcd13ifvqgog","pricing_plan_id":"cebpf4jnsgd1na2vs0mg"},{"bike_id":"85e98f67-1633-4146-9234-9225e500992d","system_id":"levelo_inurba_marseille","lat":43.24387,"lon":5.3705,"is_reserved":false,"is_disabled":false,"rental_uris":{"android":"levelo://app?vid=85e98f67-1633-4146-9234-9225e500992d","ios":"levelo://app?vid=85e98f67-1633-4146-9234-9225e500992d"},"vehicle_type_id":"4","last_reported":1730200089,"current_range_meters":17200,"station_id":"ce4bhhh2rcd13ifvqfk0","pricing_plan_id":"cebpf4jnsgd1na2vs0mg"},{"bike_id":"eab9ecc7-9085-459c-a4cf-9ae2ae1a387d","system_id":"levelo_inurba_marseille","lat":43.28347,"lon":5.38101,"is_reserved":false,"is_disabled":false,"rental_uris":{"android":"levelo://app?vid=eab9ecc7-9085-459c-a4cf-9ae2ae1a387d","ios":"levelo://app?vid=eab9ecc7-9085-459c-a4cf-9ae2ae1a387d"},"vehicle_type_id":"4","last_reported":1730200089,"current_range_meters":34000,"station_id":"ce4bhbp2rcd13ifvqerg","pricing_plan_id":"cebpf4jnsgd1na2vs0mg"},{"bike_id":"80bd0fde-fa5b-4610-9715-0aa0b66e077a","system_id":"levelo_inurba_marseille","lat":43.28471,"lon":5.38415,"is_reserved":false,"is_disabled":false,"rental_uris":{"android":"levelo://app?vid=80bd0fde-fa5b-4610-9715-0aa0b66e077a","ios":"levelo://app?vid=80bd0fde-fa5b-4610-9715-0aa0b66e077a"},"vehicle_type_id":"4","last_reported":1730200089,"current_range_meters":22800,"station_id":"ce4bh512rcd13ifvqe3g","pricing_plan_id":"cebpf4jnsgd1na2vs0mg"},{"bike_id":"325d7727-1746-41e3-8197-5a361619280d","system_id":"levelo_inurba_marseille","lat":43.31172,"lon":5.38706,"is_reserved":false,"is_disabled":false,"rental_uris":{"android":"levelo://app?vid=325d7727-1746-41e3-8197-5a361619280d","ios":"levelo://app?vid=325d7727-1746-41e3-8197-5a361619280d"},"vehicle_type_id":"4","last_reported":1730200089,"current_range_meters":19200,"station_id":"ce4bgv12rcd13ifvqcp0","pricing_plan_id":"cebpf4jnsgd1na2vs0mg"},{"bike_id":"3eacef56-e200-4054-9b0c-156c6ef1c7f9","system_id":"levelo_inurba_marseille","lat":43.32114,"lon":5.36768,"is_reserved":false,"is_disabled":false,"rental_uris":{"android":"levelo://app?vid=3eacef56-e200-4054-9b0c-156c6ef1c7f9","ios":"levelo://app?vid=3eacef56-e200-4054-9b0c-156c6ef1c7f9"},"vehicle_type_id":"4","last_reported":1730200089,"current_range_meters":37600,"station_id":"ce4bhrh2rcd13ifvqhug","pricing_plan_id":"cebpf4jnsgd1na2vs0mg"},{"bike_id":"0e6f47ea-ffaf-48d0-907a-7a28dc2c146f","system_id":"levelo_inurba_marseille","lat":43.25934,"lon":5.40903,"is_reserved":false,"is_disabled":false,"rental_uris":{"android":"levelo://app?vid=0e6f47ea-ffaf-48d0-907a-7a28dc2c146f","ios":"levelo://app?vid=0e6f47ea-ffaf-48d0-907a-7a28dc2c146f"},"vehicle_type_id":"4","last_reported":1730200089,"current_range_meters":32800,"station_id":"ce4bhm92rcd13ifvqglg","pricing_plan_id":"cebpf4jnsgd1na2vs0mg"},{"bike_id":"b9fcec2e-75f0-48ec-b19c-98fc4ee1c1ae","system_id":"levelo_inurba_marseille","lat":43.29008,"lon":5.35605,"is_reserved":false,"is_disabled":false,"rental_uris":{"android":"levelo://app?vid=b9fcec2e-75f0-48ec-b19c-98fc4ee1c1ae","ios":"levelo://app?vid=b9fcec2e-75f0-48ec-b19c-98fc4ee1c1ae"},"vehicle_type_id":"4","last_reported":1730200089,"current_range_meters":22800,"station_id":"ce4bhb92rcd13ifvqen0","pricing_plan_id":"cebpf4jnsgd1na2vs0mg"},{"bike_id":"8bea202a-b719-4be5-a825-91c8c8a8a149","system_id":"levelo_inurba_marseille","lat":43.28262,"lon":5.35059,"is_reserved":false,"is_disabled":false,"rental_uris":{"android":"levelo://app?vid=8bea202a-b719-4be5-a825-91c8c8a8a149","ios":"levelo://app?vid=8bea202a-b719-4be5-a825-91c8c8a8a149"},"vehicle_type_id":"4","last_reported":1730200089,"current_range_meters":16800,"station_id":"ce4bhbp2rcd13ifvqerg","pricing_plan_id":"cebpf4jnsgd1na2vs0mg"},{"bike_id":"8454811a-7cbf-4009-a3e8-df94e6fbe19d","system_id":"levelo_inurba_marseille","lat":43.30127,"lon":5.39874,"is_reserved":false,"is_disabled":false,"rental_uris":{"android":"levelo://app?vid=8454811a-7cbf-4009-a3e8-df94e6fbe19d","ios":"levelo://app?vid=8454811a-7cbf-4009-a3e8-df94e6fbe19d"},"vehicle_type_id":"4","last_reported":1730200089,"current_range_meters":10800,"station_id":"ce4bh0h2rcd13ifvqd40","pricing_plan_id":"cebpf4jnsgd1na2vs0mg"},{"bike_id":"04082076-512c-4e12-9a4c-384bc517f075","system_id":"levelo_inurba_marseille","lat":43.25824,"lon":5.39433,"is_reserved":false,"is_disabled":false,"rental_uris":{"android":"levelo://app?vid=04082076-512c-4e12-9a4c-384bc517f075","ios":"levelo://app?vid=04082076-512c-4e12-9a4c-384bc517f075"},"vehicle_type_id":"4","last_reported":1730200089,"current_range_meters":34800,"station_id":"ce4bhip2rcd13ifvqft0","pricing_plan_id":"cebpf4jnsgd1na2vs0mg"},{"bike_id":"089f05a4-f2ed-4a6e-8006-2d5b69ccee34","system_id":"levelo_inurba_marseille","lat":43.33608,"lon":5.4101,"is_reserved":false,"is_disabled":false,"rental_uris":{"android":"levelo://app?vid=089f05a4-f2ed-4a6e-8006-2d5b69ccee34","ios":"levelo://app?vid=089f05a4-f2ed-4a6e-8006-2d5b69ccee34"},"vehicle_type_id":"4","last_reported":1730200089,"current_range_meters":25600,"station_id":"ce4bhqh2rcd13ifvqhmg","pricing_plan_id":"cebpf4jnsgd1na2vs0mg"},{"bike_id":"c826926e-5cd5-4e92-8045-7b8e444b5141","system_id":"levelo_inurba_marseille","lat":43.28151,"lon":5.42644,"is_reserved":false,"is_disabled":false,"rental_uris":{"android":"levelo://app?vid=c826926e-5cd5-4e92-8045-7b8e444b5141","ios":"levelo://app?vid=c826926e-5cd5-4e92-8045-7b8e444b5141"},"vehicle_type_id":"4","last_reported":1730200089,"current_range_meters":39200,"station_id":"ce4bhnh2rcd13ifvqgug","pricing_plan_id":"cebpf4jnsgd1na2vs0mg"},{"bike_id":"a3d2f5f9-d16d-4984-bfac-6cfd62262114","system_id":"levelo_inurba_marseille","lat":43.25936,"lon":5.40896,"is_reserved":false,"is_disabled":false,"rental_uris":{"android":"levelo://app?vid=a3d2f5f9-d16d-4984-bfac-6cfd62262114","ios":"levelo://app?vid=a3d2f5f9-d16d-4984-bfac-6cfd62262114"},"vehicle_type_id":"4","last_reported":1730200089,"current_range_meters":31200,"station_id":"ce4bhm92rcd13ifvqglg","pricing_plan_id":"cebpf4jnsgd1na2vs0mg"},{"bike_id":"52bb4031-1271-477b-a485-d6c6e73c3263","system_id":"levelo_inurba_marseille","lat":43.30906,"lon":5.36847,"is_reserved":false,"is_disabled":false,"rental_uris":{"android":"levelo://app?vid=52bb4031-1271-477b-a485-d6c6e73c3263","ios":"levelo://app?vid=52bb4031-1271-477b-a485-d6c6e73c3263"},"vehicle_type_id":"4","last_reported":1730200089,"current_range_meters":38000,"station_id":"ce4bgn92rcd13ifvqbvg","pricing_plan_id":"cebpf4jnsgd1na2vs0mg"},{"bike_id":"3b2a9e4c-424f-4e3b-a9fe-b4feeea9e33f","system_id":"levelo_inurba_marseille","lat":43.27183,"lon":5.409905,"is_reserved":false,"is_disabled":false,"rental_uris":{"android":"levelo://app?vid=3b2a9e4c-424f-4e3b-a9fe-b4feeea9e33f","ios":"levelo://app?vid=3b2a9e4c-424f-4e3b-a9fe-b4feeea9e33f"},"vehicle_type_id":"4","last_reported":1730200089,"current_range_meters":38400,"station_id":"ce4bhl12rcd13ifvqgf0","pricing_plan_id":"cebpf4jnsgd1na2vs0mg"},{"bike_id":"b92f59bb-3035-407f-b1e7-0faffacd0cb5","system_id":"levelo_inurba_marseille","lat":43.29783,"lon":5.37097,"is_reserved":false,"is_disabled":false,"rental_uris":{"android":"levelo://app?vid=b92f59bb-3035-407f-b1e7-0faffacd0cb5","ios":"levelo://app?vid=b92f59bb-3035-407f-b1e7-0faffacd0cb5"},"vehicle_type_id":"4","last_reported":1730200089,"current_range_meters":36000,"station_id":"ce4bgop2rcd13ifvqc1g","pricing_plan_id":"cebpf4jnsgd1na2vs0mg"},{"bike_id":"eaaf851c-1cf1-42e5-b40f-71a27a57f758","system_id":"levelo_inurba_marseille","lat":43.25931,"lon":5.409,"is_reserved":false,"is_disabled":false,"rental_uris":{"android":"levelo://app?vid=eaaf851c-1cf1-42e5-b40f-71a27a57f758","ios":"levelo://app?vid=eaaf851c-1cf1-42e5-b40f-71a27a57f758"},"vehicle_type_id":"4","last_reported":1730200089,"current_range_meters":27200,"station_id":"ce4bhm92rcd13ifvqglg","pricing_plan_id":"cebpf4jnsgd1na2vs0mg"},{"bike_id":"64711851-e01b-494a-9fb3-4ce4aa17192b","system_id":"levelo_inurba_marseille","lat":43.26546,"lon":5.37286,"is_reserved":false,"is_disabled":false,"rental_uris":{"android":"levelo://app?vid=64711851-e01b-494a-9fb3-4ce4aa17192b","ios":"levelo://app?vid=64711851-e01b-494a-9fb3-4ce4aa17192b"},"vehicle_type_id":"4","last_reported":1730200089,"current_range_meters":20000,"station_id":"ce4bhg12rcd13ifvqf70","pricing_plan_id":"cebpf4jnsgd1na2vs0mg"},{"bike_id":"e58711fa-10f6-45dd-92af-ca00402b7e53","system_id":"levelo_inurba_marseille","lat":43.30912,"lon":5.36851,"is_reserved":false,"is_disabled":false,"rental_uris":{"android":"levelo://app?vid=e58711fa-10f6-45dd-92af-ca00402b7e53","ios":"levelo://app?vid=e58711fa-10f6-45dd-92af-ca00402b7e53"},"vehicle_type_id":"4","last_reported":1730200089,"current_range_meters":30400,"station_id":"ce4bgn92rcd13ifvqbvg","pricing_plan_id":"cebpf4jnsgd1na2vs0mg"},{"bike_id":"9f15d991-e1ab-4f34-9461-b9513c6eafc5","system_id":"levelo_inurba_marseille","lat":43.3014,"lon":5.37422,"is_reserved":false,"is_disabled":false,"rental_uris":{"android":"levelo://app?vid=9f15d991-e1ab-4f34-9461-b9513c6eafc5","ios":"levelo://app?vid=9f15d991-e1ab-4f34-9461-b9513c6eafc5"},"vehicle_type_id":"4","last_reported":1730200089,"current_range_meters":39200,"station_id":"ce4bgs92rcd13ifvqcc0","pricing_plan_id":"cebpf4jnsgd1na2vs0mg"},{"bike_id":"5f5d147c-aa27-4bc5-8489-9251a71dcef3","system_id":"levelo_inurba_marseille","lat":43.29611,"lon":5.37736,"is_reserved":false,"is_disabled":false,"rental_uris":{"android":"levelo://app?vid=5f5d147c-aa27-4bc5-8489-9251a71dcef3","ios":"levelo://app?vid=5f5d147c-aa27-4bc5-8489-9251a71dcef3"},"vehicle_type_id":"4","last_reported":1730200089,"current_range_meters":28000,"station_id":"ce4bgi92rcd13ifvqb90","pricing_plan_id":"cebpf4jnsgd1na2vs0mg"},{"bike_id":"e40111e4-4deb-41a5-ac02-7465c5223951","system_id":"levelo_inurba_marseille","lat":43.28635,"lon":5.38338,"is_reserved":false,"is_disabled":false,"rental_uris":{"android":"levelo://app?vid=e40111e4-4deb-41a5-ac02-7465c5223951","ios":"levelo://app?vid=e40111e4-4deb-41a5-ac02-7465c5223951"},"vehicle_type_id":"4","last_reported":1730200089,"current_range_meters":16800,"station_id":"ce4bh4p2rcd13ifvqe1g","pricing_plan_id":"cebpf4jnsgd1na2vs0mg"},{"bike_id":"c497513d-9d1d-4320-a1e3-875a8b21d4c5","system_id":"levelo_inurba_marseille","lat":43.27181,"lon":5.40996,"is_reserved":false,"is_disabled":false,"rental_uris":{"android":"levelo://app?vid=c497513d-9d1d-4320-a1e3-875a8b21d4c5","ios":"levelo://app?vid=c497513d-9d1d-4320-a1e3-875a8b21d4c5"},"vehicle_type_id":"4","last_reported":1730200089,"current_range_meters":37600,"station_id":"ce4bhl12rcd13ifvqgf0","pricing_plan_id":"cebpf4jnsgd1na2vs0mg"},{"bike_id":"180cf766-04a6-4b23-8e0d-a6a94abae818","system_id":"levelo_inurba_marseille","lat":43.320051,"lon":5.415827,"is_reserved":false,"is_disabled":false,"rental_uris":{"android":"levelo://app?vid=180cf766-04a6-4b23-8e0d-a6a94abae818","ios":"levelo://app?vid=180cf766-04a6-4b23-8e0d-a6a94abae818"},"vehicle_type_id":"4","last_reported":1730200089,"current_range_meters":26800,"station_id":"ce4bhq92rcd13ifvqhkg","pricing_plan_id":"cebpf4jnsgd1na2vs0mg"},{"bike_id":"f09b6f98-8f70-4e17-9b24-58d678c3f39f","system_id":"levelo_inurba_marseille","lat":43.32481,"lon":5.36571,"is_reserved":false,"is_disabled":false,"rental_uris":{"android":"levelo://app?vid=f09b6f98-8f70-4e17-9b24-58d678c3f39f","ios":"levelo://app?vid=f09b6f98-8f70-4e17-9b24-58d678c3f39f"},"vehicle_type_id":"4","last_reported":1730200089,"current_range_meters":11600,"station_id":"ce4bhs12rcd13ifvqhvg","pricing_plan_id":"cebpf4jnsgd1na2vs0mg"},{"bike_id":"97e354a0-fac7-448e-886b-3427a907ad2a","system_id":"levelo_inurba_marseille","lat":43.28842,"lon":5.39302,"is_reserved":false,"is_disabled":false,"rental_uris":{"android":"levelo://app?vid=97e354a0-fac7-448e-886b-3427a907ad2a","ios":"levelo://app?vid=97e354a0-fac7-448e-886b-3427a907ad2a"},"vehicle_type_id":"4","last_reported":1730200089,"current_range_meters":11200,"station_id":"ce4bh2p2rcd13ifvqdi0","pricing_plan_id":"cebpf4jnsgd1na2vs0mg"},{"bike_id":"4aa9ec8e-8a2f-4bf2-b664-653d737532aa","system_id":"levelo_inurba_marseille","lat":43.29552,"lon":5.42285,"is_reserved":false,"is_disabled":false,"rental_uris":{"android":"levelo://app?vid=4aa9ec8e-8a2f-4bf2-b664-653d737532aa","ios":"levelo://app?vid=4aa9ec8e-8a2f-4bf2-b664-653d737532aa"},"vehicle_type_id":"4","last_reported":1730200089,"current_range_meters":38800,"station_id":"ce4bhph2rcd13ifvqhdg","pricing_plan_id":"cebpf4jnsgd1na2vs0mg"},{"bike_id":"f0affa9a-d28b-4ca4-94a4-13cd212062f6","system_id":"levelo_inurba_marseille","lat":43.24178,"lon":5.39725,"is_reserved":false,"is_disabled":false,"rental_uris":{"android":"levelo://app?vid=f0affa9a-d28b-4ca4-94a4-13cd212062f6","ios":"levelo://app?vid=f0affa9a-d28b-4ca4-94a4-13cd212062f6"},"vehicle_type_id":"4","last_reported":1730200089,"current_range_meters":38800,"station_id":"ce4bhn12rcd13ifvqgpg","pricing_plan_id":"cebpf4jnsgd1na2vs0mg"},{"bike_id":"e21e40f4-0859-4036-9221-e55476a0a560","system_id":"levelo_inurba_marseille","lat":43.2959,"lon":5.36736,"is_reserved":false,"is_disabled":false,"rental_uris":{"android":"levelo://app?vid=e21e40f4-0859-4036-9221-e55476a0a560","ios":"levelo://app?vid=e21e40f4-0859-4036-9221-e55476a0a560"},"vehicle_type_id":"4","last_reported":1730200089,"current_range_meters":36800,"station_id":"ce4bgph2rcd13ifvqc2g","pricing_plan_id":"cebpf4jnsgd1na2vs0mg"},{"bike_id":"b38433bb-06df-4613-bb5e-47fa7ac4b100","system_id":"levelo_inurba_marseille","lat":43.30955,"lon":5.39042,"is_reserved":false,"is_disabled":false,"rental_uris":{"android":"levelo://app?vid=b38433bb-06df-4613-bb5e-47fa7ac4b100","ios":"levelo://app?vid=b38433bb-06df-4613-bb5e-47fa7ac4b100"},"vehicle_type_id":"4","last_reported":1730200089,"current_range_meters":8400,"station_id":"ce4bgup2rcd13ifvqco0","pricing_plan_id":"cebpf4jnsgd1na2vs0mg"},{"bike_id":"2da97c90-6ece-4ef7-9622-a2a459639b77","system_id":"levelo_inurba_marseille","lat":43.29555,"lon":5.42281,"is_reserved":false,"is_disabled":false,"rental_uris":{"android":"levelo://app?vid=2da97c90-6ece-4ef7-9622-a2a459639b77","ios":"levelo://app?vid=2da97c90-6ece-4ef7-9622-a2a459639b77"},"vehicle_type_id":"4","last_reported":1730200089,"current_range_meters":38800,"station_id":"ce4bhph2rcd13ifvqhdg","pricing_plan_id":"cebpf4jnsgd1na2vs0mg"},{"bike_id":"f3a16d88-6ee6-4671-9c89-50ae0df5be48","system_id":"levelo_inurba_marseille","lat":43.30547,"lon":5.36699,"is_reserved":false,"is_disabled":false,"rental_uris":{"android":"levelo://app?vid=f3a16d88-6ee6-4671-9c89-50ae0df5be48","ios":"levelo://app?vid=f3a16d88-6ee6-4671-9c89-50ae0df5be48"},"vehicle_type_id":"4","last_reported":1730200089,"current_range_meters":34000,"station_id":"ce4bgrp2rcd13ifvqc9g","pricing_plan_id":"cebpf4jnsgd1na2vs0mg"},{"bike_id":"6e9d5bb9-8b32-4126-a89e-1d8dfaa8d569","system_id":"levelo_inurba_marseille","lat":43.28159,"lon":5.42632,"is_reserved":false,"is_disabled":false,"rental_uris":{"android":"levelo://app?vid=6e9d5bb9-8b32-4126-a89e-1d8dfaa8d569","ios":"levelo://app?vid=6e9d5bb9-8b32-4126-a89e-1d8dfaa8d569"},"vehicle_type_id":"4","last_reported":1730200089,"current_range_meters":39200,"station_id":"ce4bhnh2rcd13ifvqgug","pricing_plan_id":"cebpf4jnsgd1na2vs0mg"},{"bike_id":"6f7c1063-f66c-4165-a6dd-8742ded8e91c","system_id":"levelo_inurba_marseille","lat":43.2815,"lon":5.42647,"is_reserved":false,"is_disabled":false,"rental_uris":{"android":"levelo://app?vid=6f7c1063-f66c-4165-a6dd-8742ded8e91c","ios":"levelo://app?vid=6f7c1063-f66c-4165-a6dd-8742ded8e91c"},"vehicle_type_id":"4","last_reported":1730200089,"current_range_meters":38000,"station_id":"ce4bhnh2rcd13ifvqgug","pricing_plan_id":"cebpf4jnsgd1na2vs0mg"},{"bike_id":"beb23b5e-e7e7-4099-86e2-3c0213b20913","system_id":"levelo_inurba_marseille","lat":43.29931,"lon":5.36533,"is_reserved":false,"is_disabled":false,"rental_uris":{"android":"levelo://app?vid=beb23b5e-e7e7-4099-86e2-3c0213b20913","ios":"levelo://app?vid=beb23b5e-e7e7-4099-86e2-3c0213b20913"},"vehicle_type_id":"4","last_reported":1730200089,"current_range_meters":30400,"station_id":"ce4bgm92rcd13ifvqbr0","pricing_plan_id":"cebpf4jnsgd1na2vs0mg"},{"bike_id":"be383dfd-f6e4-4514-be85-96c9b0d78716","system_id":"levelo_inurba_marseille","lat":43.23054,"lon":5.35494,"is_reserved":false,"is_disabled":false,"rental_uris":{"android":"levelo://app?vid=be383dfd-f6e4-4514-be85-96c9b0d78716","ios":"levelo://app?vid=be383dfd-f6e4-4514-be85-96c9b0d78716"},"vehicle_type_id":"4","last_reported":1730200089,"current_range_meters":32400,"station_id":"cpo3342slgdg3j2ifvpg","pricing_plan_id":"cebpf4jnsgd1na2vs0mg"},{"bike_id":"f163fea1-66b3-4f49-a0a2-118d4dccaf4e","system_id":"levelo_inurba_marseille","lat":43.29274,"lon":5.36839,"is_reserved":false,"is_disabled":false,"rental_uris":{"android":"levelo://app?vid=f163fea1-66b3-4f49-a0a2-118d4dccaf4e","ios":"levelo://app?vid=f163fea1-66b3-4f49-a0a2-118d4dccaf4e"},"vehicle_type_id":"4","last_reported":1730200089,"current_range_meters":36800,"station_id":"ce4bhbp2rcd13ifvqesg","pricing_plan_id":"cebpf4jnsgd1na2vs0mg"},{"bike_id":"b12425a9-456b-4240-9101-c3b9f8f5a488","system_id":"levelo_inurba_marseille","lat":43.32486,"lon":5.36573,"is_reserved":false,"is_disabled":false,"rental_uris":{"android":"levelo://app?vid=b12425a9-456b-4240-9101-c3b9f8f5a488","ios":"levelo://app?vid=b12425a9-456b-4240-9101-c3b9f8f5a488"},"vehicle_type_id":"4","last_reported":1730200089,"current_range_meters":38800,"station_id":"ce4bhs12rcd13ifvqhvg","pricing_plan_id":"cebpf4jnsgd1na2vs0mg"},{"bike_id":"6eadd10a-a6d8-410a-bf17-cb13ead6d052","system_id":"levelo_inurba_marseille","lat":43.27816,"lon":5.40719,"is_reserved":false,"is_disabled":false,"rental_uris":{"android":"levelo://app?vid=6eadd10a-a6d8-410a-bf17-cb13ead6d052","ios":"levelo://app?vid=6eadd10a-a6d8-410a-bf17-cb13ead6d052"},"vehicle_type_id":"4","last_reported":1730200089,"current_range_meters":11200,"station_id":"ce4bhnh2rcd13ifvqgtg","pricing_plan_id":"cebpf4jnsgd1na2vs0mg"},{"bike_id":"3587c9bc-d3f5-4a3e-86bb-219d71113e09","system_id":"levelo_inurba_marseille","lat":43.30549,"lon":5.36534,"is_reserved":false,"is_disabled":false,"rental_uris":{"android":"levelo://app?vid=3587c9bc-d3f5-4a3e-86bb-219d71113e09","ios":"levelo://app?vid=3587c9bc-d3f5-4a3e-86bb-219d71113e09"},"vehicle_type_id":"4","last_reported":1730200089,"current_range_meters":19200,"station_id":"ce4bgs12rcd13ifvqcag","pricing_plan_id":"cebpf4jnsgd1na2vs0mg"},{"bike_id":"9afc8807-f832-4417-bd03-3c2b914835d8","system_id":"levelo_inurba_marseille","lat":43.30601,"lon":5.37211,"is_reserved":false,"is_disabled":false,"rental_uris":{"android":"levelo://app?vid=9afc8807-f832-4417-bd03-3c2b914835d8","ios":"levelo://app?vid=9afc8807-f832-4417-bd03-3c2b914835d8"},"vehicle_type_id":"4","last_reported":1730200089,"current_range_meters":35600,"station_id":"ce4bgqh2rcd13ifvqc4g","pricing_plan_id":"cebpf4jnsgd1na2vs0mg"},{"bike_id":"13a63bea-5b5f-4e6f-a4ec-744d17cc2d2a","system_id":"levelo_inurba_marseille","lat":43.29023,"lon":5.38128,"is_reserved":false,"is_disabled":false,"rental_uris":{"android":"levelo://app?vid=13a63bea-5b5f-4e6f-a4ec-744d17cc2d2a","ios":"levelo://app?vid=13a63bea-5b5f-4e6f-a4ec-744d17cc2d2a"},"vehicle_type_id":"4","last_reported":1730200089,"current_range_meters":26000,"station_id":"ce4bh4p2rcd13ifvqe1g","pricing_plan_id":"cebpf4jnsgd1na2vs0mg"},{"bike_id":"04ae067b-bc3d-47e2-ae65-7e52335df52e","system_id":"levelo_inurba_marseille","lat":43.29901,"lon":5.37463,"is_reserved":false,"is_disabled":false,"rental_uris":{"android":"levelo://app?vid=04ae067b-bc3d-47e2-ae65-7e52335df52e","ios":"levelo://app?vid=04ae067b-bc3d-47e2-ae65-7e52335df52e"},"vehicle_type_id":"4","last_reported":1730200089,"current_range_meters":36400,"station_id":"ce4bgjh2rcd13ifvqbg0","pricing_plan_id":"cebpf4jnsgd1na2vs0mg"},{"bike_id":"3af184b2-4379-45ff-9c65-73bc96690fa2","system_id":"levelo_inurba_marseille","lat":43.3248,"lon":5.36573,"is_reserved":false,"is_disabled":false,"rental_uris":{"android":"levelo://app?vid=3af184b2-4379-45ff-9c65-73bc96690fa2","ios":"levelo://app?vid=3af184b2-4379-45ff-9c65-73bc96690fa2"},"vehicle_type_id":"4","last_reported":1730200089,"current_range_meters":31200,"station_id":"ce4bhs12rcd13ifvqhvg","pricing_plan_id":"cebpf4jnsgd1na2vs0mg"},{"bike_id":"eaee8ab2-76f5-4b37-b465-9eb26268ad5d","system_id":"levelo_inurba_marseille","lat":43.25938,"lon":5.40903,"is_reserved":false,"is_disabled":false,"rental_uris":{"android":"levelo://app?vid=eaee8ab2-76f5-4b37-b465-9eb26268ad5d","ios":"levelo://app?vid=eaee8ab2-76f5-4b37-b465-9eb26268ad5d"},"vehicle_type_id":"4","last_reported":1730200089,"current_range_meters":33600,"station_id":"ce4bhm92rcd13ifvqglg","pricing_plan_id":"cebpf4jnsgd1na2vs0mg"},{"bike_id":"1946f1c5-d6d2-4dfa-8755-113148fbeae4","system_id":"levelo_inurba_marseille","lat":43.29906,"lon":5.38134,"is_reserved":false,"is_disabled":false,"rental_uris":{"android":"levelo://app?vid=1946f1c5-d6d2-4dfa-8755-113148fbeae4","ios":"levelo://app?vid=1946f1c5-d6d2-4dfa-8755-113148fbeae4"},"vehicle_type_id":"4","last_reported":1730200089,"current_range_meters":25200,"station_id":"ce4bgj12rcd13ifvqbc0","pricing_plan_id":"cebpf4jnsgd1na2vs0mg"},{"bike_id":"4cc9b611-227a-4675-8219-8592dde41f3f","system_id":"levelo_inurba_marseille","lat":43.28269,"lon":5.35071,"is_reserved":false,"is_disabled":false,"rental_uris":{"android":"levelo://app?vid=4cc9b611-227a-4675-8219-8592dde41f3f","ios":"levelo://app?vid=4cc9b611-227a-4675-8219-8592dde41f3f"},"vehicle_type_id":"4","last_reported":1730200089,"current_range_meters":16000,"station_id":"ce4bhbp2rcd13ifvqerg","pricing_plan_id":"cebpf4jnsgd1na2vs0mg"},{"bike_id":"dba0cf6c-faa0-4ffb-8625-d77ee1ad4701","system_id":"levelo_inurba_marseille","lat":43.30142,"lon":5.38775,"is_reserved":false,"is_disabled":false,"rental_uris":{"android":"levelo://app?vid=dba0cf6c-faa0-4ffb-8625-d77ee1ad4701","ios":"levelo://app?vid=dba0cf6c-faa0-4ffb-8625-d77ee1ad4701"},"vehicle_type_id":"4","last_reported":1730200089,"current_range_meters":18000,"station_id":"ce4bghh2rcd13ifvqb60","pricing_plan_id":"cebpf4jnsgd1na2vs0mg"},{"bike_id":"c5279f03-5a7f-4016-8036-7c9670311d94","system_id":"levelo_inurba_marseille","lat":43.3054,"lon":5.367,"is_reserved":false,"is_disabled":false,"rental_uris":{"android":"levelo://app?vid=c5279f03-5a7f-4016-8036-7c9670311d94","ios":"levelo://app?vid=c5279f03-5a7f-4016-8036-7c9670311d94"},"vehicle_type_id":"4","last_reported":1730200089,"current_range_meters":38800,"station_id":"ce4bgrp2rcd13ifvqc9g","pricing_plan_id":"cebpf4jnsgd1na2vs0mg"},{"bike_id":"7af12701-3dd3-4cd5-9237-a03823d9f0d5","system_id":"levelo_inurba_marseille","lat":43.2695,"lon":5.40244,"is_reserved":false,"is_disabled":false,"rental_uris":{"android":"levelo://app?vid=7af12701-3dd3-4cd5-9237-a03823d9f0d5","ios":"levelo://app?vid=7af12701-3dd3-4cd5-9237-a03823d9f0d5"},"vehicle_type_id":"4","last_reported":1730200089,"current_range_meters":32800,"station_id":"cjm6bp8fraef2m0cb0m0","pricing_plan_id":"cebpf4jnsgd1na2vs0mg"},{"bike_id":"d63ff0fa-0048-44c6-b2c6-b7c44580de3a","system_id":"levelo_inurba_marseille","lat":43.2512,"lon":5.40314,"is_reserved":false,"is_disabled":false,"rental_uris":{"android":"levelo://app?vid=d63ff0fa-0048-44c6-b2c6-b7c44580de3a","ios":"levelo://app?vid=d63ff0fa-0048-44c6-b2c6-b7c44580de3a"},"vehicle_type_id":"4","last_reported":1730200089,"current_range_meters":39200,"station_id":"ce4bhlh2rcd13ifvqgig","pricing_plan_id":"cebpf4jnsgd1na2vs0mg"},{"bike_id":"e11778d5-28f2-4928-bd38-847f301936a1","system_id":"levelo_inurba_marseille","lat":43.3171,"lon":5.37746,"is_reserved":false,"is_disabled":false,"rental_uris":{"android":"levelo://app?vid=e11778d5-28f2-4928-bd38-847f301936a1","ios":"levelo://app?vid=e11778d5-28f2-4928-bd38-847f301936a1"},"vehicle_type_id":"4","last_reported":1730200089,"current_range_meters":38800,"station_id":"ce4bgth2rcd13ifvqch0","pricing_plan_id":"cebpf4jnsgd1na2vs0mg"},{"bike_id":"673db70d-0a85-41a9-93a5-7316d31cd8bb","system_id":"levelo_inurba_marseille","lat":43.2455,"lon":5.39514,"is_reserved":false,"is_disabled":false,"rental_uris":{"android":"levelo://app?vid=673db70d-0a85-41a9-93a5-7316d31cd8bb","ios":"levelo://app?vid=673db70d-0a85-41a9-93a5-7316d31cd8bb"},"vehicle_type_id":"4","last_reported":1730200089,"current_range_meters":26000,"station_id":"ce4bhlp2rcd13ifvqgjg","pricing_plan_id":"cebpf4jnsgd1na2vs0mg"},{"bike_id":"705b39b3-5ef9-46ed-8b0d-78c89fd19d64","system_id":"levelo_inurba_marseille","lat":43.30288,"lon":5.37704,"is_reserved":false,"is_disabled":false,"rental_uris":{"android":"levelo://app?vid=705b39b3-5ef9-46ed-8b0d-78c89fd19d64","ios":"levelo://app?vid=705b39b3-5ef9-46ed-8b0d-78c89fd19d64"},"vehicle_type_id":"4","last_reported":1730200089,"current_range_meters":33200,"station_id":"ce4bguh2rcd13ifvqcj0","pricing_plan_id":"cebpf4jnsgd1na2vs0mg"},{"bike_id":"73c5c6a5-c9fe-4630-927e-3cd20d2f06ea","system_id":"levelo_inurba_marseille","lat":43.29843,"lon":5.36264,"is_reserved":false,"is_disabled":false,"rental_uris":{"android":"levelo://app?vid=73c5c6a5-c9fe-4630-927e-3cd20d2f06ea","ios":"levelo://app?vid=73c5c6a5-c9fe-4630-927e-3cd20d2f06ea"},"vehicle_type_id":"4","last_reported":1730200089,"current_range_meters":36800,"station_id":"ce4bgpp2rcd13ifvqc3g","pricing_plan_id":"cebpf4jnsgd1na2vs0mg"},{"bike_id":"bde4c89f-cc6e-4d4e-a87c-28292d67c587","system_id":"levelo_inurba_marseille","lat":43.29975,"lon":5.38486,"is_reserved":false,"is_disabled":false,"rental_uris":{"android":"levelo://app?vid=bde4c89f-cc6e-4d4e-a87c-28292d67c587","ios":"levelo://app?vid=bde4c89f-cc6e-4d4e-a87c-28292d67c587"},"vehicle_type_id":"4","last_reported":1730200089,"current_range_meters":20400,"station_id":"ce4bgj92rcd13ifvqbd0","pricing_plan_id":"cebpf4jnsgd1na2vs0mg"},{"bike_id":"a2f91a54-aabc-467a-bd1d-2399ad58ea1c","system_id":"levelo_inurba_marseille","lat":43.27207,"lon":5.39167,"is_reserved":false,"is_disabled":false,"rental_uris":{"android":"levelo://app?vid=a2f91a54-aabc-467a-bd1d-2399ad58ea1c","ios":"levelo://app?vid=a2f91a54-aabc-467a-bd1d-2399ad58ea1c"},"vehicle_type_id":"4","last_reported":1730200089,"current_range_meters":16000,"station_id":"ce4bhhp2rcd13ifvqfm0","pricing_plan_id":"cebpf4jnsgd1na2vs0mg"},{"bike_id":"91451bff-3d77-4f4e-a576-ac2e5693ddfb","system_id":"levelo_inurba_marseille","lat":43.26684,"lon":5.3826,"is_reserved":false,"is_disabled":false,"rental_uris":{"android":"levelo://app?vid=91451bff-3d77-4f4e-a576-ac2e5693ddfb","ios":"levelo://app?vid=91451bff-3d77-4f4e-a576-ac2e5693ddfb"},"vehicle_type_id":"4","last_reported":1730200089,"current_range_meters":32400,"station_id":"ce4bhg92rcd13ifvqf90","pricing_plan_id":"cebpf4jnsgd1na2vs0mg"},{"bike_id":"499d3ae3-f498-46e8-971c-044ab63ab938","system_id":"levelo_inurba_marseille","lat":43.29356,"lon":5.3986,"is_reserved":false,"is_disabled":false,"rental_uris":{"android":"levelo://app?vid=499d3ae3-f498-46e8-971c-044ab63ab938","ios":"levelo://app?vid=499d3ae3-f498-46e8-971c-044ab63ab938"},"vehicle_type_id":"4","last_reported":1730200089,"current_range_meters":33200,"station_id":"ce4bh392rcd13ifvqdm0","pricing_plan_id":"cebpf4jnsgd1na2vs0mg"},{"bike_id":"d338cdae-512a-4a95-8517-e63a583028ec","system_id":"levelo_inurba_marseille","lat":43.31686,"lon":5.40467,"is_reserved":false,"is_disabled":false,"rental_uris":{"android":"levelo://app?vid=d338cdae-512a-4a95-8517-e63a583028ec","ios":"levelo://app?vid=d338cdae-512a-4a95-8517-e63a583028ec"},"vehicle_type_id":"4","last_reported":1730200089,"current_range_meters":35600,"station_id":"ce4bh012rcd13ifvqd00","pricing_plan_id":"cebpf4jnsgd1na2vs0mg"},{"bike_id":"2428d0d4-0189-4b00-85c9-81366524f657","system_id":"levelo_inurba_marseille","lat":43.25932,"lon":5.40904,"is_reserved":false,"is_disabled":false,"rental_uris":{"android":"levelo://app?vid=2428d0d4-0189-4b00-85c9-81366524f657","ios":"levelo://app?vid=2428d0d4-0189-4b00-85c9-81366524f657"},"vehicle_type_id":"4","last_reported":1730200089,"current_range_meters":28800,"station_id":"ce4bhm92rcd13ifvqglg","pricing_plan_id":"cebpf4jnsgd1na2vs0mg"},{"bike_id":"91dbe4de-12eb-4aa7-ac1c-0d5e48998bd7","system_id":"levelo_inurba_marseille","lat":43.29968,"lon":5.37169,"is_reserved":false,"is_disabled":false,"rental_uris":{"android":"levelo://app?vid=91dbe4de-12eb-4aa7-ac1c-0d5e48998bd7","ios":"levelo://app?vid=91dbe4de-12eb-4aa7-ac1c-0d5e48998bd7"},"vehicle_type_id":"4","last_reported":1730200089,"current_range_meters":35200,"station_id":"ce4bgr92rcd13ifvqc7g","pricing_plan_id":"cebpf4jnsgd1na2vs0mg"},{"bike_id":"66569125-ecb1-43c8-a535-8a5b9baeafc9","system_id":"levelo_inurba_marseille","lat":43.24547,"lon":5.39522,"is_reserved":false,"is_disabled":false,"rental_uris":{"android":"levelo://app?vid=66569125-ecb1-43c8-a535-8a5b9baeafc9","ios":"levelo://app?vid=66569125-ecb1-43c8-a535-8a5b9baeafc9"},"vehicle_type_id":"4","last_reported":1730200089,"current_range_meters":39200,"station_id":"ce4bhlp2rcd13ifvqgjg","pricing_plan_id":"cebpf4jnsgd1na2vs0mg"},{"bike_id":"d0413976-c89c-4e99-9f40-bde181523d3c","system_id":"levelo_inurba_marseille","lat":43.30457,"lon":5.37903,"is_reserved":false,"is_disabled":false,"rental_uris":{"android":"levelo://app?vid=d0413976-c89c-4e99-9f40-bde181523d3c","ios":"levelo://app?vid=d0413976-c89c-4e99-9f40-bde181523d3c"},"vehicle_type_id":"4","last_reported":1730200089,"current_range_meters":38800,"station_id":"ce4bgup2rcd13ifvqcn0","pricing_plan_id":"cebpf4jnsgd1na2vs0mg"},{"bike_id":"d451966f-9a13-4708-9dff-99520abd1e77","system_id":"levelo_inurba_marseille","lat":43.32487,"lon":5.36557,"is_reserved":false,"is_disabled":false,"rental_uris":{"android":"levelo://app?vid=d451966f-9a13-4708-9dff-99520abd1e77","ios":"levelo://app?vid=d451966f-9a13-4708-9dff-99520abd1e77"},"vehicle_type_id":"4","last_reported":1730200089,"current_range_meters":31200,"station_id":"ce4bhs12rcd13ifvqhvg","pricing_plan_id":"cebpf4jnsgd1na2vs0mg"},{"bike_id":"dbda7efb-410d-4a2b-a65e-9bcd0c2c113c","system_id":"levelo_inurba_marseille","lat":43.25105,"lon":5.40327,"is_reserved":false,"is_disabled":false,"rental_uris":{"android":"levelo://app?vid=dbda7efb-410d-4a2b-a65e-9bcd0c2c113c","ios":"levelo://app?vid=dbda7efb-410d-4a2b-a65e-9bcd0c2c113c"},"vehicle_type_id":"4","last_reported":1730200089,"current_range_meters":16000,"station_id":"ce4bhlh2rcd13ifvqgig","pricing_plan_id":"cebpf4jnsgd1na2vs0mg"},{"bike_id":"85a0a23d-8571-4850-b285-217451075f09","system_id":"levelo_inurba_marseille","lat":43.28077,"lon":5.3965,"is_reserved":false,"is_disabled":false,"rental_uris":{"android":"levelo://app?vid=85a0a23d-8571-4850-b285-217451075f09","ios":"levelo://app?vid=85a0a23d-8571-4850-b285-217451075f09"},"vehicle_type_id":"4","last_reported":1730200089,"current_range_meters":38800,"station_id":"ce4bho12rcd13ifvqh2g","pricing_plan_id":"cebpf4jnsgd1na2vs0mg"},{"bike_id":"1c7196d7-cdc5-40ac-b416-5d107508c42e","system_id":"levelo_inurba_marseille","lat":43.31722,"lon":5.42393,"is_reserved":false,"is_disabled":false,"rental_uris":{"android":"levelo://app?vid=1c7196d7-cdc5-40ac-b416-5d107508c42e","ios":"levelo://app?vid=1c7196d7-cdc5-40ac-b416-5d107508c42e"},"vehicle_type_id":"4","last_reported":1730200089,"current_range_meters":39200,"station_id":"ce4bhp92rcd13ifvqhbg","pricing_plan_id":"cebpf4jnsgd1na2vs0mg"},{"bike_id":"bc02858c-c4bf-4765-8a7e-ce10531e581f","system_id":"levelo_inurba_marseille","lat":43.31227,"lon":5.36846,"is_reserved":false,"is_disabled":false,"rental_uris":{"android":"levelo://app?vid=bc02858c-c4bf-4765-8a7e-ce10531e581f","ios":"levelo://app?vid=bc02858c-c4bf-4765-8a7e-ce10531e581f"},"vehicle_type_id":"4","last_reported":1730200089,"current_range_meters":38800,"station_id":"ce4bgl92rcd13ifvqbq0","pricing_plan_id":"cebpf4jnsgd1na2vs0mg"},{"bike_id":"cc70582d-99d2-4521-8bd8-2ac310670b6b","system_id":"levelo_inurba_marseille","lat":43.30885,"lon":5.39658,"is_reserved":false,"is_disabled":false,"rental_uris":{"android":"levelo://app?vid=cc70582d-99d2-4521-8bd8-2ac310670b6b","ios":"levelo://app?vid=cc70582d-99d2-4521-8bd8-2ac310670b6b"},"vehicle_type_id":"4","last_reported":1730200089,"current_range_meters":18000,"station_id":"ce4bh012rcd13ifvqcv0","pricing_plan_id":"cebpf4jnsgd1na2vs0mg"},{"bike_id":"0e429938-54ec-4c58-aaed-a5a14a86d707","system_id":"levelo_inurba_marseille","lat":43.2996,"lon":5.41321,"is_reserved":false,"is_disabled":false,"rental_uris":{"android":"levelo://app?vid=0e429938-54ec-4c58-aaed-a5a14a86d707","ios":"levelo://app?vid=0e429938-54ec-4c58-aaed-a5a14a86d707"},"vehicle_type_id":"4","last_reported":1730200089,"current_range_meters":32000,"station_id":"ce4bhp12rcd13ifvqh9g","pricing_plan_id":"cebpf4jnsgd1na2vs0mg"},{"bike_id":"6c5c2d65-9bb4-4292-a94e-19dacaca1c03","system_id":"levelo_inurba_marseille","lat":43.29896,"lon":5.43666,"is_reserved":false,"is_disabled":false,"rental_uris":{"android":"levelo://app?vid=6c5c2d65-9bb4-4292-a94e-19dacaca1c03","ios":"levelo://app?vid=6c5c2d65-9bb4-4292-a94e-19dacaca1c03"},"vehicle_type_id":"4","last_reported":1730200089,"current_range_meters":40000,"station_id":"ce4bhpp2rcd13ifvqhfg","pricing_plan_id":"cebpf4jnsgd1na2vs0mg"},{"bike_id":"4f7f07f6-d39f-4ccb-a580-64b7243589fa","system_id":"levelo_inurba_marseille","lat":43.26938,"lon":5.40249,"is_reserved":false,"is_disabled":false,"rental_uris":{"android":"levelo://app?vid=4f7f07f6-d39f-4ccb-a580-64b7243589fa","ios":"levelo://app?vid=4f7f07f6-d39f-4ccb-a580-64b7243589fa"},"vehicle_type_id":"4","last_reported":1730200089,"current_range_meters":38800,"station_id":"cjm6bp8fraef2m0cb0m0","pricing_plan_id":"cebpf4jnsgd1na2vs0mg"},{"bike_id":"bbe94dcd-b3ff-4e01-a340-9c001a158aa7","system_id":"levelo_inurba_marseille","lat":43.2593,"lon":5.40904,"is_reserved":false,"is_disabled":false,"rental_uris":{"android":"levelo://app?vid=bbe94dcd-b3ff-4e01-a340-9c001a158aa7","ios":"levelo://app?vid=bbe94dcd-b3ff-4e01-a340-9c001a158aa7"},"vehicle_type_id":"4","last_reported":1730200089,"current_range_meters":38800,"station_id":"ce4bhm92rcd13ifvqglg","pricing_plan_id":"cebpf4jnsgd1na2vs0mg"},{"bike_id":"867955ed-a737-4dc1-8450-49a4f2258633","system_id":"levelo_inurba_marseille","lat":43.2756,"lon":5.38422,"is_reserved":false,"is_disabled":false,"rental_uris":{"android":"levelo://app?vid=867955ed-a737-4dc1-8450-49a4f2258633","ios":"levelo://app?vid=867955ed-a737-4dc1-8450-49a4f2258633"},"vehicle_type_id":"4","last_reported":1730200089,"current_range_meters":25600,"station_id":"ce4bhh92rcd13ifvqfi0","pricing_plan_id":"cebpf4jnsgd1na2vs0mg"},{"bike_id":"3e539b68-3898-42a8-a4a2-c90198b1a190","system_id":"levelo_inurba_marseille","lat":43.29004,"lon":5.35609,"is_reserved":false,"is_disabled":false,"rental_uris":{"android":"levelo://app?vid=3e539b68-3898-42a8-a4a2-c90198b1a190","ios":"levelo://app?vid=3e539b68-3898-42a8-a4a2-c90198b1a190"},"vehicle_type_id":"4","last_reported":1730200089,"current_range_meters":32000,"station_id":"ce4bhb92rcd13ifvqen0","pricing_plan_id":"cebpf4jnsgd1na2vs0mg"},{"bike_id":"766801a5-7dbd-464a-bc56-398e14b9cf78","system_id":"levelo_inurba_marseille","lat":43.29805,"lon":5.37136,"is_reserved":false,"is_disabled":false,"rental_uris":{"android":"levelo://app?vid=766801a5-7dbd-464a-bc56-398e14b9cf78","ios":"levelo://app?vid=766801a5-7dbd-464a-bc56-398e14b9cf78"},"vehicle_type_id":"4","last_reported":1730200089,"current_range_meters":11200,"station_id":"","pricing_plan_id":"cebpf4jnsgd1na2vs0mg"},{"bike_id":"afc8a59e-718c-432c-b226-d6be0903e5fb","system_id":"levelo_inurba_marseille","lat":43.24391,"lon":5.37065,"is_reserved":false,"is_disabled":false,"rental_uris":{"android":"levelo://app?vid=afc8a59e-718c-432c-b226-d6be0903e5fb","ios":"levelo://app?vid=afc8a59e-718c-432c-b226-d6be0903e5fb"},"vehicle_type_id":"4","last_reported":1730200089,"current_range_meters":38000,"station_id":"ce4bhhh2rcd13ifvqfk0","pricing_plan_id":"cebpf4jnsgd1na2vs0mg"},{"bike_id":"370a73a2-b397-4dd4-9881-4f6997fda098","system_id":"levelo_inurba_marseille","lat":43.25116,"lon":5.40316,"is_reserved":false,"is_disabled":false,"rental_uris":{"android":"levelo://app?vid=370a73a2-b397-4dd4-9881-4f6997fda098","ios":"levelo://app?vid=370a73a2-b397-4dd4-9881-4f6997fda098"},"vehicle_type_id":"4","last_reported":1730200089,"current_range_meters":31200,"station_id":"ce4bhlh2rcd13ifvqgig","pricing_plan_id":"cebpf4jnsgd1na2vs0mg"},{"bike_id":"a1402e50-bfad-42cd-b770-fff741fe34aa","system_id":"levelo_inurba_marseille","lat":43.25007,"lon":5.38912,"is_reserved":false,"is_disabled":false,"rental_uris":{"android":"levelo://app?vid=a1402e50-bfad-42cd-b770-fff741fe34aa","ios":"levelo://app?vid=a1402e50-bfad-42cd-b770-fff741fe34aa"},"vehicle_type_id":"4","last_reported":1730200089,"current_range_meters":38000,"station_id":"ce4bhgp2rcd13ifvqfd0","pricing_plan_id":"cebpf4jnsgd1na2vs0mg"},{"bike_id":"4ff9ff98-c9e0-44c4-ba8c-f2ebb3990daa","system_id":"levelo_inurba_marseille","lat":43.32482,"lon":5.3657,"is_reserved":false,"is_disabled":false,"rental_uris":{"android":"levelo://app?vid=4ff9ff98-c9e0-44c4-ba8c-f2ebb3990daa","ios":"levelo://app?vid=4ff9ff98-c9e0-44c4-ba8c-f2ebb3990daa"},"vehicle_type_id":"4","last_reported":1730200089,"current_range_meters":8000,"station_id":"ce4bhs12rcd13ifvqhvg","pricing_plan_id":"cebpf4jnsgd1na2vs0mg"},{"bike_id":"222299c8-07b8-471a-87a9-9901b8f0c05a","system_id":"levelo_inurba_marseille","lat":43.27376,"lon":5.36246,"is_reserved":false,"is_disabled":false,"rental_uris":{"android":"levelo://app?vid=222299c8-07b8-471a-87a9-9901b8f0c05a","ios":"levelo://app?vid=222299c8-07b8-471a-87a9-9901b8f0c05a"},"vehicle_type_id":"4","last_reported":1730200089,"current_range_meters":38000,"station_id":"ce4bhbh2rcd13ifvqeo0","pricing_plan_id":"cebpf4jnsgd1na2vs0mg"},{"bike_id":"eda84401-2cd6-419f-bea9-3bde77f66110","system_id":"levelo_inurba_marseille","lat":43.30192,"lon":5.36611,"is_reserved":false,"is_disabled":false,"rental_uris":{"android":"levelo://app?vid=eda84401-2cd6-419f-bea9-3bde77f66110","ios":"levelo://app?vid=eda84401-2cd6-419f-bea9-3bde77f66110"},"vehicle_type_id":"4","last_reported":1730200089,"current_range_meters":32000,"station_id":"ce4bgrh2rcd13ifvqc8g","pricing_plan_id":"cebpf4jnsgd1na2vs0mg"},{"bike_id":"75cb1cc6-d5d2-4dcd-ae25-28283e0b065b","system_id":"levelo_inurba_marseille","lat":43.29587,"lon":5.37706,"is_reserved":false,"is_disabled":false,"rental_uris":{"android":"levelo://app?vid=75cb1cc6-d5d2-4dcd-ae25-28283e0b065b","ios":"levelo://app?vid=75cb1cc6-d5d2-4dcd-ae25-28283e0b065b"},"vehicle_type_id":"4","last_reported":1730200089,"current_range_meters":19600,"station_id":"ce4bgi92rcd13ifvqb90","pricing_plan_id":"cebpf4jnsgd1na2vs0mg"},{"bike_id":"9a6f9563-cd96-471e-ba9b-e55206018a98","system_id":"levelo_inurba_marseille","lat":43.33613,"lon":5.41028,"is_reserved":false,"is_disabled":false,"rental_uris":{"android":"levelo://app?vid=9a6f9563-cd96-471e-ba9b-e55206018a98","ios":"levelo://app?vid=9a6f9563-cd96-471e-ba9b-e55206018a98"},"vehicle_type_id":"4","last_reported":1730200089,"current_range_meters":17200,"station_id":"ce4bhqh2rcd13ifvqhmg","pricing_plan_id":"cebpf4jnsgd1na2vs0mg"},{"bike_id":"181bef3f-1485-40bb-83af-377fe61dde0b","system_id":"levelo_inurba_marseille","lat":43.32484,"lon":5.36574,"is_reserved":false,"is_disabled":false,"rental_uris":{"android":"levelo://app?vid=181bef3f-1485-40bb-83af-377fe61dde0b","ios":"levelo://app?vid=181bef3f-1485-40bb-83af-377fe61dde0b"},"vehicle_type_id":"4","last_reported":1730200089,"current_range_meters":28400,"station_id":"ce4bhs12rcd13ifvqhvg","pricing_plan_id":"cebpf4jnsgd1na2vs0mg"},{"bike_id":"ebdecd40-6b22-4757-940f-a25a2c137e8a","system_id":"levelo_inurba_marseille","lat":43.25005,"lon":5.38919,"is_reserved":false,"is_disabled":false,"rental_uris":{"android":"levelo://app?vid=ebdecd40-6b22-4757-940f-a25a2c137e8a","ios":"levelo://app?vid=ebdecd40-6b22-4757-940f-a25a2c137e8a"},"vehicle_type_id":"4","last_reported":1730200089,"current_range_meters":9600,"station_id":"ce4bhgp2rcd13ifvqfd0","pricing_plan_id":"cebpf4jnsgd1na2vs0mg"},{"bike_id":"42a572ee-4cf3-46b6-b8f0-0a0e16109200","system_id":"levelo_inurba_marseille","lat":43.272099,"lon":5.391852,"is_reserved":false,"is_disabled":false,"rental_uris":{"android":"levelo://app?vid=42a572ee-4cf3-46b6-b8f0-0a0e16109200","ios":"levelo://app?vid=42a572ee-4cf3-46b6-b8f0-0a0e16109200"},"vehicle_type_id":"4","last_reported":1730200089,"current_range_meters":38800,"station_id":"ce4bhhp2rcd13ifvqfm0","pricing_plan_id":"cebpf4jnsgd1na2vs0mg"},{"bike_id":"c7757bea-4296-44dc-b490-1ebf01a3caf0","system_id":"levelo_inurba_marseille","lat":43.32483,"lon":5.36564,"is_reserved":false,"is_disabled":false,"rental_uris":{"android":"levelo://app?vid=c7757bea-4296-44dc-b490-1ebf01a3caf0","ios":"levelo://app?vid=c7757bea-4296-44dc-b490-1ebf01a3caf0"},"vehicle_type_id":"4","last_reported":1730200089,"current_range_meters":36000,"station_id":"ce4bhs12rcd13ifvqhvg","pricing_plan_id":"cebpf4jnsgd1na2vs0mg"},{"bike_id":"82938b73-db78-491a-8e6b-de7ae6d59fe5","system_id":"levelo_inurba_marseille","lat":43.33758,"lon":5.37444,"is_reserved":false,"is_disabled":false,"rental_uris":{"android":"levelo://app?vid=82938b73-db78-491a-8e6b-de7ae6d59fe5","ios":"levelo://app?vid=82938b73-db78-491a-8e6b-de7ae6d59fe5"},"vehicle_type_id":"4","last_reported":1730200089,"current_range_meters":36400,"station_id":"","pricing_plan_id":"cebpf4jnsgd1na2vs0mg"},{"bike_id":"9ad633bf-7d28-4e90-bd87-854101be9da9","system_id":"levelo_inurba_marseille","lat":43.29715,"lon":5.37686,"is_reserved":false,"is_disabled":false,"rental_uris":{"android":"levelo://app?vid=9ad633bf-7d28-4e90-bd87-854101be9da9","ios":"levelo://app?vid=9ad633bf-7d28-4e90-bd87-854101be9da9"},"vehicle_type_id":"4","last_reported":1730200089,"current_range_meters":38800,"station_id":"ce4bgkh2rcd13ifvqbl0","pricing_plan_id":"cebpf4jnsgd1na2vs0mg"},{"bike_id":"9ae3326f-87cc-4d87-b149-5cf6eb05eedf","system_id":"levelo_inurba_marseille","lat":43.3053,"lon":5.36533,"is_reserved":false,"is_disabled":false,"rental_uris":{"android":"levelo://app?vid=9ae3326f-87cc-4d87-b149-5cf6eb05eedf","ios":"levelo://app?vid=9ae3326f-87cc-4d87-b149-5cf6eb05eedf"},"vehicle_type_id":"4","last_reported":1730200089,"current_range_meters":10000,"station_id":"ce4bgs12rcd13ifvqcag","pricing_plan_id":"cebpf4jnsgd1na2vs0mg"},{"bike_id":"6723272e-aaea-4b98-9990-28d8bc18c708","system_id":"levelo_inurba_marseille","lat":43.32045,"lon":5.4153,"is_reserved":false,"is_disabled":false,"rental_uris":{"android":"levelo://app?vid=6723272e-aaea-4b98-9990-28d8bc18c708","ios":"levelo://app?vid=6723272e-aaea-4b98-9990-28d8bc18c708"},"vehicle_type_id":"4","last_reported":1730200089,"current_range_meters":38800,"station_id":"ce4bhq92rcd13ifvqhkg","pricing_plan_id":"cebpf4jnsgd1na2vs0mg"},{"bike_id":"13d7da2b-fa35-4869-a713-bee213dc0bcb","system_id":"levelo_inurba_marseille","lat":43.23182,"lon":5.39977,"is_reserved":false,"is_disabled":false,"rental_uris":{"android":"levelo://app?vid=13d7da2b-fa35-4869-a713-bee213dc0bcb","ios":"levelo://app?vid=13d7da2b-fa35-4869-a713-bee213dc0bcb"},"vehicle_type_id":"4","last_reported":1730200089,"current_range_meters":28000,"station_id":"ce4bhn12rcd13ifvqgqg","pricing_plan_id":"cebpf4jnsgd1na2vs0mg"},{"bike_id":"9a0ee878-3792-48cc-a91e-8587eb869f9f","system_id":"levelo_inurba_marseille","lat":43.30539,"lon":5.36527,"is_reserved":false,"is_disabled":false,"rental_uris":{"android":"levelo://app?vid=9a0ee878-3792-48cc-a91e-8587eb869f9f","ios":"levelo://app?vid=9a0ee878-3792-48cc-a91e-8587eb869f9f"},"vehicle_type_id":"4","last_reported":1730200089,"current_range_meters":38800,"station_id":"ce4bgs12rcd13ifvqcag","pricing_plan_id":"cebpf4jnsgd1na2vs0mg"},{"bike_id":"d5c33c2a-e98a-4d53-95a8-526daefb5965","system_id":"levelo_inurba_marseille","lat":43.25939,"lon":5.40893,"is_reserved":false,"is_disabled":false,"rental_uris":{"android":"levelo://app?vid=d5c33c2a-e98a-4d53-95a8-526daefb5965","ios":"levelo://app?vid=d5c33c2a-e98a-4d53-95a8-526daefb5965"},"vehicle_type_id":"4","last_reported":1730200089,"current_range_meters":24800,"station_id":"ce4bhm92rcd13ifvqglg","pricing_plan_id":"cebpf4jnsgd1na2vs0mg"},{"bike_id":"f6b14166-5cd0-4cb4-84b2-c28ae5c2c613","system_id":"levelo_inurba_marseille","lat":43.231502,"lon":5.437182,"is_reserved":false,"is_disabled":false,"rental_uris":{"android":"levelo://app?vid=f6b14166-5cd0-4cb4-84b2-c28ae5c2c613","ios":"levelo://app?vid=f6b14166-5cd0-4cb4-84b2-c28ae5c2c613"},"vehicle_type_id":"4","last_reported":1730200089,"current_range_meters":38800,"station_id":"ce4bhmp2rcd13ifvqgog","pricing_plan_id":"cebpf4jnsgd1na2vs0mg"},{"bike_id":"66fe1d1d-5e0b-488e-b7c5-632eb6f3a0a3","system_id":"levelo_inurba_marseille","lat":43.29684,"lon":5.37283,"is_reserved":false,"is_disabled":false,"rental_uris":{"android":"levelo://app?vid=66fe1d1d-5e0b-488e-b7c5-632eb6f3a0a3","ios":"levelo://app?vid=66fe1d1d-5e0b-488e-b7c5-632eb6f3a0a3"},"vehicle_type_id":"4","last_reported":1730200089,"current_range_meters":39200,"station_id":"ce4bgk12rcd13ifvqbj0","pricing_plan_id":"cebpf4jnsgd1na2vs0mg"},{"bike_id":"5a2797c7-27d5-4c48-bf1c-e6b85d2596d1","system_id":"levelo_inurba_marseille","lat":43.30459,"lon":5.37899,"is_reserved":false,"is_disabled":false,"rental_uris":{"android":"levelo://app?vid=5a2797c7-27d5-4c48-bf1c-e6b85d2596d1","ios":"levelo://app?vid=5a2797c7-27d5-4c48-bf1c-e6b85d2596d1"},"vehicle_type_id":"4","last_reported":1730200089,"current_range_meters":38800,"station_id":"ce4bgup2rcd13ifvqcn0","pricing_plan_id":"cebpf4jnsgd1na2vs0mg"},{"bike_id":"a404248e-6987-4d99-b20a-9cc9dfe309cc","system_id":"levelo_inurba_marseille","lat":43.24075,"lon":5.37756,"is_reserved":false,"is_disabled":false,"rental_uris":{"android":"levelo://app?vid=a404248e-6987-4d99-b20a-9cc9dfe309cc","ios":"levelo://app?vid=a404248e-6987-4d99-b20a-9cc9dfe309cc"},"vehicle_type_id":"4","last_reported":1730200089,"current_range_meters":10800,"station_id":"ce4bhnp2rcd13ifvqgvg","pricing_plan_id":"cebpf4jnsgd1na2vs0mg"},{"bike_id":"a8e9d633-e917-4ba4-aae4-ca8c37438ad0","system_id":"levelo_inurba_marseille","lat":43.29522,"lon":5.39045,"is_reserved":false,"is_disabled":false,"rental_uris":{"android":"levelo://app?vid=a8e9d633-e917-4ba4-aae4-ca8c37438ad0","ios":"levelo://app?vid=a8e9d633-e917-4ba4-aae4-ca8c37438ad0"},"vehicle_type_id":"4","last_reported":1730200089,"current_range_meters":38800,"station_id":"ce4bh3p2rcd13ifvqdp0","pricing_plan_id":"cebpf4jnsgd1na2vs0mg"},{"bike_id":"7a9ae76b-0a11-49a8-8e86-7fc5f805df59","system_id":"levelo_inurba_marseille","lat":43.3094,"lon":5.39022,"is_reserved":false,"is_disabled":false,"rental_uris":{"android":"levelo://app?vid=7a9ae76b-0a11-49a8-8e86-7fc5f805df59","ios":"levelo://app?vid=7a9ae76b-0a11-49a8-8e86-7fc5f805df59"},"vehicle_type_id":"4","last_reported":1730200089,"current_range_meters":14400,"station_id":"ce4bgup2rcd13ifvqco0","pricing_plan_id":"cebpf4jnsgd1na2vs0mg"},{"bike_id":"9e37202c-dff0-46a2-a569-8d13f968c051","system_id":"levelo_inurba_marseille","lat":43.29572,"lon":5.375,"is_reserved":false,"is_disabled":false,"rental_uris":{"android":"levelo://app?vid=9e37202c-dff0-46a2-a569-8d13f968c051","ios":"levelo://app?vid=9e37202c-dff0-46a2-a569-8d13f968c051"},"vehicle_type_id":"4","last_reported":1730200089,"current_range_meters":38000,"station_id":"ce4bgh92rcd13ifvqb50","pricing_plan_id":"cebpf4jnsgd1na2vs0mg"},{"bike_id":"5aa288e2-e971-42ed-88a4-245192921273","system_id":"levelo_inurba_marseille","lat":43.30523,"lon":5.36527,"is_reserved":false,"is_disabled":false,"rental_uris":{"android":"levelo://app?vid=5aa288e2-e971-42ed-88a4-245192921273","ios":"levelo://app?vid=5aa288e2-e971-42ed-88a4-245192921273"},"vehicle_type_id":"4","last_reported":1730200089,"current_range_meters":39200,"station_id":"","pricing_plan_id":"cebpf4jnsgd1na2vs0mg"},{"bike_id":"8a3b5382-54ea-4927-8dc9-59f4cbbf94b5","system_id":"levelo_inurba_marseille","lat":43.31456,"lon":5.40325,"is_reserved":false,"is_disabled":false,"rental_uris":{"android":"levelo://app?vid=8a3b5382-54ea-4927-8dc9-59f4cbbf94b5","ios":"levelo://app?vid=8a3b5382-54ea-4927-8dc9-59f4cbbf94b5"},"vehicle_type_id":"4","last_reported":1730200089,"current_range_meters":36000,"station_id":"ce4bhpp2rcd13ifvqhgg","pricing_plan_id":"cebpf4jnsgd1na2vs0mg"},{"bike_id":"5b0caea7-b0e5-4da2-a359-403550b56cfa","system_id":"levelo_inurba_marseille","lat":43.24176,"lon":5.36389,"is_reserved":false,"is_disabled":false,"rental_uris":{"android":"levelo://app?vid=5b0caea7-b0e5-4da2-a359-403550b56cfa","ios":"levelo://app?vid=5b0caea7-b0e5-4da2-a359-403550b56cfa"},"vehicle_type_id":"4","last_reported":1730200089,"current_range_meters":28400,"station_id":"cpo36qri1sfpv3e86is0","pricing_plan_id":"cebpf4jnsgd1na2vs0mg"},{"bike_id":"8cebbd3b-c409-482d-995a-e50323e46a38","system_id":"levelo_inurba_marseille","lat":43.23148,"lon":5.43712,"is_reserved":false,"is_disabled":false,"rental_uris":{"android":"levelo://app?vid=8cebbd3b-c409-482d-995a-e50323e46a38","ios":"levelo://app?vid=8cebbd3b-c409-482d-995a-e50323e46a38"},"vehicle_type_id":"4","last_reported":1730200089,"current_range_meters":22000,"station_id":"ce4bhmp2rcd13ifvqgog","pricing_plan_id":"cebpf4jnsgd1na2vs0mg"},{"bike_id":"d608264f-668f-4b4a-a33c-ea25ff032bd0","system_id":"levelo_inurba_marseille","lat":43.295792,"lon":5.37523,"is_reserved":false,"is_disabled":false,"rental_uris":{"android":"levelo://app?vid=d608264f-668f-4b4a-a33c-ea25ff032bd0","ios":"levelo://app?vid=d608264f-668f-4b4a-a33c-ea25ff032bd0"},"vehicle_type_id":"4","last_reported":1730200089,"current_range_meters":18000,"station_id":"ce4bgh92rcd13ifvqb50","pricing_plan_id":"cebpf4jnsgd1na2vs0mg"},{"bike_id":"099a0032-6fe3-4a0e-a0ba-ab5284105d72","system_id":"levelo_inurba_marseille","lat":43.25114,"lon":5.40316,"is_reserved":false,"is_disabled":false,"rental_uris":{"android":"levelo://app?vid=099a0032-6fe3-4a0e-a0ba-ab5284105d72","ios":"levelo://app?vid=099a0032-6fe3-4a0e-a0ba-ab5284105d72"},"vehicle_type_id":"4","last_reported":1730200089,"current_range_meters":37600,"station_id":"ce4bhlh2rcd13ifvqgig","pricing_plan_id":"cebpf4jnsgd1na2vs0mg"},{"bike_id":"0e3ee072-f89b-44fa-9683-d0e6bc4d21ec","system_id":"levelo_inurba_marseille","lat":43.29709,"lon":5.37697,"is_reserved":false,"is_disabled":false,"rental_uris":{"android":"levelo://app?vid=0e3ee072-f89b-44fa-9683-d0e6bc4d21ec","ios":"levelo://app?vid=0e3ee072-f89b-44fa-9683-d0e6bc4d21ec"},"vehicle_type_id":"4","last_reported":1730200089,"current_range_meters":36400,"station_id":"ce4bgkh2rcd13ifvqbl0","pricing_plan_id":"cebpf4jnsgd1na2vs0mg"},{"bike_id":"28d9193d-8526-4818-8d6d-765b1ce5cd35","system_id":"levelo_inurba_marseille","lat":43.31234,"lon":5.36854,"is_reserved":false,"is_disabled":false,"rental_uris":{"android":"levelo://app?vid=28d9193d-8526-4818-8d6d-765b1ce5cd35","ios":"levelo://app?vid=28d9193d-8526-4818-8d6d-765b1ce5cd35"},"vehicle_type_id":"4","last_reported":1730200089,"current_range_meters":28800,"station_id":"ce4bgl92rcd13ifvqbq0","pricing_plan_id":"cebpf4jnsgd1na2vs0mg"},{"bike_id":"fa434911-3d8a-4100-bc00-8427aed15439","system_id":"levelo_inurba_marseille","lat":43.30953,"lon":5.39043,"is_reserved":false,"is_disabled":false,"rental_uris":{"android":"levelo://app?vid=fa434911-3d8a-4100-bc00-8427aed15439","ios":"levelo://app?vid=fa434911-3d8a-4100-bc00-8427aed15439"},"vehicle_type_id":"4","last_reported":1730200089,"current_range_meters":38000,"station_id":"ce4bgup2rcd13ifvqco0","pricing_plan_id":"cebpf4jnsgd1na2vs0mg"},{"bike_id":"ef1bbf1d-91b2-4ffd-a332-3b8c840c794e","system_id":"levelo_inurba_marseille","lat":43.33105,"lon":5.38241,"is_reserved":false,"is_disabled":false,"rental_uris":{"android":"levelo://app?vid=ef1bbf1d-91b2-4ffd-a332-3b8c840c794e","ios":"levelo://app?vid=ef1bbf1d-91b2-4ffd-a332-3b8c840c794e"},"vehicle_type_id":"4","last_reported":1730200089,"current_range_meters":4800,"station_id":"","pricing_plan_id":"cebpf4jnsgd1na2vs0mg"},{"bike_id":"31034c88-d5c9-4cee-b0d9-96b2269ac9da","system_id":"levelo_inurba_marseille","lat":43.27996,"lon":5.41655,"is_reserved":false,"is_disabled":false,"rental_uris":{"android":"levelo://app?vid=31034c88-d5c9-4cee-b0d9-96b2269ac9da","ios":"levelo://app?vid=31034c88-d5c9-4cee-b0d9-96b2269ac9da"},"vehicle_type_id":"4","last_reported":1730200089,"current_range_meters":32000,"station_id":"ce4bho12rcd13ifvqh1g","pricing_plan_id":"cebpf4jnsgd1na2vs0mg"},{"bike_id":"7414c1a9-f559-442a-a8bc-30b21ecd35dd","system_id":"levelo_inurba_marseille","lat":43.29922,"lon":5.36536,"is_reserved":false,"is_disabled":false,"rental_uris":{"android":"levelo://app?vid=7414c1a9-f559-442a-a8bc-30b21ecd35dd","ios":"levelo://app?vid=7414c1a9-f559-442a-a8bc-30b21ecd35dd"},"vehicle_type_id":"4","last_reported":1730200089,"current_range_meters":28400,"station_id":"ce4bgm92rcd13ifvqbr0","pricing_plan_id":"cebpf4jnsgd1na2vs0mg"},{"bike_id":"92545d6c-760c-4e85-b9a1-da2bfffc0818","system_id":"levelo_inurba_marseille","lat":43.23154,"lon":5.43709,"is_reserved":false,"is_disabled":false,"rental_uris":{"android":"levelo://app?vid=92545d6c-760c-4e85-b9a1-da2bfffc0818","ios":"levelo://app?vid=92545d6c-760c-4e85-b9a1-da2bfffc0818"},"vehicle_type_id":"4","last_reported":1730200089,"current_range_meters":22400,"station_id":"ce4bhmp2rcd13ifvqgog","pricing_plan_id":"cebpf4jnsgd1na2vs0mg"},{"bike_id":"361a4032-142b-4de6-a3e9-eac34bd8ce13","system_id":"levelo_inurba_marseille","lat":43.24072,"lon":5.37762,"is_reserved":false,"is_disabled":false,"rental_uris":{"android":"levelo://app?vid=361a4032-142b-4de6-a3e9-eac34bd8ce13","ios":"levelo://app?vid=361a4032-142b-4de6-a3e9-eac34bd8ce13"},"vehicle_type_id":"4","last_reported":1730200089,"current_range_meters":30800,"station_id":"ce4bhnp2rcd13ifvqgvg","pricing_plan_id":"cebpf4jnsgd1na2vs0mg"},{"bike_id":"bdda9f2f-df3d-4bb9-95ce-242f36f13042","system_id":"levelo_inurba_marseille","lat":43.27435,"lon":5.39413,"is_reserved":false,"is_disabled":false,"rental_uris":{"android":"levelo://app?vid=bdda9f2f-df3d-4bb9-95ce-242f36f13042","ios":"levelo://app?vid=bdda9f2f-df3d-4bb9-95ce-242f36f13042"},"vehicle_type_id":"4","last_reported":1730200089,"current_range_meters":37600,"station_id":"ce4bhdp2rcd13ifvqf20","pricing_plan_id":"cebpf4jnsgd1na2vs0mg"},{"bike_id":"6d535ca1-ff3a-40d6-b7f0-6895af51c976","system_id":"levelo_inurba_marseille","lat":43.32285,"lon":5.38274,"is_reserved":false,"is_disabled":false,"rental_uris":{"android":"levelo://app?vid=6d535ca1-ff3a-40d6-b7f0-6895af51c976","ios":"levelo://app?vid=6d535ca1-ff3a-40d6-b7f0-6895af51c976"},"vehicle_type_id":"4","last_reported":1730200089,"current_range_meters":33200,"station_id":"ce4bhr12rcd13ifvqhqg","pricing_plan_id":"cebpf4jnsgd1na2vs0mg"},{"bike_id":"bd1d0c81-a505-473b-97ed-c2b8dcfa3ede","system_id":"levelo_inurba_marseille","lat":43.28423,"lon":5.34983,"is_reserved":false,"is_disabled":false,"rental_uris":{"android":"levelo://app?vid=bd1d0c81-a505-473b-97ed-c2b8dcfa3ede","ios":"levelo://app?vid=bd1d0c81-a505-473b-97ed-c2b8dcfa3ede"},"vehicle_type_id":"4","last_reported":1730200089,"current_range_meters":33200,"station_id":"ce4bhbh2rcd13ifvqepg","pricing_plan_id":"cebpf4jnsgd1na2vs0mg"},{"bike_id":"98d8ad1f-cce5-41a7-9713-584cc85a31c9","system_id":"levelo_inurba_marseille","lat":43.28151,"lon":5.42638,"is_reserved":false,"is_disabled":false,"rental_uris":{"android":"levelo://app?vid=98d8ad1f-cce5-41a7-9713-584cc85a31c9","ios":"levelo://app?vid=98d8ad1f-cce5-41a7-9713-584cc85a31c9"},"vehicle_type_id":"4","last_reported":1730200089,"current_range_meters":38400,"station_id":"ce4bhnh2rcd13ifvqgug","pricing_plan_id":"cebpf4jnsgd1na2vs0mg"},{"bike_id":"9ed6ece7-5f54-4c85-ab41-09b6c89b90f0","system_id":"levelo_inurba_marseille","lat":43.24805,"lon":5.37454,"is_reserved":false,"is_disabled":false,"rental_uris":{"android":"levelo://app?vid=9ed6ece7-5f54-4c85-ab41-09b6c89b90f0","ios":"levelo://app?vid=9ed6ece7-5f54-4c85-ab41-09b6c89b90f0"},"vehicle_type_id":"4","last_reported":1730200089,"current_range_meters":28800,"station_id":"ce4bhgh2rcd13ifvqfb0","pricing_plan_id":"cebpf4jnsgd1na2vs0mg"},{"bike_id":"2866122b-d153-4cce-8446-364e1a8395d4","system_id":"levelo_inurba_marseille","lat":43.3149,"lon":5.37301,"is_reserved":false,"is_disabled":false,"rental_uris":{"android":"levelo://app?vid=2866122b-d153-4cce-8446-364e1a8395d4","ios":"levelo://app?vid=2866122b-d153-4cce-8446-364e1a8395d4"},"vehicle_type_id":"4","last_reported":1730200089,"current_range_meters":38400,"station_id":"ce4bgt12rcd13ifvqcd0","pricing_plan_id":"cebpf4jnsgd1na2vs0mg"},{"bike_id":"aec282c3-324d-487a-8850-842dfff52168","system_id":"levelo_inurba_marseille","lat":43.23155,"lon":5.43708,"is_reserved":false,"is_disabled":false,"rental_uris":{"android":"levelo://app?vid=aec282c3-324d-487a-8850-842dfff52168","ios":"levelo://app?vid=aec282c3-324d-487a-8850-842dfff52168"},"vehicle_type_id":"4","last_reported":1730200089,"current_range_meters":24800,"station_id":"ce4bhmp2rcd13ifvqgog","pricing_plan_id":"cebpf4jnsgd1na2vs0mg"},{"bike_id":"71ca1ef6-5725-460f-9bb5-daec8bfd3521","system_id":"levelo_inurba_marseille","lat":43.33024,"lon":5.39037,"is_reserved":false,"is_disabled":false,"rental_uris":{"android":"levelo://app?vid=71ca1ef6-5725-460f-9bb5-daec8bfd3521","ios":"levelo://app?vid=71ca1ef6-5725-460f-9bb5-daec8bfd3521"},"vehicle_type_id":"4","last_reported":1730200089,"current_range_meters":27200,"station_id":"ce4bhr92rcd13ifvqhrg","pricing_plan_id":"cebpf4jnsgd1na2vs0mg"},{"bike_id":"160c3125-d109-49e3-a687-ede78b99dea2","system_id":"levelo_inurba_marseille","lat":43.23202,"lon":5.35546,"is_reserved":false,"is_disabled":false,"rental_uris":{"android":"levelo://app?vid=160c3125-d109-49e3-a687-ede78b99dea2","ios":"levelo://app?vid=160c3125-d109-49e3-a687-ede78b99dea2"},"vehicle_type_id":"4","last_reported":1730200089,"current_range_meters":16800,"station_id":"ce4bhu92rcd13ifvqi70","pricing_plan_id":"cebpf4jnsgd1na2vs0mg"},{"bike_id":"27edc2bb-9c3f-48e5-b1e5-ca1fd7b23862","system_id":"levelo_inurba_marseille","lat":43.2721,"lon":5.39175,"is_reserved":false,"is_disabled":false,"rental_uris":{"android":"levelo://app?vid=27edc2bb-9c3f-48e5-b1e5-ca1fd7b23862","ios":"levelo://app?vid=27edc2bb-9c3f-48e5-b1e5-ca1fd7b23862"},"vehicle_type_id":"4","last_reported":1730200089,"current_range_meters":35200,"station_id":"ce4bhhp2rcd13ifvqfm0","pricing_plan_id":"cebpf4jnsgd1na2vs0mg"},{"bike_id":"7a3f60d6-5589-44b2-bea7-8a929e9b6b4e","system_id":"levelo_inurba_marseille","lat":43.29897,"lon":5.43668,"is_reserved":false,"is_disabled":false,"rental_uris":{"android":"levelo://app?vid=7a3f60d6-5589-44b2-bea7-8a929e9b6b4e","ios":"levelo://app?vid=7a3f60d6-5589-44b2-bea7-8a929e9b6b4e"},"vehicle_type_id":"4","last_reported":1730200089,"current_range_meters":17600,"station_id":"ce4bhpp2rcd13ifvqhfg","pricing_plan_id":"cebpf4jnsgd1na2vs0mg"},{"bike_id":"58c76d7e-ede0-49b4-adb5-3e66ee6972dd","system_id":"levelo_inurba_marseille","lat":43.25938,"lon":5.40892,"is_reserved":false,"is_disabled":false,"rental_uris":{"android":"levelo://app?vid=58c76d7e-ede0-49b4-adb5-3e66ee6972dd","ios":"levelo://app?vid=58c76d7e-ede0-49b4-adb5-3e66ee6972dd"},"vehicle_type_id":"4","last_reported":1730200089,"current_range_meters":29600,"station_id":"ce4bhm92rcd13ifvqglg","pricing_plan_id":"cebpf4jnsgd1na2vs0mg"},{"bike_id":"194228cc-72ed-4fc7-b446-df1e0f6d1b40","system_id":"levelo_inurba_marseille","lat":43.2418,"lon":5.39712,"is_reserved":false,"is_disabled":false,"rental_uris":{"android":"levelo://app?vid=194228cc-72ed-4fc7-b446-df1e0f6d1b40","ios":"levelo://app?vid=194228cc-72ed-4fc7-b446-df1e0f6d1b40"},"vehicle_type_id":"4","last_reported":1730200089,"current_range_meters":26800,"station_id":"ce4bhn12rcd13ifvqgpg","pricing_plan_id":"cebpf4jnsgd1na2vs0mg"},{"bike_id":"aaae4394-7fa3-45a5-801e-db79db880862","system_id":"levelo_inurba_marseille","lat":43.30138,"lon":5.37417,"is_reserved":false,"is_disabled":false,"rental_uris":{"android":"levelo://app?vid=aaae4394-7fa3-45a5-801e-db79db880862","ios":"levelo://app?vid=aaae4394-7fa3-45a5-801e-db79db880862"},"vehicle_type_id":"4","last_reported":1730200089,"current_range_meters":38000,"station_id":"ce4bgs92rcd13ifvqcc0","pricing_plan_id":"cebpf4jnsgd1na2vs0mg"},{"bike_id":"8b23b470-7740-40b5-a268-9621e9a22558","system_id":"levelo_inurba_marseille","lat":43.23153,"lon":5.43699,"is_reserved":false,"is_disabled":false,"rental_uris":{"android":"levelo://app?vid=8b23b470-7740-40b5-a268-9621e9a22558","ios":"levelo://app?vid=8b23b470-7740-40b5-a268-9621e9a22558"},"vehicle_type_id":"4","last_reported":1730200089,"current_range_meters":24800,"station_id":"ce4bhmp2rcd13ifvqgog","pricing_plan_id":"cebpf4jnsgd1na2vs0mg"},{"bike_id":"4610bff7-5313-41f8-8fdc-7e503ab891b4","system_id":"levelo_inurba_marseille","lat":43.27203,"lon":5.39178,"is_reserved":false,"is_disabled":false,"rental_uris":{"android":"levelo://app?vid=4610bff7-5313-41f8-8fdc-7e503ab891b4","ios":"levelo://app?vid=4610bff7-5313-41f8-8fdc-7e503ab891b4"},"vehicle_type_id":"4","last_reported":1730200089,"current_range_meters":14800,"station_id":"ce4bhhp2rcd13ifvqfm0","pricing_plan_id":"cebpf4jnsgd1na2vs0mg"},{"bike_id":"65fe9e28-0526-4b4d-8cb6-579b041ed280","system_id":"levelo_inurba_marseille","lat":43.29846,"lon":5.36264,"is_reserved":false,"is_disabled":false,"rental_uris":{"android":"levelo://app?vid=65fe9e28-0526-4b4d-8cb6-579b041ed280","ios":"levelo://app?vid=65fe9e28-0526-4b4d-8cb6-579b041ed280"},"vehicle_type_id":"4","last_reported":1730200089,"current_range_meters":38800,"station_id":"ce4bgpp2rcd13ifvqc3g","pricing_plan_id":"cebpf4jnsgd1na2vs0mg"},{"bike_id":"06b9e833-8ff6-4263-b869-fe3c0c1108cc","system_id":"levelo_inurba_marseille","lat":43.303039,"lon":5.392163,"is_reserved":false,"is_disabled":false,"rental_uris":{"android":"levelo://app?vid=06b9e833-8ff6-4263-b869-fe3c0c1108cc","ios":"levelo://app?vid=06b9e833-8ff6-4263-b869-fe3c0c1108cc"},"vehicle_type_id":"4","last_reported":1730200089,"current_range_meters":36400,"station_id":"ce4bgkh2rcd13ifvqbk0","pricing_plan_id":"cebpf4jnsgd1na2vs0mg"},{"bike_id":"b2d64dff-709e-4614-a99d-2893b7b31777","system_id":"levelo_inurba_marseille","lat":43.30875,"lon":5.37184,"is_reserved":false,"is_disabled":false,"rental_uris":{"android":"levelo://app?vid=b2d64dff-709e-4614-a99d-2893b7b31777","ios":"levelo://app?vid=b2d64dff-709e-4614-a99d-2893b7b31777"},"vehicle_type_id":"4","last_reported":1730200089,"current_range_meters":38000,"station_id":"ce4bguh2rcd13ifvqckg","pricing_plan_id":"cebpf4jnsgd1na2vs0mg"},{"bike_id":"95dc376b-5485-492f-a3da-ccdbc08bb992","system_id":"levelo_inurba_marseille","lat":43.29529,"lon":5.38533,"is_reserved":false,"is_disabled":false,"rental_uris":{"android":"levelo://app?vid=95dc376b-5485-492f-a3da-ccdbc08bb992","ios":"levelo://app?vid=95dc376b-5485-492f-a3da-ccdbc08bb992"},"vehicle_type_id":"4","last_reported":1730200089,"current_range_meters":27600,"station_id":"ce4bgih2rcd13ifvqba0","pricing_plan_id":"cebpf4jnsgd1na2vs0mg"},{"bike_id":"f225e407-d5a4-4c80-a458-50c71abd4e6c","system_id":"levelo_inurba_marseille","lat":43.24661,"lon":5.3816,"is_reserved":false,"is_disabled":false,"rental_uris":{"android":"levelo://app?vid=f225e407-d5a4-4c80-a458-50c71abd4e6c","ios":"levelo://app?vid=f225e407-d5a4-4c80-a458-50c71abd4e6c"},"vehicle_type_id":"4","last_reported":1730200089,"current_range_meters":14800,"station_id":"ce4bhih2rcd13ifvqfr0","pricing_plan_id":"cebpf4jnsgd1na2vs0mg"},{"bike_id":"6292f4b6-1885-4a92-a640-069ffe1c3295","system_id":"levelo_inurba_marseille","lat":43.30184,"lon":5.36625,"is_reserved":false,"is_disabled":false,"rental_uris":{"android":"levelo://app?vid=6292f4b6-1885-4a92-a640-069ffe1c3295","ios":"levelo://app?vid=6292f4b6-1885-4a92-a640-069ffe1c3295"},"vehicle_type_id":"4","last_reported":1730200089,"current_range_meters":37600,"station_id":"ce4bgrh2rcd13ifvqc8g","pricing_plan_id":"cebpf4jnsgd1na2vs0mg"},{"bike_id":"53de6810-640b-4e22-8c58-ce2a1237006c","system_id":"levelo_inurba_marseille","lat":43.28713,"lon":5.37931,"is_reserved":false,"is_disabled":false,"rental_uris":{"android":"levelo://app?vid=53de6810-640b-4e22-8c58-ce2a1237006c","ios":"levelo://app?vid=53de6810-640b-4e22-8c58-ce2a1237006c"},"vehicle_type_id":"4","last_reported":1730200089,"current_range_meters":38800,"station_id":"ce4bh9p2rcd13ifvqec0","pricing_plan_id":"cebpf4jnsgd1na2vs0mg"},{"bike_id":"1607b408-fc06-41eb-81d3-0f80535808b4","system_id":"levelo_inurba_marseille","lat":43.28347,"lon":5.38103,"is_reserved":false,"is_disabled":false,"rental_uris":{"android":"levelo://app?vid=1607b408-fc06-41eb-81d3-0f80535808b4","ios":"levelo://app?vid=1607b408-fc06-41eb-81d3-0f80535808b4"},"vehicle_type_id":"4","last_reported":1730200089,"current_range_meters":13600,"station_id":"ce4bh412rcd13ifvqdr0","pricing_plan_id":"cebpf4jnsgd1na2vs0mg"},{"bike_id":"e89f9628-16a6-47cd-807d-f0965232ba2c","system_id":"levelo_inurba_marseille","lat":43.26207,"lon":5.37923,"is_reserved":false,"is_disabled":false,"rental_uris":{"android":"levelo://app?vid=e89f9628-16a6-47cd-807d-f0965232ba2c","ios":"levelo://app?vid=e89f9628-16a6-47cd-807d-f0965232ba2c"},"vehicle_type_id":"4","last_reported":1730200089,"current_range_meters":28800,"station_id":"ce4bhjp2rcd13ifvqg90","pricing_plan_id":"cebpf4jnsgd1na2vs0mg"},{"bike_id":"27bae91d-fd0a-4f5b-86ab-97ceeeec4447","system_id":"levelo_inurba_marseille","lat":43.30095,"lon":5.39074,"is_reserved":false,"is_disabled":false,"rental_uris":{"android":"levelo://app?vid=27bae91d-fd0a-4f5b-86ab-97ceeeec4447","ios":"levelo://app?vid=27bae91d-fd0a-4f5b-86ab-97ceeeec4447"},"vehicle_type_id":"4","last_reported":1730200089,"current_range_meters":32800,"station_id":"ce4bh192rcd13ifvqdb0","pricing_plan_id":"cebpf4jnsgd1na2vs0mg"},{"bike_id":"4817c302-5834-48f5-8761-abb4b52f7dea","system_id":"levelo_inurba_marseille","lat":43.22933,"lon":5.35379,"is_reserved":false,"is_disabled":false,"rental_uris":{"android":"levelo://app?vid=4817c302-5834-48f5-8761-abb4b52f7dea","ios":"levelo://app?vid=4817c302-5834-48f5-8761-abb4b52f7dea"},"vehicle_type_id":"4","last_reported":1730200089,"current_range_meters":20800,"station_id":"cpo3532slgdg3j2ikp40","pricing_plan_id":"cebpf4jnsgd1na2vs0mg"},{"bike_id":"867b409c-962e-4c75-aba2-14cc0f1bfda6","system_id":"levelo_inurba_marseille","lat":43.2418,"lon":5.39721,"is_reserved":false,"is_disabled":false,"rental_uris":{"android":"levelo://app?vid=867b409c-962e-4c75-aba2-14cc0f1bfda6","ios":"levelo://app?vid=867b409c-962e-4c75-aba2-14cc0f1bfda6"},"vehicle_type_id":"4","last_reported":1730200089,"current_range_meters":30400,"station_id":"ce4bhn12rcd13ifvqgpg","pricing_plan_id":"cebpf4jnsgd1na2vs0mg"},{"bike_id":"0ca8ce2c-2b95-4829-913f-3c1e1e6193e6","system_id":"levelo_inurba_marseille","lat":43.27205,"lon":5.39186,"is_reserved":false,"is_disabled":false,"rental_uris":{"android":"levelo://app?vid=0ca8ce2c-2b95-4829-913f-3c1e1e6193e6","ios":"levelo://app?vid=0ca8ce2c-2b95-4829-913f-3c1e1e6193e6"},"vehicle_type_id":"4","last_reported":1730200089,"current_range_meters":38800,"station_id":"ce4bhhp2rcd13ifvqfm0","pricing_plan_id":"cebpf4jnsgd1na2vs0mg"},{"bike_id":"858a5c30-f1e7-444f-90de-b4312a05101f","system_id":"levelo_inurba_marseille","lat":43.29842,"lon":5.36267,"is_reserved":false,"is_disabled":false,"rental_uris":{"android":"levelo://app?vid=858a5c30-f1e7-444f-90de-b4312a05101f","ios":"levelo://app?vid=858a5c30-f1e7-444f-90de-b4312a05101f"},"vehicle_type_id":"4","last_reported":1730200089,"current_range_meters":18800,"station_id":"ce4bgpp2rcd13ifvqc3g","pricing_plan_id":"cebpf4jnsgd1na2vs0mg"},{"bike_id":"c1924099-df46-4593-804b-6075d026d6f7","system_id":"levelo_inurba_marseille","lat":43.281518,"lon":5.426444,"is_reserved":false,"is_disabled":false,"rental_uris":{"android":"levelo://app?vid=c1924099-df46-4593-804b-6075d026d6f7","ios":"levelo://app?vid=c1924099-df46-4593-804b-6075d026d6f7"},"vehicle_type_id":"4","last_reported":1730200089,"current_range_meters":35200,"station_id":"ce4bhhp2rcd13ifvqfm0","pricing_plan_id":"cebpf4jnsgd1na2vs0mg"},{"bike_id":"f137e389-05d9-4727-a7f4-8a5bdf157c92","system_id":"levelo_inurba_marseille","lat":43.29788,"lon":5.39349,"is_reserved":false,"is_disabled":false,"rental_uris":{"android":"levelo://app?vid=f137e389-05d9-4727-a7f4-8a5bdf157c92","ios":"levelo://app?vid=f137e389-05d9-4727-a7f4-8a5bdf157c92"},"vehicle_type_id":"4","last_reported":1730200089,"current_range_meters":36800,"station_id":"chh1huq6cuj3fo74tm60","pricing_plan_id":"cebpf4jnsgd1na2vs0mg"},{"bike_id":"024fb2e4-e73f-47be-9458-6c009b1489f4","system_id":"levelo_inurba_marseille","lat":43.29719,"lon":5.37693,"is_reserved":false,"is_disabled":false,"rental_uris":{"android":"levelo://app?vid=024fb2e4-e73f-47be-9458-6c009b1489f4","ios":"levelo://app?vid=024fb2e4-e73f-47be-9458-6c009b1489f4"},"vehicle_type_id":"4","last_reported":1730200089,"current_range_meters":24400,"station_id":"ce4bgkh2rcd13ifvqbl0","pricing_plan_id":"cebpf4jnsgd1na2vs0mg"},{"bike_id":"cd4d27a6-85e6-4f7f-b8c9-cb25f6a8f34b","system_id":"levelo_inurba_marseille","lat":43.2978,"lon":5.38099,"is_reserved":false,"is_disabled":false,"rental_uris":{"android":"levelo://app?vid=cd4d27a6-85e6-4f7f-b8c9-cb25f6a8f34b","ios":"levelo://app?vid=cd4d27a6-85e6-4f7f-b8c9-cb25f6a8f34b"},"vehicle_type_id":"4","last_reported":1730200089,"current_range_meters":10800,"station_id":"ce4bgip2rcd13ifvqbb0","pricing_plan_id":"cebpf4jnsgd1na2vs0mg"},{"bike_id":"2fda6181-03f5-40ed-b158-4bcd6908625f","system_id":"levelo_inurba_marseille","lat":43.316799,"lon":5.435561,"is_reserved":false,"is_disabled":false,"rental_uris":{"android":"levelo://app?vid=2fda6181-03f5-40ed-b158-4bcd6908625f","ios":"levelo://app?vid=2fda6181-03f5-40ed-b158-4bcd6908625f"},"vehicle_type_id":"4","last_reported":1730200089,"current_range_meters":24400,"station_id":"","pricing_plan_id":"cebpf4jnsgd1na2vs0mg"},{"bike_id":"3147bfbd-3065-4ae9-a4cc-ec3dcd788d86","system_id":"levelo_inurba_marseille","lat":43.30606,"lon":5.37222,"is_reserved":false,"is_disabled":false,"rental_uris":{"android":"levelo://app?vid=3147bfbd-3065-4ae9-a4cc-ec3dcd788d86","ios":"levelo://app?vid=3147bfbd-3065-4ae9-a4cc-ec3dcd788d86"},"vehicle_type_id":"4","last_reported":1730200089,"current_range_meters":27600,"station_id":"ce4bgqh2rcd13ifvqc4g","pricing_plan_id":"cebpf4jnsgd1na2vs0mg"},{"bike_id":"53f70b62-cacd-404a-985f-f7ea91aa90ba","system_id":"levelo_inurba_marseille","lat":43.337444,"lon":5.374475,"is_reserved":false,"is_disabled":false,"rental_uris":{"android":"levelo://app?vid=53f70b62-cacd-404a-985f-f7ea91aa90ba","ios":"levelo://app?vid=53f70b62-cacd-404a-985f-f7ea91aa90ba"},"vehicle_type_id":"4","last_reported":1730200089,"current_range_meters":14800,"station_id":"ce4bho12rcd13ifvqh2g","pricing_plan_id":"cebpf4jnsgd1na2vs0mg"},{"bike_id":"6d126f3e-2af9-470f-8e5c-b695ef9f023e","system_id":"levelo_inurba_marseille","lat":43.274224,"lon":5.394182,"is_reserved":false,"is_disabled":false,"rental_uris":{"android":"levelo://app?vid=6d126f3e-2af9-470f-8e5c-b695ef9f023e","ios":"levelo://app?vid=6d126f3e-2af9-470f-8e5c-b695ef9f023e"},"vehicle_type_id":"4","last_reported":1730200089,"current_range_meters":25600,"station_id":"ce4bhdp2rcd13ifvqf20","pricing_plan_id":"cebpf4jnsgd1na2vs0mg"},{"bike_id":"e11e112d-37cb-43a0-86d1-dbf7b4bf288a","system_id":"levelo_inurba_marseille","lat":43.30907,"lon":5.36844,"is_reserved":false,"is_disabled":false,"rental_uris":{"android":"levelo://app?vid=e11e112d-37cb-43a0-86d1-dbf7b4bf288a","ios":"levelo://app?vid=e11e112d-37cb-43a0-86d1-dbf7b4bf288a"},"vehicle_type_id":"4","last_reported":1730200089,"current_range_meters":36400,"station_id":"ce4bgn92rcd13ifvqbvg","pricing_plan_id":"cebpf4jnsgd1na2vs0mg"},{"bike_id":"cda74d97-0ebb-4f48-856e-fb93ba259ba0","system_id":"levelo_inurba_marseille","lat":43.30595,"lon":5.39354,"is_reserved":false,"is_disabled":false,"rental_uris":{"android":"levelo://app?vid=cda74d97-0ebb-4f48-856e-fb93ba259ba0","ios":"levelo://app?vid=cda74d97-0ebb-4f48-856e-fb93ba259ba0"},"vehicle_type_id":"4","last_reported":1730200089,"current_range_meters":10000,"station_id":"ce4bh0p2rcd13ifvqd80","pricing_plan_id":"cebpf4jnsgd1na2vs0mg"},{"bike_id":"34b489c9-d4bd-48eb-bfd5-eb842b1e849b","system_id":"levelo_inurba_marseille","lat":43.29618,"lon":5.37155,"is_reserved":false,"is_disabled":false,"rental_uris":{"android":"levelo://app?vid=34b489c9-d4bd-48eb-bfd5-eb842b1e849b","ios":"levelo://app?vid=34b489c9-d4bd-48eb-bfd5-eb842b1e849b"},"vehicle_type_id":"4","last_reported":1730200089,"current_range_meters":29600,"station_id":"ce4bgnh2rcd13ifvqc0g","pricing_plan_id":"cebpf4jnsgd1na2vs0mg"},{"bike_id":"6f88051a-8800-4091-9470-669417e18b07","system_id":"levelo_inurba_marseille","lat":43.30191,"lon":5.36628,"is_reserved":false,"is_disabled":false,"rental_uris":{"android":"levelo://app?vid=6f88051a-8800-4091-9470-669417e18b07","ios":"levelo://app?vid=6f88051a-8800-4091-9470-669417e18b07"},"vehicle_type_id":"4","last_reported":1730200089,"current_range_meters":24000,"station_id":"ce4bgrh2rcd13ifvqc8g","pricing_plan_id":"cebpf4jnsgd1na2vs0mg"},{"bike_id":"a2c88a69-381f-47e9-9a04-33848e22832a","system_id":"levelo_inurba_marseille","lat":43.23187,"lon":5.399937,"is_reserved":false,"is_disabled":false,"rental_uris":{"android":"levelo://app?vid=a2c88a69-381f-47e9-9a04-33848e22832a","ios":"levelo://app?vid=a2c88a69-381f-47e9-9a04-33848e22832a"},"vehicle_type_id":"4","last_reported":1730200089,"current_range_meters":30000,"station_id":"ce4bhn12rcd13ifvqgqg","pricing_plan_id":"cebpf4jnsgd1na2vs0mg"},{"bike_id":"5f0842b6-6af0-49eb-b2f5-8357e326b848","system_id":"levelo_inurba_marseille","lat":43.23961,"lon":5.36627,"is_reserved":false,"is_disabled":false,"rental_uris":{"android":"levelo://app?vid=5f0842b6-6af0-49eb-b2f5-8357e326b848","ios":"levelo://app?vid=5f0842b6-6af0-49eb-b2f5-8357e326b848"},"vehicle_type_id":"4","last_reported":1730200089,"current_range_meters":22800,"station_id":"ce4bhi12rcd13ifvqfp0","pricing_plan_id":"cebpf4jnsgd1na2vs0mg"},{"bike_id":"f86c6891-46b1-4c98-8b05-53c46c6a4490","system_id":"levelo_inurba_marseille","lat":43.29807,"lon":5.38086,"is_reserved":false,"is_disabled":false,"rental_uris":{"android":"levelo://app?vid=f86c6891-46b1-4c98-8b05-53c46c6a4490","ios":"levelo://app?vid=f86c6891-46b1-4c98-8b05-53c46c6a4490"},"vehicle_type_id":"4","last_reported":1730200089,"current_range_meters":25600,"station_id":"ce4bgip2rcd13ifvqbb0","pricing_plan_id":"cebpf4jnsgd1na2vs0mg"},{"bike_id":"1f50651c-d260-4152-b7ca-20d9a73abdba","system_id":"levelo_inurba_marseille","lat":43.28114,"lon":5.37837,"is_reserved":false,"is_disabled":false,"rental_uris":{"android":"levelo://app?vid=1f50651c-d260-4152-b7ca-20d9a73abdba","ios":"levelo://app?vid=1f50651c-d260-4152-b7ca-20d9a73abdba"},"vehicle_type_id":"4","last_reported":1730200089,"current_range_meters":23200,"station_id":"ce4bha12rcd13ifvqee0","pricing_plan_id":"cebpf4jnsgd1na2vs0mg"},