{"last_updated":1740175721,"ttl":60,"version":"2.2","data":{"bikes":[{"bike_id":"15baf5eb-4275-436c-b1bc-fa4e63bce74a","system_id":"levelo_inurba_marseille","lat":43.30887,"lon":5.3966,"is_reserved":false,"is_disabled":false,"rental_uris":{"android":"levelo://app?vid=15baf5eb-4275-436c-b1bc-fa4e63bce74a","ios":"levelo://app?vid=15baf5eb-4275-436c-b1bc-fa4e63bce74a"},"vehicle_type_id":"4","last_reported":1740175721,"current_range_meters":2800,"station_id":"ce4bh012rcd13ifvqcv0","pricing_plan_id":"cebpf4jnsgd1na2vs0mg"},{"bike_id":"002bdf7d-b18f-4ac3-913b-44281b05637a","system_id":"levelo_inurba_marseille","lat":43.2893,"lon":5.36627,"is_reserved":false,"is_disabled":false,"rental_uris":{"android":"levelo://app?vid=002bdf7d-b18f-4ac3-913b-44281b05637a","ios":"levelo://app?vid=002bdf7d-b18f-4ac3-913b-44281b05637a"},"vehicle_type_id":"4","last_reported":1740175721,"current_range_meters":2800,"station_id":"ce4bhap2rcd13ifvqek0","pricing_plan_id":"cebpf4jnsgd1na2vs0mg"},{"bike_id":"cbd1a16f-0735-47ca-86d4-df2bd6c02e6f","system_id":"levelo_inurba_marseille","lat":43.27698,"lon":5.38895,"is_reserved":false,"is_disabled":false,"rental_uris":{"android":"levelo://app?vid=cbd1a16f-0735-47ca-86d4-df2bd6c02e6f","ios":"levelo://app?vid=cbd1a16f-0735-47ca-86d4-df2bd6c02e6f"},"vehicle_type_id":"4","last_reported":1740175721,"current_range_meters":2800,"station_id":"ce4bhi12rcd13ifvqfo0","pricing_plan_id":"cebpf4jnsgd1na2vs0mg"},{"bike_id":"59706855-db7b-41b6-bf99-b2ab94560039","system_id":"levelo_inurba_marseille","lat":43.28677,"lon":5.38662,"is_reserved":false,"is_disabled":false,"rental_uris":{"android":"levelo://app?vid=59706855-db7b-41b6-bf99-b2ab94560039","ios":"levelo://app?vid=59706855-db7b-41b6-bf99-b2ab94560039"},"vehicle_type_id":"4","last_reported":1740175721,"current_range_meters":3200,"station_id":"ce4bh492rcd13ifvqdug","pricing_plan_id":"cebpf4jnsgd1na2vs0mg"},{"bike_id":"57195f7b-0d23-4824-9596-24308f29aa9f","system_id":"levelo_inurba_marseille","lat":43.28082,"lon":5.39655,"is_reserved":false,"is_disabled":false,"rental_uris":{"android":"levelo://app?vid=57195f7b-0d23-4824-9596-24308f29aa9f","ios":"levelo://app?vid=57195f7b-0d23-4824-9596-24308f29aa9f"},"vehicle_type_id":"4","last_reported":1740175721,"current_range_meters":3200,"station_id":"ce4bho12rcd13ifvqh2g","pricing_plan_id":"cebpf4jnsgd1na2vs0mg"},{"bike_id":"6f4e1524-4b8c-4c11-8ada-c33a2e79163c","system_id":"levelo_inurba_marseille","lat":43.27952,"lon":5.41047,"is_reserved":false,"is_disabled":true,"rental_uris":{"android":"levelo://app?vid=6f4e1524-4b8c-4c11-8ada-c33a2e79163c","ios":"levelo://app?vid=6f4e1524-4b8c-4c11-8ada-c33a2e79163c"},"vehicle_type_id":"4","last_reported":1740175721,"current_range_meters":3600,"station_id":"ce4bhnp2rcd13ifvqh0g","pricing_plan_id":"cebpf4jnsgd1na2vs0mg"},{"bike_id":"950b7517-4ef1-41b6-b465-05870941c872","system_id":"levelo_inurba_marseille","lat":43.26231,"lon":5.37455,"is_reserved":false,"is_disabled":false,"rental_uris":{"android":"levelo://app?vid=950b7517-4ef1-41b6-b465-05870941c872","ios":"levelo://app?vid=950b7517-4ef1-41b6-b465-05870941c872"},"vehicle_type_id":"4","last_reported":1740175721,"current_range_meters":400,"station_id":"ce4bhgp2rcd13ifvqfc0","pricing_plan_id":"cebpf4jnsgd1na2vs0mg"},{"bike_id":"7f210161-0afc-456c-91d6-f90c66bc0ab3","system_id":"levelo_inurba_marseille","lat":43.299037,"lon":5.436602,"is_reserved":false,"is_disabled":false,"rental_uris":{"android":"levelo://app?vid=7f210161-0afc-456c-91d6-f90c66bc0ab3","ios":"levelo://app?vid=7f210161-0afc-456c-91d6-f90c66bc0ab3"},"vehicle_type_id":"4","last_reported":1740175721,"current_range_meters":4000,"station_id":"ce4bhpp2rcd13ifvqhfg","pricing_plan_id":"cebpf4jnsgd1na2vs0mg"},{"bike_id":"767119c9-c1b1-43cf-8185-9cf0b2e1bb95","system_id":"levelo_inurba_marseille","lat":43.25826,"lon":5.39433,"is_reserved":false,"is_disabled":false,"rental_uris":{"android":"levelo://app?vid=767119c9-c1b1-43cf-8185-9cf0b2e1bb95","ios":"levelo://app?vid=767119c9-c1b1-43cf-8185-9cf0b2e1bb95"},"vehicle_type_id":"4","last_reported":1740175721,"current_range_meters":4800,"station_id":"ce4bhip2rcd13ifvqft0","pricing_plan_id":"cebpf4jnsgd1na2vs0mg"},{"bike_id":"84c0ed41-f72b-4be3-8570-ee4b1de692a0","system_id":"levelo_inurba_marseille","lat":43.289385,"lon":5.396347,"is_reserved":false,"is_disabled":false,"rental_uris":{"android":"levelo://app?vid=84c0ed41-f72b-4be3-8570-ee4b1de692a0","ios":"levelo://app?vid=84c0ed41-f72b-4be3-8570-ee4b1de692a0"},"vehicle_type_id":"4","last_reported":1740175721,"current_range_meters":6800,"station_id":"ce4bh3h2rcd13ifvqdn0","pricing_plan_id":"cebpf4jnsgd1na2vs0mg"},{"bike_id":"06c59ed2-de41-45b0-9c3e-29186eb6c312","system_id":"levelo_inurba_marseille","lat":43.25501,"lon":5.37651,"is_reserved":false,"is_disabled":false,"rental_uris":{"android":"levelo://app?vid=06c59ed2-de41-45b0-9c3e-29186eb6c312","ios":"levelo://app?vid=06c59ed2-de41-45b0-9c3e-29186eb6c312"},"vehicle_type_id":"4","last_reported":1740175721,"current_range_meters":5600,"station_id":"ce4bhh12rcd13ifvqff0","pricing_plan_id":"cebpf4jnsgd1na2vs0mg"},{"bike_id":"142959bc-7d3e-4ea5-bc4a-48838e82273b","system_id":"levelo_inurba_marseille","lat":43.29537,"lon":5.38555,"is_reserved":false,"is_disabled":false,"rental_uris":{"android":"levelo://app?vid=142959bc-7d3e-4ea5-bc4a-48838e82273b","ios":"levelo://app?vid=142959bc-7d3e-4ea5-bc4a-48838e82273b"},"vehicle_type_id":"4","last_reported":1740175721,"current_range_meters":5600,"station_id":"ce4bgih2rcd13ifvqba0","pricing_plan_id":"cebpf4jnsgd1na2vs0mg"},{"bike_id":"52f7825f-5329-499f-994d-a9292950ac58","system_id":"levelo_inurba_marseille","lat":43.28087,"lon":5.39651,"is_reserved":false,"is_disabled":false,"rental_uris":{"android":"levelo://app?vid=52f7825f-5329-499f-994d-a9292950ac58","ios":"levelo://app?vid=52f7825f-5329-499f-994d-a9292950ac58"},"vehicle_type_id":"4","last_reported":1740175721,"current_range_meters":5600,"station_id":"ce4bho12rcd13ifvqh2g","pricing_plan_id":"cebpf4jnsgd1na2vs0mg"},{"bike_id":"160e4ffb-f318-4e02-aeee-2ad6f652888a","system_id":"levelo_inurba_marseille","lat":43.23958,"lon":5.36641,"is_reserved":false,"is_disabled":false,"rental_uris":{"android":"levelo://app?vid=160e4ffb-f318-4e02-aeee-2ad6f652888a","ios":"levelo://app?vid=160e4ffb-f318-4e02-aeee-2ad6f652888a"},"vehicle_type_id":"4","last_reported":1740175721,"current_range_meters":6000,"station_id":"ce4bhi12rcd13ifvqfp0","pricing_plan_id":"cebpf4jnsgd1na2vs0mg"},{"bike_id":"419b4ccf-9337-4dc9-9409-111b92134d45","system_id":"levelo_inurba_marseille","lat":43.26203,"lon":5.3746,"is_reserved":false,"is_disabled":true,"rental_uris":{"android":"levelo://app?vid=419b4ccf-9337-4dc9-9409-111b92134d45","ios":"levelo://app?vid=419b4ccf-9337-4dc9-9409-111b92134d45"},"vehicle_type_id":"4","last_reported":1740175721,"current_range_meters":6000,"station_id":"ce4bhgp2rcd13ifvqfc0","pricing_plan_id":"cebpf4jnsgd1na2vs0mg"},{"bike_id":"bcbf41b1-c106-418b-9a2b-b6411508120b","system_id":"levelo_inurba_marseille","lat":43.29327,"lon":5.3719,"is_reserved":false,"is_disabled":false,"rental_uris":{"android":"levelo://app?vid=bcbf41b1-c106-418b-9a2b-b6411508120b","ios":"levelo://app?vid=bcbf41b1-c106-418b-9a2b-b6411508120b"},"vehicle_type_id":"4","last_reported":1740175721,"current_range_meters":6000,"station_id":"ce4bgh92rcd13ifvqb40","pricing_plan_id":"cebpf4jnsgd1na2vs0mg"},{"bike_id":"2b79b3a7-5b74-49f4-bb58-5d5397f748f9","system_id":"levelo_inurba_marseille","lat":43.25026,"lon":5.38919,"is_reserved":false,"is_disabled":true,"rental_uris":{"android":"levelo://app?vid=2b79b3a7-5b74-49f4-bb58-5d5397f748f9","ios":"levelo://app?vid=2b79b3a7-5b74-49f4-bb58-5d5397f748f9"},"vehicle_type_id":"4","last_reported":1740175721,"current_range_meters":6400,"station_id":"ce4bhgp2rcd13ifvqfd0","pricing_plan_id":"cebpf4jnsgd1na2vs0mg"},{"bike_id":"22667569-83e4-4b7e-b993-5c6cec133a68","system_id":"levelo_inurba_marseille","lat":43.29166,"lon":5.37157,"is_reserved":false,"is_disabled":false,"rental_uris":{"android":"levelo://app?vid=22667569-83e4-4b7e-b993-5c6cec133a68","ios":"levelo://app?vid=22667569-83e4-4b7e-b993-5c6cec133a68"},"vehicle_type_id":"4","last_reported":1740175721,"current_range_meters":6800,"station_id":"ce4bha92rcd13ifvqeh0","pricing_plan_id":"cebpf4jnsgd1na2vs0mg"},{"bike_id":"65b6ea50-ddb2-44f6-8dec-7df9b03b82a9","system_id":"levelo_inurba_marseille","lat":43.314112,"lon":5.404262,"is_reserved":false,"is_disabled":false,"rental_uris":{"android":"levelo://app?vid=65b6ea50-ddb2-44f6-8dec-7df9b03b82a9","ios":"levelo://app?vid=65b6ea50-ddb2-44f6-8dec-7df9b03b82a9"},"vehicle_type_id":"4","last_reported":1740175721,"current_range_meters":6400,"station_id":"","pricing_plan_id":"cebpf4jnsgd1na2vs0mg"},{"bike_id":"6b6e1059-5264-45b9-9cb9-d24cf5205f2a","system_id":"levelo_inurba_marseille","lat":43.23971,"lon":5.36647,"is_reserved":false,"is_disabled":true,"rental_uris":{"android":"levelo://app?vid=6b6e1059-5264-45b9-9cb9-d24cf5205f2a","ios":"levelo://app?vid=6b6e1059-5264-45b9-9cb9-d24cf5205f2a"},"vehicle_type_id":"4","last_reported":1740175721,"current_range_meters":6800,"station_id":"","pricing_plan_id":"cebpf4jnsgd1na2vs0mg"},{"bike_id":"285f776a-6c37-4c62-8123-b9120720ec65","system_id":"levelo_inurba_marseille","lat":43.24805,"lon":5.39038,"is_reserved":false,"is_disabled":false,"rental_uris":{"android":"levelo://app?vid=285f776a-6c37-4c62-8123-b9120720ec65","ios":"levelo://app?vid=285f776a-6c37-4c62-8123-b9120720ec65"},"vehicle_type_id":"4","last_reported":1740175721,"current_range_meters":6800,"station_id":"","pricing_plan_id":"cebpf4jnsgd1na2vs0mg"},{"bike_id":"4c87352b-e4ee-4aa9-b24f-9d6ccdea13e6","system_id":"levelo_inurba_marseille","lat":43.25094,"lon":5.39516,"is_reserved":false,"is_disabled":false,"rental_uris":{"android":"levelo://app?vid=4c87352b-e4ee-4aa9-b24f-9d6ccdea13e6","ios":"levelo://app?vid=4c87352b-e4ee-4aa9-b24f-9d6ccdea13e6"},"vehicle_type_id":"4","last_reported":1740175721,"current_range_meters":6800,"station_id":"ce4bhm12rcd13ifvqgkg","pricing_plan_id":"cebpf4jnsgd1na2vs0mg"},{"bike_id":"590e346e-3abb-4672-b22d-ae9df315e5e2","system_id":"levelo_inurba_marseille","lat":43.30893,"lon":5.37201,"is_reserved":false,"is_disabled":false,"rental_uris":{"android":"levelo://app?vid=590e346e-3abb-4672-b22d-ae9df315e5e2","ios":"levelo://app?vid=590e346e-3abb-4672-b22d-ae9df315e5e2"},"vehicle_type_id":"4","last_reported":1740175721,"current_range_meters":11200,"station_id":"ce4bguh2rcd13ifvqckg","pricing_plan_id":"cebpf4jnsgd1na2vs0mg"},{"bike_id":"680d3794-9881-41b6-aa45-224afe3f744d","system_id":"levelo_inurba_marseille","lat":43.29537,"lon":5.38544,"is_reserved":false,"is_disabled":false,"rental_uris":{"android":"levelo://app?vid=680d3794-9881-41b6-aa45-224afe3f744d","ios":"levelo://app?vid=680d3794-9881-41b6-aa45-224afe3f744d"},"vehicle_type_id":"4","last_reported":1740175721,"current_range_meters":7200,"station_id":"ce4bgih2rcd13ifvqba0","pricing_plan_id":"cebpf4jnsgd1na2vs0mg"},{"bike_id":"2c01f343-3f49-4b0e-a699-a10894e0de7d","system_id":"levelo_inurba_marseille","lat":43.28154,"lon":5.42652,"is_reserved":false,"is_disabled":false,"rental_uris":{"android":"levelo://app?vid=2c01f343-3f49-4b0e-a699-a10894e0de7d","ios":"levelo://app?vid=2c01f343-3f49-4b0e-a699-a10894e0de7d"},"vehicle_type_id":"4","last_reported":1740175721,"current_range_meters":7200,"station_id":"ce4bhnh2rcd13ifvqgug","pricing_plan_id":"cebpf4jnsgd1na2vs0mg"},{"bike_id":"d3d1ee79-64f1-4b0a-9be2-30a2995248d6","system_id":"levelo_inurba_marseille","lat":43.30543,"lon":5.36693,"is_reserved":false,"is_disabled":false,"rental_uris":{"android":"levelo://app?vid=d3d1ee79-64f1-4b0a-9be2-30a2995248d6","ios":"levelo://app?vid=d3d1ee79-64f1-4b0a-9be2-30a2995248d6"},"vehicle_type_id":"4","last_reported":1740175721,"current_range_meters":7200,"station_id":"ce4bgrp2rcd13ifvqc9g","pricing_plan_id":"cebpf4jnsgd1na2vs0mg"},{"bike_id":"25c90cd7-1d7d-489d-9185-78ab09db9072","system_id":"levelo_inurba_marseille","lat":43.29256,"lon":5.3764,"is_reserved":false,"is_disabled":false,"rental_uris":{"android":"levelo://app?vid=25c90cd7-1d7d-489d-9185-78ab09db9072","ios":"levelo://app?vid=25c90cd7-1d7d-489d-9185-78ab09db9072"},"vehicle_type_id":"4","last_reported":1740175721,"current_range_meters":7200,"station_id":"ce4bgi12rcd13ifvqb80","pricing_plan_id":"cebpf4jnsgd1na2vs0mg"},{"bike_id":"968296c3-ea8c-4652-8630-ea92cd21a8c0","system_id":"levelo_inurba_marseille","lat":43.27372,"lon":5.36258,"is_reserved":false,"is_disabled":false,"rental_uris":{"android":"levelo://app?vid=968296c3-ea8c-4652-8630-ea92cd21a8c0","ios":"levelo://app?vid=968296c3-ea8c-4652-8630-ea92cd21a8c0"},"vehicle_type_id":"4","last_reported":1740175721,"current_range_meters":8000,"station_id":"ce4bhbh2rcd13ifvqeo0","pricing_plan_id":"cebpf4jnsgd1na2vs0mg"},{"bike_id":"b45ab281-2ffb-4786-bbfb-31f4db8658f9","system_id":"levelo_inurba_marseille","lat":43.26585,"lon":5.39035,"is_reserved":false,"is_disabled":false,"rental_uris":{"android":"levelo://app?vid=b45ab281-2ffb-4786-bbfb-31f4db8658f9","ios":"levelo://app?vid=b45ab281-2ffb-4786-bbfb-31f4db8658f9"},"vehicle_type_id":"4","last_reported":1740175721,"current_range_meters":8000,"station_id":"ce4bhe12rcd13ifvqf30","pricing_plan_id":"cebpf4jnsgd1na2vs0mg"},{"bike_id":"0584e728-54f2-4eca-887e-fe95607e016b","system_id":"levelo_inurba_marseille","lat":43.2829,"lon":5.35083,"is_reserved":false,"is_disabled":false,"rental_uris":{"android":"levelo://app?vid=0584e728-54f2-4eca-887e-fe95607e016b","ios":"levelo://app?vid=0584e728-54f2-4eca-887e-fe95607e016b"},"vehicle_type_id":"4","last_reported":1740175721,"current_range_meters":8000,"station_id":"ce4bhbp2rcd13ifvqerg","pricing_plan_id":"cebpf4jnsgd1na2vs0mg"},{"bike_id":"d18b43ef-e85e-4bbe-95fb-cc90c4d32a03","system_id":"levelo_inurba_marseille","lat":43.26957,"lon":5.3864,"is_reserved":false,"is_disabled":false,"rental_uris":{"android":"levelo://app?vid=d18b43ef-e85e-4bbe-95fb-cc90c4d32a03","ios":"levelo://app?vid=d18b43ef-e85e-4bbe-95fb-cc90c4d32a03"},"vehicle_type_id":"4","last_reported":1740175721,"current_range_meters":6800,"station_id":"ce4bhh92rcd13ifvqfh0","pricing_plan_id":"cebpf4jnsgd1na2vs0mg"},{"bike_id":"dff557ff-126c-48c2-9538-9412d8f07010","system_id":"levelo_inurba_marseille","lat":43.27918,"lon":5.39582,"is_reserved":false,"is_disabled":false,"rental_uris":{"android":"levelo://app?vid=dff557ff-126c-48c2-9538-9412d8f07010","ios":"levelo://app?vid=dff557ff-126c-48c2-9538-9412d8f07010"},"vehicle_type_id":"4","last_reported":1740175721,"current_range_meters":8000,"station_id":"ce4bhf92rcd13ifvqf40","pricing_plan_id":"cebpf4jnsgd1na2vs0mg"},{"bike_id":"65c71757-2db4-4c2c-8376-cdad3ad25014","system_id":"levelo_inurba_marseille","lat":43.30126,"lon":5.39878,"is_reserved":false,"is_disabled":false,"rental_uris":{"android":"levelo://app?vid=65c71757-2db4-4c2c-8376-cdad3ad25014","ios":"levelo://app?vid=65c71757-2db4-4c2c-8376-cdad3ad25014"},"vehicle_type_id":"4","last_reported":1740175721,"current_range_meters":8000,"station_id":"ce4bh0h2rcd13ifvqd40","pricing_plan_id":"cebpf4jnsgd1na2vs0mg"},{"bike_id":"e080c45a-a05d-4297-8995-86678422b056","system_id":"levelo_inurba_marseille","lat":43.34439,"lon":5.38088,"is_reserved":false,"is_disabled":false,"rental_uris":{"android":"levelo://app?vid=e080c45a-a05d-4297-8995-86678422b056","ios":"levelo://app?vid=e080c45a-a05d-4297-8995-86678422b056"},"vehicle_type_id":"4","last_reported":1740175721,"current_range_meters":8000,"station_id":"","pricing_plan_id":"cebpf4jnsgd1na2vs0mg"},{"bike_id":"e2124d37-d1a5-4d4d-8c06-fda2ba0b4397","system_id":"levelo_inurba_marseille","lat":43.29245,"lon":5.42624,"is_reserved":false,"is_disabled":false,"rental_uris":{"android":"levelo://app?vid=e2124d37-d1a5-4d4d-8c06-fda2ba0b4397","ios":"levelo://app?vid=e2124d37-d1a5-4d4d-8c06-fda2ba0b4397"},"vehicle_type_id":"4","last_reported":1740175721,"current_range_meters":8400,"station_id":"","pricing_plan_id":"cebpf4jnsgd1na2vs0mg"},{"bike_id":"a7e57524-7096-4476-8d9d-8e8806b1c3d0","system_id":"levelo_inurba_marseille","lat":43.23156,"lon":5.43694,"is_reserved":false,"is_disabled":true,"rental_uris":{"android":"levelo://app?vid=a7e57524-7096-4476-8d9d-8e8806b1c3d0","ios":"levelo://app?vid=a7e57524-7096-4476-8d9d-8e8806b1c3d0"},"vehicle_type_id":"4","last_reported":1740175721,"current_range_meters":8400,"station_id":"ce4bhmp2rcd13ifvqgog","pricing_plan_id":"cebpf4jnsgd1na2vs0mg"},{"bike_id":"849d245a-be14-47ff-9742-f234bf067745","system_id":"levelo_inurba_marseille","lat":43.29751,"lon":5.3791,"is_reserved":false,"is_disabled":false,"rental_uris":{"android":"levelo://app?vid=849d245a-be14-47ff-9742-f234bf067745","ios":"levelo://app?vid=849d245a-be14-47ff-9742-f234bf067745"},"vehicle_type_id":"4","last_reported":1740175721,"current_range_meters":8400,"station_id":"ce4bguh2rcd13ifvqckg","pricing_plan_id":"cebpf4jnsgd1na2vs0mg"},{"bike_id":"7bd5ff2d-d8b0-4c97-a374-dbf8680161a9","system_id":"levelo_inurba_marseille","lat":43.28696,"lon":5.37396,"is_reserved":false,"is_disabled":false,"rental_uris":{"android":"levelo://app?vid=7bd5ff2d-d8b0-4c97-a374-dbf8680161a9","ios":"levelo://app?vid=7bd5ff2d-d8b0-4c97-a374-dbf8680161a9"},"vehicle_type_id":"4","last_reported":1740175721,"current_range_meters":8400,"station_id":"ce4bh3p2rcd13ifvqdq0","pricing_plan_id":"cebpf4jnsgd1na2vs0mg"},{"bike_id":"ee50d7c3-3ab3-41f7-bb0c-fa1acb8b30ff","system_id":"levelo_inurba_marseille","lat":43.29607,"lon":5.38102,"is_reserved":false,"is_disabled":false,"rental_uris":{"android":"levelo://app?vid=ee50d7c3-3ab3-41f7-bb0c-fa1acb8b30ff","ios":"levelo://app?vid=ee50d7c3-3ab3-41f7-bb0c-fa1acb8b30ff"},"vehicle_type_id":"4","last_reported":1740175721,"current_range_meters":8800,"station_id":"ce4bgl12rcd13ifvqbo0","pricing_plan_id":"cebpf4jnsgd1na2vs0mg"},{"bike_id":"2074b46a-4462-434a-b913-d175d76b0c97","system_id":"levelo_inurba_marseille","lat":43.23965,"lon":5.36641,"is_reserved":false,"is_disabled":false,"rental_uris":{"android":"levelo://app?vid=2074b46a-4462-434a-b913-d175d76b0c97","ios":"levelo://app?vid=2074b46a-4462-434a-b913-d175d76b0c97"},"vehicle_type_id":"4","last_reported":1740175721,"current_range_meters":8800,"station_id":"ce4bhi12rcd13ifvqfp0","pricing_plan_id":"cebpf4jnsgd1na2vs0mg"},{"bike_id":"d0109f8e-c695-44b8-83b5-050518c2c6c9","system_id":"levelo_inurba_marseille","lat":43.23067,"lon":5.35487,"is_reserved":false,"is_disabled":false,"rental_uris":{"android":"levelo://app?vid=d0109f8e-c695-44b8-83b5-050518c2c6c9","ios":"levelo://app?vid=d0109f8e-c695-44b8-83b5-050518c2c6c9"},"vehicle_type_id":"4","last_reported":1740175721,"current_range_meters":8800,"station_id":"cpo3342slgdg3j2ifvpg","pricing_plan_id":"cebpf4jnsgd1na2vs0mg"},{"bike_id":"7b9eaf6e-4489-4224-b436-ef6be4484e51","system_id":"levelo_inurba_marseille","lat":43.24825,"lon":5.37453,"is_reserved":false,"is_disabled":false,"rental_uris":{"android":"levelo://app?vid=7b9eaf6e-4489-4224-b436-ef6be4484e51","ios":"levelo://app?vid=7b9eaf6e-4489-4224-b436-ef6be4484e51"},"vehicle_type_id":"4","last_reported":1740175721,"current_range_meters":8800,"station_id":"ce4bhgh2rcd13ifvqfb0","pricing_plan_id":"cebpf4jnsgd1na2vs0mg"},{"bike_id":"e2605be6-729f-4263-a772-380592b3879d","system_id":"levelo_inurba_marseille","lat":43.30473,"lon":5.3806,"is_reserved":false,"is_disabled":false,"rental_uris":{"android":"levelo://app?vid=e2605be6-729f-4263-a772-380592b3879d","ios":"levelo://app?vid=e2605be6-729f-4263-a772-380592b3879d"},"vehicle_type_id":"4","last_reported":1740175721,"current_range_meters":8800,"station_id":"","pricing_plan_id":"cebpf4jnsgd1na2vs0mg"},{"bike_id":"040b31ac-7201-41aa-9cbd-8f33b4c888b4","system_id":"levelo_inurba_marseille","lat":43.3095,"lon":5.39047,"is_reserved":false,"is_disabled":false,"rental_uris":{"android":"levelo://app?vid=040b31ac-7201-41aa-9cbd-8f33b4c888b4","ios":"levelo://app?vid=040b31ac-7201-41aa-9cbd-8f33b4c888b4"},"vehicle_type_id":"4","last_reported":1740175721,"current_range_meters":8800,"station_id":"ce4bgup2rcd13ifvqco0","pricing_plan_id":"cebpf4jnsgd1na2vs0mg"},{"bike_id":"bb91dc47-75f3-4019-97c2-8eca507ff0d9","system_id":"levelo_inurba_marseille","lat":43.29207,"lon":5.39313,"is_reserved":false,"is_disabled":false,"rental_uris":{"android":"levelo://app?vid=bb91dc47-75f3-4019-97c2-8eca507ff0d9","ios":"levelo://app?vid=bb91dc47-75f3-4019-97c2-8eca507ff0d9"},"vehicle_type_id":"4","last_reported":1740175721,"current_range_meters":9200,"station_id":"ce4bh192rcd13ifvqdd0","pricing_plan_id":"cebpf4jnsgd1na2vs0mg"},{"bike_id":"40437a03-f1c2-4b65-91e5-8f95ddce7f7b","system_id":"levelo_inurba_marseille","lat":43.29418,"lon":5.38632,"is_reserved":false,"is_disabled":false,"rental_uris":{"android":"levelo://app?vid=40437a03-f1c2-4b65-91e5-8f95ddce7f7b","ios":"levelo://app?vid=40437a03-f1c2-4b65-91e5-8f95ddce7f7b"},"vehicle_type_id":"4","last_reported":1740175721,"current_range_meters":9200,"station_id":"ce4bh2h2rcd13ifvqdh0","pricing_plan_id":"cebpf4jnsgd1na2vs0mg"},{"bike_id":"cf21038c-0333-4bf1-837e-8898d2952a5b","system_id":"levelo_inurba_marseille","lat":43.24545,"lon":5.39525,"is_reserved":false,"is_disabled":false,"rental_uris":{"android":"levelo://app?vid=cf21038c-0333-4bf1-837e-8898d2952a5b","ios":"levelo://app?vid=cf21038c-0333-4bf1-837e-8898d2952a5b"},"vehicle_type_id":"4","last_reported":1740175721,"current_range_meters":9200,"station_id":"ce4bhlp2rcd13ifvqgjg","pricing_plan_id":"cebpf4jnsgd1na2vs0mg"},{"bike_id":"37997c59-d0f6-4e17-844d-6b689b8d69d8","system_id":"levelo_inurba_marseille","lat":43.2944,"lon":5.38655,"is_reserved":false,"is_disabled":false,"rental_uris":{"android":"levelo://app?vid=37997c59-d0f6-4e17-844d-6b689b8d69d8","ios":"levelo://app?vid=37997c59-d0f6-4e17-844d-6b689b8d69d8"},"vehicle_type_id":"4","last_reported":1740175721,"current_range_meters":9200,"station_id":"ce4bh2h2rcd13ifvqdh0","pricing_plan_id":"cebpf4jnsgd1na2vs0mg"},{"bike_id":"ae247aba-916f-4b0f-b2cd-cd9e14ebf058","system_id":"levelo_inurba_marseille","lat":43.30248,"lon":5.40048,"is_reserved":false,"is_disabled":false,"rental_uris":{"android":"levelo://app?vid=ae247aba-916f-4b0f-b2cd-cd9e14ebf058","ios":"levelo://app?vid=ae247aba-916f-4b0f-b2cd-cd9e14ebf058"},"vehicle_type_id":"4","last_reported":1740175721,"current_range_meters":9200,"station_id":"ce4bgvh2rcd13ifvqcs0","pricing_plan_id":"cebpf4jnsgd1na2vs0mg"},{"bike_id":"c0d6c131-aacf-4529-aad8-041fd8310aae","system_id":"levelo_inurba_marseille","lat":43.29137,"lon":5.37565,"is_reserved":false,"is_disabled":false,"rental_uris":{"android":"levelo://app?vid=c0d6c131-aacf-4529-aad8-041fd8310aae","ios":"levelo://app?vid=c0d6c131-aacf-4529-aad8-041fd8310aae"},"vehicle_type_id":"4","last_reported":1740175721,"current_range_meters":9200,"station_id":"","pricing_plan_id":"cebpf4jnsgd1na2vs0mg"},{"bike_id":"b1c80ef2-1886-4719-a907-a5cd4fa9c85e","system_id":"levelo_inurba_marseille","lat":43.2943,"lon":5.38626,"is_reserved":false,"is_disabled":false,"rental_uris":{"android":"levelo://app?vid=b1c80ef2-1886-4719-a907-a5cd4fa9c85e","ios":"levelo://app?vid=b1c80ef2-1886-4719-a907-a5cd4fa9c85e"},"vehicle_type_id":"4","last_reported":1740175721,"current_range_meters":9600,"station_id":"ce4bh2h2rcd13ifvqdh0","pricing_plan_id":"cebpf4jnsgd1na2vs0mg"},{"bike_id":"ff72b3d6-f08b-4cec-82b6-3f5bf8bd662b","system_id":"levelo_inurba_marseille","lat":43.28151,"lon":5.42617,"is_reserved":false,"is_disabled":false,"rental_uris":{"android":"levelo://app?vid=ff72b3d6-f08b-4cec-82b6-3f5bf8bd662b","ios":"levelo://app?vid=ff72b3d6-f08b-4cec-82b6-3f5bf8bd662b"},"vehicle_type_id":"4","last_reported":1740175721,"current_range_meters":9600,"station_id":"ce4bhnh2rcd13ifvqgug","pricing_plan_id":"cebpf4jnsgd1na2vs0mg"},{"bike_id":"47ad7c30-34cc-434c-9d7d-27d0d397ecd8","system_id":"levelo_inurba_marseille","lat":43.27808,"lon":5.40698,"is_reserved":false,"is_disabled":false,"rental_uris":{"android":"levelo://app?vid=47ad7c30-34cc-434c-9d7d-27d0d397ecd8","ios":"levelo://app?vid=47ad7c30-34cc-434c-9d7d-27d0d397ecd8"},"vehicle_type_id":"4","last_reported":1740175721,"current_range_meters":9600,"station_id":"ce4bhnh2rcd13ifvqgtg","pricing_plan_id":"cebpf4jnsgd1na2vs0mg"},{"bike_id":"d121a124-6d30-4c51-8e6d-15d13129e994","system_id":"levelo_inurba_marseille","lat":43.24804,"lon":5.37454,"is_reserved":false,"is_disabled":false,"rental_uris":{"android":"levelo://app?vid=d121a124-6d30-4c51-8e6d-15d13129e994","ios":"levelo://app?vid=d121a124-6d30-4c51-8e6d-15d13129e994"},"vehicle_type_id":"4","last_reported":1740175721,"current_range_meters":9600,"station_id":"ce4bhgh2rcd13ifvqfb0","pricing_plan_id":"cebpf4jnsgd1na2vs0mg"},{"bike_id":"2b8d73ad-5137-4320-bf7a-9fcaea6cd84f","system_id":"levelo_inurba_marseille","lat":43.27992,"lon":5.4002,"is_reserved":false,"is_disabled":false,"rental_uris":{"android":"levelo://app?vid=2b8d73ad-5137-4320-bf7a-9fcaea6cd84f","ios":"levelo://app?vid=2b8d73ad-5137-4320-bf7a-9fcaea6cd84f"},"vehicle_type_id":"4","last_reported":1740175721,"current_range_meters":9600,"station_id":"ce4bho92rcd13ifvqh4g","pricing_plan_id":"cebpf4jnsgd1na2vs0mg"},{"bike_id":"d414c500-f227-4efb-aabd-f7246cca81bc","system_id":"levelo_inurba_marseille","lat":43.230629,"lon":5.354956,"is_reserved":false,"is_disabled":false,"rental_uris":{"android":"levelo://app?vid=d414c500-f227-4efb-aabd-f7246cca81bc","ios":"levelo://app?vid=d414c500-f227-4efb-aabd-f7246cca81bc"},"vehicle_type_id":"4","last_reported":1740175721,"current_range_meters":9600,"station_id":"cpo3342slgdg3j2ifvpg","pricing_plan_id":"cebpf4jnsgd1na2vs0mg"},{"bike_id":"d27d48ff-9dbf-4f1d-be11-933dfc7fe146","system_id":"levelo_inurba_marseille","lat":43.2841,"lon":5.37547,"is_reserved":false,"is_disabled":false,"rental_uris":{"android":"levelo://app?vid=d27d48ff-9dbf-4f1d-be11-933dfc7fe146","ios":"levelo://app?vid=d27d48ff-9dbf-4f1d-be11-933dfc7fe146"},"vehicle_type_id":"4","last_reported":1740175721,"current_range_meters":9600,"station_id":"ce4bh412rcd13ifvqds0","pricing_plan_id":"cebpf4jnsgd1na2vs0mg"},{"bike_id":"f3feea2e-5bf7-41f6-a6d2-c494ec11d6a2","system_id":"levelo_inurba_marseille","lat":43.230658,"lon":5.354909,"is_reserved":false,"is_disabled":false,"rental_uris":{"android":"levelo://app?vid=f3feea2e-5bf7-41f6-a6d2-c494ec11d6a2","ios":"levelo://app?vid=f3feea2e-5bf7-41f6-a6d2-c494ec11d6a2"},"vehicle_type_id":"4","last_reported":1740175721,"current_range_meters":9600,"station_id":"cpo3342slgdg3j2ifvpg","pricing_plan_id":"cebpf4jnsgd1na2vs0mg"},{"bike_id":"84c075d3-179e-4f3d-8887-25bb9583ca9b","system_id":"levelo_inurba_marseille","lat":43.29419,"lon":5.38632,"is_reserved":false,"is_disabled":false,"rental_uris":{"android":"levelo://app?vid=84c075d3-179e-4f3d-8887-25bb9583ca9b","ios":"levelo://app?vid=84c075d3-179e-4f3d-8887-25bb9583ca9b"},"vehicle_type_id":"4","last_reported":1740175721,"current_range_meters":10000,"station_id":"ce4bh2h2rcd13ifvqdh0","pricing_plan_id":"cebpf4jnsgd1na2vs0mg"},{"bike_id":"a6556200-7082-4a45-9dfc-37d3801d71f2","system_id":"levelo_inurba_marseille","lat":43.292,"lon":5.39318,"is_reserved":false,"is_disabled":false,"rental_uris":{"android":"levelo://app?vid=a6556200-7082-4a45-9dfc-37d3801d71f2","ios":"levelo://app?vid=a6556200-7082-4a45-9dfc-37d3801d71f2"},"vehicle_type_id":"4","last_reported":1740175721,"current_range_meters":10000,"station_id":"ce4bh192rcd13ifvqdd0","pricing_plan_id":"cebpf4jnsgd1na2vs0mg"},{"bike_id":"7d7e5f80-b201-428e-bf73-9f624c3ed7de","system_id":"levelo_inurba_marseille","lat":43.255,"lon":5.37653,"is_reserved":false,"is_disabled":false,"rental_uris":{"android":"levelo://app?vid=7d7e5f80-b201-428e-bf73-9f624c3ed7de","ios":"levelo://app?vid=7d7e5f80-b201-428e-bf73-9f624c3ed7de"},"vehicle_type_id":"4","last_reported":1740175721,"current_range_meters":10000,"station_id":"ce4bhh12rcd13ifvqff0","pricing_plan_id":"cebpf4jnsgd1na2vs0mg"},{"bike_id":"85e1a65a-bbbe-4c67-a7e7-d87e622bfa15","system_id":"levelo_inurba_marseille","lat":43.29962,"lon":5.38521,"is_reserved":false,"is_disabled":false,"rental_uris":{"android":"levelo://app?vid=85e1a65a-bbbe-4c67-a7e7-d87e622bfa15","ios":"levelo://app?vid=85e1a65a-bbbe-4c67-a7e7-d87e622bfa15"},"vehicle_type_id":"4","last_reported":1740175721,"current_range_meters":10000,"station_id":"ce4bgj92rcd13ifvqbd0","pricing_plan_id":"cebpf4jnsgd1na2vs0mg"},{"bike_id":"28f8439e-b0b1-44b6-a119-b141f9f63fc4","system_id":"levelo_inurba_marseille","lat":43.28695,"lon":5.37379,"is_reserved":false,"is_disabled":false,"rental_uris":{"android":"levelo://app?vid=28f8439e-b0b1-44b6-a119-b141f9f63fc4","ios":"levelo://app?vid=28f8439e-b0b1-44b6-a119-b141f9f63fc4"},"vehicle_type_id":"4","last_reported":1740175721,"current_range_meters":10000,"station_id":"ce4bh3p2rcd13ifvqdq0","pricing_plan_id":"cebpf4jnsgd1na2vs0mg"},{"bike_id":"943382b3-3ac2-40b7-baae-7ca1aec3b930","system_id":"levelo_inurba_marseille","lat":43.28148,"lon":5.42654,"is_reserved":false,"is_disabled":false,"rental_uris":{"android":"levelo://app?vid=943382b3-3ac2-40b7-baae-7ca1aec3b930","ios":"levelo://app?vid=943382b3-3ac2-40b7-baae-7ca1aec3b930"},"vehicle_type_id":"4","last_reported":1740175721,"current_range_meters":10000,"station_id":"ce4bhnh2rcd13ifvqgug","pricing_plan_id":"cebpf4jnsgd1na2vs0mg"},{"bike_id":"b1906870-71e4-4ed8-a81f-188e8c792f6f","system_id":"levelo_inurba_marseille","lat":43.294228,"lon":5.386083,"is_reserved":false,"is_disabled":false,"rental_uris":{"android":"levelo://app?vid=b1906870-71e4-4ed8-a81f-188e8c792f6f","ios":"levelo://app?vid=b1906870-71e4-4ed8-a81f-188e8c792f6f"},"vehicle_type_id":"4","last_reported":1740175721,"current_range_meters":10000,"station_id":"ce4bh2h2rcd13ifvqdh0","pricing_plan_id":"cebpf4jnsgd1na2vs0mg"},{"bike_id":"f1e696b2-5805-430b-830c-9d9cc0c3b15b","system_id":"levelo_inurba_marseille","lat":43.28458,"lon":5.35893,"is_reserved":false,"is_disabled":false,"rental_uris":{"android":"levelo://app?vid=f1e696b2-5805-430b-830c-9d9cc0c3b15b","ios":"levelo://app?vid=f1e696b2-5805-430b-830c-9d9cc0c3b15b"},"vehicle_type_id":"4","last_reported":1740175721,"current_range_meters":10000,"station_id":"ce4bhah2rcd13ifvqei0","pricing_plan_id":"cebpf4jnsgd1na2vs0mg"},{"bike_id":"7a811fd9-b132-4914-a795-bbd931482c71","system_id":"levelo_inurba_marseille","lat":43.29532,"lon":5.38548,"is_reserved":false,"is_disabled":true,"rental_uris":{"android":"levelo://app?vid=7a811fd9-b132-4914-a795-bbd931482c71","ios":"levelo://app?vid=7a811fd9-b132-4914-a795-bbd931482c71"},"vehicle_type_id":"4","last_reported":1740175721,"current_range_meters":10800,"station_id":"ce4bgih2rcd13ifvqba0","pricing_plan_id":"cebpf4jnsgd1na2vs0mg"},{"bike_id":"e2bfc688-98b6-4485-95fc-5479f69052f7","system_id":"levelo_inurba_marseille","lat":43.28263,"lon":5.3506,"is_reserved":false,"is_disabled":false,"rental_uris":{"android":"levelo://app?vid=e2bfc688-98b6-4485-95fc-5479f69052f7","ios":"levelo://app?vid=e2bfc688-98b6-4485-95fc-5479f69052f7"},"vehicle_type_id":"4","last_reported":1740175721,"current_range_meters":10800,"station_id":"ce4bhbp2rcd13ifvqerg","pricing_plan_id":"cebpf4jnsgd1na2vs0mg"},{"bike_id":"4bb34720-caed-421b-b6e4-61964a26c836","system_id":"levelo_inurba_marseille","lat":43.2928,"lon":5.3844,"is_reserved":false,"is_disabled":false,"rental_uris":{"android":"levelo://app?vid=4bb34720-caed-421b-b6e4-61964a26c836","ios":"levelo://app?vid=4bb34720-caed-421b-b6e4-61964a26c836"},"vehicle_type_id":"4","last_reported":1740175721,"current_range_meters":10800,"station_id":"ce4bh692rcd13ifvqea0","pricing_plan_id":"cebpf4jnsgd1na2vs0mg"},{"bike_id":"b94b3b75-3cda-4a2e-8698-a717fdec2ecf","system_id":"levelo_inurba_marseille","lat":43.29444,"lon":5.39741,"is_reserved":false,"is_disabled":false,"rental_uris":{"android":"levelo://app?vid=b94b3b75-3cda-4a2e-8698-a717fdec2ecf","ios":"levelo://app?vid=b94b3b75-3cda-4a2e-8698-a717fdec2ecf"},"vehicle_type_id":"4","last_reported":1740175721,"current_range_meters":10800,"station_id":"ce4bh3h2rcd13ifvqdo0","pricing_plan_id":"cebpf4jnsgd1na2vs0mg"},{"bike_id":"fbdb5bd4-d8df-4cf1-88b9-88590ac3fee1","system_id":"levelo_inurba_marseille","lat":43.248052,"lon":5.374527,"is_reserved":false,"is_disabled":false,"rental_uris":{"android":"levelo://app?vid=fbdb5bd4-d8df-4cf1-88b9-88590ac3fee1","ios":"levelo://app?vid=fbdb5bd4-d8df-4cf1-88b9-88590ac3fee1"},"vehicle_type_id":"4","last_reported":1740175721,"current_range_meters":10800,"station_id":"ce4bhgh2rcd13ifvqfb0","pricing_plan_id":"cebpf4jnsgd1na2vs0mg"},{"bike_id":"ccc6a18a-15f3-4348-92d3-6f05617d580e","system_id":"levelo_inurba_marseille","lat":43.29441,"lon":5.38598,"is_reserved":false,"is_disabled":false,"rental_uris":{"android":"levelo://app?vid=ccc6a18a-15f3-4348-92d3-6f05617d580e","ios":"levelo://app?vid=ccc6a18a-15f3-4348-92d3-6f05617d580e"},"vehicle_type_id":"4","last_reported":1740175721,"current_range_meters":10800,"station_id":"ce4bh2h2rcd13ifvqdh0","pricing_plan_id":"cebpf4jnsgd1na2vs0mg"},{"bike_id":"3c753c60-fb1b-482a-9aa0-e77ec0980033","system_id":"levelo_inurba_marseille","lat":43.245463,"lon":5.39524,"is_reserved":false,"is_disabled":false,"rental_uris":{"android":"levelo://app?vid=3c753c60-fb1b-482a-9aa0-e77ec0980033","ios":"levelo://app?vid=3c753c60-fb1b-482a-9aa0-e77ec0980033"},"vehicle_type_id":"4","last_reported":1740175721,"current_range_meters":10800,"station_id":"ce4bhlp2rcd13ifvqgjg","pricing_plan_id":"cebpf4jnsgd1na2vs0mg"},{"bike_id":"2afb22c7-7048-4615-a3b7-71b0be04e579","system_id":"levelo_inurba_marseille","lat":43.23184,"lon":5.3557,"is_reserved":false,"is_disabled":false,"rental_uris":{"android":"levelo://app?vid=2afb22c7-7048-4615-a3b7-71b0be04e579","ios":"levelo://app?vid=2afb22c7-7048-4615-a3b7-71b0be04e579"},"vehicle_type_id":"4","last_reported":1740175721,"current_range_meters":10800,"station_id":"","pricing_plan_id":"cebpf4jnsgd1na2vs0mg"},{"bike_id":"cf955375-6efc-4c58-b72f-488429c9e00a","system_id":"levelo_inurba_marseille","lat":43.29429,"lon":5.38634,"is_reserved":false,"is_disabled":false,"rental_uris":{"android":"levelo://app?vid=cf955375-6efc-4c58-b72f-488429c9e00a","ios":"levelo://app?vid=cf955375-6efc-4c58-b72f-488429c9e00a"},"vehicle_type_id":"4","last_reported":1740175721,"current_range_meters":10800,"station_id":"ce4bh2h2rcd13ifvqdh0","pricing_plan_id":"cebpf4jnsgd1na2vs0mg"},{"bike_id":"96cdc694-1c9c-4cda-b45c-2b04682fafe2","system_id":"levelo_inurba_marseille","lat":43.29397,"lon":5.38589,"is_reserved":false,"is_disabled":false,"rental_uris":{"android":"levelo://app?vid=96cdc694-1c9c-4cda-b45c-2b04682fafe2","ios":"levelo://app?vid=96cdc694-1c9c-4cda-b45c-2b04682fafe2"},"vehicle_type_id":"4","last_reported":1740175721,"current_range_meters":10800,"station_id":"ce4bh2h2rcd13ifvqdh0","pricing_plan_id":"cebpf4jnsgd1na2vs0mg"},{"bike_id":"417001bc-e8ee-4b24-9108-f07a293bf8c3","system_id":"levelo_inurba_marseille","lat":43.29734,"lon":5.37683,"is_reserved":false,"is_disabled":true,"rental_uris":{"android":"levelo://app?vid=417001bc-e8ee-4b24-9108-f07a293bf8c3","ios":"levelo://app?vid=417001bc-e8ee-4b24-9108-f07a293bf8c3"},"vehicle_type_id":"4","last_reported":1740175721,"current_range_meters":11200,"station_id":"ce4bgkh2rcd13ifvqbl0","pricing_plan_id":"cebpf4jnsgd1na2vs0mg"},{"bike_id":"c04b81b6-1d78-49d2-a77e-38338694652c","system_id":"levelo_inurba_marseille","lat":43.2362,"lon":5.40996,"is_reserved":false,"is_disabled":false,"rental_uris":{"android":"levelo://app?vid=c04b81b6-1d78-49d2-a77e-38338694652c","ios":"levelo://app?vid=c04b81b6-1d78-49d2-a77e-38338694652c"},"vehicle_type_id":"4","last_reported":1740175721,"current_range_meters":11200,"station_id":"","pricing_plan_id":"cebpf4jnsgd1na2vs0mg"},{"bike_id":"5348d5dc-5dca-4978-b167-cd7e8ce45433","system_id":"levelo_inurba_marseille","lat":43.30552,"lon":5.36545,"is_reserved":false,"is_disabled":true,"rental_uris":{"android":"levelo://app?vid=5348d5dc-5dca-4978-b167-cd7e8ce45433","ios":"levelo://app?vid=5348d5dc-5dca-4978-b167-cd7e8ce45433"},"vehicle_type_id":"4","last_reported":1740175721,"current_range_meters":11200,"station_id":"ce4bgs12rcd13ifvqcag","pricing_plan_id":"cebpf4jnsgd1na2vs0mg"},{"bike_id":"e58bd84d-ec4c-40d3-85df-fbd8c66714b8","system_id":"levelo_inurba_marseille","lat":43.23181,"lon":5.39995,"is_reserved":false,"is_disabled":false,"rental_uris":{"android":"levelo://app?vid=e58bd84d-ec4c-40d3-85df-fbd8c66714b8","ios":"levelo://app?vid=e58bd84d-ec4c-40d3-85df-fbd8c66714b8"},"vehicle_type_id":"4","last_reported":1740175721,"current_range_meters":11200,"station_id":"ce4bhn12rcd13ifvqgqg","pricing_plan_id":"cebpf4jnsgd1na2vs0mg"},{"bike_id":"a1ce9a72-35d2-4249-a67e-28f386870b55","system_id":"levelo_inurba_marseille","lat":43.28939,"lon":5.39632,"is_reserved":false,"is_disabled":false,"rental_uris":{"android":"levelo://app?vid=a1ce9a72-35d2-4249-a67e-28f386870b55","ios":"levelo://app?vid=a1ce9a72-35d2-4249-a67e-28f386870b55"},"vehicle_type_id":"4","last_reported":1740175721,"current_range_meters":12800,"station_id":"ce4bh3h2rcd13ifvqdn0","pricing_plan_id":"cebpf4jnsgd1na2vs0mg"},{"bike_id":"3e1c631d-bf5a-43c3-87d8-bcdfc1744a1e","system_id":"levelo_inurba_marseille","lat":43.306384,"lon":5.401054,"is_reserved":false,"is_disabled":false,"rental_uris":{"android":"levelo://app?vid=3e1c631d-bf5a-43c3-87d8-bcdfc1744a1e","ios":"levelo://app?vid=3e1c631d-bf5a-43c3-87d8-bcdfc1744a1e"},"vehicle_type_id":"4","last_reported":1740175721,"current_range_meters":11200,"station_id":"ce4bgi92rcd13ifvqb90","pricing_plan_id":"cebpf4jnsgd1na2vs0mg"},{"bike_id":"aa6b079d-ac76-4c64-aa3c-29b3f6dad2e1","system_id":"levelo_inurba_marseille","lat":43.28169,"lon":5.42648,"is_reserved":false,"is_disabled":false,"rental_uris":{"android":"levelo://app?vid=aa6b079d-ac76-4c64-aa3c-29b3f6dad2e1","ios":"levelo://app?vid=aa6b079d-ac76-4c64-aa3c-29b3f6dad2e1"},"vehicle_type_id":"4","last_reported":1740175721,"current_range_meters":11600,"station_id":"ce4bhnh2rcd13ifvqgug","pricing_plan_id":"cebpf4jnsgd1na2vs0mg"},{"bike_id":"8e5dd313-b4bc-4560-9c98-372973ee30b6","system_id":"levelo_inurba_marseille","lat":43.28572,"lon":5.39503,"is_reserved":false,"is_disabled":false,"rental_uris":{"android":"levelo://app?vid=8e5dd313-b4bc-4560-9c98-372973ee30b6","ios":"levelo://app?vid=8e5dd313-b4bc-4560-9c98-372973ee30b6"},"vehicle_type_id":"4","last_reported":1740175721,"current_range_meters":11600,"station_id":"ce4bh292rcd13ifvqdg0","pricing_plan_id":"cebpf4jnsgd1na2vs0mg"},{"bike_id":"1bb7db80-3871-413c-ab2d-3515cfae14be","system_id":"levelo_inurba_marseille","lat":43.30261,"lon":5.40063,"is_reserved":false,"is_disabled":false,"rental_uris":{"android":"levelo://app?vid=1bb7db80-3871-413c-ab2d-3515cfae14be","ios":"levelo://app?vid=1bb7db80-3871-413c-ab2d-3515cfae14be"},"vehicle_type_id":"4","last_reported":1740175721,"current_range_meters":11600,"station_id":"ce4bgvh2rcd13ifvqcs0","pricing_plan_id":"cebpf4jnsgd1na2vs0mg"},{"bike_id":"c91b3ee2-44d4-427e-ba0b-de9b5f47f5ea","system_id":"levelo_inurba_marseille","lat":43.27938,"lon":5.41039,"is_reserved":false,"is_disabled":false,"rental_uris":{"android":"levelo://app?vid=c91b3ee2-44d4-427e-ba0b-de9b5f47f5ea","ios":"levelo://app?vid=c91b3ee2-44d4-427e-ba0b-de9b5f47f5ea"},"vehicle_type_id":"4","last_reported":1740175721,"current_range_meters":11600,"station_id":"ce4bhnp2rcd13ifvqh0g","pricing_plan_id":"cebpf4jnsgd1na2vs0mg"},{"bike_id":"6b04f75f-fb5c-42fe-a63b-5e82daec1ece","system_id":"levelo_inurba_marseille","lat":43.2558,"lon":5.38243,"is_reserved":false,"is_disabled":false,"rental_uris":{"android":"levelo://app?vid=6b04f75f-fb5c-42fe-a63b-5e82daec1ece","ios":"levelo://app?vid=6b04f75f-fb5c-42fe-a63b-5e82daec1ece"},"vehicle_type_id":"4","last_reported":1740175721,"current_range_meters":11600,"station_id":"ce4bhih2rcd13ifvqfs0","pricing_plan_id":"cebpf4jnsgd1na2vs0mg"},{"bike_id":"e501be99-a171-4e91-9e5b-ac547e4c06f2","system_id":"levelo_inurba_marseille","lat":43.23206,"lon":5.35561,"is_reserved":false,"is_disabled":false,"rental_uris":{"android":"levelo://app?vid=e501be99-a171-4e91-9e5b-ac547e4c06f2","ios":"levelo://app?vid=e501be99-a171-4e91-9e5b-ac547e4c06f2"},"vehicle_type_id":"4","last_reported":1740175721,"current_range_meters":11600,"station_id":"ce4bhu92rcd13ifvqi70","pricing_plan_id":"cebpf4jnsgd1na2vs0mg"},{"bike_id":"a5861d8a-322b-4fa8-9cf5-48f1ed0493f0","system_id":"levelo_inurba_marseille","lat":43.2694,"lon":5.38649,"is_reserved":false,"is_disabled":true,"rental_uris":{"android":"levelo://app?vid=a5861d8a-322b-4fa8-9cf5-48f1ed0493f0","ios":"levelo://app?vid=a5861d8a-322b-4fa8-9cf5-48f1ed0493f0"},"vehicle_type_id":"4","last_reported":1740175721,"current_range_meters":12000,"station_id":"ce4bhh92rcd13ifvqfh0","pricing_plan_id":"cebpf4jnsgd1na2vs0mg"},{"bike_id":"f011d7fb-e58c-4279-9a9e-da031e7287d4","system_id":"levelo_inurba_marseille","lat":43.29421,"lon":5.38605,"is_reserved":false,"is_disabled":false,"rental_uris":{"android":"levelo://app?vid=f011d7fb-e58c-4279-9a9e-da031e7287d4","ios":"levelo://app?vid=f011d7fb-e58c-4279-9a9e-da031e7287d4"},"vehicle_type_id":"4","last_reported":1740175721,"current_range_meters":12000,"station_id":"ce4bh2h2rcd13ifvqdh0","pricing_plan_id":"cebpf4jnsgd1na2vs0mg"},{"bike_id":"a404738f-d592-4923-bb7f-8cad6bf8fec4","system_id":"levelo_inurba_marseille","lat":43.27949,"lon":5.38495,"is_reserved":false,"is_disabled":false,"rental_uris":{"android":"levelo://app?vid=a404738f-d592-4923-bb7f-8cad6bf8fec4","ios":"levelo://app?vid=a404738f-d592-4923-bb7f-8cad6bf8fec4"},"vehicle_type_id":"4","last_reported":1740175721,"current_range_meters":12000,"station_id":"","pricing_plan_id":"cebpf4jnsgd1na2vs0mg"},{"bike_id":"718c3a69-842c-4223-8226-083bef674d23","system_id":"levelo_inurba_marseille","lat":43.25579,"lon":5.38225,"is_reserved":false,"is_disabled":false,"rental_uris":{"android":"levelo://app?vid=718c3a69-842c-4223-8226-083bef674d23","ios":"levelo://app?vid=718c3a69-842c-4223-8226-083bef674d23"},"vehicle_type_id":"4","last_reported":1740175721,"current_range_meters":12000,"station_id":"ce4bhih2rcd13ifvqfs0","pricing_plan_id":"cebpf4jnsgd1na2vs0mg"},{"bike_id":"3c8aac07-80ad-4986-a150-17fd9f678e45","system_id":"levelo_inurba_marseille","lat":43.24171,"lon":5.39727,"is_reserved":false,"is_disabled":false,"rental_uris":{"android":"levelo://app?vid=3c8aac07-80ad-4986-a150-17fd9f678e45","ios":"levelo://app?vid=3c8aac07-80ad-4986-a150-17fd9f678e45"},"vehicle_type_id":"4","last_reported":1740175721,"current_range_meters":12000,"station_id":"ce4bhn12rcd13ifvqgpg","pricing_plan_id":"cebpf4jnsgd1na2vs0mg"},{"bike_id":"e55cf9d2-aabc-4525-8873-b2e23fe332ca","system_id":"levelo_inurba_marseille","lat":43.28268,"lon":5.35082,"is_reserved":false,"is_disabled":false,"rental_uris":{"android":"levelo://app?vid=e55cf9d2-aabc-4525-8873-b2e23fe332ca","ios":"levelo://app?vid=e55cf9d2-aabc-4525-8873-b2e23fe332ca"},"vehicle_type_id":"4","last_reported":1740175721,"current_range_meters":11200,"station_id":"ce4bhbp2rcd13ifvqerg","pricing_plan_id":"cebpf4jnsgd1na2vs0mg"},{"bike_id":"059b32d0-f9ed-4b56-bd81-f73c49dec27d","system_id":"levelo_inurba_marseille","lat":43.279956,"lon":5.400074,"is_reserved":false,"is_disabled":false,"rental_uris":{"android":"levelo://app?vid=059b32d0-f9ed-4b56-bd81-f73c49dec27d","ios":"levelo://app?vid=059b32d0-f9ed-4b56-bd81-f73c49dec27d"},"vehicle_type_id":"4","last_reported":1740175721,"current_range_meters":15200,"station_id":"ce4bhh92rcd13ifvqfh0","pricing_plan_id":"cebpf4jnsgd1na2vs0mg"},{"bike_id":"78ccc1b5-e05d-4c30-bc5b-473f9d97e2cd","system_id":"levelo_inurba_marseille","lat":43.30122,"lon":5.37801,"is_reserved":false,"is_disabled":false,"rental_uris":{"android":"levelo://app?vid=78ccc1b5-e05d-4c30-bc5b-473f9d97e2cd","ios":"levelo://app?vid=78ccc1b5-e05d-4c30-bc5b-473f9d97e2cd"},"vehicle_type_id":"4","last_reported":1740175721,"current_range_meters":12400,"station_id":"","pricing_plan_id":"cebpf4jnsgd1na2vs0mg"},{"bike_id":"ed82fb5d-90ce-4428-bd14-b9a920cf65c5","system_id":"levelo_inurba_marseille","lat":43.26223,"lon":5.37471,"is_reserved":false,"is_disabled":false,"rental_uris":{"android":"levelo://app?vid=ed82fb5d-90ce-4428-bd14-b9a920cf65c5","ios":"levelo://app?vid=ed82fb5d-90ce-4428-bd14-b9a920cf65c5"},"vehicle_type_id":"4","last_reported":1740175721,"current_range_meters":12400,"station_id":"ce4bhgp2rcd13ifvqfc0","pricing_plan_id":"cebpf4jnsgd1na2vs0mg"},{"bike_id":"b19d37e7-0471-402b-9ff0-c412551970b9","system_id":"levelo_inurba_marseille","lat":43.29285,"lon":5.36861,"is_reserved":false,"is_disabled":false,"rental_uris":{"android":"levelo://app?vid=b19d37e7-0471-402b-9ff0-c412551970b9","ios":"levelo://app?vid=b19d37e7-0471-402b-9ff0-c412551970b9"},"vehicle_type_id":"4","last_reported":1740175721,"current_range_meters":12400,"station_id":"ce4bhbp2rcd13ifvqesg","pricing_plan_id":"cebpf4jnsgd1na2vs0mg"},{"bike_id":"d93b56e8-81a2-4df1-b772-ccfe1aba8adb","system_id":"levelo_inurba_marseille","lat":43.29455,"lon":5.39071,"is_reserved":false,"is_disabled":false,"rental_uris":{"android":"levelo://app?vid=d93b56e8-81a2-4df1-b772-ccfe1aba8adb","ios":"levelo://app?vid=d93b56e8-81a2-4df1-b772-ccfe1aba8adb"},"vehicle_type_id":"4","last_reported":1740175721,"current_range_meters":12400,"station_id":"","pricing_plan_id":"cebpf4jnsgd1na2vs0mg"},{"bike_id":"d440601b-e169-4710-aed9-1b3030dd54dc","system_id":"levelo_inurba_marseille","lat":43.28443,"lon":5.39204,"is_reserved":false,"is_disabled":false,"rental_uris":{"android":"levelo://app?vid=d440601b-e169-4710-aed9-1b3030dd54dc","ios":"levelo://app?vid=d440601b-e169-4710-aed9-1b3030dd54dc"},"vehicle_type_id":"4","last_reported":1740175721,"current_range_meters":12400,"station_id":"ce4bhoh2rcd13ifvqh5g","pricing_plan_id":"cebpf4jnsgd1na2vs0mg"},{"bike_id":"ad9dcedd-8eb4-4e60-a996-2ce5dda515db","system_id":"levelo_inurba_marseille","lat":43.29278,"lon":5.38434,"is_reserved":false,"is_disabled":false,"rental_uris":{"android":"levelo://app?vid=ad9dcedd-8eb4-4e60-a996-2ce5dda515db","ios":"levelo://app?vid=ad9dcedd-8eb4-4e60-a996-2ce5dda515db"},"vehicle_type_id":"4","last_reported":1740175721,"current_range_meters":12000,"station_id":"ce4bh692rcd13ifvqea0","pricing_plan_id":"cebpf4jnsgd1na2vs0mg"},{"bike_id":"54b45f3b-f685-44dd-8b79-1a758bf759d2","system_id":"levelo_inurba_marseille","lat":43.337444,"lon":5.374475,"is_reserved":false,"is_disabled":true,"rental_uris":{"android":"levelo://app?vid=54b45f3b-f685-44dd-8b79-1a758bf759d2","ios":"levelo://app?vid=54b45f3b-f685-44dd-8b79-1a758bf759d2"},"vehicle_type_id":"4","last_reported":1740175721,"current_range_meters":12400,"station_id":"","pricing_plan_id":"cebpf4jnsgd1na2vs0mg"},{"bike_id":"af1107fa-d68e-4f88-b9a9-b5e22ec9744f","system_id":"levelo_inurba_marseille","lat":43.23072,"lon":5.35497,"is_reserved":false,"is_disabled":false,"rental_uris":{"android":"levelo://app?vid=af1107fa-d68e-4f88-b9a9-b5e22ec9744f","ios":"levelo://app?vid=af1107fa-d68e-4f88-b9a9-b5e22ec9744f"},"vehicle_type_id":"4","last_reported":1740175721,"current_range_meters":12400,"station_id":"cpo3342slgdg3j2ifvpg","pricing_plan_id":"cebpf4jnsgd1na2vs0mg"},{"bike_id":"3f625f7c-8167-45c8-a3dc-b9df7354cffd","system_id":"levelo_inurba_marseille","lat":43.29363,"lon":5.38774,"is_reserved":false,"is_disabled":false,"rental_uris":{"android":"levelo://app?vid=3f625f7c-8167-45c8-a3dc-b9df7354cffd","ios":"levelo://app?vid=3f625f7c-8167-45c8-a3dc-b9df7354cffd"},"vehicle_type_id":"4","last_reported":1740175721,"current_range_meters":12400,"station_id":"","pricing_plan_id":"cebpf4jnsgd1na2vs0mg"},{"bike_id":"b985ad1f-1942-453b-b5eb-7462cafd1e31","system_id":"levelo_inurba_marseille","lat":43.23192,"lon":5.3555,"is_reserved":false,"is_disabled":false,"rental_uris":{"android":"levelo://app?vid=b985ad1f-1942-453b-b5eb-7462cafd1e31","ios":"levelo://app?vid=b985ad1f-1942-453b-b5eb-7462cafd1e31"},"vehicle_type_id":"4","last_reported":1740175721,"current_range_meters":12400,"station_id":"ce4bhu92rcd13ifvqi70","pricing_plan_id":"cebpf4jnsgd1na2vs0mg"},{"bike_id":"c88a28e7-77d6-44e0-a79d-8f6ca388d896","system_id":"levelo_inurba_marseille","lat":43.29273,"lon":5.38457,"is_reserved":false,"is_disabled":false,"rental_uris":{"android":"levelo://app?vid=c88a28e7-77d6-44e0-a79d-8f6ca388d896","ios":"levelo://app?vid=c88a28e7-77d6-44e0-a79d-8f6ca388d896"},"vehicle_type_id":"4","last_reported":1740175721,"current_range_meters":12800,"station_id":"ce4bh692rcd13ifvqea0","pricing_plan_id":"cebpf4jnsgd1na2vs0mg"},{"bike_id":"db862aa0-6d5c-4557-b8a1-8d27f720ed6e","system_id":"levelo_inurba_marseille","lat":43.28004,"lon":5.40059,"is_reserved":false,"is_disabled":false,"rental_uris":{"android":"levelo://app?vid=db862aa0-6d5c-4557-b8a1-8d27f720ed6e","ios":"levelo://app?vid=db862aa0-6d5c-4557-b8a1-8d27f720ed6e"},"vehicle_type_id":"4","last_reported":1740175721,"current_range_meters":12800,"station_id":"ce4bho92rcd13ifvqh4g","pricing_plan_id":"cebpf4jnsgd1na2vs0mg"},{"bike_id":"7c8f3d05-5401-4545-847e-9fcee9ea83d5","system_id":"levelo_inurba_marseille","lat":43.26572,"lon":5.3987,"is_reserved":false,"is_disabled":false,"rental_uris":{"android":"levelo://app?vid=7c8f3d05-5401-4545-847e-9fcee9ea83d5","ios":"levelo://app?vid=7c8f3d05-5401-4545-847e-9fcee9ea83d5"},"vehicle_type_id":"4","last_reported":1740175721,"current_range_meters":12800,"station_id":"","pricing_plan_id":"cebpf4jnsgd1na2vs0mg"},{"bike_id":"3372843d-d9b8-48e7-a75e-62d9bb27ba4f","system_id":"levelo_inurba_marseille","lat":43.27928,"lon":5.39596,"is_reserved":false,"is_disabled":false,"rental_uris":{"android":"levelo://app?vid=3372843d-d9b8-48e7-a75e-62d9bb27ba4f","ios":"levelo://app?vid=3372843d-d9b8-48e7-a75e-62d9bb27ba4f"},"vehicle_type_id":"4","last_reported":1740175721,"current_range_meters":12800,"station_id":"ce4bhf92rcd13ifvqf40","pricing_plan_id":"cebpf4jnsgd1na2vs0mg"},{"bike_id":"089b421a-1c36-49ca-a690-f002c1cadcb6","system_id":"levelo_inurba_marseille","lat":43.24166,"lon":5.36407,"is_reserved":false,"is_disabled":false,"rental_uris":{"android":"levelo://app?vid=089b421a-1c36-49ca-a690-f002c1cadcb6","ios":"levelo://app?vid=089b421a-1c36-49ca-a690-f002c1cadcb6"},"vehicle_type_id":"4","last_reported":1740175721,"current_range_meters":12800,"station_id":"cpo36qri1sfpv3e86is0","pricing_plan_id":"cebpf4jnsgd1na2vs0mg"},{"bike_id":"20c03868-5bd2-4011-baaf-a537d64ad403","system_id":"levelo_inurba_marseille","lat":43.295317,"lon":5.385357,"is_reserved":false,"is_disabled":false,"rental_uris":{"android":"levelo://app?vid=20c03868-5bd2-4011-baaf-a537d64ad403","ios":"levelo://app?vid=20c03868-5bd2-4011-baaf-a537d64ad403"},"vehicle_type_id":"4","last_reported":1740175721,"current_range_meters":12800,"station_id":"ce4bgih2rcd13ifvqba0","pricing_plan_id":"cebpf4jnsgd1na2vs0mg"},{"bike_id":"99ab7b37-39d1-4d0a-8869-54b27afbbc7a","system_id":"levelo_inurba_marseille","lat":43.29601,"lon":5.38097,"is_reserved":false,"is_disabled":false,"rental_uris":{"android":"levelo://app?vid=99ab7b37-39d1-4d0a-8869-54b27afbbc7a","ios":"levelo://app?vid=99ab7b37-39d1-4d0a-8869-54b27afbbc7a"},"vehicle_type_id":"4","last_reported":1740175721,"current_range_meters":12800,"station_id":"ce4bgl12rcd13ifvqbo0","pricing_plan_id":"cebpf4jnsgd1na2vs0mg"},{"bike_id":"3af3b95d-e72f-4058-a36c-1537251698cf","system_id":"levelo_inurba_marseille","lat":43.29374,"lon":5.3785,"is_reserved":false,"is_disabled":false,"rental_uris":{"android":"levelo://app?vid=3af3b95d-e72f-4058-a36c-1537251698cf","ios":"levelo://app?vid=3af3b95d-e72f-4058-a36c-1537251698cf"},"vehicle_type_id":"4","last_reported":1740175721,"current_range_meters":12800,"station_id":"ce4bgjh2rcd13ifvqbf0","pricing_plan_id":"cebpf4jnsgd1na2vs0mg"},{"bike_id":"ba641428-d176-472a-a372-e4beaee42889","system_id":"levelo_inurba_marseille","lat":43.24819,"lon":5.37464,"is_reserved":false,"is_disabled":false,"rental_uris":{"android":"levelo://app?vid=ba641428-d176-472a-a372-e4beaee42889","ios":"levelo://app?vid=ba641428-d176-472a-a372-e4beaee42889"},"vehicle_type_id":"4","last_reported":1740175721,"current_range_meters":12800,"station_id":"ce4bhgh2rcd13ifvqfb0","pricing_plan_id":"cebpf4jnsgd1na2vs0mg"},{"bike_id":"06d8c8ef-791d-40de-8e1b-f55dcb9c7a0c","system_id":"levelo_inurba_marseille","lat":43.2737,"lon":5.36262,"is_reserved":false,"is_disabled":false,"rental_uris":{"android":"levelo://app?vid=06d8c8ef-791d-40de-8e1b-f55dcb9c7a0c","ios":"levelo://app?vid=06d8c8ef-791d-40de-8e1b-f55dcb9c7a0c"},"vehicle_type_id":"4","last_reported":1740175721,"current_range_meters":12800,"station_id":"ce4bhbh2rcd13ifvqeo0","pricing_plan_id":"cebpf4jnsgd1na2vs0mg"},{"bike_id":"777e2340-af70-45c8-891c-a654ff3c0342","system_id":"levelo_inurba_marseille","lat":43.30595,"lon":5.3722,"is_reserved":false,"is_disabled":false,"rental_uris":{"android":"levelo://app?vid=777e2340-af70-45c8-891c-a654ff3c0342","ios":"levelo://app?vid=777e2340-af70-45c8-891c-a654ff3c0342"},"vehicle_type_id":"4","last_reported":1740175721,"current_range_meters":12000,"station_id":"ce4bgqh2rcd13ifvqc4g","pricing_plan_id":"cebpf4jnsgd1na2vs0mg"},{"bike_id":"01abe80c-0637-411f-a179-bcc0163986a1","system_id":"levelo_inurba_marseille","lat":43.303,"lon":5.36881,"is_reserved":false,"is_disabled":false,"rental_uris":{"android":"levelo://app?vid=01abe80c-0637-411f-a179-bcc0163986a1","ios":"levelo://app?vid=01abe80c-0637-411f-a179-bcc0163986a1"},"vehicle_type_id":"4","last_reported":1740175721,"current_range_meters":13600,"station_id":"ce4bgqh2rcd13ifvqc5g","pricing_plan_id":"cebpf4jnsgd1na2vs0mg"},{"bike_id":"6c2ab6e6-2d04-4225-b04d-1f709ec68055","system_id":"levelo_inurba_marseille","lat":43.22969,"lon":5.35371,"is_reserved":false,"is_disabled":false,"rental_uris":{"android":"levelo://app?vid=6c2ab6e6-2d04-4225-b04d-1f709ec68055","ios":"levelo://app?vid=6c2ab6e6-2d04-4225-b04d-1f709ec68055"},"vehicle_type_id":"4","last_reported":1740175721,"current_range_meters":13600,"station_id":"cpo3532slgdg3j2ikp40","pricing_plan_id":"cebpf4jnsgd1na2vs0mg"},{"bike_id":"7f85dde6-f8fd-4fa6-8c9f-a635a9b70d07","system_id":"levelo_inurba_marseille","lat":43.29415,"lon":5.38635,"is_reserved":false,"is_disabled":false,"rental_uris":{"android":"levelo://app?vid=7f85dde6-f8fd-4fa6-8c9f-a635a9b70d07","ios":"levelo://app?vid=7f85dde6-f8fd-4fa6-8c9f-a635a9b70d07"},"vehicle_type_id":"4","last_reported":1740175721,"current_range_meters":13600,"station_id":"ce4bh2h2rcd13ifvqdh0","pricing_plan_id":"cebpf4jnsgd1na2vs0mg"},{"bike_id":"bc0afbed-07c5-4ac8-b77a-d8c4e16cb32e","system_id":"levelo_inurba_marseille","lat":43.29414,"lon":5.38639,"is_reserved":false,"is_disabled":false,"rental_uris":{"android":"levelo://app?vid=bc0afbed-07c5-4ac8-b77a-d8c4e16cb32e","ios":"levelo://app?vid=bc0afbed-07c5-4ac8-b77a-d8c4e16cb32e"},"vehicle_type_id":"4","last_reported":1740175721,"current_range_meters":14000,"station_id":"ce4bh2h2rcd13ifvqdh0","pricing_plan_id":"cebpf4jnsgd1na2vs0mg"},{"bike_id":"c3f64b04-7be9-48dc-9dbc-db3ed0a0d614","system_id":"levelo_inurba_marseille","lat":43.29276,"lon":5.38453,"is_reserved":false,"is_disabled":false,"rental_uris":{"android":"levelo://app?vid=c3f64b04-7be9-48dc-9dbc-db3ed0a0d614","ios":"levelo://app?vid=c3f64b04-7be9-48dc-9dbc-db3ed0a0d614"},"vehicle_type_id":"4","last_reported":1740175721,"current_range_meters":14000,"station_id":"ce4bh692rcd13ifvqea0","pricing_plan_id":"cebpf4jnsgd1na2vs0mg"},{"bike_id":"d312ce1d-aae9-4c62-a1e8-38c15d95735a","system_id":"levelo_inurba_marseille","lat":43.2294,"lon":5.35396,"is_reserved":false,"is_disabled":false,"rental_uris":{"android":"levelo://app?vid=d312ce1d-aae9-4c62-a1e8-38c15d95735a","ios":"levelo://app?vid=d312ce1d-aae9-4c62-a1e8-38c15d95735a"},"vehicle_type_id":"4","last_reported":1740175721,"current_range_meters":14000,"station_id":"cpo3532slgdg3j2ikp40","pricing_plan_id":"cebpf4jnsgd1na2vs0mg"},{"bike_id":"997a74cc-c838-40aa-8d2b-9cf7867b18c7","system_id":"levelo_inurba_marseille","lat":43.25824,"lon":5.39437,"is_reserved":false,"is_disabled":false,"rental_uris":{"android":"levelo://app?vid=997a74cc-c838-40aa-8d2b-9cf7867b18c7","ios":"levelo://app?vid=997a74cc-c838-40aa-8d2b-9cf7867b18c7"},"vehicle_type_id":"4","last_reported":1740175721,"current_range_meters":12800,"station_id":"ce4bhip2rcd13ifvqft0","pricing_plan_id":"cebpf4jnsgd1na2vs0mg"},{"bike_id":"35331f57-b06c-41f1-8224-4eb3668702eb","system_id":"levelo_inurba_marseille","lat":43.23057,"lon":5.35496,"is_reserved":false,"is_disabled":false,"rental_uris":{"android":"levelo://app?vid=35331f57-b06c-41f1-8224-4eb3668702eb","ios":"levelo://app?vid=35331f57-b06c-41f1-8224-4eb3668702eb"},"vehicle_type_id":"4","last_reported":1740175721,"current_range_meters":14000,"station_id":"cpo3342slgdg3j2ifvpg","pricing_plan_id":"cebpf4jnsgd1na2vs0mg"},{"bike_id":"742bc5a2-3444-4e4e-844a-5248e8280f90","system_id":"levelo_inurba_marseille","lat":43.25124,"lon":5.39041,"is_reserved":false,"is_disabled":false,"rental_uris":{"android":"levelo://app?vid=742bc5a2-3444-4e4e-844a-5248e8280f90","ios":"levelo://app?vid=742bc5a2-3444-4e4e-844a-5248e8280f90"},"vehicle_type_id":"4","last_reported":1740175721,"current_range_meters":14000,"station_id":"","pricing_plan_id":"cebpf4jnsgd1na2vs0mg"},{"bike_id":"70480123-dfea-42f7-be27-c2ee0b2c433b","system_id":"levelo_inurba_marseille","lat":43.28322,"lon":5.350464,"is_reserved":false,"is_disabled":false,"rental_uris":{"android":"levelo://app?vid=70480123-dfea-42f7-be27-c2ee0b2c433b","ios":"levelo://app?vid=70480123-dfea-42f7-be27-c2ee0b2c433b"},"vehicle_type_id":"4","last_reported":1740175721,"current_range_meters":14400,"station_id":"ce4bhbp2rcd13ifvqerg","pricing_plan_id":"cebpf4jnsgd1na2vs0mg"},{"bike_id":"ad675d28-1269-4fc9-809d-07eb510922ee","system_id":"levelo_inurba_marseille","lat":43.29537,"lon":5.38551,"is_reserved":false,"is_disabled":false,"rental_uris":{"android":"levelo://app?vid=ad675d28-1269-4fc9-809d-07eb510922ee","ios":"levelo://app?vid=ad675d28-1269-4fc9-809d-07eb510922ee"},"vehicle_type_id":"4","last_reported":1740175721,"current_range_meters":14400,"station_id":"ce4bgih2rcd13ifvqba0","pricing_plan_id":"cebpf4jnsgd1na2vs0mg"},{"bike_id":"2cc51be8-3d37-4d75-afde-af294fd2823e","system_id":"levelo_inurba_marseille","lat":43.29853,"lon":5.36284,"is_reserved":false,"is_disabled":false,"rental_uris":{"android":"levelo://app?vid=2cc51be8-3d37-4d75-afde-af294fd2823e","ios":"levelo://app?vid=2cc51be8-3d37-4d75-afde-af294fd2823e"},"vehicle_type_id":"4","last_reported":1740175721,"current_range_meters":14400,"station_id":"ce4bgpp2rcd13ifvqc3g","pricing_plan_id":"cebpf4jnsgd1na2vs0mg"},{"bike_id":"08b85738-489c-4fdf-abcb-17da0e494013","system_id":"levelo_inurba_marseille","lat":43.27918,"lon":5.39583,"is_reserved":false,"is_disabled":false,"rental_uris":{"android":"levelo://app?vid=08b85738-489c-4fdf-abcb-17da0e494013","ios":"levelo://app?vid=08b85738-489c-4fdf-abcb-17da0e494013"},"vehicle_type_id":"4","last_reported":1740175721,"current_range_meters":14400,"station_id":"ce4bhf92rcd13ifvqf40","pricing_plan_id":"cebpf4jnsgd1na2vs0mg"},{"bike_id":"c49c2e62-020b-4116-8d5f-4661327d199e","system_id":"levelo_inurba_marseille","lat":43.29277,"lon":5.407271,"is_reserved":false,"is_disabled":false,"rental_uris":{"android":"levelo://app?vid=c49c2e62-020b-4116-8d5f-4661327d199e","ios":"levelo://app?vid=c49c2e62-020b-4116-8d5f-4661327d199e"},"vehicle_type_id":"4","last_reported":1740175721,"current_range_meters":14400,"station_id":"ce4bh192rcd13ifvqdc0","pricing_plan_id":"cebpf4jnsgd1na2vs0mg"},{"bike_id":"76dd7f81-bac4-47ff-ba94-41313b51fb4c","system_id":"levelo_inurba_marseille","lat":43.28667,"lon":5.38666,"is_reserved":false,"is_disabled":false,"rental_uris":{"android":"levelo://app?vid=76dd7f81-bac4-47ff-ba94-41313b51fb4c","ios":"levelo://app?vid=76dd7f81-bac4-47ff-ba94-41313b51fb4c"},"vehicle_type_id":"4","last_reported":1740175721,"current_range_meters":15200,"station_id":"ce4bh492rcd13ifvqdug","pricing_plan_id":"cebpf4jnsgd1na2vs0mg"},{"bike_id":"6b4fcdbb-2403-4441-965e-35208bfd825c","system_id":"levelo_inurba_marseille","lat":43.29414,"lon":5.38639,"is_reserved":false,"is_disabled":false,"rental_uris":{"android":"levelo://app?vid=6b4fcdbb-2403-4441-965e-35208bfd825c","ios":"levelo://app?vid=6b4fcdbb-2403-4441-965e-35208bfd825c"},"vehicle_type_id":"4","last_reported":1740175721,"current_range_meters":14800,"station_id":"ce4bh2h2rcd13ifvqdh0","pricing_plan_id":"cebpf4jnsgd1na2vs0mg"},{"bike_id":"2c0c9103-9134-4257-a25e-839b07b31a4a","system_id":"levelo_inurba_marseille","lat":43.29905,"lon":5.37469,"is_reserved":false,"is_disabled":false,"rental_uris":{"android":"levelo://app?vid=2c0c9103-9134-4257-a25e-839b07b31a4a","ios":"levelo://app?vid=2c0c9103-9134-4257-a25e-839b07b31a4a"},"vehicle_type_id":"4","last_reported":1740175721,"current_range_meters":15200,"station_id":"ce4bgjh2rcd13ifvqbg0","pricing_plan_id":"cebpf4jnsgd1na2vs0mg"},{"bike_id":"c2a249cc-1213-47e6-83c0-90a96fbf7048","system_id":"levelo_inurba_marseille","lat":43.27817,"lon":5.40723,"is_reserved":false,"is_disabled":true,"rental_uris":{"android":"levelo://app?vid=c2a249cc-1213-47e6-83c0-90a96fbf7048","ios":"levelo://app?vid=c2a249cc-1213-47e6-83c0-90a96fbf7048"},"vehicle_type_id":"4","last_reported":1740175721,"current_range_meters":15200,"station_id":"ce4bhnh2rcd13ifvqgtg","pricing_plan_id":"cebpf4jnsgd1na2vs0mg"},{"bike_id":"ab532d47-eca9-4379-8d7b-b81fe1bf9e98","system_id":"levelo_inurba_marseille","lat":43.30079,"lon":5.38073,"is_reserved":false,"is_disabled":false,"rental_uris":{"android":"levelo://app?vid=ab532d47-eca9-4379-8d7b-b81fe1bf9e98","ios":"levelo://app?vid=ab532d47-eca9-4379-8d7b-b81fe1bf9e98"},"vehicle_type_id":"4","last_reported":1740175721,"current_range_meters":15200,"station_id":"ce4bgjp2rcd13ifvqbh0","pricing_plan_id":"cebpf4jnsgd1na2vs0mg"},{"bike_id":"2d3cef83-fd1d-4e81-80ba-36de4a9061f2","system_id":"levelo_inurba_marseille","lat":43.2954,"lon":5.38544,"is_reserved":false,"is_disabled":false,"rental_uris":{"android":"levelo://app?vid=2d3cef83-fd1d-4e81-80ba-36de4a9061f2","ios":"levelo://app?vid=2d3cef83-fd1d-4e81-80ba-36de4a9061f2"},"vehicle_type_id":"4","last_reported":1740175721,"current_range_meters":15200,"station_id":"ce4bgih2rcd13ifvqba0","pricing_plan_id":"cebpf4jnsgd1na2vs0mg"},{"bike_id":"1951b280-e8ac-4fa5-a3ef-806580107c2a","system_id":"levelo_inurba_marseille","lat":43.28159,"lon":5.4267,"is_reserved":false,"is_disabled":false,"rental_uris":{"android":"levelo://app?vid=1951b280-e8ac-4fa5-a3ef-806580107c2a","ios":"levelo://app?vid=1951b280-e8ac-4fa5-a3ef-806580107c2a"},"vehicle_type_id":"4","last_reported":1740175721,"current_range_meters":16000,"station_id":"ce4bhnh2rcd13ifvqgug","pricing_plan_id":"cebpf4jnsgd1na2vs0mg"},{"bike_id":"c56820ec-afc4-49d0-bdf5-efc4a2017ff0","system_id":"levelo_inurba_marseille","lat":43.28455,"lon":5.35898,"is_reserved":false,"is_disabled":false,"rental_uris":{"android":"levelo://app?vid=c56820ec-afc4-49d0-bdf5-efc4a2017ff0","ios":"levelo://app?vid=c56820ec-afc4-49d0-bdf5-efc4a2017ff0"},"vehicle_type_id":"4","last_reported":1740175721,"current_range_meters":16000,"station_id":"ce4bhah2rcd13ifvqei0","pricing_plan_id":"cebpf4jnsgd1na2vs0mg"},{"bike_id":"d20c266a-e0ca-421e-80ac-acc44043b35c","system_id":"levelo_inurba_marseille","lat":43.29967,"lon":5.38503,"is_reserved":false,"is_disabled":false,"rental_uris":{"android":"levelo://app?vid=d20c266a-e0ca-421e-80ac-acc44043b35c","ios":"levelo://app?vid=d20c266a-e0ca-421e-80ac-acc44043b35c"},"vehicle_type_id":"4","last_reported":1740175721,"current_range_meters":16000,"station_id":"ce4bgj92rcd13ifvqbd0","pricing_plan_id":"cebpf4jnsgd1na2vs0mg"},{"bike_id":"0b35ef10-1d1d-4e8a-949e-c3122c5e3874","system_id":"levelo_inurba_marseille","lat":43.23966,"lon":5.36641,"is_reserved":false,"is_disabled":false,"rental_uris":{"android":"levelo://app?vid=0b35ef10-1d1d-4e8a-949e-c3122c5e3874","ios":"levelo://app?vid=0b35ef10-1d1d-4e8a-949e-c3122c5e3874"},"vehicle_type_id":"4","last_reported":1740175721,"current_range_meters":16000,"station_id":"ce4bhi12rcd13ifvqfp0","pricing_plan_id":"cebpf4jnsgd1na2vs0mg"},{"bike_id":"2ec1be37-9e14-41d6-8490-4c74e4e335b1","system_id":"levelo_inurba_marseille","lat":43.28672,"lon":5.38662,"is_reserved":false,"is_disabled":false,"rental_uris":{"android":"levelo://app?vid=2ec1be37-9e14-41d6-8490-4c74e4e335b1","ios":"levelo://app?vid=2ec1be37-9e14-41d6-8490-4c74e4e335b1"},"vehicle_type_id":"4","last_reported":1740175721,"current_range_meters":16000,"station_id":"ce4bh492rcd13ifvqdug","pricing_plan_id":"cebpf4jnsgd1na2vs0mg"},{"bike_id":"933847ac-cbaf-4cd2-94e5-f384912c5eb7","system_id":"levelo_inurba_marseille","lat":43.29427,"lon":5.38649,"is_reserved":false,"is_disabled":false,"rental_uris":{"android":"levelo://app?vid=933847ac-cbaf-4cd2-94e5-f384912c5eb7","ios":"levelo://app?vid=933847ac-cbaf-4cd2-94e5-f384912c5eb7"},"vehicle_type_id":"4","last_reported":1740175721,"current_range_meters":16000,"station_id":"ce4bh2h2rcd13ifvqdh0","pricing_plan_id":"cebpf4jnsgd1na2vs0mg"},{"bike_id":"a31b18bc-b253-487a-952e-8b9f80af2c43","system_id":"levelo_inurba_marseille","lat":43.30426,"lon":5.39742,"is_reserved":false,"is_disabled":false,"rental_uris":{"android":"levelo://app?vid=a31b18bc-b253-487a-952e-8b9f80af2c43","ios":"levelo://app?vid=a31b18bc-b253-487a-952e-8b9f80af2c43"},"vehicle_type_id":"4","last_reported":1740175721,"current_range_meters":13600,"station_id":"ce4bh092rcd13ifvqd20","pricing_plan_id":"cebpf4jnsgd1na2vs0mg"},{"bike_id":"4a0da941-5b39-43f6-9720-1d1a679dc036","system_id":"levelo_inurba_marseille","lat":43.29417,"lon":5.38636,"is_reserved":false,"is_disabled":false,"rental_uris":{"android":"levelo://app?vid=4a0da941-5b39-43f6-9720-1d1a679dc036","ios":"levelo://app?vid=4a0da941-5b39-43f6-9720-1d1a679dc036"},"vehicle_type_id":"4","last_reported":1740175721,"current_range_meters":16000,"station_id":"ce4bh2h2rcd13ifvqdh0","pricing_plan_id":"cebpf4jnsgd1na2vs0mg"},{"bike_id":"9a54a7f2-6f68-4249-a93c-b50a04342952","system_id":"levelo_inurba_marseille","lat":43.28001,"lon":5.41671,"is_reserved":false,"is_disabled":false,"rental_uris":{"android":"levelo://app?vid=9a54a7f2-6f68-4249-a93c-b50a04342952","ios":"levelo://app?vid=9a54a7f2-6f68-4249-a93c-b50a04342952"},"vehicle_type_id":"4","last_reported":1740175721,"current_range_meters":16000,"station_id":"ce4bho12rcd13ifvqh1g","pricing_plan_id":"cebpf4jnsgd1na2vs0mg"},{"bike_id":"3c232bab-88ac-4592-9031-c21395fd8a78","system_id":"levelo_inurba_marseille","lat":43.32367,"lon":5.36758,"is_reserved":false,"is_disabled":false,"rental_uris":{"android":"levelo://app?vid=3c232bab-88ac-4592-9031-c21395fd8a78","ios":"levelo://app?vid=3c232bab-88ac-4592-9031-c21395fd8a78"},"vehicle_type_id":"4","last_reported":1740175721,"current_range_meters":16400,"station_id":"ce4bhsh2rcd13ifvqi2g","pricing_plan_id":"cebpf4jnsgd1na2vs0mg"},{"bike_id":"7c1e3e15-fc0a-4b6c-bf41-270ff62661e7","system_id":"levelo_inurba_marseille","lat":43.29974,"lon":5.38483,"is_reserved":false,"is_disabled":false,"rental_uris":{"android":"levelo://app?vid=7c1e3e15-fc0a-4b6c-bf41-270ff62661e7","ios":"levelo://app?vid=7c1e3e15-fc0a-4b6c-bf41-270ff62661e7"},"vehicle_type_id":"4","last_reported":1740175721,"current_range_meters":16400,"station_id":"ce4bgj92rcd13ifvqbd0","pricing_plan_id":"cebpf4jnsgd1na2vs0mg"},{"bike_id":"9678b1e2-8a1d-4142-b0c8-399698a1bd84","system_id":"levelo_inurba_marseille","lat":43.30152,"lon":5.37411,"is_reserved":false,"is_disabled":false,"rental_uris":{"android":"levelo://app?vid=9678b1e2-8a1d-4142-b0c8-399698a1bd84","ios":"levelo://app?vid=9678b1e2-8a1d-4142-b0c8-399698a1bd84"},"vehicle_type_id":"4","last_reported":1740175721,"current_range_meters":16400,"station_id":"ce4bgs92rcd13ifvqcc0","pricing_plan_id":"cebpf4jnsgd1na2vs0mg"},{"bike_id":"2438116c-0eac-4745-af80-c56857c3119c","system_id":"levelo_inurba_marseille","lat":43.2481,"lon":5.37459,"is_reserved":false,"is_disabled":false,"rental_uris":{"android":"levelo://app?vid=2438116c-0eac-4745-af80-c56857c3119c","ios":"levelo://app?vid=2438116c-0eac-4745-af80-c56857c3119c"},"vehicle_type_id":"4","last_reported":1740175721,"current_range_meters":16400,"station_id":"ce4bhgh2rcd13ifvqfb0","pricing_plan_id":"cebpf4jnsgd1na2vs0mg"},{"bike_id":"b06a2e30-ebce-440c-a4bf-ff86fe8b4181","system_id":"levelo_inurba_marseille","lat":43.31363,"lon":5.38493,"is_reserved":false,"is_disabled":false,"rental_uris":{"android":"levelo://app?vid=b06a2e30-ebce-440c-a4bf-ff86fe8b4181","ios":"levelo://app?vid=b06a2e30-ebce-440c-a4bf-ff86fe8b4181"},"vehicle_type_id":"4","last_reported":1740175721,"current_range_meters":16800,"station_id":"ce4bgt92rcd13ifvqcf0","pricing_plan_id":"cebpf4jnsgd1na2vs0mg"},{"bike_id":"06b5b92e-20c2-4581-8ccf-06307578ea44","system_id":"levelo_inurba_marseille","lat":43.27155,"lon":5.40988,"is_reserved":false,"is_disabled":false,"rental_uris":{"android":"levelo://app?vid=06b5b92e-20c2-4581-8ccf-06307578ea44","ios":"levelo://app?vid=06b5b92e-20c2-4581-8ccf-06307578ea44"},"vehicle_type_id":"4","last_reported":1740175721,"current_range_meters":16400,"station_id":"ce4bhl12rcd13ifvqgf0","pricing_plan_id":"cebpf4jnsgd1na2vs0mg"},{"bike_id":"6b1126f8-15bf-4473-a274-6a510321c05b","system_id":"levelo_inurba_marseille","lat":43.28267,"lon":5.35062,"is_reserved":false,"is_disabled":false,"rental_uris":{"android":"levelo://app?vid=6b1126f8-15bf-4473-a274-6a510321c05b","ios":"levelo://app?vid=6b1126f8-15bf-4473-a274-6a510321c05b"},"vehicle_type_id":"4","last_reported":1740175721,"current_range_meters":16000,"station_id":"ce4bhbp2rcd13ifvqerg","pricing_plan_id":"cebpf4jnsgd1na2vs0mg"},{"bike_id":"11c2c14c-8f8d-4d99-a656-06a3d73d04c3","system_id":"levelo_inurba_marseille","lat":43.29418,"lon":5.38642,"is_reserved":false,"is_disabled":false,"rental_uris":{"android":"levelo://app?vid=11c2c14c-8f8d-4d99-a656-06a3d73d04c3","ios":"levelo://app?vid=11c2c14c-8f8d-4d99-a656-06a3d73d04c3"},"vehicle_type_id":"4","last_reported":1740175721,"current_range_meters":16400,"station_id":"ce4bh2h2rcd13ifvqdh0","pricing_plan_id":"cebpf4jnsgd1na2vs0mg"},{"bike_id":"f83fbd9a-c463-47aa-930d-9505e37030ca","system_id":"levelo_inurba_marseille","lat":43.29103,"lon":5.38133,"is_reserved":false,"is_disabled":false,"rental_uris":{"android":"levelo://app?vid=f83fbd9a-c463-47aa-930d-9505e37030ca","ios":"levelo://app?vid=f83fbd9a-c463-47aa-930d-9505e37030ca"},"vehicle_type_id":"4","last_reported":1740175721,"current_range_meters":16800,"station_id":"ce4bh512rcd13ifvqe2g","pricing_plan_id":"cebpf4jnsgd1na2vs0mg"},{"bike_id":"5a698c91-034d-4c57-8d4b-a1e83e27ebdf","system_id":"levelo_inurba_marseille","lat":43.29415,"lon":5.3863,"is_reserved":false,"is_disabled":false,"rental_uris":{"android":"levelo://app?vid=5a698c91-034d-4c57-8d4b-a1e83e27ebdf","ios":"levelo://app?vid=5a698c91-034d-4c57-8d4b-a1e83e27ebdf"},"vehicle_type_id":"4","last_reported":1740175721,"current_range_meters":16400,"station_id":"ce4bh2h2rcd13ifvqdh0","pricing_plan_id":"cebpf4jnsgd1na2vs0mg"},{"bike_id":"f62f6354-b47c-4dbd-a61a-6c3446d5e182","system_id":"levelo_inurba_marseille","lat":43.28267,"lon":5.35068,"is_reserved":false,"is_disabled":false,"rental_uris":{"android":"levelo://app?vid=f62f6354-b47c-4dbd-a61a-6c3446d5e182","ios":"levelo://app?vid=f62f6354-b47c-4dbd-a61a-6c3446d5e182"},"vehicle_type_id":"4","last_reported":1740175721,"current_range_meters":16000,"station_id":"ce4bhbp2rcd13ifvqerg","pricing_plan_id":"cebpf4jnsgd1na2vs0mg"},{"bike_id":"27cbce87-2b11-4fcc-92b4-f87cefd91d7a","system_id":"levelo_inurba_marseille","lat":43.29421,"lon":5.38638,"is_reserved":false,"is_disabled":false,"rental_uris":{"android":"levelo://app?vid=27cbce87-2b11-4fcc-92b4-f87cefd91d7a","ios":"levelo://app?vid=27cbce87-2b11-4fcc-92b4-f87cefd91d7a"},"vehicle_type_id":"4","last_reported":1740175721,"current_range_meters":16400,"station_id":"ce4bh2h2rcd13ifvqdh0","pricing_plan_id":"cebpf4jnsgd1na2vs0mg"},{"bike_id":"519c0d90-c598-4074-9c80-d5e1565ff705","system_id":"levelo_inurba_marseille","lat":43.23066,"lon":5.35505,"is_reserved":false,"is_disabled":false,"rental_uris":{"android":"levelo://app?vid=519c0d90-c598-4074-9c80-d5e1565ff705","ios":"levelo://app?vid=519c0d90-c598-4074-9c80-d5e1565ff705"},"vehicle_type_id":"4","last_reported":1740175721,"current_range_meters":16800,"station_id":"cpo3342slgdg3j2ifvpg","pricing_plan_id":"cebpf4jnsgd1na2vs0mg"},{"bike_id":"a7dc2e47-fa89-438e-81c0-9c1ad47b75fd","system_id":"levelo_inurba_marseille","lat":43.29901,"lon":5.37477,"is_reserved":false,"is_disabled":false,"rental_uris":{"android":"levelo://app?vid=a7dc2e47-fa89-438e-81c0-9c1ad47b75fd","ios":"levelo://app?vid=a7dc2e47-fa89-438e-81c0-9c1ad47b75fd"},"vehicle_type_id":"4","last_reported":1740175721,"current_range_meters":16800,"station_id":"ce4bgjh2rcd13ifvqbg0","pricing_plan_id":"cebpf4jnsgd1na2vs0mg"},{"bike_id":"fb40b058-b8da-4d8d-8620-f5820c02f729","system_id":"levelo_inurba_marseille","lat":43.29418,"lon":5.38609,"is_reserved":false,"is_disabled":false,"rental_uris":{"android":"levelo://app?vid=fb40b058-b8da-4d8d-8620-f5820c02f729","ios":"levelo://app?vid=fb40b058-b8da-4d8d-8620-f5820c02f729"},"vehicle_type_id":"4","last_reported":1740175721,"current_range_meters":16800,"station_id":"ce4bh2h2rcd13ifvqdh0","pricing_plan_id":"cebpf4jnsgd1na2vs0mg"},{"bike_id":"e1806998-26ad-4692-ae75-0a4efe3d228f","system_id":"levelo_inurba_marseille","lat":43.28441,"lon":5.39193,"is_reserved":false,"is_disabled":false,"rental_uris":{"android":"levelo://app?vid=e1806998-26ad-4692-ae75-0a4efe3d228f","ios":"levelo://app?vid=e1806998-26ad-4692-ae75-0a4efe3d228f"},"vehicle_type_id":"4","last_reported":1740175721,"current_range_meters":16800,"station_id":"ce4bhoh2rcd13ifvqh5g","pricing_plan_id":"cebpf4jnsgd1na2vs0mg"},{"bike_id":"1b0d6542-f74d-4dd5-b78b-1cd1115ff80b","system_id":"levelo_inurba_marseille","lat":43.30623,"lon":5.37376,"is_reserved":false,"is_disabled":false,"rental_uris":{"android":"levelo://app?vid=1b0d6542-f74d-4dd5-b78b-1cd1115ff80b","ios":"levelo://app?vid=1b0d6542-f74d-4dd5-b78b-1cd1115ff80b"},"vehicle_type_id":"4","last_reported":1740175721,"current_range_meters":17200,"station_id":"","pricing_plan_id":"cebpf4jnsgd1na2vs0mg"},{"bike_id":"b80e1807-7ad6-4df1-bc4c-13038fed103a","system_id":"levelo_inurba_marseille","lat":43.29962,"lon":5.41327,"is_reserved":false,"is_disabled":false,"rental_uris":{"android":"levelo://app?vid=b80e1807-7ad6-4df1-bc4c-13038fed103a","ios":"levelo://app?vid=b80e1807-7ad6-4df1-bc4c-13038fed103a"},"vehicle_type_id":"4","last_reported":1740175721,"current_range_meters":17200,"station_id":"ce4bhp12rcd13ifvqh9g","pricing_plan_id":"cebpf4jnsgd1na2vs0mg"},{"bike_id":"c53ab640-ea43-492f-af6b-2de90743c186","system_id":"levelo_inurba_marseille","lat":43.299677,"lon":5.384884,"is_reserved":false,"is_disabled":false,"rental_uris":{"android":"levelo://app?vid=c53ab640-ea43-492f-af6b-2de90743c186","ios":"levelo://app?vid=c53ab640-ea43-492f-af6b-2de90743c186"},"vehicle_type_id":"4","last_reported":1740175721,"current_range_meters":17200,"station_id":"ce4bgkh2rcd13ifvqbk0","pricing_plan_id":"cebpf4jnsgd1na2vs0mg"},{"bike_id":"9a1dab0d-e676-4bbe-b3b8-58d6134c59a3","system_id":"levelo_inurba_marseille","lat":43.29577,"lon":5.39961,"is_reserved":false,"is_disabled":false,"rental_uris":{"android":"levelo://app?vid=9a1dab0d-e676-4bbe-b3b8-58d6134c59a3","ios":"levelo://app?vid=9a1dab0d-e676-4bbe-b3b8-58d6134c59a3"},"vehicle_type_id":"4","last_reported":1740175721,"current_range_meters":16800,"station_id":"ce4bh312rcd13ifvqdj0","pricing_plan_id":"cebpf4jnsgd1na2vs0mg"},{"bike_id":"6d55743c-7b68-4f36-8dc0-5a6ceb42ec5a","system_id":"levelo_inurba_marseille","lat":43.29425,"lon":5.38635,"is_reserved":false,"is_disabled":false,"rental_uris":{"android":"levelo://app?vid=6d55743c-7b68-4f36-8dc0-5a6ceb42ec5a","ios":"levelo://app?vid=6d55743c-7b68-4f36-8dc0-5a6ceb42ec5a"},"vehicle_type_id":"4","last_reported":1740175721,"current_range_meters":17200,"station_id":"ce4bh2h2rcd13ifvqdh0","pricing_plan_id":"cebpf4jnsgd1na2vs0mg"},{"bike_id":"ecb792ba-e590-4d62-97cc-1e9b429064df","system_id":"levelo_inurba_marseille","lat":43.2502,"lon":5.38914,"is_reserved":false,"is_disabled":false,"rental_uris":{"android":"levelo://app?vid=ecb792ba-e590-4d62-97cc-1e9b429064df","ios":"levelo://app?vid=ecb792ba-e590-4d62-97cc-1e9b429064df"},"vehicle_type_id":"4","last_reported":1740175721,"current_range_meters":17200,"station_id":"ce4bhgp2rcd13ifvqfd0","pricing_plan_id":"cebpf4jnsgd1na2vs0mg"},{"bike_id":"d5566d2e-78e8-488f-b3e7-c9c338cd491f","system_id":"levelo_inurba_marseille","lat":43.27501,"lon":5.42448,"is_reserved":false,"is_disabled":false,"rental_uris":{"android":"levelo://app?vid=d5566d2e-78e8-488f-b3e7-c9c338cd491f","ios":"levelo://app?vid=d5566d2e-78e8-488f-b3e7-c9c338cd491f"},"vehicle_type_id":"4","last_reported":1740175721,"current_range_meters":17200,"station_id":"ce4bhn92rcd13ifvqgrg","pricing_plan_id":"cebpf4jnsgd1na2vs0mg"},{"bike_id":"005e5eb8-39b1-40fe-bf10-36f6bd3cba88","system_id":"levelo_inurba_marseille","lat":43.283615,"lon":5.386387,"is_reserved":false,"is_disabled":false,"rental_uris":{"android":"levelo://app?vid=005e5eb8-39b1-40fe-bf10-36f6bd3cba88","ios":"levelo://app?vid=005e5eb8-39b1-40fe-bf10-36f6bd3cba88"},"vehicle_type_id":"4","last_reported":1740175721,"current_range_meters":17200,"station_id":"ce4bh492rcd13ifvqdvg","pricing_plan_id":"cebpf4jnsgd1na2vs0mg"},{"bike_id":"4475eaa3-e87d-4c91-bbe4-b13608c00c0d","system_id":"levelo_inurba_marseille","lat":43.29532,"lon":5.39043,"is_reserved":false,"is_disabled":false,"rental_uris":{"android":"levelo://app?vid=4475eaa3-e87d-4c91-bbe4-b13608c00c0d","ios":"levelo://app?vid=4475eaa3-e87d-4c91-bbe4-b13608c00c0d"},"vehicle_type_id":"4","last_reported":1740175721,"current_range_meters":17200,"station_id":"ce4bh3p2rcd13ifvqdp0","pricing_plan_id":"cebpf4jnsgd1na2vs0mg"},{"bike_id":"1b5b87c8-f96f-4740-8b60-bcc62c6e3f59","system_id":"levelo_inurba_marseille","lat":43.31405,"lon":5.38457,"is_reserved":false,"is_disabled":false,"rental_uris":{"android":"levelo://app?vid=1b5b87c8-f96f-4740-8b60-bcc62c6e3f59","ios":"levelo://app?vid=1b5b87c8-f96f-4740-8b60-bcc62c6e3f59"},"vehicle_type_id":"4","last_reported":1740175721,"current_range_meters":17200,"station_id":"","pricing_plan_id":"cebpf4jnsgd1na2vs0mg"},{"bike_id":"c47f3d98-2abe-4c97-9c9c-e2ee8dd37b49","system_id":"levelo_inurba_marseille","lat":43.25585,"lon":5.38236,"is_reserved":false,"is_disabled":false,"rental_uris":{"android":"levelo://app?vid=c47f3d98-2abe-4c97-9c9c-e2ee8dd37b49","ios":"levelo://app?vid=c47f3d98-2abe-4c97-9c9c-e2ee8dd37b49"},"vehicle_type_id":"4","last_reported":1740175721,"current_range_meters":17200,"station_id":"ce4bhih2rcd13ifvqfs0","pricing_plan_id":"cebpf4jnsgd1na2vs0mg"},{"bike_id":"eb354cf3-daf0-4f07-9e6f-1eb2682396af","system_id":"levelo_inurba_marseille","lat":43.2799,"lon":5.40038,"is_reserved":false,"is_disabled":false,"rental_uris":{"android":"levelo://app?vid=eb354cf3-daf0-4f07-9e6f-1eb2682396af","ios":"levelo://app?vid=eb354cf3-daf0-4f07-9e6f-1eb2682396af"},"vehicle_type_id":"4","last_reported":1740175721,"current_range_meters":17200,"station_id":"ce4bho92rcd13ifvqh4g","pricing_plan_id":"cebpf4jnsgd1na2vs0mg"},{"bike_id":"a1a5c9d4-1043-4888-a043-bdbdb97ea3e8","system_id":"levelo_inurba_marseille","lat":43.29257,"lon":5.38505,"is_reserved":false,"is_disabled":false,"rental_uris":{"android":"levelo://app?vid=a1a5c9d4-1043-4888-a043-bdbdb97ea3e8","ios":"levelo://app?vid=a1a5c9d4-1043-4888-a043-bdbdb97ea3e8"},"vehicle_type_id":"4","last_reported":1740175721,"current_range_meters":17200,"station_id":"","pricing_plan_id":"cebpf4jnsgd1na2vs0mg"},{"bike_id":"dc1fce77-a765-4398-991f-f895da3f81f0","system_id":"levelo_inurba_marseille","lat":43.31102,"lon":5.37756,"is_reserved":false,"is_disabled":true,"rental_uris":{"android":"levelo://app?vid=dc1fce77-a765-4398-991f-f895da3f81f0","ios":"levelo://app?vid=dc1fce77-a765-4398-991f-f895da3f81f0"},"vehicle_type_id":"4","last_reported":1740175721,"current_range_meters":17600,"station_id":"ce4bgt92rcd13ifvqcg0","pricing_plan_id":"cebpf4jnsgd1na2vs0mg"},{"bike_id":"1f7411cd-9379-4bab-a8bc-411b928d8602","system_id":"levelo_inurba_marseille","lat":43.27511,"lon":5.42464,"is_reserved":false,"is_disabled":false,"rental_uris":{"android":"levelo://app?vid=1f7411cd-9379-4bab-a8bc-411b928d8602","ios":"levelo://app?vid=1f7411cd-9379-4bab-a8bc-411b928d8602"},"vehicle_type_id":"4","last_reported":1740175721,"current_range_meters":17600,"station_id":"ce4bhn92rcd13ifvqgrg","pricing_plan_id":"cebpf4jnsgd1na2vs0mg"},{"bike_id":"467a0ac7-872c-4bb6-8ee3-3c6f458a51d9","system_id":"levelo_inurba_marseille","lat":43.27907,"lon":5.4123,"is_reserved":false,"is_disabled":false,"rental_uris":{"android":"levelo://app?vid=467a0ac7-872c-4bb6-8ee3-3c6f458a51d9","ios":"levelo://app?vid=467a0ac7-872c-4bb6-8ee3-3c6f458a51d9"},"vehicle_type_id":"4","last_reported":1740175721,"current_range_meters":17600,"station_id":"","pricing_plan_id":"cebpf4jnsgd1na2vs0mg"},{"bike_id":"8b52c24a-60e9-4f95-8f6d-a404db75239c","system_id":"levelo_inurba_marseille","lat":43.27379,"lon":5.36261,"is_reserved":false,"is_disabled":false,"rental_uris":{"android":"levelo://app?vid=8b52c24a-60e9-4f95-8f6d-a404db75239c","ios":"levelo://app?vid=8b52c24a-60e9-4f95-8f6d-a404db75239c"},"vehicle_type_id":"4","last_reported":1740175721,"current_range_meters":17600,"station_id":"ce4bhbh2rcd13ifvqeo0","pricing_plan_id":"cebpf4jnsgd1na2vs0mg"},{"bike_id":"fbb2bad0-99e6-4736-9de6-ac42bd2be903","system_id":"levelo_inurba_marseille","lat":43.29187,"lon":5.39349,"is_reserved":false,"is_disabled":false,"rental_uris":{"android":"levelo://app?vid=fbb2bad0-99e6-4736-9de6-ac42bd2be903","ios":"levelo://app?vid=fbb2bad0-99e6-4736-9de6-ac42bd2be903"},"vehicle_type_id":"4","last_reported":1740175721,"current_range_meters":17600,"station_id":"ce4bh192rcd13ifvqdd0","pricing_plan_id":"cebpf4jnsgd1na2vs0mg"},{"bike_id":"dab960d9-1ede-46dd-ade3-a5360c9021cf","system_id":"levelo_inurba_marseille","lat":43.23193,"lon":5.35557,"is_reserved":false,"is_disabled":false,"rental_uris":{"android":"levelo://app?vid=dab960d9-1ede-46dd-ade3-a5360c9021cf","ios":"levelo://app?vid=dab960d9-1ede-46dd-ade3-a5360c9021cf"},"vehicle_type_id":"4","last_reported":1740175721,"current_range_meters":17600,"station_id":"ce4bhu92rcd13ifvqi70","pricing_plan_id":"cebpf4jnsgd1na2vs0mg"},{"bike_id":"a064b6c0-f0cd-4526-a12c-21a2fd0486aa","system_id":"levelo_inurba_marseille","lat":43.29537,"lon":5.38547,"is_reserved":false,"is_disabled":false,"rental_uris":{"android":"levelo://app?vid=a064b6c0-f0cd-4526-a12c-21a2fd0486aa","ios":"levelo://app?vid=a064b6c0-f0cd-4526-a12c-21a2fd0486aa"},"vehicle_type_id":"4","last_reported":1740175721,"current_range_meters":17600,"station_id":"ce4bgih2rcd13ifvqba0","pricing_plan_id":"cebpf4jnsgd1na2vs0mg"},{"bike_id":"96b9f7c0-cd3c-40d1-bc41-8a82bed04cc8","system_id":"levelo_inurba_marseille","lat":43.292733,"lon":5.368435,"is_reserved":false,"is_disabled":true,"rental_uris":{"android":"levelo://app?vid=96b9f7c0-cd3c-40d1-bc41-8a82bed04cc8","ios":"levelo://app?vid=96b9f7c0-cd3c-40d1-bc41-8a82bed04cc8"},"vehicle_type_id":"4","last_reported":1740175721,"current_range_meters":17600,"station_id":"ce4bhbp2rcd13ifvqesg","pricing_plan_id":"cebpf4jnsgd1na2vs0mg"},{"bike_id":"ff49b8bb-82c8-4782-bb98-ae74ae771eef","system_id":"levelo_inurba_marseille","lat":43.29589,"lon":5.38105,"is_reserved":false,"is_disabled":false,"rental_uris":{"android":"levelo://app?vid=ff49b8bb-82c8-4782-bb98-ae74ae771eef","ios":"levelo://app?vid=ff49b8bb-82c8-4782-bb98-ae74ae771eef"},"vehicle_type_id":"4","last_reported":1740175721,"current_range_meters":17600,"station_id":"ce4bgl12rcd13ifvqbo0","pricing_plan_id":"cebpf4jnsgd1na2vs0mg"},{"bike_id":"69beb03a-4113-4ef2-b5ad-dd623a61eef1","system_id":"levelo_inurba_marseille","lat":43.30428,"lon":5.39743,"is_reserved":false,"is_disabled":false,"rental_uris":{"android":"levelo://app?vid=69beb03a-4113-4ef2-b5ad-dd623a61eef1","ios":"levelo://app?vid=69beb03a-4113-4ef2-b5ad-dd623a61eef1"},"vehicle_type_id":"4","last_reported":1740175721,"current_range_meters":16400,"station_id":"ce4bh092rcd13ifvqd20","pricing_plan_id":"cebpf4jnsgd1na2vs0mg"},{"bike_id":"6897935d-90c4-4aaa-81bd-a334d1112cb3","system_id":"levelo_inurba_marseille","lat":43.24678,"lon":5.38167,"is_reserved":false,"is_disabled":false,"rental_uris":{"android":"levelo://app?vid=6897935d-90c4-4aaa-81bd-a334d1112cb3","ios":"levelo://app?vid=6897935d-90c4-4aaa-81bd-a334d1112cb3"},"vehicle_type_id":"4","last_reported":1740175721,"current_range_meters":18000,"station_id":"ce4bhih2rcd13ifvqfr0","pricing_plan_id":"cebpf4jnsgd1na2vs0mg"},{"bike_id":"6a8b1bfa-a1fe-446a-b9c7-1745ca0074a2","system_id":"levelo_inurba_marseille","lat":43.29247,"lon":5.38429,"is_reserved":false,"is_disabled":false,"rental_uris":{"android":"levelo://app?vid=6a8b1bfa-a1fe-446a-b9c7-1745ca0074a2","ios":"levelo://app?vid=6a8b1bfa-a1fe-446a-b9c7-1745ca0074a2"},"vehicle_type_id":"4","last_reported":1740175721,"current_range_meters":18000,"station_id":"ce4bh692rcd13ifvqea0","pricing_plan_id":"cebpf4jnsgd1na2vs0mg"},{"bike_id":"f75b7c43-b1e9-419b-9e88-97af31d30220","system_id":"levelo_inurba_marseille","lat":43.23966,"lon":5.36638,"is_reserved":false,"is_disabled":false,"rental_uris":{"android":"levelo://app?vid=f75b7c43-b1e9-419b-9e88-97af31d30220","ios":"levelo://app?vid=f75b7c43-b1e9-419b-9e88-97af31d30220"},"vehicle_type_id":"4","last_reported":1740175721,"current_range_meters":18000,"station_id":"ce4bhi12rcd13ifvqfp0","pricing_plan_id":"cebpf4jnsgd1na2vs0mg"},{"bike_id":"2c3682c1-aab7-4959-9566-bee38b634de2","system_id":"levelo_inurba_marseille","lat":43.29415,"lon":5.38609,"is_reserved":false,"is_disabled":false,"rental_uris":{"android":"levelo://app?vid=2c3682c1-aab7-4959-9566-bee38b634de2","ios":"levelo://app?vid=2c3682c1-aab7-4959-9566-bee38b634de2"},"vehicle_type_id":"4","last_reported":1740175721,"current_range_meters":18000,"station_id":"ce4bh2h2rcd13ifvqdh0","pricing_plan_id":"cebpf4jnsgd1na2vs0mg"},{"bike_id":"ab46b189-6bae-4129-a7fd-10b3ccd5a48e","system_id":"levelo_inurba_marseille","lat":43.27195,"lon":5.39993,"is_reserved":false,"is_disabled":false,"rental_uris":{"android":"levelo://app?vid=ab46b189-6bae-4129-a7fd-10b3ccd5a48e","ios":"levelo://app?vid=ab46b189-6bae-4129-a7fd-10b3ccd5a48e"},"vehicle_type_id":"4","last_reported":1740175721,"current_range_meters":18000,"station_id":"","pricing_plan_id":"cebpf4jnsgd1na2vs0mg"},{"bike_id":"9591b364-76c0-4f30-936b-198d6c81d632","system_id":"levelo_inurba_marseille","lat":43.29266,"lon":5.38459,"is_reserved":false,"is_disabled":false,"rental_uris":{"android":"levelo://app?vid=9591b364-76c0-4f30-936b-198d6c81d632","ios":"levelo://app?vid=9591b364-76c0-4f30-936b-198d6c81d632"},"vehicle_type_id":"4","last_reported":1740175721,"current_range_meters":18000,"station_id":"ce4bh692rcd13ifvqea0","pricing_plan_id":"cebpf4jnsgd1na2vs0mg"},{"bike_id":"1b243a8a-8cb1-4424-af2d-e396cb191805","system_id":"levelo_inurba_marseille","lat":43.29414,"lon":5.38622,"is_reserved":false,"is_disabled":false,"rental_uris":{"android":"levelo://app?vid=1b243a8a-8cb1-4424-af2d-e396cb191805","ios":"levelo://app?vid=1b243a8a-8cb1-4424-af2d-e396cb191805"},"vehicle_type_id":"4","last_reported":1740175721,"current_range_meters":18000,"station_id":"ce4bh2h2rcd13ifvqdh0","pricing_plan_id":"cebpf4jnsgd1na2vs0mg"},{"bike_id":"f5298310-14cd-4aed-bc3f-841e7d37dcf5","system_id":"levelo_inurba_marseille","lat":43.32686,"lon":5.41,"is_reserved":false,"is_disabled":true,"rental_uris":{"android":"levelo://app?vid=f5298310-14cd-4aed-bc3f-841e7d37dcf5","ios":"levelo://app?vid=f5298310-14cd-4aed-bc3f-841e7d37dcf5"},"vehicle_type_id":"4","last_reported":1740175721,"current_range_meters":18000,"station_id":"ce4bhpp2rcd13ifvqhgg","pricing_plan_id":"cebpf4jnsgd1na2vs0mg"},{"bike_id":"21074e80-ed0e-43db-b881-6d3197f34b6d","system_id":"levelo_inurba_marseille","lat":43.29516,"lon":5.37516,"is_reserved":false,"is_disabled":false,"rental_uris":{"android":"levelo://app?vid=21074e80-ed0e-43db-b881-6d3197f34b6d","ios":"levelo://app?vid=21074e80-ed0e-43db-b881-6d3197f34b6d"},"vehicle_type_id":"4","last_reported":1740175721,"current_range_meters":18000,"station_id":"ce4bgkp2rcd13ifvqbmg","pricing_plan_id":"cebpf4jnsgd1na2vs0mg"},{"bike_id":"6171c7fc-2f00-4981-afb4-d8d6db9c37a7","system_id":"levelo_inurba_marseille","lat":43.30816,"lon":5.38161,"is_reserved":false,"is_disabled":true,"rental_uris":{"android":"levelo://app?vid=6171c7fc-2f00-4981-afb4-d8d6db9c37a7","ios":"levelo://app?vid=6171c7fc-2f00-4981-afb4-d8d6db9c37a7"},"vehicle_type_id":"4","last_reported":1740175721,"current_range_meters":18800,"station_id":"ce4bgt12rcd13ifvqce0","pricing_plan_id":"cebpf4jnsgd1na2vs0mg"},{"bike_id":"725861b6-aaa7-4c06-b816-d197237ddf32","system_id":"levelo_inurba_marseille","lat":43.28714,"lon":5.37953,"is_reserved":false,"is_disabled":false,"rental_uris":{"android":"levelo://app?vid=725861b6-aaa7-4c06-b816-d197237ddf32","ios":"levelo://app?vid=725861b6-aaa7-4c06-b816-d197237ddf32"},"vehicle_type_id":"4","last_reported":1740175721,"current_range_meters":18800,"station_id":"ce4bh9p2rcd13ifvqec0","pricing_plan_id":"cebpf4jnsgd1na2vs0mg"},{"bike_id":"b66add50-3fef-45a2-9fd5-23bfa438a1d7","system_id":"levelo_inurba_marseille","lat":43.29537,"lon":5.38535,"is_reserved":false,"is_disabled":false,"rental_uris":{"android":"levelo://app?vid=b66add50-3fef-45a2-9fd5-23bfa438a1d7","ios":"levelo://app?vid=b66add50-3fef-45a2-9fd5-23bfa438a1d7"},"vehicle_type_id":"4","last_reported":1740175721,"current_range_meters":18800,"station_id":"ce4bgih2rcd13ifvqba0","pricing_plan_id":"cebpf4jnsgd1na2vs0mg"},{"bike_id":"b0a2827c-2d84-4ff1-9d10-cfa3e2d2edcd","system_id":"levelo_inurba_marseille","lat":43.2872,"lon":5.36094,"is_reserved":false,"is_disabled":false,"rental_uris":{"android":"levelo://app?vid=b0a2827c-2d84-4ff1-9d10-cfa3e2d2edcd","ios":"levelo://app?vid=b0a2827c-2d84-4ff1-9d10-cfa3e2d2edcd"},"vehicle_type_id":"4","last_reported":1740175721,"current_range_meters":18800,"station_id":"cki0cbj6b192h4jlfktg","pricing_plan_id":"cebpf4jnsgd1na2vs0mg"},{"bike_id":"48fdb4ab-7c41-4e62-a40d-c2729ce8f679","system_id":"levelo_inurba_marseille","lat":43.28475,"lon":5.38407,"is_reserved":false,"is_disabled":false,"rental_uris":{"android":"levelo://app?vid=48fdb4ab-7c41-4e62-a40d-c2729ce8f679","ios":"levelo://app?vid=48fdb4ab-7c41-4e62-a40d-c2729ce8f679"},"vehicle_type_id":"4","last_reported":1740175721,"current_range_meters":19200,"station_id":"ce4bh512rcd13ifvqe3g","pricing_plan_id":"cebpf4jnsgd1na2vs0mg"},{"bike_id":"0422091b-d5dc-4b63-a97d-c818057e3f73","system_id":"levelo_inurba_marseille","lat":43.29258,"lon":5.40909,"is_reserved":false,"is_disabled":false,"rental_uris":{"android":"levelo://app?vid=0422091b-d5dc-4b63-a97d-c818057e3f73","ios":"levelo://app?vid=0422091b-d5dc-4b63-a97d-c818057e3f73"},"vehicle_type_id":"4","last_reported":1740175721,"current_range_meters":18800,"station_id":"ce4bh192rcd13ifvqdc0","pricing_plan_id":"cebpf4jnsgd1na2vs0mg"},{"bike_id":"0c33f1f1-9de2-4635-88dd-5b3b6f2bb3a3","system_id":"levelo_inurba_marseille","lat":43.30216,"lon":5.38096,"is_reserved":false,"is_disabled":false,"rental_uris":{"android":"levelo://app?vid=0c33f1f1-9de2-4635-88dd-5b3b6f2bb3a3","ios":"levelo://app?vid=0c33f1f1-9de2-4635-88dd-5b3b6f2bb3a3"},"vehicle_type_id":"4","last_reported":1740175721,"current_range_meters":18800,"station_id":"","pricing_plan_id":"cebpf4jnsgd1na2vs0mg"},{"bike_id":"38f9bc40-639e-4f64-87e9-15092cc7344e","system_id":"levelo_inurba_marseille","lat":43.34407,"lon":5.3817,"is_reserved":false,"is_disabled":false,"rental_uris":{"android":"levelo://app?vid=38f9bc40-639e-4f64-87e9-15092cc7344e","ios":"levelo://app?vid=38f9bc40-639e-4f64-87e9-15092cc7344e"},"vehicle_type_id":"4","last_reported":1740175721,"current_range_meters":18800,"station_id":"","pricing_plan_id":"cebpf4jnsgd1na2vs0mg"},{"bike_id":"62aeaf66-3337-403d-a6c3-ae396f5eeea9","system_id":"levelo_inurba_marseille","lat":43.297673,"lon":5.39331,"is_reserved":false,"is_disabled":false,"rental_uris":{"android":"levelo://app?vid=62aeaf66-3337-403d-a6c3-ae396f5eeea9","ios":"levelo://app?vid=62aeaf66-3337-403d-a6c3-ae396f5eeea9"},"vehicle_type_id":"4","last_reported":1740175721,"current_range_meters":18000,"station_id":"chh1huq6cuj3fo74tm60","pricing_plan_id":"cebpf4jnsgd1na2vs0mg"},{"bike_id":"8e403f8a-b998-4fb1-bb90-54bf70e024a5","system_id":"levelo_inurba_marseille","lat":43.2695,"lon":5.38901,"is_reserved":false,"is_disabled":false,"rental_uris":{"android":"levelo://app?vid=8e403f8a-b998-4fb1-bb90-54bf70e024a5","ios":"levelo://app?vid=8e403f8a-b998-4fb1-bb90-54bf70e024a5"},"vehicle_type_id":"4","last_reported":1740175721,"current_range_meters":18800,"station_id":"ce4bhhh2rcd13ifvqfl0","pricing_plan_id":"cebpf4jnsgd1na2vs0mg"},{"bike_id":"e3d9d7ab-fe61-451b-8f88-24a2dfea43f4","system_id":"levelo_inurba_marseille","lat":43.29427,"lon":5.38615,"is_reserved":false,"is_disabled":false,"rental_uris":{"android":"levelo://app?vid=e3d9d7ab-fe61-451b-8f88-24a2dfea43f4","ios":"levelo://app?vid=e3d9d7ab-fe61-451b-8f88-24a2dfea43f4"},"vehicle_type_id":"4","last_reported":1740175721,"current_range_meters":19200,"station_id":"ce4bh2h2rcd13ifvqdh0","pricing_plan_id":"cebpf4jnsgd1na2vs0mg"},{"bike_id":"78aa47e2-a7fa-44ca-94a7-c65c375b91d7","system_id":"levelo_inurba_marseille","lat":43.24822,"lon":5.37437,"is_reserved":false,"is_disabled":false,"rental_uris":{"android":"levelo://app?vid=78aa47e2-a7fa-44ca-94a7-c65c375b91d7","ios":"levelo://app?vid=78aa47e2-a7fa-44ca-94a7-c65c375b91d7"},"vehicle_type_id":"4","last_reported":1740175721,"current_range_meters":19200,"station_id":"ce4bhgh2rcd13ifvqfb0","pricing_plan_id":"cebpf4jnsgd1na2vs0mg"},{"bike_id":"f11a121c-f824-44fa-af51-847cf3d79d3b","system_id":"levelo_inurba_marseille","lat":43.29416,"lon":5.3864,"is_reserved":false,"is_disabled":false,"rental_uris":{"android":"levelo://app?vid=f11a121c-f824-44fa-af51-847cf3d79d3b","ios":"levelo://app?vid=f11a121c-f824-44fa-af51-847cf3d79d3b"},"vehicle_type_id":"4","last_reported":1740175721,"current_range_meters":19200,"station_id":"ce4bh2h2rcd13ifvqdh0","pricing_plan_id":"cebpf4jnsgd1na2vs0mg"},{"bike_id":"50fd9d86-f686-48f7-aa5a-73e5c1a9b3d9","system_id":"levelo_inurba_marseille","lat":43.29575,"lon":5.37497,"is_reserved":false,"is_disabled":false,"rental_uris":{"android":"levelo://app?vid=50fd9d86-f686-48f7-aa5a-73e5c1a9b3d9","ios":"levelo://app?vid=50fd9d86-f686-48f7-aa5a-73e5c1a9b3d9"},"vehicle_type_id":"4","last_reported":1740175721,"current_range_meters":19200,"station_id":"ce4bgh92rcd13ifvqb50","pricing_plan_id":"cebpf4jnsgd1na2vs0mg"},{"bike_id":"105ea8ad-0d16-4875-9fde-e085311250f4","system_id":"levelo_inurba_marseille","lat":43.23191,"lon":5.35552,"is_reserved":false,"is_disabled":false,"rental_uris":{"android":"levelo://app?vid=105ea8ad-0d16-4875-9fde-e085311250f4","ios":"levelo://app?vid=105ea8ad-0d16-4875-9fde-e085311250f4"},"vehicle_type_id":"4","last_reported":1740175721,"current_range_meters":19200,"station_id":"ce4bhu92rcd13ifvqi70","pricing_plan_id":"cebpf4jnsgd1na2vs0mg"},{"bike_id":"e86e9def-85c3-4d1b-8c66-4511177d388c","system_id":"levelo_inurba_marseille","lat":43.28546,"lon":5.39522,"is_reserved":false,"is_disabled":false,"rental_uris":{"android":"levelo://app?vid=e86e9def-85c3-4d1b-8c66-4511177d388c","ios":"levelo://app?vid=e86e9def-85c3-4d1b-8c66-4511177d388c"},"vehicle_type_id":"4","last_reported":1740175721,"current_range_meters":19200,"station_id":"ce4bh292rcd13ifvqdg0","pricing_plan_id":"cebpf4jnsgd1na2vs0mg"},{"bike_id":"d627e1d1-b30a-47c1-966b-4b3cb6397049","system_id":"levelo_inurba_marseille","lat":43.28161,"lon":5.42652,"is_reserved":false,"is_disabled":false,"rental_uris":{"android":"levelo://app?vid=d627e1d1-b30a-47c1-966b-4b3cb6397049","ios":"levelo://app?vid=d627e1d1-b30a-47c1-966b-4b3cb6397049"},"vehicle_type_id":"4","last_reported":1740175721,"current_range_meters":19200,"station_id":"ce4bhnh2rcd13ifvqgug","pricing_plan_id":"cebpf4jnsgd1na2vs0mg"},{"bike_id":"255e786b-2ebd-409e-8a12-689a91c60eaf","system_id":"levelo_inurba_marseille","lat":43.28724,"lon":5.37957,"is_reserved":false,"is_disabled":false,"rental_uris":{"android":"levelo://app?vid=255e786b-2ebd-409e-8a12-689a91c60eaf","ios":"levelo://app?vid=255e786b-2ebd-409e-8a12-689a91c60eaf"},"vehicle_type_id":"4","last_reported":1740175721,"current_range_meters":19200,"station_id":"ce4bh9p2rcd13ifvqec0","pricing_plan_id":"cebpf4jnsgd1na2vs0mg"},{"bike_id":"3956cc44-fc75-4f94-89d5-9c133698b60d","system_id":"levelo_inurba_marseille","lat":43.29993,"lon":5.37166,"is_reserved":false,"is_disabled":true,"rental_uris":{"android":"levelo://app?vid=3956cc44-fc75-4f94-89d5-9c133698b60d","ios":"levelo://app?vid=3956cc44-fc75-4f94-89d5-9c133698b60d"},"vehicle_type_id":"4","last_reported":1740175721,"current_range_meters":19200,"station_id":"ce4bgr92rcd13ifvqc7g","pricing_plan_id":"cebpf4jnsgd1na2vs0mg"},{"bike_id":"470b5e3a-5936-4b02-9090-daff7d4e8dfe","system_id":"levelo_inurba_marseille","lat":43.29418,"lon":5.38628,"is_reserved":false,"is_disabled":false,"rental_uris":{"android":"levelo://app?vid=470b5e3a-5936-4b02-9090-daff7d4e8dfe","ios":"levelo://app?vid=470b5e3a-5936-4b02-9090-daff7d4e8dfe"},"vehicle_type_id":"4","last_reported":1740175721,"current_range_meters":19600,"station_id":"ce4bh2h2rcd13ifvqdh0","pricing_plan_id":"cebpf4jnsgd1na2vs0mg"},{"bike_id":"3fd2a98c-7939-498c-8625-9658300a849b","system_id":"levelo_inurba_marseille","lat":43.25938,"lon":5.40907,"is_reserved":false,"is_disabled":false,"rental_uris":{"android":"levelo://app?vid=3fd2a98c-7939-498c-8625-9658300a849b","ios":"levelo://app?vid=3fd2a98c-7939-498c-8625-9658300a849b"},"vehicle_type_id":"4","last_reported":1740175721,"current_range_meters":19600,"station_id":"ce4bhm92rcd13ifvqglg","pricing_plan_id":"cebpf4jnsgd1na2vs0mg"},{"bike_id":"fa3aa5a5-4e00-466e-8b65-149b2e48f46f","system_id":"levelo_inurba_marseille","lat":43.30252,"lon":5.40057,"is_reserved":false,"is_disabled":false,"rental_uris":{"android":"levelo://app?vid=fa3aa5a5-4e00-466e-8b65-149b2e48f46f","ios":"levelo://app?vid=fa3aa5a5-4e00-466e-8b65-149b2e48f46f"},"vehicle_type_id":"4","last_reported":1740175721,"current_range_meters":19600,"station_id":"ce4bgvh2rcd13ifvqcs0","pricing_plan_id":"cebpf4jnsgd1na2vs0mg"},{"bike_id":"fcb4de08-c373-4c5d-a0d2-88032e74db12","system_id":"levelo_inurba_marseille","lat":43.25856,"lon":5.3992,"is_reserved":false,"is_disabled":false,"rental_uris":{"android":"levelo://app?vid=fcb4de08-c373-4c5d-a0d2-88032e74db12","ios":"levelo://app?vid=fcb4de08-c373-4c5d-a0d2-88032e74db12"},"vehicle_type_id":"4","last_reported":1740175721,"current_range_meters":19600,"station_id":"ce4bhl92rcd13ifvqghg","pricing_plan_id":"cebpf4jnsgd1na2vs0mg"},{"bike_id":"7f4b11b2-f18a-4e98-b176-85a023ebd449","system_id":"levelo_inurba_marseille","lat":43.308,"lon":5.4353,"is_reserved":false,"is_disabled":false,"rental_uris":{"android":"levelo://app?vid=7f4b11b2-f18a-4e98-b176-85a023ebd449","ios":"levelo://app?vid=7f4b11b2-f18a-4e98-b176-85a023ebd449"},"vehicle_type_id":"4","last_reported":1740175721,"current_range_meters":17600,"station_id":"ce4bhph2rcd13ifvqheg","pricing_plan_id":"cebpf4jnsgd1na2vs0mg"},{"bike_id":"5af64d02-aa65-44a2-bb9c-bbd44bca2d07","system_id":"levelo_inurba_marseille","lat":43.2799,"lon":5.40027,"is_reserved":false,"is_disabled":false,"rental_uris":{"android":"levelo://app?vid=5af64d02-aa65-44a2-bb9c-bbd44bca2d07","ios":"levelo://app?vid=5af64d02-aa65-44a2-bb9c-bbd44bca2d07"},"vehicle_type_id":"4","last_reported":1740175721,"current_range_meters":19600,"station_id":"ce4bho92rcd13ifvqh4g","pricing_plan_id":"cebpf4jnsgd1na2vs0mg"},{"bike_id":"a2da0737-9808-40d1-9bbc-3b6117e76382","system_id":"levelo_inurba_marseille","lat":43.28104,"lon":5.37852,"is_reserved":false,"is_disabled":false,"rental_uris":{"android":"levelo://app?vid=a2da0737-9808-40d1-9bbc-3b6117e76382","ios":"levelo://app?vid=a2da0737-9808-40d1-9bbc-3b6117e76382"},"vehicle_type_id":"4","last_reported":1740175721,"current_range_meters":19600,"station_id":"ce4bha12rcd13ifvqee0","pricing_plan_id":"cebpf4jnsgd1na2vs0mg"},{"bike_id":"eaa9e310-fd6d-4926-b9af-58b62f503355","system_id":"levelo_inurba_marseille","lat":43.26812,"lon":5.40263,"is_reserved":false,"is_disabled":false,"rental_uris":{"android":"levelo://app?vid=eaa9e310-fd6d-4926-b9af-58b62f503355","ios":"levelo://app?vid=eaa9e310-fd6d-4926-b9af-58b62f503355"},