{"last_updated":1761901924,"ttl":60,"version":"2.2","data":{"bikes":[{"bike_id":"4dbab57a-b708-409a-b815-3b9a5d92f753","system_id":"levelo_inurba_marseille","lat":43.337444,"lon":5.374475,"is_reserved":false,"is_disabled":false,"rental_uris":{"android":"levelo://app?vid=4dbab57a-b708-409a-b815-3b9a5d92f753","ios":"levelo://app?vid=4dbab57a-b708-409a-b815-3b9a5d92f753"},"vehicle_type_id":"4","last_reported":1761901924,"current_range_meters":0,"station_id":"","pricing_plan_id":"cebpf4jnsgd1na2vs0mg"},{"bike_id":"b06c4997-7e4f-467a-922f-92f2f2e27e9d","system_id":"levelo_inurba_marseille","lat":43.337444,"lon":5.374475,"is_reserved":false,"is_disabled":false,"rental_uris":{"android":"levelo://app?vid=b06c4997-7e4f-467a-922f-92f2f2e27e9d","ios":"levelo://app?vid=b06c4997-7e4f-467a-922f-92f2f2e27e9d"},"vehicle_type_id":"4","last_reported":1761901924,"current_range_meters":0,"station_id":"","pricing_plan_id":"cebpf4jnsgd1na2vs0mg"},{"bike_id":"bb49b980-4cfb-49a5-9add-f3f9d4fc6db5","system_id":"levelo_inurba_marseille","lat":43.337444,"lon":5.374475,"is_reserved":false,"is_disabled":false,"rental_uris":{"android":"levelo://app?vid=bb49b980-4cfb-49a5-9add-f3f9d4fc6db5","ios":"levelo://app?vid=bb49b980-4cfb-49a5-9add-f3f9d4fc6db5"},"vehicle_type_id":"4","last_reported":1761901924,"current_range_meters":0,"station_id":"","pricing_plan_id":"cebpf4jnsgd1na2vs0mg"},{"bike_id":"b97206fc-6c94-4378-926a-a788d4f71c09","system_id":"levelo_inurba_marseille","lat":43.337444,"lon":5.374475,"is_reserved":false,"is_disabled":false,"rental_uris":{"android":"levelo://app?vid=b97206fc-6c94-4378-926a-a788d4f71c09","ios":"levelo://app?vid=b97206fc-6c94-4378-926a-a788d4f71c09"},"vehicle_type_id":"4","last_reported":1761901924,"current_range_meters":0,"station_id":"","pricing_plan_id":"cebpf4jnsgd1na2vs0mg"},{"bike_id":"37d7ebf5-2b3d-4af3-a7cd-4f29f464d5a0","system_id":"levelo_inurba_marseille","lat":43.337444,"lon":5.374475,"is_reserved":false,"is_disabled":false,"rental_uris":{"android":"levelo://app?vid=37d7ebf5-2b3d-4af3-a7cd-4f29f464d5a0","ios":"levelo://app?vid=37d7ebf5-2b3d-4af3-a7cd-4f29f464d5a0"},"vehicle_type_id":"4","last_reported":1761901924,"current_range_meters":0,"station_id":"","pricing_plan_id":"cebpf4jnsgd1na2vs0mg"},{"bike_id":"4ce4318f-b763-4325-8589-2aecbcc80add","system_id":"levelo_inurba_marseille","lat":43.337444,"lon":5.374475,"is_reserved":false,"is_disabled":false,"rental_uris":{"android":"levelo://app?vid=4ce4318f-b763-4325-8589-2aecbcc80add","ios":"levelo://app?vid=4ce4318f-b763-4325-8589-2aecbcc80add"},"vehicle_type_id":"4","last_reported":1761901924,"current_range_meters":0,"station_id":"","pricing_plan_id":"cebpf4jnsgd1na2vs0mg"},{"bike_id":"e2e35269-30a5-4900-acfa-b3db6a523382","system_id":"levelo_inurba_marseille","lat":43.2814,"lon":5.37432,"is_reserved":false,"is_disabled":false,"rental_uris":{"android":"levelo://app?vid=e2e35269-30a5-4900-acfa-b3db6a523382","ios":"levelo://app?vid=e2e35269-30a5-4900-acfa-b3db6a523382"},"vehicle_type_id":"4","last_reported":1761901924,"current_range_meters":3200,"station_id":"","pricing_plan_id":"cebpf4jnsgd1na2vs0mg"},{"bike_id":"c6698ab8-b9c1-4ef6-8d1d-6b190a79e8e9","system_id":"levelo_inurba_marseille","lat":43.30995,"lon":5.37247,"is_reserved":false,"is_disabled":false,"rental_uris":{"android":"levelo://app?vid=c6698ab8-b9c1-4ef6-8d1d-6b190a79e8e9","ios":"levelo://app?vid=c6698ab8-b9c1-4ef6-8d1d-6b190a79e8e9"},"vehicle_type_id":"4","last_reported":1761901924,"current_range_meters":3600,"station_id":"","pricing_plan_id":"cebpf4jnsgd1na2vs0mg"},{"bike_id":"39e675eb-f4a9-47d7-aef2-17fd6c5f1cb3","system_id":"levelo_inurba_marseille","lat":43.308308,"lon":5.399239,"is_reserved":false,"is_disabled":false,"rental_uris":{"android":"levelo://app?vid=39e675eb-f4a9-47d7-aef2-17fd6c5f1cb3","ios":"levelo://app?vid=39e675eb-f4a9-47d7-aef2-17fd6c5f1cb3"},"vehicle_type_id":"4","last_reported":1761901924,"current_range_meters":3600,"station_id":"ce4bh012rcd13ifvqcv0","pricing_plan_id":"cebpf4jnsgd1na2vs0mg"},{"bike_id":"e85dc3bf-df6a-446b-914b-75189d622bbb","system_id":"levelo_inurba_marseille","lat":43.301699,"lon":5.386018,"is_reserved":false,"is_disabled":false,"rental_uris":{"android":"levelo://app?vid=e85dc3bf-df6a-446b-914b-75189d622bbb","ios":"levelo://app?vid=e85dc3bf-df6a-446b-914b-75189d622bbb"},"vehicle_type_id":"4","last_reported":1761901924,"current_range_meters":3600,"station_id":"","pricing_plan_id":"cebpf4jnsgd1na2vs0mg"},{"bike_id":"52b55f18-631d-4679-997f-ad32168a0eb5","system_id":"levelo_inurba_marseille","lat":43.30648,"lon":5.40099,"is_reserved":false,"is_disabled":false,"rental_uris":{"android":"levelo://app?vid=52b55f18-631d-4679-997f-ad32168a0eb5","ios":"levelo://app?vid=52b55f18-631d-4679-997f-ad32168a0eb5"},"vehicle_type_id":"4","last_reported":1761901924,"current_range_meters":3600,"station_id":"ce4bh112rcd13ifvqda0","pricing_plan_id":"cebpf4jnsgd1na2vs0mg"},{"bike_id":"7632d16b-d979-4d51-bdc3-d7a8dfdd012b","system_id":"levelo_inurba_marseille","lat":43.33002,"lon":5.39032,"is_reserved":false,"is_disabled":false,"rental_uris":{"android":"levelo://app?vid=7632d16b-d979-4d51-bdc3-d7a8dfdd012b","ios":"levelo://app?vid=7632d16b-d979-4d51-bdc3-d7a8dfdd012b"},"vehicle_type_id":"4","last_reported":1761901924,"current_range_meters":3600,"station_id":"ce4bhr92rcd13ifvqhrg","pricing_plan_id":"cebpf4jnsgd1na2vs0mg"},{"bike_id":"5320b178-2745-4df8-a6d9-a52e815ed0af","system_id":"levelo_inurba_marseille","lat":43.30957,"lon":5.39039,"is_reserved":false,"is_disabled":false,"rental_uris":{"android":"levelo://app?vid=5320b178-2745-4df8-a6d9-a52e815ed0af","ios":"levelo://app?vid=5320b178-2745-4df8-a6d9-a52e815ed0af"},"vehicle_type_id":"4","last_reported":1761901924,"current_range_meters":4000,"station_id":"ce4bgup2rcd13ifvqco0","pricing_plan_id":"cebpf4jnsgd1na2vs0mg"},{"bike_id":"f19b3c0e-e6d0-472b-8962-3c0bbcf583d0","system_id":"levelo_inurba_marseille","lat":43.250713,"lon":5.389422,"is_reserved":false,"is_disabled":false,"rental_uris":{"android":"levelo://app?vid=f19b3c0e-e6d0-472b-8962-3c0bbcf583d0","ios":"levelo://app?vid=f19b3c0e-e6d0-472b-8962-3c0bbcf583d0"},"vehicle_type_id":"4","last_reported":1761901924,"current_range_meters":4400,"station_id":"ce4bhgp2rcd13ifvqfd0","pricing_plan_id":"cebpf4jnsgd1na2vs0mg"},{"bike_id":"e2ce2f98-2506-47a8-be9c-841cd1dcd8cb","system_id":"levelo_inurba_marseille","lat":43.21751,"lon":5.34596,"is_reserved":false,"is_disabled":true,"rental_uris":{"android":"levelo://app?vid=e2ce2f98-2506-47a8-be9c-841cd1dcd8cb","ios":"levelo://app?vid=e2ce2f98-2506-47a8-be9c-841cd1dcd8cb"},"vehicle_type_id":"4","last_reported":1761901924,"current_range_meters":4800,"station_id":"","pricing_plan_id":"cebpf4jnsgd1na2vs0mg"},{"bike_id":"13441d01-a884-4c44-8f45-60b8a717028f","system_id":"levelo_inurba_marseille","lat":43.30319,"lon":5.40433,"is_reserved":false,"is_disabled":false,"rental_uris":{"android":"levelo://app?vid=13441d01-a884-4c44-8f45-60b8a717028f","ios":"levelo://app?vid=13441d01-a884-4c44-8f45-60b8a717028f"},"vehicle_type_id":"4","last_reported":1761901924,"current_range_meters":4800,"station_id":"ce4bh012rcd13ifvqd10","pricing_plan_id":"cebpf4jnsgd1na2vs0mg"},{"bike_id":"4a8f6ca7-df5d-4722-9092-bdaff0cfbb8d","system_id":"levelo_inurba_marseille","lat":43.24178,"lon":5.39731,"is_reserved":false,"is_disabled":false,"rental_uris":{"android":"levelo://app?vid=4a8f6ca7-df5d-4722-9092-bdaff0cfbb8d","ios":"levelo://app?vid=4a8f6ca7-df5d-4722-9092-bdaff0cfbb8d"},"vehicle_type_id":"4","last_reported":1761901924,"current_range_meters":4800,"station_id":"ce4bhn12rcd13ifvqgpg","pricing_plan_id":"cebpf4jnsgd1na2vs0mg"},{"bike_id":"7b51bccb-aa3a-49a8-af03-30f18a101fa3","system_id":"levelo_inurba_marseille","lat":43.24071,"lon":5.37743,"is_reserved":false,"is_disabled":false,"rental_uris":{"android":"levelo://app?vid=7b51bccb-aa3a-49a8-af03-30f18a101fa3","ios":"levelo://app?vid=7b51bccb-aa3a-49a8-af03-30f18a101fa3"},"vehicle_type_id":"4","last_reported":1761901924,"current_range_meters":5600,"station_id":"ce4bhnp2rcd13ifvqgvg","pricing_plan_id":"cebpf4jnsgd1na2vs0mg"},{"bike_id":"c54f064c-51c8-4575-bcd7-0daf257ae073","system_id":"levelo_inurba_marseille","lat":43.2656,"lon":5.4032,"is_reserved":false,"is_disabled":false,"rental_uris":{"android":"levelo://app?vid=c54f064c-51c8-4575-bcd7-0daf257ae073","ios":"levelo://app?vid=c54f064c-51c8-4575-bcd7-0daf257ae073"},"vehicle_type_id":"4","last_reported":1761901924,"current_range_meters":6000,"station_id":"ce4bhmp2rcd13ifvqgng","pricing_plan_id":"cebpf4jnsgd1na2vs0mg"},{"bike_id":"80dcf2e7-dd72-4257-a558-2294fe58aee9","system_id":"levelo_inurba_marseille","lat":43.26953,"lon":5.38634,"is_reserved":false,"is_disabled":false,"rental_uris":{"android":"levelo://app?vid=80dcf2e7-dd72-4257-a558-2294fe58aee9","ios":"levelo://app?vid=80dcf2e7-dd72-4257-a558-2294fe58aee9"},"vehicle_type_id":"4","last_reported":1761901924,"current_range_meters":6000,"station_id":"ce4bhh92rcd13ifvqfh0","pricing_plan_id":"cebpf4jnsgd1na2vs0mg"},{"bike_id":"5a6469aa-e895-4ae0-9227-8754cc2d4197","system_id":"levelo_inurba_marseille","lat":43.30548,"lon":5.36559,"is_reserved":false,"is_disabled":false,"rental_uris":{"android":"levelo://app?vid=5a6469aa-e895-4ae0-9227-8754cc2d4197","ios":"levelo://app?vid=5a6469aa-e895-4ae0-9227-8754cc2d4197"},"vehicle_type_id":"4","last_reported":1761901924,"current_range_meters":6000,"station_id":"ce4bgs12rcd13ifvqcag","pricing_plan_id":"cebpf4jnsgd1na2vs0mg"},{"bike_id":"faee4aed-34d1-4e59-9f3e-bc2337688920","system_id":"levelo_inurba_marseille","lat":43.317068,"lon":5.436976,"is_reserved":false,"is_disabled":true,"rental_uris":{"android":"levelo://app?vid=faee4aed-34d1-4e59-9f3e-bc2337688920","ios":"levelo://app?vid=faee4aed-34d1-4e59-9f3e-bc2337688920"},"vehicle_type_id":"4","last_reported":1761901924,"current_range_meters":6000,"station_id":"ce4bhp92rcd13ifvqhcg","pricing_plan_id":"cebpf4jnsgd1na2vs0mg"},{"bike_id":"46f3e991-c55b-4d9d-9a37-f9e3e15f4f3f","system_id":"levelo_inurba_marseille","lat":43.21183,"lon":5.35068,"is_reserved":false,"is_disabled":false,"rental_uris":{"android":"levelo://app?vid=46f3e991-c55b-4d9d-9a37-f9e3e15f4f3f","ios":"levelo://app?vid=46f3e991-c55b-4d9d-9a37-f9e3e15f4f3f"},"vehicle_type_id":"4","last_reported":1761901924,"current_range_meters":6800,"station_id":"st_cvj6sg6p6f1abm77japg","pricing_plan_id":"cebpf4jnsgd1na2vs0mg"},{"bike_id":"870149cd-ad2c-4684-95f8-832624541ccb","system_id":"levelo_inurba_marseille","lat":43.30415,"lon":5.39743,"is_reserved":false,"is_disabled":false,"rental_uris":{"android":"levelo://app?vid=870149cd-ad2c-4684-95f8-832624541ccb","ios":"levelo://app?vid=870149cd-ad2c-4684-95f8-832624541ccb"},"vehicle_type_id":"4","last_reported":1761901924,"current_range_meters":6800,"station_id":"ce4bh092rcd13ifvqd20","pricing_plan_id":"cebpf4jnsgd1na2vs0mg"},{"bike_id":"04fe2dca-f400-44e4-a4be-a6f20a0268a6","system_id":"levelo_inurba_marseille","lat":43.32477,"lon":5.36566,"is_reserved":false,"is_disabled":false,"rental_uris":{"android":"levelo://app?vid=04fe2dca-f400-44e4-a4be-a6f20a0268a6","ios":"levelo://app?vid=04fe2dca-f400-44e4-a4be-a6f20a0268a6"},"vehicle_type_id":"4","last_reported":1761901924,"current_range_meters":6800,"station_id":"ce4bhs12rcd13ifvqhvg","pricing_plan_id":"cebpf4jnsgd1na2vs0mg"},{"bike_id":"4042a8e6-9f9d-4750-97a0-8691b363476d","system_id":"levelo_inurba_marseille","lat":43.28853,"lon":5.39648,"is_reserved":false,"is_disabled":false,"rental_uris":{"android":"levelo://app?vid=4042a8e6-9f9d-4750-97a0-8691b363476d","ios":"levelo://app?vid=4042a8e6-9f9d-4750-97a0-8691b363476d"},"vehicle_type_id":"4","last_reported":1761901924,"current_range_meters":7200,"station_id":"","pricing_plan_id":"cebpf4jnsgd1na2vs0mg"},{"bike_id":"0188ac4d-06e3-4e55-b48c-c0ba7a7eba23","system_id":"levelo_inurba_marseille","lat":43.23145,"lon":5.4371,"is_reserved":false,"is_disabled":true,"rental_uris":{"android":"levelo://app?vid=0188ac4d-06e3-4e55-b48c-c0ba7a7eba23","ios":"levelo://app?vid=0188ac4d-06e3-4e55-b48c-c0ba7a7eba23"},"vehicle_type_id":"4","last_reported":1761901924,"current_range_meters":7200,"station_id":"ce4bhmp2rcd13ifvqgog","pricing_plan_id":"cebpf4jnsgd1na2vs0mg"},{"bike_id":"3a217d2d-0c7e-4d79-a702-b9135e90946e","system_id":"levelo_inurba_marseille","lat":43.281517,"lon":5.426543,"is_reserved":false,"is_disabled":true,"rental_uris":{"android":"levelo://app?vid=3a217d2d-0c7e-4d79-a702-b9135e90946e","ios":"levelo://app?vid=3a217d2d-0c7e-4d79-a702-b9135e90946e"},"vehicle_type_id":"4","last_reported":1761901924,"current_range_meters":7200,"station_id":"ce4bhnh2rcd13ifvqgug","pricing_plan_id":"cebpf4jnsgd1na2vs0mg"},{"bike_id":"1bdb0524-fd2f-434a-9e83-4b7a1a09b5bb","system_id":"levelo_inurba_marseille","lat":43.33402,"lon":5.41116,"is_reserved":false,"is_disabled":false,"rental_uris":{"android":"levelo://app?vid=1bdb0524-fd2f-434a-9e83-4b7a1a09b5bb","ios":"levelo://app?vid=1bdb0524-fd2f-434a-9e83-4b7a1a09b5bb"},"vehicle_type_id":"4","last_reported":1761901924,"current_range_meters":7200,"station_id":"","pricing_plan_id":"cebpf4jnsgd1na2vs0mg"},{"bike_id":"b9f74423-aa79-4748-b80a-22d4a2dba692","system_id":"levelo_inurba_marseille","lat":43.30423,"lon":5.39741,"is_reserved":false,"is_disabled":false,"rental_uris":{"android":"levelo://app?vid=b9f74423-aa79-4748-b80a-22d4a2dba692","ios":"levelo://app?vid=b9f74423-aa79-4748-b80a-22d4a2dba692"},"vehicle_type_id":"4","last_reported":1761901924,"current_range_meters":8000,"station_id":"ce4bh092rcd13ifvqd20","pricing_plan_id":"cebpf4jnsgd1na2vs0mg"},{"bike_id":"b8117941-e98d-4a38-8e77-98761a44236b","system_id":"levelo_inurba_marseille","lat":43.30948,"lon":5.3903,"is_reserved":false,"is_disabled":false,"rental_uris":{"android":"levelo://app?vid=b8117941-e98d-4a38-8e77-98761a44236b","ios":"levelo://app?vid=b8117941-e98d-4a38-8e77-98761a44236b"},"vehicle_type_id":"4","last_reported":1761901924,"current_range_meters":8000,"station_id":"ce4bgup2rcd13ifvqco0","pricing_plan_id":"cebpf4jnsgd1na2vs0mg"},{"bike_id":"81dcf483-e436-4ecf-8e56-9fe1966ff104","system_id":"levelo_inurba_marseille","lat":43.29976,"lon":5.38511,"is_reserved":false,"is_disabled":false,"rental_uris":{"android":"levelo://app?vid=81dcf483-e436-4ecf-8e56-9fe1966ff104","ios":"levelo://app?vid=81dcf483-e436-4ecf-8e56-9fe1966ff104"},"vehicle_type_id":"4","last_reported":1761901924,"current_range_meters":8000,"station_id":"ce4bgj92rcd13ifvqbd0","pricing_plan_id":"cebpf4jnsgd1na2vs0mg"},{"bike_id":"344d8a94-309c-4889-91e6-3cafe42cf831","system_id":"levelo_inurba_marseille","lat":43.29265,"lon":5.36848,"is_reserved":false,"is_disabled":false,"rental_uris":{"android":"levelo://app?vid=344d8a94-309c-4889-91e6-3cafe42cf831","ios":"levelo://app?vid=344d8a94-309c-4889-91e6-3cafe42cf831"},"vehicle_type_id":"4","last_reported":1761901924,"current_range_meters":8400,"station_id":"ce4bhbp2rcd13ifvqesg","pricing_plan_id":"cebpf4jnsgd1na2vs0mg"},{"bike_id":"81f0d162-b88c-4c48-ac3a-5de6e63d58f3","system_id":"levelo_inurba_marseille","lat":43.29875,"lon":5.3844,"is_reserved":false,"is_disabled":false,"rental_uris":{"android":"levelo://app?vid=81f0d162-b88c-4c48-ac3a-5de6e63d58f3","ios":"levelo://app?vid=81f0d162-b88c-4c48-ac3a-5de6e63d58f3"},"vehicle_type_id":"4","last_reported":1761901924,"current_range_meters":8400,"station_id":"","pricing_plan_id":"cebpf4jnsgd1na2vs0mg"},{"bike_id":"003dc589-afc6-47c4-a84a-e90cd5f91109","system_id":"levelo_inurba_marseille","lat":43.29535,"lon":5.3902,"is_reserved":false,"is_disabled":false,"rental_uris":{"android":"levelo://app?vid=003dc589-afc6-47c4-a84a-e90cd5f91109","ios":"levelo://app?vid=003dc589-afc6-47c4-a84a-e90cd5f91109"},"vehicle_type_id":"4","last_reported":1761901924,"current_range_meters":8400,"station_id":"","pricing_plan_id":"cebpf4jnsgd1na2vs0mg"},{"bike_id":"6fff56e2-dc33-4322-9554-e738206d1bc0","system_id":"levelo_inurba_marseille","lat":43.21194,"lon":5.350731,"is_reserved":false,"is_disabled":false,"rental_uris":{"android":"levelo://app?vid=6fff56e2-dc33-4322-9554-e738206d1bc0","ios":"levelo://app?vid=6fff56e2-dc33-4322-9554-e738206d1bc0"},"vehicle_type_id":"4","last_reported":1761901924,"current_range_meters":8400,"station_id":"st_cvj6sg6p6f1abm77japg","pricing_plan_id":"cebpf4jnsgd1na2vs0mg"},{"bike_id":"299b6d25-0432-40b3-b88d-599bdb7cfc7b","system_id":"levelo_inurba_marseille","lat":43.29515,"lon":5.39032,"is_reserved":false,"is_disabled":true,"rental_uris":{"android":"levelo://app?vid=299b6d25-0432-40b3-b88d-599bdb7cfc7b","ios":"levelo://app?vid=299b6d25-0432-40b3-b88d-599bdb7cfc7b"},"vehicle_type_id":"4","last_reported":1761901924,"current_range_meters":8400,"station_id":"ce4bh3p2rcd13ifvqdp0","pricing_plan_id":"cebpf4jnsgd1na2vs0mg"},{"bike_id":"3126ce35-4101-4b06-a7b2-19548fb25089","system_id":"levelo_inurba_marseille","lat":43.211946,"lon":5.350666,"is_reserved":false,"is_disabled":false,"rental_uris":{"android":"levelo://app?vid=3126ce35-4101-4b06-a7b2-19548fb25089","ios":"levelo://app?vid=3126ce35-4101-4b06-a7b2-19548fb25089"},"vehicle_type_id":"4","last_reported":1761901924,"current_range_meters":8800,"station_id":"st_cvj6sg6p6f1abm77japg","pricing_plan_id":"cebpf4jnsgd1na2vs0mg"},{"bike_id":"6c3f8b32-c115-4971-ab70-7ce53698f0ed","system_id":"levelo_inurba_marseille","lat":43.2815,"lon":5.42652,"is_reserved":false,"is_disabled":true,"rental_uris":{"android":"levelo://app?vid=6c3f8b32-c115-4971-ab70-7ce53698f0ed","ios":"levelo://app?vid=6c3f8b32-c115-4971-ab70-7ce53698f0ed"},"vehicle_type_id":"4","last_reported":1761901924,"current_range_meters":8800,"station_id":"ce4bhnh2rcd13ifvqgug","pricing_plan_id":"cebpf4jnsgd1na2vs0mg"},{"bike_id":"22219237-c8df-4ea1-8cfc-d971c5dcd449","system_id":"levelo_inurba_marseille","lat":43.24063,"lon":5.3774,"is_reserved":false,"is_disabled":false,"rental_uris":{"android":"levelo://app?vid=22219237-c8df-4ea1-8cfc-d971c5dcd449","ios":"levelo://app?vid=22219237-c8df-4ea1-8cfc-d971c5dcd449"},"vehicle_type_id":"4","last_reported":1761901924,"current_range_meters":9200,"station_id":"ce4bhnp2rcd13ifvqgvg","pricing_plan_id":"cebpf4jnsgd1na2vs0mg"},{"bike_id":"688e0991-23bb-4f67-a97d-b9bb7704a66a","system_id":"levelo_inurba_marseille","lat":43.29255,"lon":5.39101,"is_reserved":false,"is_disabled":false,"rental_uris":{"android":"levelo://app?vid=688e0991-23bb-4f67-a97d-b9bb7704a66a","ios":"levelo://app?vid=688e0991-23bb-4f67-a97d-b9bb7704a66a"},"vehicle_type_id":"4","last_reported":1761901924,"current_range_meters":9200,"station_id":"","pricing_plan_id":"cebpf4jnsgd1na2vs0mg"},{"bike_id":"73905a82-c9c2-4ee2-8e94-756ec10078fa","system_id":"levelo_inurba_marseille","lat":43.2656,"lon":5.37278,"is_reserved":false,"is_disabled":false,"rental_uris":{"android":"levelo://app?vid=73905a82-c9c2-4ee2-8e94-756ec10078fa","ios":"levelo://app?vid=73905a82-c9c2-4ee2-8e94-756ec10078fa"},"vehicle_type_id":"4","last_reported":1761901924,"current_range_meters":9200,"station_id":"ce4bhg12rcd13ifvqf70","pricing_plan_id":"cebpf4jnsgd1na2vs0mg"},{"bike_id":"0a61ea45-240b-42a2-9d81-dade841237f8","system_id":"levelo_inurba_marseille","lat":43.25334,"lon":5.42166,"is_reserved":false,"is_disabled":true,"rental_uris":{"android":"levelo://app?vid=0a61ea45-240b-42a2-9d81-dade841237f8","ios":"levelo://app?vid=0a61ea45-240b-42a2-9d81-dade841237f8"},"vehicle_type_id":"4","last_reported":1761901924,"current_range_meters":9200,"station_id":"st_d2m65c5bi1j21697t3ng","pricing_plan_id":"cebpf4jnsgd1na2vs0mg"},{"bike_id":"4c0860c2-36d0-46c4-a0a8-e19a4948ca90","system_id":"levelo_inurba_marseille","lat":43.299652,"lon":5.385018,"is_reserved":false,"is_disabled":false,"rental_uris":{"android":"levelo://app?vid=4c0860c2-36d0-46c4-a0a8-e19a4948ca90","ios":"levelo://app?vid=4c0860c2-36d0-46c4-a0a8-e19a4948ca90"},"vehicle_type_id":"4","last_reported":1761901924,"current_range_meters":9200,"station_id":"ce4bgj92rcd13ifvqbd0","pricing_plan_id":"cebpf4jnsgd1na2vs0mg"},{"bike_id":"ef077506-ad53-48c6-96ed-57184394616c","system_id":"levelo_inurba_marseille","lat":43.308829,"lon":5.371959,"is_reserved":false,"is_disabled":false,"rental_uris":{"android":"levelo://app?vid=ef077506-ad53-48c6-96ed-57184394616c","ios":"levelo://app?vid=ef077506-ad53-48c6-96ed-57184394616c"},"vehicle_type_id":"4","last_reported":1761901924,"current_range_meters":9600,"station_id":"ce4bguh2rcd13ifvqckg","pricing_plan_id":"cebpf4jnsgd1na2vs0mg"},{"bike_id":"4c1b2049-b590-4ae2-a090-9d731b00e193","system_id":"levelo_inurba_marseille","lat":43.2707,"lon":5.42272,"is_reserved":false,"is_disabled":false,"rental_uris":{"android":"levelo://app?vid=4c1b2049-b590-4ae2-a090-9d731b00e193","ios":"levelo://app?vid=4c1b2049-b590-4ae2-a090-9d731b00e193"},"vehicle_type_id":"4","last_reported":1761901924,"current_range_meters":9600,"station_id":"ce4bhk92rcd13ifvqgb0","pricing_plan_id":"cebpf4jnsgd1na2vs0mg"},{"bike_id":"6c8f2740-adf5-44b3-9ffc-aadc4c73a77d","system_id":"levelo_inurba_marseille","lat":43.30195,"lon":5.39469,"is_reserved":false,"is_disabled":false,"rental_uris":{"android":"levelo://app?vid=6c8f2740-adf5-44b3-9ffc-aadc4c73a77d","ios":"levelo://app?vid=6c8f2740-adf5-44b3-9ffc-aadc4c73a77d"},"vehicle_type_id":"4","last_reported":1761901924,"current_range_meters":9600,"station_id":"ce4bh0p2rcd13ifvqd70","pricing_plan_id":"cebpf4jnsgd1na2vs0mg"},{"bike_id":"baeea4d6-b0b3-4e83-af9b-0fb2379be4c2","system_id":"levelo_inurba_marseille","lat":43.23958,"lon":5.36629,"is_reserved":false,"is_disabled":false,"rental_uris":{"android":"levelo://app?vid=baeea4d6-b0b3-4e83-af9b-0fb2379be4c2","ios":"levelo://app?vid=baeea4d6-b0b3-4e83-af9b-0fb2379be4c2"},"vehicle_type_id":"4","last_reported":1761901924,"current_range_meters":10000,"station_id":"ce4bhi12rcd13ifvqfp0","pricing_plan_id":"cebpf4jnsgd1na2vs0mg"},{"bike_id":"f6946de9-6fd5-486c-846e-6aac0ac8e59f","system_id":"levelo_inurba_marseille","lat":43.21198,"lon":5.35066,"is_reserved":false,"is_disabled":false,"rental_uris":{"android":"levelo://app?vid=f6946de9-6fd5-486c-846e-6aac0ac8e59f","ios":"levelo://app?vid=f6946de9-6fd5-486c-846e-6aac0ac8e59f"},"vehicle_type_id":"4","last_reported":1761901924,"current_range_meters":10000,"station_id":"st_cvj6sg6p6f1abm77japg","pricing_plan_id":"cebpf4jnsgd1na2vs0mg"},{"bike_id":"d99505fe-d7a7-4e44-b7f5-f0065cd01a03","system_id":"levelo_inurba_marseille","lat":43.333654,"lon":5.429036,"is_reserved":false,"is_disabled":false,"rental_uris":{"android":"levelo://app?vid=d99505fe-d7a7-4e44-b7f5-f0065cd01a03","ios":"levelo://app?vid=d99505fe-d7a7-4e44-b7f5-f0065cd01a03"},"vehicle_type_id":"4","last_reported":1761901924,"current_range_meters":10800,"station_id":"","pricing_plan_id":"cebpf4jnsgd1na2vs0mg"},{"bike_id":"d0871267-85f4-41dd-bc13-c3cf4f67563c","system_id":"levelo_inurba_marseille","lat":43.2679,"lon":5.39406,"is_reserved":false,"is_disabled":false,"rental_uris":{"android":"levelo://app?vid=d0871267-85f4-41dd-bc13-c3cf4f67563c","ios":"levelo://app?vid=d0871267-85f4-41dd-bc13-c3cf4f67563c"},"vehicle_type_id":"4","last_reported":1761901924,"current_range_meters":10800,"station_id":"ce4bhh12rcd13ifvqfg0","pricing_plan_id":"cebpf4jnsgd1na2vs0mg"},{"bike_id":"36dd507c-f64b-47d1-8692-a45e27a07ca3","system_id":"levelo_inurba_marseille","lat":43.25939,"lon":5.409048,"is_reserved":false,"is_disabled":false,"rental_uris":{"android":"levelo://app?vid=36dd507c-f64b-47d1-8692-a45e27a07ca3","ios":"levelo://app?vid=36dd507c-f64b-47d1-8692-a45e27a07ca3"},"vehicle_type_id":"4","last_reported":1761901924,"current_range_meters":10800,"station_id":"ce4bhm92rcd13ifvqglg","pricing_plan_id":"cebpf4jnsgd1na2vs0mg"},{"bike_id":"f1ebec42-de39-49cb-aa79-a7d00cd08ff7","system_id":"levelo_inurba_marseille","lat":43.330225,"lon":5.390224,"is_reserved":false,"is_disabled":false,"rental_uris":{"android":"levelo://app?vid=f1ebec42-de39-49cb-aa79-a7d00cd08ff7","ios":"levelo://app?vid=f1ebec42-de39-49cb-aa79-a7d00cd08ff7"},"vehicle_type_id":"4","last_reported":1761901924,"current_range_meters":10800,"station_id":"ce4bhr92rcd13ifvqhrg","pricing_plan_id":"cebpf4jnsgd1na2vs0mg"},{"bike_id":"dd457ba3-9e07-42fa-81ff-1ce7b1782007","system_id":"levelo_inurba_marseille","lat":43.298253,"lon":5.381058,"is_reserved":false,"is_disabled":false,"rental_uris":{"android":"levelo://app?vid=dd457ba3-9e07-42fa-81ff-1ce7b1782007","ios":"levelo://app?vid=dd457ba3-9e07-42fa-81ff-1ce7b1782007"},"vehicle_type_id":"4","last_reported":1761901924,"current_range_meters":10800,"station_id":"ce4bgip2rcd13ifvqbb0","pricing_plan_id":"cebpf4jnsgd1na2vs0mg"},{"bike_id":"9b93b5e1-c939-4745-bf85-2d21945442dc","system_id":"levelo_inurba_marseille","lat":43.29989,"lon":5.36403,"is_reserved":false,"is_disabled":false,"rental_uris":{"android":"levelo://app?vid=9b93b5e1-c939-4745-bf85-2d21945442dc","ios":"levelo://app?vid=9b93b5e1-c939-4745-bf85-2d21945442dc"},"vehicle_type_id":"4","last_reported":1761901924,"current_range_meters":11200,"station_id":"","pricing_plan_id":"cebpf4jnsgd1na2vs0mg"},{"bike_id":"926593f6-579b-4bc9-b774-62aba5138a9f","system_id":"levelo_inurba_marseille","lat":43.313786,"lon":5.38495,"is_reserved":false,"is_disabled":false,"rental_uris":{"android":"levelo://app?vid=926593f6-579b-4bc9-b774-62aba5138a9f","ios":"levelo://app?vid=926593f6-579b-4bc9-b774-62aba5138a9f"},"vehicle_type_id":"4","last_reported":1761901924,"current_range_meters":11200,"station_id":"ce4bgt92rcd13ifvqcf0","pricing_plan_id":"cebpf4jnsgd1na2vs0mg"},{"bike_id":"fb2a965b-2372-405d-a458-766be3b50c2a","system_id":"levelo_inurba_marseille","lat":43.302277,"lon":5.395111,"is_reserved":false,"is_disabled":true,"rental_uris":{"android":"levelo://app?vid=fb2a965b-2372-405d-a458-766be3b50c2a","ios":"levelo://app?vid=fb2a965b-2372-405d-a458-766be3b50c2a"},"vehicle_type_id":"4","last_reported":1761901924,"current_range_meters":11200,"station_id":"","pricing_plan_id":"cebpf4jnsgd1na2vs0mg"},{"bike_id":"6031e130-bc2f-4945-be2d-739bc30e9d8e","system_id":"levelo_inurba_marseille","lat":43.28531,"lon":5.44105,"is_reserved":false,"is_disabled":false,"rental_uris":{"android":"levelo://app?vid=6031e130-bc2f-4945-be2d-739bc30e9d8e","ios":"levelo://app?vid=6031e130-bc2f-4945-be2d-739bc30e9d8e"},"vehicle_type_id":"4","last_reported":1761901924,"current_range_meters":11200,"station_id":"st_d3j3df2ikq2c7380ej80","pricing_plan_id":"cebpf4jnsgd1na2vs0mg"},{"bike_id":"69daedd1-e532-426c-b096-24cfed29fb24","system_id":"levelo_inurba_marseille","lat":43.27957,"lon":5.41044,"is_reserved":false,"is_disabled":false,"rental_uris":{"android":"levelo://app?vid=69daedd1-e532-426c-b096-24cfed29fb24","ios":"levelo://app?vid=69daedd1-e532-426c-b096-24cfed29fb24"},"vehicle_type_id":"4","last_reported":1761901924,"current_range_meters":11200,"station_id":"ce4bhnp2rcd13ifvqh0g","pricing_plan_id":"cebpf4jnsgd1na2vs0mg"},{"bike_id":"a18dbf48-2c4d-4fa4-a4c5-c9871d73c9a0","system_id":"levelo_inurba_marseille","lat":43.301994,"lon":5.383462,"is_reserved":false,"is_disabled":false,"rental_uris":{"android":"levelo://app?vid=a18dbf48-2c4d-4fa4-a4c5-c9871d73c9a0","ios":"levelo://app?vid=a18dbf48-2c4d-4fa4-a4c5-c9871d73c9a0"},"vehicle_type_id":"4","last_reported":1761901924,"current_range_meters":11200,"station_id":"ce4bgup2rcd13ifvqcn0","pricing_plan_id":"cebpf4jnsgd1na2vs0mg"},{"bike_id":"aff1941b-155a-439c-b6d1-9cd7afc356cf","system_id":"levelo_inurba_marseille","lat":43.23959,"lon":5.36633,"is_reserved":false,"is_disabled":false,"rental_uris":{"android":"levelo://app?vid=aff1941b-155a-439c-b6d1-9cd7afc356cf","ios":"levelo://app?vid=aff1941b-155a-439c-b6d1-9cd7afc356cf"},"vehicle_type_id":"4","last_reported":1761901924,"current_range_meters":11200,"station_id":"ce4bhi12rcd13ifvqfp0","pricing_plan_id":"cebpf4jnsgd1na2vs0mg"},{"bike_id":"917c7cf8-f6a9-404f-b9c2-35276abaea43","system_id":"levelo_inurba_marseille","lat":43.32365,"lon":5.38884,"is_reserved":false,"is_disabled":false,"rental_uris":{"android":"levelo://app?vid=917c7cf8-f6a9-404f-b9c2-35276abaea43","ios":"levelo://app?vid=917c7cf8-f6a9-404f-b9c2-35276abaea43"},"vehicle_type_id":"4","last_reported":1761901924,"current_range_meters":11200,"station_id":"ce4bhqp2rcd13ifvqhog","pricing_plan_id":"cebpf4jnsgd1na2vs0mg"},{"bike_id":"b61e1e59-261f-4781-9885-10fc3dd1eaf7","system_id":"levelo_inurba_marseille","lat":43.30481,"lon":5.36896,"is_reserved":false,"is_disabled":false,"rental_uris":{"android":"levelo://app?vid=b61e1e59-261f-4781-9885-10fc3dd1eaf7","ios":"levelo://app?vid=b61e1e59-261f-4781-9885-10fc3dd1eaf7"},"vehicle_type_id":"4","last_reported":1761901924,"current_range_meters":11200,"station_id":"","pricing_plan_id":"cebpf4jnsgd1na2vs0mg"},{"bike_id":"c0a1ab8d-72ff-4114-b274-fdab8f1c3cb0","system_id":"levelo_inurba_marseille","lat":43.246865,"lon":5.381845,"is_reserved":false,"is_disabled":false,"rental_uris":{"android":"levelo://app?vid=c0a1ab8d-72ff-4114-b274-fdab8f1c3cb0","ios":"levelo://app?vid=c0a1ab8d-72ff-4114-b274-fdab8f1c3cb0"},"vehicle_type_id":"4","last_reported":1761901924,"current_range_meters":11600,"station_id":"ce4bhih2rcd13ifvqfr0","pricing_plan_id":"cebpf4jnsgd1na2vs0mg"},{"bike_id":"c2b29e2a-9ddf-4599-9569-ebeda3771708","system_id":"levelo_inurba_marseille","lat":43.211978,"lon":5.350834,"is_reserved":false,"is_disabled":false,"rental_uris":{"android":"levelo://app?vid=c2b29e2a-9ddf-4599-9569-ebeda3771708","ios":"levelo://app?vid=c2b29e2a-9ddf-4599-9569-ebeda3771708"},"vehicle_type_id":"4","last_reported":1761901924,"current_range_meters":11600,"station_id":"st_cvj6sg6p6f1abm77japg","pricing_plan_id":"cebpf4jnsgd1na2vs0mg"},{"bike_id":"75b2ab03-b6f9-4537-834b-b438df40fe86","system_id":"levelo_inurba_marseille","lat":43.28613,"lon":5.3915,"is_reserved":false,"is_disabled":false,"rental_uris":{"android":"levelo://app?vid=75b2ab03-b6f9-4537-834b-b438df40fe86","ios":"levelo://app?vid=75b2ab03-b6f9-4537-834b-b438df40fe86"},"vehicle_type_id":"4","last_reported":1761901924,"current_range_meters":11600,"station_id":"","pricing_plan_id":"cebpf4jnsgd1na2vs0mg"},{"bike_id":"4419364e-7081-420e-bc7a-995a1e367772","system_id":"levelo_inurba_marseille","lat":43.25105,"lon":5.40328,"is_reserved":false,"is_disabled":false,"rental_uris":{"android":"levelo://app?vid=4419364e-7081-420e-bc7a-995a1e367772","ios":"levelo://app?vid=4419364e-7081-420e-bc7a-995a1e367772"},"vehicle_type_id":"4","last_reported":1761901924,"current_range_meters":12000,"station_id":"ce4bhlh2rcd13ifvqgig","pricing_plan_id":"cebpf4jnsgd1na2vs0mg"},{"bike_id":"13b5bebc-2277-4643-9efc-b419c3a09bbd","system_id":"levelo_inurba_marseille","lat":43.22924,"lon":5.35379,"is_reserved":false,"is_disabled":false,"rental_uris":{"android":"levelo://app?vid=13b5bebc-2277-4643-9efc-b419c3a09bbd","ios":"levelo://app?vid=13b5bebc-2277-4643-9efc-b419c3a09bbd"},"vehicle_type_id":"4","last_reported":1761901924,"current_range_meters":12000,"station_id":"cpo3532slgdg3j2ikp40","pricing_plan_id":"cebpf4jnsgd1na2vs0mg"},{"bike_id":"d3e4191f-8708-4957-a7db-efe93d73dc66","system_id":"levelo_inurba_marseille","lat":43.285364,"lon":5.441014,"is_reserved":false,"is_disabled":false,"rental_uris":{"android":"levelo://app?vid=d3e4191f-8708-4957-a7db-efe93d73dc66","ios":"levelo://app?vid=d3e4191f-8708-4957-a7db-efe93d73dc66"},"vehicle_type_id":"4","last_reported":1761901924,"current_range_meters":12000,"station_id":"st_d3j3df2ikq2c7380ej80","pricing_plan_id":"cebpf4jnsgd1na2vs0mg"},{"bike_id":"f9f5725b-4420-4974-8696-29f60feee800","system_id":"levelo_inurba_marseille","lat":43.33589,"lon":5.41005,"is_reserved":false,"is_disabled":false,"rental_uris":{"android":"levelo://app?vid=f9f5725b-4420-4974-8696-29f60feee800","ios":"levelo://app?vid=f9f5725b-4420-4974-8696-29f60feee800"},"vehicle_type_id":"4","last_reported":1761901924,"current_range_meters":12000,"station_id":"ce4bhqh2rcd13ifvqhmg","pricing_plan_id":"cebpf4jnsgd1na2vs0mg"},{"bike_id":"d273ae81-b555-4290-bb5d-84c6b6b52c4b","system_id":"levelo_inurba_marseille","lat":43.27698,"lon":5.38902,"is_reserved":false,"is_disabled":false,"rental_uris":{"android":"levelo://app?vid=d273ae81-b555-4290-bb5d-84c6b6b52c4b","ios":"levelo://app?vid=d273ae81-b555-4290-bb5d-84c6b6b52c4b"},"vehicle_type_id":"4","last_reported":1761901924,"current_range_meters":12000,"station_id":"ce4bhi12rcd13ifvqfo0","pricing_plan_id":"cebpf4jnsgd1na2vs0mg"},{"bike_id":"2662fe9b-aa47-4e6a-8505-64d896678582","system_id":"levelo_inurba_marseille","lat":43.22571,"lon":5.41619,"is_reserved":false,"is_disabled":false,"rental_uris":{"android":"levelo://app?vid=2662fe9b-aa47-4e6a-8505-64d896678582","ios":"levelo://app?vid=2662fe9b-aa47-4e6a-8505-64d896678582"},"vehicle_type_id":"4","last_reported":1761901924,"current_range_meters":12000,"station_id":"st_d2o4gvlbi1j2169b742g","pricing_plan_id":"cebpf4jnsgd1na2vs0mg"},{"bike_id":"88327406-ba65-4ce0-831c-3da476dbb691","system_id":"levelo_inurba_marseille","lat":43.237833,"lon":5.366297,"is_reserved":false,"is_disabled":false,"rental_uris":{"android":"levelo://app?vid=88327406-ba65-4ce0-831c-3da476dbb691","ios":"levelo://app?vid=88327406-ba65-4ce0-831c-3da476dbb691"},"vehicle_type_id":"4","last_reported":1761901924,"current_range_meters":12400,"station_id":"st_d3nk18o9ro0c73en2l3g","pricing_plan_id":"cebpf4jnsgd1na2vs0mg"},{"bike_id":"60ef5c64-5d03-41c7-afc2-aafc3eb32b64","system_id":"levelo_inurba_marseille","lat":43.26231,"lon":5.40458,"is_reserved":false,"is_disabled":false,"rental_uris":{"android":"levelo://app?vid=60ef5c64-5d03-41c7-afc2-aafc3eb32b64","ios":"levelo://app?vid=60ef5c64-5d03-41c7-afc2-aafc3eb32b64"},"vehicle_type_id":"4","last_reported":1761901924,"current_range_meters":12400,"station_id":"ce4bhmh2rcd13ifvqgmg","pricing_plan_id":"cebpf4jnsgd1na2vs0mg"},{"bike_id":"b8f404d3-62c4-4489-a471-d37212346558","system_id":"levelo_inurba_marseille","lat":43.31082,"lon":5.37871,"is_reserved":false,"is_disabled":false,"rental_uris":{"android":"levelo://app?vid=b8f404d3-62c4-4489-a471-d37212346558","ios":"levelo://app?vid=b8f404d3-62c4-4489-a471-d37212346558"},"vehicle_type_id":"4","last_reported":1761901924,"current_range_meters":12400,"station_id":"","pricing_plan_id":"cebpf4jnsgd1na2vs0mg"},{"bike_id":"00842262-918d-4d23-b36a-c120ec082e21","system_id":"levelo_inurba_marseille","lat":43.24388,"lon":5.37064,"is_reserved":false,"is_disabled":false,"rental_uris":{"android":"levelo://app?vid=00842262-918d-4d23-b36a-c120ec082e21","ios":"levelo://app?vid=00842262-918d-4d23-b36a-c120ec082e21"},"vehicle_type_id":"4","last_reported":1761901924,"current_range_meters":12400,"station_id":"ce4bhhh2rcd13ifvqfk0","pricing_plan_id":"cebpf4jnsgd1na2vs0mg"},{"bike_id":"79506546-db75-49a0-90c1-324c23972b1f","system_id":"levelo_inurba_marseille","lat":43.31993,"lon":5.38161,"is_reserved":false,"is_disabled":false,"rental_uris":{"android":"levelo://app?vid=79506546-db75-49a0-90c1-324c23972b1f","ios":"levelo://app?vid=79506546-db75-49a0-90c1-324c23972b1f"},"vehicle_type_id":"4","last_reported":1761901924,"current_range_meters":12800,"station_id":"ce4bhr12rcd13ifvqhpg","pricing_plan_id":"cebpf4jnsgd1na2vs0mg"},{"bike_id":"a3ba9ae1-19bb-4e14-8a8f-cd2d005b5815","system_id":"levelo_inurba_marseille","lat":43.29252,"lon":5.39523,"is_reserved":false,"is_disabled":false,"rental_uris":{"android":"levelo://app?vid=a3ba9ae1-19bb-4e14-8a8f-cd2d005b5815","ios":"levelo://app?vid=a3ba9ae1-19bb-4e14-8a8f-cd2d005b5815"},"vehicle_type_id":"4","last_reported":1761901924,"current_range_meters":12800,"station_id":"","pricing_plan_id":"cebpf4jnsgd1na2vs0mg"},{"bike_id":"dd718b40-ac09-4712-a92c-cb36d641da7f","system_id":"levelo_inurba_marseille","lat":43.3053,"lon":5.36693,"is_reserved":false,"is_disabled":false,"rental_uris":{"android":"levelo://app?vid=dd718b40-ac09-4712-a92c-cb36d641da7f","ios":"levelo://app?vid=dd718b40-ac09-4712-a92c-cb36d641da7f"},"vehicle_type_id":"4","last_reported":1761901924,"current_range_meters":12800,"station_id":"ce4bgrp2rcd13ifvqc9g","pricing_plan_id":"cebpf4jnsgd1na2vs0mg"},{"bike_id":"0192a64e-4a1b-415b-8196-9a15926d8a12","system_id":"levelo_inurba_marseille","lat":43.27229,"lon":5.39157,"is_reserved":false,"is_disabled":false,"rental_uris":{"android":"levelo://app?vid=0192a64e-4a1b-415b-8196-9a15926d8a12","ios":"levelo://app?vid=0192a64e-4a1b-415b-8196-9a15926d8a12"},"vehicle_type_id":"4","last_reported":1761901924,"current_range_meters":12800,"station_id":"ce4bhhp2rcd13ifvqfm0","pricing_plan_id":"cebpf4jnsgd1na2vs0mg"},{"bike_id":"7afafebc-9388-4b96-826a-eb1746b15f9a","system_id":"levelo_inurba_marseille","lat":43.2708,"lon":5.42277,"is_reserved":false,"is_disabled":false,"rental_uris":{"android":"levelo://app?vid=7afafebc-9388-4b96-826a-eb1746b15f9a","ios":"levelo://app?vid=7afafebc-9388-4b96-826a-eb1746b15f9a"},"vehicle_type_id":"4","last_reported":1761901924,"current_range_meters":12800,"station_id":"ce4bhk92rcd13ifvqgb0","pricing_plan_id":"cebpf4jnsgd1na2vs0mg"},{"bike_id":"b30e16b3-b344-4e96-86ac-bbe75c435b6f","system_id":"levelo_inurba_marseille","lat":43.271141,"lon":5.409084,"is_reserved":false,"is_disabled":false,"rental_uris":{"android":"levelo://app?vid=b30e16b3-b344-4e96-86ac-bbe75c435b6f","ios":"levelo://app?vid=b30e16b3-b344-4e96-86ac-bbe75c435b6f"},"vehicle_type_id":"4","last_reported":1761901924,"current_range_meters":12800,"station_id":"","pricing_plan_id":"cebpf4jnsgd1na2vs0mg"},{"bike_id":"2cfa874f-dc6d-4dd8-9701-01932c0aaea7","system_id":"levelo_inurba_marseille","lat":43.30154,"lon":5.3809,"is_reserved":false,"is_disabled":false,"rental_uris":{"android":"levelo://app?vid=2cfa874f-dc6d-4dd8-9701-01932c0aaea7","ios":"levelo://app?vid=2cfa874f-dc6d-4dd8-9701-01932c0aaea7"},"vehicle_type_id":"4","last_reported":1761901924,"current_range_meters":12800,"station_id":"ce4bgjp2rcd13ifvqbh0","pricing_plan_id":"cebpf4jnsgd1na2vs0mg"},{"bike_id":"8a0ff850-cf9f-4e75-bc3f-994489f28f31","system_id":"levelo_inurba_marseille","lat":43.22563,"lon":5.41625,"is_reserved":false,"is_disabled":false,"rental_uris":{"android":"levelo://app?vid=8a0ff850-cf9f-4e75-bc3f-994489f28f31","ios":"levelo://app?vid=8a0ff850-cf9f-4e75-bc3f-994489f28f31"},"vehicle_type_id":"4","last_reported":1761901924,"current_range_meters":12800,"station_id":"st_d2o4gvlbi1j2169b742g","pricing_plan_id":"cebpf4jnsgd1na2vs0mg"},{"bike_id":"d5c43a95-bef7-40a8-8ba0-183f2a8307ea","system_id":"levelo_inurba_marseille","lat":43.2318,"lon":5.39985,"is_reserved":false,"is_disabled":false,"rental_uris":{"android":"levelo://app?vid=d5c43a95-bef7-40a8-8ba0-183f2a8307ea","ios":"levelo://app?vid=d5c43a95-bef7-40a8-8ba0-183f2a8307ea"},"vehicle_type_id":"4","last_reported":1761901924,"current_range_meters":12800,"station_id":"ce4bhn12rcd13ifvqgqg","pricing_plan_id":"cebpf4jnsgd1na2vs0mg"},{"bike_id":"2f477f8f-972b-406c-841a-14096d9c76ee","system_id":"levelo_inurba_marseille","lat":43.297513,"lon":5.427795,"is_reserved":false,"is_disabled":false,"rental_uris":{"android":"levelo://app?vid=2f477f8f-972b-406c-841a-14096d9c76ee","ios":"levelo://app?vid=2f477f8f-972b-406c-841a-14096d9c76ee"},"vehicle_type_id":"4","last_reported":1761901924,"current_range_meters":13600,"station_id":"st_d3md5207bmas73dh9klg","pricing_plan_id":"cebpf4jnsgd1na2vs0mg"},{"bike_id":"80c53fab-d9fd-4b9a-94e7-e3f3183e35da","system_id":"levelo_inurba_marseille","lat":43.33017,"lon":5.39047,"is_reserved":false,"is_disabled":false,"rental_uris":{"android":"levelo://app?vid=80c53fab-d9fd-4b9a-94e7-e3f3183e35da","ios":"levelo://app?vid=80c53fab-d9fd-4b9a-94e7-e3f3183e35da"},"vehicle_type_id":"4","last_reported":1761901924,"current_range_meters":13600,"station_id":"ce4bhr92rcd13ifvqhrg","pricing_plan_id":"cebpf4jnsgd1na2vs0mg"},{"bike_id":"676de24f-864a-44a1-8900-594e5e64f71b","system_id":"levelo_inurba_marseille","lat":43.29106,"lon":5.38123,"is_reserved":false,"is_disabled":false,"rental_uris":{"android":"levelo://app?vid=676de24f-864a-44a1-8900-594e5e64f71b","ios":"levelo://app?vid=676de24f-864a-44a1-8900-594e5e64f71b"},"vehicle_type_id":"4","last_reported":1761901924,"current_range_meters":13600,"station_id":"ce4bh512rcd13ifvqe2g","pricing_plan_id":"cebpf4jnsgd1na2vs0mg"},{"bike_id":"003faa1f-f8bd-4096-9bb8-be54345964b6","system_id":"levelo_inurba_marseille","lat":43.23784,"lon":5.36565,"is_reserved":false,"is_disabled":false,"rental_uris":{"android":"levelo://app?vid=003faa1f-f8bd-4096-9bb8-be54345964b6","ios":"levelo://app?vid=003faa1f-f8bd-4096-9bb8-be54345964b6"},"vehicle_type_id":"4","last_reported":1761901924,"current_range_meters":13600,"station_id":"st_d3nk18o9ro0c73en2l3g","pricing_plan_id":"cebpf4jnsgd1na2vs0mg"},{"bike_id":"19f7a7ef-87be-4d08-bca8-dfb2b4d7b188","system_id":"levelo_inurba_marseille","lat":43.25081,"lon":5.39524,"is_reserved":false,"is_disabled":false,"rental_uris":{"android":"levelo://app?vid=19f7a7ef-87be-4d08-bca8-dfb2b4d7b188","ios":"levelo://app?vid=19f7a7ef-87be-4d08-bca8-dfb2b4d7b188"},"vehicle_type_id":"4","last_reported":1761901924,"current_range_meters":14000,"station_id":"ce4bhm12rcd13ifvqgkg","pricing_plan_id":"cebpf4jnsgd1na2vs0mg"},{"bike_id":"70b7527d-67eb-4818-84c6-51aae343ca97","system_id":"levelo_inurba_marseille","lat":43.28483,"lon":5.48385,"is_reserved":false,"is_disabled":false,"rental_uris":{"android":"levelo://app?vid=70b7527d-67eb-4818-84c6-51aae343ca97","ios":"levelo://app?vid=70b7527d-67eb-4818-84c6-51aae343ca97"},"vehicle_type_id":"4","last_reported":1761901924,"current_range_meters":14000,"station_id":"st_d3svhcjqgbts73a3dn0g","pricing_plan_id":"cebpf4jnsgd1na2vs0mg"},{"bike_id":"1213ff01-604d-4b83-b3a2-60440c4b245e","system_id":"levelo_inurba_marseille","lat":43.237856,"lon":5.3662,"is_reserved":false,"is_disabled":false,"rental_uris":{"android":"levelo://app?vid=1213ff01-604d-4b83-b3a2-60440c4b245e","ios":"levelo://app?vid=1213ff01-604d-4b83-b3a2-60440c4b245e"},"vehicle_type_id":"4","last_reported":1761901924,"current_range_meters":14000,"station_id":"st_d3nk18o9ro0c73en2l3g","pricing_plan_id":"cebpf4jnsgd1na2vs0mg"},{"bike_id":"96ad2f8e-1ff0-415a-a84a-9186f2a5baf6","system_id":"levelo_inurba_marseille","lat":43.29606,"lon":5.37672,"is_reserved":false,"is_disabled":false,"rental_uris":{"android":"levelo://app?vid=96ad2f8e-1ff0-415a-a84a-9186f2a5baf6","ios":"levelo://app?vid=96ad2f8e-1ff0-415a-a84a-9186f2a5baf6"},"vehicle_type_id":"4","last_reported":1761901924,"current_range_meters":14000,"station_id":"ce4bgi12rcd13ifvqb80","pricing_plan_id":"cebpf4jnsgd1na2vs0mg"},{"bike_id":"46835159-5dd5-4fc9-a732-591f6a5307e4","system_id":"levelo_inurba_marseille","lat":43.31351,"lon":5.37912,"is_reserved":false,"is_disabled":false,"rental_uris":{"android":"levelo://app?vid=46835159-5dd5-4fc9-a732-591f6a5307e4","ios":"levelo://app?vid=46835159-5dd5-4fc9-a732-591f6a5307e4"},"vehicle_type_id":"4","last_reported":1761901924,"current_range_meters":14000,"station_id":"","pricing_plan_id":"cebpf4jnsgd1na2vs0mg"},{"bike_id":"2a99e6de-82a9-4bbf-99c8-57c42edf91b0","system_id":"levelo_inurba_marseille","lat":43.30154,"lon":5.38101,"is_reserved":false,"is_disabled":false,"rental_uris":{"android":"levelo://app?vid=2a99e6de-82a9-4bbf-99c8-57c42edf91b0","ios":"levelo://app?vid=2a99e6de-82a9-4bbf-99c8-57c42edf91b0"},"vehicle_type_id":"4","last_reported":1761901924,"current_range_meters":14000,"station_id":"ce4bgjp2rcd13ifvqbh0","pricing_plan_id":"cebpf4jnsgd1na2vs0mg"},{"bike_id":"a4dac4fa-66e6-48be-a654-6e17cdc7ca0b","system_id":"levelo_inurba_marseille","lat":43.337571,"lon":5.374323,"is_reserved":false,"is_disabled":false,"rental_uris":{"android":"levelo://app?vid=a4dac4fa-66e6-48be-a654-6e17cdc7ca0b","ios":"levelo://app?vid=a4dac4fa-66e6-48be-a654-6e17cdc7ca0b"},"vehicle_type_id":"4","last_reported":1761901924,"current_range_meters":14400,"station_id":"","pricing_plan_id":"cebpf4jnsgd1na2vs0mg"},{"bike_id":"7e4087f9-5f3a-45e2-aa48-d6d3f5a44700","system_id":"levelo_inurba_marseille","lat":43.25144,"lon":5.40307,"is_reserved":false,"is_disabled":false,"rental_uris":{"android":"levelo://app?vid=7e4087f9-5f3a-45e2-aa48-d6d3f5a44700","ios":"levelo://app?vid=7e4087f9-5f3a-45e2-aa48-d6d3f5a44700"},"vehicle_type_id":"4","last_reported":1761901924,"current_range_meters":14400,"station_id":"ce4bhlh2rcd13ifvqgig","pricing_plan_id":"cebpf4jnsgd1na2vs0mg"},{"bike_id":"ee261a32-9de1-4b9e-a923-6c91e1e26176","system_id":"levelo_inurba_marseille","lat":43.28455,"lon":5.48378,"is_reserved":false,"is_disabled":false,"rental_uris":{"android":"levelo://app?vid=ee261a32-9de1-4b9e-a923-6c91e1e26176","ios":"levelo://app?vid=ee261a32-9de1-4b9e-a923-6c91e1e26176"},"vehicle_type_id":"4","last_reported":1761901924,"current_range_meters":14400,"station_id":"st_d3svhcjqgbts73a3dn0g","pricing_plan_id":"cebpf4jnsgd1na2vs0mg"},{"bike_id":"1282d74a-548d-440e-84c8-e15be2e1b590","system_id":"levelo_inurba_marseille","lat":43.26202,"lon":5.37919,"is_reserved":false,"is_disabled":false,"rental_uris":{"android":"levelo://app?vid=1282d74a-548d-440e-84c8-e15be2e1b590","ios":"levelo://app?vid=1282d74a-548d-440e-84c8-e15be2e1b590"},"vehicle_type_id":"4","last_reported":1761901924,"current_range_meters":14800,"station_id":"ce4bhjp2rcd13ifvqg90","pricing_plan_id":"cebpf4jnsgd1na2vs0mg"},{"bike_id":"a8eda801-490f-46f5-80d3-9124ef384e08","system_id":"levelo_inurba_marseille","lat":43.2558,"lon":5.38239,"is_reserved":false,"is_disabled":false,"rental_uris":{"android":"levelo://app?vid=a8eda801-490f-46f5-80d3-9124ef384e08","ios":"levelo://app?vid=a8eda801-490f-46f5-80d3-9124ef384e08"},"vehicle_type_id":"4","last_reported":1761901924,"current_range_meters":14800,"station_id":"ce4bhih2rcd13ifvqfs0","pricing_plan_id":"cebpf4jnsgd1na2vs0mg"},{"bike_id":"6000a690-d94a-4c7f-8fe7-44bb05707884","system_id":"levelo_inurba_marseille","lat":43.312058,"lon":5.368171,"is_reserved":false,"is_disabled":false,"rental_uris":{"android":"levelo://app?vid=6000a690-d94a-4c7f-8fe7-44bb05707884","ios":"levelo://app?vid=6000a690-d94a-4c7f-8fe7-44bb05707884"},"vehicle_type_id":"4","last_reported":1761901924,"current_range_meters":14800,"station_id":"ce4bgl92rcd13ifvqbq0","pricing_plan_id":"cebpf4jnsgd1na2vs0mg"},{"bike_id":"778e9400-d69b-482c-b22f-9fb0bda41815","system_id":"levelo_inurba_marseille","lat":43.28534,"lon":5.44095,"is_reserved":false,"is_disabled":false,"rental_uris":{"android":"levelo://app?vid=778e9400-d69b-482c-b22f-9fb0bda41815","ios":"levelo://app?vid=778e9400-d69b-482c-b22f-9fb0bda41815"},"vehicle_type_id":"4","last_reported":1761901924,"current_range_meters":14800,"station_id":"st_d3j3df2ikq2c7380ej80","pricing_plan_id":"cebpf4jnsgd1na2vs0mg"},{"bike_id":"4c9d41f1-0330-4f9a-aa3b-5e41b3d2a74c","system_id":"levelo_inurba_marseille","lat":43.265658,"lon":5.372967,"is_reserved":false,"is_disabled":false,"rental_uris":{"android":"levelo://app?vid=4c9d41f1-0330-4f9a-aa3b-5e41b3d2a74c","ios":"levelo://app?vid=4c9d41f1-0330-4f9a-aa3b-5e41b3d2a74c"},"vehicle_type_id":"4","last_reported":1761901924,"current_range_meters":14800,"station_id":"ce4bhg12rcd13ifvqf70","pricing_plan_id":"cebpf4jnsgd1na2vs0mg"},{"bike_id":"57eee411-e5e3-47c5-8454-02b34dfc88c4","system_id":"levelo_inurba_marseille","lat":43.31362,"lon":5.38484,"is_reserved":false,"is_disabled":false,"rental_uris":{"android":"levelo://app?vid=57eee411-e5e3-47c5-8454-02b34dfc88c4","ios":"levelo://app?vid=57eee411-e5e3-47c5-8454-02b34dfc88c4"},"vehicle_type_id":"4","last_reported":1761901924,"current_range_meters":14800,"station_id":"ce4bgt92rcd13ifvqcf0","pricing_plan_id":"cebpf4jnsgd1na2vs0mg"},{"bike_id":"52493eca-0768-4afb-877c-fe9b6ad302cf","system_id":"levelo_inurba_marseille","lat":43.31364,"lon":5.36728,"is_reserved":false,"is_disabled":false,"rental_uris":{"android":"levelo://app?vid=52493eca-0768-4afb-877c-fe9b6ad302cf","ios":"levelo://app?vid=52493eca-0768-4afb-877c-fe9b6ad302cf"},"vehicle_type_id":"4","last_reported":1761901924,"current_range_meters":14800,"station_id":"ce4bgr92rcd13ifvqc6g","pricing_plan_id":"cebpf4jnsgd1na2vs0mg"},{"bike_id":"f3e47b77-f45b-4fdd-bf68-963b57bc9457","system_id":"levelo_inurba_marseille","lat":43.29711,"lon":5.36612,"is_reserved":false,"is_disabled":false,"rental_uris":{"android":"levelo://app?vid=f3e47b77-f45b-4fdd-bf68-963b57bc9457","ios":"levelo://app?vid=f3e47b77-f45b-4fdd-bf68-963b57bc9457"},"vehicle_type_id":"4","last_reported":1761901924,"current_range_meters":15200,"station_id":"ce4bgn12rcd13ifvqbt0","pricing_plan_id":"cebpf4jnsgd1na2vs0mg"},{"bike_id":"d0f133ac-99db-46a2-85c5-726985b2ca4d","system_id":"levelo_inurba_marseille","lat":43.25516,"lon":5.3765,"is_reserved":false,"is_disabled":true,"rental_uris":{"android":"levelo://app?vid=d0f133ac-99db-46a2-85c5-726985b2ca4d","ios":"levelo://app?vid=d0f133ac-99db-46a2-85c5-726985b2ca4d"},"vehicle_type_id":"4","last_reported":1761901924,"current_range_meters":15200,"station_id":"ce4bhh12rcd13ifvqff0","pricing_plan_id":"cebpf4jnsgd1na2vs0mg"},{"bike_id":"59154b1f-d5ee-4c7a-b3b3-37cee0721f3a","system_id":"levelo_inurba_marseille","lat":43.25867,"lon":5.39898,"is_reserved":false,"is_disabled":false,"rental_uris":{"android":"levelo://app?vid=59154b1f-d5ee-4c7a-b3b3-37cee0721f3a","ios":"levelo://app?vid=59154b1f-d5ee-4c7a-b3b3-37cee0721f3a"},"vehicle_type_id":"4","last_reported":1761901924,"current_range_meters":15200,"station_id":"ce4bhl92rcd13ifvqghg","pricing_plan_id":"cebpf4jnsgd1na2vs0mg"},{"bike_id":"aad6a064-c048-4ba9-a156-1745b89548aa","system_id":"levelo_inurba_marseille","lat":43.28307,"lon":5.41107,"is_reserved":false,"is_disabled":false,"rental_uris":{"android":"levelo://app?vid=aad6a064-c048-4ba9-a156-1745b89548aa","ios":"levelo://app?vid=aad6a064-c048-4ba9-a156-1745b89548aa"},"vehicle_type_id":"4","last_reported":1761901924,"current_range_meters":15200,"station_id":"","pricing_plan_id":"cebpf4jnsgd1na2vs0mg"},{"bike_id":"d367e803-0cc0-433f-bfa1-60ffe7c595bd","system_id":"levelo_inurba_marseille","lat":43.30768,"lon":5.42436,"is_reserved":false,"is_disabled":false,"rental_uris":{"android":"levelo://app?vid=d367e803-0cc0-433f-bfa1-60ffe7c595bd","ios":"levelo://app?vid=d367e803-0cc0-433f-bfa1-60ffe7c595bd"},"vehicle_type_id":"4","last_reported":1761901924,"current_range_meters":15200,"station_id":"st_cvj6ca6bvosntc0bfgr0","pricing_plan_id":"cebpf4jnsgd1na2vs0mg"},{"bike_id":"2d7d9410-98b3-400c-a54b-af8752734e79","system_id":"levelo_inurba_marseille","lat":43.30306,"lon":5.36892,"is_reserved":false,"is_disabled":false,"rental_uris":{"android":"levelo://app?vid=2d7d9410-98b3-400c-a54b-af8752734e79","ios":"levelo://app?vid=2d7d9410-98b3-400c-a54b-af8752734e79"},"vehicle_type_id":"4","last_reported":1761901924,"current_range_meters":16000,"station_id":"ce4bgqh2rcd13ifvqc5g","pricing_plan_id":"cebpf4jnsgd1na2vs0mg"},{"bike_id":"467ad5f0-709e-4541-bd1b-d85c8a863052","system_id":"levelo_inurba_marseille","lat":43.30139,"lon":5.3742,"is_reserved":false,"is_disabled":false,"rental_uris":{"android":"levelo://app?vid=467ad5f0-709e-4541-bd1b-d85c8a863052","ios":"levelo://app?vid=467ad5f0-709e-4541-bd1b-d85c8a863052"},"vehicle_type_id":"4","last_reported":1761901924,"current_range_meters":16000,"station_id":"ce4bgs92rcd13ifvqcc0","pricing_plan_id":"cebpf4jnsgd1na2vs0mg"},{"bike_id":"88d246be-34df-47d7-8a1c-1fe4dbcd9da7","system_id":"levelo_inurba_marseille","lat":43.26691,"lon":5.38265,"is_reserved":false,"is_disabled":false,"rental_uris":{"android":"levelo://app?vid=88d246be-34df-47d7-8a1c-1fe4dbcd9da7","ios":"levelo://app?vid=88d246be-34df-47d7-8a1c-1fe4dbcd9da7"},"vehicle_type_id":"4","last_reported":1761901924,"current_range_meters":16000,"station_id":"ce4bhg92rcd13ifvqf90","pricing_plan_id":"cebpf4jnsgd1na2vs0mg"},{"bike_id":"7a1a92a0-3c2f-49e8-a294-c1cefad20342","system_id":"levelo_inurba_marseille","lat":43.292228,"lon":5.360604,"is_reserved":false,"is_disabled":false,"rental_uris":{"android":"levelo://app?vid=7a1a92a0-3c2f-49e8-a294-c1cefad20342","ios":"levelo://app?vid=7a1a92a0-3c2f-49e8-a294-c1cefad20342"},"vehicle_type_id":"4","last_reported":1761901924,"current_range_meters":16000,"station_id":"ce4bhbh2rcd13ifvqeqg","pricing_plan_id":"cebpf4jnsgd1na2vs0mg"},{"bike_id":"9cb08936-82d3-468d-bc9f-2ddd857856aa","system_id":"levelo_inurba_marseille","lat":43.31236,"lon":5.36861,"is_reserved":false,"is_disabled":false,"rental_uris":{"android":"levelo://app?vid=9cb08936-82d3-468d-bc9f-2ddd857856aa","ios":"levelo://app?vid=9cb08936-82d3-468d-bc9f-2ddd857856aa"},"vehicle_type_id":"4","last_reported":1761901924,"current_range_meters":16000,"station_id":"ce4bgl92rcd13ifvqbq0","pricing_plan_id":"cebpf4jnsgd1na2vs0mg"},{"bike_id":"ec8e4f97-d500-4b79-b9f1-140344d7f670","system_id":"levelo_inurba_marseille","lat":43.2316,"lon":5.43715,"is_reserved":false,"is_disabled":false,"rental_uris":{"android":"levelo://app?vid=ec8e4f97-d500-4b79-b9f1-140344d7f670","ios":"levelo://app?vid=ec8e4f97-d500-4b79-b9f1-140344d7f670"},"vehicle_type_id":"4","last_reported":1761901924,"current_range_meters":16000,"station_id":"ce4bhmp2rcd13ifvqgog","pricing_plan_id":"cebpf4jnsgd1na2vs0mg"},{"bike_id":"7f71708b-0ea1-4389-ad9e-9eb55c6a6cb9","system_id":"levelo_inurba_marseille","lat":43.288587,"lon":5.425236,"is_reserved":false,"is_disabled":false,"rental_uris":{"android":"levelo://app?vid=7f71708b-0ea1-4389-ad9e-9eb55c6a6cb9","ios":"levelo://app?vid=7f71708b-0ea1-4389-ad9e-9eb55c6a6cb9"},"vehicle_type_id":"4","last_reported":1761901924,"current_range_meters":16000,"station_id":"st_d3b462108ojc7389ooeg","pricing_plan_id":"cebpf4jnsgd1na2vs0mg"},{"bike_id":"0dc930ae-88e6-493c-ab95-8df0b3ac1f8b","system_id":"levelo_inurba_marseille","lat":43.299016,"lon":5.436487,"is_reserved":false,"is_disabled":false,"rental_uris":{"android":"levelo://app?vid=0dc930ae-88e6-493c-ab95-8df0b3ac1f8b","ios":"levelo://app?vid=0dc930ae-88e6-493c-ab95-8df0b3ac1f8b"},"vehicle_type_id":"4","last_reported":1761901924,"current_range_meters":16400,"station_id":"ce4bhpp2rcd13ifvqhfg","pricing_plan_id":"cebpf4jnsgd1na2vs0mg"},{"bike_id":"8165f6ad-0457-4c12-8182-2c24600da263","system_id":"levelo_inurba_marseille","lat":43.26698,"lon":5.38264,"is_reserved":false,"is_disabled":false,"rental_uris":{"android":"levelo://app?vid=8165f6ad-0457-4c12-8182-2c24600da263","ios":"levelo://app?vid=8165f6ad-0457-4c12-8182-2c24600da263"},"vehicle_type_id":"4","last_reported":1761901924,"current_range_meters":16400,"station_id":"ce4bhg92rcd13ifvqf90","pricing_plan_id":"cebpf4jnsgd1na2vs0mg"},{"bike_id":"6cd59db7-cb12-4301-8385-22b87d7a5cfd","system_id":"levelo_inurba_marseille","lat":43.285384,"lon":5.440646,"is_reserved":false,"is_disabled":false,"rental_uris":{"android":"levelo://app?vid=6cd59db7-cb12-4301-8385-22b87d7a5cfd","ios":"levelo://app?vid=6cd59db7-cb12-4301-8385-22b87d7a5cfd"},"vehicle_type_id":"4","last_reported":1761901924,"current_range_meters":16400,"station_id":"st_d3j3df2ikq2c7380ej80","pricing_plan_id":"cebpf4jnsgd1na2vs0mg"},{"bike_id":"718f373e-eae7-4038-aa89-08808e83aa4a","system_id":"levelo_inurba_marseille","lat":43.30553,"lon":5.392,"is_reserved":false,"is_disabled":false,"rental_uris":{"android":"levelo://app?vid=718f373e-eae7-4038-aa89-08808e83aa4a","ios":"levelo://app?vid=718f373e-eae7-4038-aa89-08808e83aa4a"},"vehicle_type_id":"4","last_reported":1761901924,"current_range_meters":16400,"station_id":"","pricing_plan_id":"cebpf4jnsgd1na2vs0mg"},{"bike_id":"3b8d8128-20c3-4189-8013-ffc8bbfec252","system_id":"levelo_inurba_marseille","lat":43.28635,"lon":5.35077,"is_reserved":false,"is_disabled":false,"rental_uris":{"android":"levelo://app?vid=3b8d8128-20c3-4189-8013-ffc8bbfec252","ios":"levelo://app?vid=3b8d8128-20c3-4189-8013-ffc8bbfec252"},"vehicle_type_id":"4","last_reported":1761901924,"current_range_meters":16400,"station_id":"ce4bhch2rcd13ifvqeug","pricing_plan_id":"cebpf4jnsgd1na2vs0mg"},{"bike_id":"a74ca4e6-9019-4ce4-a364-7a22bd8e206a","system_id":"levelo_inurba_marseille","lat":43.264972,"lon":5.385233,"is_reserved":false,"is_disabled":false,"rental_uris":{"android":"levelo://app?vid=a74ca4e6-9019-4ce4-a364-7a22bd8e206a","ios":"levelo://app?vid=a74ca4e6-9019-4ce4-a364-7a22bd8e206a"},"vehicle_type_id":"4","last_reported":1761901924,"current_range_meters":16400,"station_id":"","pricing_plan_id":"cebpf4jnsgd1na2vs0mg"},{"bike_id":"90cc4e35-1e9a-4d48-878d-a3997094c0ce","system_id":"levelo_inurba_marseille","lat":43.246374,"lon":5.431481,"is_reserved":false,"is_disabled":false,"rental_uris":{"android":"levelo://app?vid=90cc4e35-1e9a-4d48-878d-a3997094c0ce","ios":"levelo://app?vid=90cc4e35-1e9a-4d48-878d-a3997094c0ce"},"vehicle_type_id":"4","last_reported":1761901924,"current_range_meters":16400,"station_id":"st_d2m6c4gdas8pm72e190g","pricing_plan_id":"cebpf4jnsgd1na2vs0mg"},{"bike_id":"319b8584-93f2-449c-b056-ea3f20ebc971","system_id":"levelo_inurba_marseille","lat":43.28524,"lon":5.43029,"is_reserved":false,"is_disabled":false,"rental_uris":{"android":"levelo://app?vid=319b8584-93f2-449c-b056-ea3f20ebc971","ios":"levelo://app?vid=319b8584-93f2-449c-b056-ea3f20ebc971"},"vehicle_type_id":"4","last_reported":1761901924,"current_range_meters":16400,"station_id":"","pricing_plan_id":"cebpf4jnsgd1na2vs0mg"},{"bike_id":"e4a89cb7-047a-41e6-b89b-0173a786622a","system_id":"levelo_inurba_marseille","lat":43.30927,"lon":5.36845,"is_reserved":false,"is_disabled":false,"rental_uris":{"android":"levelo://app?vid=e4a89cb7-047a-41e6-b89b-0173a786622a","ios":"levelo://app?vid=e4a89cb7-047a-41e6-b89b-0173a786622a"},"vehicle_type_id":"4","last_reported":1761901924,"current_range_meters":16800,"station_id":"ce4bgn92rcd13ifvqbvg","pricing_plan_id":"cebpf4jnsgd1na2vs0mg"},{"bike_id":"12c24c1a-5f34-4e4f-b6c0-f07cd6755b8d","system_id":"levelo_inurba_marseille","lat":43.24947,"lon":5.40497,"is_reserved":false,"is_disabled":false,"rental_uris":{"android":"levelo://app?vid=12c24c1a-5f34-4e4f-b6c0-f07cd6755b8d","ios":"levelo://app?vid=12c24c1a-5f34-4e4f-b6c0-f07cd6755b8d"},"vehicle_type_id":"4","last_reported":1761901924,"current_range_meters":16800,"station_id":"st_d2ngiaodas8pm72gd1h0","pricing_plan_id":"cebpf4jnsgd1na2vs0mg"},{"bike_id":"fb65ab9d-239c-4d15-a7d7-b9e5f4efcf42","system_id":"levelo_inurba_marseille","lat":43.312748,"lon":5.401699,"is_reserved":false,"is_disabled":false,"rental_uris":{"android":"levelo://app?vid=fb65ab9d-239c-4d15-a7d7-b9e5f4efcf42","ios":"levelo://app?vid=fb65ab9d-239c-4d15-a7d7-b9e5f4efcf42"},"vehicle_type_id":"4","last_reported":1761901924,"current_range_meters":16800,"station_id":"ce4bh092rcd13ifvqd30","pricing_plan_id":"cebpf4jnsgd1na2vs0mg"},{"bike_id":"eaef80a6-8562-4379-8226-7d7a9ee5a612","system_id":"levelo_inurba_marseille","lat":43.30911,"lon":5.36849,"is_reserved":false,"is_disabled":false,"rental_uris":{"android":"levelo://app?vid=eaef80a6-8562-4379-8226-7d7a9ee5a612","ios":"levelo://app?vid=eaef80a6-8562-4379-8226-7d7a9ee5a612"},"vehicle_type_id":"4","last_reported":1761901924,"current_range_meters":16800,"station_id":"ce4bgn92rcd13ifvqbvg","pricing_plan_id":"cebpf4jnsgd1na2vs0mg"},{"bike_id":"c015c7a2-82a9-4665-ab56-4c69e7c6c92c","system_id":"levelo_inurba_marseille","lat":43.279102,"lon":5.395868,"is_reserved":false,"is_disabled":false,"rental_uris":{"android":"levelo://app?vid=c015c7a2-82a9-4665-ab56-4c69e7c6c92c","ios":"levelo://app?vid=c015c7a2-82a9-4665-ab56-4c69e7c6c92c"},"vehicle_type_id":"4","last_reported":1761901924,"current_range_meters":16800,"station_id":"ce4bhf92rcd13ifvqf40","pricing_plan_id":"cebpf4jnsgd1na2vs0mg"},{"bike_id":"a8fb7f3b-b49c-406d-99e1-cfbe96598c71","system_id":"levelo_inurba_marseille","lat":43.26789,"lon":5.3941,"is_reserved":false,"is_disabled":false,"rental_uris":{"android":"levelo://app?vid=a8fb7f3b-b49c-406d-99e1-cfbe96598c71","ios":"levelo://app?vid=a8fb7f3b-b49c-406d-99e1-cfbe96598c71"},"vehicle_type_id":"4","last_reported":1761901924,"current_range_meters":16800,"station_id":"ce4bhh12rcd13ifvqfg0","pricing_plan_id":"cebpf4jnsgd1na2vs0mg"},{"bike_id":"a9cdbb07-222c-4ae2-b8a0-add1896b5ebf","system_id":"levelo_inurba_marseille","lat":43.26077,"lon":5.39387,"is_reserved":false,"is_disabled":false,"rental_uris":{"android":"levelo://app?vid=a9cdbb07-222c-4ae2-b8a0-add1896b5ebf","ios":"levelo://app?vid=a9cdbb07-222c-4ae2-b8a0-add1896b5ebf"},"vehicle_type_id":"4","last_reported":1761901924,"current_range_meters":17200,"station_id":"ce4bhh92rcd13ifvqfj0","pricing_plan_id":"cebpf4jnsgd1na2vs0mg"},{"bike_id":"b1e81361-2b17-4ef1-8a58-6def5753471b","system_id":"levelo_inurba_marseille","lat":43.33753,"lon":5.37484,"is_reserved":false,"is_disabled":false,"rental_uris":{"android":"levelo://app?vid=b1e81361-2b17-4ef1-8a58-6def5753471b","ios":"levelo://app?vid=b1e81361-2b17-4ef1-8a58-6def5753471b"},"vehicle_type_id":"4","last_reported":1761901924,"current_range_meters":17200,"station_id":"","pricing_plan_id":"cebpf4jnsgd1na2vs0mg"},{"bike_id":"e7ead618-cc2b-4c53-bc61-330caff21889","system_id":"levelo_inurba_marseille","lat":43.25338,"lon":5.42167,"is_reserved":false,"is_disabled":false,"rental_uris":{"android":"levelo://app?vid=e7ead618-cc2b-4c53-bc61-330caff21889","ios":"levelo://app?vid=e7ead618-cc2b-4c53-bc61-330caff21889"},"vehicle_type_id":"4","last_reported":1761901924,"current_range_meters":17200,"station_id":"st_d2m65c5bi1j21697t3ng","pricing_plan_id":"cebpf4jnsgd1na2vs0mg"},{"bike_id":"52b117f2-4c01-4f66-887d-006722496528","system_id":"levelo_inurba_marseille","lat":43.30873,"lon":5.3715,"is_reserved":false,"is_disabled":false,"rental_uris":{"android":"levelo://app?vid=52b117f2-4c01-4f66-887d-006722496528","ios":"levelo://app?vid=52b117f2-4c01-4f66-887d-006722496528"},"vehicle_type_id":"4","last_reported":1761901924,"current_range_meters":17200,"station_id":"ce4bguh2rcd13ifvqckg","pricing_plan_id":"cebpf4jnsgd1na2vs0mg"},{"bike_id":"efab51bb-2873-49b5-8a21-1850eb33cbaf","system_id":"levelo_inurba_marseille","lat":43.24076,"lon":5.37749,"is_reserved":false,"is_disabled":false,"rental_uris":{"android":"levelo://app?vid=efab51bb-2873-49b5-8a21-1850eb33cbaf","ios":"levelo://app?vid=efab51bb-2873-49b5-8a21-1850eb33cbaf"},"vehicle_type_id":"4","last_reported":1761901924,"current_range_meters":17200,"station_id":"ce4bhnp2rcd13ifvqgvg","pricing_plan_id":"cebpf4jnsgd1na2vs0mg"},{"bike_id":"299437b7-9388-4b32-abad-6d65c0d126b9","system_id":"levelo_inurba_marseille","lat":43.3125,"lon":5.36865,"is_reserved":false,"is_disabled":false,"rental_uris":{"android":"levelo://app?vid=299437b7-9388-4b32-abad-6d65c0d126b9","ios":"levelo://app?vid=299437b7-9388-4b32-abad-6d65c0d126b9"},"vehicle_type_id":"4","last_reported":1761901924,"current_range_meters":17200,"station_id":"ce4bgl92rcd13ifvqbq0","pricing_plan_id":"cebpf4jnsgd1na2vs0mg"},{"bike_id":"98bf14ae-2ea3-45e7-bc07-5b3131510cca","system_id":"levelo_inurba_marseille","lat":43.25569,"lon":5.3825,"is_reserved":false,"is_disabled":false,"rental_uris":{"android":"levelo://app?vid=98bf14ae-2ea3-45e7-bc07-5b3131510cca","ios":"levelo://app?vid=98bf14ae-2ea3-45e7-bc07-5b3131510cca"},"vehicle_type_id":"4","last_reported":1761901924,"current_range_meters":17200,"station_id":"ce4bhih2rcd13ifvqfs0","pricing_plan_id":"cebpf4jnsgd1na2vs0mg"},{"bike_id":"74c92432-071a-4cbc-9f12-0b0b3a01b2a6","system_id":"levelo_inurba_marseille","lat":43.2822,"lon":5.39065,"is_reserved":false,"is_disabled":false,"rental_uris":{"android":"levelo://app?vid=74c92432-071a-4cbc-9f12-0b0b3a01b2a6","ios":"levelo://app?vid=74c92432-071a-4cbc-9f12-0b0b3a01b2a6"},"vehicle_type_id":"4","last_reported":1761901924,"current_range_meters":17200,"station_id":"ce4bhn92rcd13ifvqgsg","pricing_plan_id":"cebpf4jnsgd1na2vs0mg"},{"bike_id":"933ed787-74a5-45ae-8d47-34a1b88d6813","system_id":"levelo_inurba_marseille","lat":43.23145,"lon":5.43702,"is_reserved":false,"is_disabled":false,"rental_uris":{"android":"levelo://app?vid=933ed787-74a5-45ae-8d47-34a1b88d6813","ios":"levelo://app?vid=933ed787-74a5-45ae-8d47-34a1b88d6813"},"vehicle_type_id":"4","last_reported":1761901924,"current_range_meters":17200,"station_id":"ce4bhmp2rcd13ifvqgog","pricing_plan_id":"cebpf4jnsgd1na2vs0mg"},{"bike_id":"b9d2a6bf-bf3c-4f93-9477-0a76cf804f60","system_id":"levelo_inurba_marseille","lat":43.27916,"lon":5.39592,"is_reserved":false,"is_disabled":false,"rental_uris":{"android":"levelo://app?vid=b9d2a6bf-bf3c-4f93-9477-0a76cf804f60","ios":"levelo://app?vid=b9d2a6bf-bf3c-4f93-9477-0a76cf804f60"},"vehicle_type_id":"4","last_reported":1761901924,"current_range_meters":17600,"station_id":"ce4bhf92rcd13ifvqf40","pricing_plan_id":"cebpf4jnsgd1na2vs0mg"},{"bike_id":"b1529460-35c1-49c7-a059-1efcb986b42d","system_id":"levelo_inurba_marseille","lat":43.287661,"lon":5.384341,"is_reserved":false,"is_disabled":false,"rental_uris":{"android":"levelo://app?vid=b1529460-35c1-49c7-a059-1efcb986b42d","ios":"levelo://app?vid=b1529460-35c1-49c7-a059-1efcb986b42d"},"vehicle_type_id":"4","last_reported":1761901924,"current_range_meters":17600,"station_id":"","pricing_plan_id":"cebpf4jnsgd1na2vs0mg"},{"bike_id":"3fdd4075-2d2f-41f7-b068-ea13f83763a0","system_id":"levelo_inurba_marseille","lat":43.329721,"lon":5.390048,"is_reserved":false,"is_disabled":false,"rental_uris":{"android":"levelo://app?vid=3fdd4075-2d2f-41f7-b068-ea13f83763a0","ios":"levelo://app?vid=3fdd4075-2d2f-41f7-b068-ea13f83763a0"},"vehicle_type_id":"4","last_reported":1761901924,"current_range_meters":17600,"station_id":"","pricing_plan_id":"cebpf4jnsgd1na2vs0mg"},{"bike_id":"a9bd6156-5973-4728-a560-5afb8e593a6c","system_id":"levelo_inurba_marseille","lat":43.30465,"lon":5.37905,"is_reserved":false,"is_disabled":false,"rental_uris":{"android":"levelo://app?vid=a9bd6156-5973-4728-a560-5afb8e593a6c","ios":"levelo://app?vid=a9bd6156-5973-4728-a560-5afb8e593a6c"},"vehicle_type_id":"4","last_reported":1761901924,"current_range_meters":17600,"station_id":"ce4bgup2rcd13ifvqcn0","pricing_plan_id":"cebpf4jnsgd1na2vs0mg"},{"bike_id":"c0bdef5a-8c37-4648-a8ed-922bbc9852ac","system_id":"levelo_inurba_marseille","lat":43.27564,"lon":5.38427,"is_reserved":false,"is_disabled":false,"rental_uris":{"android":"levelo://app?vid=c0bdef5a-8c37-4648-a8ed-922bbc9852ac","ios":"levelo://app?vid=c0bdef5a-8c37-4648-a8ed-922bbc9852ac"},"vehicle_type_id":"4","last_reported":1761901924,"current_range_meters":17600,"station_id":"ce4bhh92rcd13ifvqfi0","pricing_plan_id":"cebpf4jnsgd1na2vs0mg"},{"bike_id":"86f79429-0301-49ed-a161-08d0403b7392","system_id":"levelo_inurba_marseille","lat":43.288043,"lon":5.352421,"is_reserved":false,"is_disabled":true,"rental_uris":{"android":"levelo://app?vid=86f79429-0301-49ed-a161-08d0403b7392","ios":"levelo://app?vid=86f79429-0301-49ed-a161-08d0403b7392"},"vehicle_type_id":"4","last_reported":1761901924,"current_range_meters":18000,"station_id":"","pricing_plan_id":"cebpf4jnsgd1na2vs0mg"},{"bike_id":"81ddfa84-8a38-4992-b757-66a5e1097b2f","system_id":"levelo_inurba_marseille","lat":43.29907,"lon":5.43675,"is_reserved":false,"is_disabled":false,"rental_uris":{"android":"levelo://app?vid=81ddfa84-8a38-4992-b757-66a5e1097b2f","ios":"levelo://app?vid=81ddfa84-8a38-4992-b757-66a5e1097b2f"},"vehicle_type_id":"4","last_reported":1761901924,"current_range_meters":18000,"station_id":"ce4bhpp2rcd13ifvqhfg","pricing_plan_id":"cebpf4jnsgd1na2vs0mg"},{"bike_id":"80038c51-74d6-4d07-8c5d-aaa370d3ddb2","system_id":"levelo_inurba_marseille","lat":43.29161,"lon":5.37153,"is_reserved":false,"is_disabled":false,"rental_uris":{"android":"levelo://app?vid=80038c51-74d6-4d07-8c5d-aaa370d3ddb2","ios":"levelo://app?vid=80038c51-74d6-4d07-8c5d-aaa370d3ddb2"},"vehicle_type_id":"4","last_reported":1761901924,"current_range_meters":18000,"station_id":"ce4bha92rcd13ifvqeh0","pricing_plan_id":"cebpf4jnsgd1na2vs0mg"},{"bike_id":"3965660d-d019-448d-9ea6-ad76591ec156","system_id":"levelo_inurba_marseille","lat":43.32107,"lon":5.3677,"is_reserved":false,"is_disabled":false,"rental_uris":{"android":"levelo://app?vid=3965660d-d019-448d-9ea6-ad76591ec156","ios":"levelo://app?vid=3965660d-d019-448d-9ea6-ad76591ec156"},"vehicle_type_id":"4","last_reported":1761901924,"current_range_meters":18000,"station_id":"ce4bhrh2rcd13ifvqhug","pricing_plan_id":"cebpf4jnsgd1na2vs0mg"},{"bike_id":"1ac18af7-993a-4b6e-99e4-fe6e1592df0e","system_id":"levelo_inurba_marseille","lat":43.292969,"lon":5.385117,"is_reserved":false,"is_disabled":false,"rental_uris":{"android":"levelo://app?vid=1ac18af7-993a-4b6e-99e4-fe6e1592df0e","ios":"levelo://app?vid=1ac18af7-993a-4b6e-99e4-fe6e1592df0e"},"vehicle_type_id":"4","last_reported":1761901924,"current_range_meters":18000,"station_id":"ce4bh692rcd13ifvqea0","pricing_plan_id":"cebpf4jnsgd1na2vs0mg"},{"bike_id":"f1bfa7ee-e707-4bf3-b3ac-efd4e54c16f5","system_id":"levelo_inurba_marseille","lat":43.249507,"lon":5.404911,"is_reserved":false,"is_disabled":false,"rental_uris":{"android":"levelo://app?vid=f1bfa7ee-e707-4bf3-b3ac-efd4e54c16f5","ios":"levelo://app?vid=f1bfa7ee-e707-4bf3-b3ac-efd4e54c16f5"},"vehicle_type_id":"4","last_reported":1761901924,"current_range_meters":18000,"station_id":"st_d2ngiaodas8pm72gd1h0","pricing_plan_id":"cebpf4jnsgd1na2vs0mg"},{"bike_id":"02d869e4-5856-4b89-b4f7-83a21afde51d","system_id":"levelo_inurba_marseille","lat":43.21198,"lon":5.35067,"is_reserved":false,"is_disabled":false,"rental_uris":{"android":"levelo://app?vid=02d869e4-5856-4b89-b4f7-83a21afde51d","ios":"levelo://app?vid=02d869e4-5856-4b89-b4f7-83a21afde51d"},"vehicle_type_id":"4","last_reported":1761901924,"current_range_meters":18000,"station_id":"st_cvj6sg6p6f1abm77japg","pricing_plan_id":"cebpf4jnsgd1na2vs0mg"},{"bike_id":"f3be1fcb-f594-4572-b199-284acc9ab2d1","system_id":"levelo_inurba_marseille","lat":43.22557,"lon":5.41629,"is_reserved":false,"is_disabled":false,"rental_uris":{"android":"levelo://app?vid=f3be1fcb-f594-4572-b199-284acc9ab2d1","ios":"levelo://app?vid=f3be1fcb-f594-4572-b199-284acc9ab2d1"},"vehicle_type_id":"4","last_reported":1761901924,"current_range_meters":18800,"station_id":"st_d2o4gvlbi1j2169b742g","pricing_plan_id":"cebpf4jnsgd1na2vs0mg"},{"bike_id":"663b282a-de10-4532-a04b-ddbf0ab9b1a0","system_id":"levelo_inurba_marseille","lat":43.24649,"lon":5.38889,"is_reserved":false,"is_disabled":false,"rental_uris":{"android":"levelo://app?vid=663b282a-de10-4532-a04b-ddbf0ab9b1a0","ios":"levelo://app?vid=663b282a-de10-4532-a04b-ddbf0ab9b1a0"},"vehicle_type_id":"4","last_reported":1761901924,"current_range_meters":18800,"station_id":"ce4bhg12rcd13ifvqf60","pricing_plan_id":"cebpf4jnsgd1na2vs0mg"},{"bike_id":"f68984ef-8645-4463-aa96-83e29b3cff0d","system_id":"levelo_inurba_marseille","lat":43.32663,"lon":5.40982,"is_reserved":false,"is_disabled":false,"rental_uris":{"android":"levelo://app?vid=f68984ef-8645-4463-aa96-83e29b3cff0d","ios":"levelo://app?vid=f68984ef-8645-4463-aa96-83e29b3cff0d"},"vehicle_type_id":"4","last_reported":1761901924,"current_range_meters":18800,"station_id":"ce4bhpp2rcd13ifvqhgg","pricing_plan_id":"cebpf4jnsgd1na2vs0mg"},{"bike_id":"f4f0b6f0-fcec-4fe0-84b3-974860e0b4c8","system_id":"levelo_inurba_marseille","lat":43.2766,"lon":5.38941,"is_reserved":false,"is_disabled":false,"rental_uris":{"android":"levelo://app?vid=f4f0b6f0-fcec-4fe0-84b3-974860e0b4c8","ios":"levelo://app?vid=f4f0b6f0-fcec-4fe0-84b3-974860e0b4c8"},"vehicle_type_id":"4","last_reported":1761901924,"current_range_meters":18800,"station_id":"ce4bhi12rcd13ifvqfo0","pricing_plan_id":"cebpf4jnsgd1na2vs0mg"},{"bike_id":"5329277d-b696-4f32-9412-95d13ccb7cbb","system_id":"levelo_inurba_marseille","lat":43.298097,"lon":5.440614,"is_reserved":false,"is_disabled":false,"rental_uris":{"android":"levelo://app?vid=5329277d-b696-4f32-9412-95d13ccb7cbb","ios":"levelo://app?vid=5329277d-b696-4f32-9412-95d13ccb7cbb"},"vehicle_type_id":"4","last_reported":1761901924,"current_range_meters":18800,"station_id":"st_d3jp68qikq2c7381ktn0","pricing_plan_id":"cebpf4jnsgd1na2vs0mg"},{"bike_id":"8ed2ab6f-a316-4b0f-b8cb-18a25315b16d","system_id":"levelo_inurba_marseille","lat":43.28376,"lon":5.38624,"is_reserved":false,"is_disabled":false,"rental_uris":{"android":"levelo://app?vid=8ed2ab6f-a316-4b0f-b8cb-18a25315b16d","ios":"levelo://app?vid=8ed2ab6f-a316-4b0f-b8cb-18a25315b16d"},"vehicle_type_id":"4","last_reported":1761901924,"current_range_meters":18800,"station_id":"ce4bh492rcd13ifvqdvg","pricing_plan_id":"cebpf4jnsgd1na2vs0mg"},{"bike_id":"856797ce-229e-4cfe-be8b-1d125da1c74b","system_id":"levelo_inurba_marseille","lat":43.24957,"lon":5.40484,"is_reserved":false,"is_disabled":false,"rental_uris":{"android":"levelo://app?vid=856797ce-229e-4cfe-be8b-1d125da1c74b","ios":"levelo://app?vid=856797ce-229e-4cfe-be8b-1d125da1c74b"},"vehicle_type_id":"4","last_reported":1761901924,"current_range_meters":19200,"station_id":"st_d2ngiaodas8pm72gd1h0","pricing_plan_id":"cebpf4jnsgd1na2vs0mg"},{"bike_id":"e04f332d-b41c-47fd-b12f-6fdc7d63f429","system_id":"levelo_inurba_marseille","lat":43.30841,"lon":5.38288,"is_reserved":false,"is_disabled":false,"rental_uris":{"android":"levelo://app?vid=e04f332d-b41c-47fd-b12f-6fdc7d63f429","ios":"levelo://app?vid=e04f332d-b41c-47fd-b12f-6fdc7d63f429"},"vehicle_type_id":"4","last_reported":1761901924,"current_range_meters":19200,"station_id":"","pricing_plan_id":"cebpf4jnsgd1na2vs0mg"},{"bike_id":"91cce8f0-3aac-4e6a-8ab6-76a6ac01a205","system_id":"levelo_inurba_marseille","lat":43.29298,"lon":5.37462,"is_reserved":false,"is_disabled":false,"rental_uris":{"android":"levelo://app?vid=91cce8f0-3aac-4e6a-8ab6-76a6ac01a205","ios":"levelo://app?vid=91cce8f0-3aac-4e6a-8ab6-76a6ac01a205"},"vehicle_type_id":"4","last_reported":1761901924,"current_range_meters":19200,"station_id":"ce4bgi12rcd13ifvqb70","pricing_plan_id":"cebpf4jnsgd1na2vs0mg"},{"bike_id":"6def64c5-931f-4fdc-a44e-b35f84a6ac58","system_id":"levelo_inurba_marseille","lat":43.31167,"lon":5.38722,"is_reserved":false,"is_disabled":false,"rental_uris":{"android":"levelo://app?vid=6def64c5-931f-4fdc-a44e-b35f84a6ac58","ios":"levelo://app?vid=6def64c5-931f-4fdc-a44e-b35f84a6ac58"},"vehicle_type_id":"4","last_reported":1761901924,"current_range_meters":19200,"station_id":"ce4bgv12rcd13ifvqcp0","pricing_plan_id":"cebpf4jnsgd1na2vs0mg"},{"bike_id":"a95b4eff-01fe-40bb-b544-236b763184ee","system_id":"levelo_inurba_marseille","lat":43.30936,"lon":5.40139,"is_reserved":false,"is_disabled":false,"rental_uris":{"android":"levelo://app?vid=a95b4eff-01fe-40bb-b544-236b763184ee","ios":"levelo://app?vid=a95b4eff-01fe-40bb-b544-236b763184ee"},"vehicle_type_id":"4","last_reported":1761901924,"current_range_meters":19200,"station_id":"ce4bgvp2rcd13ifvqct0","pricing_plan_id":"cebpf4jnsgd1na2vs0mg"},{"bike_id":"fb5bbde1-17ca-45a2-871a-75bfcf71f4c3","system_id":"levelo_inurba_marseille","lat":43.285312,"lon":5.44101,"is_reserved":false,"is_disabled":false,"rental_uris":{"android":"levelo://app?vid=fb5bbde1-17ca-45a2-871a-75bfcf71f4c3","ios":"levelo://app?vid=fb5bbde1-17ca-45a2-871a-75bfcf71f4c3"},"vehicle_type_id":"4","last_reported":1761901924,"current_range_meters":19200,"station_id":"st_d3j3df2ikq2c7380ej80","pricing_plan_id":"cebpf4jnsgd1na2vs0mg"},{"bike_id":"c04ea6ec-c85d-4b9a-aa74-f0de2415a6d2","system_id":"levelo_inurba_marseille","lat":43.31522,"lon":5.38233,"is_reserved":false,"is_disabled":false,"rental_uris":{"android":"levelo://app?vid=c04ea6ec-c85d-4b9a-aa74-f0de2415a6d2","ios":"levelo://app?vid=c04ea6ec-c85d-4b9a-aa74-f0de2415a6d2"},"vehicle_type_id":"4","last_reported":1761901924,"current_range_meters":19200,"station_id":"","pricing_plan_id":"cebpf4jnsgd1na2vs0mg"},{"bike_id":"82ce3364-cc52-46c8-af40-f241f4a5e78d","system_id":"levelo_inurba_marseille","lat":43.30166,"lon":5.37984,"is_reserved":false,"is_disabled":false,"rental_uris":{"android":"levelo://app?vid=82ce3364-cc52-46c8-af40-f241f4a5e78d","ios":"levelo://app?vid=82ce3364-cc52-46c8-af40-f241f4a5e78d"},"vehicle_type_id":"4","last_reported":1761901924,"current_range_meters":19200,"station_id":"ce4bh092rcd13ifvqd20","pricing_plan_id":"cebpf4jnsgd1na2vs0mg"},{"bike_id":"6acaf1eb-8dfb-43a1-96d6-1d57f91434bd","system_id":"levelo_inurba_marseille","lat":43.29031,"lon":5.39967,"is_reserved":false,"is_disabled":false,"rental_uris":{"android":"levelo://app?vid=6acaf1eb-8dfb-43a1-96d6-1d57f91434bd","ios":"levelo://app?vid=6acaf1eb-8dfb-43a1-96d6-1d57f91434bd"},"vehicle_type_id":"4","last_reported":1761901924,"current_range_meters":19600,"station_id":"ce4bh392rcd13ifvqdm0","pricing_plan_id":"cebpf4jnsgd1na2vs0mg"},{"bike_id":"4476fb93-b41b-429c-b66e-779ffc5aabd1","system_id":"levelo_inurba_marseille","lat":43.25328,"lon":5.42167,"is_reserved":false,"is_disabled":false,"rental_uris":{"android":"levelo://app?vid=4476fb93-b41b-429c-b66e-779ffc5aabd1","ios":"levelo://app?vid=4476fb93-b41b-429c-b66e-779ffc5aabd1"},"vehicle_type_id":"4","last_reported":1761901924,"current_range_meters":19600,"station_id":"st_d2m65c5bi1j21697t3ng","pricing_plan_id":"cebpf4jnsgd1na2vs0mg"},{"bike_id":"fbcc5886-69e3-488f-96fd-e45314a075e6","system_id":"levelo_inurba_marseille","lat":43.288667,"lon":5.425234,"is_reserved":false,"is_disabled":false,"rental_uris":{"android":"levelo://app?vid=fbcc5886-69e3-488f-96fd-e45314a075e6","ios":"levelo://app?vid=fbcc5886-69e3-488f-96fd-e45314a075e6"},"vehicle_type_id":"4","last_reported":1761901924,"current_range_meters":19600,"station_id":"st_d3b462108ojc7389ooeg","pricing_plan_id":"cebpf4jnsgd1na2vs0mg"},{"bike_id":"4637449d-daaf-4e87-b7f5-54ac3f0d3bc0","system_id":"levelo_inurba_marseille","lat":43.24175,"lon":5.3973,"is_reserved":false,"is_disabled":false,"rental_uris":{"android":"levelo://app?vid=4637449d-daaf-4e87-b7f5-54ac3f0d3bc0","ios":"levelo://app?vid=4637449d-daaf-4e87-b7f5-54ac3f0d3bc0"},"vehicle_type_id":"4","last_reported":1761901924,"current_range_meters":19600,"station_id":"ce4bhn12rcd13ifvqgpg","pricing_plan_id":"cebpf4jnsgd1na2vs0mg"},{"bike_id":"2113b163-7985-4041-b2a4-9446b11d7c18","system_id":"levelo_inurba_marseille","lat":43.298021,"lon":5.381123,"is_reserved":false,"is_disabled":false,"rental_uris":{"android":"levelo://app?vid=2113b163-7985-4041-b2a4-9446b11d7c18","ios":"levelo://app?vid=2113b163-7985-4041-b2a4-9446b11d7c18"},"vehicle_type_id":"4","last_reported":1761901924,"current_range_meters":19600,"station_id":"","pricing_plan_id":"cebpf4jnsgd1na2vs0mg"},{"bike_id":"a5d08a2b-3be6-4c97-bceb-9f8beea509b3","system_id":"levelo_inurba_marseille","lat":43.29608,"lon":5.40492,"is_reserved":false,"is_disabled":false,"rental_uris":{"android":"levelo://app?vid=a5d08a2b-3be6-4c97-bceb-9f8beea509b3","ios":"levelo://app?vid=a5d08a2b-3be6-4c97-bceb-9f8beea509b3"},"vehicle_type_id":"4","last_reported":1761901924,"current_range_meters":20000,"station_id":"","pricing_plan_id":"cebpf4jnsgd1na2vs0mg"},{"bike_id":"dcac15bb-46a6-4238-8595-491c4fcdae4c","system_id":"levelo_inurba_marseille","lat":43.24176,"lon":5.39729,"is_reserved":false,"is_disabled":false,"rental_uris":{"android":"levelo://app?vid=dcac15bb-46a6-4238-8595-491c4fcdae4c","ios":"levelo://app?vid=dcac15bb-46a6-4238-8595-491c4fcdae4c"},"vehicle_type_id":"4","last_reported":1761901924,"current_range_meters":20000,"station_id":"ce4bhn12rcd13ifvqgpg","pricing_plan_id":"cebpf4jnsgd1na2vs0mg"},{"bike_id":"7c662f27-9e75-46ff-b6e2-59c3ac3b2b05","system_id":"levelo_inurba_marseille","lat":43.303052,"lon":5.368894,"is_reserved":false,"is_disabled":false,"rental_uris":{"android":"levelo://app?vid=7c662f27-9e75-46ff-b6e2-59c3ac3b2b05","ios":"levelo://app?vid=7c662f27-9e75-46ff-b6e2-59c3ac3b2b05"},"vehicle_type_id":"4","last_reported":1761901924,"current_range_meters":20000,"station_id":"ce4bgqh2rcd13ifvqc5g","pricing_plan_id":"cebpf4jnsgd1na2vs0mg"},{"bike_id":"7a2a8261-f9cd-4aed-b271-69589e497b70","system_id":"levelo_inurba_marseille","lat":43.3094,"lon":5.40146,"is_reserved":false,"is_disabled":false,"rental_uris":{"android":"levelo://app?vid=7a2a8261-f9cd-4aed-b271-69589e497b70","ios":"levelo://app?vid=7a2a8261-f9cd-4aed-b271-69589e497b70"},"vehicle_type_id":"4","last_reported":1761901924,"current_range_meters":20000,"station_id":"ce4bgvp2rcd13ifvqct0","pricing_plan_id":"cebpf4jnsgd1na2vs0mg"},{"bike_id":"c12f3687-54a7-4d6e-9fa5-b42550806808","system_id":"levelo_inurba_marseille","lat":43.29587,"lon":5.36742,"is_reserved":false,"is_disabled":false,"rental_uris":{"android":"levelo://app?vid=c12f3687-54a7-4d6e-9fa5-b42550806808","ios":"levelo://app?vid=c12f3687-54a7-4d6e-9fa5-b42550806808"},"vehicle_type_id":"4","last_reported":1761901924,"current_range_meters":20000,"station_id":"ce4bgph2rcd13ifvqc2g","pricing_plan_id":"cebpf4jnsgd1na2vs0mg"},{"bike_id":"ff50002c-4520-4545-a663-079038ba1614","system_id":"levelo_inurba_marseille","lat":43.30584,"lon":5.37227,"is_reserved":false,"is_disabled":false,"rental_uris":{"android":"levelo://app?vid=ff50002c-4520-4545-a663-079038ba1614","ios":"levelo://app?vid=ff50002c-4520-4545-a663-079038ba1614"},"vehicle_type_id":"4","last_reported":1761901924,"current_range_meters":20000,"station_id":"ce4bgqh2rcd13ifvqc4g","pricing_plan_id":"cebpf4jnsgd1na2vs0mg"},{"bike_id":"0179aad9-8cf1-4065-b886-e1fdc3f62a49","system_id":"levelo_inurba_marseille","lat":43.2495,"lon":5.40492,"is_reserved":false,"is_disabled":false,"rental_uris":{"android":"levelo://app?vid=0179aad9-8cf1-4065-b886-e1fdc3f62a49","ios":"levelo://app?vid=0179aad9-8cf1-4065-b886-e1fdc3f62a49"},"vehicle_type_id":"4","last_reported":1761901924,"current_range_meters":20000,"station_id":"st_d2ngiaodas8pm72gd1h0","pricing_plan_id":"cebpf4jnsgd1na2vs0mg"},{"bike_id":"293e2325-9e08-4b16-a1d9-8fd757c5664f","system_id":"levelo_inurba_marseille","lat":43.26779,"lon":5.39415,"is_reserved":false,"is_disabled":false,"rental_uris":{"android":"levelo://app?vid=293e2325-9e08-4b16-a1d9-8fd757c5664f","ios":"levelo://app?vid=293e2325-9e08-4b16-a1d9-8fd757c5664f"},"vehicle_type_id":"4","last_reported":1761901924,"current_range_meters":20000,"station_id":"ce4bhh12rcd13ifvqfg0","pricing_plan_id":"cebpf4jnsgd1na2vs0mg"},{"bike_id":"69ded99d-1a21-473e-88e0-c44f0f28945e","system_id":"levelo_inurba_marseille","lat":43.247878,"lon":5.374419,"is_reserved":false,"is_disabled":false,"rental_uris":{"android":"levelo://app?vid=69ded99d-1a21-473e-88e0-c44f0f28945e","ios":"levelo://app?vid=69ded99d-1a21-473e-88e0-c44f0f28945e"},"vehicle_type_id":"4","last_reported":1761901924,"current_range_meters":20000,"station_id":"ce4bhgh2rcd13ifvqfb0","pricing_plan_id":"cebpf4jnsgd1na2vs0mg"},{"bike_id":"2819da96-e74b-4499-817d-c62867e34f4e","system_id":"levelo_inurba_marseille","lat":43.29847,"lon":5.36266,"is_reserved":false,"is_disabled":false,"rental_uris":{"android":"levelo://app?vid=2819da96-e74b-4499-817d-c62867e34f4e","ios":"levelo://app?vid=2819da96-e74b-4499-817d-c62867e34f4e"},"vehicle_type_id":"4","last_reported":1761901924,"current_range_meters":20400,"station_id":"ce4bgpp2rcd13ifvqc3g","pricing_plan_id":"cebpf4jnsgd1na2vs0mg"},{"bike_id":"6a390678-a799-420e-8b61-cd4a653cce87","system_id":"levelo_inurba_marseille","lat":43.32106,"lon":5.36739,"is_reserved":false,"is_disabled":false,"rental_uris":{"android":"levelo://app?vid=6a390678-a799-420e-8b61-cd4a653cce87","ios":"levelo://app?vid=6a390678-a799-420e-8b61-cd4a653cce87"},"vehicle_type_id":"4","last_reported":1761901924,"current_range_meters":20400,"station_id":"ce4bhrh2rcd13ifvqhug","pricing_plan_id":"cebpf4jnsgd1na2vs0mg"},{"bike_id":"7776d34e-6db1-4a95-b64a-dfa1faf6c280","system_id":"levelo_inurba_marseille","lat":43.30196,"lon":5.36989,"is_reserved":false,"is_disabled":false,"rental_uris":{"android":"levelo://app?vid=7776d34e-6db1-4a95-b64a-dfa1faf6c280","ios":"levelo://app?vid=7776d34e-6db1-4a95-b64a-dfa1faf6c280"},"vehicle_type_id":"4","last_reported":1761901924,"current_range_meters":20400,"station_id":"","pricing_plan_id":"cebpf4jnsgd1na2vs0mg"},{"bike_id":"609a1759-eeac-403f-a169-d54f14162f8b","system_id":"levelo_inurba_marseille","lat":43.337444,"lon":5.374475,"is_reserved":false,"is_disabled":false,"rental_uris":{"android":"levelo://app?vid=609a1759-eeac-403f-a169-d54f14162f8b","ios":"levelo://app?vid=609a1759-eeac-403f-a169-d54f14162f8b"},"vehicle_type_id":"4","last_reported":1761901924,"current_range_meters":20400,"station_id":"","pricing_plan_id":"cebpf4jnsgd1na2vs0mg"},{"bike_id":"9fde9bd7-c309-4d91-92ab-60de2c6834b4","system_id":"levelo_inurba_marseille","lat":43.266835,"lon":5.38274,"is_reserved":false,"is_disabled":true,"rental_uris":{"android":"levelo://app?vid=9fde9bd7-c309-4d91-92ab-60de2c6834b4","ios":"levelo://app?vid=9fde9bd7-c309-4d91-92ab-60de2c6834b4"},"vehicle_type_id":"4","last_reported":1761901924,"current_range_meters":20400,"station_id":"ce4bhh12rcd13ifvqfg0","pricing_plan_id":"cebpf4jnsgd1na2vs0mg"},{"bike_id":"0caad121-79e3-4fef-8c8f-6965cff82518","system_id":"levelo_inurba_marseille","lat":43.25114,"lon":5.40322,"is_reserved":false,"is_disabled":false,"rental_uris":{"android":"levelo://app?vid=0caad121-79e3-4fef-8c8f-6965cff82518","ios":"levelo://app?vid=0caad121-79e3-4fef-8c8f-6965cff82518"},"vehicle_type_id":"4","last_reported":1761901924,"current_range_meters":20800,"station_id":"ce4bhlh2rcd13ifvqgig","pricing_plan_id":"cebpf4jnsgd1na2vs0mg"},{"bike_id":"4016fdbd-e01a-45b5-a592-eedd5fcb02ac","system_id":"levelo_inurba_marseille","lat":43.28717,"lon":5.360724,"is_reserved":false,"is_disabled":false,"rental_uris":{"android":"levelo://app?vid=4016fdbd-e01a-45b5-a592-eedd5fcb02ac","ios":"levelo://app?vid=4016fdbd-e01a-45b5-a592-eedd5fcb02ac"},"vehicle_type_id":"4","last_reported":1761901924,"current_range_meters":20800,"station_id":"cki0cbj6b192h4jlfktg","pricing_plan_id":"cebpf4jnsgd1na2vs0mg"},{"bike_id":"b877ad9b-5cda-4a29-b31a-ed1159bff4ac","system_id":"levelo_inurba_marseille","lat":43.31261,"lon":5.36862,"is_reserved":false,"is_disabled":false,"rental_uris":{"android":"levelo://app?vid=b877ad9b-5cda-4a29-b31a-ed1159bff4ac","ios":"levelo://app?vid=b877ad9b-5cda-4a29-b31a-ed1159bff4ac"},"vehicle_type_id":"4","last_reported":1761901924,"current_range_meters":20800,"station_id":"ce4bgl92rcd13ifvqbq0","pricing_plan_id":"cebpf4jnsgd1na2vs0mg"},{"bike_id":"3c7839de-f735-4a0b-9f80-1e40baaca8df","system_id":"levelo_inurba_marseille","lat":43.27957,"lon":5.3872,"is_reserved":false,"is_disabled":false,"rental_uris":{"android":"levelo://app?vid=3c7839de-f735-4a0b-9f80-1e40baaca8df","ios":"levelo://app?vid=3c7839de-f735-4a0b-9f80-1e40baaca8df"},"vehicle_type_id":"4","last_reported":1761901924,"current_range_meters":20800,"station_id":"ce4bhg12rcd13ifvqf80","pricing_plan_id":"cebpf4jnsgd1na2vs0mg"},{"bike_id":"17ba5ddb-f5c9-4b5d-a0b3-f825096490c7","system_id":"levelo_inurba_marseille","lat":43.310675,"lon":5.38347,"is_reserved":false,"is_disabled":true,"rental_uris":{"android":"levelo://app?vid=17ba5ddb-f5c9-4b5d-a0b3-f825096490c7","ios":"levelo://app?vid=17ba5ddb-f5c9-4b5d-a0b3-f825096490c7"},"vehicle_type_id":"4","last_reported":1761901924,"current_range_meters":20800,"station_id":"ce4bgv92rcd13ifvqcr0","pricing_plan_id":"cebpf4jnsgd1na2vs0mg"},{"bike_id":"1b650ca0-5735-437b-9942-95c69998766b","system_id":"levelo_inurba_marseille","lat":43.24995,"lon":5.38929,"is_reserved":false,"is_disabled":false,"rental_uris":{"android":"levelo://app?vid=1b650ca0-5735-437b-9942-95c69998766b","ios":"levelo://app?vid=1b650ca0-5735-437b-9942-95c69998766b"},"vehicle_type_id":"4","last_reported":1761901924,"current_range_meters":20800,"station_id":"ce4bhgp2rcd13ifvqfd0","pricing_plan_id":"cebpf4jnsgd1na2vs0mg"},{"bike_id":"1df5acf8-2868-442d-ac6b-a716815719c4","system_id":"levelo_inurba_marseille","lat":43.24184,"lon":5.39725,"is_reserved":false,"is_disabled":false,"rental_uris":{"android":"levelo://app?vid=1df5acf8-2868-442d-ac6b-a716815719c4","ios":"levelo://app?vid=1df5acf8-2868-442d-ac6b-a716815719c4"},"vehicle_type_id":"4","last_reported":1761901924,"current_range_meters":20800,"station_id":"ce4bhn12rcd13ifvqgpg","pricing_plan_id":"cebpf4jnsgd1na2vs0mg"},{"bike_id":"32632625-b281-4348-990f-071d78c42b84","system_id":"levelo_inurba_marseille","lat":43.26569,"lon":5.39014,"is_reserved":false,"is_disabled":false,"rental_uris":{"android":"levelo://app?vid=32632625-b281-4348-990f-071d78c42b84","ios":"levelo://app?vid=32632625-b281-4348-990f-071d78c42b84"},"vehicle_type_id":"4","last_reported":1761901924,"current_range_meters":20800,"station_id":"","pricing_plan_id":"cebpf4jnsgd1na2vs0mg"},{"bike_id":"a5f9d115-2eb0-463d-bf65-9070eaddf3fb","system_id":"levelo_inurba_marseille","lat":43.23945,"lon":5.36655,"is_reserved":false,"is_disabled":false,"rental_uris":{"android":"levelo://app?vid=a5f9d115-2eb0-463d-bf65-9070eaddf3fb","ios":"levelo://app?vid=a5f9d115-2eb0-463d-bf65-9070eaddf3fb"},"vehicle_type_id":"4","last_reported":1761901924,"current_range_meters":20800,"station_id":"ce4bhi12rcd13ifvqfp0","pricing_plan_id":"cebpf4jnsgd1na2vs0mg"},{"bike_id":"20f5c051-0bf5-49c6-8d5d-56c0d3cb77c3","system_id":"levelo_inurba_marseille","lat":43.3159,"lon":5.38945,"is_reserved":false,"is_disabled":false,"rental_uris":{"android":"levelo://app?vid=20f5c051-0bf5-49c6-8d5d-56c0d3cb77c3","ios":"levelo://app?vid=20f5c051-0bf5-49c6-8d5d-56c0d3cb77c3"},"vehicle_type_id":"4","last_reported":1761901924,"current_range_meters":20800,"station_id":"","pricing_plan_id":"cebpf4jnsgd1na2vs0mg"},{"bike_id":"8bdbb5a0-9e19-4a55-8d9b-c662a55a0d4a","system_id":"levelo_inurba_marseille","lat":43.30551,"lon":5.36561,"is_reserved":false,"is_disabled":false,"rental_uris":{"android":"levelo://app?vid=8bdbb5a0-9e19-4a55-8d9b-c662a55a0d4a","ios":"levelo://app?vid=8bdbb5a0-9e19-4a55-8d9b-c662a55a0d4a"},"vehicle_type_id":"4","last_reported":1761901924,"current_range_meters":20800,"station_id":"ce4bgs12rcd13ifvqcag","pricing_plan_id":"cebpf4jnsgd1na2vs0mg"},{"bike_id":"c70092f2-0c79-4cb9-bcaa-3ff8270992b7","system_id":"levelo_inurba_marseille","lat":43.33719,"lon":5.37474,"is_reserved":false,"is_disabled":false,"rental_uris":{"android":"levelo://app?vid=c70092f2-0c79-4cb9-bcaa-3ff8270992b7","ios":"levelo://app?vid=c70092f2-0c79-4cb9-bcaa-3ff8270992b7"},"vehicle_type_id":"4","last_reported":1761901924,"current_range_meters":20800,"station_id":"","pricing_plan_id":"cebpf4jnsgd1na2vs0mg"},{"bike_id":"92530d7c-f0bc-4dcf-8a29-1f89e2c361e7","system_id":"levelo_inurba_marseille","lat":43.29092,"lon":5.381535,"is_reserved":false,"is_disabled":false,"rental_uris":{"android":"levelo://app?vid=92530d7c-f0bc-4dcf-8a29-1f89e2c361e7","ios":"levelo://app?vid=92530d7c-f0bc-4dcf-8a29-1f89e2c361e7"},"vehicle_type_id":"4","last_reported":1761901924,"current_range_meters":21600,"station_id":"","pricing_plan_id":"cebpf4jnsgd1na2vs0mg"},{"bike_id":"cee9a211-d377-4cea-ab88-99e67d177cfe","system_id":"levelo_inurba_marseille","lat":43.23188,"lon":5.39989,"is_reserved":false,"is_disabled":false,"rental_uris":{"android":"levelo://app?vid=cee9a211-d377-4cea-ab88-99e67d177cfe","ios":"levelo://app?vid=cee9a211-d377-4cea-ab88-99e67d177cfe"},"vehicle_type_id":"4","last_reported":1761901924,"current_range_meters":21600,"station_id":"ce4bhn12rcd13ifvqgqg","pricing_plan_id":"cebpf4jnsgd1na2vs0mg"},{"bike_id":"94084d75-b1ec-4cf5-8736-b1d0c7eed7ce","system_id":"levelo_inurba_marseille","lat":43.33026,"lon":5.3904,"is_reserved":false,"is_disabled":false,"rental_uris":{"android":"levelo://app?vid=94084d75-b1ec-4cf5-8736-b1d0c7eed7ce","ios":"levelo://app?vid=94084d75-b1ec-4cf5-8736-b1d0c7eed7ce"},"vehicle_type_id":"4","last_reported":1761901924,"current_range_meters":21600,"station_id":"ce4bhr92rcd13ifvqhrg","pricing_plan_id":"cebpf4jnsgd1na2vs0mg"},{"bike_id":"5bec0f2b-db2f-42b1-9a22-d227ac5efecd","system_id":"levelo_inurba_marseille","lat":43.31301,"lon":5.38176,"is_reserved":false,"is_disabled":false,"rental_uris":{"android":"levelo://app?vid=5bec0f2b-db2f-42b1-9a22-d227ac5efecd","ios":"levelo://app?vid=5bec0f2b-db2f-42b1-9a22-d227ac5efecd"},"vehicle_type_id":"4","last_reported":1761901924,"current_range_meters":21600,"station_id":"","pricing_plan_id":"cebpf4jnsgd1na2vs0mg"},{"bike_id":"3ae33a65-f6ef-4e0e-af59-d42800e6202b","system_id":"levelo_inurba_marseille","lat":43.25118,"lon":5.40317,"is_reserved":false,"is_disabled":false,"rental_uris":{"android":"levelo://app?vid=3ae33a65-f6ef-4e0e-af59-d42800e6202b","ios":"levelo://app?vid=3ae33a65-f6ef-4e0e-af59-d42800e6202b"},"vehicle_type_id":"4","last_reported":1761901924,"current_range_meters":21600,"station_id":"ce4bhlh2rcd13ifvqgig","pricing_plan_id":"cebpf4jnsgd1na2vs0mg"},{"bike_id":"3150b169-6d8b-4786-81cd-4b890da98702","system_id":"levelo_inurba_marseille","lat":43.237852,"lon":5.366259,"is_reserved":false,"is_disabled":false,"rental_uris":{"android":"levelo://app?vid=3150b169-6d8b-4786-81cd-4b890da98702","ios":"levelo://app?vid=3150b169-6d8b-4786-81cd-4b890da98702"},"vehicle_type_id":"4","last_reported":1761901924,"current_range_meters":21600,"station_id":"st_d3nk18o9ro0c73en2l3g","pricing_plan_id":"cebpf4jnsgd1na2vs0mg"},{"bike_id":"41598790-345d-414f-9e87-720cb432f278","system_id":"levelo_inurba_marseille","lat":43.29477,"lon":5.36227,"is_reserved":false,"is_disabled":false,"rental_uris":{"android":"levelo://app?vid=41598790-345d-414f-9e87-720cb432f278","ios":"levelo://app?vid=41598790-345d-414f-9e87-720cb432f278"},"vehicle_type_id":"4","last_reported":1761901924,"current_range_meters":21600,"station_id":"","pricing_plan_id":"cebpf4jnsgd1na2vs0mg"},{"bike_id":"a8965f60-4e89-4337-944a-363020cacfa7","system_id":"levelo_inurba_marseille","lat":43.28116,"lon":5.40348,"is_reserved":false,"is_disabled":true,"rental_uris":{"android":"levelo://app?vid=a8965f60-4e89-4337-944a-363020cacfa7","ios":"levelo://app?vid=a8965f60-4e89-4337-944a-363020cacfa7"},"vehicle_type_id":"4","last_reported":1761901924,"current_range_meters":21600,"station_id":"","pricing_plan_id":"cebpf4jnsgd1na2vs0mg"},{"bike_id":"28aa1f4a-e5ba-46af-be1c-d9836d8fe705","system_id":"levelo_inurba_marseille","lat":43.309143,"lon":5.368469,"is_reserved":false,"is_disabled":false,"rental_uris":{"android":"levelo://app?vid=28aa1f4a-e5ba-46af-be1c-d9836d8fe705","ios":"levelo://app?vid=28aa1f4a-e5ba-46af-be1c-d9836d8fe705"},"vehicle_type_id":"4","last_reported":1761901924,"current_range_meters":21600,"station_id":"ce4bgn92rcd13ifvqbvg","pricing_plan_id":"cebpf4jnsgd1na2vs0mg"},{"bike_id":"50c2c89c-4a9b-41f6-af05-b4e430e07029","system_id":"levelo_inurba_marseille","lat":43.24628,"lon":5.431476,"is_reserved":false,"is_disabled":false,"rental_uris":{"android":"levelo://app?vid=50c2c89c-4a9b-41f6-af05-b4e430e07029","ios":"levelo://app?vid=50c2c89c-4a9b-41f6-af05-b4e430e07029"},"vehicle_type_id":"4","last_reported":1761901924,"current_range_meters":21600,"station_id":"st_d2m6c4gdas8pm72e190g","pricing_plan_id":"cebpf4jnsgd1na2vs0mg"},{"bike_id":"e0d54695-e2e6-4a7d-b4ff-43fb26bfe078","system_id":"levelo_inurba_marseille","lat":43.30554,"lon":5.36514,"is_reserved":false,"is_disabled":false,"rental_uris":{"android":"levelo://app?vid=e0d54695-e2e6-4a7d-b4ff-43fb26bfe078","ios":"levelo://app?vid=e0d54695-e2e6-4a7d-b4ff-43fb26bfe078"},"vehicle_type_id":"4","last_reported":1761901924,"current_range_meters":21600,"station_id":"ce4bgs12rcd13ifvqcag","pricing_plan_id":"cebpf4jnsgd1na2vs0mg"},{"bike_id":"cc0d6697-bf7c-4001-828f-c5cf42c80c59","system_id":"levelo_inurba_marseille","lat":43.21184,"lon":5.350797,"is_reserved":false,"is_disabled":false,"rental_uris":{"android":"levelo://app?vid=cc0d6697-bf7c-4001-828f-c5cf42c80c59","ios":"levelo://app?vid=cc0d6697-bf7c-4001-828f-c5cf42c80c59"},"vehicle_type_id":"4","last_reported":1761901924,"current_range_meters":21600,"station_id":"","pricing_plan_id":"cebpf4jnsgd1na2vs0mg"},{"bike_id":"42ee845a-4e54-4f5b-8729-bb3ec7276302","system_id":"levelo_inurba_marseille","lat":43.29444,"lon":5.40129,"is_reserved":false,"is_disabled":false,"rental_uris":{"android":"levelo://app?vid=42ee845a-4e54-4f5b-8729-bb3ec7276302","ios":"levelo://app?vid=42ee845a-4e54-4f5b-8729-bb3ec7276302"},"vehicle_type_id":"4","last_reported":1761901924,"current_range_meters":22000,"station_id":"","pricing_plan_id":"cebpf4jnsgd1na2vs0mg"},{"bike_id":"ec6886bc-b88a-4e3a-92df-2fc40a0089d0","system_id":"levelo_inurba_marseille","lat":43.24072,"lon":5.37742,"is_reserved":false,"is_disabled":false,"rental_uris":{"android":"levelo://app?vid=ec6886bc-b88a-4e3a-92df-2fc40a0089d0","ios":"levelo://app?vid=ec6886bc-b88a-4e3a-92df-2fc40a0089d0"},"vehicle_type_id":"4","last_reported":1761901924,"current_range_meters":22000,"station_id":"ce4bhnp2rcd13ifvqgvg","pricing_plan_id":"cebpf4jnsgd1na2vs0mg"},{"bike_id":"e493d085-b975-448c-8a4d-deaa81eb6f70","system_id":"levelo_inurba_marseille","lat":43.284714,"lon":5.384115,"is_reserved":false,"is_disabled":false,"rental_uris":{"android":"levelo://app?vid=e493d085-b975-448c-8a4d-deaa81eb6f70","ios":"levelo://app?vid=e493d085-b975-448c-8a4d-deaa81eb6f70"},"vehicle_type_id":"4","last_reported":1761901924,"current_range_meters":22000,"station_id":"ce4bh512rcd13ifvqe3g","pricing_plan_id":"cebpf4jnsgd1na2vs0mg"},{"bike_id":"fd56ea3d-f6ba-418e-9775-b6b49b7806ef","system_id":"levelo_inurba_marseille","lat":43.30416,"lon":5.41274,"is_reserved":false,"is_disabled":false,"rental_uris":{"android":"levelo://app?vid=fd56ea3d-f6ba-418e-9775-b6b49b7806ef","ios":"levelo://app?vid=fd56ea3d-f6ba-418e-9775-b6b49b7806ef"},"vehicle_type_id":"4","last_reported":1761901924,"current_range_meters":22000,"station_id":"ce4bhop2rcd13ifvqh8g","pricing_plan_id":"cebpf4jnsgd1na2vs0mg"},{"bike_id":"7c2a1b27-978f-47fe-bbfd-7bdc119e1498","system_id":"levelo_inurba_marseille","lat":43.27998,"lon":5.41667,"is_reserved":false,"is_disabled":false,"rental_uris":{"android":"levelo://app?vid=7c2a1b27-978f-47fe-bbfd-7bdc119e1498","ios":"levelo://app?vid=7c2a1b27-978f-47fe-bbfd-7bdc119e1498"},"vehicle_type_id":"4","last_reported":1761901924,"current_range_meters":22000,"station_id":"ce4bho12rcd13ifvqh1g","pricing_plan_id":"cebpf4jnsgd1na2vs0mg"},{"bike_id":"88dd81e2-ba33-4269-982e-e42f8916ec71","system_id":"levelo_inurba_marseille","lat":43.245422,"lon":5.395193,"is_reserved":false,"is_disabled":false,"rental_uris":{"android":"levelo://app?vid=88dd81e2-ba33-4269-982e-e42f8916ec71","ios":"levelo://app?vid=88dd81e2-ba33-4269-982e-e42f8916ec71"},"vehicle_type_id":"4","last_reported":1761901924,"current_range_meters":22000,"station_id":"","pricing_plan_id":"cebpf4jnsgd1na2vs0mg"},{"bike_id":"06fc4c44-20ba-493c-8944-d78c73d93c94","system_id":"levelo_inurba_marseille","lat":43.311952,"lon":5.393547,"is_reserved":false,"is_disabled":false,"rental_uris":{"android":"levelo://app?vid=06fc4c44-20ba-493c-8944-d78c73d93c94","ios":"levelo://app?vid=06fc4c44-20ba-493c-8944-d78c73d93c94"},"vehicle_type_id":"4","last_reported":1761901924,"current_range_meters":22000,"station_id":"","pricing_plan_id":"cebpf4jnsgd1na2vs0mg"},{"bike_id":"3ffbae57-8ecd-4e3d-96ad-932247e3fe54","system_id":"levelo_inurba_marseille","lat":43.318995,"lon":5.372975,"is_reserved":false,"is_disabled":false,"rental_uris":{"android":"levelo://app?vid=3ffbae57-8ecd-4e3d-96ad-932247e3fe54","ios":"levelo://app?vid=3ffbae57-8ecd-4e3d-96ad-932247e3fe54"},"vehicle_type_id":"4","last_reported":1761901924,"current_range_meters":22000,"station_id":"","pricing_plan_id":"cebpf4jnsgd1na2vs0mg"},{"bike_id":"9f4dc427-2c29-4e41-82a8-c6cc9e0f5f4d","system_id":"levelo_inurba_marseille","lat":43.2594,"lon":5.408961,"is_reserved":false,"is_disabled":false,"rental_uris":{"android":"levelo://app?vid=9f4dc427-2c29-4e41-82a8-c6cc9e0f5f4d","ios":"levelo://app?vid=9f4dc427-2c29-4e41-82a8-c6cc9e0f5f4d"},"vehicle_type_id":"4","last_reported":1761901924,"current_range_meters":22000,"station_id":"ce4bhm92rcd13ifvqglg","pricing_plan_id":"cebpf4jnsgd1na2vs0mg"},{"bike_id":"7c19b7e9-393b-4fa2-b057-4dd7dff08f6d","system_id":"levelo_inurba_marseille","lat":43.21189,"lon":5.35076,"is_reserved":false,"is_disabled":false,"rental_uris":{"android":"levelo://app?vid=7c19b7e9-393b-4fa2-b057-4dd7dff08f6d","ios":"levelo://app?vid=7c19b7e9-393b-4fa2-b057-4dd7dff08f6d"},"vehicle_type_id":"4","last_reported":1761901924,"current_range_meters":22000,"station_id":"st_cvj6sg6p6f1abm77japg","pricing_plan_id":"cebpf4jnsgd1na2vs0mg"},{"bike_id":"a73a24c3-2218-4652-a302-2ad81b7034ad","system_id":"levelo_inurba_marseille","lat":43.318121,"lon":5.387593,"is_reserved":false,"is_disabled":false,"rental_uris":{"android":"levelo://app?vid=a73a24c3-2218-4652-a302-2ad81b7034ad","ios":"levelo://app?vid=a73a24c3-2218-4652-a302-2ad81b7034ad"},"vehicle_type_id":"4","last_reported":1761901924,"current_range_meters":22000,"station_id":"","pricing_plan_id":"cebpf4jnsgd1na2vs0mg"},{"bike_id":"04c78f4c-dc05-499f-ba39-b723e36e49cf","system_id":"levelo_inurba_marseille","lat":43.237874,"lon":5.366315,"is_reserved":false,"is_disabled":false,"rental_uris":{"android":"levelo://app?vid=04c78f4c-dc05-499f-ba39-b723e36e49cf","ios":"levelo://app?vid=04c78f4c-dc05-499f-ba39-b723e36e49cf"},