{"last_updated":1685462910,"ttl":30,"version":"2.2","data":{"bikes":[{"bike_id":"37a85ad5-7654-4f7c-91cb-95c4eda6da41","system_id":"levelo_inurba_marseille","lat":43.31504,"lon":5.37308,"is_reserved":false,"is_disabled":false,"rental_uris":{"android":"levelo://app?vid=37a85ad5-7654-4f7c-91cb-95c4eda6da41","ios":"levelo://app?vid=37a85ad5-7654-4f7c-91cb-95c4eda6da41"},"vehicle_type_id":"4","last_reported":1685462911,"current_range_meters":0,"station_id":"ce4bgt12rcd13ifvqcd0","pricing_plan_id":"free"},{"bike_id":"484f9a0c-45d5-4bb8-942a-e388eb310cae","system_id":"levelo_inurba_marseille","lat":43.308614,"lon":5.372098,"is_reserved":false,"is_disabled":false,"rental_uris":{"android":"levelo://app?vid=484f9a0c-45d5-4bb8-942a-e388eb310cae","ios":"levelo://app?vid=484f9a0c-45d5-4bb8-942a-e388eb310cae"},"vehicle_type_id":"4","last_reported":1685462911,"current_range_meters":13600,"station_id":"ce4bguh2rcd13ifvqckg","pricing_plan_id":"free"},{"bike_id":"b4cbbe52-d39b-4954-843b-656736ad6bcf","system_id":"levelo_inurba_marseille","lat":43.30897,"lon":5.37201,"is_reserved":false,"is_disabled":false,"rental_uris":{"android":"levelo://app?vid=b4cbbe52-d39b-4954-843b-656736ad6bcf","ios":"levelo://app?vid=b4cbbe52-d39b-4954-843b-656736ad6bcf"},"vehicle_type_id":"4","last_reported":1685462911,"current_range_meters":16800,"station_id":"","pricing_plan_id":"free"},{"bike_id":"f69a3f8a-adab-435a-ad98-4302ca7a3c35","system_id":"levelo_inurba_marseille","lat":43.31865,"lon":5.3731,"is_reserved":false,"is_disabled":false,"rental_uris":{"android":"levelo://app?vid=f69a3f8a-adab-435a-ad98-4302ca7a3c35","ios":"levelo://app?vid=f69a3f8a-adab-435a-ad98-4302ca7a3c35"},"vehicle_type_id":"4","last_reported":1685462911,"current_range_meters":21600,"station_id":"","pricing_plan_id":"free"},{"bike_id":"2a82d387-8497-4327-8ebf-6f98dfff2769","system_id":"levelo_inurba_marseille","lat":43.28856,"lon":5.358371,"is_reserved":false,"is_disabled":false,"rental_uris":{"android":"levelo://app?vid=2a82d387-8497-4327-8ebf-6f98dfff2769","ios":"levelo://app?vid=2a82d387-8497-4327-8ebf-6f98dfff2769"},"vehicle_type_id":"4","last_reported":1685462911,"current_range_meters":20000,"station_id":"ce4bhb12rcd13ifvqem0","pricing_plan_id":"free"},{"bike_id":"f8603d89-e966-4ac2-b5bc-106e813a73d6","system_id":"levelo_inurba_marseille","lat":43.31113,"lon":5.3777,"is_reserved":false,"is_disabled":false,"rental_uris":{"android":"levelo://app?vid=f8603d89-e966-4ac2-b5bc-106e813a73d6","ios":"levelo://app?vid=f8603d89-e966-4ac2-b5bc-106e813a73d6"},"vehicle_type_id":"4","last_reported":1685462911,"current_range_meters":16400,"station_id":"ce4bgt92rcd13ifvqcg0","pricing_plan_id":"free"},{"bike_id":"0df700ef-95e9-4009-86fb-9e0105df5dea","system_id":"levelo_inurba_marseille","lat":43.31598,"lon":5.37882,"is_reserved":false,"is_disabled":false,"rental_uris":{"android":"levelo://app?vid=0df700ef-95e9-4009-86fb-9e0105df5dea","ios":"levelo://app?vid=0df700ef-95e9-4009-86fb-9e0105df5dea"},"vehicle_type_id":"4","last_reported":1685462911,"current_range_meters":12800,"station_id":"","pricing_plan_id":"free"},{"bike_id":"b7e957bd-4f84-4976-9b60-22ead9218732","system_id":"levelo_inurba_marseille","lat":43.315293,"lon":5.380349,"is_reserved":false,"is_disabled":false,"rental_uris":{"android":"levelo://app?vid=b7e957bd-4f84-4976-9b60-22ead9218732","ios":"levelo://app?vid=b7e957bd-4f84-4976-9b60-22ead9218732"},"vehicle_type_id":"4","last_reported":1685462911,"current_range_meters":6000,"station_id":"ce4bhsp2rcd13ifvqi50","pricing_plan_id":"free"},{"bike_id":"0508d2d7-0054-45e7-8b91-aaa554e231d1","system_id":"levelo_inurba_marseille","lat":43.315293,"lon":5.380349,"is_reserved":false,"is_disabled":false,"rental_uris":{"android":"levelo://app?vid=0508d2d7-0054-45e7-8b91-aaa554e231d1","ios":"levelo://app?vid=0508d2d7-0054-45e7-8b91-aaa554e231d1"},"vehicle_type_id":"4","last_reported":1685462911,"current_range_meters":17200,"station_id":"ce4bhsp2rcd13ifvqi50","pricing_plan_id":"free"},{"bike_id":"886d90d7-e5db-4104-8491-45532b0d9f2a","system_id":"levelo_inurba_marseille","lat":43.301939,"lon":5.366286,"is_reserved":false,"is_disabled":false,"rental_uris":{"android":"levelo://app?vid=886d90d7-e5db-4104-8491-45532b0d9f2a","ios":"levelo://app?vid=886d90d7-e5db-4104-8491-45532b0d9f2a"},"vehicle_type_id":"4","last_reported":1685462911,"current_range_meters":18000,"station_id":"ce4bgrh2rcd13ifvqc8g","pricing_plan_id":"free"},{"bike_id":"e1b7e638-db54-42d5-ae85-3e1337e37665","system_id":"levelo_inurba_marseille","lat":43.31572,"lon":5.38376,"is_reserved":false,"is_disabled":false,"rental_uris":{"android":"levelo://app?vid=e1b7e638-db54-42d5-ae85-3e1337e37665","ios":"levelo://app?vid=e1b7e638-db54-42d5-ae85-3e1337e37665"},"vehicle_type_id":"4","last_reported":1685462911,"current_range_meters":17600,"station_id":"","pricing_plan_id":"free"},{"bike_id":"83191f6a-fc45-4467-b9bd-363f86ec801a","system_id":"levelo_inurba_marseille","lat":43.319935,"lon":5.381699,"is_reserved":false,"is_disabled":false,"rental_uris":{"android":"levelo://app?vid=83191f6a-fc45-4467-b9bd-363f86ec801a","ios":"levelo://app?vid=83191f6a-fc45-4467-b9bd-363f86ec801a"},"vehicle_type_id":"4","last_reported":1685462911,"current_range_meters":29600,"station_id":"ce4bhr12rcd13ifvqhpg","pricing_plan_id":"free"},{"bike_id":"6250eff7-e12c-40dd-b087-eb1c4406983c","system_id":"levelo_inurba_marseille","lat":43.313571,"lon":5.384829,"is_reserved":false,"is_disabled":false,"rental_uris":{"android":"levelo://app?vid=6250eff7-e12c-40dd-b087-eb1c4406983c","ios":"levelo://app?vid=6250eff7-e12c-40dd-b087-eb1c4406983c"},"vehicle_type_id":"4","last_reported":1685462911,"current_range_meters":0,"station_id":"ce4bgt92rcd13ifvqcf0","pricing_plan_id":"free"},{"bike_id":"33f1b4a6-caab-486f-a3ab-22a63a4e5945","system_id":"levelo_inurba_marseille","lat":43.299222,"lon":5.365554,"is_reserved":false,"is_disabled":false,"rental_uris":{"android":"levelo://app?vid=33f1b4a6-caab-486f-a3ab-22a63a4e5945","ios":"levelo://app?vid=33f1b4a6-caab-486f-a3ab-22a63a4e5945"},"vehicle_type_id":"4","last_reported":1685462911,"current_range_meters":17200,"station_id":"ce4bgm92rcd13ifvqbr0","pricing_plan_id":"free"},{"bike_id":"ab521532-e9d2-4570-bcce-b7ea3bf22cf2","system_id":"levelo_inurba_marseille","lat":43.299222,"lon":5.365554,"is_reserved":false,"is_disabled":false,"rental_uris":{"android":"levelo://app?vid=ab521532-e9d2-4570-bcce-b7ea3bf22cf2","ios":"levelo://app?vid=ab521532-e9d2-4570-bcce-b7ea3bf22cf2"},"vehicle_type_id":"4","last_reported":1685462911,"current_range_meters":25600,"station_id":"ce4bgm92rcd13ifvqbr0","pricing_plan_id":"free"},{"bike_id":"d804f3d9-b03d-484b-9279-75ad648a63fc","system_id":"levelo_inurba_marseille","lat":43.299222,"lon":5.365554,"is_reserved":false,"is_disabled":false,"rental_uris":{"android":"levelo://app?vid=d804f3d9-b03d-484b-9279-75ad648a63fc","ios":"levelo://app?vid=d804f3d9-b03d-484b-9279-75ad648a63fc"},"vehicle_type_id":"4","last_reported":1685462911,"current_range_meters":4400,"station_id":"ce4bgm92rcd13ifvqbr0","pricing_plan_id":"free"},{"bike_id":"65ff856b-61f0-42c7-90fa-2b852536ced9","system_id":"levelo_inurba_marseille","lat":43.29853,"lon":5.36286,"is_reserved":false,"is_disabled":false,"rental_uris":{"android":"levelo://app?vid=65ff856b-61f0-42c7-90fa-2b852536ced9","ios":"levelo://app?vid=65ff856b-61f0-42c7-90fa-2b852536ced9"},"vehicle_type_id":"4","last_reported":1685462911,"current_range_meters":30400,"station_id":"ce4bgpp2rcd13ifvqc3g","pricing_plan_id":"free"},{"bike_id":"d053c96b-7314-4a85-8f21-aa9891aa0438","system_id":"levelo_inurba_marseille","lat":43.29851,"lon":5.36287,"is_reserved":false,"is_disabled":false,"rental_uris":{"android":"levelo://app?vid=d053c96b-7314-4a85-8f21-aa9891aa0438","ios":"levelo://app?vid=d053c96b-7314-4a85-8f21-aa9891aa0438"},"vehicle_type_id":"4","last_reported":1685462911,"current_range_meters":24000,"station_id":"ce4bgpp2rcd13ifvqc3g","pricing_plan_id":"free"},{"bike_id":"3ee59ad1-4c6e-4922-8f54-e7b964e696dd","system_id":"levelo_inurba_marseille","lat":43.298433,"lon":5.362774,"is_reserved":false,"is_disabled":false,"rental_uris":{"android":"levelo://app?vid=3ee59ad1-4c6e-4922-8f54-e7b964e696dd","ios":"levelo://app?vid=3ee59ad1-4c6e-4922-8f54-e7b964e696dd"},"vehicle_type_id":"4","last_reported":1685462911,"current_range_meters":15200,"station_id":"ce4bgpp2rcd13ifvqc3g","pricing_plan_id":"free"},{"bike_id":"78e0be55-262c-4aa5-a9ba-e40e03af826c","system_id":"levelo_inurba_marseille","lat":43.298433,"lon":5.362774,"is_reserved":false,"is_disabled":false,"rental_uris":{"android":"levelo://app?vid=78e0be55-262c-4aa5-a9ba-e40e03af826c","ios":"levelo://app?vid=78e0be55-262c-4aa5-a9ba-e40e03af826c"},"vehicle_type_id":"4","last_reported":1685462911,"current_range_meters":28800,"station_id":"ce4bgpp2rcd13ifvqc3g","pricing_plan_id":"free"},{"bike_id":"d37229af-0a96-431f-bb18-da06db58cb13","system_id":"levelo_inurba_marseille","lat":43.298433,"lon":5.362774,"is_reserved":false,"is_disabled":false,"rental_uris":{"android":"levelo://app?vid=d37229af-0a96-431f-bb18-da06db58cb13","ios":"levelo://app?vid=d37229af-0a96-431f-bb18-da06db58cb13"},"vehicle_type_id":"4","last_reported":1685462911,"current_range_meters":0,"station_id":"ce4bgpp2rcd13ifvqc3g","pricing_plan_id":"free"},{"bike_id":"d1c96081-8264-4645-a1b6-f59027e07391","system_id":"levelo_inurba_marseille","lat":43.29913,"lon":5.37477,"is_reserved":false,"is_disabled":false,"rental_uris":{"android":"levelo://app?vid=d1c96081-8264-4645-a1b6-f59027e07391","ios":"levelo://app?vid=d1c96081-8264-4645-a1b6-f59027e07391"},"vehicle_type_id":"4","last_reported":1685462911,"current_range_meters":29600,"station_id":"ce4bgjh2rcd13ifvqbg0","pricing_plan_id":"free"},{"bike_id":"27ad1239-aa99-4ee4-b4a5-e874a32b80d0","system_id":"levelo_inurba_marseille","lat":43.328371,"lon":5.366909,"is_reserved":false,"is_disabled":false,"rental_uris":{"android":"levelo://app?vid=27ad1239-aa99-4ee4-b4a5-e874a32b80d0","ios":"levelo://app?vid=27ad1239-aa99-4ee4-b4a5-e874a32b80d0"},"vehicle_type_id":"4","last_reported":1685462911,"current_range_meters":28400,"station_id":"ce4bhs92rcd13ifvqi0g","pricing_plan_id":"free"},{"bike_id":"f61a1163-c1cd-4fb3-a64d-6024ac37ceb6","system_id":"levelo_inurba_marseille","lat":43.29709,"lon":5.36613,"is_reserved":false,"is_disabled":false,"rental_uris":{"android":"levelo://app?vid=f61a1163-c1cd-4fb3-a64d-6024ac37ceb6","ios":"levelo://app?vid=f61a1163-c1cd-4fb3-a64d-6024ac37ceb6"},"vehicle_type_id":"4","last_reported":1685462911,"current_range_meters":10800,"station_id":"","pricing_plan_id":"free"},{"bike_id":"3a4240d3-46bd-43c5-8d41-11acc6d0a9d7","system_id":"levelo_inurba_marseille","lat":43.29701,"lon":5.36603,"is_reserved":false,"is_disabled":false,"rental_uris":{"android":"levelo://app?vid=3a4240d3-46bd-43c5-8d41-11acc6d0a9d7","ios":"levelo://app?vid=3a4240d3-46bd-43c5-8d41-11acc6d0a9d7"},"vehicle_type_id":"4","last_reported":1685462911,"current_range_meters":0,"station_id":"","pricing_plan_id":"free"},{"bike_id":"da6b7338-7070-42fd-9ba1-69948ef3b07f","system_id":"levelo_inurba_marseille","lat":43.284462,"lon":5.392121,"is_reserved":false,"is_disabled":false,"rental_uris":{"android":"levelo://app?vid=da6b7338-7070-42fd-9ba1-69948ef3b07f","ios":"levelo://app?vid=da6b7338-7070-42fd-9ba1-69948ef3b07f"},"vehicle_type_id":"4","last_reported":1685462911,"current_range_meters":27200,"station_id":"ce4bhoh2rcd13ifvqh5g","pricing_plan_id":"free"},{"bike_id":"91b92a01-f52b-4107-9d86-ef4b96e3f47d","system_id":"levelo_inurba_marseille","lat":43.29646,"lon":5.37444,"is_reserved":false,"is_disabled":false,"rental_uris":{"android":"levelo://app?vid=91b92a01-f52b-4107-9d86-ef4b96e3f47d","ios":"levelo://app?vid=91b92a01-f52b-4107-9d86-ef4b96e3f47d"},"vehicle_type_id":"4","last_reported":1685462911,"current_range_meters":400,"station_id":"","pricing_plan_id":"free"},{"bike_id":"be81a464-c47b-47bc-a0a1-f35b8b1f8daa","system_id":"levelo_inurba_marseille","lat":43.317557,"lon":5.390173,"is_reserved":false,"is_disabled":false,"rental_uris":{"android":"levelo://app?vid=be81a464-c47b-47bc-a0a1-f35b8b1f8daa","ios":"levelo://app?vid=be81a464-c47b-47bc-a0a1-f35b8b1f8daa"},"vehicle_type_id":"4","last_reported":1685462911,"current_range_meters":10400,"station_id":"ce4bhqp2rcd13ifvqhng","pricing_plan_id":"free"},{"bike_id":"b884dbd7-f71c-4796-8f54-a130684fcf8e","system_id":"levelo_inurba_marseille","lat":43.296277,"lon":5.377108,"is_reserved":false,"is_disabled":false,"rental_uris":{"android":"levelo://app?vid=b884dbd7-f71c-4796-8f54-a130684fcf8e","ios":"levelo://app?vid=b884dbd7-f71c-4796-8f54-a130684fcf8e"},"vehicle_type_id":"4","last_reported":1685462911,"current_range_meters":15600,"station_id":"ce4bgi92rcd13ifvqb90","pricing_plan_id":"free"},{"bike_id":"1794b723-9774-41e9-a695-5ec03e343705","system_id":"levelo_inurba_marseille","lat":43.284219,"lon":5.3497,"is_reserved":false,"is_disabled":false,"rental_uris":{"android":"levelo://app?vid=1794b723-9774-41e9-a695-5ec03e343705","ios":"levelo://app?vid=1794b723-9774-41e9-a695-5ec03e343705"},"vehicle_type_id":"4","last_reported":1685462911,"current_range_meters":2000,"station_id":"ce4bhbh2rcd13ifvqepg","pricing_plan_id":"free"},{"bike_id":"76cafeb1-a2f9-485a-a8a1-ca6504bf8cdb","system_id":"levelo_inurba_marseille","lat":43.295279,"lon":5.375048,"is_reserved":false,"is_disabled":false,"rental_uris":{"android":"levelo://app?vid=76cafeb1-a2f9-485a-a8a1-ca6504bf8cdb","ios":"levelo://app?vid=76cafeb1-a2f9-485a-a8a1-ca6504bf8cdb"},"vehicle_type_id":"4","last_reported":1685462911,"current_range_meters":0,"station_id":"ce4bgkp2rcd13ifvqbmg","pricing_plan_id":"free"},{"bike_id":"d86a8c46-240d-427f-979b-5b78cfe3b6c1","system_id":"levelo_inurba_marseille","lat":43.32364,"lon":5.38877,"is_reserved":false,"is_disabled":false,"rental_uris":{"android":"levelo://app?vid=d86a8c46-240d-427f-979b-5b78cfe3b6c1","ios":"levelo://app?vid=d86a8c46-240d-427f-979b-5b78cfe3b6c1"},"vehicle_type_id":"4","last_reported":1685462911,"current_range_meters":21600,"station_id":"ce4bhqp2rcd13ifvqhog","pricing_plan_id":"free"},{"bike_id":"00c9b202-b5b6-4f69-8084-db1f9466ee79","system_id":"levelo_inurba_marseille","lat":43.32367,"lon":5.388836,"is_reserved":false,"is_disabled":false,"rental_uris":{"android":"levelo://app?vid=00c9b202-b5b6-4f69-8084-db1f9466ee79","ios":"levelo://app?vid=00c9b202-b5b6-4f69-8084-db1f9466ee79"},"vehicle_type_id":"4","last_reported":1685462911,"current_range_meters":21200,"station_id":"ce4bhqp2rcd13ifvqhog","pricing_plan_id":"free"},{"bike_id":"950f3a0b-8466-40bf-8f81-5f5cf1a96632","system_id":"levelo_inurba_marseille","lat":43.32367,"lon":5.388836,"is_reserved":false,"is_disabled":false,"rental_uris":{"android":"levelo://app?vid=950f3a0b-8466-40bf-8f81-5f5cf1a96632","ios":"levelo://app?vid=950f3a0b-8466-40bf-8f81-5f5cf1a96632"},"vehicle_type_id":"4","last_reported":1685462911,"current_range_meters":4400,"station_id":"ce4bhqp2rcd13ifvqhog","pricing_plan_id":"free"},{"bike_id":"f60eb627-0ea6-40e1-bca2-a3bf41710afb","system_id":"levelo_inurba_marseille","lat":43.32367,"lon":5.388836,"is_reserved":false,"is_disabled":false,"rental_uris":{"android":"levelo://app?vid=f60eb627-0ea6-40e1-bca2-a3bf41710afb","ios":"levelo://app?vid=f60eb627-0ea6-40e1-bca2-a3bf41710afb"},"vehicle_type_id":"4","last_reported":1685462911,"current_range_meters":16400,"station_id":"ce4bhqp2rcd13ifvqhog","pricing_plan_id":"free"},{"bike_id":"cd1dc179-09ef-4347-9ad1-cadc44185dee","system_id":"levelo_inurba_marseille","lat":43.32367,"lon":5.388836,"is_reserved":false,"is_disabled":false,"rental_uris":{"android":"levelo://app?vid=cd1dc179-09ef-4347-9ad1-cadc44185dee","ios":"levelo://app?vid=cd1dc179-09ef-4347-9ad1-cadc44185dee"},"vehicle_type_id":"4","last_reported":1685462911,"current_range_meters":10800,"station_id":"ce4bhqp2rcd13ifvqhog","pricing_plan_id":"free"},{"bike_id":"019e8e5f-898c-403c-bff5-44d0c77958de","system_id":"levelo_inurba_marseille","lat":43.32367,"lon":5.388836,"is_reserved":false,"is_disabled":false,"rental_uris":{"android":"levelo://app?vid=019e8e5f-898c-403c-bff5-44d0c77958de","ios":"levelo://app?vid=019e8e5f-898c-403c-bff5-44d0c77958de"},"vehicle_type_id":"4","last_reported":1685462911,"current_range_meters":23200,"station_id":"ce4bhqp2rcd13ifvqhog","pricing_plan_id":"free"},{"bike_id":"6345f779-7590-4ebf-81b7-14a3c3a95e37","system_id":"levelo_inurba_marseille","lat":43.32364,"lon":5.38907,"is_reserved":false,"is_disabled":false,"rental_uris":{"android":"levelo://app?vid=6345f779-7590-4ebf-81b7-14a3c3a95e37","ios":"levelo://app?vid=6345f779-7590-4ebf-81b7-14a3c3a95e37"},"vehicle_type_id":"4","last_reported":1685462911,"current_range_meters":800,"station_id":"ce4bhqp2rcd13ifvqhog","pricing_plan_id":"free"},{"bike_id":"32178781-55ae-4591-b2e4-af92214ebbf5","system_id":"levelo_inurba_marseille","lat":43.292749,"lon":5.368402,"is_reserved":false,"is_disabled":false,"rental_uris":{"android":"levelo://app?vid=32178781-55ae-4591-b2e4-af92214ebbf5","ios":"levelo://app?vid=32178781-55ae-4591-b2e4-af92214ebbf5"},"vehicle_type_id":"4","last_reported":1685462911,"current_range_meters":0,"station_id":"ce4bhbp2rcd13ifvqesg","pricing_plan_id":"free"},{"bike_id":"2939afe4-7778-47c0-a784-b7ee426dae7e","system_id":"levelo_inurba_marseille","lat":43.292663,"lon":5.376389,"is_reserved":false,"is_disabled":false,"rental_uris":{"android":"levelo://app?vid=2939afe4-7778-47c0-a784-b7ee426dae7e","ios":"levelo://app?vid=2939afe4-7778-47c0-a784-b7ee426dae7e"},"vehicle_type_id":"4","last_reported":1685462911,"current_range_meters":18000,"station_id":"ce4bgi12rcd13ifvqb80","pricing_plan_id":"free"},{"bike_id":"d7b8b1dc-cfc0-41cc-a3b8-08df865a3609","system_id":"levelo_inurba_marseille","lat":43.291675,"lon":5.371583,"is_reserved":false,"is_disabled":false,"rental_uris":{"android":"levelo://app?vid=d7b8b1dc-cfc0-41cc-a3b8-08df865a3609","ios":"levelo://app?vid=d7b8b1dc-cfc0-41cc-a3b8-08df865a3609"},"vehicle_type_id":"4","last_reported":1685462911,"current_range_meters":25200,"station_id":"ce4bha92rcd13ifvqeh0","pricing_plan_id":"free"},{"bike_id":"5320fe81-f2a5-4a99-a913-e90981498c57","system_id":"levelo_inurba_marseille","lat":43.313291,"lon":5.396838,"is_reserved":false,"is_disabled":false,"rental_uris":{"android":"levelo://app?vid=5320fe81-f2a5-4a99-a913-e90981498c57","ios":"levelo://app?vid=5320fe81-f2a5-4a99-a913-e90981498c57"},"vehicle_type_id":"4","last_reported":1685462911,"current_range_meters":17200,"station_id":"ce4bgvp2rcd13ifvqcu0","pricing_plan_id":"free"},{"bike_id":"054cf1a0-ccc1-4a5a-8dda-91db32d3acef","system_id":"levelo_inurba_marseille","lat":43.309038,"lon":5.396546,"is_reserved":false,"is_disabled":false,"rental_uris":{"android":"levelo://app?vid=054cf1a0-ccc1-4a5a-8dda-91db32d3acef","ios":"levelo://app?vid=054cf1a0-ccc1-4a5a-8dda-91db32d3acef"},"vehicle_type_id":"4","last_reported":1685462911,"current_range_meters":19600,"station_id":"ce4bh012rcd13ifvqcv0","pricing_plan_id":"free"},{"bike_id":"a8a0af0e-95bb-4077-9cb0-393e6d590a13","system_id":"levelo_inurba_marseille","lat":43.304188,"lon":5.412904,"is_reserved":false,"is_disabled":false,"rental_uris":{"android":"levelo://app?vid=a8a0af0e-95bb-4077-9cb0-393e6d590a13","ios":"levelo://app?vid=a8a0af0e-95bb-4077-9cb0-393e6d590a13"},"vehicle_type_id":"4","last_reported":1685462911,"current_range_meters":18400,"station_id":"ce4bhop2rcd13ifvqh8g","pricing_plan_id":"free"},{"bike_id":"022e6759-6fc5-4eb1-9a40-12ebdca4cc24","system_id":"levelo_inurba_marseille","lat":43.290624,"lon":5.359245,"is_reserved":false,"is_disabled":false,"rental_uris":{"android":"levelo://app?vid=022e6759-6fc5-4eb1-9a40-12ebdca4cc24","ios":"levelo://app?vid=022e6759-6fc5-4eb1-9a40-12ebdca4cc24"},"vehicle_type_id":"4","last_reported":1685462911,"current_range_meters":24800,"station_id":"ce4bha92rcd13ifvqeg0","pricing_plan_id":"free"},{"bike_id":"acda32e4-a4fa-44e0-8e2a-cdc623054d83","system_id":"levelo_inurba_marseille","lat":43.29432,"lon":5.38627,"is_reserved":false,"is_disabled":false,"rental_uris":{"android":"levelo://app?vid=acda32e4-a4fa-44e0-8e2a-cdc623054d83","ios":"levelo://app?vid=acda32e4-a4fa-44e0-8e2a-cdc623054d83"},"vehicle_type_id":"4","last_reported":1685462911,"current_range_meters":31200,"station_id":"ce4bh2h2rcd13ifvqdh0","pricing_plan_id":"free"},{"bike_id":"9c90f732-997d-4d5d-9d10-07485db9b2f4","system_id":"levelo_inurba_marseille","lat":43.294162,"lon":5.386292,"is_reserved":false,"is_disabled":false,"rental_uris":{"android":"levelo://app?vid=9c90f732-997d-4d5d-9d10-07485db9b2f4","ios":"levelo://app?vid=9c90f732-997d-4d5d-9d10-07485db9b2f4"},"vehicle_type_id":"4","last_reported":1685462911,"current_range_meters":24800,"station_id":"ce4bh2h2rcd13ifvqdh0","pricing_plan_id":"free"},{"bike_id":"8feecc79-645a-47a7-ad18-24e04651f75f","system_id":"levelo_inurba_marseille","lat":43.294162,"lon":5.386292,"is_reserved":false,"is_disabled":false,"rental_uris":{"android":"levelo://app?vid=8feecc79-645a-47a7-ad18-24e04651f75f","ios":"levelo://app?vid=8feecc79-645a-47a7-ad18-24e04651f75f"},"vehicle_type_id":"4","last_reported":1685462911,"current_range_meters":31200,"station_id":"ce4bh2h2rcd13ifvqdh0","pricing_plan_id":"free"},{"bike_id":"07544335-c840-41bd-a65b-ad5934449637","system_id":"levelo_inurba_marseille","lat":43.294162,"lon":5.386292,"is_reserved":false,"is_disabled":false,"rental_uris":{"android":"levelo://app?vid=07544335-c840-41bd-a65b-ad5934449637","ios":"levelo://app?vid=07544335-c840-41bd-a65b-ad5934449637"},"vehicle_type_id":"4","last_reported":1685462911,"current_range_meters":2000,"station_id":"ce4bh2h2rcd13ifvqdh0","pricing_plan_id":"free"},{"bike_id":"86161107-a1d4-4bfb-9149-f53a7ccec1ef","system_id":"levelo_inurba_marseille","lat":43.28943,"lon":5.36644,"is_reserved":false,"is_disabled":false,"rental_uris":{"android":"levelo://app?vid=86161107-a1d4-4bfb-9149-f53a7ccec1ef","ios":"levelo://app?vid=86161107-a1d4-4bfb-9149-f53a7ccec1ef"},"vehicle_type_id":"4","last_reported":1685462911,"current_range_meters":0,"station_id":"","pricing_plan_id":"free"},{"bike_id":"2b584ccb-e96b-4ead-bb68-1220154cc47b","system_id":"levelo_inurba_marseille","lat":43.294162,"lon":5.386292,"is_reserved":false,"is_disabled":false,"rental_uris":{"android":"levelo://app?vid=2b584ccb-e96b-4ead-bb68-1220154cc47b","ios":"levelo://app?vid=2b584ccb-e96b-4ead-bb68-1220154cc47b"},"vehicle_type_id":"4","last_reported":1685462911,"current_range_meters":7200,"station_id":"ce4bh2h2rcd13ifvqdh0","pricing_plan_id":"free"},{"bike_id":"34b92d6c-3cc5-4bc3-90e5-07a51e567b06","system_id":"levelo_inurba_marseille","lat":43.289184,"lon":5.366408,"is_reserved":false,"is_disabled":false,"rental_uris":{"android":"levelo://app?vid=34b92d6c-3cc5-4bc3-90e5-07a51e567b06","ios":"levelo://app?vid=34b92d6c-3cc5-4bc3-90e5-07a51e567b06"},"vehicle_type_id":"4","last_reported":1685462911,"current_range_meters":18400,"station_id":"ce4bhap2rcd13ifvqek0","pricing_plan_id":"free"},{"bike_id":"e49c1da7-97bb-4558-8c80-35a9aa0087c7","system_id":"levelo_inurba_marseille","lat":43.289468,"lon":5.363719,"is_reserved":false,"is_disabled":false,"rental_uris":{"android":"levelo://app?vid=e49c1da7-97bb-4558-8c80-35a9aa0087c7","ios":"levelo://app?vid=e49c1da7-97bb-4558-8c80-35a9aa0087c7"},"vehicle_type_id":"4","last_reported":1685462911,"current_range_meters":25600,"station_id":"ce4bhc92rcd13ifvqetg","pricing_plan_id":"free"},{"bike_id":"010722c9-09f9-4eb3-a9b2-b5d732a8b3f8","system_id":"levelo_inurba_marseille","lat":43.29004,"lon":5.376,"is_reserved":false,"is_disabled":false,"rental_uris":{"android":"levelo://app?vid=010722c9-09f9-4eb3-a9b2-b5d732a8b3f8","ios":"levelo://app?vid=010722c9-09f9-4eb3-a9b2-b5d732a8b3f8"},"vehicle_type_id":"4","last_reported":1685462911,"current_range_meters":23600,"station_id":"","pricing_plan_id":"free"},{"bike_id":"fc3299c6-1d72-487d-ba07-6cfc0fb311dc","system_id":"levelo_inurba_marseille","lat":43.3304,"lon":5.38916,"is_reserved":false,"is_disabled":false,"rental_uris":{"android":"levelo://app?vid=fc3299c6-1d72-487d-ba07-6cfc0fb311dc","ios":"levelo://app?vid=fc3299c6-1d72-487d-ba07-6cfc0fb311dc"},"vehicle_type_id":"4","last_reported":1685462911,"current_range_meters":24400,"station_id":"ce4bhr92rcd13ifvqhrg","pricing_plan_id":"free"},{"bike_id":"69f87366-090d-4bc0-9758-0f42d6ed45ce","system_id":"levelo_inurba_marseille","lat":43.33041,"lon":5.38917,"is_reserved":false,"is_disabled":false,"rental_uris":{"android":"levelo://app?vid=69f87366-090d-4bc0-9758-0f42d6ed45ce","ios":"levelo://app?vid=69f87366-090d-4bc0-9758-0f42d6ed45ce"},"vehicle_type_id":"4","last_reported":1685462911,"current_range_meters":25200,"station_id":"ce4bhr92rcd13ifvqhrg","pricing_plan_id":"free"},{"bike_id":"9fda4b32-966e-4aba-96ef-41f727f15bba","system_id":"levelo_inurba_marseille","lat":43.33041,"lon":5.38918,"is_reserved":false,"is_disabled":false,"rental_uris":{"android":"levelo://app?vid=9fda4b32-966e-4aba-96ef-41f727f15bba","ios":"levelo://app?vid=9fda4b32-966e-4aba-96ef-41f727f15bba"},"vehicle_type_id":"4","last_reported":1685462911,"current_range_meters":26400,"station_id":"ce4bhr92rcd13ifvqhrg","pricing_plan_id":"free"},{"bike_id":"3a821cde-8ba1-4973-b841-b80ab4be59fa","system_id":"levelo_inurba_marseille","lat":43.33042,"lon":5.38917,"is_reserved":false,"is_disabled":false,"rental_uris":{"android":"levelo://app?vid=3a821cde-8ba1-4973-b841-b80ab4be59fa","ios":"levelo://app?vid=3a821cde-8ba1-4973-b841-b80ab4be59fa"},"vehicle_type_id":"4","last_reported":1685462911,"current_range_meters":29200,"station_id":"ce4bhr92rcd13ifvqhrg","pricing_plan_id":"free"},{"bike_id":"0f131166-1ac4-462b-95af-b6eb64cf7f18","system_id":"levelo_inurba_marseille","lat":43.33041,"lon":5.3892,"is_reserved":false,"is_disabled":false,"rental_uris":{"android":"levelo://app?vid=0f131166-1ac4-462b-95af-b6eb64cf7f18","ios":"levelo://app?vid=0f131166-1ac4-462b-95af-b6eb64cf7f18"},"vehicle_type_id":"4","last_reported":1685462911,"current_range_meters":25200,"station_id":"ce4bhr92rcd13ifvqhrg","pricing_plan_id":"free"},{"bike_id":"ab12f796-137d-4e28-95ee-ac5af904c7f8","system_id":"levelo_inurba_marseille","lat":43.33042,"lon":5.38919,"is_reserved":false,"is_disabled":false,"rental_uris":{"android":"levelo://app?vid=ab12f796-137d-4e28-95ee-ac5af904c7f8","ios":"levelo://app?vid=ab12f796-137d-4e28-95ee-ac5af904c7f8"},"vehicle_type_id":"4","last_reported":1685462911,"current_range_meters":26000,"station_id":"ce4bhr92rcd13ifvqhrg","pricing_plan_id":"free"},{"bike_id":"4f7803a6-3392-44b5-aa81-dde8a03de0fc","system_id":"levelo_inurba_marseille","lat":43.33041,"lon":5.38922,"is_reserved":false,"is_disabled":false,"rental_uris":{"android":"levelo://app?vid=4f7803a6-3392-44b5-aa81-dde8a03de0fc","ios":"levelo://app?vid=4f7803a6-3392-44b5-aa81-dde8a03de0fc"},"vehicle_type_id":"4","last_reported":1685462911,"current_range_meters":16800,"station_id":"ce4bhr92rcd13ifvqhrg","pricing_plan_id":"free"},{"bike_id":"effe15f2-1a16-47bb-a775-fe4e9ecc4298","system_id":"levelo_inurba_marseille","lat":43.290104,"lon":5.356111,"is_reserved":false,"is_disabled":false,"rental_uris":{"android":"levelo://app?vid=effe15f2-1a16-47bb-a775-fe4e9ecc4298","ios":"levelo://app?vid=effe15f2-1a16-47bb-a775-fe4e9ecc4298"},"vehicle_type_id":"4","last_reported":1685462911,"current_range_meters":31200,"station_id":"ce4bhb92rcd13ifvqen0","pricing_plan_id":"free"},{"bike_id":"e17b760b-3b7c-4e64-a8af-9d845037c413","system_id":"levelo_inurba_marseille","lat":43.33045,"lon":5.38917,"is_reserved":false,"is_disabled":false,"rental_uris":{"android":"levelo://app?vid=e17b760b-3b7c-4e64-a8af-9d845037c413","ios":"levelo://app?vid=e17b760b-3b7c-4e64-a8af-9d845037c413"},"vehicle_type_id":"4","last_reported":1685462911,"current_range_meters":28400,"station_id":"ce4bhr92rcd13ifvqhrg","pricing_plan_id":"free"},{"bike_id":"8a189623-63fb-4c2a-846b-aa33f34b5cfd","system_id":"levelo_inurba_marseille","lat":43.33043,"lon":5.38921,"is_reserved":false,"is_disabled":false,"rental_uris":{"android":"levelo://app?vid=8a189623-63fb-4c2a-846b-aa33f34b5cfd","ios":"levelo://app?vid=8a189623-63fb-4c2a-846b-aa33f34b5cfd"},"vehicle_type_id":"4","last_reported":1685462911,"current_range_meters":26400,"station_id":"ce4bhr92rcd13ifvqhrg","pricing_plan_id":"free"},{"bike_id":"60420cf4-3b82-4648-be0e-9089e403318d","system_id":"levelo_inurba_marseille","lat":43.33046,"lon":5.38919,"is_reserved":false,"is_disabled":false,"rental_uris":{"android":"levelo://app?vid=60420cf4-3b82-4648-be0e-9089e403318d","ios":"levelo://app?vid=60420cf4-3b82-4648-be0e-9089e403318d"},"vehicle_type_id":"4","last_reported":1685462911,"current_range_meters":22400,"station_id":"ce4bhr92rcd13ifvqhrg","pricing_plan_id":"free"},{"bike_id":"214cd52b-86dc-4d7c-b8c8-656e445142b6","system_id":"levelo_inurba_marseille","lat":43.330454,"lon":5.389224,"is_reserved":false,"is_disabled":false,"rental_uris":{"android":"levelo://app?vid=214cd52b-86dc-4d7c-b8c8-656e445142b6","ios":"levelo://app?vid=214cd52b-86dc-4d7c-b8c8-656e445142b6"},"vehicle_type_id":"4","last_reported":1685462911,"current_range_meters":29600,"station_id":"","pricing_plan_id":"free"},{"bike_id":"be115698-ed9e-4818-8cb1-06cf0878778d","system_id":"levelo_inurba_marseille","lat":43.291024,"lon":5.381386,"is_reserved":false,"is_disabled":false,"rental_uris":{"android":"levelo://app?vid=be115698-ed9e-4818-8cb1-06cf0878778d","ios":"levelo://app?vid=be115698-ed9e-4818-8cb1-06cf0878778d"},"vehicle_type_id":"4","last_reported":1685462911,"current_range_meters":2800,"station_id":"","pricing_plan_id":"free"},{"bike_id":"ef39ee33-2a0a-44c7-9dfb-7653edf4e631","system_id":"levelo_inurba_marseille","lat":43.290995,"lon":5.381361,"is_reserved":false,"is_disabled":false,"rental_uris":{"android":"levelo://app?vid=ef39ee33-2a0a-44c7-9dfb-7653edf4e631","ios":"levelo://app?vid=ef39ee33-2a0a-44c7-9dfb-7653edf4e631"},"vehicle_type_id":"4","last_reported":1685462911,"current_range_meters":0,"station_id":"ce4bh512rcd13ifvqe2g","pricing_plan_id":"free"},{"bike_id":"2bdb0925-e10b-4f42-81d6-0119877621fd","system_id":"levelo_inurba_marseille","lat":43.31727,"lon":5.39974,"is_reserved":false,"is_disabled":false,"rental_uris":{"android":"levelo://app?vid=2bdb0925-e10b-4f42-81d6-0119877621fd","ios":"levelo://app?vid=2bdb0925-e10b-4f42-81d6-0119877621fd"},"vehicle_type_id":"4","last_reported":1685462911,"current_range_meters":10000,"station_id":"","pricing_plan_id":"free"},{"bike_id":"b84777ac-3709-4ef2-9e07-5304ff07418e","system_id":"levelo_inurba_marseille","lat":43.28853,"lon":5.35862,"is_reserved":false,"is_disabled":false,"rental_uris":{"android":"levelo://app?vid=b84777ac-3709-4ef2-9e07-5304ff07418e","ios":"levelo://app?vid=b84777ac-3709-4ef2-9e07-5304ff07418e"},"vehicle_type_id":"4","last_reported":1685462911,"current_range_meters":7200,"station_id":"","pricing_plan_id":"free"},{"bike_id":"141c14ea-594b-43ee-894e-8c44af1dcd73","system_id":"levelo_inurba_marseille","lat":43.33741,"lon":5.37457,"is_reserved":false,"is_disabled":false,"rental_uris":{"android":"levelo://app?vid=141c14ea-594b-43ee-894e-8c44af1dcd73","ios":"levelo://app?vid=141c14ea-594b-43ee-894e-8c44af1dcd73"},"vehicle_type_id":"4","last_reported":1685462911,"current_range_meters":28800,"station_id":"","pricing_plan_id":"free"},{"bike_id":"60365b11-ef18-42d8-96a4-e4f2839d6bb5","system_id":"levelo_inurba_marseille","lat":43.3375,"lon":5.37449,"is_reserved":false,"is_disabled":false,"rental_uris":{"android":"levelo://app?vid=60365b11-ef18-42d8-96a4-e4f2839d6bb5","ios":"levelo://app?vid=60365b11-ef18-42d8-96a4-e4f2839d6bb5"},"vehicle_type_id":"4","last_reported":1685462911,"current_range_meters":30800,"station_id":"","pricing_plan_id":"free"},{"bike_id":"556c6db1-2600-4c2b-9521-aae8453517c1","system_id":"levelo_inurba_marseille","lat":43.33754,"lon":5.37439,"is_reserved":false,"is_disabled":false,"rental_uris":{"android":"levelo://app?vid=556c6db1-2600-4c2b-9521-aae8453517c1","ios":"levelo://app?vid=556c6db1-2600-4c2b-9521-aae8453517c1"},"vehicle_type_id":"4","last_reported":1685462911,"current_range_meters":5200,"station_id":"","pricing_plan_id":"free"},{"bike_id":"61c719db-daae-4f13-b259-d05f297b4a6f","system_id":"levelo_inurba_marseille","lat":43.33758,"lon":5.37468,"is_reserved":false,"is_disabled":false,"rental_uris":{"android":"levelo://app?vid=61c719db-daae-4f13-b259-d05f297b4a6f","ios":"levelo://app?vid=61c719db-daae-4f13-b259-d05f297b4a6f"},"vehicle_type_id":"4","last_reported":1685462911,"current_range_meters":29600,"station_id":"","pricing_plan_id":"free"},{"bike_id":"6d678481-0e0b-436a-aa94-9d12fa2c91f5","system_id":"levelo_inurba_marseille","lat":43.33773,"lon":5.3742,"is_reserved":false,"is_disabled":false,"rental_uris":{"android":"levelo://app?vid=6d678481-0e0b-436a-aa94-9d12fa2c91f5","ios":"levelo://app?vid=6d678481-0e0b-436a-aa94-9d12fa2c91f5"},"vehicle_type_id":"4","last_reported":1685462911,"current_range_meters":30400,"station_id":"","pricing_plan_id":"free"},{"bike_id":"033f8772-346f-4ab3-a55c-0b484b54ac69","system_id":"levelo_inurba_marseille","lat":43.286593,"lon":5.363346,"is_reserved":false,"is_disabled":false,"rental_uris":{"android":"levelo://app?vid=033f8772-346f-4ab3-a55c-0b484b54ac69","ios":"levelo://app?vid=033f8772-346f-4ab3-a55c-0b484b54ac69"},"vehicle_type_id":"4","last_reported":1685462911,"current_range_meters":17200,"station_id":"ce4bhah2rcd13ifvqej0","pricing_plan_id":"free"},{"bike_id":"fee73ee5-9133-4308-9863-f7d7df82b526","system_id":"levelo_inurba_marseille","lat":43.287184,"lon":5.37937,"is_reserved":false,"is_disabled":false,"rental_uris":{"android":"levelo://app?vid=fee73ee5-9133-4308-9863-f7d7df82b526","ios":"levelo://app?vid=fee73ee5-9133-4308-9863-f7d7df82b526"},"vehicle_type_id":"4","last_reported":1685462911,"current_range_meters":29600,"station_id":"ce4bh9p2rcd13ifvqec0","pricing_plan_id":"free"},{"bike_id":"3c1bfe65-7b05-4ae5-855e-532353c5f240","system_id":"levelo_inurba_marseille","lat":43.295194,"lon":5.39397,"is_reserved":false,"is_disabled":false,"rental_uris":{"android":"levelo://app?vid=3c1bfe65-7b05-4ae5-855e-532353c5f240","ios":"levelo://app?vid=3c1bfe65-7b05-4ae5-855e-532353c5f240"},"vehicle_type_id":"4","last_reported":1685462911,"current_range_meters":12400,"station_id":"ce4bh292rcd13ifvqdf0","pricing_plan_id":"free"},{"bike_id":"1a116778-cec3-4b8c-bc6d-575c897a2375","system_id":"levelo_inurba_marseille","lat":43.295194,"lon":5.39397,"is_reserved":false,"is_disabled":false,"rental_uris":{"android":"levelo://app?vid=1a116778-cec3-4b8c-bc6d-575c897a2375","ios":"levelo://app?vid=1a116778-cec3-4b8c-bc6d-575c897a2375"},"vehicle_type_id":"4","last_reported":1685462911,"current_range_meters":19200,"station_id":"ce4bh292rcd13ifvqdf0","pricing_plan_id":"free"},{"bike_id":"5f6fdcd6-053d-4892-b151-9dc1b1e7202b","system_id":"levelo_inurba_marseille","lat":43.302759,"lon":5.400793,"is_reserved":false,"is_disabled":false,"rental_uris":{"android":"levelo://app?vid=5f6fdcd6-053d-4892-b151-9dc1b1e7202b","ios":"levelo://app?vid=5f6fdcd6-053d-4892-b151-9dc1b1e7202b"},"vehicle_type_id":"4","last_reported":1685462911,"current_range_meters":6000,"station_id":"ce4bgvh2rcd13ifvqcs0","pricing_plan_id":"free"},{"bike_id":"b3a8242f-312e-431b-b64a-efa71e5e6af3","system_id":"levelo_inurba_marseille","lat":43.302759,"lon":5.400793,"is_reserved":false,"is_disabled":false,"rental_uris":{"android":"levelo://app?vid=b3a8242f-312e-431b-b64a-efa71e5e6af3","ios":"levelo://app?vid=b3a8242f-312e-431b-b64a-efa71e5e6af3"},"vehicle_type_id":"4","last_reported":1685462911,"current_range_meters":18800,"station_id":"ce4bgvh2rcd13ifvqcs0","pricing_plan_id":"free"},{"bike_id":"e116be26-a53c-490e-8ff0-9b216b7e7e02","system_id":"levelo_inurba_marseille","lat":43.286039,"lon":5.370681,"is_reserved":false,"is_disabled":false,"rental_uris":{"android":"levelo://app?vid=e116be26-a53c-490e-8ff0-9b216b7e7e02","ios":"levelo://app?vid=e116be26-a53c-490e-8ff0-9b216b7e7e02"},"vehicle_type_id":"4","last_reported":1685462911,"current_range_meters":11600,"station_id":"ce4bht12rcd13ifvqi60","pricing_plan_id":"free"},{"bike_id":"afc20050-76df-4a10-ad35-1077c1c0666f","system_id":"levelo_inurba_marseille","lat":43.28605,"lon":5.37064,"is_reserved":false,"is_disabled":false,"rental_uris":{"android":"levelo://app?vid=afc20050-76df-4a10-ad35-1077c1c0666f","ios":"levelo://app?vid=afc20050-76df-4a10-ad35-1077c1c0666f"},"vehicle_type_id":"4","last_reported":1685462911,"current_range_meters":20400,"station_id":"ce4bht12rcd13ifvqi60","pricing_plan_id":"free"},{"bike_id":"69961c8e-053b-41e1-b868-fae83661ebff","system_id":"levelo_inurba_marseille","lat":43.291994,"lon":5.392907,"is_reserved":false,"is_disabled":false,"rental_uris":{"android":"levelo://app?vid=69961c8e-053b-41e1-b868-fae83661ebff","ios":"levelo://app?vid=69961c8e-053b-41e1-b868-fae83661ebff"},"vehicle_type_id":"4","last_reported":1685462911,"current_range_meters":28000,"station_id":"ce4bh192rcd13ifvqdd0","pricing_plan_id":"free"},{"bike_id":"6d648786-3a3c-4592-b01f-c518f24b3132","system_id":"levelo_inurba_marseille","lat":43.291994,"lon":5.392907,"is_reserved":false,"is_disabled":false,"rental_uris":{"android":"levelo://app?vid=6d648786-3a3c-4592-b01f-c518f24b3132","ios":"levelo://app?vid=6d648786-3a3c-4592-b01f-c518f24b3132"},"vehicle_type_id":"4","last_reported":1685462911,"current_range_meters":22800,"station_id":"ce4bh192rcd13ifvqdd0","pricing_plan_id":"free"},{"bike_id":"f8ed514f-b73e-439c-8783-0306ab4c690f","system_id":"levelo_inurba_marseille","lat":43.31747,"lon":5.40605,"is_reserved":false,"is_disabled":false,"rental_uris":{"android":"levelo://app?vid=f8ed514f-b73e-439c-8783-0306ab4c690f","ios":"levelo://app?vid=f8ed514f-b73e-439c-8783-0306ab4c690f"},"vehicle_type_id":"4","last_reported":1685462911,"current_range_meters":14800,"station_id":"","pricing_plan_id":"free"},{"bike_id":"fa391578-054f-4bf0-bc3c-46ea4ce3dc94","system_id":"levelo_inurba_marseille","lat":43.285856,"lon":5.350771,"is_reserved":false,"is_disabled":false,"rental_uris":{"android":"levelo://app?vid=fa391578-054f-4bf0-bc3c-46ea4ce3dc94","ios":"levelo://app?vid=fa391578-054f-4bf0-bc3c-46ea4ce3dc94"},"vehicle_type_id":"4","last_reported":1685462911,"current_range_meters":4000,"station_id":"ce4bhch2rcd13ifvqeug","pricing_plan_id":"free"},{"bike_id":"ff011edf-6f25-4841-9a33-9aeb4df8ab12","system_id":"levelo_inurba_marseille","lat":43.285856,"lon":5.350771,"is_reserved":false,"is_disabled":false,"rental_uris":{"android":"levelo://app?vid=ff011edf-6f25-4841-9a33-9aeb4df8ab12","ios":"levelo://app?vid=ff011edf-6f25-4841-9a33-9aeb4df8ab12"},"vehicle_type_id":"4","last_reported":1685462911,"current_range_meters":10000,"station_id":"ce4bhch2rcd13ifvqeug","pricing_plan_id":"free"},{"bike_id":"fe07785e-ae54-4547-9092-9aa7254a523c","system_id":"levelo_inurba_marseille","lat":43.285848,"lon":5.350787,"is_reserved":false,"is_disabled":false,"rental_uris":{"android":"levelo://app?vid=fe07785e-ae54-4547-9092-9aa7254a523c","ios":"levelo://app?vid=fe07785e-ae54-4547-9092-9aa7254a523c"},"vehicle_type_id":"4","last_reported":1685462911,"current_range_meters":4400,"station_id":"ce4bhch2rcd13ifvqeug","pricing_plan_id":"free"},{"bike_id":"17339b0b-b392-4c44-9c8f-0d1d101aa6d3","system_id":"levelo_inurba_marseille","lat":43.285856,"lon":5.350771,"is_reserved":false,"is_disabled":false,"rental_uris":{"android":"levelo://app?vid=17339b0b-b392-4c44-9c8f-0d1d101aa6d3","ios":"levelo://app?vid=17339b0b-b392-4c44-9c8f-0d1d101aa6d3"},"vehicle_type_id":"4","last_reported":1685462911,"current_range_meters":3200,"station_id":"ce4bhch2rcd13ifvqeug","pricing_plan_id":"free"},{"bike_id":"9b61b4d2-5598-4b3a-9af3-1bc73533446a","system_id":"levelo_inurba_marseille","lat":43.28615,"lon":5.35104,"is_reserved":false,"is_disabled":false,"rental_uris":{"android":"levelo://app?vid=9b61b4d2-5598-4b3a-9af3-1bc73533446a","ios":"levelo://app?vid=9b61b4d2-5598-4b3a-9af3-1bc73533446a"},"vehicle_type_id":"4","last_reported":1685462911,"current_range_meters":9600,"station_id":"","pricing_plan_id":"free"},{"bike_id":"698aa1ed-7117-4230-8c46-e96c942d4159","system_id":"levelo_inurba_marseille","lat":43.295713,"lon":5.399639,"is_reserved":false,"is_disabled":false,"rental_uris":{"android":"levelo://app?vid=698aa1ed-7117-4230-8c46-e96c942d4159","ios":"levelo://app?vid=698aa1ed-7117-4230-8c46-e96c942d4159"},"vehicle_type_id":"4","last_reported":1685462911,"current_range_meters":16800,"station_id":"ce4bh312rcd13ifvqdj0","pricing_plan_id":"free"},{"bike_id":"01d508d8-8fdf-4f03-9069-bab0ff3fbf27","system_id":"levelo_inurba_marseille","lat":43.295713,"lon":5.399639,"is_reserved":false,"is_disabled":false,"rental_uris":{"android":"levelo://app?vid=01d508d8-8fdf-4f03-9069-bab0ff3fbf27","ios":"levelo://app?vid=01d508d8-8fdf-4f03-9069-bab0ff3fbf27"},"vehicle_type_id":"4","last_reported":1685462911,"current_range_meters":1200,"station_id":"ce4bh312rcd13ifvqdj0","pricing_plan_id":"free"},{"bike_id":"f595c8e3-9127-4d90-8fe5-c29ef38a5749","system_id":"levelo_inurba_marseille","lat":43.32343,"lon":5.40619,"is_reserved":false,"is_disabled":false,"rental_uris":{"android":"levelo://app?vid=f595c8e3-9127-4d90-8fe5-c29ef38a5749","ios":"levelo://app?vid=f595c8e3-9127-4d90-8fe5-c29ef38a5749"},"vehicle_type_id":"4","last_reported":1685462911,"current_range_meters":10400,"station_id":"ce4bhq92rcd13ifvqhjg","pricing_plan_id":"free"},{"bike_id":"ee7a18c0-d567-4ea5-8971-7d508e32bc78","system_id":"levelo_inurba_marseille","lat":43.323464,"lon":5.406297,"is_reserved":false,"is_disabled":false,"rental_uris":{"android":"levelo://app?vid=ee7a18c0-d567-4ea5-8971-7d508e32bc78","ios":"levelo://app?vid=ee7a18c0-d567-4ea5-8971-7d508e32bc78"},"vehicle_type_id":"4","last_reported":1685462911,"current_range_meters":21200,"station_id":"ce4bhq92rcd13ifvqhjg","pricing_plan_id":"free"},{"bike_id":"e16cc4a7-186d-4252-8ccf-36256aa876c9","system_id":"levelo_inurba_marseille","lat":43.288501,"lon":5.393087,"is_reserved":false,"is_disabled":false,"rental_uris":{"android":"levelo://app?vid=e16cc4a7-186d-4252-8ccf-36256aa876c9","ios":"levelo://app?vid=e16cc4a7-186d-4252-8ccf-36256aa876c9"},"vehicle_type_id":"4","last_reported":1685462911,"current_range_meters":1200,"station_id":"ce4bh2p2rcd13ifvqdi0","pricing_plan_id":"free"},{"bike_id":"12eff27e-52ef-42d3-93d1-10efad704218","system_id":"levelo_inurba_marseille","lat":43.288501,"lon":5.393087,"is_reserved":false,"is_disabled":false,"rental_uris":{"android":"levelo://app?vid=12eff27e-52ef-42d3-93d1-10efad704218","ios":"levelo://app?vid=12eff27e-52ef-42d3-93d1-10efad704218"},"vehicle_type_id":"4","last_reported":1685462911,"current_range_meters":18400,"station_id":"ce4bh2p2rcd13ifvqdi0","pricing_plan_id":"free"},{"bike_id":"72b03980-91c4-4665-8b96-dd08c9c1e79e","system_id":"levelo_inurba_marseille","lat":43.28423,"lon":5.34991,"is_reserved":false,"is_disabled":false,"rental_uris":{"android":"levelo://app?vid=72b03980-91c4-4665-8b96-dd08c9c1e79e","ios":"levelo://app?vid=72b03980-91c4-4665-8b96-dd08c9c1e79e"},"vehicle_type_id":"4","last_reported":1685462911,"current_range_meters":6800,"station_id":"ce4bhbh2rcd13ifvqepg","pricing_plan_id":"free"},{"bike_id":"5407a305-8164-4149-b429-bf3a21d08092","system_id":"levelo_inurba_marseille","lat":43.284219,"lon":5.3497,"is_reserved":false,"is_disabled":false,"rental_uris":{"android":"levelo://app?vid=5407a305-8164-4149-b429-bf3a21d08092","ios":"levelo://app?vid=5407a305-8164-4149-b429-bf3a21d08092"},"vehicle_type_id":"4","last_reported":1685462911,"current_range_meters":17200,"station_id":"ce4bhbh2rcd13ifvqepg","pricing_plan_id":"free"},{"bike_id":"47ec9bf8-2ea1-4eb9-a960-10b634e8847e","system_id":"levelo_inurba_marseille","lat":43.284217,"lon":5.349697,"is_reserved":false,"is_disabled":false,"rental_uris":{"android":"levelo://app?vid=47ec9bf8-2ea1-4eb9-a960-10b634e8847e","ios":"levelo://app?vid=47ec9bf8-2ea1-4eb9-a960-10b634e8847e"},"vehicle_type_id":"4","last_reported":1685462911,"current_range_meters":16000,"station_id":"ce4bhbh2rcd13ifvqepg","pricing_plan_id":"free"},{"bike_id":"873f0add-fc59-489e-a1d7-8fa386e52bc2","system_id":"levelo_inurba_marseille","lat":43.284217,"lon":5.349697,"is_reserved":false,"is_disabled":false,"rental_uris":{"android":"levelo://app?vid=873f0add-fc59-489e-a1d7-8fa386e52bc2","ios":"levelo://app?vid=873f0add-fc59-489e-a1d7-8fa386e52bc2"},"vehicle_type_id":"4","last_reported":1685462911,"current_range_meters":13200,"station_id":"ce4bhbh2rcd13ifvqepg","pricing_plan_id":"free"},{"bike_id":"ef3c1c0e-22cb-4726-ab50-73b0a148f19d","system_id":"levelo_inurba_marseille","lat":43.28172,"lon":5.37475,"is_reserved":false,"is_disabled":false,"rental_uris":{"android":"levelo://app?vid=ef3c1c0e-22cb-4726-ab50-73b0a148f19d","ios":"levelo://app?vid=ef3c1c0e-22cb-4726-ab50-73b0a148f19d"},"vehicle_type_id":"4","last_reported":1685462911,"current_range_meters":400,"station_id":"","pricing_plan_id":"free"},{"bike_id":"3ea6a5bb-0188-463c-a46b-7125cc794acb","system_id":"levelo_inurba_marseille","lat":43.292724,"lon":5.401131,"is_reserved":false,"is_disabled":false,"rental_uris":{"android":"levelo://app?vid=3ea6a5bb-0188-463c-a46b-7125cc794acb","ios":"levelo://app?vid=3ea6a5bb-0188-463c-a46b-7125cc794acb"},"vehicle_type_id":"4","last_reported":1685462911,"current_range_meters":29600,"station_id":"ce4bh312rcd13ifvqdk0","pricing_plan_id":"free"},{"bike_id":"61e91549-e8e8-4306-b4aa-d927c016c1e6","system_id":"levelo_inurba_marseille","lat":43.292724,"lon":5.401131,"is_reserved":false,"is_disabled":false,"rental_uris":{"android":"levelo://app?vid=61e91549-e8e8-4306-b4aa-d927c016c1e6","ios":"levelo://app?vid=61e91549-e8e8-4306-b4aa-d927c016c1e6"},"vehicle_type_id":"4","last_reported":1685462911,"current_range_meters":19200,"station_id":"ce4bh312rcd13ifvqdk0","pricing_plan_id":"free"},{"bike_id":"ee131a57-1673-4001-a956-acf1d581faf5","system_id":"levelo_inurba_marseille","lat":43.292724,"lon":5.401131,"is_reserved":false,"is_disabled":false,"rental_uris":{"android":"levelo://app?vid=ee131a57-1673-4001-a956-acf1d581faf5","ios":"levelo://app?vid=ee131a57-1673-4001-a956-acf1d581faf5"},"vehicle_type_id":"4","last_reported":1685462911,"current_range_meters":29200,"station_id":"ce4bh312rcd13ifvqdk0","pricing_plan_id":"free"},{"bike_id":"dee6b3e8-44ac-491d-ac71-dfc09c036a30","system_id":"levelo_inurba_marseille","lat":43.292724,"lon":5.401131,"is_reserved":false,"is_disabled":false,"rental_uris":{"android":"levelo://app?vid=dee6b3e8-44ac-491d-ac71-dfc09c036a30","ios":"levelo://app?vid=dee6b3e8-44ac-491d-ac71-dfc09c036a30"},"vehicle_type_id":"4","last_reported":1685462911,"current_range_meters":28000,"station_id":"ce4bh312rcd13ifvqdk0","pricing_plan_id":"free"},{"bike_id":"dac62806-e6be-40e6-a997-bd8b6c44433b","system_id":"levelo_inurba_marseille","lat":43.292724,"lon":5.401131,"is_reserved":false,"is_disabled":false,"rental_uris":{"android":"levelo://app?vid=dac62806-e6be-40e6-a997-bd8b6c44433b","ios":"levelo://app?vid=dac62806-e6be-40e6-a997-bd8b6c44433b"},"vehicle_type_id":"4","last_reported":1685462911,"current_range_meters":14000,"station_id":"ce4bh312rcd13ifvqdk0","pricing_plan_id":"free"},{"bike_id":"ddcfe8f9-be96-44b5-93c4-7d2a848af3e9","system_id":"levelo_inurba_marseille","lat":43.292791,"lon":5.401125,"is_reserved":false,"is_disabled":false,"rental_uris":{"android":"levelo://app?vid=ddcfe8f9-be96-44b5-93c4-7d2a848af3e9","ios":"levelo://app?vid=ddcfe8f9-be96-44b5-93c4-7d2a848af3e9"},"vehicle_type_id":"4","last_reported":1685462911,"current_range_meters":30400,"station_id":"","pricing_plan_id":"free"},{"bike_id":"71ce7678-7cf2-4702-b9d8-fbc94fc77c4e","system_id":"levelo_inurba_marseille","lat":43.29276,"lon":5.40122,"is_reserved":false,"is_disabled":false,"rental_uris":{"android":"levelo://app?vid=71ce7678-7cf2-4702-b9d8-fbc94fc77c4e","ios":"levelo://app?vid=71ce7678-7cf2-4702-b9d8-fbc94fc77c4e"},"vehicle_type_id":"4","last_reported":1685462911,"current_range_meters":21200,"station_id":"ce4bh312rcd13ifvqdk0","pricing_plan_id":"free"},{"bike_id":"99c7c67b-1031-491c-af10-80412f7256ff","system_id":"levelo_inurba_marseille","lat":43.29275,"lon":5.4013,"is_reserved":false,"is_disabled":false,"rental_uris":{"android":"levelo://app?vid=99c7c67b-1031-491c-af10-80412f7256ff","ios":"levelo://app?vid=99c7c67b-1031-491c-af10-80412f7256ff"},"vehicle_type_id":"4","last_reported":1685462911,"current_range_meters":24800,"station_id":"ce4bh312rcd13ifvqdk0","pricing_plan_id":"free"},{"bike_id":"c63b5c03-65e1-48f8-90ba-214392325bc2","system_id":"levelo_inurba_marseille","lat":43.28272,"lon":5.35074,"is_reserved":false,"is_disabled":false,"rental_uris":{"android":"levelo://app?vid=c63b5c03-65e1-48f8-90ba-214392325bc2","ios":"levelo://app?vid=c63b5c03-65e1-48f8-90ba-214392325bc2"},"vehicle_type_id":"4","last_reported":1685462911,"current_range_meters":14000,"station_id":"ce4bhbp2rcd13ifvqerg","pricing_plan_id":"free"},{"bike_id":"2748d0b4-0bc0-4c6f-8da1-dad205839257","system_id":"levelo_inurba_marseille","lat":43.29269,"lon":5.40167,"is_reserved":false,"is_disabled":false,"rental_uris":{"android":"levelo://app?vid=2748d0b4-0bc0-4c6f-8da1-dad205839257","ios":"levelo://app?vid=2748d0b4-0bc0-4c6f-8da1-dad205839257"},"vehicle_type_id":"4","last_reported":1685462911,"current_range_meters":31200,"station_id":"","pricing_plan_id":"free"},{"bike_id":"5c69d11f-e723-42fd-8cb3-6e8e3ca2283b","system_id":"levelo_inurba_marseille","lat":43.282754,"lon":5.350519,"is_reserved":false,"is_disabled":false,"rental_uris":{"android":"levelo://app?vid=5c69d11f-e723-42fd-8cb3-6e8e3ca2283b","ios":"levelo://app?vid=5c69d11f-e723-42fd-8cb3-6e8e3ca2283b"},"vehicle_type_id":"4","last_reported":1685462911,"current_range_meters":18800,"station_id":"ce4bhbp2rcd13ifvqerg","pricing_plan_id":"free"},{"bike_id":"e631b254-1ef6-49e0-be52-8216afc70b18","system_id":"levelo_inurba_marseille","lat":43.28267,"lon":5.35076,"is_reserved":false,"is_disabled":false,"rental_uris":{"android":"levelo://app?vid=e631b254-1ef6-49e0-be52-8216afc70b18","ios":"levelo://app?vid=e631b254-1ef6-49e0-be52-8216afc70b18"},"vehicle_type_id":"4","last_reported":1685462911,"current_range_meters":0,"station_id":"ce4bhbp2rcd13ifvqerg","pricing_plan_id":"free"},{"bike_id":"3b787083-7bc9-40fe-ae47-c6c0e443624c","system_id":"levelo_inurba_marseille","lat":43.28269,"lon":5.35066,"is_reserved":false,"is_disabled":false,"rental_uris":{"android":"levelo://app?vid=3b787083-7bc9-40fe-ae47-c6c0e443624c","ios":"levelo://app?vid=3b787083-7bc9-40fe-ae47-c6c0e443624c"},"vehicle_type_id":"4","last_reported":1685462911,"current_range_meters":12800,"station_id":"ce4bhbp2rcd13ifvqerg","pricing_plan_id":"free"},{"bike_id":"6a75ea95-d855-440f-9e98-53d1a325b836","system_id":"levelo_inurba_marseille","lat":43.282744,"lon":5.350533,"is_reserved":false,"is_disabled":false,"rental_uris":{"android":"levelo://app?vid=6a75ea95-d855-440f-9e98-53d1a325b836","ios":"levelo://app?vid=6a75ea95-d855-440f-9e98-53d1a325b836"},"vehicle_type_id":"4","last_reported":1685462911,"current_range_meters":3600,"station_id":"ce4bhbp2rcd13ifvqerg","pricing_plan_id":"free"},{"bike_id":"e5825cb9-e28a-4538-8bc2-017403bb703b","system_id":"levelo_inurba_marseille","lat":43.29104,"lon":5.4002,"is_reserved":false,"is_disabled":false,"rental_uris":{"android":"levelo://app?vid=e5825cb9-e28a-4538-8bc2-017403bb703b","ios":"levelo://app?vid=e5825cb9-e28a-4538-8bc2-017403bb703b"},"vehicle_type_id":"4","last_reported":1685462911,"current_range_meters":10000,"station_id":"","pricing_plan_id":"free"},{"bike_id":"5465de75-25de-459d-a649-e11ba97b4ae2","system_id":"levelo_inurba_marseille","lat":43.28039,"lon":5.369297,"is_reserved":false,"is_disabled":false,"rental_uris":{"android":"levelo://app?vid=5465de75-25de-459d-a649-e11ba97b4ae2","ios":"levelo://app?vid=5465de75-25de-459d-a649-e11ba97b4ae2"},"vehicle_type_id":"4","last_reported":1685462911,"current_range_meters":29600,"station_id":"ce4bha12rcd13ifvqef0","pricing_plan_id":"free"},{"bike_id":"589122cb-5acc-4753-9d0a-1ec4094fe835","system_id":"levelo_inurba_marseille","lat":43.29046,"lon":5.399703,"is_reserved":false,"is_disabled":false,"rental_uris":{"android":"levelo://app?vid=589122cb-5acc-4753-9d0a-1ec4094fe835","ios":"levelo://app?vid=589122cb-5acc-4753-9d0a-1ec4094fe835"},"vehicle_type_id":"4","last_reported":1685462911,"current_range_meters":18800,"station_id":"ce4bh392rcd13ifvqdm0","pricing_plan_id":"free"},{"bike_id":"ab6444e4-03cf-425c-97af-5588372b3d31","system_id":"levelo_inurba_marseille","lat":43.290452,"lon":5.399699,"is_reserved":false,"is_disabled":false,"rental_uris":{"android":"levelo://app?vid=ab6444e4-03cf-425c-97af-5588372b3d31","ios":"levelo://app?vid=ab6444e4-03cf-425c-97af-5588372b3d31"},"vehicle_type_id":"4","last_reported":1685462911,"current_range_meters":29600,"station_id":"","pricing_plan_id":"free"},{"bike_id":"19f06693-7e80-4598-8c92-1e35ecc8d093","system_id":"levelo_inurba_marseille","lat":43.290454,"lon":5.399712,"is_reserved":false,"is_disabled":false,"rental_uris":{"android":"levelo://app?vid=19f06693-7e80-4598-8c92-1e35ecc8d093","ios":"levelo://app?vid=19f06693-7e80-4598-8c92-1e35ecc8d093"},"vehicle_type_id":"4","last_reported":1685462911,"current_range_meters":30400,"station_id":"ce4bh392rcd13ifvqdm0","pricing_plan_id":"free"},{"bike_id":"d6e72ea2-2a33-4022-8e5c-c8010ce06484","system_id":"levelo_inurba_marseille","lat":43.290458,"lon":5.399722,"is_reserved":false,"is_disabled":false,"rental_uris":{"android":"levelo://app?vid=d6e72ea2-2a33-4022-8e5c-c8010ce06484","ios":"levelo://app?vid=d6e72ea2-2a33-4022-8e5c-c8010ce06484"},"vehicle_type_id":"4","last_reported":1685462911,"current_range_meters":27200,"station_id":"ce4bh392rcd13ifvqdm0","pricing_plan_id":"free"},{"bike_id":"fab9656e-30b9-484e-bea4-dc28aa32d039","system_id":"levelo_inurba_marseille","lat":43.290459,"lon":5.39975,"is_reserved":false,"is_disabled":false,"rental_uris":{"android":"levelo://app?vid=fab9656e-30b9-484e-bea4-dc28aa32d039","ios":"levelo://app?vid=fab9656e-30b9-484e-bea4-dc28aa32d039"},"vehicle_type_id":"4","last_reported":1685462911,"current_range_meters":30400,"station_id":"ce4bh392rcd13ifvqdm0","pricing_plan_id":"free"},{"bike_id":"319f0135-d51d-404b-9187-35882edf27cb","system_id":"levelo_inurba_marseille","lat":43.290409,"lon":5.399698,"is_reserved":false,"is_disabled":false,"rental_uris":{"android":"levelo://app?vid=319f0135-d51d-404b-9187-35882edf27cb","ios":"levelo://app?vid=319f0135-d51d-404b-9187-35882edf27cb"},"vehicle_type_id":"4","last_reported":1685462911,"current_range_meters":21600,"station_id":"ce4bh392rcd13ifvqdm0","pricing_plan_id":"free"},{"bike_id":"c90519ea-978a-485a-91b1-fc6973c23d68","system_id":"levelo_inurba_marseille","lat":43.29041,"lon":5.399634,"is_reserved":false,"is_disabled":false,"rental_uris":{"android":"levelo://app?vid=c90519ea-978a-485a-91b1-fc6973c23d68","ios":"levelo://app?vid=c90519ea-978a-485a-91b1-fc6973c23d68"},"vehicle_type_id":"4","last_reported":1685462911,"current_range_meters":26800,"station_id":"ce4bh392rcd13ifvqdm0","pricing_plan_id":"free"},{"bike_id":"754407d8-30b0-4a84-8f49-72aae726eae5","system_id":"levelo_inurba_marseille","lat":43.29041,"lon":5.399634,"is_reserved":false,"is_disabled":false,"rental_uris":{"android":"levelo://app?vid=754407d8-30b0-4a84-8f49-72aae726eae5","ios":"levelo://app?vid=754407d8-30b0-4a84-8f49-72aae726eae5"},"vehicle_type_id":"4","last_reported":1685462911,"current_range_meters":28800,"station_id":"ce4bh392rcd13ifvqdm0","pricing_plan_id":"free"},{"bike_id":"0f4b7be0-4622-4bc8-a4e1-f6af7e8a6048","system_id":"levelo_inurba_marseille","lat":43.296263,"lon":5.40601,"is_reserved":false,"is_disabled":false,"rental_uris":{"android":"levelo://app?vid=0f4b7be0-4622-4bc8-a4e1-f6af7e8a6048","ios":"levelo://app?vid=0f4b7be0-4622-4bc8-a4e1-f6af7e8a6048"},"vehicle_type_id":"4","last_reported":1685462911,"current_range_meters":9200,"station_id":"ce4bh0h2rcd13ifvqd60","pricing_plan_id":"free"},{"bike_id":"8f577aef-b93d-4401-8cb3-729c27a27c03","system_id":"levelo_inurba_marseille","lat":43.296263,"lon":5.40601,"is_reserved":false,"is_disabled":false,"rental_uris":{"android":"levelo://app?vid=8f577aef-b93d-4401-8cb3-729c27a27c03","ios":"levelo://app?vid=8f577aef-b93d-4401-8cb3-729c27a27c03"},"vehicle_type_id":"4","last_reported":1685462911,"current_range_meters":28000,"station_id":"ce4bh0h2rcd13ifvqd60","pricing_plan_id":"free"},{"bike_id":"0eae9d50-0c8e-4565-9213-52276c8c8726","system_id":"levelo_inurba_marseille","lat":43.296263,"lon":5.40601,"is_reserved":false,"is_disabled":false,"rental_uris":{"android":"levelo://app?vid=0eae9d50-0c8e-4565-9213-52276c8c8726","ios":"levelo://app?vid=0eae9d50-0c8e-4565-9213-52276c8c8726"},"vehicle_type_id":"4","last_reported":1685462911,"current_range_meters":6000,"station_id":"ce4bh0h2rcd13ifvqd60","pricing_plan_id":"free"},{"bike_id":"b1f30ae2-48a9-48ef-818e-05f88671de14","system_id":"levelo_inurba_marseille","lat":43.281044,"lon":5.378308,"is_reserved":false,"is_disabled":false,"rental_uris":{"android":"levelo://app?vid=b1f30ae2-48a9-48ef-818e-05f88671de14","ios":"levelo://app?vid=b1f30ae2-48a9-48ef-818e-05f88671de14"},"vehicle_type_id":"4","last_reported":1685462911,"current_range_meters":22800,"station_id":"ce4bha12rcd13ifvqee0","pricing_plan_id":"free"},{"bike_id":"32e3dc34-274a-4f27-9b87-17226d3e3e28","system_id":"levelo_inurba_marseille","lat":43.284462,"lon":5.392121,"is_reserved":false,"is_disabled":false,"rental_uris":{"android":"levelo://app?vid=32e3dc34-274a-4f27-9b87-17226d3e3e28","ios":"levelo://app?vid=32e3dc34-274a-4f27-9b87-17226d3e3e28"},"vehicle_type_id":"4","last_reported":1685462911,"current_range_meters":0,"station_id":"ce4bhoh2rcd13ifvqh5g","pricing_plan_id":"free"},{"bike_id":"8b2e2e92-f615-4b50-9529-be5bc15d942f","system_id":"levelo_inurba_marseille","lat":43.284462,"lon":5.392121,"is_reserved":false,"is_disabled":false,"rental_uris":{"android":"levelo://app?vid=8b2e2e92-f615-4b50-9529-be5bc15d942f","ios":"levelo://app?vid=8b2e2e92-f615-4b50-9529-be5bc15d942f"},"vehicle_type_id":"4","last_reported":1685462911,"current_range_meters":0,"station_id":"ce4bhoh2rcd13ifvqh5g","pricing_plan_id":"free"},{"bike_id":"98e2c2e9-9daa-4c86-aadb-e45685f9b70a","system_id":"levelo_inurba_marseille","lat":43.287154,"lon":5.399979,"is_reserved":false,"is_disabled":false,"rental_uris":{"android":"levelo://app?vid=98e2c2e9-9daa-4c86-aadb-e45685f9b70a","ios":"levelo://app?vid=98e2c2e9-9daa-4c86-aadb-e45685f9b70a"},"vehicle_type_id":"4","last_reported":1685462911,"current_range_meters":12400,"station_id":"ce4bho92rcd13ifvqh3g","pricing_plan_id":"free"},{"bike_id":"683afb02-5859-413f-a426-c19da1c19488","system_id":"levelo_inurba_marseille","lat":43.287154,"lon":5.399979,"is_reserved":false,"is_disabled":false,"rental_uris":{"android":"levelo://app?vid=683afb02-5859-413f-a426-c19da1c19488","ios":"levelo://app?vid=683afb02-5859-413f-a426-c19da1c19488"},"vehicle_type_id":"4","last_reported":1685462911,"current_range_meters":400,"station_id":"ce4bho92rcd13ifvqh3g","pricing_plan_id":"free"},{"bike_id":"a76c8f3b-9833-4338-a261-204a10b99273","system_id":"levelo_inurba_marseille","lat":43.32188,"lon":5.41424,"is_reserved":false,"is_disabled":false,"rental_uris":{"android":"levelo://app?vid=a76c8f3b-9833-4338-a261-204a10b99273","ios":"levelo://app?vid=a76c8f3b-9833-4338-a261-204a10b99273"},"vehicle_type_id":"4","last_reported":1685462911,"current_range_meters":14800,"station_id":"","pricing_plan_id":"free"},{"bike_id":"234ff75e-646e-4615-9b32-ad838e6df4f4","system_id":"levelo_inurba_marseille","lat":43.299579,"lon":5.413255,"is_reserved":false,"is_disabled":false,"rental_uris":{"android":"levelo://app?vid=234ff75e-646e-4615-9b32-ad838e6df4f4","ios":"levelo://app?vid=234ff75e-646e-4615-9b32-ad838e6df4f4"},"vehicle_type_id":"4","last_reported":1685462911,"current_range_meters":24400,"station_id":"ce4bhp12rcd13ifvqh9g","pricing_plan_id":"free"},{"bike_id":"587e9439-084d-4127-b9e5-8dc8ce30244a","system_id":"levelo_inurba_marseille","lat":43.29169,"lon":5.40802,"is_reserved":false,"is_disabled":false,"rental_uris":{"android":"levelo://app?vid=587e9439-084d-4127-b9e5-8dc8ce30244a","ios":"levelo://app?vid=587e9439-084d-4127-b9e5-8dc8ce30244a"},"vehicle_type_id":"4","last_reported":1685462911,"current_range_meters":31200,"station_id":"","pricing_plan_id":"free"},{"bike_id":"8a950c9a-f8e2-462b-8c59-09cce4c31d4b","system_id":"levelo_inurba_marseille","lat":43.292571,"lon":5.409107,"is_reserved":false,"is_disabled":false,"rental_uris":{"android":"levelo://app?vid=8a950c9a-f8e2-462b-8c59-09cce4c31d4b","ios":"levelo://app?vid=8a950c9a-f8e2-462b-8c59-09cce4c31d4b"},"vehicle_type_id":"4","last_reported":1685462911,"current_range_meters":29200,"station_id":"ce4bh192rcd13ifvqdc0","pricing_plan_id":"free"},{"bike_id":"08cd6e5b-93ea-4c18-ab97-6bdb89dfe26a","system_id":"levelo_inurba_marseille","lat":43.292569,"lon":5.409107,"is_reserved":false,"is_disabled":false,"rental_uris":{"android":"levelo://app?vid=08cd6e5b-93ea-4c18-ab97-6bdb89dfe26a","ios":"levelo://app?vid=08cd6e5b-93ea-4c18-ab97-6bdb89dfe26a"},"vehicle_type_id":"4","last_reported":1685462911,"current_range_meters":4000,"station_id":"ce4bh192rcd13ifvqdc0","pricing_plan_id":"free"},{"bike_id":"11cea34d-9f67-41b3-9da8-2ba1bf4b6cf8","system_id":"levelo_inurba_marseille","lat":43.30391,"lon":5.41839,"is_reserved":false,"is_disabled":false,"rental_uris":{"android":"levelo://app?vid=11cea34d-9f67-41b3-9da8-2ba1bf4b6cf8","ios":"levelo://app?vid=11cea34d-9f67-41b3-9da8-2ba1bf4b6cf8"},"vehicle_type_id":"4","last_reported":1685462911,"current_range_meters":14400,"station_id":"","pricing_plan_id":"free"},{"bike_id":"d78d919c-5e81-426c-bc61-b0be84f5595a","system_id":"levelo_inurba_marseille","lat":43.278399,"lon":5.392139,"is_reserved":false,"is_disabled":false,"rental_uris":{"android":"levelo://app?vid=d78d919c-5e81-426c-bc61-b0be84f5595a","ios":"levelo://app?vid=d78d919c-5e81-426c-bc61-b0be84f5595a"},"vehicle_type_id":"4","last_reported":1685462911,"current_range_meters":6400,"station_id":"ce4bhjp2rcd13ifvqga0","pricing_plan_id":"free"},{"bike_id":"dd592d52-9691-4255-9641-5bb107bdd9d2","system_id":"levelo_inurba_marseille","lat":43.27383,"lon":5.36252,"is_reserved":false,"is_disabled":false,"rental_uris":{"android":"levelo://app?vid=dd592d52-9691-4255-9641-5bb107bdd9d2","ios":"levelo://app?vid=dd592d52-9691-4255-9641-5bb107bdd9d2"},"vehicle_type_id":"4","last_reported":1685462911,"current_range_meters":20000,"station_id":"","pricing_plan_id":"free"},{"bike_id":"4f371519-54a2-4033-978c-bb4e1fde9839","system_id":"levelo_inurba_marseille","lat":43.273613,"lon":5.362705,"is_reserved":false,"is_disabled":false,"rental_uris":{"android":"levelo://app?vid=4f371519-54a2-4033-978c-bb4e1fde9839","ios":"levelo://app?vid=4f371519-54a2-4033-978c-bb4e1fde9839"},"vehicle_type_id":"4","last_reported":1685462911,"current_range_meters":22400,"station_id":"ce4bhbh2rcd13ifvqeo0","pricing_plan_id":"free"},{"bike_id":"c0f19e23-682c-46c7-8818-6c0758ca6ede","system_id":"levelo_inurba_marseille","lat":43.27377,"lon":5.36258,"is_reserved":false,"is_disabled":false,"rental_uris":{"android":"levelo://app?vid=c0f19e23-682c-46c7-8818-6c0758ca6ede","ios":"levelo://app?vid=c0f19e23-682c-46c7-8818-6c0758ca6ede"},"vehicle_type_id":"4","last_reported":1685462911,"current_range_meters":17200,"station_id":"ce4bhbh2rcd13ifvqeo0","pricing_plan_id":"free"},{"bike_id":"e36bf622-6938-446c-a227-d4be086f3428","system_id":"levelo_inurba_marseille","lat":43.27377,"lon":5.36251,"is_reserved":false,"is_disabled":false,"rental_uris":{"android":"levelo://app?vid=e36bf622-6938-446c-a227-d4be086f3428","ios":"levelo://app?vid=e36bf622-6938-446c-a227-d4be086f3428"},"vehicle_type_id":"4","last_reported":1685462911,"current_range_meters":15600,"station_id":"ce4bhbh2rcd13ifvqeo0","pricing_plan_id":"free"},{"bike_id":"62192380-33cd-4623-bda9-43a8036ac810","system_id":"levelo_inurba_marseille","lat":43.27376,"lon":5.36255,"is_reserved":false,"is_disabled":false,"rental_uris":{"android":"levelo://app?vid=62192380-33cd-4623-bda9-43a8036ac810","ios":"levelo://app?vid=62192380-33cd-4623-bda9-43a8036ac810"},"vehicle_type_id":"4","last_reported":1685462911,"current_range_meters":24000,"station_id":"ce4bhbh2rcd13ifvqeo0","pricing_plan_id":"free"},{"bike_id":"56971338-b219-4d44-a724-8f7cbfe897b8","system_id":"levelo_inurba_marseille","lat":43.27376,"lon":5.36253,"is_reserved":false,"is_disabled":false,"rental_uris":{"android":"levelo://app?vid=56971338-b219-4d44-a724-8f7cbfe897b8","ios":"levelo://app?vid=56971338-b219-4d44-a724-8f7cbfe897b8"},"vehicle_type_id":"4","last_reported":1685462911,"current_range_meters":2400,"station_id":"ce4bhbh2rcd13ifvqeo0","pricing_plan_id":"free"},{"bike_id":"4af28ab3-036c-4bfe-8852-ad36bf7b5ca9","system_id":"levelo_inurba_marseille","lat":43.27375,"lon":5.3626,"is_reserved":false,"is_disabled":false,"rental_uris":{"android":"levelo://app?vid=4af28ab3-036c-4bfe-8852-ad36bf7b5ca9","ios":"levelo://app?vid=4af28ab3-036c-4bfe-8852-ad36bf7b5ca9"},"vehicle_type_id":"4","last_reported":1685462911,"current_range_meters":0,"station_id":"ce4bhbh2rcd13ifvqeo0","pricing_plan_id":"free"},{"bike_id":"5d9d156e-0b10-47b1-a956-f4fa94aa3766","system_id":"levelo_inurba_marseille","lat":43.27375,"lon":5.36258,"is_reserved":false,"is_disabled":false,"rental_uris":{"android":"levelo://app?vid=5d9d156e-0b10-47b1-a956-f4fa94aa3766","ios":"levelo://app?vid=5d9d156e-0b10-47b1-a956-f4fa94aa3766"},"vehicle_type_id":"4","last_reported":1685462911,"current_range_meters":16800,"station_id":"ce4bhbh2rcd13ifvqeo0","pricing_plan_id":"free"},{"bike_id":"06918d96-c4c1-44c4-b089-17b3c01c3d22","system_id":"levelo_inurba_marseille","lat":43.27375,"lon":5.36248,"is_reserved":false,"is_disabled":false,"rental_uris":{"android":"levelo://app?vid=06918d96-c4c1-44c4-b089-17b3c01c3d22","ios":"levelo://app?vid=06918d96-c4c1-44c4-b089-17b3c01c3d22"},"vehicle_type_id":"4","last_reported":1685462911,"current_range_meters":4400,"station_id":"ce4bhbh2rcd13ifvqeo0","pricing_plan_id":"free"},{"bike_id":"664489f2-5036-4a6e-bc71-3c2f1d17776e","system_id":"levelo_inurba_marseille","lat":43.27374,"lon":5.36257,"is_reserved":false,"is_disabled":false,"rental_uris":{"android":"levelo://app?vid=664489f2-5036-4a6e-bc71-3c2f1d17776e","ios":"levelo://app?vid=664489f2-5036-4a6e-bc71-3c2f1d17776e"},"vehicle_type_id":"4","last_reported":1685462911,"current_range_meters":29600,"station_id":"ce4bhbh2rcd13ifvqeo0","pricing_plan_id":"free"},{"bike_id":"4c405bc1-49d2-457f-a7ed-8e76592abe01","system_id":"levelo_inurba_marseille","lat":43.27374,"lon":5.36255,"is_reserved":false,"is_disabled":false,"rental_uris":{"android":"levelo://app?vid=4c405bc1-49d2-457f-a7ed-8e76592abe01","ios":"levelo://app?vid=4c405bc1-49d2-457f-a7ed-8e76592abe01"},"vehicle_type_id":"4","last_reported":1685462911,"current_range_meters":28400,"station_id":"ce4bhbh2rcd13ifvqeo0","pricing_plan_id":"free"},{"bike_id":"0029874e-974f-4866-b66e-0a9c552a158d","system_id":"levelo_inurba_marseille","lat":43.27372,"lon":5.36259,"is_reserved":false,"is_disabled":false,"rental_uris":{"android":"levelo://app?vid=0029874e-974f-4866-b66e-0a9c552a158d","ios":"levelo://app?vid=0029874e-974f-4866-b66e-0a9c552a158d"},"vehicle_type_id":"4","last_reported":1685462911,"current_range_meters":20000,"station_id":"ce4bhbh2rcd13ifvqeo0","pricing_plan_id":"free"},{"bike_id":"af448820-bda5-4596-b3a0-5470ed722017","system_id":"levelo_inurba_marseille","lat":43.27372,"lon":5.36256,"is_reserved":false,"is_disabled":false,"rental_uris":{"android":"levelo://app?vid=af448820-bda5-4596-b3a0-5470ed722017","ios":"levelo://app?vid=af448820-bda5-4596-b3a0-5470ed722017"},"vehicle_type_id":"4","last_reported":1685462911,"current_range_meters":19200,"station_id":"ce4bhbh2rcd13ifvqeo0","pricing_plan_id":"free"},{"bike_id":"fa53b43c-6f5f-4a15-9b9c-d6c9b2239df4","system_id":"levelo_inurba_marseille","lat":43.27372,"lon":5.36244,"is_reserved":false,"is_disabled":false,"rental_uris":{"android":"levelo://app?vid=fa53b43c-6f5f-4a15-9b9c-d6c9b2239df4","ios":"levelo://app?vid=fa53b43c-6f5f-4a15-9b9c-d6c9b2239df4"},"vehicle_type_id":"4","last_reported":1685462911,"current_range_meters":15200,"station_id":"ce4bhbh2rcd13ifvqeo0","pricing_plan_id":"free"},{"bike_id":"afc3881e-af81-415f-aca1-fe153e07fa59","system_id":"levelo_inurba_marseille","lat":43.27371,"lon":5.36242,"is_reserved":false,"is_disabled":false,"rental_uris":{"android":"levelo://app?vid=afc3881e-af81-415f-aca1-fe153e07fa59","ios":"levelo://app?vid=afc3881e-af81-415f-aca1-fe153e07fa59"},"vehicle_type_id":"4","last_reported":1685462911,"current_range_meters":12000,"station_id":"ce4bhbh2rcd13ifvqeo0","pricing_plan_id":"free"},{"bike_id":"ab405cf1-dbaf-46a5-9d3a-30766b938e3a","system_id":"levelo_inurba_marseille","lat":43.273609,"lon":5.362708,"is_reserved":false,"is_disabled":false,"rental_uris":{"android":"levelo://app?vid=ab405cf1-dbaf-46a5-9d3a-30766b938e3a","ios":"levelo://app?vid=ab405cf1-dbaf-46a5-9d3a-30766b938e3a"},"vehicle_type_id":"4","last_reported":1685462911,"current_range_meters":27200,"station_id":"ce4bhbh2rcd13ifvqeo0","pricing_plan_id":"free"},{"bike_id":"39ddaa59-f43d-49a5-a012-342dfb1f9088","system_id":"levelo_inurba_marseille","lat":43.3361,"lon":5.41034,"is_reserved":false,"is_disabled":false,"rental_uris":{"android":"levelo://app?vid=39ddaa59-f43d-49a5-a012-342dfb1f9088","ios":"levelo://app?vid=39ddaa59-f43d-49a5-a012-342dfb1f9088"},"vehicle_type_id":"4","last_reported":1685462911,"current_range_meters":20800,"station_id":"ce4bhqh2rcd13ifvqhmg","pricing_plan_id":"free"},{"bike_id":"684ac664-2938-4651-8b2b-b364e6d153a9","system_id":"levelo_inurba_marseille","lat":43.276769,"lon":5.388787,"is_reserved":false,"is_disabled":false,"rental_uris":{"android":"levelo://app?vid=684ac664-2938-4651-8b2b-b364e6d153a9","ios":"levelo://app?vid=684ac664-2938-4651-8b2b-b364e6d153a9"},"vehicle_type_id":"4","last_reported":1685462911,"current_range_meters":18000,"station_id":"ce4bhi12rcd13ifvqfo0","pricing_plan_id":"free"},{"bike_id":"69079949-50af-4dcf-8697-ead243d018eb","system_id":"levelo_inurba_marseille","lat":43.276769,"lon":5.388787,"is_reserved":false,"is_disabled":false,"rental_uris":{"android":"levelo://app?vid=69079949-50af-4dcf-8697-ead243d018eb","ios":"levelo://app?vid=69079949-50af-4dcf-8697-ead243d018eb"},"vehicle_type_id":"4","last_reported":1685462911,"current_range_meters":0,"station_id":"ce4bhi12rcd13ifvqfo0","pricing_plan_id":"free"},{"bike_id":"6b2fa5a6-d994-4f26-9651-d5bd6f4201dc","system_id":"levelo_inurba_marseille","lat":43.27661,"lon":5.38907,"is_reserved":false,"is_disabled":false,"rental_uris":{"android":"levelo://app?vid=6b2fa5a6-d994-4f26-9651-d5bd6f4201dc","ios":"levelo://app?vid=6b2fa5a6-d994-4f26-9651-d5bd6f4201dc"},"vehicle_type_id":"4","last_reported":1685462911,"current_range_meters":0,"station_id":"ce4bhi12rcd13ifvqfo0","pricing_plan_id":"free"},{"bike_id":"969dca85-1391-4312-92b9-340a1980f8a4","system_id":"levelo_inurba_marseille","lat":43.27427,"lon":5.39419,"is_reserved":false,"is_disabled":false,"rental_uris":{"android":"levelo://app?vid=969dca85-1391-4312-92b9-340a1980f8a4","ios":"levelo://app?vid=969dca85-1391-4312-92b9-340a1980f8a4"},"vehicle_type_id":"4","last_reported":1685462911,"current_range_meters":0,"station_id":"","pricing_plan_id":"free"},{"bike_id":"a9af376d-0544-4206-bd2a-3e59f5673a59","system_id":"levelo_inurba_marseille","lat":43.273125,"lon":5.390731,"is_reserved":false,"is_disabled":false,"rental_uris":{"android":"levelo://app?vid=a9af376d-0544-4206-bd2a-3e59f5673a59","ios":"levelo://app?vid=a9af376d-0544-4206-bd2a-3e59f5673a59"},"vehicle_type_id":"4","last_reported":1685462911,"current_range_meters":24000,"station_id":"ce4bhgp2rcd13ifvqfe0","pricing_plan_id":"free"},{"bike_id":"511a96ba-6256-4044-b8e2-382b56229d0b","system_id":"levelo_inurba_marseille","lat":43.295523,"lon":5.422926,"is_reserved":false,"is_disabled":false,"rental_uris":{"android":"levelo://app?vid=511a96ba-6256-4044-b8e2-382b56229d0b","ios":"levelo://app?vid=511a96ba-6256-4044-b8e2-382b56229d0b"},"vehicle_type_id":"4","last_reported":1685462911,"current_range_meters":18400,"station_id":"ce4bhph2rcd13ifvqhdg","pricing_plan_id":"free"},{"bike_id":"17001d56-2f59-4229-a474-86316c693887","system_id":"levelo_inurba_marseille","lat":43.272124,"lon":5.391768,"is_reserved":false,"is_disabled":false,"rental_uris":{"android":"levelo://app?vid=17001d56-2f59-4229-a474-86316c693887","ios":"levelo://app?vid=17001d56-2f59-4229-a474-86316c693887"},"vehicle_type_id":"4","last_reported":1685462911,"current_range_meters":800,"station_id":"ce4bhhp2rcd13ifvqfm0","pricing_plan_id":"free"},{"bike_id":"263c9770-f9b7-49a9-8017-63a58e108fdc","system_id":"levelo_inurba_marseille","lat":43.278128,"lon":5.407195,"is_reserved":false,"is_disabled":false,"rental_uris":{"android":"levelo://app?vid=263c9770-f9b7-49a9-8017-63a58e108fdc","ios":"levelo://app?vid=263c9770-f9b7-49a9-8017-63a58e108fdc"},"vehicle_type_id":"4","last_reported":1685462911,"current_range_meters":22000,"station_id":"ce4bhnh2rcd13ifvqgtg","pricing_plan_id":"free"},{"bike_id":"30edd03d-85b1-4323-aef9-a402440cd73f","system_id":"levelo_inurba_marseille","lat":43.278128,"lon":5.407195,"is_reserved":false,"is_disabled":false,"rental_uris":{"android":"levelo://app?vid=30edd03d-85b1-4323-aef9-a402440cd73f","ios":"levelo://app?vid=30edd03d-85b1-4323-aef9-a402440cd73f"},"vehicle_type_id":"4","last_reported":1685462911,"current_range_meters":16400,"station_id":"ce4bhnh2rcd13ifvqgtg","pricing_plan_id":"free"},{"bike_id":"76d76a84-6d4d-4aac-8b7f-a1c31a54b8dc","system_id":"levelo_inurba_marseille","lat":43.278128,"lon":5.407195,"is_reserved":false,"is_disabled":false,"rental_uris":{"android":"levelo://app?vid=76d76a84-6d4d-4aac-8b7f-a1c31a54b8dc","ios":"levelo://app?vid=76d76a84-6d4d-4aac-8b7f-a1c31a54b8dc"},"vehicle_type_id":"4","last_reported":1685462911,"current_range_meters":23200,"station_id":"ce4bhnh2rcd13ifvqgtg","pricing_plan_id":"free"},{"bike_id":"b45d1e35-e590-47b2-b0ba-2671e5f7d569","system_id":"levelo_inurba_marseille","lat":43.278128,"lon":5.407195,"is_reserved":false,"is_disabled":false,"rental_uris":{"android":"levelo://app?vid=b45d1e35-e590-47b2-b0ba-2671e5f7d569","ios":"levelo://app?vid=b45d1e35-e590-47b2-b0ba-2671e5f7d569"},"vehicle_type_id":"4","last_reported":1685462911,"current_range_meters":18000,"station_id":"ce4bhnh2rcd13ifvqgtg","pricing_plan_id":"free"},{"bike_id":"a2357b19-0b9d-416c-856a-ca75dc526c4d","system_id":"levelo_inurba_marseille","lat":43.278128,"lon":5.407195,"is_reserved":false,"is_disabled":false,"rental_uris":{"android":"levelo://app?vid=a2357b19-0b9d-416c-856a-ca75dc526c4d","ios":"levelo://app?vid=a2357b19-0b9d-416c-856a-ca75dc526c4d"},"vehicle_type_id":"4","last_reported":1685462911,"current_range_meters":0,"station_id":"ce4bhnh2rcd13ifvqgtg","pricing_plan_id":"free"},{"bike_id":"a337d37e-3408-4993-befb-72e8e42d2974","system_id":"levelo_inurba_marseille","lat":43.278128,"lon":5.407195,"is_reserved":false,"is_disabled":false,"rental_uris":{"android":"levelo://app?vid=a337d37e-3408-4993-befb-72e8e42d2974","ios":"levelo://app?vid=a337d37e-3408-4993-befb-72e8e42d2974"},"vehicle_type_id":"4","last_reported":1685462911,"current_range_meters":2000,"station_id":"ce4bhnh2rcd13ifvqgtg","pricing_plan_id":"free"},{"bike_id":"0cd3f94d-3412-4740-b150-ed4c2a327c72","system_id":"levelo_inurba_marseille","lat":43.278128,"lon":5.407195,"is_reserved":false,"is_disabled":false,"rental_uris":{"android":"levelo://app?vid=0cd3f94d-3412-4740-b150-ed4c2a327c72","ios":"levelo://app?vid=0cd3f94d-3412-4740-b150-ed4c2a327c72"},"vehicle_type_id":"4","last_reported":1685462911,"current_range_meters":14400,"station_id":"ce4bhnh2rcd13ifvqgtg","pricing_plan_id":"free"},{"bike_id":"59a929d2-f9f3-49ab-8f38-201e10038413","system_id":"levelo_inurba_marseille","lat":43.29619,"lon":5.4256,"is_reserved":false,"is_disabled":false,"rental_uris":{"android":"levelo://app?vid=59a929d2-f9f3-49ab-8f38-201e10038413","ios":"levelo://app?vid=59a929d2-f9f3-49ab-8f38-201e10038413"},"vehicle_type_id":"4","last_reported":1685462911,"current_range_meters":31200,"station_id":"ce4bh312rcd13ifvqdk0","pricing_plan_id":"free"},{"bike_id":"cacd3ccf-9084-446a-9503-0f8d7e6671df","system_id":"levelo_inurba_marseille","lat":43.265527,"lon":5.372815,"is_reserved":false,"is_disabled":false,"rental_uris":{"android":"levelo://app?vid=cacd3ccf-9084-446a-9503-0f8d7e6671df","ios":"levelo://app?vid=cacd3ccf-9084-446a-9503-0f8d7e6671df"},"vehicle_type_id":"4","last_reported":1685462911,"current_range_meters":28800,"station_id":"ce4bhh92rcd13ifvqfh0","pricing_plan_id":"free"},{"bike_id":"97f92444-dc7f-4ac8-885e-43ac50454dc0","system_id":"levelo_inurba_marseille","lat":43.31678,"lon":5.43336,"is_reserved":false,"is_disabled":false,"rental_uris":{"android":"levelo://app?vid=97f92444-dc7f-4ac8-885e-43ac50454dc0","ios":"levelo://app?vid=97f92444-dc7f-4ac8-885e-43ac50454dc0"},"vehicle_type_id":"4","last_reported":1685462911,"current_range_meters":0,"station_id":"","pricing_plan_id":"free"},{"bike_id":"01cb54c7-313d-484a-8e7e-74b3b01b03f7","system_id":"levelo_inurba_marseille","lat":43.27996,"lon":5.416624,"is_reserved":false,"is_disabled":false,"rental_uris":{"android":"levelo://app?vid=01cb54c7-313d-484a-8e7e-74b3b01b03f7","ios":"levelo://app?vid=01cb54c7-313d-484a-8e7e-74b3b01b03f7"},"vehicle_type_id":"4","last_reported":1685462911,"current_range_meters":6400,"station_id":"ce4bho12rcd13ifvqh1g","pricing_plan_id":"free"},{"bike_id":"9c5c2671-6c03-4769-8048-97b90ff8a2f4","system_id":"levelo_inurba_marseille","lat":43.267966,"lon":5.393976,"is_reserved":false,"is_disabled":false,"rental_uris":{"android":"levelo://app?vid=9c5c2671-6c03-4769-8048-97b90ff8a2f4","ios":"levelo://app?vid=9c5c2671-6c03-4769-8048-97b90ff8a2f4"},"vehicle_type_id":"4","last_reported":1685462911,"current_range_meters":800,"station_id":"ce4bhh12rcd13ifvqfg0","pricing_plan_id":"free"},{"bike_id":"d9e2d681-9262-4b2b-9cbb-0b89ae089f4a","system_id":"levelo_inurba_marseille","lat":43.267966,"lon":5.393976,"is_reserved":false,"is_disabled":false,"rental_uris":{"android":"levelo://app?vid=d9e2d681-9262-4b2b-9cbb-0b89ae089f4a","ios":"levelo://app?vid=d9e2d681-9262-4b2b-9cbb-0b89ae089f4a"},"vehicle_type_id":"4","last_reported":1685462911,"current_range_meters":10800,"station_id":"ce4bhh12rcd13ifvqfg0","pricing_plan_id":"free"},{"bike_id":"49252c4a-5d96-4cf0-829e-a929ce5a7b71","system_id":"levelo_inurba_marseille","lat":43.267966,"lon":5.393976,"is_reserved":false,"is_disabled":false,"rental_uris":{"android":"levelo://app?vid=49252c4a-5d96-4cf0-829e-a929ce5a7b71","ios":"levelo://app?vid=49252c4a-5d96-4cf0-829e-a929ce5a7b71"},"vehicle_type_id":"4","last_reported":1685462911,"current_range_meters":5600,"station_id":"ce4bhh12rcd13ifvqfg0","pricing_plan_id":"free"},{"bike_id":"a9d381da-36a7-4c8e-890c-23d7c96fd877","system_id":"levelo_inurba_marseille","lat":43.267966,"lon":5.393976,"is_reserved":false,"is_disabled":false,"rental_uris":{"android":"levelo://app?vid=a9d381da-36a7-4c8e-890c-23d7c96fd877","ios":"levelo://app?vid=a9d381da-36a7-4c8e-890c-23d7c96fd877"},"vehicle_type_id":"4","last_reported":1685462911,"current_range_meters":12000,"station_id":"ce4bhh12rcd13ifvqfg0","pricing_plan_id":"free"},{"bike_id":"2fcc0c23-ac53-41eb-a2d4-d3336177ee7b","system_id":"levelo_inurba_marseille","lat":43.32309,"lon":5.43564,"is_reserved":false,"is_disabled":false,"rental_uris":{"android":"levelo://app?vid=2fcc0c23-ac53-41eb-a2d4-d3336177ee7b","ios":"levelo://app?vid=2fcc0c23-ac53-41eb-a2d4-d3336177ee7b"},"vehicle_type_id":"4","last_reported":1685462911,"current_range_meters":6400,"station_id":"","pricing_plan_id":"free"},{"bike_id":"eaecc699-a494-43ea-b90c-e82058c8cbe2","system_id":"levelo_inurba_marseille","lat":43.26183,"lon":5.37444,"is_reserved":false,"is_disabled":false,"rental_uris":{"android":"levelo://app?vid=eaecc699-a494-43ea-b90c-e82058c8cbe2","ios":"levelo://app?vid=eaecc699-a494-43ea-b90c-e82058c8cbe2"},"vehicle_type_id":"4","last_reported":1685462911,"current_range_meters":30800,"station_id":"ce4bhgp2rcd13ifvqfc0","pricing_plan_id":"free"},{"bike_id":"1484fb73-ea82-4cbc-a93c-9b6c94228fc9","system_id":"levelo_inurba_marseille","lat":43.317104,"lon":5.436818,"is_reserved":false,"is_disabled":false,"rental_uris":{"android":"levelo://app?vid=1484fb73-ea82-4cbc-a93c-9b6c94228fc9","ios":"levelo://app?vid=1484fb73-ea82-4cbc-a93c-9b6c94228fc9"},"vehicle_type_id":"4","last_reported":1685462911,"current_range_meters":28800,"station_id":"ce4bhp92rcd13ifvqhcg","pricing_plan_id":"free"},{"bike_id":"b9d3338c-b994-4087-a54a-4ab4a150191f","system_id":"levelo_inurba_marseille","lat":43.262012,"lon":5.379307,"is_reserved":false,"is_disabled":false,"rental_uris":{"android":"levelo://app?vid=b9d3338c-b994-4087-a54a-4ab4a150191f","ios":"levelo://app?vid=b9d3338c-b994-4087-a54a-4ab4a150191f"},"vehicle_type_id":"4","last_reported":1685462911,"current_range_meters":22800,"station_id":"ce4bhjp2rcd13ifvqg90","pricing_plan_id":"free"},{"bike_id":"c3c4b425-ff01-4492-9471-05763e1902d8","system_id":"levelo_inurba_marseille","lat":43.262012,"lon":5.379307,"is_reserved":false,"is_disabled":false,"rental_uris":{"android":"levelo://app?vid=c3c4b425-ff01-4492-9471-05763e1902d8","ios":"levelo://app?vid=c3c4b425-ff01-4492-9471-05763e1902d8"},"vehicle_type_id":"4","last_reported":1685462911,"current_range_meters":3600,"station_id":"ce4bhjp2rcd13ifvqg90","pricing_plan_id":"free"},{"bike_id":"70b32f93-9c97-45c8-a909-9998bd339929","system_id":"levelo_inurba_marseille","lat":43.271368,"lon":5.40928,"is_reserved":false,"is_disabled":false,"rental_uris":{"android":"levelo://app?vid=70b32f93-9c97-45c8-a909-9998bd339929","ios":"levelo://app?vid=70b32f93-9c97-45c8-a909-9998bd339929"},"vehicle_type_id":"4","last_reported":1685462911,"current_range_meters":30000,"station_id":"ce4bhl12rcd13ifvqgf0","pricing_plan_id":"free"},{"bike_id":"d976802e-6250-481b-9cb8-93beecabb7fe","system_id":"levelo_inurba_marseille","lat":43.271368,"lon":5.40928,"is_reserved":false,"is_disabled":false,"rental_uris":{"android":"levelo://app?vid=d976802e-6250-481b-9cb8-93beecabb7fe","ios":"levelo://app?vid=d976802e-6250-481b-9cb8-93beecabb7fe"},"vehicle_type_id":"4","last_reported":1685462911,"current_range_meters":30800,"station_id":"ce4bhl12rcd13ifvqgf0","pricing_plan_id":"free"},{"bike_id":"95c0c79a-e2b7-44d4-a0fb-f091a3d12a65","system_id":"levelo_inurba_marseille","lat":43.267959,"lon":5.402685,"is_reserved":false,"is_disabled":false,"rental_uris":{"android":"levelo://app?vid=95c0c79a-e2b7-44d4-a0fb-f091a3d12a65","ios":"levelo://app?vid=95c0c79a-e2b7-44d4-a0fb-f091a3d12a65"},"vehicle_type_id":"4","last_reported":1685462911,"current_range_meters":0,"station_id":"ce501612rcd8frsf0b60","pricing_plan_id":"free"},{"bike_id":"036cd78e-8e93-46b2-9319-6c580499cf7a","system_id":"levelo_inurba_marseille","lat":43.260225,"lon":5.375455,"is_reserved":false,"is_disabled":false,"rental_uris":{"android":"levelo://app?vid=036cd78e-8e93-46b2-9319-6c580499cf7a","ios":"levelo://app?vid=036cd78e-8e93-46b2-9319-6c580499cf7a"},"vehicle_type_id":"4","last_reported":1685462911,"current_range_meters":0,"station_id":"ce4bhgh2rcd13ifvqfa0","pricing_plan_id":"free"},{"bike_id":"f700055e-6e9d-4159-8b9c-8c00ad75f72c","system_id":"levelo_inurba_marseille","lat":43.260219,"lon":5.37546,"is_reserved":false,"is_disabled":false,"rental_uris":{"android":"levelo://app?vid=f700055e-6e9d-4159-8b9c-8c00ad75f72c","ios":"levelo://app?vid=f700055e-6e9d-4159-8b9c-8c00ad75f72c"},"vehicle_type_id":"4","last_reported":1685462911,"current_range_meters":24800,"station_id":"ce4bhgh2rcd13ifvqfa0","pricing_plan_id":"free"},{"bike_id":"6b404443-757b-4b8d-9a78-a03ca59013fb","system_id":"levelo_inurba_marseille","lat":43.2592,"lon":5.37283,"is_reserved":false,"is_disabled":false,"rental_uris":{"android":"levelo://app?vid=6b404443-757b-4b8d-9a78-a03ca59013fb","ios":"levelo://app?vid=6b404443-757b-4b8d-9a78-a03ca59013fb"},"vehicle_type_id":"4","last_reported":1685462911,"current_range_meters":2000,"station_id":"","pricing_plan_id":"free"},{"bike_id":"7d235da2-c61b-47f3-b053-cf733dbba107","system_id":"levelo_inurba_marseille","lat":43.2607,"lon":5.393983,"is_reserved":false,"is_disabled":false,"rental_uris":{"android":"levelo://app?vid=7d235da2-c61b-47f3-b053-cf733dbba107","ios":"levelo://app?vid=7d235da2-c61b-47f3-b053-cf733dbba107"},"vehicle_type_id":"4","last_reported":1685462911,"current_range_meters":2800,"station_id":"ce4bhh92rcd13ifvqfj0","pricing_plan_id":"free"},{"bike_id":"9fe1ddc2-ea3f-4912-9d8e-b9e407eff6ce","system_id":"levelo_inurba_marseille","lat":43.2607,"lon":5.393983,"is_reserved":false,"is_disabled":false,"rental_uris":{"android":"levelo://app?vid=9fe1ddc2-ea3f-4912-9d8e-b9e407eff6ce","ios":"levelo://app?vid=9fe1ddc2-ea3f-4912-9d8e-b9e407eff6ce"},"vehicle_type_id":"4","last_reported":1685462911,"current_range_meters":19600,"station_id":"ce4bhh92rcd13ifvqfj0","pricing_plan_id":"free"},{"bike_id":"8f2f99f0-724c-46a2-a42d-32addbe3318c","system_id":"levelo_inurba_marseille","lat":43.255756,"lon":5.382303,"is_reserved":false,"is_disabled":false,"rental_uris":{"android":"levelo://app?vid=8f2f99f0-724c-46a2-a42d-32addbe3318c","ios":"levelo://app?vid=8f2f99f0-724c-46a2-a42d-32addbe3318c"},"vehicle_type_id":"4","last_reported":1685462911,"current_range_meters":12400,"station_id":"ce4bhih2rcd13ifvqfs0","pricing_plan_id":"free"},{"bike_id":"939e4bb0-70f6-4eb2-9db0-ccdbd7ad7083","system_id":"levelo_inurba_marseille","lat":43.255756,"lon":5.382303,"is_reserved":false,"is_disabled":false,"rental_uris":{"android":"levelo://app?vid=939e4bb0-70f6-4eb2-9db0-ccdbd7ad7083","ios":"levelo://app?vid=939e4bb0-70f6-4eb2-9db0-ccdbd7ad7083"},"vehicle_type_id":"4","last_reported":1685462911,"current_range_meters":22400,"station_id":"ce4bhih2rcd13ifvqfs0","pricing_plan_id":"free"},{"bike_id":"f361033d-dac3-451f-9a2b-4eb2fbb895af","system_id":"levelo_inurba_marseille","lat":43.255756,"lon":5.382303,"is_reserved":false,"is_disabled":false,"rental_uris":{"android":"levelo://app?vid=f361033d-dac3-451f-9a2b-4eb2fbb895af","ios":"levelo://app?vid=f361033d-dac3-451f-9a2b-4eb2fbb895af"},"vehicle_type_id":"4","last_reported":1685462911,"current_range_meters":12400,"station_id":"ce4bhih2rcd13ifvqfs0","pricing_plan_id":"free"},{"bike_id":"fce0dfc1-9fc6-49de-a72f-48e194bf7453","system_id":"levelo_inurba_marseille","lat":43.255756,"lon":5.382303,"is_reserved":false,"is_disabled":false,"rental_uris":{"android":"levelo://app?vid=fce0dfc1-9fc6-49de-a72f-48e194bf7453","ios":"levelo://app?vid=fce0dfc1-9fc6-49de-a72f-48e194bf7453"},"vehicle_type_id":"4","last_reported":1685462911,"current_range_meters":20400,"station_id":"ce4bhih2rcd13ifvqfs0","pricing_plan_id":"free"},{"bike_id":"06b2d97a-29be-4af7-be34-a8d80d2cc3f5","system_id":"levelo_inurba_marseille","lat":43.25581,"lon":5.38235,"is_reserved":false,"is_disabled":false,"rental_uris":{"android":"levelo://app?vid=06b2d97a-29be-4af7-be34-a8d80d2cc3f5","ios":"levelo://app?vid=06b2d97a-29be-4af7-be34-a8d80d2cc3f5"},"vehicle_type_id":"4","last_reported":1685462911,"current_range_meters":29600,"station_id":"ce4bhih2rcd13ifvqfs0","pricing_plan_id":"free"},{"bike_id":"e2ee4aa9-5c76-443b-ae81-10d3c8b1bdec","system_id":"levelo_inurba_marseille","lat":43.255756,"lon":5.382303,"is_reserved":false,"is_disabled":false,"rental_uris":{"android":"levelo://app?vid=e2ee4aa9-5c76-443b-ae81-10d3c8b1bdec","ios":"levelo://app?vid=e2ee4aa9-5c76-443b-ae81-10d3c8b1bdec"},"vehicle_type_id":"4","last_reported":1685462911,"current_range_meters":30400,"station_id":"ce4bhih2rcd13ifvqfs0","pricing_plan_id":"free"},{"bike_id":"b8d596d4-ab74-470d-a541-c951c7743b1c","system_id":"levelo_inurba_marseille","lat":43.255756,"lon":5.382303,"is_reserved":false,"is_disabled":false,"rental_uris":{"android":"levelo://app?vid=b8d596d4-ab74-470d-a541-c951c7743b1c","ios":"levelo://app?vid=b8d596d4-ab74-470d-a541-c951c7743b1c"},"vehicle_type_id":"4","last_reported":1685462911,"current_range_meters":11600,"station_id":"ce4bhih2rcd13ifvqfs0","pricing_plan_id":"free"},{"bike_id":"8bcd3a58-2fcc-47be-866c-07219827b9dc","system_id":"levelo_inurba_marseille","lat":43.255756,"lon":5.382303,"is_reserved":false,"is_disabled":false,"rental_uris":{"android":"levelo://app?vid=8bcd3a58-2fcc-47be-866c-07219827b9dc","ios":"levelo://app?vid=8bcd3a58-2fcc-47be-866c-07219827b9dc"},"vehicle_type_id":"4","last_reported":1685462911,"current_range_meters":26800,"station_id":"ce4bhih2rcd13ifvqfs0","pricing_plan_id":"free"},{"bike_id":"7cb57cc4-cf08-4b00-a31c-c1120bb4079c","system_id":"levelo_inurba_marseille","lat":43.255756,"lon":5.382303,"is_reserved":false,"is_disabled":false,"rental_uris":{"android":"levelo://app?vid=7cb57cc4-cf08-4b00-a31c-c1120bb4079c","ios":"levelo://app?vid=7cb57cc4-cf08-4b00-a31c-c1120bb4079c"},"vehicle_type_id":"4","last_reported":1685462911,"current_range_meters":26400,"station_id":"ce4bhih2rcd13ifvqfs0","pricing_plan_id":"free"},{"bike_id":"0fea447f-93b0-482c-9d1c-e445ef77957e","system_id":"levelo_inurba_marseille","lat":43.25571,"lon":5.38231,"is_reserved":false,"is_disabled":false,"rental_uris":{"android":"levelo://app?vid=0fea447f-93b0-482c-9d1c-e445ef77957e","ios":"levelo://app?vid=0fea447f-93b0-482c-9d1c-e445ef77957e"},"vehicle_type_id":"4","last_reported":1685462911,"current_range_meters":25600,"station_id":"ce4bhih2rcd13ifvqfs0","pricing_plan_id":"free"},{"bike_id":"4a4dc7a4-29f7-4aa0-8553-612d1c2534da","system_id":"levelo_inurba_marseille","lat":43.255756,"lon":5.382303,"is_reserved":false,"is_disabled":false,"rental_uris":{"android":"levelo://app?vid=4a4dc7a4-29f7-4aa0-8553-612d1c2534da","ios":"levelo://app?vid=4a4dc7a4-29f7-4aa0-8553-612d1c2534da"},"vehicle_type_id":"4","last_reported":1685462911,"current_range_meters":21600,"station_id":"ce4bhih2rcd13ifvqfs0","pricing_plan_id":"free"},{"bike_id":"58dada6d-565d-4257-892c-76ae0937db0f","system_id":"levelo_inurba_marseille","lat":43.254947,"lon":5.376454,"is_reserved":false,"is_disabled":false,"rental_uris":{"android":"levelo://app?vid=58dada6d-565d-4257-892c-76ae0937db0f","ios":"levelo://app?vid=58dada6d-565d-4257-892c-76ae0937db0f"},"vehicle_type_id":"4","last_reported":1685462911,"current_range_meters":31200,"station_id":"ce4bhh12rcd13ifvqff0","pricing_plan_id":"free"},{"bike_id":"dbf8348c-1e46-4c42-b545-28740b973dae","system_id":"levelo_inurba_marseille","lat":43.27076,"lon":5.42274,"is_reserved":false,"is_disabled":false,"rental_uris":{"android":"levelo://app?vid=dbf8348c-1e46-4c42-b545-28740b973dae","ios":"levelo://app?vid=dbf8348c-1e46-4c42-b545-28740b973dae"},"vehicle_type_id":"4","last_reported":1685462911,"current_range_meters":27200,"station_id":"ce4bhk92rcd13ifvqgb0","pricing_plan_id":"free"},{"bike_id":"581a7ef3-d8bc-41a1-97cc-a47be07aebc3","system_id":"levelo_inurba_marseille","lat":43.25459,"lon":5.37978,"is_reserved":false,"is_disabled":false,"rental_uris":{"android":"levelo://app?vid=581a7ef3-d8bc-41a1-97cc-a47be07aebc3","ios":"levelo://app?vid=581a7ef3-d8bc-41a1-97cc-a47be07aebc3"},"vehicle_type_id":"4","last_reported":1685462911,"current_range_meters":13200,"station_id":"","pricing_plan_id":"free"},{"bike_id":"a93ca06f-3f39-4ded-8b55-d21953c63a58","system_id":"levelo_inurba_marseille","lat":43.25444,"lon":5.38106,"is_reserved":false,"is_disabled":false,"rental_uris":{"android":"levelo://app?vid=a93ca06f-3f39-4ded-8b55-d21953c63a58","ios":"levelo://app?vid=a93ca06f-3f39-4ded-8b55-d21953c63a58"},"vehicle_type_id":"4","last_reported":1685462911,"current_range_meters":7600,"station_id":"","pricing_plan_id":"free"},{"bike_id":"841f1318-77c5-4f4f-9060-08da964d399f","system_id":"levelo_inurba_marseille","lat":43.25713,"lon":5.41107,"is_reserved":false,"is_disabled":false,"rental_uris":{"android":"levelo://app?vid=841f1318-77c5-4f4f-9060-08da964d399f","ios":"levelo://app?vid=841f1318-77c5-4f4f-9060-08da964d399f"},"vehicle_type_id":"4","last_reported":1685462911,"current_range_meters":12400,"station_id":"","pricing_plan_id":"free"},{"bike_id":"47abf1e8-3d32-4dfa-9ce5-c756190f6bbc","system_id":"levelo_inurba_marseille","lat":43.25008,"lon":5.38913,"is_reserved":false,"is_disabled":false,"rental_uris":{"android":"levelo://app?vid=47abf1e8-3d32-4dfa-9ce5-c756190f6bbc","ios":"levelo://app?vid=47abf1e8-3d32-4dfa-9ce5-c756190f6bbc"},"vehicle_type_id":"4","last_reported":1685462911,"current_range_meters":12400,"station_id":"ce4bhgp2rcd13ifvqfd0","pricing_plan_id":"free"},{"bike_id":"4346b5cb-5324-4e22-9592-9d48e39902ea","system_id":"levelo_inurba_marseille","lat":43.250023,"lon":5.38919,"is_reserved":false,"is_disabled":false,"rental_uris":{"android":"levelo://app?vid=4346b5cb-5324-4e22-9592-9d48e39902ea","ios":"levelo://app?vid=4346b5cb-5324-4e22-9592-9d48e39902ea"},"vehicle_type_id":"4","last_reported":1685462911,"current_range_meters":8400,"station_id":"ce4bhgp2rcd13ifvqfd0","pricing_plan_id":"free"},{"bike_id":"97f127af-1670-422a-af44-5f798f6c339d","system_id":"levelo_inurba_marseille","lat":43.2479,"lon":5.374457,"is_reserved":false,"is_disabled":false,"rental_uris":{"android":"levelo://app?vid=97f127af-1670-422a-af44-5f798f6c339d","ios":"levelo://app?vid=97f127af-1670-422a-af44-5f798f6c339d"},"vehicle_type_id":"4","last_reported":1685462911,"current_range_meters":19200,"station_id":"ce4bhgh2rcd13ifvqfb0","pricing_plan_id":"free"},{"bike_id":"15059753-aa37-40cf-866d-fad4bbe667e9","system_id":"levelo_inurba_marseille","lat":43.2479,"lon":5.374457,"is_reserved":false,"is_disabled":false,"rental_uris":{"android":"levelo://app?vid=15059753-aa37-40cf-866d-fad4bbe667e9","ios":"levelo://app?vid=15059753-aa37-40cf-866d-fad4bbe667e9"},"vehicle_type_id":"4","last_reported":1685462911,"current_range_meters":0,"station_id":"ce4bhgh2rcd13ifvqfb0","pricing_plan_id":"free"},{"bike_id":"4f558212-2530-4ab0-9f91-d6c6659cd6da","system_id":"levelo_inurba_marseille","lat":43.2479,"lon":5.374457,"is_reserved":false,"is_disabled":false,"rental_uris":{"android":"levelo://app?vid=4f558212-2530-4ab0-9f91-d6c6659cd6da","ios":"levelo://app?vid=4f558212-2530-4ab0-9f91-d6c6659cd6da"},"vehicle_type_id":"4","last_reported":1685462911,"current_range_meters":21200,"station_id":"ce4bhgh2rcd13ifvqfb0","pricing_plan_id":"free"},{"bike_id":"8c53b91e-3bdf-4c7f-b670-a75f2e6223cb","system_id":"levelo_inurba_marseille","lat":43.2479,"lon":5.374457,"is_reserved":false,"is_disabled":false,"rental_uris":{"android":"levelo://app?vid=8c53b91e-3bdf-4c7f-b670-a75f2e6223cb","ios":"levelo://app?vid=8c53b91e-3bdf-4c7f-b670-a75f2e6223cb"},"vehicle_type_id":"4","last_reported":1685462911,"current_range_meters":26000,"station_id":"ce4bhgh2rcd13ifvqfb0","pricing_plan_id":"free"},{"bike_id":"d969743b-f160-4bf3-aa89-96c68ce29f1e","system_id":"levelo_inurba_marseille","lat":43.250966,"lon":5.395186,"is_reserved":false,"is_disabled":false,"rental_uris":{"android":"levelo://app?vid=d969743b-f160-4bf3-aa89-96c68ce29f1e","ios":"levelo://app?vid=d969743b-f160-4bf3-aa89-96c68ce29f1e"},"vehicle_type_id":"4","last_reported":1685462911,"current_range_meters":400,"station_id":"ce4bhm12rcd13ifvqgkg","pricing_plan_id":"free"},{"bike_id":"b8636bb7-8bc4-4dba-b798-aadf1596db82","system_id":"levelo_inurba_marseille","lat":43.250966,"lon":5.395186,"is_reserved":false,"is_disabled":false,"rental_uris":{"android":"levelo://app?vid=b8636bb7-8bc4-4dba-b798-aadf1596db82","ios":"levelo://app?vid=b8636bb7-8bc4-4dba-b798-aadf1596db82"},"vehicle_type_id":"4","last_reported":1685462911,"current_range_meters":29600,"station_id":"ce4bhm12rcd13ifvqgkg","pricing_plan_id":"free"},{"bike_id":"b727dcb8-fa78-4528-bc27-3f555161c609","system_id":"levelo_inurba_marseille","lat":43.250966,"lon":5.395186,"is_reserved":false,"is_disabled":false,"rental_uris":{"android":"levelo://app?vid=b727dcb8-fa78-4528-bc27-3f555161c609","ios":"levelo://app?vid=b727dcb8-fa78-4528-bc27-3f555161c609"},"vehicle_type_id":"4","last_reported":1685462911,"current_range_meters":26400,"station_id":"ce4bhm12rcd13ifvqgkg","pricing_plan_id":"free"},{"bike_id":"062d4a3c-e3cb-4cca-b4c2-eeab26d1da78","system_id":"levelo_inurba_marseille","lat":43.250966,"lon":5.395186,"is_reserved":false,"is_disabled":false,"rental_uris":{"android":"levelo://app?vid=062d4a3c-e3cb-4cca-b4c2-eeab26d1da78","ios":"levelo://app?vid=062d4a3c-e3cb-4cca-b4c2-eeab26d1da78"},"vehicle_type_id":"4","last_reported":1685462911,"current_range_meters":30400,"station_id":"ce4bhm12rcd13ifvqgkg","pricing_plan_id":"free"},{"bike_id":"4d91bedc-d35d-4844-9597-f81333f74415","system_id":"levelo_inurba_marseille","lat":43.25102,"lon":5.403214,"is_reserved":false,"is_disabled":false,"rental_uris":{"android":"levelo://app?vid=4d91bedc-d35d-4844-9597-f81333f74415","ios":"levelo://app?vid=4d91bedc-d35d-4844-9597-f81333f74415"},"vehicle_type_id":"4","last_reported":1685462911,"current_range_meters":18400,"station_id":"ce4bhlh2rcd13ifvqgig","pricing_plan_id":"free"},{"bike_id":"0ee73ac1-f371-42ea-b689-dc1ef63b294e","system_id":"levelo_inurba_marseille","lat":43.25102,"lon":5.403214,"is_reserved":false,"is_disabled":false,"rental_uris":{"android":"levelo://app?vid=0ee73ac1-f371-42ea-b689-dc1ef63b294e","ios":"levelo://app?vid=0ee73ac1-f371-42ea-b689-dc1ef63b294e"},"vehicle_type_id":"4","last_reported":1685462911,"current_range_meters":11200,"station_id":"ce4bhlh2rcd13ifvqgig","pricing_plan_id":"free"},{"bike_id":"7dfbf823-179e-4603-a3f5-4d90c7131714","system_id":"levelo_inurba_marseille","lat":43.25102,"lon":5.403214,"is_reserved":false,"is_disabled":false,"rental_uris":{"android":"levelo://app?vid=7dfbf823-179e-4603-a3f5-4d90c7131714","ios":"levelo://app?vid=7dfbf823-179e-4603-a3f5-4d90c7131714"},"vehicle_type_id":"4","last_reported":1685462911,"current_range_meters":19600,"station_id":"ce4bhlh2rcd13ifvqgig","pricing_plan_id":"free"},{"bike_id":"2d9fb37e-d96d-499c-941f-95dc8f4f67aa","system_id":"levelo_inurba_marseille","lat":43.24652,"lon":5.38897,"is_reserved":false,"is_disabled":false,"rental_uris":{"android":"levelo://app?vid=2d9fb37e-d96d-499c-941f-95dc8f4f67aa","ios":"levelo://app?vid=2d9fb37e-d96d-499c-941f-95dc8f4f67aa"},"vehicle_type_id":"4","last_reported":1685462911,"current_range_meters":12400,"station_id":"ce4bhg12rcd13ifvqf60","pricing_plan_id":"free"},{"bike_id":"f01a11df-fb67-479c-88df-1cee7c05d4ea","system_id":"levelo_inurba_marseille","lat":43.24645,"lon":5.38897,"is_reserved":false,"is_disabled":false,"rental_uris":{"android":"levelo://app?vid=f01a11df-fb67-479c-88df-1cee7c05d4ea","ios":"levelo://app?vid=f01a11df-fb67-479c-88df-1cee7c05d4ea"},"vehicle_type_id":"4","last_reported":1685462911,"current_range_meters":24400,"station_id":"ce4bhg12rcd13ifvqf60","pricing_plan_id":"free"},{"bike_id":"a289d5cc-fb7a-46de-9f68-b2168fbc8bc7","system_id":"levelo_inurba_marseille","lat":43.243884,"lon":5.370737,"is_reserved":false,"is_disabled":false,"rental_uris":{"android":"levelo://app?vid=a289d5cc-fb7a-46de-9f68-b2168fbc8bc7","ios":"levelo://app?vid=a289d5cc-fb7a-46de-9f68-b2168fbc8bc7"},"vehicle_type_id":"4","last_reported":1685462911,"current_range_meters":12800,"station_id":"ce4bhhh2rcd13ifvqfk0","pricing_plan_id":"free"},{"bike_id":"9a555c0d-5be3-4238-b689-3730b1d4d0e4","system_id":"levelo_inurba_marseille","lat":43.243884,"lon":5.370736,"is_reserved":false,"is_disabled":false,"rental_uris":{"android":"levelo://app?vid=9a555c0d-5be3-4238-b689-3730b1d4d0e4","ios":"levelo://app?vid=9a555c0d-5be3-4238-b689-3730b1d4d0e4"},"vehicle_type_id":"4","last_reported":1685462911,"current_range_meters":29200,"station_id":"ce4bhhh2rcd13ifvqfk0","pricing_plan_id":"free"},{"bike_id":"49c6422f-bb7f-475c-a8fe-df98681756d7","system_id":"levelo_inurba_marseille","lat":43.243884,"lon":5.370737,"is_reserved":false,"is_disabled":false,"rental_uris":{"android":"levelo://app?vid=49c6422f-bb7f-475c-a8fe-df98681756d7","ios":"levelo://app?vid=49c6422f-bb7f-475c-a8fe-df98681756d7"},"vehicle_type_id":"4","last_reported":1685462911,"current_range_meters":0,"station_id":"ce4bhhh2rcd13ifvqfk0","pricing_plan_id":"free"},{"bike_id":"83f95681-65ca-4155-a4a9-1f6dea17a693","system_id":"levelo_inurba_marseille","lat":43.245581,"lon":5.395069,"is_reserved":false,"is_disabled":false,"rental_uris":{"android":"levelo://app?vid=83f95681-65ca-4155-a4a9-1f6dea17a693","ios":"levelo://app?vid=83f95681-65ca-4155-a4a9-1f6dea17a693"},