{"last_updated":1683144430,"ttl":30,"version":"2.2","data":{"bikes":[{"bike_id":"8ed9a119-7b20-4a4f-a691-7bd7e6c6eb81","system_id":"levelo_inurba_marseille","lat":43.31341,"lon":5.367098,"is_reserved":false,"is_disabled":false,"rental_uris":{"android":"levelo://app?vid=8ed9a119-7b20-4a4f-a691-7bd7e6c6eb81","ios":"levelo://app?vid=8ed9a119-7b20-4a4f-a691-7bd7e6c6eb81"},"vehicle_type_id":"4","last_reported":1683144431,"current_range_meters":9200,"station_id":"ce4bgr92rcd13ifvqc6g","pricing_plan_id":"free"},{"bike_id":"ebbaa32d-f31d-4d19-aacc-0020a16a2cc1","system_id":"levelo_inurba_marseille","lat":43.312239,"lon":5.368562,"is_reserved":false,"is_disabled":false,"rental_uris":{"android":"levelo://app?vid=ebbaa32d-f31d-4d19-aacc-0020a16a2cc1","ios":"levelo://app?vid=ebbaa32d-f31d-4d19-aacc-0020a16a2cc1"},"vehicle_type_id":"4","last_reported":1683144431,"current_range_meters":31200,"station_id":"ce4bgl92rcd13ifvqbq0","pricing_plan_id":"free"},{"bike_id":"65be3bf5-e913-4d20-8524-4b568bfe2d95","system_id":"levelo_inurba_marseille","lat":43.312239,"lon":5.368562,"is_reserved":false,"is_disabled":false,"rental_uris":{"android":"levelo://app?vid=65be3bf5-e913-4d20-8524-4b568bfe2d95","ios":"levelo://app?vid=65be3bf5-e913-4d20-8524-4b568bfe2d95"},"vehicle_type_id":"4","last_reported":1683144431,"current_range_meters":17600,"station_id":"ce4bgl92rcd13ifvqbq0","pricing_plan_id":"free"},{"bike_id":"24c818cb-501a-43b8-affc-4ce81a97bbf7","system_id":"levelo_inurba_marseille","lat":43.31479,"lon":5.37304,"is_reserved":false,"is_disabled":false,"rental_uris":{"android":"levelo://app?vid=24c818cb-501a-43b8-affc-4ce81a97bbf7","ios":"levelo://app?vid=24c818cb-501a-43b8-affc-4ce81a97bbf7"},"vehicle_type_id":"4","last_reported":1683144431,"current_range_meters":29200,"station_id":"ce4bgt12rcd13ifvqcd0","pricing_plan_id":"free"},{"bike_id":"c4c2d85a-2307-41ff-a2da-b088bfd45929","system_id":"levelo_inurba_marseille","lat":43.314811,"lon":5.373103,"is_reserved":false,"is_disabled":false,"rental_uris":{"android":"levelo://app?vid=c4c2d85a-2307-41ff-a2da-b088bfd45929","ios":"levelo://app?vid=c4c2d85a-2307-41ff-a2da-b088bfd45929"},"vehicle_type_id":"4","last_reported":1683144431,"current_range_meters":13200,"station_id":"ce4bgt12rcd13ifvqcd0","pricing_plan_id":"free"},{"bike_id":"8c5092b9-d2d3-4135-8c3a-f8063b48d766","system_id":"levelo_inurba_marseille","lat":43.31487,"lon":5.37309,"is_reserved":false,"is_disabled":false,"rental_uris":{"android":"levelo://app?vid=8c5092b9-d2d3-4135-8c3a-f8063b48d766","ios":"levelo://app?vid=8c5092b9-d2d3-4135-8c3a-f8063b48d766"},"vehicle_type_id":"4","last_reported":1683144431,"current_range_meters":29200,"station_id":"ce4bgt12rcd13ifvqcd0","pricing_plan_id":"free"},{"bike_id":"ed148411-ff2d-4ee9-99bb-5a2c5164248b","system_id":"levelo_inurba_marseille","lat":43.314811,"lon":5.373103,"is_reserved":false,"is_disabled":false,"rental_uris":{"android":"levelo://app?vid=ed148411-ff2d-4ee9-99bb-5a2c5164248b","ios":"levelo://app?vid=ed148411-ff2d-4ee9-99bb-5a2c5164248b"},"vehicle_type_id":"4","last_reported":1683144431,"current_range_meters":22800,"station_id":"ce4bgt12rcd13ifvqcd0","pricing_plan_id":"free"},{"bike_id":"54cea9bf-a116-45b4-8d40-8ec80d173ef7","system_id":"levelo_inurba_marseille","lat":43.308614,"lon":5.372098,"is_reserved":false,"is_disabled":false,"rental_uris":{"android":"levelo://app?vid=54cea9bf-a116-45b4-8d40-8ec80d173ef7","ios":"levelo://app?vid=54cea9bf-a116-45b4-8d40-8ec80d173ef7"},"vehicle_type_id":"4","last_reported":1683144431,"current_range_meters":0,"station_id":"ce4bguh2rcd13ifvqckg","pricing_plan_id":"free"},{"bike_id":"70cfe937-26f0-42ae-bb52-c3be68341b90","system_id":"levelo_inurba_marseille","lat":43.30884,"lon":5.37208,"is_reserved":false,"is_disabled":false,"rental_uris":{"android":"levelo://app?vid=70cfe937-26f0-42ae-bb52-c3be68341b90","ios":"levelo://app?vid=70cfe937-26f0-42ae-bb52-c3be68341b90"},"vehicle_type_id":"4","last_reported":1683144431,"current_range_meters":19600,"station_id":"ce4bguh2rcd13ifvqckg","pricing_plan_id":"free"},{"bike_id":"caea2489-5a5d-4f00-8e78-8c319f8ed68e","system_id":"levelo_inurba_marseille","lat":43.3057,"lon":5.36553,"is_reserved":false,"is_disabled":false,"rental_uris":{"android":"levelo://app?vid=caea2489-5a5d-4f00-8e78-8c319f8ed68e","ios":"levelo://app?vid=caea2489-5a5d-4f00-8e78-8c319f8ed68e"},"vehicle_type_id":"4","last_reported":1683144431,"current_range_meters":21200,"station_id":"","pricing_plan_id":"free"},{"bike_id":"8c908731-2ca3-4c83-903a-82c3a55143a4","system_id":"levelo_inurba_marseille","lat":43.306579,"lon":5.373201,"is_reserved":false,"is_disabled":false,"rental_uris":{"android":"levelo://app?vid=8c908731-2ca3-4c83-903a-82c3a55143a4","ios":"levelo://app?vid=8c908731-2ca3-4c83-903a-82c3a55143a4"},"vehicle_type_id":"4","last_reported":1683144431,"current_range_meters":6800,"station_id":"ce4bgqh2rcd13ifvqc4g","pricing_plan_id":"free"},{"bike_id":"ab39ae5d-8928-4d93-9820-5463b26cc168","system_id":"levelo_inurba_marseille","lat":43.305989,"lon":5.37225,"is_reserved":false,"is_disabled":false,"rental_uris":{"android":"levelo://app?vid=ab39ae5d-8928-4d93-9820-5463b26cc168","ios":"levelo://app?vid=ab39ae5d-8928-4d93-9820-5463b26cc168"},"vehicle_type_id":"4","last_reported":1683144431,"current_range_meters":18000,"station_id":"ce4bgqh2rcd13ifvqc4g","pricing_plan_id":"free"},{"bike_id":"9eb47e2f-b6d9-4015-826d-0d16fa921581","system_id":"levelo_inurba_marseille","lat":43.305989,"lon":5.37225,"is_reserved":false,"is_disabled":false,"rental_uris":{"android":"levelo://app?vid=9eb47e2f-b6d9-4015-826d-0d16fa921581","ios":"levelo://app?vid=9eb47e2f-b6d9-4015-826d-0d16fa921581"},"vehicle_type_id":"4","last_reported":1683144431,"current_range_meters":13200,"station_id":"ce4bgqh2rcd13ifvqc4g","pricing_plan_id":"free"},{"bike_id":"ef4ab549-6cae-4dc7-b4f5-89bcdee8f60d","system_id":"levelo_inurba_marseille","lat":43.31112,"lon":5.37766,"is_reserved":false,"is_disabled":false,"rental_uris":{"android":"levelo://app?vid=ef4ab549-6cae-4dc7-b4f5-89bcdee8f60d","ios":"levelo://app?vid=ef4ab549-6cae-4dc7-b4f5-89bcdee8f60d"},"vehicle_type_id":"4","last_reported":1683144431,"current_range_meters":6000,"station_id":"ce4bgt92rcd13ifvqcg0","pricing_plan_id":"free"},{"bike_id":"b0e2686f-ff10-4371-83ce-363ad86ca70d","system_id":"levelo_inurba_marseille","lat":43.311131,"lon":5.377651,"is_reserved":false,"is_disabled":false,"rental_uris":{"android":"levelo://app?vid=b0e2686f-ff10-4371-83ce-363ad86ca70d","ios":"levelo://app?vid=b0e2686f-ff10-4371-83ce-363ad86ca70d"},"vehicle_type_id":"4","last_reported":1683144431,"current_range_meters":17200,"station_id":"ce4bgt92rcd13ifvqcg0","pricing_plan_id":"free"},{"bike_id":"d2228359-7410-4ac8-a86b-3d1f5dd8ef79","system_id":"levelo_inurba_marseille","lat":43.317075,"lon":5.377367,"is_reserved":false,"is_disabled":false,"rental_uris":{"android":"levelo://app?vid=d2228359-7410-4ac8-a86b-3d1f5dd8ef79","ios":"levelo://app?vid=d2228359-7410-4ac8-a86b-3d1f5dd8ef79"},"vehicle_type_id":"4","last_reported":1683144431,"current_range_meters":13200,"station_id":"ce4bgth2rcd13ifvqch0","pricing_plan_id":"free"},{"bike_id":"91a40cbf-dd1a-44f6-b402-002db0d81186","system_id":"levelo_inurba_marseille","lat":43.317075,"lon":5.377367,"is_reserved":false,"is_disabled":false,"rental_uris":{"android":"levelo://app?vid=91a40cbf-dd1a-44f6-b402-002db0d81186","ios":"levelo://app?vid=91a40cbf-dd1a-44f6-b402-002db0d81186"},"vehicle_type_id":"4","last_reported":1683144431,"current_range_meters":22400,"station_id":"ce4bgth2rcd13ifvqch0","pricing_plan_id":"free"},{"bike_id":"63dcd5b6-a3dd-48bd-8d5e-1d3c2c2ecbf3","system_id":"levelo_inurba_marseille","lat":43.317075,"lon":5.377367,"is_reserved":false,"is_disabled":false,"rental_uris":{"android":"levelo://app?vid=63dcd5b6-a3dd-48bd-8d5e-1d3c2c2ecbf3","ios":"levelo://app?vid=63dcd5b6-a3dd-48bd-8d5e-1d3c2c2ecbf3"},"vehicle_type_id":"4","last_reported":1683144431,"current_range_meters":20400,"station_id":"ce4bgth2rcd13ifvqch0","pricing_plan_id":"free"},{"bike_id":"df9c5f1c-9a51-47bf-ba0f-971fa2fee28c","system_id":"levelo_inurba_marseille","lat":43.317075,"lon":5.377367,"is_reserved":false,"is_disabled":false,"rental_uris":{"android":"levelo://app?vid=df9c5f1c-9a51-47bf-ba0f-971fa2fee28c","ios":"levelo://app?vid=df9c5f1c-9a51-47bf-ba0f-971fa2fee28c"},"vehicle_type_id":"4","last_reported":1683144431,"current_range_meters":31200,"station_id":"ce4bgth2rcd13ifvqch0","pricing_plan_id":"free"},{"bike_id":"69b4e6f4-8974-4aed-9dd8-87a6972e1035","system_id":"levelo_inurba_marseille","lat":43.317075,"lon":5.377367,"is_reserved":false,"is_disabled":false,"rental_uris":{"android":"levelo://app?vid=69b4e6f4-8974-4aed-9dd8-87a6972e1035","ios":"levelo://app?vid=69b4e6f4-8974-4aed-9dd8-87a6972e1035"},"vehicle_type_id":"4","last_reported":1683144431,"current_range_meters":31200,"station_id":"ce4bgth2rcd13ifvqch0","pricing_plan_id":"free"},{"bike_id":"95a1c047-0df7-4cfe-9b08-aa2d048d909e","system_id":"levelo_inurba_marseille","lat":43.317075,"lon":5.377367,"is_reserved":false,"is_disabled":false,"rental_uris":{"android":"levelo://app?vid=95a1c047-0df7-4cfe-9b08-aa2d048d909e","ios":"levelo://app?vid=95a1c047-0df7-4cfe-9b08-aa2d048d909e"},"vehicle_type_id":"4","last_reported":1683144431,"current_range_meters":27600,"station_id":"ce4bgth2rcd13ifvqch0","pricing_plan_id":"free"},{"bike_id":"717eb845-a03d-4f24-bdbe-5a13908711a3","system_id":"levelo_inurba_marseille","lat":43.317075,"lon":5.377367,"is_reserved":false,"is_disabled":false,"rental_uris":{"android":"levelo://app?vid=717eb845-a03d-4f24-bdbe-5a13908711a3","ios":"levelo://app?vid=717eb845-a03d-4f24-bdbe-5a13908711a3"},"vehicle_type_id":"4","last_reported":1683144431,"current_range_meters":28400,"station_id":"ce4bgth2rcd13ifvqch0","pricing_plan_id":"free"},{"bike_id":"17470595-d7da-47b0-ae91-8e0a12964a37","system_id":"levelo_inurba_marseille","lat":43.317075,"lon":5.377367,"is_reserved":false,"is_disabled":false,"rental_uris":{"android":"levelo://app?vid=17470595-d7da-47b0-ae91-8e0a12964a37","ios":"levelo://app?vid=17470595-d7da-47b0-ae91-8e0a12964a37"},"vehicle_type_id":"4","last_reported":1683144431,"current_range_meters":28800,"station_id":"ce4bgth2rcd13ifvqch0","pricing_plan_id":"free"},{"bike_id":"e354db13-ebb2-4ec5-86ef-2e0650f4640c","system_id":"levelo_inurba_marseille","lat":43.315289,"lon":5.380349,"is_reserved":false,"is_disabled":false,"rental_uris":{"android":"levelo://app?vid=e354db13-ebb2-4ec5-86ef-2e0650f4640c","ios":"levelo://app?vid=e354db13-ebb2-4ec5-86ef-2e0650f4640c"},"vehicle_type_id":"4","last_reported":1683144431,"current_range_meters":16800,"station_id":"ce4bhsp2rcd13ifvqi50","pricing_plan_id":"free"},{"bike_id":"d4b7ca90-9283-4f9b-b448-7bfaba9c7850","system_id":"levelo_inurba_marseille","lat":43.31538,"lon":5.38029,"is_reserved":false,"is_disabled":false,"rental_uris":{"android":"levelo://app?vid=d4b7ca90-9283-4f9b-b448-7bfaba9c7850","ios":"levelo://app?vid=d4b7ca90-9283-4f9b-b448-7bfaba9c7850"},"vehicle_type_id":"4","last_reported":1683144431,"current_range_meters":31200,"station_id":"ce4bhsp2rcd13ifvqi50","pricing_plan_id":"free"},{"bike_id":"a7761f59-a5d1-4c4c-a2ee-a351061e7c5d","system_id":"levelo_inurba_marseille","lat":43.315289,"lon":5.380349,"is_reserved":false,"is_disabled":false,"rental_uris":{"android":"levelo://app?vid=a7761f59-a5d1-4c4c-a2ee-a351061e7c5d","ios":"levelo://app?vid=a7761f59-a5d1-4c4c-a2ee-a351061e7c5d"},"vehicle_type_id":"4","last_reported":1683144431,"current_range_meters":31600,"station_id":"ce4bhsp2rcd13ifvqi50","pricing_plan_id":"free"},{"bike_id":"44997d00-a901-4995-abbf-bd71a8a6aee6","system_id":"levelo_inurba_marseille","lat":43.315293,"lon":5.380349,"is_reserved":false,"is_disabled":false,"rental_uris":{"android":"levelo://app?vid=44997d00-a901-4995-abbf-bd71a8a6aee6","ios":"levelo://app?vid=44997d00-a901-4995-abbf-bd71a8a6aee6"},"vehicle_type_id":"4","last_reported":1683144431,"current_range_meters":25600,"station_id":"ce4bhsp2rcd13ifvqi50","pricing_plan_id":"free"},{"bike_id":"29913f1f-381b-4f69-b437-e340ceb56074","system_id":"levelo_inurba_marseille","lat":43.31528,"lon":5.38034,"is_reserved":false,"is_disabled":false,"rental_uris":{"android":"levelo://app?vid=29913f1f-381b-4f69-b437-e340ceb56074","ios":"levelo://app?vid=29913f1f-381b-4f69-b437-e340ceb56074"},"vehicle_type_id":"4","last_reported":1683144431,"current_range_meters":31200,"station_id":"ce4bhsp2rcd13ifvqi50","pricing_plan_id":"free"},{"bike_id":"1d684d7b-026a-4c56-aeff-552422410b3d","system_id":"levelo_inurba_marseille","lat":43.315289,"lon":5.380349,"is_reserved":false,"is_disabled":false,"rental_uris":{"android":"levelo://app?vid=1d684d7b-026a-4c56-aeff-552422410b3d","ios":"levelo://app?vid=1d684d7b-026a-4c56-aeff-552422410b3d"},"vehicle_type_id":"4","last_reported":1683144431,"current_range_meters":16000,"station_id":"ce4bhsp2rcd13ifvqi50","pricing_plan_id":"free"},{"bike_id":"e91534ee-04ed-4091-80eb-ae689c9d7b6c","system_id":"levelo_inurba_marseille","lat":43.315293,"lon":5.380349,"is_reserved":false,"is_disabled":false,"rental_uris":{"android":"levelo://app?vid=e91534ee-04ed-4091-80eb-ae689c9d7b6c","ios":"levelo://app?vid=e91534ee-04ed-4091-80eb-ae689c9d7b6c"},"vehicle_type_id":"4","last_reported":1683144431,"current_range_meters":2400,"station_id":"ce4bhsp2rcd13ifvqi50","pricing_plan_id":"free"},{"bike_id":"f778e238-a3f3-4480-9334-08407fb0d052","system_id":"levelo_inurba_marseille","lat":43.31532,"lon":5.38037,"is_reserved":false,"is_disabled":false,"rental_uris":{"android":"levelo://app?vid=f778e238-a3f3-4480-9334-08407fb0d052","ios":"levelo://app?vid=f778e238-a3f3-4480-9334-08407fb0d052"},"vehicle_type_id":"4","last_reported":1683144431,"current_range_meters":31200,"station_id":"ce4bhsp2rcd13ifvqi50","pricing_plan_id":"free"},{"bike_id":"8e0860e0-f023-4cf0-b907-6e3deffa549c","system_id":"levelo_inurba_marseille","lat":43.315289,"lon":5.380349,"is_reserved":false,"is_disabled":false,"rental_uris":{"android":"levelo://app?vid=8e0860e0-f023-4cf0-b907-6e3deffa549c","ios":"levelo://app?vid=8e0860e0-f023-4cf0-b907-6e3deffa549c"},"vehicle_type_id":"4","last_reported":1683144431,"current_range_meters":20800,"station_id":"ce4bhsp2rcd13ifvqi50","pricing_plan_id":"free"},{"bike_id":"f7a260ce-fffc-4ba1-9a7b-4a94bfd9c17e","system_id":"levelo_inurba_marseille","lat":43.3161,"lon":5.38018,"is_reserved":false,"is_disabled":false,"rental_uris":{"android":"levelo://app?vid=f7a260ce-fffc-4ba1-9a7b-4a94bfd9c17e","ios":"levelo://app?vid=f7a260ce-fffc-4ba1-9a7b-4a94bfd9c17e"},"vehicle_type_id":"4","last_reported":1683144431,"current_range_meters":400,"station_id":"","pricing_plan_id":"free"},{"bike_id":"c72e771f-ff1e-4e35-8057-ef04f9c0a2ef","system_id":"levelo_inurba_marseille","lat":43.31591,"lon":5.38104,"is_reserved":false,"is_disabled":false,"rental_uris":{"android":"levelo://app?vid=c72e771f-ff1e-4e35-8057-ef04f9c0a2ef","ios":"levelo://app?vid=c72e771f-ff1e-4e35-8057-ef04f9c0a2ef"},"vehicle_type_id":"4","last_reported":1683144431,"current_range_meters":0,"station_id":"","pricing_plan_id":"free"},{"bike_id":"2c4e6985-60c9-4562-baa5-e443e52ced68","system_id":"levelo_inurba_marseille","lat":43.308012,"lon":5.381511,"is_reserved":false,"is_disabled":false,"rental_uris":{"android":"levelo://app?vid=2c4e6985-60c9-4562-baa5-e443e52ced68","ios":"levelo://app?vid=2c4e6985-60c9-4562-baa5-e443e52ced68"},"vehicle_type_id":"4","last_reported":1683144431,"current_range_meters":9600,"station_id":"ce4bgt12rcd13ifvqce0","pricing_plan_id":"free"},{"bike_id":"314f34f1-b1df-4ce5-83f8-ff4a3abae701","system_id":"levelo_inurba_marseille","lat":43.308012,"lon":5.381511,"is_reserved":false,"is_disabled":false,"rental_uris":{"android":"levelo://app?vid=314f34f1-b1df-4ce5-83f8-ff4a3abae701","ios":"levelo://app?vid=314f34f1-b1df-4ce5-83f8-ff4a3abae701"},"vehicle_type_id":"4","last_reported":1683144431,"current_range_meters":400,"station_id":"ce4bgt12rcd13ifvqce0","pricing_plan_id":"free"},{"bike_id":"614d9fb6-0f21-4d9d-a5fd-806b49f4d622","system_id":"levelo_inurba_marseille","lat":43.308012,"lon":5.381511,"is_reserved":false,"is_disabled":false,"rental_uris":{"android":"levelo://app?vid=614d9fb6-0f21-4d9d-a5fd-806b49f4d622","ios":"levelo://app?vid=614d9fb6-0f21-4d9d-a5fd-806b49f4d622"},"vehicle_type_id":"4","last_reported":1683144431,"current_range_meters":3200,"station_id":"ce4bgt12rcd13ifvqce0","pricing_plan_id":"free"},{"bike_id":"4ac86f80-4859-4193-904a-862de8ace6f8","system_id":"levelo_inurba_marseille","lat":43.308012,"lon":5.381511,"is_reserved":false,"is_disabled":false,"rental_uris":{"android":"levelo://app?vid=4ac86f80-4859-4193-904a-862de8ace6f8","ios":"levelo://app?vid=4ac86f80-4859-4193-904a-862de8ace6f8"},"vehicle_type_id":"4","last_reported":1683144431,"current_range_meters":29200,"station_id":"ce4bgt12rcd13ifvqce0","pricing_plan_id":"free"},{"bike_id":"ba7c5e65-d1b9-47ad-87c8-fe654d26036a","system_id":"levelo_inurba_marseille","lat":43.301429,"lon":5.37413,"is_reserved":false,"is_disabled":false,"rental_uris":{"android":"levelo://app?vid=ba7c5e65-d1b9-47ad-87c8-fe654d26036a","ios":"levelo://app?vid=ba7c5e65-d1b9-47ad-87c8-fe654d26036a"},"vehicle_type_id":"4","last_reported":1683144431,"current_range_meters":25200,"station_id":"ce4bgs92rcd13ifvqcc0","pricing_plan_id":"free"},{"bike_id":"cc9c4303-2ed6-429c-8bff-5e0bb86d7060","system_id":"levelo_inurba_marseille","lat":43.313571,"lon":5.384829,"is_reserved":false,"is_disabled":false,"rental_uris":{"android":"levelo://app?vid=cc9c4303-2ed6-429c-8bff-5e0bb86d7060","ios":"levelo://app?vid=cc9c4303-2ed6-429c-8bff-5e0bb86d7060"},"vehicle_type_id":"4","last_reported":1683144431,"current_range_meters":20800,"station_id":"ce4bgt92rcd13ifvqcf0","pricing_plan_id":"free"},{"bike_id":"822a4d22-d5fe-4908-aa86-37085cdda476","system_id":"levelo_inurba_marseille","lat":43.299222,"lon":5.365554,"is_reserved":false,"is_disabled":false,"rental_uris":{"android":"levelo://app?vid=822a4d22-d5fe-4908-aa86-37085cdda476","ios":"levelo://app?vid=822a4d22-d5fe-4908-aa86-37085cdda476"},"vehicle_type_id":"4","last_reported":1683144431,"current_range_meters":10000,"station_id":"ce4bgm92rcd13ifvqbr0","pricing_plan_id":"free"},{"bike_id":"ad0fee0b-fbe0-4db9-8f3b-3a9a78081c99","system_id":"levelo_inurba_marseille","lat":43.299222,"lon":5.365554,"is_reserved":false,"is_disabled":false,"rental_uris":{"android":"levelo://app?vid=ad0fee0b-fbe0-4db9-8f3b-3a9a78081c99","ios":"levelo://app?vid=ad0fee0b-fbe0-4db9-8f3b-3a9a78081c99"},"vehicle_type_id":"4","last_reported":1683144431,"current_range_meters":8800,"station_id":"ce4bgm92rcd13ifvqbr0","pricing_plan_id":"free"},{"bike_id":"37e4bc39-67e8-47b5-933c-303f25d1c01d","system_id":"levelo_inurba_marseille","lat":43.30556,"lon":5.38378,"is_reserved":false,"is_disabled":false,"rental_uris":{"android":"levelo://app?vid=37e4bc39-67e8-47b5-933c-303f25d1c01d","ios":"levelo://app?vid=37e4bc39-67e8-47b5-933c-303f25d1c01d"},"vehicle_type_id":"4","last_reported":1683144431,"current_range_meters":0,"station_id":"","pricing_plan_id":"free"},{"bike_id":"de6cc751-3142-4948-9da9-02d92f4f6a77","system_id":"levelo_inurba_marseille","lat":43.305364,"lon":5.384119,"is_reserved":false,"is_disabled":false,"rental_uris":{"android":"levelo://app?vid=de6cc751-3142-4948-9da9-02d92f4f6a77","ios":"levelo://app?vid=de6cc751-3142-4948-9da9-02d92f4f6a77"},"vehicle_type_id":"4","last_reported":1683144431,"current_range_meters":1200,"station_id":"ce4bgg92rcd13ifvqb30","pricing_plan_id":"free"},{"bike_id":"0b8b9b9e-01b2-4e9e-b249-3a53329f16d6","system_id":"levelo_inurba_marseille","lat":43.305364,"lon":5.384119,"is_reserved":false,"is_disabled":false,"rental_uris":{"android":"levelo://app?vid=0b8b9b9e-01b2-4e9e-b249-3a53329f16d6","ios":"levelo://app?vid=0b8b9b9e-01b2-4e9e-b249-3a53329f16d6"},"vehicle_type_id":"4","last_reported":1683144431,"current_range_meters":0,"station_id":"ce4bgg92rcd13ifvqb30","pricing_plan_id":"free"},{"bike_id":"82a60bc5-ac09-488f-87c7-8951d33116d4","system_id":"levelo_inurba_marseille","lat":43.31189,"lon":5.38701,"is_reserved":false,"is_disabled":false,"rental_uris":{"android":"levelo://app?vid=82a60bc5-ac09-488f-87c7-8951d33116d4","ios":"levelo://app?vid=82a60bc5-ac09-488f-87c7-8951d33116d4"},"vehicle_type_id":"4","last_reported":1683144431,"current_range_meters":2800,"station_id":"ce4bgv12rcd13ifvqcp0","pricing_plan_id":"free"},{"bike_id":"7eb94106-3c6b-496f-8e6d-f1d1dc1786d5","system_id":"levelo_inurba_marseille","lat":43.305364,"lon":5.384119,"is_reserved":false,"is_disabled":false,"rental_uris":{"android":"levelo://app?vid=7eb94106-3c6b-496f-8e6d-f1d1dc1786d5","ios":"levelo://app?vid=7eb94106-3c6b-496f-8e6d-f1d1dc1786d5"},"vehicle_type_id":"4","last_reported":1683144431,"current_range_meters":31200,"station_id":"ce4bgg92rcd13ifvqb30","pricing_plan_id":"free"},{"bike_id":"f9ad1816-0774-4717-be3d-317e2d38ad16","system_id":"levelo_inurba_marseille","lat":43.30521,"lon":5.38425,"is_reserved":false,"is_disabled":false,"rental_uris":{"android":"levelo://app?vid=f9ad1816-0774-4717-be3d-317e2d38ad16","ios":"levelo://app?vid=f9ad1816-0774-4717-be3d-317e2d38ad16"},"vehicle_type_id":"4","last_reported":1683144431,"current_range_meters":3600,"station_id":"ce4bgg92rcd13ifvqb30","pricing_plan_id":"free"},{"bike_id":"527cc010-701c-48ff-b671-9b87fdb125ac","system_id":"levelo_inurba_marseille","lat":43.299243,"lon":5.37481,"is_reserved":false,"is_disabled":false,"rental_uris":{"android":"levelo://app?vid=527cc010-701c-48ff-b671-9b87fdb125ac","ios":"levelo://app?vid=527cc010-701c-48ff-b671-9b87fdb125ac"},"vehicle_type_id":"4","last_reported":1683144431,"current_range_meters":6800,"station_id":"ce4bgjh2rcd13ifvqbg0","pricing_plan_id":"free"},{"bike_id":"eca8b929-05df-4fcf-b2ea-fbcb38bc315c","system_id":"levelo_inurba_marseille","lat":43.299243,"lon":5.37481,"is_reserved":false,"is_disabled":false,"rental_uris":{"android":"levelo://app?vid=eca8b929-05df-4fcf-b2ea-fbcb38bc315c","ios":"levelo://app?vid=eca8b929-05df-4fcf-b2ea-fbcb38bc315c"},"vehicle_type_id":"4","last_reported":1683144431,"current_range_meters":18000,"station_id":"ce4bgjh2rcd13ifvqbg0","pricing_plan_id":"free"},{"bike_id":"2543848c-907a-450f-96cd-544ea36adaac","system_id":"levelo_inurba_marseille","lat":43.29806,"lon":5.36483,"is_reserved":false,"is_disabled":false,"rental_uris":{"android":"levelo://app?vid=2543848c-907a-450f-96cd-544ea36adaac","ios":"levelo://app?vid=2543848c-907a-450f-96cd-544ea36adaac"},"vehicle_type_id":"4","last_reported":1683144431,"current_range_meters":800,"station_id":"","pricing_plan_id":"free"},{"bike_id":"1a0d35f0-075a-448a-9efa-b5b048cb8f81","system_id":"levelo_inurba_marseille","lat":43.297774,"lon":5.370875,"is_reserved":false,"is_disabled":false,"rental_uris":{"android":"levelo://app?vid=1a0d35f0-075a-448a-9efa-b5b048cb8f81","ios":"levelo://app?vid=1a0d35f0-075a-448a-9efa-b5b048cb8f81"},"vehicle_type_id":"4","last_reported":1683144431,"current_range_meters":21600,"station_id":"ce4bgop2rcd13ifvqc1g","pricing_plan_id":"free"},{"bike_id":"3079ae25-1257-47ee-a711-b7904ba4c0b1","system_id":"levelo_inurba_marseille","lat":43.297794,"lon":5.370888,"is_reserved":false,"is_disabled":false,"rental_uris":{"android":"levelo://app?vid=3079ae25-1257-47ee-a711-b7904ba4c0b1","ios":"levelo://app?vid=3079ae25-1257-47ee-a711-b7904ba4c0b1"},"vehicle_type_id":"4","last_reported":1683144431,"current_range_meters":5200,"station_id":"ce4bgop2rcd13ifvqc1g","pricing_plan_id":"free"},{"bike_id":"40ee2902-66d4-4ad0-b815-5764db55e829","system_id":"levelo_inurba_marseille","lat":43.297794,"lon":5.370888,"is_reserved":false,"is_disabled":false,"rental_uris":{"android":"levelo://app?vid=40ee2902-66d4-4ad0-b815-5764db55e829","ios":"levelo://app?vid=40ee2902-66d4-4ad0-b815-5764db55e829"},"vehicle_type_id":"4","last_reported":1683144431,"current_range_meters":19200,"station_id":"ce4bgop2rcd13ifvqc1g","pricing_plan_id":"free"},{"bike_id":"9146c2fe-a39d-4f89-84e9-24ae5376d83d","system_id":"levelo_inurba_marseille","lat":43.32828,"lon":5.36689,"is_reserved":false,"is_disabled":false,"rental_uris":{"android":"levelo://app?vid=9146c2fe-a39d-4f89-84e9-24ae5376d83d","ios":"levelo://app?vid=9146c2fe-a39d-4f89-84e9-24ae5376d83d"},"vehicle_type_id":"4","last_reported":1683144431,"current_range_meters":7200,"station_id":"ce4bhs92rcd13ifvqi0g","pricing_plan_id":"free"},{"bike_id":"765a78e2-6c87-4368-9278-cb4015539b85","system_id":"levelo_inurba_marseille","lat":43.3283,"lon":5.36673,"is_reserved":false,"is_disabled":false,"rental_uris":{"android":"levelo://app?vid=765a78e2-6c87-4368-9278-cb4015539b85","ios":"levelo://app?vid=765a78e2-6c87-4368-9278-cb4015539b85"},"vehicle_type_id":"4","last_reported":1683144431,"current_range_meters":22400,"station_id":"ce4bhs92rcd13ifvqi0g","pricing_plan_id":"free"},{"bike_id":"b0238db5-0f4f-4bad-bb52-71c0621e1e58","system_id":"levelo_inurba_marseille","lat":43.32833,"lon":5.36691,"is_reserved":false,"is_disabled":false,"rental_uris":{"android":"levelo://app?vid=b0238db5-0f4f-4bad-bb52-71c0621e1e58","ios":"levelo://app?vid=b0238db5-0f4f-4bad-bb52-71c0621e1e58"},"vehicle_type_id":"4","last_reported":1683144431,"current_range_meters":12000,"station_id":"ce4bhs92rcd13ifvqi0g","pricing_plan_id":"free"},{"bike_id":"4533c166-4d6c-46c5-93cf-db13ee91111b","system_id":"levelo_inurba_marseille","lat":43.2968,"lon":5.37291,"is_reserved":false,"is_disabled":false,"rental_uris":{"android":"levelo://app?vid=4533c166-4d6c-46c5-93cf-db13ee91111b","ios":"levelo://app?vid=4533c166-4d6c-46c5-93cf-db13ee91111b"},"vehicle_type_id":"4","last_reported":1683144431,"current_range_meters":24000,"station_id":"ce4bgk12rcd13ifvqbj0","pricing_plan_id":"free"},{"bike_id":"aafcc005-5e38-4c52-a10d-6d0f89f0012b","system_id":"levelo_inurba_marseille","lat":43.302008,"lon":5.394694,"is_reserved":false,"is_disabled":false,"rental_uris":{"android":"levelo://app?vid=aafcc005-5e38-4c52-a10d-6d0f89f0012b","ios":"levelo://app?vid=aafcc005-5e38-4c52-a10d-6d0f89f0012b"},"vehicle_type_id":"4","last_reported":1683144431,"current_range_meters":19600,"station_id":"ce4bh0p2rcd13ifvqd70","pricing_plan_id":"free"},{"bike_id":"38d6d1bf-2aad-412a-a102-77c48a97fd43","system_id":"levelo_inurba_marseille","lat":43.29573,"lon":5.367355,"is_reserved":false,"is_disabled":false,"rental_uris":{"android":"levelo://app?vid=38d6d1bf-2aad-412a-a102-77c48a97fd43","ios":"levelo://app?vid=38d6d1bf-2aad-412a-a102-77c48a97fd43"},"vehicle_type_id":"4","last_reported":1683144431,"current_range_meters":6000,"station_id":"ce4bgph2rcd13ifvqc2g","pricing_plan_id":"free"},{"bike_id":"b3c779e8-dca3-4b33-969f-cb418570c927","system_id":"levelo_inurba_marseille","lat":43.296131,"lon":5.370773,"is_reserved":false,"is_disabled":false,"rental_uris":{"android":"levelo://app?vid=b3c779e8-dca3-4b33-969f-cb418570c927","ios":"levelo://app?vid=b3c779e8-dca3-4b33-969f-cb418570c927"},"vehicle_type_id":"4","last_reported":1683144431,"current_range_meters":0,"station_id":"ce4bgnh2rcd13ifvqc0g","pricing_plan_id":"free"},{"bike_id":"c84874d3-fd33-4687-bcbb-19f039bfbdfa","system_id":"levelo_inurba_marseille","lat":43.29573,"lon":5.367355,"is_reserved":false,"is_disabled":false,"rental_uris":{"android":"levelo://app?vid=c84874d3-fd33-4687-bcbb-19f039bfbdfa","ios":"levelo://app?vid=c84874d3-fd33-4687-bcbb-19f039bfbdfa"},"vehicle_type_id":"4","last_reported":1683144431,"current_range_meters":31600,"station_id":"ce4bgph2rcd13ifvqc2g","pricing_plan_id":"free"},{"bike_id":"844d0746-2d42-4dc7-af89-fde8f70e94b5","system_id":"levelo_inurba_marseille","lat":43.309589,"lon":5.390258,"is_reserved":false,"is_disabled":false,"rental_uris":{"android":"levelo://app?vid=844d0746-2d42-4dc7-af89-fde8f70e94b5","ios":"levelo://app?vid=844d0746-2d42-4dc7-af89-fde8f70e94b5"},"vehicle_type_id":"4","last_reported":1683144431,"current_range_meters":6400,"station_id":"ce4bgup2rcd13ifvqco0","pricing_plan_id":"free"},{"bike_id":"e948b074-83e1-4b33-a438-cbe7e44dc437","system_id":"levelo_inurba_marseille","lat":43.299028,"lon":5.381509,"is_reserved":false,"is_disabled":false,"rental_uris":{"android":"levelo://app?vid=e948b074-83e1-4b33-a438-cbe7e44dc437","ios":"levelo://app?vid=e948b074-83e1-4b33-a438-cbe7e44dc437"},"vehicle_type_id":"4","last_reported":1683144431,"current_range_meters":31200,"station_id":"ce4bgj12rcd13ifvqbc0","pricing_plan_id":"free"},{"bike_id":"1b51f2b2-0500-480d-b2b4-459fd9bf3c3d","system_id":"levelo_inurba_marseille","lat":43.299028,"lon":5.381509,"is_reserved":false,"is_disabled":false,"rental_uris":{"android":"levelo://app?vid=1b51f2b2-0500-480d-b2b4-459fd9bf3c3d","ios":"levelo://app?vid=1b51f2b2-0500-480d-b2b4-459fd9bf3c3d"},"vehicle_type_id":"4","last_reported":1683144431,"current_range_meters":31200,"station_id":"ce4bgj12rcd13ifvqbc0","pricing_plan_id":"free"},{"bike_id":"adc71fad-1a3a-4f07-bb07-3c2c21535a68","system_id":"levelo_inurba_marseille","lat":43.299028,"lon":5.381509,"is_reserved":false,"is_disabled":false,"rental_uris":{"android":"levelo://app?vid=adc71fad-1a3a-4f07-bb07-3c2c21535a68","ios":"levelo://app?vid=adc71fad-1a3a-4f07-bb07-3c2c21535a68"},"vehicle_type_id":"4","last_reported":1683144431,"current_range_meters":28800,"station_id":"ce4bgj12rcd13ifvqbc0","pricing_plan_id":"free"},{"bike_id":"833eea94-ec06-4a7e-ae58-762f747e5f40","system_id":"levelo_inurba_marseille","lat":43.299028,"lon":5.381509,"is_reserved":false,"is_disabled":false,"rental_uris":{"android":"levelo://app?vid=833eea94-ec06-4a7e-ae58-762f747e5f40","ios":"levelo://app?vid=833eea94-ec06-4a7e-ae58-762f747e5f40"},"vehicle_type_id":"4","last_reported":1683144431,"current_range_meters":29200,"station_id":"ce4bgj12rcd13ifvqbc0","pricing_plan_id":"free"},{"bike_id":"2dbf5584-52bc-430e-9de6-7c5475fb4cf2","system_id":"levelo_inurba_marseille","lat":43.299028,"lon":5.381509,"is_reserved":false,"is_disabled":false,"rental_uris":{"android":"levelo://app?vid=2dbf5584-52bc-430e-9de6-7c5475fb4cf2","ios":"levelo://app?vid=2dbf5584-52bc-430e-9de6-7c5475fb4cf2"},"vehicle_type_id":"4","last_reported":1683144431,"current_range_meters":31200,"station_id":"ce4bgj12rcd13ifvqbc0","pricing_plan_id":"free"},{"bike_id":"88b620d7-c1ef-4a7e-84cc-cbc1dcd7a67b","system_id":"levelo_inurba_marseille","lat":43.299028,"lon":5.381509,"is_reserved":false,"is_disabled":false,"rental_uris":{"android":"levelo://app?vid=88b620d7-c1ef-4a7e-84cc-cbc1dcd7a67b","ios":"levelo://app?vid=88b620d7-c1ef-4a7e-84cc-cbc1dcd7a67b"},"vehicle_type_id":"4","last_reported":1683144431,"current_range_meters":25200,"station_id":"ce4bgj12rcd13ifvqbc0","pricing_plan_id":"free"},{"bike_id":"51118fb4-f6ed-478f-91a2-ab1690952aa7","system_id":"levelo_inurba_marseille","lat":43.299028,"lon":5.381509,"is_reserved":false,"is_disabled":false,"rental_uris":{"android":"levelo://app?vid=51118fb4-f6ed-478f-91a2-ab1690952aa7","ios":"levelo://app?vid=51118fb4-f6ed-478f-91a2-ab1690952aa7"},"vehicle_type_id":"4","last_reported":1683144431,"current_range_meters":27600,"station_id":"ce4bgj12rcd13ifvqbc0","pricing_plan_id":"free"},{"bike_id":"4f27ce4f-da56-4c22-b3c1-e80a321cd615","system_id":"levelo_inurba_marseille","lat":43.299028,"lon":5.381509,"is_reserved":false,"is_disabled":false,"rental_uris":{"android":"levelo://app?vid=4f27ce4f-da56-4c22-b3c1-e80a321cd615","ios":"levelo://app?vid=4f27ce4f-da56-4c22-b3c1-e80a321cd615"},"vehicle_type_id":"4","last_reported":1683144431,"current_range_meters":25200,"station_id":"ce4bgj12rcd13ifvqbc0","pricing_plan_id":"free"},{"bike_id":"42faefd8-5b33-41b5-bffe-e887b440621e","system_id":"levelo_inurba_marseille","lat":43.299028,"lon":5.381509,"is_reserved":false,"is_disabled":false,"rental_uris":{"android":"levelo://app?vid=42faefd8-5b33-41b5-bffe-e887b440621e","ios":"levelo://app?vid=42faefd8-5b33-41b5-bffe-e887b440621e"},"vehicle_type_id":"4","last_reported":1683144431,"current_range_meters":14800,"station_id":"ce4bgj12rcd13ifvqbc0","pricing_plan_id":"free"},{"bike_id":"7276a247-63c5-4eaf-81de-9dd1336ad9eb","system_id":"levelo_inurba_marseille","lat":43.299028,"lon":5.381509,"is_reserved":false,"is_disabled":false,"rental_uris":{"android":"levelo://app?vid=7276a247-63c5-4eaf-81de-9dd1336ad9eb","ios":"levelo://app?vid=7276a247-63c5-4eaf-81de-9dd1336ad9eb"},"vehicle_type_id":"4","last_reported":1683144431,"current_range_meters":26400,"station_id":"ce4bgj12rcd13ifvqbc0","pricing_plan_id":"free"},{"bike_id":"1ab369f7-7a6f-4ec6-ba9b-4c4ed2f4a921","system_id":"levelo_inurba_marseille","lat":43.317557,"lon":5.390173,"is_reserved":false,"is_disabled":false,"rental_uris":{"android":"levelo://app?vid=1ab369f7-7a6f-4ec6-ba9b-4c4ed2f4a921","ios":"levelo://app?vid=1ab369f7-7a6f-4ec6-ba9b-4c4ed2f4a921"},"vehicle_type_id":"4","last_reported":1683144431,"current_range_meters":18800,"station_id":"ce4bhqp2rcd13ifvqhng","pricing_plan_id":"free"},{"bike_id":"77f34d79-51d0-4db3-ab3a-5aec4d75e78b","system_id":"levelo_inurba_marseille","lat":43.317557,"lon":5.390173,"is_reserved":false,"is_disabled":false,"rental_uris":{"android":"levelo://app?vid=77f34d79-51d0-4db3-ab3a-5aec4d75e78b","ios":"levelo://app?vid=77f34d79-51d0-4db3-ab3a-5aec4d75e78b"},"vehicle_type_id":"4","last_reported":1683144431,"current_range_meters":30400,"station_id":"ce4bhqp2rcd13ifvqhng","pricing_plan_id":"free"},{"bike_id":"6206231f-9db6-4842-9a0d-274fbaa919de","system_id":"levelo_inurba_marseille","lat":43.317557,"lon":5.390173,"is_reserved":false,"is_disabled":false,"rental_uris":{"android":"levelo://app?vid=6206231f-9db6-4842-9a0d-274fbaa919de","ios":"levelo://app?vid=6206231f-9db6-4842-9a0d-274fbaa919de"},"vehicle_type_id":"4","last_reported":1683144431,"current_range_meters":23200,"station_id":"ce4bhqp2rcd13ifvqhng","pricing_plan_id":"free"},{"bike_id":"30768742-80fe-47c3-a649-31d53718a842","system_id":"levelo_inurba_marseille","lat":43.317557,"lon":5.390173,"is_reserved":false,"is_disabled":false,"rental_uris":{"android":"levelo://app?vid=30768742-80fe-47c3-a649-31d53718a842","ios":"levelo://app?vid=30768742-80fe-47c3-a649-31d53718a842"},"vehicle_type_id":"4","last_reported":1683144431,"current_range_meters":18400,"station_id":"ce4bhqp2rcd13ifvqhng","pricing_plan_id":"free"},{"bike_id":"35d4fa99-9f2d-4620-8e9d-b49077e40158","system_id":"levelo_inurba_marseille","lat":43.317557,"lon":5.390173,"is_reserved":false,"is_disabled":false,"rental_uris":{"android":"levelo://app?vid=35d4fa99-9f2d-4620-8e9d-b49077e40158","ios":"levelo://app?vid=35d4fa99-9f2d-4620-8e9d-b49077e40158"},"vehicle_type_id":"4","last_reported":1683144431,"current_range_meters":29600,"station_id":"ce4bhqp2rcd13ifvqhng","pricing_plan_id":"free"},{"bike_id":"3dc8d08c-899a-45af-ab88-197542396fc6","system_id":"levelo_inurba_marseille","lat":43.317557,"lon":5.390173,"is_reserved":false,"is_disabled":false,"rental_uris":{"android":"levelo://app?vid=3dc8d08c-899a-45af-ab88-197542396fc6","ios":"levelo://app?vid=3dc8d08c-899a-45af-ab88-197542396fc6"},"vehicle_type_id":"4","last_reported":1683144431,"current_range_meters":29600,"station_id":"ce4bhqp2rcd13ifvqhng","pricing_plan_id":"free"},{"bike_id":"e00888f6-99e1-4c69-986f-1e3669edea53","system_id":"levelo_inurba_marseille","lat":43.317557,"lon":5.390173,"is_reserved":false,"is_disabled":false,"rental_uris":{"android":"levelo://app?vid=e00888f6-99e1-4c69-986f-1e3669edea53","ios":"levelo://app?vid=e00888f6-99e1-4c69-986f-1e3669edea53"},"vehicle_type_id":"4","last_reported":1683144431,"current_range_meters":28800,"station_id":"ce4bhqp2rcd13ifvqhng","pricing_plan_id":"free"},{"bike_id":"66696e3c-0692-42c1-9f12-58a4b142f4c6","system_id":"levelo_inurba_marseille","lat":43.317557,"lon":5.390173,"is_reserved":false,"is_disabled":false,"rental_uris":{"android":"levelo://app?vid=66696e3c-0692-42c1-9f12-58a4b142f4c6","ios":"levelo://app?vid=66696e3c-0692-42c1-9f12-58a4b142f4c6"},"vehicle_type_id":"4","last_reported":1683144431,"current_range_meters":29600,"station_id":"ce4bhqp2rcd13ifvqhng","pricing_plan_id":"free"},{"bike_id":"7c625666-a4c4-4991-a54d-b6627ebf07a5","system_id":"levelo_inurba_marseille","lat":43.298037,"lon":5.381066,"is_reserved":false,"is_disabled":false,"rental_uris":{"android":"levelo://app?vid=7c625666-a4c4-4991-a54d-b6627ebf07a5","ios":"levelo://app?vid=7c625666-a4c4-4991-a54d-b6627ebf07a5"},"vehicle_type_id":"4","last_reported":1683144431,"current_range_meters":27600,"station_id":"ce4bgip2rcd13ifvqbb0","pricing_plan_id":"free"},{"bike_id":"2ab9a50b-8aca-4dd3-9d74-44e2617b2734","system_id":"levelo_inurba_marseille","lat":43.298037,"lon":5.381066,"is_reserved":false,"is_disabled":false,"rental_uris":{"android":"levelo://app?vid=2ab9a50b-8aca-4dd3-9d74-44e2617b2734","ios":"levelo://app?vid=2ab9a50b-8aca-4dd3-9d74-44e2617b2734"},"vehicle_type_id":"4","last_reported":1683144431,"current_range_meters":4000,"station_id":"ce4bgip2rcd13ifvqbb0","pricing_plan_id":"free"},{"bike_id":"3b3ece51-cdfd-4920-881f-762ae0fb8bd8","system_id":"levelo_inurba_marseille","lat":43.298037,"lon":5.381066,"is_reserved":false,"is_disabled":false,"rental_uris":{"android":"levelo://app?vid=3b3ece51-cdfd-4920-881f-762ae0fb8bd8","ios":"levelo://app?vid=3b3ece51-cdfd-4920-881f-762ae0fb8bd8"},"vehicle_type_id":"4","last_reported":1683144431,"current_range_meters":14000,"station_id":"ce4bgip2rcd13ifvqbb0","pricing_plan_id":"free"},{"bike_id":"c1b352eb-7466-47c2-a6a6-0fec66fdaa28","system_id":"levelo_inurba_marseille","lat":43.298037,"lon":5.381066,"is_reserved":false,"is_disabled":false,"rental_uris":{"android":"levelo://app?vid=c1b352eb-7466-47c2-a6a6-0fec66fdaa28","ios":"levelo://app?vid=c1b352eb-7466-47c2-a6a6-0fec66fdaa28"},"vehicle_type_id":"4","last_reported":1683144431,"current_range_meters":18000,"station_id":"ce4bgip2rcd13ifvqbb0","pricing_plan_id":"free"},{"bike_id":"1feb1052-9d27-45b2-9a15-0490a7782aae","system_id":"levelo_inurba_marseille","lat":43.298037,"lon":5.381066,"is_reserved":false,"is_disabled":false,"rental_uris":{"android":"levelo://app?vid=1feb1052-9d27-45b2-9a15-0490a7782aae","ios":"levelo://app?vid=1feb1052-9d27-45b2-9a15-0490a7782aae"},"vehicle_type_id":"4","last_reported":1683144431,"current_range_meters":31200,"station_id":"ce4bgip2rcd13ifvqbb0","pricing_plan_id":"free"},{"bike_id":"cf16d422-8841-4d92-8ec4-8117ae61eaea","system_id":"levelo_inurba_marseille","lat":43.298037,"lon":5.381066,"is_reserved":false,"is_disabled":false,"rental_uris":{"android":"levelo://app?vid=cf16d422-8841-4d92-8ec4-8117ae61eaea","ios":"levelo://app?vid=cf16d422-8841-4d92-8ec4-8117ae61eaea"},"vehicle_type_id":"4","last_reported":1683144431,"current_range_meters":2000,"station_id":"ce4bgip2rcd13ifvqbb0","pricing_plan_id":"free"},{"bike_id":"6e6f42e4-8f8b-4e1a-8a1b-22a080e23b45","system_id":"levelo_inurba_marseille","lat":43.304278,"lon":5.388868,"is_reserved":false,"is_disabled":false,"rental_uris":{"android":"levelo://app?vid=6e6f42e4-8f8b-4e1a-8a1b-22a080e23b45","ios":"levelo://app?vid=6e6f42e4-8f8b-4e1a-8a1b-22a080e23b45"},"vehicle_type_id":"4","last_reported":1683144431,"current_range_meters":10000,"station_id":"ce4bgk12rcd13ifvqbi0","pricing_plan_id":"free"},{"bike_id":"75a2966b-7f84-49fc-9f47-a1ad0962252d","system_id":"levelo_inurba_marseille","lat":43.296277,"lon":5.377108,"is_reserved":false,"is_disabled":false,"rental_uris":{"android":"levelo://app?vid=75a2966b-7f84-49fc-9f47-a1ad0962252d","ios":"levelo://app?vid=75a2966b-7f84-49fc-9f47-a1ad0962252d"},"vehicle_type_id":"4","last_reported":1683144431,"current_range_meters":22000,"station_id":"ce4bgi92rcd13ifvqb90","pricing_plan_id":"free"},{"bike_id":"4adf8352-7b9b-4867-8c7c-4a385c618656","system_id":"levelo_inurba_marseille","lat":43.304278,"lon":5.388868,"is_reserved":false,"is_disabled":false,"rental_uris":{"android":"levelo://app?vid=4adf8352-7b9b-4867-8c7c-4a385c618656","ios":"levelo://app?vid=4adf8352-7b9b-4867-8c7c-4a385c618656"},"vehicle_type_id":"4","last_reported":1683144431,"current_range_meters":10800,"station_id":"ce4bgk12rcd13ifvqbi0","pricing_plan_id":"free"},{"bike_id":"ce795f2b-73b4-49ac-a154-05b222c93df2","system_id":"levelo_inurba_marseille","lat":43.298037,"lon":5.381066,"is_reserved":false,"is_disabled":false,"rental_uris":{"android":"levelo://app?vid=ce795f2b-73b4-49ac-a154-05b222c93df2","ios":"levelo://app?vid=ce795f2b-73b4-49ac-a154-05b222c93df2"},"vehicle_type_id":"4","last_reported":1683144431,"current_range_meters":26000,"station_id":"ce4bgip2rcd13ifvqbb0","pricing_plan_id":"free"},{"bike_id":"8d86a35e-8a3b-4bc3-acc1-fcc442957b8f","system_id":"levelo_inurba_marseille","lat":43.298037,"lon":5.381066,"is_reserved":false,"is_disabled":false,"rental_uris":{"android":"levelo://app?vid=8d86a35e-8a3b-4bc3-acc1-fcc442957b8f","ios":"levelo://app?vid=8d86a35e-8a3b-4bc3-acc1-fcc442957b8f"},"vehicle_type_id":"4","last_reported":1683144431,"current_range_meters":31200,"station_id":"ce4bgip2rcd13ifvqbb0","pricing_plan_id":"free"},{"bike_id":"ebda59ef-56f1-4dc0-919c-39c03ef69aa3","system_id":"levelo_inurba_marseille","lat":43.296277,"lon":5.377108,"is_reserved":false,"is_disabled":false,"rental_uris":{"android":"levelo://app?vid=ebda59ef-56f1-4dc0-919c-39c03ef69aa3","ios":"levelo://app?vid=ebda59ef-56f1-4dc0-919c-39c03ef69aa3"},"vehicle_type_id":"4","last_reported":1683144431,"current_range_meters":26400,"station_id":"ce4bgi92rcd13ifvqb90","pricing_plan_id":"free"},{"bike_id":"fbe670ed-aa25-4ddd-bdb6-cf3f2307a2b0","system_id":"levelo_inurba_marseille","lat":43.29609,"lon":5.37703,"is_reserved":false,"is_disabled":false,"rental_uris":{"android":"levelo://app?vid=fbe670ed-aa25-4ddd-bdb6-cf3f2307a2b0","ios":"levelo://app?vid=fbe670ed-aa25-4ddd-bdb6-cf3f2307a2b0"},"vehicle_type_id":"4","last_reported":1683144431,"current_range_meters":28800,"station_id":"ce4bgi92rcd13ifvqb90","pricing_plan_id":"free"},{"bike_id":"6258997f-59ed-4e94-8a11-86f24c2e4e8c","system_id":"levelo_inurba_marseille","lat":43.295279,"lon":5.375048,"is_reserved":false,"is_disabled":false,"rental_uris":{"android":"levelo://app?vid=6258997f-59ed-4e94-8a11-86f24c2e4e8c","ios":"levelo://app?vid=6258997f-59ed-4e94-8a11-86f24c2e4e8c"},"vehicle_type_id":"4","last_reported":1683144431,"current_range_meters":0,"station_id":"ce4bgkp2rcd13ifvqbmg","pricing_plan_id":"free"},{"bike_id":"140d4b9e-01fd-47bf-b974-21d8b4ae93b5","system_id":"levelo_inurba_marseille","lat":43.295279,"lon":5.375048,"is_reserved":false,"is_disabled":false,"rental_uris":{"android":"levelo://app?vid=140d4b9e-01fd-47bf-b974-21d8b4ae93b5","ios":"levelo://app?vid=140d4b9e-01fd-47bf-b974-21d8b4ae93b5"},"vehicle_type_id":"4","last_reported":1683144431,"current_range_meters":28000,"station_id":"ce4bgkp2rcd13ifvqbmg","pricing_plan_id":"free"},{"bike_id":"0a1f5f88-e40f-4f75-87d6-502f940a9ba1","system_id":"levelo_inurba_marseille","lat":43.29966,"lon":5.38491,"is_reserved":false,"is_disabled":false,"rental_uris":{"android":"levelo://app?vid=0a1f5f88-e40f-4f75-87d6-502f940a9ba1","ios":"levelo://app?vid=0a1f5f88-e40f-4f75-87d6-502f940a9ba1"},"vehicle_type_id":"4","last_reported":1683144431,"current_range_meters":3200,"station_id":"ce4bgj92rcd13ifvqbd0","pricing_plan_id":"free"},{"bike_id":"f3a8cfe9-0a39-4b4d-8e18-51f56430ed43","system_id":"levelo_inurba_marseille","lat":43.299717,"lon":5.384845,"is_reserved":false,"is_disabled":false,"rental_uris":{"android":"levelo://app?vid=f3a8cfe9-0a39-4b4d-8e18-51f56430ed43","ios":"levelo://app?vid=f3a8cfe9-0a39-4b4d-8e18-51f56430ed43"},"vehicle_type_id":"4","last_reported":1683144431,"current_range_meters":6800,"station_id":"ce4bgj92rcd13ifvqbd0","pricing_plan_id":"free"},{"bike_id":"9483b634-fc93-43a2-a587-1c422e7ca88c","system_id":"levelo_inurba_marseille","lat":43.299717,"lon":5.384845,"is_reserved":false,"is_disabled":false,"rental_uris":{"android":"levelo://app?vid=9483b634-fc93-43a2-a587-1c422e7ca88c","ios":"levelo://app?vid=9483b634-fc93-43a2-a587-1c422e7ca88c"},"vehicle_type_id":"4","last_reported":1683144431,"current_range_meters":4800,"station_id":"ce4bgj92rcd13ifvqbd0","pricing_plan_id":"free"},{"bike_id":"bd59f8bc-ff3e-4fa0-8296-53f5b5a6e87a","system_id":"levelo_inurba_marseille","lat":43.29964,"lon":5.38502,"is_reserved":false,"is_disabled":false,"rental_uris":{"android":"levelo://app?vid=bd59f8bc-ff3e-4fa0-8296-53f5b5a6e87a","ios":"levelo://app?vid=bd59f8bc-ff3e-4fa0-8296-53f5b5a6e87a"},"vehicle_type_id":"4","last_reported":1683144431,"current_range_meters":3200,"station_id":"ce4bgj92rcd13ifvqbd0","pricing_plan_id":"free"},{"bike_id":"ac996370-f102-4b17-aa66-c8eadeb02396","system_id":"levelo_inurba_marseille","lat":43.295279,"lon":5.375048,"is_reserved":false,"is_disabled":false,"rental_uris":{"android":"levelo://app?vid=ac996370-f102-4b17-aa66-c8eadeb02396","ios":"levelo://app?vid=ac996370-f102-4b17-aa66-c8eadeb02396"},"vehicle_type_id":"4","last_reported":1683144431,"current_range_meters":20800,"station_id":"ce4bgkp2rcd13ifvqbmg","pricing_plan_id":"free"},{"bike_id":"94f3f454-406b-4b76-8451-0887d0984957","system_id":"levelo_inurba_marseille","lat":43.29961,"lon":5.38504,"is_reserved":false,"is_disabled":false,"rental_uris":{"android":"levelo://app?vid=94f3f454-406b-4b76-8451-0887d0984957","ios":"levelo://app?vid=94f3f454-406b-4b76-8451-0887d0984957"},"vehicle_type_id":"4","last_reported":1683144431,"current_range_meters":13600,"station_id":"ce4bgj92rcd13ifvqbd0","pricing_plan_id":"free"},{"bike_id":"67791e4d-db93-488b-8ee1-9ea3561d2b92","system_id":"levelo_inurba_marseille","lat":43.32529,"lon":5.3861,"is_reserved":false,"is_disabled":false,"rental_uris":{"android":"levelo://app?vid=67791e4d-db93-488b-8ee1-9ea3561d2b92","ios":"levelo://app?vid=67791e4d-db93-488b-8ee1-9ea3561d2b92"},"vehicle_type_id":"4","last_reported":1683144431,"current_range_meters":0,"station_id":"","pricing_plan_id":"free"},{"bike_id":"0b8f21b4-a67d-4b3d-90a2-0fcb4ecc99ed","system_id":"levelo_inurba_marseille","lat":43.32197,"lon":5.38949,"is_reserved":false,"is_disabled":false,"rental_uris":{"android":"levelo://app?vid=0b8f21b4-a67d-4b3d-90a2-0fcb4ecc99ed","ios":"levelo://app?vid=0b8f21b4-a67d-4b3d-90a2-0fcb4ecc99ed"},"vehicle_type_id":"4","last_reported":1683144431,"current_range_meters":11600,"station_id":"","pricing_plan_id":"free"},{"bike_id":"b0737559-8caa-45e8-982b-46fcce505963","system_id":"levelo_inurba_marseille","lat":43.32372,"lon":5.38882,"is_reserved":false,"is_disabled":false,"rental_uris":{"android":"levelo://app?vid=b0737559-8caa-45e8-982b-46fcce505963","ios":"levelo://app?vid=b0737559-8caa-45e8-982b-46fcce505963"},"vehicle_type_id":"4","last_reported":1683144431,"current_range_meters":14400,"station_id":"ce4bhqp2rcd13ifvqhog","pricing_plan_id":"free"},{"bike_id":"0bd42946-2f54-4add-869a-037e489423d0","system_id":"levelo_inurba_marseille","lat":43.32365,"lon":5.38889,"is_reserved":false,"is_disabled":false,"rental_uris":{"android":"levelo://app?vid=0bd42946-2f54-4add-869a-037e489423d0","ios":"levelo://app?vid=0bd42946-2f54-4add-869a-037e489423d0"},"vehicle_type_id":"4","last_reported":1683144431,"current_range_meters":30800,"station_id":"ce4bhqp2rcd13ifvqhog","pricing_plan_id":"free"},{"bike_id":"ab62de7e-a088-4252-8afd-2f8a7cb3bb91","system_id":"levelo_inurba_marseille","lat":43.32368,"lon":5.3889,"is_reserved":false,"is_disabled":false,"rental_uris":{"android":"levelo://app?vid=ab62de7e-a088-4252-8afd-2f8a7cb3bb91","ios":"levelo://app?vid=ab62de7e-a088-4252-8afd-2f8a7cb3bb91"},"vehicle_type_id":"4","last_reported":1683144431,"current_range_meters":25600,"station_id":"ce4bhqp2rcd13ifvqhog","pricing_plan_id":"free"},{"bike_id":"a7bfc9fb-018a-438e-bd0c-ca7bba102e1e","system_id":"levelo_inurba_marseille","lat":43.290345,"lon":5.38646,"is_reserved":false,"is_disabled":false,"rental_uris":{"android":"levelo://app?vid=a7bfc9fb-018a-438e-bd0c-ca7bba102e1e","ios":"levelo://app?vid=a7bfc9fb-018a-438e-bd0c-ca7bba102e1e"},"vehicle_type_id":"4","last_reported":1683144431,"current_range_meters":15200,"station_id":"ce4bh4p2rcd13ifvqe0g","pricing_plan_id":"free"},{"bike_id":"c4b94ef7-588b-425d-87ea-e1db473b5846","system_id":"levelo_inurba_marseille","lat":43.29601,"lon":5.381084,"is_reserved":false,"is_disabled":false,"rental_uris":{"android":"levelo://app?vid=c4b94ef7-588b-425d-87ea-e1db473b5846","ios":"levelo://app?vid=c4b94ef7-588b-425d-87ea-e1db473b5846"},"vehicle_type_id":"4","last_reported":1683144431,"current_range_meters":14800,"station_id":"ce4bgl12rcd13ifvqbo0","pricing_plan_id":"free"},{"bike_id":"e4c6e864-277f-4be1-9fd3-4488bbf626d1","system_id":"levelo_inurba_marseille","lat":43.29599,"lon":5.38105,"is_reserved":false,"is_disabled":false,"rental_uris":{"android":"levelo://app?vid=e4c6e864-277f-4be1-9fd3-4488bbf626d1","ios":"levelo://app?vid=e4c6e864-277f-4be1-9fd3-4488bbf626d1"},"vehicle_type_id":"4","last_reported":1683144431,"current_range_meters":0,"station_id":"ce4bgl12rcd13ifvqbo0","pricing_plan_id":"free"},{"bike_id":"8d037a1c-09ea-432b-88db-c9714db318b5","system_id":"levelo_inurba_marseille","lat":43.29601,"lon":5.381084,"is_reserved":false,"is_disabled":false,"rental_uris":{"android":"levelo://app?vid=8d037a1c-09ea-432b-88db-c9714db318b5","ios":"levelo://app?vid=8d037a1c-09ea-432b-88db-c9714db318b5"},"vehicle_type_id":"4","last_reported":1683144431,"current_range_meters":22000,"station_id":"ce4bgl12rcd13ifvqbo0","pricing_plan_id":"free"},{"bike_id":"2ed1ba5a-7192-4acc-a351-6fbdb92c8143","system_id":"levelo_inurba_marseille","lat":43.29602,"lon":5.381084,"is_reserved":false,"is_disabled":false,"rental_uris":{"android":"levelo://app?vid=2ed1ba5a-7192-4acc-a351-6fbdb92c8143","ios":"levelo://app?vid=2ed1ba5a-7192-4acc-a351-6fbdb92c8143"},"vehicle_type_id":"4","last_reported":1683144431,"current_range_meters":24400,"station_id":"ce4bgl12rcd13ifvqbo0","pricing_plan_id":"free"},{"bike_id":"f9cdd0e0-89d9-4f2e-8607-dff756f6426d","system_id":"levelo_inurba_marseille","lat":43.293249,"lon":5.371578,"is_reserved":false,"is_disabled":false,"rental_uris":{"android":"levelo://app?vid=f9cdd0e0-89d9-4f2e-8607-dff756f6426d","ios":"levelo://app?vid=f9cdd0e0-89d9-4f2e-8607-dff756f6426d"},"vehicle_type_id":"4","last_reported":1683144431,"current_range_meters":2400,"station_id":"ce4bgh92rcd13ifvqb40","pricing_plan_id":"free"},{"bike_id":"f70e55d6-3a8e-493a-814b-2528f4f9a73c","system_id":"levelo_inurba_marseille","lat":43.29272,"lon":5.3684,"is_reserved":false,"is_disabled":false,"rental_uris":{"android":"levelo://app?vid=f70e55d6-3a8e-493a-814b-2528f4f9a73c","ios":"levelo://app?vid=f70e55d6-3a8e-493a-814b-2528f4f9a73c"},"vehicle_type_id":"4","last_reported":1683144431,"current_range_meters":400,"station_id":"ce4bhbp2rcd13ifvqesg","pricing_plan_id":"free"},{"bike_id":"a5e2b443-9e6b-48bc-95a5-34b714c620a8","system_id":"levelo_inurba_marseille","lat":43.31357,"lon":5.39481,"is_reserved":false,"is_disabled":false,"rental_uris":{"android":"levelo://app?vid=a5e2b443-9e6b-48bc-95a5-34b714c620a8","ios":"levelo://app?vid=a5e2b443-9e6b-48bc-95a5-34b714c620a8"},"vehicle_type_id":"4","last_reported":1683144431,"current_range_meters":2800,"station_id":"","pricing_plan_id":"free"},{"bike_id":"9e921636-6472-4821-9d51-932aea371231","system_id":"levelo_inurba_marseille","lat":43.303002,"lon":5.392142,"is_reserved":false,"is_disabled":false,"rental_uris":{"android":"levelo://app?vid=9e921636-6472-4821-9d51-932aea371231","ios":"levelo://app?vid=9e921636-6472-4821-9d51-932aea371231"},"vehicle_type_id":"4","last_reported":1683144431,"current_range_meters":14400,"station_id":"ce4bgkh2rcd13ifvqbk0","pricing_plan_id":"free"},{"bike_id":"ce471f15-c1ff-44c9-92ec-ae4e447da32f","system_id":"levelo_inurba_marseille","lat":43.30085,"lon":5.390856,"is_reserved":false,"is_disabled":false,"rental_uris":{"android":"levelo://app?vid=ce471f15-c1ff-44c9-92ec-ae4e447da32f","ios":"levelo://app?vid=ce471f15-c1ff-44c9-92ec-ae4e447da32f"},"vehicle_type_id":"4","last_reported":1683144431,"current_range_meters":24000,"station_id":"ce4bh192rcd13ifvqdb0","pricing_plan_id":"free"},{"bike_id":"7a0da21f-429d-4fe0-98e7-0826e16d1315","system_id":"levelo_inurba_marseille","lat":43.300852,"lon":5.390859,"is_reserved":false,"is_disabled":false,"rental_uris":{"android":"levelo://app?vid=7a0da21f-429d-4fe0-98e7-0826e16d1315","ios":"levelo://app?vid=7a0da21f-429d-4fe0-98e7-0826e16d1315"},"vehicle_type_id":"4","last_reported":1683144431,"current_range_meters":13200,"station_id":"ce4bh192rcd13ifvqdb0","pricing_plan_id":"free"},{"bike_id":"4cfca081-5765-4ef0-bfa4-ada18f146e88","system_id":"levelo_inurba_marseille","lat":43.30085,"lon":5.390856,"is_reserved":false,"is_disabled":false,"rental_uris":{"android":"levelo://app?vid=4cfca081-5765-4ef0-bfa4-ada18f146e88","ios":"levelo://app?vid=4cfca081-5765-4ef0-bfa4-ada18f146e88"},"vehicle_type_id":"4","last_reported":1683144431,"current_range_meters":9200,"station_id":"ce4bh192rcd13ifvqdb0","pricing_plan_id":"free"},{"bike_id":"bb385483-3434-408c-86b3-3b05eb48afb2","system_id":"levelo_inurba_marseille","lat":43.30085,"lon":5.390856,"is_reserved":false,"is_disabled":false,"rental_uris":{"android":"levelo://app?vid=bb385483-3434-408c-86b3-3b05eb48afb2","ios":"levelo://app?vid=bb385483-3434-408c-86b3-3b05eb48afb2"},"vehicle_type_id":"4","last_reported":1683144431,"current_range_meters":1200,"station_id":"ce4bh192rcd13ifvqdb0","pricing_plan_id":"free"},{"bike_id":"145f330e-07ed-4a26-82b5-f600b18f8a30","system_id":"levelo_inurba_marseille","lat":43.30085,"lon":5.390856,"is_reserved":false,"is_disabled":false,"rental_uris":{"android":"levelo://app?vid=145f330e-07ed-4a26-82b5-f600b18f8a30","ios":"levelo://app?vid=145f330e-07ed-4a26-82b5-f600b18f8a30"},"vehicle_type_id":"4","last_reported":1683144431,"current_range_meters":20400,"station_id":"ce4bh192rcd13ifvqdb0","pricing_plan_id":"free"},{"bike_id":"bd039330-ed5e-46c2-92ac-9d7b7ddc1c23","system_id":"levelo_inurba_marseille","lat":43.30085,"lon":5.390856,"is_reserved":false,"is_disabled":false,"rental_uris":{"android":"levelo://app?vid=bd039330-ed5e-46c2-92ac-9d7b7ddc1c23","ios":"levelo://app?vid=bd039330-ed5e-46c2-92ac-9d7b7ddc1c23"},"vehicle_type_id":"4","last_reported":1683144431,"current_range_meters":19200,"station_id":"ce4bh192rcd13ifvqdb0","pricing_plan_id":"free"},{"bike_id":"19cccf64-c28a-4967-a89a-9374fc4996eb","system_id":"levelo_inurba_marseille","lat":43.30085,"lon":5.390856,"is_reserved":false,"is_disabled":false,"rental_uris":{"android":"levelo://app?vid=19cccf64-c28a-4967-a89a-9374fc4996eb","ios":"levelo://app?vid=19cccf64-c28a-4967-a89a-9374fc4996eb"},"vehicle_type_id":"4","last_reported":1683144431,"current_range_meters":6800,"station_id":"ce4bh192rcd13ifvqdb0","pricing_plan_id":"free"},{"bike_id":"c2933222-8e95-4406-829f-6ee7aa828947","system_id":"levelo_inurba_marseille","lat":43.30085,"lon":5.390856,"is_reserved":false,"is_disabled":false,"rental_uris":{"android":"levelo://app?vid=c2933222-8e95-4406-829f-6ee7aa828947","ios":"levelo://app?vid=c2933222-8e95-4406-829f-6ee7aa828947"},"vehicle_type_id":"4","last_reported":1683144431,"current_range_meters":8800,"station_id":"ce4bh192rcd13ifvqdb0","pricing_plan_id":"free"},{"bike_id":"11ce5554-1e74-4001-bdf0-bc19829b8070","system_id":"levelo_inurba_marseille","lat":43.30085,"lon":5.390856,"is_reserved":false,"is_disabled":false,"rental_uris":{"android":"levelo://app?vid=11ce5554-1e74-4001-bdf0-bc19829b8070","ios":"levelo://app?vid=11ce5554-1e74-4001-bdf0-bc19829b8070"},"vehicle_type_id":"4","last_reported":1683144431,"current_range_meters":15200,"station_id":"ce4bh192rcd13ifvqdb0","pricing_plan_id":"free"},{"bike_id":"42214059-96e7-429f-ac02-923e7f29dfbc","system_id":"levelo_inurba_marseille","lat":43.298764,"lon":5.388973,"is_reserved":false,"is_disabled":false,"rental_uris":{"android":"levelo://app?vid=42214059-96e7-429f-ac02-923e7f29dfbc","ios":"levelo://app?vid=42214059-96e7-429f-ac02-923e7f29dfbc"},"vehicle_type_id":"4","last_reported":1683144431,"current_range_meters":1200,"station_id":"ce4bh392rcd13ifvqdl0","pricing_plan_id":"free"},{"bike_id":"c6b11463-7331-4588-9fc3-6d2fef0bbd32","system_id":"levelo_inurba_marseille","lat":43.291675,"lon":5.371583,"is_reserved":false,"is_disabled":false,"rental_uris":{"android":"levelo://app?vid=c6b11463-7331-4588-9fc3-6d2fef0bbd32","ios":"levelo://app?vid=c6b11463-7331-4588-9fc3-6d2fef0bbd32"},"vehicle_type_id":"4","last_reported":1683144431,"current_range_meters":2000,"station_id":"ce4bha92rcd13ifvqeh0","pricing_plan_id":"free"},{"bike_id":"58089c82-4783-4cdc-b61a-6d5d256c30fa","system_id":"levelo_inurba_marseille","lat":43.298764,"lon":5.388973,"is_reserved":false,"is_disabled":false,"rental_uris":{"android":"levelo://app?vid=58089c82-4783-4cdc-b61a-6d5d256c30fa","ios":"levelo://app?vid=58089c82-4783-4cdc-b61a-6d5d256c30fa"},"vehicle_type_id":"4","last_reported":1683144431,"current_range_meters":13600,"station_id":"ce4bh392rcd13ifvqdl0","pricing_plan_id":"free"},{"bike_id":"340da4b9-7498-4189-bea4-d40c0bf60949","system_id":"levelo_inurba_marseille","lat":43.298764,"lon":5.388973,"is_reserved":false,"is_disabled":false,"rental_uris":{"android":"levelo://app?vid=340da4b9-7498-4189-bea4-d40c0bf60949","ios":"levelo://app?vid=340da4b9-7498-4189-bea4-d40c0bf60949"},"vehicle_type_id":"4","last_reported":1683144431,"current_range_meters":18800,"station_id":"ce4bh392rcd13ifvqdl0","pricing_plan_id":"free"},{"bike_id":"2ad6599a-82d7-4d98-91cf-5b822e715f8c","system_id":"levelo_inurba_marseille","lat":43.298764,"lon":5.388973,"is_reserved":false,"is_disabled":false,"rental_uris":{"android":"levelo://app?vid=2ad6599a-82d7-4d98-91cf-5b822e715f8c","ios":"levelo://app?vid=2ad6599a-82d7-4d98-91cf-5b822e715f8c"},"vehicle_type_id":"4","last_reported":1683144431,"current_range_meters":15600,"station_id":"ce4bh392rcd13ifvqdl0","pricing_plan_id":"free"},{"bike_id":"e698c74b-0ff4-4376-88a3-1cff138d4f98","system_id":"levelo_inurba_marseille","lat":43.298764,"lon":5.388973,"is_reserved":false,"is_disabled":false,"rental_uris":{"android":"levelo://app?vid=e698c74b-0ff4-4376-88a3-1cff138d4f98","ios":"levelo://app?vid=e698c74b-0ff4-4376-88a3-1cff138d4f98"},"vehicle_type_id":"4","last_reported":1683144431,"current_range_meters":3600,"station_id":"ce4bh392rcd13ifvqdl0","pricing_plan_id":"free"},{"bike_id":"a095ecf9-d7c3-461c-a527-696af4282086","system_id":"levelo_inurba_marseille","lat":43.291675,"lon":5.371583,"is_reserved":false,"is_disabled":false,"rental_uris":{"android":"levelo://app?vid=a095ecf9-d7c3-461c-a527-696af4282086","ios":"levelo://app?vid=a095ecf9-d7c3-461c-a527-696af4282086"},"vehicle_type_id":"4","last_reported":1683144431,"current_range_meters":26000,"station_id":"ce4bha92rcd13ifvqeh0","pricing_plan_id":"free"},{"bike_id":"1bca6f53-f8ee-4280-99df-12b5ec32d6b8","system_id":"levelo_inurba_marseille","lat":43.298764,"lon":5.388973,"is_reserved":false,"is_disabled":false,"rental_uris":{"android":"levelo://app?vid=1bca6f53-f8ee-4280-99df-12b5ec32d6b8","ios":"levelo://app?vid=1bca6f53-f8ee-4280-99df-12b5ec32d6b8"},"vehicle_type_id":"4","last_reported":1683144431,"current_range_meters":27200,"station_id":"ce4bh392rcd13ifvqdl0","pricing_plan_id":"free"},{"bike_id":"71872fef-5bd9-4440-9470-95d88c33ec86","system_id":"levelo_inurba_marseille","lat":43.298764,"lon":5.388973,"is_reserved":false,"is_disabled":false,"rental_uris":{"android":"levelo://app?vid=71872fef-5bd9-4440-9470-95d88c33ec86","ios":"levelo://app?vid=71872fef-5bd9-4440-9470-95d88c33ec86"},"vehicle_type_id":"4","last_reported":1683144431,"current_range_meters":13200,"station_id":"ce4bh392rcd13ifvqdl0","pricing_plan_id":"free"},{"bike_id":"74ec840f-09b3-43e1-aa6f-940ac30e31c0","system_id":"levelo_inurba_marseille","lat":43.30886,"lon":5.39636,"is_reserved":false,"is_disabled":false,"rental_uris":{"android":"levelo://app?vid=74ec840f-09b3-43e1-aa6f-940ac30e31c0","ios":"levelo://app?vid=74ec840f-09b3-43e1-aa6f-940ac30e31c0"},"vehicle_type_id":"4","last_reported":1683144431,"current_range_meters":4400,"station_id":"","pricing_plan_id":"free"},{"bike_id":"018bb74d-1d72-4af9-96a6-a7fe91ab0c65","system_id":"levelo_inurba_marseille","lat":43.30885,"lon":5.39636,"is_reserved":false,"is_disabled":false,"rental_uris":{"android":"levelo://app?vid=018bb74d-1d72-4af9-96a6-a7fe91ab0c65","ios":"levelo://app?vid=018bb74d-1d72-4af9-96a6-a7fe91ab0c65"},"vehicle_type_id":"4","last_reported":1683144431,"current_range_meters":13600,"station_id":"ce4bh012rcd13ifvqcv0","pricing_plan_id":"free"},{"bike_id":"16dfe84c-d41e-44f1-ac56-278d342e3643","system_id":"levelo_inurba_marseille","lat":43.309038,"lon":5.396546,"is_reserved":false,"is_disabled":false,"rental_uris":{"android":"levelo://app?vid=16dfe84c-d41e-44f1-ac56-278d342e3643","ios":"levelo://app?vid=16dfe84c-d41e-44f1-ac56-278d342e3643"},"vehicle_type_id":"4","last_reported":1683144431,"current_range_meters":9600,"station_id":"ce4bh012rcd13ifvqcv0","pricing_plan_id":"free"},{"bike_id":"652e4637-d498-4c55-b220-3ea62c935c0c","system_id":"levelo_inurba_marseille","lat":43.313291,"lon":5.396838,"is_reserved":false,"is_disabled":false,"rental_uris":{"android":"levelo://app?vid=652e4637-d498-4c55-b220-3ea62c935c0c","ios":"levelo://app?vid=652e4637-d498-4c55-b220-3ea62c935c0c"},"vehicle_type_id":"4","last_reported":1683144431,"current_range_meters":30000,"station_id":"ce4bgvp2rcd13ifvqcu0","pricing_plan_id":"free"},{"bike_id":"cd9438c7-201c-4ca7-8043-0ead5ed50eda","system_id":"levelo_inurba_marseille","lat":43.313291,"lon":5.396838,"is_reserved":false,"is_disabled":false,"rental_uris":{"android":"levelo://app?vid=cd9438c7-201c-4ca7-8043-0ead5ed50eda","ios":"levelo://app?vid=cd9438c7-201c-4ca7-8043-0ead5ed50eda"},"vehicle_type_id":"4","last_reported":1683144431,"current_range_meters":24000,"station_id":"ce4bgvp2rcd13ifvqcu0","pricing_plan_id":"free"},{"bike_id":"243ea8ca-f65e-49f2-a412-d7d12799eb33","system_id":"levelo_inurba_marseille","lat":43.313291,"lon":5.396838,"is_reserved":false,"is_disabled":false,"rental_uris":{"android":"levelo://app?vid=243ea8ca-f65e-49f2-a412-d7d12799eb33","ios":"levelo://app?vid=243ea8ca-f65e-49f2-a412-d7d12799eb33"},"vehicle_type_id":"4","last_reported":1683144431,"current_range_meters":19600,"station_id":"ce4bgvp2rcd13ifvqcu0","pricing_plan_id":"free"},{"bike_id":"29ea1ece-30d1-4ae8-80e6-faec8ed5965c","system_id":"levelo_inurba_marseille","lat":43.313291,"lon":5.396838,"is_reserved":false,"is_disabled":false,"rental_uris":{"android":"levelo://app?vid=29ea1ece-30d1-4ae8-80e6-faec8ed5965c","ios":"levelo://app?vid=29ea1ece-30d1-4ae8-80e6-faec8ed5965c"},"vehicle_type_id":"4","last_reported":1683144431,"current_range_meters":12400,"station_id":"ce4bgvp2rcd13ifvqcu0","pricing_plan_id":"free"},{"bike_id":"d175737e-3f2d-44db-b97d-5865364fbe24","system_id":"levelo_inurba_marseille","lat":43.313291,"lon":5.396838,"is_reserved":false,"is_disabled":false,"rental_uris":{"android":"levelo://app?vid=d175737e-3f2d-44db-b97d-5865364fbe24","ios":"levelo://app?vid=d175737e-3f2d-44db-b97d-5865364fbe24"},"vehicle_type_id":"4","last_reported":1683144431,"current_range_meters":5600,"station_id":"ce4bgvp2rcd13ifvqcu0","pricing_plan_id":"free"},{"bike_id":"bbcd19ec-efb0-43ce-9e36-4b743ff501d4","system_id":"levelo_inurba_marseille","lat":43.29529,"lon":5.385581,"is_reserved":false,"is_disabled":false,"rental_uris":{"android":"levelo://app?vid=bbcd19ec-efb0-43ce-9e36-4b743ff501d4","ios":"levelo://app?vid=bbcd19ec-efb0-43ce-9e36-4b743ff501d4"},"vehicle_type_id":"4","last_reported":1683144431,"current_range_meters":11600,"station_id":"ce4bgih2rcd13ifvqba0","pricing_plan_id":"free"},{"bike_id":"cff771eb-aa55-404c-83b9-281d5102688e","system_id":"levelo_inurba_marseille","lat":43.309038,"lon":5.396546,"is_reserved":false,"is_disabled":false,"rental_uris":{"android":"levelo://app?vid=cff771eb-aa55-404c-83b9-281d5102688e","ios":"levelo://app?vid=cff771eb-aa55-404c-83b9-281d5102688e"},"vehicle_type_id":"4","last_reported":1683144431,"current_range_meters":0,"station_id":"ce4bh012rcd13ifvqcv0","pricing_plan_id":"free"},{"bike_id":"b8e393e3-ad74-45d8-be22-183329530a9d","system_id":"levelo_inurba_marseille","lat":43.29529,"lon":5.385581,"is_reserved":false,"is_disabled":false,"rental_uris":{"android":"levelo://app?vid=b8e393e3-ad74-45d8-be22-183329530a9d","ios":"levelo://app?vid=b8e393e3-ad74-45d8-be22-183329530a9d"},"vehicle_type_id":"4","last_reported":1683144431,"current_range_meters":11600,"station_id":"ce4bgih2rcd13ifvqba0","pricing_plan_id":"free"},{"bike_id":"01d1cc56-060a-40d1-a48f-6b9726fee0b7","system_id":"levelo_inurba_marseille","lat":43.309038,"lon":5.396546,"is_reserved":false,"is_disabled":false,"rental_uris":{"android":"levelo://app?vid=01d1cc56-060a-40d1-a48f-6b9726fee0b7","ios":"levelo://app?vid=01d1cc56-060a-40d1-a48f-6b9726fee0b7"},"vehicle_type_id":"4","last_reported":1683144431,"current_range_meters":0,"station_id":"ce4bh012rcd13ifvqcv0","pricing_plan_id":"free"},{"bike_id":"5cfa3334-9e9d-411b-a879-b1f0fc859c3f","system_id":"levelo_inurba_marseille","lat":43.29529,"lon":5.385581,"is_reserved":false,"is_disabled":false,"rental_uris":{"android":"levelo://app?vid=5cfa3334-9e9d-411b-a879-b1f0fc859c3f","ios":"levelo://app?vid=5cfa3334-9e9d-411b-a879-b1f0fc859c3f"},"vehicle_type_id":"4","last_reported":1683144431,"current_range_meters":12400,"station_id":"ce4bgih2rcd13ifvqba0","pricing_plan_id":"free"},{"bike_id":"b2ecd855-a0f1-4407-99c3-b80328aef3c2","system_id":"levelo_inurba_marseille","lat":43.29529,"lon":5.385581,"is_reserved":false,"is_disabled":false,"rental_uris":{"android":"levelo://app?vid=b2ecd855-a0f1-4407-99c3-b80328aef3c2","ios":"levelo://app?vid=b2ecd855-a0f1-4407-99c3-b80328aef3c2"},"vehicle_type_id":"4","last_reported":1683144431,"current_range_meters":11600,"station_id":"ce4bgih2rcd13ifvqba0","pricing_plan_id":"free"},{"bike_id":"2513d9d6-f9c9-41ff-a0a6-f8ee895e5c87","system_id":"levelo_inurba_marseille","lat":43.29529,"lon":5.385581,"is_reserved":false,"is_disabled":false,"rental_uris":{"android":"levelo://app?vid=2513d9d6-f9c9-41ff-a0a6-f8ee895e5c87","ios":"levelo://app?vid=2513d9d6-f9c9-41ff-a0a6-f8ee895e5c87"},"vehicle_type_id":"4","last_reported":1683144431,"current_range_meters":17600,"station_id":"ce4bgih2rcd13ifvqba0","pricing_plan_id":"free"},{"bike_id":"1e76ef0e-37f8-45d0-904f-2457967aad9e","system_id":"levelo_inurba_marseille","lat":43.309038,"lon":5.396546,"is_reserved":false,"is_disabled":false,"rental_uris":{"android":"levelo://app?vid=1e76ef0e-37f8-45d0-904f-2457967aad9e","ios":"levelo://app?vid=1e76ef0e-37f8-45d0-904f-2457967aad9e"},"vehicle_type_id":"4","last_reported":1683144431,"current_range_meters":3200,"station_id":"ce4bh012rcd13ifvqcv0","pricing_plan_id":"free"},{"bike_id":"97be401a-5f6e-4d4b-9b0a-d9a8ba04e95f","system_id":"levelo_inurba_marseille","lat":43.29529,"lon":5.385581,"is_reserved":false,"is_disabled":false,"rental_uris":{"android":"levelo://app?vid=97be401a-5f6e-4d4b-9b0a-d9a8ba04e95f","ios":"levelo://app?vid=97be401a-5f6e-4d4b-9b0a-d9a8ba04e95f"},"vehicle_type_id":"4","last_reported":1683144431,"current_range_meters":12400,"station_id":"ce4bgih2rcd13ifvqba0","pricing_plan_id":"free"},{"bike_id":"60850f7f-9333-496e-97f7-f56a02113aad","system_id":"levelo_inurba_marseille","lat":43.29529,"lon":5.385581,"is_reserved":false,"is_disabled":false,"rental_uris":{"android":"levelo://app?vid=60850f7f-9333-496e-97f7-f56a02113aad","ios":"levelo://app?vid=60850f7f-9333-496e-97f7-f56a02113aad"},"vehicle_type_id":"4","last_reported":1683144431,"current_range_meters":10400,"station_id":"ce4bgih2rcd13ifvqba0","pricing_plan_id":"free"},{"bike_id":"a9a681f4-b8a8-49b1-baac-d63d96e0e15a","system_id":"levelo_inurba_marseille","lat":43.29529,"lon":5.385581,"is_reserved":false,"is_disabled":false,"rental_uris":{"android":"levelo://app?vid=a9a681f4-b8a8-49b1-baac-d63d96e0e15a","ios":"levelo://app?vid=a9a681f4-b8a8-49b1-baac-d63d96e0e15a"},"vehicle_type_id":"4","last_reported":1683144431,"current_range_meters":5200,"station_id":"ce4bgih2rcd13ifvqba0","pricing_plan_id":"free"},{"bike_id":"c7d8eb3b-524f-4996-b563-6e07c7dc320f","system_id":"levelo_inurba_marseille","lat":43.29422,"lon":5.38618,"is_reserved":false,"is_disabled":false,"rental_uris":{"android":"levelo://app?vid=c7d8eb3b-524f-4996-b563-6e07c7dc320f","ios":"levelo://app?vid=c7d8eb3b-524f-4996-b563-6e07c7dc320f"},"vehicle_type_id":"4","last_reported":1683144431,"current_range_meters":0,"station_id":"ce4bh2h2rcd13ifvqdh0","pricing_plan_id":"free"},{"bike_id":"35f8315b-4020-4c7c-8cf5-a96af3cb1b0c","system_id":"levelo_inurba_marseille","lat":43.29421,"lon":5.38619,"is_reserved":false,"is_disabled":false,"rental_uris":{"android":"levelo://app?vid=35f8315b-4020-4c7c-8cf5-a96af3cb1b0c","ios":"levelo://app?vid=35f8315b-4020-4c7c-8cf5-a96af3cb1b0c"},"vehicle_type_id":"4","last_reported":1683144431,"current_range_meters":5200,"station_id":"ce4bh2h2rcd13ifvqdh0","pricing_plan_id":"free"},{"bike_id":"6c69b64c-05bf-4e43-850f-c3817aad11c5","system_id":"levelo_inurba_marseille","lat":43.2942,"lon":5.38619,"is_reserved":false,"is_disabled":false,"rental_uris":{"android":"levelo://app?vid=6c69b64c-05bf-4e43-850f-c3817aad11c5","ios":"levelo://app?vid=6c69b64c-05bf-4e43-850f-c3817aad11c5"},"vehicle_type_id":"4","last_reported":1683144431,"current_range_meters":20800,"station_id":"ce4bh2h2rcd13ifvqdh0","pricing_plan_id":"free"},{"bike_id":"b05e4b6d-cdca-45dc-b79d-8de625d7e3d2","system_id":"levelo_inurba_marseille","lat":43.29421,"lon":5.38621,"is_reserved":false,"is_disabled":false,"rental_uris":{"android":"levelo://app?vid=b05e4b6d-cdca-45dc-b79d-8de625d7e3d2","ios":"levelo://app?vid=b05e4b6d-cdca-45dc-b79d-8de625d7e3d2"},"vehicle_type_id":"4","last_reported":1683144431,"current_range_meters":1200,"station_id":"ce4bh2h2rcd13ifvqdh0","pricing_plan_id":"free"},{"bike_id":"b7ab6c39-fd04-4550-8bfc-784b50d6a99d","system_id":"levelo_inurba_marseille","lat":43.29419,"lon":5.38618,"is_reserved":false,"is_disabled":false,"rental_uris":{"android":"levelo://app?vid=b7ab6c39-fd04-4550-8bfc-784b50d6a99d","ios":"levelo://app?vid=b7ab6c39-fd04-4550-8bfc-784b50d6a99d"},"vehicle_type_id":"4","last_reported":1683144431,"current_range_meters":9600,"station_id":"ce4bh2h2rcd13ifvqdh0","pricing_plan_id":"free"},{"bike_id":"f6daef46-c984-401c-8091-6dd2507ab65f","system_id":"levelo_inurba_marseille","lat":43.29421,"lon":5.38622,"is_reserved":false,"is_disabled":false,"rental_uris":{"android":"levelo://app?vid=f6daef46-c984-401c-8091-6dd2507ab65f","ios":"levelo://app?vid=f6daef46-c984-401c-8091-6dd2507ab65f"},"vehicle_type_id":"4","last_reported":1683144431,"current_range_meters":11200,"station_id":"ce4bh2h2rcd13ifvqdh0","pricing_plan_id":"free"},{"bike_id":"54d12311-a861-4287-b038-936464e8ab8b","system_id":"levelo_inurba_marseille","lat":43.29418,"lon":5.3862,"is_reserved":false,"is_disabled":false,"rental_uris":{"android":"levelo://app?vid=54d12311-a861-4287-b038-936464e8ab8b","ios":"levelo://app?vid=54d12311-a861-4287-b038-936464e8ab8b"},"vehicle_type_id":"4","last_reported":1683144431,"current_range_meters":12400,"station_id":"ce4bh2h2rcd13ifvqdh0","pricing_plan_id":"free"},{"bike_id":"44d671b6-6060-4f30-b848-5abaf95185b2","system_id":"levelo_inurba_marseille","lat":43.294162,"lon":5.386292,"is_reserved":false,"is_disabled":false,"rental_uris":{"android":"levelo://app?vid=44d671b6-6060-4f30-b848-5abaf95185b2","ios":"levelo://app?vid=44d671b6-6060-4f30-b848-5abaf95185b2"},"vehicle_type_id":"4","last_reported":1683144431,"current_range_meters":29200,"station_id":"ce4bh2h2rcd13ifvqdh0","pricing_plan_id":"free"},{"bike_id":"c9330ca2-812b-4c93-b65f-db36b32d34d6","system_id":"levelo_inurba_marseille","lat":43.29419,"lon":5.38622,"is_reserved":false,"is_disabled":false,"rental_uris":{"android":"levelo://app?vid=c9330ca2-812b-4c93-b65f-db36b32d34d6","ios":"levelo://app?vid=c9330ca2-812b-4c93-b65f-db36b32d34d6"},"vehicle_type_id":"4","last_reported":1683144431,"current_range_meters":28800,"station_id":"ce4bh2h2rcd13ifvqdh0","pricing_plan_id":"free"},{"bike_id":"d4d7c658-fb31-435b-b08c-8edfe270aa25","system_id":"levelo_inurba_marseille","lat":43.29419,"lon":5.38622,"is_reserved":false,"is_disabled":false,"rental_uris":{"android":"levelo://app?vid=d4d7c658-fb31-435b-b08c-8edfe270aa25","ios":"levelo://app?vid=d4d7c658-fb31-435b-b08c-8edfe270aa25"},"vehicle_type_id":"4","last_reported":1683144431,"current_range_meters":15600,"station_id":"ce4bh2h2rcd13ifvqdh0","pricing_plan_id":"free"},{"bike_id":"cec250b8-3623-4773-ab9e-33c664a737e9","system_id":"levelo_inurba_marseille","lat":43.29418,"lon":5.38621,"is_reserved":false,"is_disabled":false,"rental_uris":{"android":"levelo://app?vid=cec250b8-3623-4773-ab9e-33c664a737e9","ios":"levelo://app?vid=cec250b8-3623-4773-ab9e-33c664a737e9"},"vehicle_type_id":"4","last_reported":1683144431,"current_range_meters":5200,"station_id":"ce4bh2h2rcd13ifvqdh0","pricing_plan_id":"free"},{"bike_id":"8b2cda3d-4f98-44f9-a332-52359d804570","system_id":"levelo_inurba_marseille","lat":43.294162,"lon":5.386292,"is_reserved":false,"is_disabled":false,"rental_uris":{"android":"levelo://app?vid=8b2cda3d-4f98-44f9-a332-52359d804570","ios":"levelo://app?vid=8b2cda3d-4f98-44f9-a332-52359d804570"},"vehicle_type_id":"4","last_reported":1683144431,"current_range_meters":28400,"station_id":"ce4bh2h2rcd13ifvqdh0","pricing_plan_id":"free"},{"bike_id":"5c9821b7-26f1-46e5-a737-3340d67dd2c8","system_id":"levelo_inurba_marseille","lat":43.29417,"lon":5.38622,"is_reserved":false,"is_disabled":false,"rental_uris":{"android":"levelo://app?vid=5c9821b7-26f1-46e5-a737-3340d67dd2c8","ios":"levelo://app?vid=5c9821b7-26f1-46e5-a737-3340d67dd2c8"},"vehicle_type_id":"4","last_reported":1683144431,"current_range_meters":13600,"station_id":"ce4bh2h2rcd13ifvqdh0","pricing_plan_id":"free"},{"bike_id":"b37362e1-72bd-406b-bfb5-9082fde27b71","system_id":"levelo_inurba_marseille","lat":43.294162,"lon":5.386292,"is_reserved":false,"is_disabled":false,"rental_uris":{"android":"levelo://app?vid=b37362e1-72bd-406b-bfb5-9082fde27b71","ios":"levelo://app?vid=b37362e1-72bd-406b-bfb5-9082fde27b71"},"vehicle_type_id":"4","last_reported":1683144431,"current_range_meters":29200,"station_id":"ce4bh2h2rcd13ifvqdh0","pricing_plan_id":"free"},{"bike_id":"00bcc1ea-a5be-4bfd-bfdd-8de116275c45","system_id":"levelo_inurba_marseille","lat":43.294162,"lon":5.386292,"is_reserved":false,"is_disabled":false,"rental_uris":{"android":"levelo://app?vid=00bcc1ea-a5be-4bfd-bfdd-8de116275c45","ios":"levelo://app?vid=00bcc1ea-a5be-4bfd-bfdd-8de116275c45"},"vehicle_type_id":"4","last_reported":1683144431,"current_range_meters":29600,"station_id":"ce4bh2h2rcd13ifvqdh0","pricing_plan_id":"free"},{"bike_id":"dc9ee3e1-0ca1-4c22-93e3-3cd8e73036ab","system_id":"levelo_inurba_marseille","lat":43.294162,"lon":5.386292,"is_reserved":false,"is_disabled":false,"rental_uris":{"android":"levelo://app?vid=dc9ee3e1-0ca1-4c22-93e3-3cd8e73036ab","ios":"levelo://app?vid=dc9ee3e1-0ca1-4c22-93e3-3cd8e73036ab"},"vehicle_type_id":"4","last_reported":1683144431,"current_range_meters":22800,"station_id":"ce4bh2h2rcd13ifvqdh0","pricing_plan_id":"free"},{"bike_id":"65209b27-41f9-4782-9db2-f00a66b3aea2","system_id":"levelo_inurba_marseille","lat":43.29414,"lon":5.38622,"is_reserved":false,"is_disabled":false,"rental_uris":{"android":"levelo://app?vid=65209b27-41f9-4782-9db2-f00a66b3aea2","ios":"levelo://app?vid=65209b27-41f9-4782-9db2-f00a66b3aea2"},"vehicle_type_id":"4","last_reported":1683144431,"current_range_meters":8000,"station_id":"ce4bh2h2rcd13ifvqdh0","pricing_plan_id":"free"},{"bike_id":"bbffea5d-f8c4-4a63-82ea-20a617832e51","system_id":"levelo_inurba_marseille","lat":43.29412,"lon":5.3862,"is_reserved":false,"is_disabled":false,"rental_uris":{"android":"levelo://app?vid=bbffea5d-f8c4-4a63-82ea-20a617832e51","ios":"levelo://app?vid=bbffea5d-f8c4-4a63-82ea-20a617832e51"},"vehicle_type_id":"4","last_reported":1683144431,"current_range_meters":0,"station_id":"ce4bh2h2rcd13ifvqdh0","pricing_plan_id":"free"},{"bike_id":"dd5a48cf-85ab-451b-b6a2-ca1a61d62566","system_id":"levelo_inurba_marseille","lat":43.294141,"lon":5.386242,"is_reserved":false,"is_disabled":false,"rental_uris":{"android":"levelo://app?vid=dd5a48cf-85ab-451b-b6a2-ca1a61d62566","ios":"levelo://app?vid=dd5a48cf-85ab-451b-b6a2-ca1a61d62566"},"vehicle_type_id":"4","last_reported":1683144431,"current_range_meters":10800,"station_id":"","pricing_plan_id":"free"},{"bike_id":"5e0d5845-6c5f-4b0c-a169-f15988a18f27","system_id":"levelo_inurba_marseille","lat":43.29415,"lon":5.38627,"is_reserved":false,"is_disabled":false,"rental_uris":{"android":"levelo://app?vid=5e0d5845-6c5f-4b0c-a169-f15988a18f27","ios":"levelo://app?vid=5e0d5845-6c5f-4b0c-a169-f15988a18f27"},"vehicle_type_id":"4","last_reported":1683144431,"current_range_meters":11200,"station_id":"ce4bh2h2rcd13ifvqdh0","pricing_plan_id":"free"},{"bike_id":"d5113f02-d93f-48a2-8484-f92017371da2","system_id":"levelo_inurba_marseille","lat":43.29414,"lon":5.38626,"is_reserved":false,"is_disabled":false,"rental_uris":{"android":"levelo://app?vid=d5113f02-d93f-48a2-8484-f92017371da2","ios":"levelo://app?vid=d5113f02-d93f-48a2-8484-f92017371da2"},"vehicle_type_id":"4","last_reported":1683144431,"current_range_meters":8800,"station_id":"ce4bh2h2rcd13ifvqdh0","pricing_plan_id":"free"},{"bike_id":"e8a9a9c3-236e-4ac4-bb23-61a861176a7f","system_id":"levelo_inurba_marseille","lat":43.29413,"lon":5.38628,"is_reserved":false,"is_disabled":false,"rental_uris":{"android":"levelo://app?vid=e8a9a9c3-236e-4ac4-bb23-61a861176a7f","ios":"levelo://app?vid=e8a9a9c3-236e-4ac4-bb23-61a861176a7f"},"vehicle_type_id":"4","last_reported":1683144431,"current_range_meters":17200,"station_id":"ce4bh2h2rcd13ifvqdh0","pricing_plan_id":"free"},{"bike_id":"7c13fce2-8ca2-43a1-bc73-2f193be6dccc","system_id":"levelo_inurba_marseille","lat":43.29413,"lon":5.3863,"is_reserved":false,"is_disabled":false,"rental_uris":{"android":"levelo://app?vid=7c13fce2-8ca2-43a1-bc73-2f193be6dccc","ios":"levelo://app?vid=7c13fce2-8ca2-43a1-bc73-2f193be6dccc"},"vehicle_type_id":"4","last_reported":1683144431,"current_range_meters":16800,"station_id":"ce4bh2h2rcd13ifvqdh0","pricing_plan_id":"free"},{"bike_id":"5a1e4578-8036-45a2-a3dc-cb3c99b82d85","system_id":"levelo_inurba_marseille","lat":43.29414,"lon":5.38632,"is_reserved":false,"is_disabled":false,"rental_uris":{"android":"levelo://app?vid=5a1e4578-8036-45a2-a3dc-cb3c99b82d85","ios":"levelo://app?vid=5a1e4578-8036-45a2-a3dc-cb3c99b82d85"},"vehicle_type_id":"4","last_reported":1683144431,"current_range_meters":13200,"station_id":"ce4bh2h2rcd13ifvqdh0","pricing_plan_id":"free"},{"bike_id":"6f5b91a8-3852-4b53-8e4d-cd51d1b3774f","system_id":"levelo_inurba_marseille","lat":43.29413,"lon":5.38631,"is_reserved":false,"is_disabled":false,"rental_uris":{"android":"levelo://app?vid=6f5b91a8-3852-4b53-8e4d-cd51d1b3774f","ios":"levelo://app?vid=6f5b91a8-3852-4b53-8e4d-cd51d1b3774f"},"vehicle_type_id":"4","last_reported":1683144431,"current_range_meters":9600,"station_id":"ce4bh2h2rcd13ifvqdh0","pricing_plan_id":"free"},{"bike_id":"4eb5868a-2bd2-4ed0-bed6-883d057e5dc6","system_id":"levelo_inurba_marseille","lat":43.289184,"lon":5.366408,"is_reserved":false,"is_disabled":false,"rental_uris":{"android":"levelo://app?vid=4eb5868a-2bd2-4ed0-bed6-883d057e5dc6","ios":"levelo://app?vid=4eb5868a-2bd2-4ed0-bed6-883d057e5dc6"},"vehicle_type_id":"4","last_reported":1683144431,"current_range_meters":30000,"station_id":"ce4bhap2rcd13ifvqek0","pricing_plan_id":"free"},{"bike_id":"914cd928-65c6-4acf-8ed8-6727f2450cf4","system_id":"levelo_inurba_marseille","lat":43.32725,"lon":5.39254,"is_reserved":false,"is_disabled":false,"rental_uris":{"android":"levelo://app?vid=914cd928-65c6-4acf-8ed8-6727f2450cf4","ios":"levelo://app?vid=914cd928-65c6-4acf-8ed8-6727f2450cf4"},"vehicle_type_id":"4","last_reported":1683144431,"current_range_meters":0,"station_id":"","pricing_plan_id":"free"},{"bike_id":"7e95e470-ac7c-4236-8ea1-ed86c9cdd02f","system_id":"levelo_inurba_marseille","lat":43.292644,"lon":5.384257,"is_reserved":false,"is_disabled":false,"rental_uris":{"android":"levelo://app?vid=7e95e470-ac7c-4236-8ea1-ed86c9cdd02f","ios":"levelo://app?vid=7e95e470-ac7c-4236-8ea1-ed86c9cdd02f"},"vehicle_type_id":"4","last_reported":1683144431,"current_range_meters":19200,"station_id":"ce4bh692rcd13ifvqea0","pricing_plan_id":"free"},{"bike_id":"df407141-8369-4e51-826e-49ae6330cc58","system_id":"levelo_inurba_marseille","lat":43.292644,"lon":5.384257,"is_reserved":false,"is_disabled":false,"rental_uris":{"android":"levelo://app?vid=df407141-8369-4e51-826e-49ae6330cc58","ios":"levelo://app?vid=df407141-8369-4e51-826e-49ae6330cc58"},"vehicle_type_id":"4","last_reported":1683144431,"current_range_meters":7200,"station_id":"ce4bh692rcd13ifvqea0","pricing_plan_id":"free"},{"bike_id":"d23d2c65-22e3-44e3-b3eb-d7d6dfbb8691","system_id":"levelo_inurba_marseille","lat":43.29269,"lon":5.38432,"is_reserved":false,"is_disabled":false,"rental_uris":{"android":"levelo://app?vid=d23d2c65-22e3-44e3-b3eb-d7d6dfbb8691","ios":"levelo://app?vid=d23d2c65-22e3-44e3-b3eb-d7d6dfbb8691"},"vehicle_type_id":"4","last_reported":1683144431,"current_range_meters":12000,"station_id":"ce4bh692rcd13ifvqea0","pricing_plan_id":"free"},{"bike_id":"fece0985-e959-4a39-aefc-c9aaebe3ae10","system_id":"levelo_inurba_marseille","lat":43.29264,"lon":5.38426,"is_reserved":false,"is_disabled":false,"rental_uris":{"android":"levelo://app?vid=fece0985-e959-4a39-aefc-c9aaebe3ae10","ios":"levelo://app?vid=fece0985-e959-4a39-aefc-c9aaebe3ae10"},"vehicle_type_id":"4","last_reported":1683144431,"current_range_meters":25200,"station_id":"ce4bh692rcd13ifvqea0","pricing_plan_id":"free"},{"bike_id":"ee1b8e2a-508c-4db2-8979-cd9952fbb56a","system_id":"levelo_inurba_marseille","lat":43.292644,"lon":5.384257,"is_reserved":false,"is_disabled":false,"rental_uris":{"android":"levelo://app?vid=ee1b8e2a-508c-4db2-8979-cd9952fbb56a","ios":"levelo://app?vid=ee1b8e2a-508c-4db2-8979-cd9952fbb56a"},"vehicle_type_id":"4","last_reported":1683144431,"current_range_meters":30800,"station_id":"ce4bh692rcd13ifvqea0","pricing_plan_id":"free"},{"bike_id":"2e41d0da-f979-4657-8abc-afa2e910b843","system_id":"levelo_inurba_marseille","lat":43.292644,"lon":5.384257,"is_reserved":false,"is_disabled":false,"rental_uris":{"android":"levelo://app?vid=2e41d0da-f979-4657-8abc-afa2e910b843","ios":"levelo://app?vid=2e41d0da-f979-4657-8abc-afa2e910b843"},"vehicle_type_id":"4","last_reported":1683144431,"current_range_meters":4800,"station_id":"ce4bh692rcd13ifvqea0","pricing_plan_id":"free"},{"bike_id":"53cd3c92-2331-4d8c-b40a-848320ec3b00","system_id":"levelo_inurba_marseille","lat":43.292644,"lon":5.384257,"is_reserved":false,"is_disabled":false,"rental_uris":{"android":"levelo://app?vid=53cd3c92-2331-4d8c-b40a-848320ec3b00","ios":"levelo://app?vid=53cd3c92-2331-4d8c-b40a-848320ec3b00"},"vehicle_type_id":"4","last_reported":1683144431,"current_range_meters":19200,"station_id":"ce4bh692rcd13ifvqea0","pricing_plan_id":"free"},{"bike_id":"b16e9970-a08c-4909-9226-5eb985ac7112","system_id":"levelo_inurba_marseille","lat":43.29264,"lon":5.38427,"is_reserved":false,"is_disabled":false,"rental_uris":{"android":"levelo://app?vid=b16e9970-a08c-4909-9226-5eb985ac7112","ios":"levelo://app?vid=b16e9970-a08c-4909-9226-5eb985ac7112"},"vehicle_type_id":"4","last_reported":1683144431,"current_range_meters":14400,"station_id":"ce4bh692rcd13ifvqea0","pricing_plan_id":"free"},{"bike_id":"ac633db9-037a-448c-9b99-565783cf020a","system_id":"levelo_inurba_marseille","lat":43.292644,"lon":5.384257,"is_reserved":false,"is_disabled":false,"rental_uris":{"android":"levelo://app?vid=ac633db9-037a-448c-9b99-565783cf020a","ios":"levelo://app?vid=ac633db9-037a-448c-9b99-565783cf020a"},"vehicle_type_id":"4","last_reported":1683144431,"current_range_meters":29600,"station_id":"ce4bh692rcd13ifvqea0","pricing_plan_id":"free"},{"bike_id":"512175ac-b352-4f30-b573-9e390d82fbb2","system_id":"levelo_inurba_marseille","lat":43.29269,"lon":5.38442,"is_reserved":false,"is_disabled":false,"rental_uris":{"android":"levelo://app?vid=512175ac-b352-4f30-b573-9e390d82fbb2","ios":"levelo://app?vid=512175ac-b352-4f30-b573-9e390d82fbb2"},"vehicle_type_id":"4","last_reported":1683144431,"current_range_meters":31200,"station_id":"ce4bh692rcd13ifvqea0","pricing_plan_id":"free"},{"bike_id":"80201022-e393-4d3f-beb2-c7c54b1d8584","system_id":"levelo_inurba_marseille","lat":43.29262,"lon":5.38427,"is_reserved":false,"is_disabled":false,"rental_uris":{"android":"levelo://app?vid=80201022-e393-4d3f-beb2-c7c54b1d8584","ios":"levelo://app?vid=80201022-e393-4d3f-beb2-c7c54b1d8584"},"vehicle_type_id":"4","last_reported":1683144431,"current_range_meters":20000,"station_id":"ce4bh692rcd13ifvqea0","pricing_plan_id":"free"},{"bike_id":"38005bc2-4be9-4314-9cc3-c395f64a58db","system_id":"levelo_inurba_marseille","lat":43.29263,"lon":5.38432,"is_reserved":false,"is_disabled":false,"rental_uris":{"android":"levelo://app?vid=38005bc2-4be9-4314-9cc3-c395f64a58db","ios":"levelo://app?vid=38005bc2-4be9-4314-9cc3-c395f64a58db"},"vehicle_type_id":"4","last_reported":1683144431,"current_range_meters":20000,"station_id":"ce4bh692rcd13ifvqea0","pricing_plan_id":"free"},{"bike_id":"95059374-8a2f-499a-9fc3-8ce0f05ce748","system_id":"levelo_inurba_marseille","lat":43.29268,"lon":5.38445,"is_reserved":false,"is_disabled":false,"rental_uris":{"android":"levelo://app?vid=95059374-8a2f-499a-9fc3-8ce0f05ce748","ios":"levelo://app?vid=95059374-8a2f-499a-9fc3-8ce0f05ce748"},"vehicle_type_id":"4","last_reported":1683144431,"current_range_meters":17200,"station_id":"ce4bh692rcd13ifvqea0","pricing_plan_id":"free"},{"bike_id":"d8592ab5-a585-4730-a67d-1347ec5bfad7","system_id":"levelo_inurba_marseille","lat":43.292644,"lon":5.384257,"is_reserved":false,"is_disabled":false,"rental_uris":{"android":"levelo://app?vid=d8592ab5-a585-4730-a67d-1347ec5bfad7","ios":"levelo://app?vid=d8592ab5-a585-4730-a67d-1347ec5bfad7"},"vehicle_type_id":"4","last_reported":1683144431,"current_range_meters":13200,"station_id":"ce4bh692rcd13ifvqea0","pricing_plan_id":"free"},{"bike_id":"b7c01192-b117-4a14-8ea2-001051ea3733","system_id":"levelo_inurba_marseille","lat":43.29259,"lon":5.38427,"is_reserved":false,"is_disabled":false,"rental_uris":{"android":"levelo://app?vid=b7c01192-b117-4a14-8ea2-001051ea3733","ios":"levelo://app?vid=b7c01192-b117-4a14-8ea2-001051ea3733"},"vehicle_type_id":"4","last_reported":1683144431,"current_range_meters":27600,"station_id":"ce4bh692rcd13ifvqea0","pricing_plan_id":"free"},{"bike_id":"e485efa3-5bc4-4b73-99a6-83875532008f","system_id":"levelo_inurba_marseille","lat":43.292644,"lon":5.384257,"is_reserved":false,"is_disabled":false,"rental_uris":{"android":"levelo://app?vid=e485efa3-5bc4-4b73-99a6-83875532008f","ios":"levelo://app?vid=e485efa3-5bc4-4b73-99a6-83875532008f"},"vehicle_type_id":"4","last_reported":1683144431,"current_range_meters":20000,"station_id":"ce4bh692rcd13ifvqea0","pricing_plan_id":"free"},{"bike_id":"aa073c57-ba33-4194-8895-0bcbbbaa4bf6","system_id":"levelo_inurba_marseille","lat":43.2926,"lon":5.38436,"is_reserved":false,"is_disabled":false,"rental_uris":{"android":"levelo://app?vid=aa073c57-ba33-4194-8895-0bcbbbaa4bf6","ios":"levelo://app?vid=aa073c57-ba33-4194-8895-0bcbbbaa4bf6"},"vehicle_type_id":"4","last_reported":1683144431,"current_range_meters":2400,"station_id":"ce4bh692rcd13ifvqea0","pricing_plan_id":"free"},{"bike_id":"447bd217-8850-4458-911a-467c4ffe0891","system_id":"levelo_inurba_marseille","lat":43.304296,"lon":5.397513,"is_reserved":false,"is_disabled":false,"rental_uris":{"android":"levelo://app?vid=447bd217-8850-4458-911a-467c4ffe0891","ios":"levelo://app?vid=447bd217-8850-4458-911a-467c4ffe0891"},"vehicle_type_id":"4","last_reported":1683144431,"current_range_meters":6400,"station_id":"ce4bh092rcd13ifvqd20","pricing_plan_id":"free"},{"bike_id":"495ce4ff-eba4-4a69-b6ad-ba9f3cbdd402","system_id":"levelo_inurba_marseille","lat":43.304296,"lon":5.397513,"is_reserved":false,"is_disabled":false,"rental_uris":{"android":"levelo://app?vid=495ce4ff-eba4-4a69-b6ad-ba9f3cbdd402","ios":"levelo://app?vid=495ce4ff-eba4-4a69-b6ad-ba9f3cbdd402"},"vehicle_type_id":"4","last_reported":1683144431,"current_range_meters":1600,"station_id":"ce4bh092rcd13ifvqd20","pricing_plan_id":"free"},{"bike_id":"7a3e0d7a-e1f2-4134-8a5e-449cf8499f9b","system_id":"levelo_inurba_marseille","lat":43.292644,"lon":5.384257,"is_reserved":false,"is_disabled":false,"rental_uris":{"android":"levelo://app?vid=7a3e0d7a-e1f2-4134-8a5e-449cf8499f9b","ios":"levelo://app?vid=7a3e0d7a-e1f2-4134-8a5e-449cf8499f9b"},"vehicle_type_id":"4","last_reported":1683144431,"current_range_meters":22400,"station_id":"ce4bh692rcd13ifvqea0","pricing_plan_id":"free"},{"bike_id":"d47d4405-4972-4df3-ad9d-f5607a779140","system_id":"levelo_inurba_marseille","lat":43.292644,"lon":5.384257,"is_reserved":false,"is_disabled":false,"rental_uris":{"android":"levelo://app?vid=d47d4405-4972-4df3-ad9d-f5607a779140","ios":"levelo://app?vid=d47d4405-4972-4df3-ad9d-f5607a779140"},"vehicle_type_id":"4","last_reported":1683144431,"current_range_meters":8800,"station_id":"ce4bh692rcd13ifvqea0","pricing_plan_id":"free"},{"bike_id":"c0b1f4cc-43f0-4503-9baa-61a628611472","system_id":"levelo_inurba_marseille","lat":43.292644,"lon":5.384257,"is_reserved":false,"is_disabled":false,"rental_uris":{"android":"levelo://app?vid=c0b1f4cc-43f0-4503-9baa-61a628611472","ios":"levelo://app?vid=c0b1f4cc-43f0-4503-9baa-61a628611472"},"vehicle_type_id":"4","last_reported":1683144431,"current_range_meters":20400,"station_id":"ce4bh692rcd13ifvqea0","pricing_plan_id":"free"},{"bike_id":"76705a64-776b-4c1e-9068-c9d21e307d01","system_id":"levelo_inurba_marseille","lat":43.29262,"lon":5.38451,"is_reserved":false,"is_disabled":false,"rental_uris":{"android":"levelo://app?vid=76705a64-776b-4c1e-9068-c9d21e307d01","ios":"levelo://app?vid=76705a64-776b-4c1e-9068-c9d21e307d01"},"vehicle_type_id":"4","last_reported":1683144431,"current_range_meters":26400,"station_id":"ce4bh692rcd13ifvqea0","pricing_plan_id":"free"},{"bike_id":"00dea0f0-854a-4189-ab8c-7cf5a213a692","system_id":"levelo_inurba_marseille","lat":43.292644,"lon":5.384257,"is_reserved":false,"is_disabled":false,"rental_uris":{"android":"levelo://app?vid=00dea0f0-854a-4189-ab8c-7cf5a213a692","ios":"levelo://app?vid=00dea0f0-854a-4189-ab8c-7cf5a213a692"},"vehicle_type_id":"4","last_reported":1683144431,"current_range_meters":8000,"station_id":"ce4bh692rcd13ifvqea0","pricing_plan_id":"free"},{"bike_id":"8438a528-ec87-4b7d-a99d-d16059462ef3","system_id":"levelo_inurba_marseille","lat":43.292644,"lon":5.384257,"is_reserved":false,"is_disabled":false,"rental_uris":{"android":"levelo://app?vid=8438a528-ec87-4b7d-a99d-d16059462ef3","ios":"levelo://app?vid=8438a528-ec87-4b7d-a99d-d16059462ef3"},"vehicle_type_id":"4","last_reported":1683144431,"current_range_meters":18000,"station_id":"ce4bh692rcd13ifvqea0","pricing_plan_id":"free"},{"bike_id":"60026870-f365-4abd-a8f6-951782c8f9bf","system_id":"levelo_inurba_marseille","lat":43.292644,"lon":5.384257,"is_reserved":false,"is_disabled":false,"rental_uris":{"android":"levelo://app?vid=60026870-f365-4abd-a8f6-951782c8f9bf","ios":"levelo://app?vid=60026870-f365-4abd-a8f6-951782c8f9bf"},"vehicle_type_id":"4","last_reported":1683144431,"current_range_meters":10800,"station_id":"ce4bh692rcd13ifvqea0","pricing_plan_id":"free"},{"bike_id":"48abe26a-0c6d-472c-92cd-979f90012c8b","system_id":"levelo_inurba_marseille","lat":43.292644,"lon":5.384257,"is_reserved":false,"is_disabled":false,"rental_uris":{"android":"levelo://app?vid=48abe26a-0c6d-472c-92cd-979f90012c8b","ios":"levelo://app?vid=48abe26a-0c6d-472c-92cd-979f90012c8b"},"vehicle_type_id":"4","last_reported":1683144431,"current_range_meters":27600,"station_id":"ce4bh692rcd13ifvqea0","pricing_plan_id":"free"},{"bike_id":"590ccba5-c5f9-49d5-9f7b-f60221a798b4","system_id":"levelo_inurba_marseille","lat":43.29255,"lon":5.38445,"is_reserved":false,"is_disabled":false,"rental_uris":{"android":"levelo://app?vid=590ccba5-c5f9-49d5-9f7b-f60221a798b4","ios":"levelo://app?vid=590ccba5-c5f9-49d5-9f7b-f60221a798b4"},"vehicle_type_id":"4","last_reported":1683144431,"current_range_meters":18400,"station_id":"ce4bh692rcd13ifvqea0","pricing_plan_id":"free"},{"bike_id":"19b11e90-2481-48f1-a82b-ff77123b764e","system_id":"levelo_inurba_marseille","lat":43.304296,"lon":5.397513,"is_reserved":false,"is_disabled":false,"rental_uris":{"android":"levelo://app?vid=19b11e90-2481-48f1-a82b-ff77123b764e","ios":"levelo://app?vid=19b11e90-2481-48f1-a82b-ff77123b764e"},"vehicle_type_id":"4","last_reported":1683144431,"current_range_meters":1600,"station_id":"ce4bh092rcd13ifvqd20","pricing_plan_id":"free"},{"bike_id":"9a6106be-38f6-4bea-8a4a-4541d774a3db","system_id":"levelo_inurba_marseille","lat":43.29257,"lon":5.3845,"is_reserved":false,"is_disabled":false,"rental_uris":{"android":"levelo://app?vid=9a6106be-38f6-4bea-8a4a-4541d774a3db","ios":"levelo://app?vid=9a6106be-38f6-4bea-8a4a-4541d774a3db"},"vehicle_type_id":"4","last_reported":1683144431,"current_range_meters":30800,"station_id":"ce4bh692rcd13ifvqea0","pricing_plan_id":"free"},{"bike_id":"157520d2-2c48-4bd0-8071-fa1c71d7d69c","system_id":"levelo_inurba_marseille","lat":43.292644,"lon":5.384257,"is_reserved":false,"is_disabled":false,"rental_uris":{"android":"levelo://app?vid=157520d2-2c48-4bd0-8071-fa1c71d7d69c","ios":"levelo://app?vid=157520d2-2c48-4bd0-8071-fa1c71d7d69c"},"vehicle_type_id":"4","last_reported":1683144431,"current_range_meters":29600,"station_id":"ce4bh692rcd13ifvqea0","pricing_plan_id":"free"},{"bike_id":"23bc1717-4c5b-49b1-b777-b54e1243e5a1","system_id":"levelo_inurba_marseille","lat":43.2925,"lon":5.38448,"is_reserved":false,"is_disabled":false,"rental_uris":{"android":"levelo://app?vid=23bc1717-4c5b-49b1-b777-b54e1243e5a1","ios":"levelo://app?vid=23bc1717-4c5b-49b1-b777-b54e1243e5a1"},"vehicle_type_id":"4","last_reported":1683144431,"current_range_meters":26400,"station_id":"ce4bh692rcd13ifvqea0","pricing_plan_id":"free"},{"bike_id":"b52c7fb3-8dbb-4fff-a759-a054135cec63","system_id":"levelo_inurba_marseille","lat":43.33038,"lon":5.38923,"is_reserved":false,"is_disabled":false,"rental_uris":{"android":"levelo://app?vid=b52c7fb3-8dbb-4fff-a759-a054135cec63","ios":"levelo://app?vid=b52c7fb3-8dbb-4fff-a759-a054135cec63"},"vehicle_type_id":"4","last_reported":1683144431,"current_range_meters":31200,"station_id":"ce4bhr92rcd13ifvqhrg","pricing_plan_id":"free"},{"bike_id":"f80d7e11-9b89-4d36-a72b-64a824314445","system_id":"levelo_inurba_marseille","lat":43.33044,"lon":5.3892,"is_reserved":false,"is_disabled":false,"rental_uris":{"android":"levelo://app?vid=f80d7e11-9b89-4d36-a72b-64a824314445","ios":"levelo://app?vid=f80d7e11-9b89-4d36-a72b-64a824314445"},"vehicle_type_id":"4","last_reported":1683144431,"current_range_meters":31200,"station_id":"ce4bhr92rcd13ifvqhrg","pricing_plan_id":"free"},{"bike_id":"58d2d2bf-8b46-48c6-b57d-f01833dba5e9","system_id":"levelo_inurba_marseille","lat":43.33046,"lon":5.38922,"is_reserved":false,"is_disabled":false,"rental_uris":{"android":"levelo://app?vid=58d2d2bf-8b46-48c6-b57d-f01833dba5e9","ios":"levelo://app?vid=58d2d2bf-8b46-48c6-b57d-f01833dba5e9"},"vehicle_type_id":"4","last_reported":1683144431,"current_range_meters":10400,"station_id":"ce4bhr92rcd13ifvqhrg","pricing_plan_id":"free"},{"bike_id":"3f480e9e-c77c-4491-a872-03781a677994","system_id":"levelo_inurba_marseille","lat":43.295169,"lon":5.390426,"is_reserved":false,"is_disabled":false,"rental_uris":{"android":"levelo://app?vid=3f480e9e-c77c-4491-a872-03781a677994","ios":"levelo://app?vid=3f480e9e-c77c-4491-a872-03781a677994"},"vehicle_type_id":"4","last_reported":1683144431,"current_range_meters":24800,"station_id":"ce4bh3p2rcd13ifvqdp0","pricing_plan_id":"free"},{"bike_id":"5276981e-d6da-4ee3-b2ee-4adc11d79381","system_id":"levelo_inurba_marseille","lat":43.295169,"lon":5.390426,"is_reserved":false,"is_disabled":false,"rental_uris":{"android":"levelo://app?vid=5276981e-d6da-4ee3-b2ee-4adc11d79381","ios":"levelo://app?vid=5276981e-d6da-4ee3-b2ee-4adc11d79381"},"vehicle_type_id":"4","last_reported":1683144431,"current_range_meters":12000,"station_id":"ce4bh3p2rcd13ifvqdp0","pricing_plan_id":"free"},{"bike_id":"b6e3e095-eb5b-490a-8e56-3745f3409c5f","system_id":"levelo_inurba_marseille","lat":43.295169,"lon":5.390426,"is_reserved":false,"is_disabled":false,"rental_uris":{"android":"levelo://app?vid=b6e3e095-eb5b-490a-8e56-3745f3409c5f","ios":"levelo://app?vid=b6e3e095-eb5b-490a-8e56-3745f3409c5f"},"vehicle_type_id":"4","last_reported":1683144431,"current_range_meters":15200,"station_id":"ce4bh3p2rcd13ifvqdp0","pricing_plan_id":"free"},{"bike_id":"b098df07-dece-4375-92bc-8f2aba395a7f","system_id":"levelo_inurba_marseille","lat":43.295169,"lon":5.390426,"is_reserved":false,"is_disabled":false,"rental_uris":{"android":"levelo://app?vid=b098df07-dece-4375-92bc-8f2aba395a7f","ios":"levelo://app?vid=b098df07-dece-4375-92bc-8f2aba395a7f"},"vehicle_type_id":"4","last_reported":1683144431,"current_range_meters":19600,"station_id":"ce4bh3p2rcd13ifvqdp0","pricing_plan_id":"free"},{"bike_id":"473f9356-151f-4363-ae59-b0503237ec71","system_id":"levelo_inurba_marseille","lat":43.295169,"lon":5.390426,"is_reserved":false,"is_disabled":false,"rental_uris":{"android":"levelo://app?vid=473f9356-151f-4363-ae59-b0503237ec71","ios":"levelo://app?vid=473f9356-151f-4363-ae59-b0503237ec71"},"vehicle_type_id":"4","last_reported":1683144431,"current_range_meters":10400,"station_id":"ce4bh3p2rcd13ifvqdp0","pricing_plan_id":"free"},{"bike_id":"01f89b6b-6c91-4703-b83d-1cc41257ce4f","system_id":"levelo_inurba_marseille","lat":43.295169,"lon":5.390426,"is_reserved":false,"is_disabled":false,"rental_uris":{"android":"levelo://app?vid=01f89b6b-6c91-4703-b83d-1cc41257ce4f","ios":"levelo://app?vid=01f89b6b-6c91-4703-b83d-1cc41257ce4f"},"vehicle_type_id":"4","last_reported":1683144431,"current_range_meters":28400,"station_id":"ce4bh3p2rcd13ifvqdp0","pricing_plan_id":"free"},{"bike_id":"2b584779-fec8-42de-b8ff-8074ac941b35","system_id":"levelo_inurba_marseille","lat":43.295169,"lon":5.390426,"is_reserved":false,"is_disabled":false,"rental_uris":{"android":"levelo://app?vid=2b584779-fec8-42de-b8ff-8074ac941b35","ios":"levelo://app?vid=2b584779-fec8-42de-b8ff-8074ac941b35"},"vehicle_type_id":"4","last_reported":1683144431,"current_range_meters":26400,"station_id":"ce4bh3p2rcd13ifvqdp0","pricing_plan_id":"free"},{"bike_id":"4bffba68-9f17-47a8-9157-3dd702c8b75f","system_id":"levelo_inurba_marseille","lat":43.295169,"lon":5.390426,"is_reserved":false,"is_disabled":false,"rental_uris":{"android":"levelo://app?vid=4bffba68-9f17-47a8-9157-3dd702c8b75f","ios":"levelo://app?vid=4bffba68-9f17-47a8-9157-3dd702c8b75f"},"vehicle_type_id":"4","last_reported":1683144431,"current_range_meters":22800,"station_id":"ce4bh3p2rcd13ifvqdp0","pricing_plan_id":"free"},{"bike_id":"c054ca5b-bb37-4045-bdd9-35141f56209c","system_id":"levelo_inurba_marseille","lat":43.295169,"lon":5.390426,"is_reserved":false,"is_disabled":false,"rental_uris":{"android":"levelo://app?vid=c054ca5b-bb37-4045-bdd9-35141f56209c","ios":"levelo://app?vid=c054ca5b-bb37-4045-bdd9-35141f56209c"},"vehicle_type_id":"4","last_reported":1683144431,"current_range_meters":31600,"station_id":"ce4bh3p2rcd13ifvqdp0","pricing_plan_id":"free"},{"bike_id":"396b1a78-bb80-464f-a091-f6dae382a1f2","system_id":"levelo_inurba_marseille","lat":43.295169,"lon":5.390426,"is_reserved":false,"is_disabled":false,"rental_uris":{"android":"levelo://app?vid=396b1a78-bb80-464f-a091-f6dae382a1f2","ios":"levelo://app?vid=396b1a78-bb80-464f-a091-f6dae382a1f2"},"vehicle_type_id":"4","last_reported":1683144431,"current_range_meters":19600,"station_id":"ce4bh3p2rcd13ifvqdp0","pricing_plan_id":"free"},{"bike_id":"6b906285-5eb3-47da-8e55-8dfaa5b0a1a0","system_id":"levelo_inurba_marseille","lat":43.299028,"lon":5.381509,"is_reserved":false,"is_disabled":false,"rental_uris":{"android":"levelo://app?vid=6b906285-5eb3-47da-8e55-8dfaa5b0a1a0","ios":"levelo://app?vid=6b906285-5eb3-47da-8e55-8dfaa5b0a1a0"},"vehicle_type_id":"4","last_reported":1683144431,"current_range_meters":26000,"station_id":"ce4bgj12rcd13ifvqbc0","pricing_plan_id":"free"},{"bike_id":"ccc57e73-d189-4165-b2cb-933d917cd372","system_id":"levelo_inurba_marseille","lat":43.295169,"lon":5.390426,"is_reserved":false,"is_disabled":false,"rental_uris":{"android":"levelo://app?vid=ccc57e73-d189-4165-b2cb-933d917cd372","ios":"levelo://app?vid=ccc57e73-d189-4165-b2cb-933d917cd372"},