{"last_updated":1765909105,"ttl":60,"version":"2.2","data":{"bikes":[{"bike_id":"94571f20-92fa-4b26-9ab1-3b3fcae21659","system_id":"levelo_inurba_marseille","lat":43.29809,"lon":5.38083,"is_reserved":false,"is_disabled":false,"rental_uris":{"android":"levelo://app?vid=94571f20-92fa-4b26-9ab1-3b3fcae21659","ios":"levelo://app?vid=94571f20-92fa-4b26-9ab1-3b3fcae21659"},"vehicle_type_id":"4","last_reported":1765909105,"current_range_meters":2800,"station_id":"ce4bgip2rcd13ifvqbb0","pricing_plan_id":"cebpf4jnsgd1na2vs0mg"},{"bike_id":"73e36d11-8aa0-4023-b049-838b3c443243","system_id":"levelo_inurba_marseille","lat":43.27917,"lon":5.39581,"is_reserved":false,"is_disabled":false,"rental_uris":{"android":"levelo://app?vid=73e36d11-8aa0-4023-b049-838b3c443243","ios":"levelo://app?vid=73e36d11-8aa0-4023-b049-838b3c443243"},"vehicle_type_id":"4","last_reported":1765909105,"current_range_meters":2800,"station_id":"ce4bhf92rcd13ifvqf40","pricing_plan_id":"cebpf4jnsgd1na2vs0mg"},{"bike_id":"4f6d8ad0-3991-4a51-b3dc-266a2ca4a7fe","system_id":"levelo_inurba_marseille","lat":43.29054,"lon":5.39984,"is_reserved":false,"is_disabled":true,"rental_uris":{"android":"levelo://app?vid=4f6d8ad0-3991-4a51-b3dc-266a2ca4a7fe","ios":"levelo://app?vid=4f6d8ad0-3991-4a51-b3dc-266a2ca4a7fe"},"vehicle_type_id":"4","last_reported":1765909105,"current_range_meters":2800,"station_id":"ce4bh392rcd13ifvqdm0","pricing_plan_id":"cebpf4jnsgd1na2vs0mg"},{"bike_id":"d7d63011-3df7-4763-a8ca-237223b9aae1","system_id":"levelo_inurba_marseille","lat":43.255034,"lon":5.376485,"is_reserved":false,"is_disabled":false,"rental_uris":{"android":"levelo://app?vid=d7d63011-3df7-4763-a8ca-237223b9aae1","ios":"levelo://app?vid=d7d63011-3df7-4763-a8ca-237223b9aae1"},"vehicle_type_id":"4","last_reported":1765909105,"current_range_meters":2800,"station_id":"ce4bhh12rcd13ifvqff0","pricing_plan_id":"cebpf4jnsgd1na2vs0mg"},{"bike_id":"badd8d20-9209-4436-9c1f-a017c0e70e8a","system_id":"levelo_inurba_marseille","lat":43.3256,"lon":5.39321,"is_reserved":false,"is_disabled":false,"rental_uris":{"android":"levelo://app?vid=badd8d20-9209-4436-9c1f-a017c0e70e8a","ios":"levelo://app?vid=badd8d20-9209-4436-9c1f-a017c0e70e8a"},"vehicle_type_id":"4","last_reported":1765909105,"current_range_meters":2800,"station_id":"","pricing_plan_id":"cebpf4jnsgd1na2vs0mg"},{"bike_id":"6b5156c6-c85e-4d71-8128-6d57d95d97a6","system_id":"levelo_inurba_marseille","lat":43.28355,"lon":5.38108,"is_reserved":false,"is_disabled":false,"rental_uris":{"android":"levelo://app?vid=6b5156c6-c85e-4d71-8128-6d57d95d97a6","ios":"levelo://app?vid=6b5156c6-c85e-4d71-8128-6d57d95d97a6"},"vehicle_type_id":"4","last_reported":1765909105,"current_range_meters":2800,"station_id":"ce4bh412rcd13ifvqdr0","pricing_plan_id":"cebpf4jnsgd1na2vs0mg"},{"bike_id":"45889b4f-770e-40be-96c7-8ddbb31f5a49","system_id":"levelo_inurba_marseille","lat":43.25727,"lon":5.4111,"is_reserved":false,"is_disabled":false,"rental_uris":{"android":"levelo://app?vid=45889b4f-770e-40be-96c7-8ddbb31f5a49","ios":"levelo://app?vid=45889b4f-770e-40be-96c7-8ddbb31f5a49"},"vehicle_type_id":"4","last_reported":1765909105,"current_range_meters":2800,"station_id":"ce4bhkp2rcd13ifvqgd0","pricing_plan_id":"cebpf4jnsgd1na2vs0mg"},{"bike_id":"938704df-6b04-48dd-9908-20b4ec93f86f","system_id":"levelo_inurba_marseille","lat":43.28005,"lon":5.39994,"is_reserved":false,"is_disabled":false,"rental_uris":{"android":"levelo://app?vid=938704df-6b04-48dd-9908-20b4ec93f86f","ios":"levelo://app?vid=938704df-6b04-48dd-9908-20b4ec93f86f"},"vehicle_type_id":"4","last_reported":1765909105,"current_range_meters":2800,"station_id":"ce4bho92rcd13ifvqh4g","pricing_plan_id":"cebpf4jnsgd1na2vs0mg"},{"bike_id":"c6d6c2e9-e126-464e-ab61-c690a6c96db0","system_id":"levelo_inurba_marseille","lat":43.29511,"lon":5.39401,"is_reserved":false,"is_disabled":false,"rental_uris":{"android":"levelo://app?vid=c6d6c2e9-e126-464e-ab61-c690a6c96db0","ios":"levelo://app?vid=c6d6c2e9-e126-464e-ab61-c690a6c96db0"},"vehicle_type_id":"4","last_reported":1765909105,"current_range_meters":2800,"station_id":"ce4bh292rcd13ifvqdf0","pricing_plan_id":"cebpf4jnsgd1na2vs0mg"},{"bike_id":"1e46addc-3bde-4935-83ae-3f88ce66b7ed","system_id":"levelo_inurba_marseille","lat":43.284857,"lon":5.385685,"is_reserved":false,"is_disabled":false,"rental_uris":{"android":"levelo://app?vid=1e46addc-3bde-4935-83ae-3f88ce66b7ed","ios":"levelo://app?vid=1e46addc-3bde-4935-83ae-3f88ce66b7ed"},"vehicle_type_id":"4","last_reported":1765909105,"current_range_meters":2800,"station_id":"ce4bh8p2rcd13ifvqeb0","pricing_plan_id":"cebpf4jnsgd1na2vs0mg"},{"bike_id":"96099bf2-0f38-4dda-a86d-701ea27a4a60","system_id":"levelo_inurba_marseille","lat":43.28866,"lon":5.42507,"is_reserved":false,"is_disabled":false,"rental_uris":{"android":"levelo://app?vid=96099bf2-0f38-4dda-a86d-701ea27a4a60","ios":"levelo://app?vid=96099bf2-0f38-4dda-a86d-701ea27a4a60"},"vehicle_type_id":"4","last_reported":1765909105,"current_range_meters":3200,"station_id":"st_d3b462108ojc7389ooeg","pricing_plan_id":"cebpf4jnsgd1na2vs0mg"},{"bike_id":"87c51353-fe61-4491-aa98-9c8dd6f639a6","system_id":"levelo_inurba_marseille","lat":43.28003,"lon":5.40008,"is_reserved":false,"is_disabled":false,"rental_uris":{"android":"levelo://app?vid=87c51353-fe61-4491-aa98-9c8dd6f639a6","ios":"levelo://app?vid=87c51353-fe61-4491-aa98-9c8dd6f639a6"},"vehicle_type_id":"4","last_reported":1765909105,"current_range_meters":3600,"station_id":"ce4bho92rcd13ifvqh4g","pricing_plan_id":"cebpf4jnsgd1na2vs0mg"},{"bike_id":"5be8edb7-ce66-4e64-b700-28b1f75ed3a8","system_id":"levelo_inurba_marseille","lat":43.28147,"lon":5.42645,"is_reserved":false,"is_disabled":false,"rental_uris":{"android":"levelo://app?vid=5be8edb7-ce66-4e64-b700-28b1f75ed3a8","ios":"levelo://app?vid=5be8edb7-ce66-4e64-b700-28b1f75ed3a8"},"vehicle_type_id":"4","last_reported":1765909105,"current_range_meters":3600,"station_id":"ce4bhnh2rcd13ifvqgug","pricing_plan_id":"cebpf4jnsgd1na2vs0mg"},{"bike_id":"b0fe5393-fed7-4131-b477-a0f577b37311","system_id":"levelo_inurba_marseille","lat":43.2792,"lon":5.395749,"is_reserved":false,"is_disabled":false,"rental_uris":{"android":"levelo://app?vid=b0fe5393-fed7-4131-b477-a0f577b37311","ios":"levelo://app?vid=b0fe5393-fed7-4131-b477-a0f577b37311"},"vehicle_type_id":"4","last_reported":1765909105,"current_range_meters":3600,"station_id":"ce4bhf92rcd13ifvqf40","pricing_plan_id":"cebpf4jnsgd1na2vs0mg"},{"bike_id":"c1e4c341-206a-4b7d-9c7f-49edf9a4b2b2","system_id":"levelo_inurba_marseille","lat":43.24072,"lon":5.37757,"is_reserved":false,"is_disabled":false,"rental_uris":{"android":"levelo://app?vid=c1e4c341-206a-4b7d-9c7f-49edf9a4b2b2","ios":"levelo://app?vid=c1e4c341-206a-4b7d-9c7f-49edf9a4b2b2"},"vehicle_type_id":"4","last_reported":1765909105,"current_range_meters":3600,"station_id":"ce4bhnp2rcd13ifvqgvg","pricing_plan_id":"cebpf4jnsgd1na2vs0mg"},{"bike_id":"b1b04939-1607-47ed-a901-be83327068f2","system_id":"levelo_inurba_marseille","lat":43.29911,"lon":5.3816,"is_reserved":false,"is_disabled":false,"rental_uris":{"android":"levelo://app?vid=b1b04939-1607-47ed-a901-be83327068f2","ios":"levelo://app?vid=b1b04939-1607-47ed-a901-be83327068f2"},"vehicle_type_id":"4","last_reported":1765909105,"current_range_meters":4000,"station_id":"ce4bgj12rcd13ifvqbc0","pricing_plan_id":"cebpf4jnsgd1na2vs0mg"},{"bike_id":"5d4f57d1-1ab0-4bba-8c84-cc44d81b4374","system_id":"levelo_inurba_marseille","lat":43.30585,"lon":5.39354,"is_reserved":false,"is_disabled":false,"rental_uris":{"android":"levelo://app?vid=5d4f57d1-1ab0-4bba-8c84-cc44d81b4374","ios":"levelo://app?vid=5d4f57d1-1ab0-4bba-8c84-cc44d81b4374"},"vehicle_type_id":"4","last_reported":1765909105,"current_range_meters":4000,"station_id":"ce4bh0p2rcd13ifvqd80","pricing_plan_id":"cebpf4jnsgd1na2vs0mg"},{"bike_id":"3f788718-7af0-454c-9f27-17b2fc8ab407","system_id":"levelo_inurba_marseille","lat":43.27945,"lon":5.4105,"is_reserved":false,"is_disabled":false,"rental_uris":{"android":"levelo://app?vid=3f788718-7af0-454c-9f27-17b2fc8ab407","ios":"levelo://app?vid=3f788718-7af0-454c-9f27-17b2fc8ab407"},"vehicle_type_id":"4","last_reported":1765909105,"current_range_meters":4000,"station_id":"ce4bhnp2rcd13ifvqh0g","pricing_plan_id":"cebpf4jnsgd1na2vs0mg"},{"bike_id":"4025806b-ff57-4313-b5bf-a0762bc35e1e","system_id":"levelo_inurba_marseille","lat":43.25108,"lon":5.40322,"is_reserved":false,"is_disabled":false,"rental_uris":{"android":"levelo://app?vid=4025806b-ff57-4313-b5bf-a0762bc35e1e","ios":"levelo://app?vid=4025806b-ff57-4313-b5bf-a0762bc35e1e"},"vehicle_type_id":"4","last_reported":1765909105,"current_range_meters":4000,"station_id":"ce4bhlh2rcd13ifvqgig","pricing_plan_id":"cebpf4jnsgd1na2vs0mg"},{"bike_id":"8f4aa255-230a-462a-98df-29687b471e81","system_id":"levelo_inurba_marseille","lat":43.30885,"lon":5.39647,"is_reserved":false,"is_disabled":false,"rental_uris":{"android":"levelo://app?vid=8f4aa255-230a-462a-98df-29687b471e81","ios":"levelo://app?vid=8f4aa255-230a-462a-98df-29687b471e81"},"vehicle_type_id":"4","last_reported":1765909105,"current_range_meters":4000,"station_id":"ce4bh012rcd13ifvqcv0","pricing_plan_id":"cebpf4jnsgd1na2vs0mg"},{"bike_id":"5e502f53-1c44-4307-9194-df9e117c5cb9","system_id":"levelo_inurba_marseille","lat":43.29266,"lon":5.37646,"is_reserved":false,"is_disabled":false,"rental_uris":{"android":"levelo://app?vid=5e502f53-1c44-4307-9194-df9e117c5cb9","ios":"levelo://app?vid=5e502f53-1c44-4307-9194-df9e117c5cb9"},"vehicle_type_id":"4","last_reported":1765909105,"current_range_meters":4400,"station_id":"ce4bgi12rcd13ifvqb80","pricing_plan_id":"cebpf4jnsgd1na2vs0mg"},{"bike_id":"8809623b-bcab-46c3-8a73-160886551c22","system_id":"levelo_inurba_marseille","lat":43.23187,"lon":5.40005,"is_reserved":false,"is_disabled":false,"rental_uris":{"android":"levelo://app?vid=8809623b-bcab-46c3-8a73-160886551c22","ios":"levelo://app?vid=8809623b-bcab-46c3-8a73-160886551c22"},"vehicle_type_id":"4","last_reported":1765909105,"current_range_meters":4400,"station_id":"ce4bhn12rcd13ifvqgqg","pricing_plan_id":"cebpf4jnsgd1na2vs0mg"},{"bike_id":"66e10194-8e2d-4634-89ad-d66d649b5e60","system_id":"levelo_inurba_marseille","lat":43.28481,"lon":5.48394,"is_reserved":false,"is_disabled":false,"rental_uris":{"android":"levelo://app?vid=66e10194-8e2d-4634-89ad-d66d649b5e60","ios":"levelo://app?vid=66e10194-8e2d-4634-89ad-d66d649b5e60"},"vehicle_type_id":"4","last_reported":1765909105,"current_range_meters":4400,"station_id":"","pricing_plan_id":"cebpf4jnsgd1na2vs0mg"},{"bike_id":"202ba6b0-d76c-4961-b603-a317398d0a20","system_id":"levelo_inurba_marseille","lat":43.30332,"lon":5.40443,"is_reserved":false,"is_disabled":false,"rental_uris":{"android":"levelo://app?vid=202ba6b0-d76c-4961-b603-a317398d0a20","ios":"levelo://app?vid=202ba6b0-d76c-4961-b603-a317398d0a20"},"vehicle_type_id":"4","last_reported":1765909105,"current_range_meters":4400,"station_id":"ce4bh012rcd13ifvqd10","pricing_plan_id":"cebpf4jnsgd1na2vs0mg"},{"bike_id":"af60ad45-1773-4b17-8cbf-b5714f9a120e","system_id":"levelo_inurba_marseille","lat":43.337666,"lon":5.374436,"is_reserved":false,"is_disabled":false,"rental_uris":{"android":"levelo://app?vid=af60ad45-1773-4b17-8cbf-b5714f9a120e","ios":"levelo://app?vid=af60ad45-1773-4b17-8cbf-b5714f9a120e"},"vehicle_type_id":"4","last_reported":1765909105,"current_range_meters":4800,"station_id":"","pricing_plan_id":"cebpf4jnsgd1na2vs0mg"},{"bike_id":"6fe3060f-17ee-4243-91a2-653d74d75a11","system_id":"levelo_inurba_marseille","lat":43.22538,"lon":5.34827,"is_reserved":false,"is_disabled":false,"rental_uris":{"android":"levelo://app?vid=6fe3060f-17ee-4243-91a2-653d74d75a11","ios":"levelo://app?vid=6fe3060f-17ee-4243-91a2-653d74d75a11"},"vehicle_type_id":"4","last_reported":1765909105,"current_range_meters":4800,"station_id":"","pricing_plan_id":"cebpf4jnsgd1na2vs0mg"},{"bike_id":"73705fe2-57de-46d4-8314-8a0c0f63c93b","system_id":"levelo_inurba_marseille","lat":43.30643,"lon":5.4009,"is_reserved":false,"is_disabled":false,"rental_uris":{"android":"levelo://app?vid=73705fe2-57de-46d4-8314-8a0c0f63c93b","ios":"levelo://app?vid=73705fe2-57de-46d4-8314-8a0c0f63c93b"},"vehicle_type_id":"4","last_reported":1765909105,"current_range_meters":4800,"station_id":"ce4bh112rcd13ifvqda0","pricing_plan_id":"cebpf4jnsgd1na2vs0mg"},{"bike_id":"1ced2e59-4a4f-4301-803e-4de903aa3c48","system_id":"levelo_inurba_marseille","lat":43.29884,"lon":5.38909,"is_reserved":false,"is_disabled":false,"rental_uris":{"android":"levelo://app?vid=1ced2e59-4a4f-4301-803e-4de903aa3c48","ios":"levelo://app?vid=1ced2e59-4a4f-4301-803e-4de903aa3c48"},"vehicle_type_id":"4","last_reported":1765909105,"current_range_meters":4800,"station_id":"ce4bh392rcd13ifvqdl0","pricing_plan_id":"cebpf4jnsgd1na2vs0mg"},{"bike_id":"9f472b6e-f953-48b7-ae08-4bd5484ae578","system_id":"levelo_inurba_marseille","lat":43.2808,"lon":5.39661,"is_reserved":false,"is_disabled":false,"rental_uris":{"android":"levelo://app?vid=9f472b6e-f953-48b7-ae08-4bd5484ae578","ios":"levelo://app?vid=9f472b6e-f953-48b7-ae08-4bd5484ae578"},"vehicle_type_id":"4","last_reported":1765909105,"current_range_meters":4800,"station_id":"ce4bho12rcd13ifvqh2g","pricing_plan_id":"cebpf4jnsgd1na2vs0mg"},{"bike_id":"cf3bb971-c2fa-438e-887d-d44ccf51aa60","system_id":"levelo_inurba_marseille","lat":43.30135,"lon":5.39869,"is_reserved":false,"is_disabled":false,"rental_uris":{"android":"levelo://app?vid=cf3bb971-c2fa-438e-887d-d44ccf51aa60","ios":"levelo://app?vid=cf3bb971-c2fa-438e-887d-d44ccf51aa60"},"vehicle_type_id":"4","last_reported":1765909105,"current_range_meters":5600,"station_id":"ce4bh0h2rcd13ifvqd40","pricing_plan_id":"cebpf4jnsgd1na2vs0mg"},{"bike_id":"c4e70b3f-1fa1-4957-9986-8d50ae0235b8","system_id":"levelo_inurba_marseille","lat":43.30892,"lon":5.36846,"is_reserved":false,"is_disabled":false,"rental_uris":{"android":"levelo://app?vid=c4e70b3f-1fa1-4957-9986-8d50ae0235b8","ios":"levelo://app?vid=c4e70b3f-1fa1-4957-9986-8d50ae0235b8"},"vehicle_type_id":"4","last_reported":1765909105,"current_range_meters":5600,"station_id":"ce4bgn92rcd13ifvqbvg","pricing_plan_id":"cebpf4jnsgd1na2vs0mg"},{"bike_id":"b45d2bbe-5126-48a9-aba8-e2d84650bde7","system_id":"levelo_inurba_marseille","lat":43.28426,"lon":5.35,"is_reserved":false,"is_disabled":false,"rental_uris":{"android":"levelo://app?vid=b45d2bbe-5126-48a9-aba8-e2d84650bde7","ios":"levelo://app?vid=b45d2bbe-5126-48a9-aba8-e2d84650bde7"},"vehicle_type_id":"4","last_reported":1765909105,"current_range_meters":5600,"station_id":"ce4bhbh2rcd13ifvqepg","pricing_plan_id":"cebpf4jnsgd1na2vs0mg"},{"bike_id":"5cfcac19-e885-4209-96ab-a70a0192b25a","system_id":"levelo_inurba_marseille","lat":43.33768,"lon":5.37427,"is_reserved":false,"is_disabled":false,"rental_uris":{"android":"levelo://app?vid=5cfcac19-e885-4209-96ab-a70a0192b25a","ios":"levelo://app?vid=5cfcac19-e885-4209-96ab-a70a0192b25a"},"vehicle_type_id":"4","last_reported":1765909105,"current_range_meters":5600,"station_id":"","pricing_plan_id":"cebpf4jnsgd1na2vs0mg"},{"bike_id":"aac3a556-eab0-4156-bc9c-29564664e6f5","system_id":"levelo_inurba_marseille","lat":43.337725,"lon":5.374316,"is_reserved":false,"is_disabled":false,"rental_uris":{"android":"levelo://app?vid=aac3a556-eab0-4156-bc9c-29564664e6f5","ios":"levelo://app?vid=aac3a556-eab0-4156-bc9c-29564664e6f5"},"vehicle_type_id":"4","last_reported":1765909105,"current_range_meters":5600,"station_id":"","pricing_plan_id":"cebpf4jnsgd1na2vs0mg"},{"bike_id":"efce7a18-d3ef-40c5-b51e-6c4791299396","system_id":"levelo_inurba_marseille","lat":43.29024,"lon":5.38635,"is_reserved":false,"is_disabled":false,"rental_uris":{"android":"levelo://app?vid=efce7a18-d3ef-40c5-b51e-6c4791299396","ios":"levelo://app?vid=efce7a18-d3ef-40c5-b51e-6c4791299396"},"vehicle_type_id":"4","last_reported":1765909105,"current_range_meters":5600,"station_id":"ce4bh4p2rcd13ifvqe0g","pricing_plan_id":"cebpf4jnsgd1na2vs0mg"},{"bike_id":"0300703c-eb70-486d-8dcb-3ab8dd70d6cc","system_id":"levelo_inurba_marseille","lat":43.28536,"lon":5.44104,"is_reserved":false,"is_disabled":false,"rental_uris":{"android":"levelo://app?vid=0300703c-eb70-486d-8dcb-3ab8dd70d6cc","ios":"levelo://app?vid=0300703c-eb70-486d-8dcb-3ab8dd70d6cc"},"vehicle_type_id":"4","last_reported":1765909105,"current_range_meters":6000,"station_id":"st_d3j3df2ikq2c7380ej80","pricing_plan_id":"cebpf4jnsgd1na2vs0mg"},{"bike_id":"2f5df95d-781b-40f2-bc9a-0cfb59337d69","system_id":"levelo_inurba_marseille","lat":43.29791,"lon":5.38072,"is_reserved":false,"is_disabled":false,"rental_uris":{"android":"levelo://app?vid=2f5df95d-781b-40f2-bc9a-0cfb59337d69","ios":"levelo://app?vid=2f5df95d-781b-40f2-bc9a-0cfb59337d69"},"vehicle_type_id":"4","last_reported":1765909105,"current_range_meters":6000,"station_id":"ce4bgip2rcd13ifvqbb0","pricing_plan_id":"cebpf4jnsgd1na2vs0mg"},{"bike_id":"b5d63cab-7292-4c85-8075-cef67fadeb9d","system_id":"levelo_inurba_marseille","lat":43.28483,"lon":5.48386,"is_reserved":false,"is_disabled":false,"rental_uris":{"android":"levelo://app?vid=b5d63cab-7292-4c85-8075-cef67fadeb9d","ios":"levelo://app?vid=b5d63cab-7292-4c85-8075-cef67fadeb9d"},"vehicle_type_id":"4","last_reported":1765909105,"current_range_meters":6000,"station_id":"st_d3svhcjqgbts73a3dn0g","pricing_plan_id":"cebpf4jnsgd1na2vs0mg"},{"bike_id":"b619e79e-7985-4a28-9d70-8757c91c23fc","system_id":"levelo_inurba_marseille","lat":43.29812,"lon":5.44074,"is_reserved":false,"is_disabled":false,"rental_uris":{"android":"levelo://app?vid=b619e79e-7985-4a28-9d70-8757c91c23fc","ios":"levelo://app?vid=b619e79e-7985-4a28-9d70-8757c91c23fc"},"vehicle_type_id":"4","last_reported":1765909105,"current_range_meters":6000,"station_id":"st_d3jp68qikq2c7381ktn0","pricing_plan_id":"cebpf4jnsgd1na2vs0mg"},{"bike_id":"3d377d63-bcdc-4502-bce1-42dd8224a61e","system_id":"levelo_inurba_marseille","lat":43.27988,"lon":5.40015,"is_reserved":false,"is_disabled":false,"rental_uris":{"android":"levelo://app?vid=3d377d63-bcdc-4502-bce1-42dd8224a61e","ios":"levelo://app?vid=3d377d63-bcdc-4502-bce1-42dd8224a61e"},"vehicle_type_id":"4","last_reported":1765909105,"current_range_meters":6000,"station_id":"ce4bho92rcd13ifvqh4g","pricing_plan_id":"cebpf4jnsgd1na2vs0mg"},{"bike_id":"0224f08a-bd8a-4dcc-9ae0-e6df47d6d7f2","system_id":"levelo_inurba_marseille","lat":43.337444,"lon":5.374475,"is_reserved":false,"is_disabled":false,"rental_uris":{"android":"levelo://app?vid=0224f08a-bd8a-4dcc-9ae0-e6df47d6d7f2","ios":"levelo://app?vid=0224f08a-bd8a-4dcc-9ae0-e6df47d6d7f2"},"vehicle_type_id":"4","last_reported":1765909105,"current_range_meters":6000,"station_id":"","pricing_plan_id":"cebpf4jnsgd1na2vs0mg"},{"bike_id":"d3c83fe0-d981-40bd-809a-723ce3ba3f18","system_id":"levelo_inurba_marseille","lat":43.31564,"lon":5.3667,"is_reserved":false,"is_disabled":false,"rental_uris":{"android":"levelo://app?vid=d3c83fe0-d981-40bd-809a-723ce3ba3f18","ios":"levelo://app?vid=d3c83fe0-d981-40bd-809a-723ce3ba3f18"},"vehicle_type_id":"4","last_reported":1765909105,"current_range_meters":6400,"station_id":"","pricing_plan_id":"cebpf4jnsgd1na2vs0mg"},{"bike_id":"0a51a6be-f24c-4e38-a13b-74296fd5abfb","system_id":"levelo_inurba_marseille","lat":43.30136,"lon":5.39866,"is_reserved":false,"is_disabled":false,"rental_uris":{"android":"levelo://app?vid=0a51a6be-f24c-4e38-a13b-74296fd5abfb","ios":"levelo://app?vid=0a51a6be-f24c-4e38-a13b-74296fd5abfb"},"vehicle_type_id":"4","last_reported":1765909105,"current_range_meters":6400,"station_id":"ce4bh0h2rcd13ifvqd40","pricing_plan_id":"cebpf4jnsgd1na2vs0mg"},{"bike_id":"b91d5184-aaf2-4817-b8e5-5fba4eee4965","system_id":"levelo_inurba_marseille","lat":43.29052,"lon":5.35924,"is_reserved":false,"is_disabled":false,"rental_uris":{"android":"levelo://app?vid=b91d5184-aaf2-4817-b8e5-5fba4eee4965","ios":"levelo://app?vid=b91d5184-aaf2-4817-b8e5-5fba4eee4965"},"vehicle_type_id":"4","last_reported":1765909105,"current_range_meters":6400,"station_id":"ce4bha92rcd13ifvqeg0","pricing_plan_id":"cebpf4jnsgd1na2vs0mg"},{"bike_id":"c23232f6-1c0f-40d3-a841-fd957e036129","system_id":"levelo_inurba_marseille","lat":43.2792,"lon":5.39578,"is_reserved":false,"is_disabled":false,"rental_uris":{"android":"levelo://app?vid=c23232f6-1c0f-40d3-a841-fd957e036129","ios":"levelo://app?vid=c23232f6-1c0f-40d3-a841-fd957e036129"},"vehicle_type_id":"4","last_reported":1765909105,"current_range_meters":6400,"station_id":"ce4bhf92rcd13ifvqf40","pricing_plan_id":"cebpf4jnsgd1na2vs0mg"},{"bike_id":"0cdf34a3-78d9-4339-ba60-fd4b0fc2fd4f","system_id":"levelo_inurba_marseille","lat":43.286375,"lon":5.386177,"is_reserved":false,"is_disabled":false,"rental_uris":{"android":"levelo://app?vid=0cdf34a3-78d9-4339-ba60-fd4b0fc2fd4f","ios":"levelo://app?vid=0cdf34a3-78d9-4339-ba60-fd4b0fc2fd4f"},"vehicle_type_id":"4","last_reported":1765909105,"current_range_meters":6400,"station_id":"ce4bh492rcd13ifvqdug","pricing_plan_id":"cebpf4jnsgd1na2vs0mg"},{"bike_id":"fd9ad82f-20c6-45b1-88b2-610323446587","system_id":"levelo_inurba_marseille","lat":43.31688,"lon":5.40477,"is_reserved":false,"is_disabled":false,"rental_uris":{"android":"levelo://app?vid=fd9ad82f-20c6-45b1-88b2-610323446587","ios":"levelo://app?vid=fd9ad82f-20c6-45b1-88b2-610323446587"},"vehicle_type_id":"4","last_reported":1765909105,"current_range_meters":6400,"station_id":"ce4bh012rcd13ifvqd00","pricing_plan_id":"cebpf4jnsgd1na2vs0mg"},{"bike_id":"c4cecf30-2b68-4865-9c9d-e3af559ac0c3","system_id":"levelo_inurba_marseille","lat":43.279431,"lon":5.399575,"is_reserved":false,"is_disabled":false,"rental_uris":{"android":"levelo://app?vid=c4cecf30-2b68-4865-9c9d-e3af559ac0c3","ios":"levelo://app?vid=c4cecf30-2b68-4865-9c9d-e3af559ac0c3"},"vehicle_type_id":"4","last_reported":1765909105,"current_range_meters":6400,"station_id":"","pricing_plan_id":"cebpf4jnsgd1na2vs0mg"},{"bike_id":"7497a7c7-81f4-4185-b24b-6e5caa682128","system_id":"levelo_inurba_marseille","lat":43.28534,"lon":5.44089,"is_reserved":false,"is_disabled":false,"rental_uris":{"android":"levelo://app?vid=7497a7c7-81f4-4185-b24b-6e5caa682128","ios":"levelo://app?vid=7497a7c7-81f4-4185-b24b-6e5caa682128"},"vehicle_type_id":"4","last_reported":1765909105,"current_range_meters":6400,"station_id":"st_d3j3df2ikq2c7380ej80","pricing_plan_id":"cebpf4jnsgd1na2vs0mg"},{"bike_id":"1639e417-95ad-4785-83fe-d7ec8d575f0e","system_id":"levelo_inurba_marseille","lat":43.269379,"lon":5.402171,"is_reserved":false,"is_disabled":false,"rental_uris":{"android":"levelo://app?vid=1639e417-95ad-4785-83fe-d7ec8d575f0e","ios":"levelo://app?vid=1639e417-95ad-4785-83fe-d7ec8d575f0e"},"vehicle_type_id":"4","last_reported":1765909105,"current_range_meters":6400,"station_id":"ce4bhk92rcd13ifvqgc0","pricing_plan_id":"cebpf4jnsgd1na2vs0mg"},{"bike_id":"985e8cc7-6ff0-466b-98bf-adf9784f48fc","system_id":"levelo_inurba_marseille","lat":43.27564,"lon":5.38411,"is_reserved":false,"is_disabled":false,"rental_uris":{"android":"levelo://app?vid=985e8cc7-6ff0-466b-98bf-adf9784f48fc","ios":"levelo://app?vid=985e8cc7-6ff0-466b-98bf-adf9784f48fc"},"vehicle_type_id":"4","last_reported":1765909105,"current_range_meters":6400,"station_id":"ce4bhh92rcd13ifvqfi0","pricing_plan_id":"cebpf4jnsgd1na2vs0mg"},{"bike_id":"e468e3ba-5e63-4bce-828d-5be229207cce","system_id":"levelo_inurba_marseille","lat":43.28681,"lon":5.38669,"is_reserved":false,"is_disabled":false,"rental_uris":{"android":"levelo://app?vid=e468e3ba-5e63-4bce-828d-5be229207cce","ios":"levelo://app?vid=e468e3ba-5e63-4bce-828d-5be229207cce"},"vehicle_type_id":"4","last_reported":1765909105,"current_range_meters":6800,"station_id":"ce4bh492rcd13ifvqdug","pricing_plan_id":"cebpf4jnsgd1na2vs0mg"},{"bike_id":"8b4ec205-81bb-4fe4-a25a-8d4a5ee131ee","system_id":"levelo_inurba_marseille","lat":43.2481,"lon":5.374611,"is_reserved":false,"is_disabled":false,"rental_uris":{"android":"levelo://app?vid=8b4ec205-81bb-4fe4-a25a-8d4a5ee131ee","ios":"levelo://app?vid=8b4ec205-81bb-4fe4-a25a-8d4a5ee131ee"},"vehicle_type_id":"4","last_reported":1765909105,"current_range_meters":6800,"station_id":"ce4bh0p2rcd13ifvqd70","pricing_plan_id":"cebpf4jnsgd1na2vs0mg"},{"bike_id":"836131b6-edfe-4a45-ac69-5d7cfa37e065","system_id":"levelo_inurba_marseille","lat":43.29726,"lon":5.37698,"is_reserved":false,"is_disabled":false,"rental_uris":{"android":"levelo://app?vid=836131b6-edfe-4a45-ac69-5d7cfa37e065","ios":"levelo://app?vid=836131b6-edfe-4a45-ac69-5d7cfa37e065"},"vehicle_type_id":"4","last_reported":1765909105,"current_range_meters":6800,"station_id":"ce4bgkh2rcd13ifvqbl0","pricing_plan_id":"cebpf4jnsgd1na2vs0mg"},{"bike_id":"ab236c58-b68c-43c0-97d3-825ec6bc318d","system_id":"levelo_inurba_marseille","lat":43.29435,"lon":5.39766,"is_reserved":false,"is_disabled":false,"rental_uris":{"android":"levelo://app?vid=ab236c58-b68c-43c0-97d3-825ec6bc318d","ios":"levelo://app?vid=ab236c58-b68c-43c0-97d3-825ec6bc318d"},"vehicle_type_id":"4","last_reported":1765909105,"current_range_meters":6800,"station_id":"ce4bh3h2rcd13ifvqdo0","pricing_plan_id":"cebpf4jnsgd1na2vs0mg"},{"bike_id":"5e7e082d-c949-4efd-b442-be6d0cf3943e","system_id":"levelo_inurba_marseille","lat":43.24522,"lon":5.40005,"is_reserved":false,"is_disabled":false,"rental_uris":{"android":"levelo://app?vid=5e7e082d-c949-4efd-b442-be6d0cf3943e","ios":"levelo://app?vid=5e7e082d-c949-4efd-b442-be6d0cf3943e"},"vehicle_type_id":"4","last_reported":1765909105,"current_range_meters":6800,"station_id":"","pricing_plan_id":"cebpf4jnsgd1na2vs0mg"},{"bike_id":"9916aee8-38ee-4718-8ab5-188be146fb87","system_id":"levelo_inurba_marseille","lat":43.30125,"lon":5.36511,"is_reserved":false,"is_disabled":false,"rental_uris":{"android":"levelo://app?vid=9916aee8-38ee-4718-8ab5-188be146fb87","ios":"levelo://app?vid=9916aee8-38ee-4718-8ab5-188be146fb87"},"vehicle_type_id":"4","last_reported":1765909105,"current_range_meters":6800,"station_id":"","pricing_plan_id":"cebpf4jnsgd1na2vs0mg"},{"bike_id":"7c36070f-bddc-40ed-a333-875a2d58c60c","system_id":"levelo_inurba_marseille","lat":43.26516,"lon":5.39405,"is_reserved":false,"is_disabled":false,"rental_uris":{"android":"levelo://app?vid=7c36070f-bddc-40ed-a333-875a2d58c60c","ios":"levelo://app?vid=7c36070f-bddc-40ed-a333-875a2d58c60c"},"vehicle_type_id":"4","last_reported":1765909105,"current_range_meters":6800,"station_id":"","pricing_plan_id":"cebpf4jnsgd1na2vs0mg"},{"bike_id":"2341334d-49b3-4919-9ea6-c009d3aac2e8","system_id":"levelo_inurba_marseille","lat":43.29051,"lon":5.35912,"is_reserved":false,"is_disabled":false,"rental_uris":{"android":"levelo://app?vid=2341334d-49b3-4919-9ea6-c009d3aac2e8","ios":"levelo://app?vid=2341334d-49b3-4919-9ea6-c009d3aac2e8"},"vehicle_type_id":"4","last_reported":1765909105,"current_range_meters":6800,"station_id":"ce4bha92rcd13ifvqeg0","pricing_plan_id":"cebpf4jnsgd1na2vs0mg"},{"bike_id":"a613a717-96a3-4acb-9729-59a3a8cc0b12","system_id":"levelo_inurba_marseille","lat":43.286635,"lon":5.363424,"is_reserved":false,"is_disabled":false,"rental_uris":{"android":"levelo://app?vid=a613a717-96a3-4acb-9729-59a3a8cc0b12","ios":"levelo://app?vid=a613a717-96a3-4acb-9729-59a3a8cc0b12"},"vehicle_type_id":"4","last_reported":1765909105,"current_range_meters":6800,"station_id":"ce4bhah2rcd13ifvqej0","pricing_plan_id":"cebpf4jnsgd1na2vs0mg"},{"bike_id":"0e49c737-64fa-42df-b477-b17639740d5d","system_id":"levelo_inurba_marseille","lat":43.21194,"lon":5.35081,"is_reserved":false,"is_disabled":false,"rental_uris":{"android":"levelo://app?vid=0e49c737-64fa-42df-b477-b17639740d5d","ios":"levelo://app?vid=0e49c737-64fa-42df-b477-b17639740d5d"},"vehicle_type_id":"4","last_reported":1765909105,"current_range_meters":6800,"station_id":"","pricing_plan_id":"cebpf4jnsgd1na2vs0mg"},{"bike_id":"248671e6-031b-4599-8c0d-5036b3d94950","system_id":"levelo_inurba_marseille","lat":43.30598,"lon":5.39362,"is_reserved":false,"is_disabled":false,"rental_uris":{"android":"levelo://app?vid=248671e6-031b-4599-8c0d-5036b3d94950","ios":"levelo://app?vid=248671e6-031b-4599-8c0d-5036b3d94950"},"vehicle_type_id":"4","last_reported":1765909105,"current_range_meters":7200,"station_id":"ce4bh0p2rcd13ifvqd80","pricing_plan_id":"cebpf4jnsgd1na2vs0mg"},{"bike_id":"48a6e230-e450-44fa-a3dc-bcee340cd370","system_id":"levelo_inurba_marseille","lat":43.28151,"lon":5.42648,"is_reserved":false,"is_disabled":false,"rental_uris":{"android":"levelo://app?vid=48a6e230-e450-44fa-a3dc-bcee340cd370","ios":"levelo://app?vid=48a6e230-e450-44fa-a3dc-bcee340cd370"},"vehicle_type_id":"4","last_reported":1765909105,"current_range_meters":7200,"station_id":"ce4bhnh2rcd13ifvqgug","pricing_plan_id":"cebpf4jnsgd1na2vs0mg"},{"bike_id":"95567a31-05f1-4ddf-a8ae-7a2ff296f99c","system_id":"levelo_inurba_marseille","lat":43.28532,"lon":5.39982,"is_reserved":false,"is_disabled":false,"rental_uris":{"android":"levelo://app?vid=95567a31-05f1-4ddf-a8ae-7a2ff296f99c","ios":"levelo://app?vid=95567a31-05f1-4ddf-a8ae-7a2ff296f99c"},"vehicle_type_id":"4","last_reported":1765909105,"current_range_meters":7200,"station_id":"","pricing_plan_id":"cebpf4jnsgd1na2vs0mg"},{"bike_id":"a0250cd9-047b-4dcb-96a7-b1959783fdaf","system_id":"levelo_inurba_marseille","lat":43.33739,"lon":5.37424,"is_reserved":false,"is_disabled":false,"rental_uris":{"android":"levelo://app?vid=a0250cd9-047b-4dcb-96a7-b1959783fdaf","ios":"levelo://app?vid=a0250cd9-047b-4dcb-96a7-b1959783fdaf"},"vehicle_type_id":"4","last_reported":1765909105,"current_range_meters":7200,"station_id":"","pricing_plan_id":"cebpf4jnsgd1na2vs0mg"},{"bike_id":"dcf86aea-2e35-4fc9-b06f-cfd052d91d73","system_id":"levelo_inurba_marseille","lat":43.2119,"lon":5.35074,"is_reserved":false,"is_disabled":false,"rental_uris":{"android":"levelo://app?vid=dcf86aea-2e35-4fc9-b06f-cfd052d91d73","ios":"levelo://app?vid=dcf86aea-2e35-4fc9-b06f-cfd052d91d73"},"vehicle_type_id":"4","last_reported":1765909105,"current_range_meters":7200,"station_id":"st_cvj6sg6p6f1abm77japg","pricing_plan_id":"cebpf4jnsgd1na2vs0mg"},{"bike_id":"e080d691-4951-43e9-9ffd-9277319373bb","system_id":"levelo_inurba_marseille","lat":43.316035,"lon":5.379218,"is_reserved":false,"is_disabled":false,"rental_uris":{"android":"levelo://app?vid=e080d691-4951-43e9-9ffd-9277319373bb","ios":"levelo://app?vid=e080d691-4951-43e9-9ffd-9277319373bb"},"vehicle_type_id":"4","last_reported":1765909105,"current_range_meters":7200,"station_id":"","pricing_plan_id":"cebpf4jnsgd1na2vs0mg"},{"bike_id":"79f4b6e0-d75c-4303-950b-7cb95c7c9b6b","system_id":"levelo_inurba_marseille","lat":43.2407,"lon":5.37779,"is_reserved":false,"is_disabled":false,"rental_uris":{"android":"levelo://app?vid=79f4b6e0-d75c-4303-950b-7cb95c7c9b6b","ios":"levelo://app?vid=79f4b6e0-d75c-4303-950b-7cb95c7c9b6b"},"vehicle_type_id":"4","last_reported":1765909105,"current_range_meters":7200,"station_id":"ce4bhnp2rcd13ifvqgvg","pricing_plan_id":"cebpf4jnsgd1na2vs0mg"},{"bike_id":"f9e14766-119a-4cc9-814a-3510e7849c5d","system_id":"levelo_inurba_marseille","lat":43.2848,"lon":5.48391,"is_reserved":false,"is_disabled":false,"rental_uris":{"android":"levelo://app?vid=f9e14766-119a-4cc9-814a-3510e7849c5d","ios":"levelo://app?vid=f9e14766-119a-4cc9-814a-3510e7849c5d"},"vehicle_type_id":"4","last_reported":1765909105,"current_range_meters":7200,"station_id":"st_d3svhcjqgbts73a3dn0g","pricing_plan_id":"cebpf4jnsgd1na2vs0mg"},{"bike_id":"b81a0b7a-02f4-470c-9117-cd21db29d5e9","system_id":"levelo_inurba_marseille","lat":43.29605,"lon":5.37698,"is_reserved":false,"is_disabled":false,"rental_uris":{"android":"levelo://app?vid=b81a0b7a-02f4-470c-9117-cd21db29d5e9","ios":"levelo://app?vid=b81a0b7a-02f4-470c-9117-cd21db29d5e9"},"vehicle_type_id":"4","last_reported":1765909105,"current_range_meters":8000,"station_id":"ce4bgi92rcd13ifvqb90","pricing_plan_id":"cebpf4jnsgd1na2vs0mg"},{"bike_id":"850184bc-d4cf-4521-b35e-4473cd72a028","system_id":"levelo_inurba_marseille","lat":43.29089,"lon":5.38121,"is_reserved":false,"is_disabled":false,"rental_uris":{"android":"levelo://app?vid=850184bc-d4cf-4521-b35e-4473cd72a028","ios":"levelo://app?vid=850184bc-d4cf-4521-b35e-4473cd72a028"},"vehicle_type_id":"4","last_reported":1765909105,"current_range_meters":8000,"station_id":"","pricing_plan_id":"cebpf4jnsgd1na2vs0mg"},{"bike_id":"5f2530f0-6e5a-4c2b-9c60-252bb107e74f","system_id":"levelo_inurba_marseille","lat":43.24071,"lon":5.37764,"is_reserved":false,"is_disabled":false,"rental_uris":{"android":"levelo://app?vid=5f2530f0-6e5a-4c2b-9c60-252bb107e74f","ios":"levelo://app?vid=5f2530f0-6e5a-4c2b-9c60-252bb107e74f"},"vehicle_type_id":"4","last_reported":1765909105,"current_range_meters":8000,"station_id":"ce4bhnp2rcd13ifvqgvg","pricing_plan_id":"cebpf4jnsgd1na2vs0mg"},{"bike_id":"4e6b3c9a-0d64-4429-9baf-20868e591e41","system_id":"levelo_inurba_marseille","lat":43.2861,"lon":5.39874,"is_reserved":false,"is_disabled":false,"rental_uris":{"android":"levelo://app?vid=4e6b3c9a-0d64-4429-9baf-20868e591e41","ios":"levelo://app?vid=4e6b3c9a-0d64-4429-9baf-20868e591e41"},"vehicle_type_id":"4","last_reported":1765909105,"current_range_meters":8000,"station_id":"st_d4a7ka997mjs738ck50g","pricing_plan_id":"cebpf4jnsgd1na2vs0mg"},{"bike_id":"56658a60-b6b5-46a3-b1ca-2b53f0431fbb","system_id":"levelo_inurba_marseille","lat":43.29874,"lon":5.38917,"is_reserved":false,"is_disabled":false,"rental_uris":{"android":"levelo://app?vid=56658a60-b6b5-46a3-b1ca-2b53f0431fbb","ios":"levelo://app?vid=56658a60-b6b5-46a3-b1ca-2b53f0431fbb"},"vehicle_type_id":"4","last_reported":1765909105,"current_range_meters":8000,"station_id":"ce4bh392rcd13ifvqdl0","pricing_plan_id":"cebpf4jnsgd1na2vs0mg"},{"bike_id":"d69dc511-3002-45b3-a3c4-9b586bba4d96","system_id":"levelo_inurba_marseille","lat":43.31364,"lon":5.38489,"is_reserved":false,"is_disabled":false,"rental_uris":{"android":"levelo://app?vid=d69dc511-3002-45b3-a3c4-9b586bba4d96","ios":"levelo://app?vid=d69dc511-3002-45b3-a3c4-9b586bba4d96"},"vehicle_type_id":"4","last_reported":1765909105,"current_range_meters":8000,"station_id":"ce4bgt92rcd13ifvqcf0","pricing_plan_id":"cebpf4jnsgd1na2vs0mg"},{"bike_id":"ae7030ab-2ef4-43fe-969b-2771e6ce928f","system_id":"levelo_inurba_marseille","lat":43.28001,"lon":5.41656,"is_reserved":false,"is_disabled":false,"rental_uris":{"android":"levelo://app?vid=ae7030ab-2ef4-43fe-969b-2771e6ce928f","ios":"levelo://app?vid=ae7030ab-2ef4-43fe-969b-2771e6ce928f"},"vehicle_type_id":"4","last_reported":1765909105,"current_range_meters":8000,"station_id":"ce4bho12rcd13ifvqh1g","pricing_plan_id":"cebpf4jnsgd1na2vs0mg"},{"bike_id":"0f921bc5-5f0b-41fb-a1bb-b2ca0e06b21d","system_id":"levelo_inurba_marseille","lat":43.27092,"lon":5.42292,"is_reserved":false,"is_disabled":false,"rental_uris":{"android":"levelo://app?vid=0f921bc5-5f0b-41fb-a1bb-b2ca0e06b21d","ios":"levelo://app?vid=0f921bc5-5f0b-41fb-a1bb-b2ca0e06b21d"},"vehicle_type_id":"4","last_reported":1765909105,"current_range_meters":8000,"station_id":"ce4bhk92rcd13ifvqgb0","pricing_plan_id":"cebpf4jnsgd1na2vs0mg"},{"bike_id":"d30d5879-b4cf-44c3-b8c7-534e0487ae3a","system_id":"levelo_inurba_marseille","lat":43.26952,"lon":5.38623,"is_reserved":false,"is_disabled":false,"rental_uris":{"android":"levelo://app?vid=d30d5879-b4cf-44c3-b8c7-534e0487ae3a","ios":"levelo://app?vid=d30d5879-b4cf-44c3-b8c7-534e0487ae3a"},"vehicle_type_id":"4","last_reported":1765909105,"current_range_meters":8000,"station_id":"ce4bhh92rcd13ifvqfh0","pricing_plan_id":"cebpf4jnsgd1na2vs0mg"},{"bike_id":"a5221b77-993f-449e-b04b-390933dfac33","system_id":"levelo_inurba_marseille","lat":43.30137,"lon":5.39877,"is_reserved":false,"is_disabled":false,"rental_uris":{"android":"levelo://app?vid=a5221b77-993f-449e-b04b-390933dfac33","ios":"levelo://app?vid=a5221b77-993f-449e-b04b-390933dfac33"},"vehicle_type_id":"4","last_reported":1765909105,"current_range_meters":8000,"station_id":"ce4bh0h2rcd13ifvqd40","pricing_plan_id":"cebpf4jnsgd1na2vs0mg"},{"bike_id":"82e637bb-058b-4bf2-9ea3-310d36ef8181","system_id":"levelo_inurba_marseille","lat":43.28159,"lon":5.42645,"is_reserved":false,"is_disabled":false,"rental_uris":{"android":"levelo://app?vid=82e637bb-058b-4bf2-9ea3-310d36ef8181","ios":"levelo://app?vid=82e637bb-058b-4bf2-9ea3-310d36ef8181"},"vehicle_type_id":"4","last_reported":1765909105,"current_range_meters":8000,"station_id":"ce4bhnh2rcd13ifvqgug","pricing_plan_id":"cebpf4jnsgd1na2vs0mg"},{"bike_id":"f734ab89-986e-4240-94e8-2210102e01ee","system_id":"levelo_inurba_marseille","lat":43.275756,"lon":5.384255,"is_reserved":false,"is_disabled":false,"rental_uris":{"android":"levelo://app?vid=f734ab89-986e-4240-94e8-2210102e01ee","ios":"levelo://app?vid=f734ab89-986e-4240-94e8-2210102e01ee"},"vehicle_type_id":"4","last_reported":1765909105,"current_range_meters":8000,"station_id":"ce4bhh92rcd13ifvqfi0","pricing_plan_id":"cebpf4jnsgd1na2vs0mg"},{"bike_id":"92b728d9-5c29-4b49-bf09-6c57719bdc13","system_id":"levelo_inurba_marseille","lat":43.29784,"lon":5.39343,"is_reserved":false,"is_disabled":false,"rental_uris":{"android":"levelo://app?vid=92b728d9-5c29-4b49-bf09-6c57719bdc13","ios":"levelo://app?vid=92b728d9-5c29-4b49-bf09-6c57719bdc13"},"vehicle_type_id":"4","last_reported":1765909105,"current_range_meters":8000,"station_id":"chh1huq6cuj3fo74tm60","pricing_plan_id":"cebpf4jnsgd1na2vs0mg"},{"bike_id":"a59fef70-c689-483c-8d85-5fd358f8f5fe","system_id":"levelo_inurba_marseille","lat":43.28478,"lon":5.38752,"is_reserved":false,"is_disabled":false,"rental_uris":{"android":"levelo://app?vid=a59fef70-c689-483c-8d85-5fd358f8f5fe","ios":"levelo://app?vid=a59fef70-c689-483c-8d85-5fd358f8f5fe"},"vehicle_type_id":"4","last_reported":1765909105,"current_range_meters":8400,"station_id":"","pricing_plan_id":"cebpf4jnsgd1na2vs0mg"},{"bike_id":"09e813b2-2857-4cc7-85b7-0aafd525ae60","system_id":"levelo_inurba_marseille","lat":43.26546,"lon":5.37288,"is_reserved":false,"is_disabled":false,"rental_uris":{"android":"levelo://app?vid=09e813b2-2857-4cc7-85b7-0aafd525ae60","ios":"levelo://app?vid=09e813b2-2857-4cc7-85b7-0aafd525ae60"},"vehicle_type_id":"4","last_reported":1765909105,"current_range_meters":8400,"station_id":"ce4bhg12rcd13ifvqf70","pricing_plan_id":"cebpf4jnsgd1na2vs0mg"},{"bike_id":"dd5aa473-c8e7-41f8-9e2a-c088c0cf88de","system_id":"levelo_inurba_marseille","lat":43.26218,"lon":5.3744,"is_reserved":false,"is_disabled":false,"rental_uris":{"android":"levelo://app?vid=dd5aa473-c8e7-41f8-9e2a-c088c0cf88de","ios":"levelo://app?vid=dd5aa473-c8e7-41f8-9e2a-c088c0cf88de"},"vehicle_type_id":"4","last_reported":1765909105,"current_range_meters":8400,"station_id":"ce4bhgp2rcd13ifvqfc0","pricing_plan_id":"cebpf4jnsgd1na2vs0mg"},{"bike_id":"ee7f3f2a-526d-4a18-93d7-505b194391fb","system_id":"levelo_inurba_marseille","lat":43.3171,"lon":5.37757,"is_reserved":false,"is_disabled":false,"rental_uris":{"android":"levelo://app?vid=ee7f3f2a-526d-4a18-93d7-505b194391fb","ios":"levelo://app?vid=ee7f3f2a-526d-4a18-93d7-505b194391fb"},"vehicle_type_id":"4","last_reported":1765909105,"current_range_meters":8400,"station_id":"ce4bgth2rcd13ifvqch0","pricing_plan_id":"cebpf4jnsgd1na2vs0mg"},{"bike_id":"c42cd753-dda6-496d-9643-d968e07ff12f","system_id":"levelo_inurba_marseille","lat":43.29882,"lon":5.38898,"is_reserved":false,"is_disabled":false,"rental_uris":{"android":"levelo://app?vid=c42cd753-dda6-496d-9643-d968e07ff12f","ios":"levelo://app?vid=c42cd753-dda6-496d-9643-d968e07ff12f"},"vehicle_type_id":"4","last_reported":1765909105,"current_range_meters":8400,"station_id":"ce4bh392rcd13ifvqdl0","pricing_plan_id":"cebpf4jnsgd1na2vs0mg"},{"bike_id":"3d4f48d1-eba2-4765-96c6-e8c80875ece2","system_id":"levelo_inurba_marseille","lat":43.29052,"lon":5.35923,"is_reserved":false,"is_disabled":false,"rental_uris":{"android":"levelo://app?vid=3d4f48d1-eba2-4765-96c6-e8c80875ece2","ios":"levelo://app?vid=3d4f48d1-eba2-4765-96c6-e8c80875ece2"},"vehicle_type_id":"4","last_reported":1765909105,"current_range_meters":8400,"station_id":"ce4bha92rcd13ifvqeg0","pricing_plan_id":"cebpf4jnsgd1na2vs0mg"},{"bike_id":"9d2fa878-f7ad-43ad-8063-27192b249649","system_id":"levelo_inurba_marseille","lat":43.293031,"lon":5.374651,"is_reserved":false,"is_disabled":false,"rental_uris":{"android":"levelo://app?vid=9d2fa878-f7ad-43ad-8063-27192b249649","ios":"levelo://app?vid=9d2fa878-f7ad-43ad-8063-27192b249649"},"vehicle_type_id":"4","last_reported":1765909105,"current_range_meters":8400,"station_id":"ce4bgi12rcd13ifvqb70","pricing_plan_id":"cebpf4jnsgd1na2vs0mg"},{"bike_id":"7ac0ed58-66a8-4567-a72f-fa2ba056e9cb","system_id":"levelo_inurba_marseille","lat":43.23782,"lon":5.36635,"is_reserved":false,"is_disabled":false,"rental_uris":{"android":"levelo://app?vid=7ac0ed58-66a8-4567-a72f-fa2ba056e9cb","ios":"levelo://app?vid=7ac0ed58-66a8-4567-a72f-fa2ba056e9cb"},"vehicle_type_id":"4","last_reported":1765909105,"current_range_meters":8400,"station_id":"st_d3nk18o9ro0c73en2l3g","pricing_plan_id":"cebpf4jnsgd1na2vs0mg"},{"bike_id":"6a231246-970f-4358-a458-e904d3b12896","system_id":"levelo_inurba_marseille","lat":43.26489,"lon":5.39544,"is_reserved":false,"is_disabled":false,"rental_uris":{"android":"levelo://app?vid=6a231246-970f-4358-a458-e904d3b12896","ios":"levelo://app?vid=6a231246-970f-4358-a458-e904d3b12896"},"vehicle_type_id":"4","last_reported":1765909105,"current_range_meters":8400,"station_id":"ce4bhi12rcd13ifvqfq0","pricing_plan_id":"cebpf4jnsgd1na2vs0mg"},{"bike_id":"ce0bf138-ff78-49b4-af86-2f9a0041a17f","system_id":"levelo_inurba_marseille","lat":43.27919,"lon":5.39571,"is_reserved":false,"is_disabled":false,"rental_uris":{"android":"levelo://app?vid=ce0bf138-ff78-49b4-af86-2f9a0041a17f","ios":"levelo://app?vid=ce0bf138-ff78-49b4-af86-2f9a0041a17f"},"vehicle_type_id":"4","last_reported":1765909105,"current_range_meters":8800,"station_id":"ce4bhf92rcd13ifvqf40","pricing_plan_id":"cebpf4jnsgd1na2vs0mg"},{"bike_id":"ffd6ef76-ca95-40b9-8ab7-0bfff9278517","system_id":"levelo_inurba_marseille","lat":43.27987,"lon":5.41661,"is_reserved":false,"is_disabled":false,"rental_uris":{"android":"levelo://app?vid=ffd6ef76-ca95-40b9-8ab7-0bfff9278517","ios":"levelo://app?vid=ffd6ef76-ca95-40b9-8ab7-0bfff9278517"},"vehicle_type_id":"4","last_reported":1765909105,"current_range_meters":8800,"station_id":"ce4bho12rcd13ifvqh1g","pricing_plan_id":"cebpf4jnsgd1na2vs0mg"},{"bike_id":"7a3e6838-9d3e-4c76-bcee-bdbba33b8ca3","system_id":"levelo_inurba_marseille","lat":43.28474,"lon":5.48398,"is_reserved":false,"is_disabled":false,"rental_uris":{"android":"levelo://app?vid=7a3e6838-9d3e-4c76-bcee-bdbba33b8ca3","ios":"levelo://app?vid=7a3e6838-9d3e-4c76-bcee-bdbba33b8ca3"},"vehicle_type_id":"4","last_reported":1765909105,"current_range_meters":8800,"station_id":"st_d3svhcjqgbts73a3dn0g","pricing_plan_id":"cebpf4jnsgd1na2vs0mg"},{"bike_id":"054ba294-4ff0-474f-acd6-fecc42e5544a","system_id":"levelo_inurba_marseille","lat":43.26941,"lon":5.40268,"is_reserved":false,"is_disabled":false,"rental_uris":{"android":"levelo://app?vid=054ba294-4ff0-474f-acd6-fecc42e5544a","ios":"levelo://app?vid=054ba294-4ff0-474f-acd6-fecc42e5544a"},"vehicle_type_id":"4","last_reported":1765909105,"current_range_meters":8800,"station_id":"cjm6bp8fraef2m0cb0m0","pricing_plan_id":"cebpf4jnsgd1na2vs0mg"},{"bike_id":"7e61bb6e-6cae-4445-be24-adf2051f4018","system_id":"levelo_inurba_marseille","lat":43.29517,"lon":5.39404,"is_reserved":false,"is_disabled":false,"rental_uris":{"android":"levelo://app?vid=7e61bb6e-6cae-4445-be24-adf2051f4018","ios":"levelo://app?vid=7e61bb6e-6cae-4445-be24-adf2051f4018"},"vehicle_type_id":"4","last_reported":1765909105,"current_range_meters":9200,"station_id":"ce4bh292rcd13ifvqdf0","pricing_plan_id":"cebpf4jnsgd1na2vs0mg"},{"bike_id":"187e95dd-1ca0-44dd-bfaf-b9ad8a869387","system_id":"levelo_inurba_marseille","lat":43.31434,"lon":5.37414,"is_reserved":false,"is_disabled":false,"rental_uris":{"android":"levelo://app?vid=187e95dd-1ca0-44dd-bfaf-b9ad8a869387","ios":"levelo://app?vid=187e95dd-1ca0-44dd-bfaf-b9ad8a869387"},"vehicle_type_id":"4","last_reported":1765909105,"current_range_meters":9200,"station_id":"","pricing_plan_id":"cebpf4jnsgd1na2vs0mg"},{"bike_id":"49df69e1-ac36-4e1d-8653-2c0933ce38ba","system_id":"levelo_inurba_marseille","lat":43.25087,"lon":5.3952,"is_reserved":false,"is_disabled":false,"rental_uris":{"android":"levelo://app?vid=49df69e1-ac36-4e1d-8653-2c0933ce38ba","ios":"levelo://app?vid=49df69e1-ac36-4e1d-8653-2c0933ce38ba"},"vehicle_type_id":"4","last_reported":1765909105,"current_range_meters":9200,"station_id":"ce4bhm12rcd13ifvqgkg","pricing_plan_id":"cebpf4jnsgd1na2vs0mg"},{"bike_id":"7c9f6205-4927-41ac-89b2-887cf339f2cf","system_id":"levelo_inurba_marseille","lat":43.29047,"lon":5.35908,"is_reserved":false,"is_disabled":false,"rental_uris":{"android":"levelo://app?vid=7c9f6205-4927-41ac-89b2-887cf339f2cf","ios":"levelo://app?vid=7c9f6205-4927-41ac-89b2-887cf339f2cf"},"vehicle_type_id":"4","last_reported":1765909105,"current_range_meters":9200,"station_id":"ce4bha92rcd13ifvqeg0","pricing_plan_id":"cebpf4jnsgd1na2vs0mg"},{"bike_id":"6ddf1040-2326-416d-bd50-8349437b3ddf","system_id":"levelo_inurba_marseille","lat":43.26823,"lon":5.39479,"is_reserved":false,"is_disabled":false,"rental_uris":{"android":"levelo://app?vid=6ddf1040-2326-416d-bd50-8349437b3ddf","ios":"levelo://app?vid=6ddf1040-2326-416d-bd50-8349437b3ddf"},"vehicle_type_id":"4","last_reported":1765909105,"current_range_meters":9200,"station_id":"","pricing_plan_id":"cebpf4jnsgd1na2vs0mg"},{"bike_id":"de703928-a818-43ad-b2be-d85e3a5f72c8","system_id":"levelo_inurba_marseille","lat":43.284763,"lon":5.484031,"is_reserved":false,"is_disabled":false,"rental_uris":{"android":"levelo://app?vid=de703928-a818-43ad-b2be-d85e3a5f72c8","ios":"levelo://app?vid=de703928-a818-43ad-b2be-d85e3a5f72c8"},"vehicle_type_id":"4","last_reported":1765909105,"current_range_meters":9200,"station_id":"st_d3svhcjqgbts73a3dn0g","pricing_plan_id":"cebpf4jnsgd1na2vs0mg"},{"bike_id":"9f0f320a-9e34-4af8-8f6f-7a4152825910","system_id":"levelo_inurba_marseille","lat":43.30125,"lon":5.43123,"is_reserved":false,"is_disabled":false,"rental_uris":{"android":"levelo://app?vid=9f0f320a-9e34-4af8-8f6f-7a4152825910","ios":"levelo://app?vid=9f0f320a-9e34-4af8-8f6f-7a4152825910"},"vehicle_type_id":"4","last_reported":1765909105,"current_range_meters":9600,"station_id":"st_d3js3co5814s73ftftug","pricing_plan_id":"cebpf4jnsgd1na2vs0mg"},{"bike_id":"cac87912-c676-4b2a-bd7b-433323e0f09c","system_id":"levelo_inurba_marseille","lat":43.28551,"lon":5.4407,"is_reserved":false,"is_disabled":false,"rental_uris":{"android":"levelo://app?vid=cac87912-c676-4b2a-bd7b-433323e0f09c","ios":"levelo://app?vid=cac87912-c676-4b2a-bd7b-433323e0f09c"},"vehicle_type_id":"4","last_reported":1765909105,"current_range_meters":9600,"station_id":"st_d3j3df2ikq2c7380ej80","pricing_plan_id":"cebpf4jnsgd1na2vs0mg"},{"bike_id":"d2824214-3abf-43c6-9175-15082714a100","system_id":"levelo_inurba_marseille","lat":43.299083,"lon":5.3816,"is_reserved":false,"is_disabled":false,"rental_uris":{"android":"levelo://app?vid=d2824214-3abf-43c6-9175-15082714a100","ios":"levelo://app?vid=d2824214-3abf-43c6-9175-15082714a100"},"vehicle_type_id":"4","last_reported":1765909105,"current_range_meters":9600,"station_id":"ce4bgj12rcd13ifvqbc0","pricing_plan_id":"cebpf4jnsgd1na2vs0mg"},{"bike_id":"bdedb51b-c0c7-4e81-8046-2d1b2001a496","system_id":"levelo_inurba_marseille","lat":43.29544,"lon":5.38553,"is_reserved":false,"is_disabled":true,"rental_uris":{"android":"levelo://app?vid=bdedb51b-c0c7-4e81-8046-2d1b2001a496","ios":"levelo://app?vid=bdedb51b-c0c7-4e81-8046-2d1b2001a496"},"vehicle_type_id":"4","last_reported":1765909105,"current_range_meters":9600,"station_id":"ce4bgih2rcd13ifvqba0","pricing_plan_id":"cebpf4jnsgd1na2vs0mg"},{"bike_id":"4f2c2ae9-cceb-4f6c-925d-23d363970b60","system_id":"levelo_inurba_marseille","lat":43.27617,"lon":5.36105,"is_reserved":false,"is_disabled":false,"rental_uris":{"android":"levelo://app?vid=4f2c2ae9-cceb-4f6c-925d-23d363970b60","ios":"levelo://app?vid=4f2c2ae9-cceb-4f6c-925d-23d363970b60"},"vehicle_type_id":"4","last_reported":1765909105,"current_range_meters":9600,"station_id":"ce4bgj92rcd13ifvqbe0","pricing_plan_id":"cebpf4jnsgd1na2vs0mg"},{"bike_id":"5af242e8-7e04-4d52-adb3-be60671fad57","system_id":"levelo_inurba_marseille","lat":43.30122,"lon":5.4312,"is_reserved":false,"is_disabled":false,"rental_uris":{"android":"levelo://app?vid=5af242e8-7e04-4d52-adb3-be60671fad57","ios":"levelo://app?vid=5af242e8-7e04-4d52-adb3-be60671fad57"},"vehicle_type_id":"4","last_reported":1765909105,"current_range_meters":9600,"station_id":"st_d3js3co5814s73ftftug","pricing_plan_id":"cebpf4jnsgd1na2vs0mg"},{"bike_id":"559f2688-429d-47c2-bc34-d534672abaf5","system_id":"levelo_inurba_marseille","lat":43.28721,"lon":5.37947,"is_reserved":false,"is_disabled":false,"rental_uris":{"android":"levelo://app?vid=559f2688-429d-47c2-bc34-d534672abaf5","ios":"levelo://app?vid=559f2688-429d-47c2-bc34-d534672abaf5"},"vehicle_type_id":"4","last_reported":1765909105,"current_range_meters":9600,"station_id":"ce4bh9p2rcd13ifvqec0","pricing_plan_id":"cebpf4jnsgd1na2vs0mg"},{"bike_id":"9b173e86-3ede-4973-b8cb-b42ea2c91907","system_id":"levelo_inurba_marseille","lat":43.310213,"lon":5.393437,"is_reserved":false,"is_disabled":false,"rental_uris":{"android":"levelo://app?vid=9b173e86-3ede-4973-b8cb-b42ea2c91907","ios":"levelo://app?vid=9b173e86-3ede-4973-b8cb-b42ea2c91907"},"vehicle_type_id":"4","last_reported":1765909105,"current_range_meters":9600,"station_id":"","pricing_plan_id":"cebpf4jnsgd1na2vs0mg"},{"bike_id":"08e06d6d-9496-4403-b8a2-10349ecf84a3","system_id":"levelo_inurba_marseille","lat":43.30127,"lon":5.43099,"is_reserved":false,"is_disabled":false,"rental_uris":{"android":"levelo://app?vid=08e06d6d-9496-4403-b8a2-10349ecf84a3","ios":"levelo://app?vid=08e06d6d-9496-4403-b8a2-10349ecf84a3"},"vehicle_type_id":"4","last_reported":1765909105,"current_range_meters":10000,"station_id":"st_d3js3co5814s73ftftug","pricing_plan_id":"cebpf4jnsgd1na2vs0mg"},{"bike_id":"6df4c56c-c6f5-4fb1-84fc-9f50cb5ef178","system_id":"levelo_inurba_marseille","lat":43.23197,"lon":5.35541,"is_reserved":false,"is_disabled":true,"rental_uris":{"android":"levelo://app?vid=6df4c56c-c6f5-4fb1-84fc-9f50cb5ef178","ios":"levelo://app?vid=6df4c56c-c6f5-4fb1-84fc-9f50cb5ef178"},"vehicle_type_id":"4","last_reported":1765909105,"current_range_meters":10000,"station_id":"ce4bhu92rcd13ifvqi70","pricing_plan_id":"cebpf4jnsgd1na2vs0mg"},{"bike_id":"a3cf6e32-8a5b-405a-8e1a-e62fc2a41c92","system_id":"levelo_inurba_marseille","lat":43.28017,"lon":5.42124,"is_reserved":false,"is_disabled":false,"rental_uris":{"android":"levelo://app?vid=a3cf6e32-8a5b-405a-8e1a-e62fc2a41c92","ios":"levelo://app?vid=a3cf6e32-8a5b-405a-8e1a-e62fc2a41c92"},"vehicle_type_id":"4","last_reported":1765909105,"current_range_meters":10000,"station_id":"","pricing_plan_id":"cebpf4jnsgd1na2vs0mg"},{"bike_id":"46b9da8e-600f-4b77-a964-111e9eafd3fa","system_id":"levelo_inurba_marseille","lat":43.26456,"lon":5.37362,"is_reserved":false,"is_disabled":false,"rental_uris":{"android":"levelo://app?vid=46b9da8e-600f-4b77-a964-111e9eafd3fa","ios":"levelo://app?vid=46b9da8e-600f-4b77-a964-111e9eafd3fa"},"vehicle_type_id":"4","last_reported":1765909105,"current_range_meters":10000,"station_id":"","pricing_plan_id":"cebpf4jnsgd1na2vs0mg"},{"bike_id":"4a9c8ce7-14ac-4f52-9477-c90a5e4c1f3d","system_id":"levelo_inurba_marseille","lat":43.27199,"lon":5.39192,"is_reserved":false,"is_disabled":false,"rental_uris":{"android":"levelo://app?vid=4a9c8ce7-14ac-4f52-9477-c90a5e4c1f3d","ios":"levelo://app?vid=4a9c8ce7-14ac-4f52-9477-c90a5e4c1f3d"},"vehicle_type_id":"4","last_reported":1765909105,"current_range_meters":10000,"station_id":"ce4bhhp2rcd13ifvqfm0","pricing_plan_id":"cebpf4jnsgd1na2vs0mg"},{"bike_id":"ae7f323e-34dc-4130-baaf-dab8d8213b63","system_id":"levelo_inurba_marseille","lat":43.28742,"lon":5.36073,"is_reserved":false,"is_disabled":false,"rental_uris":{"android":"levelo://app?vid=ae7f323e-34dc-4130-baaf-dab8d8213b63","ios":"levelo://app?vid=ae7f323e-34dc-4130-baaf-dab8d8213b63"},"vehicle_type_id":"4","last_reported":1765909105,"current_range_meters":10000,"station_id":"cki0cbj6b192h4jlfktg","pricing_plan_id":"cebpf4jnsgd1na2vs0mg"},{"bike_id":"f0607238-9fab-432e-a6c6-c5acd6257feb","system_id":"levelo_inurba_marseille","lat":43.30353,"lon":5.39294,"is_reserved":false,"is_disabled":true,"rental_uris":{"android":"levelo://app?vid=f0607238-9fab-432e-a6c6-c5acd6257feb","ios":"levelo://app?vid=f0607238-9fab-432e-a6c6-c5acd6257feb"},"vehicle_type_id":"4","last_reported":1765909105,"current_range_meters":10000,"station_id":"","pricing_plan_id":"cebpf4jnsgd1na2vs0mg"},{"bike_id":"5f09d180-0bd0-4d7d-8a15-8e4bf90acbf6","system_id":"levelo_inurba_marseille","lat":43.3072,"lon":5.42422,"is_reserved":false,"is_disabled":false,"rental_uris":{"android":"levelo://app?vid=5f09d180-0bd0-4d7d-8a15-8e4bf90acbf6","ios":"levelo://app?vid=5f09d180-0bd0-4d7d-8a15-8e4bf90acbf6"},"vehicle_type_id":"4","last_reported":1765909105,"current_range_meters":10000,"station_id":"st_cvj6ca6bvosntc0bfgr0","pricing_plan_id":"cebpf4jnsgd1na2vs0mg"},{"bike_id":"c2dbecdc-0ef9-48e5-a6d6-1106c2dfe04a","system_id":"levelo_inurba_marseille","lat":43.274902,"lon":5.424391,"is_reserved":false,"is_disabled":false,"rental_uris":{"android":"levelo://app?vid=c2dbecdc-0ef9-48e5-a6d6-1106c2dfe04a","ios":"levelo://app?vid=c2dbecdc-0ef9-48e5-a6d6-1106c2dfe04a"},"vehicle_type_id":"4","last_reported":1765909105,"current_range_meters":10000,"station_id":"ce4bhn92rcd13ifvqgrg","pricing_plan_id":"cebpf4jnsgd1na2vs0mg"},{"bike_id":"dbd4ee99-e250-413d-bdce-471d46749382","system_id":"levelo_inurba_marseille","lat":43.3059,"lon":5.36677,"is_reserved":false,"is_disabled":false,"rental_uris":{"android":"levelo://app?vid=dbd4ee99-e250-413d-bdce-471d46749382","ios":"levelo://app?vid=dbd4ee99-e250-413d-bdce-471d46749382"},"vehicle_type_id":"4","last_reported":1765909105,"current_range_meters":10000,"station_id":"ce4bgrp2rcd13ifvqc9g","pricing_plan_id":"cebpf4jnsgd1na2vs0mg"},{"bike_id":"f5d9a9b3-558f-4d87-a4a3-2e93dcd5a3b9","system_id":"levelo_inurba_marseille","lat":43.28486,"lon":5.48388,"is_reserved":false,"is_disabled":false,"rental_uris":{"android":"levelo://app?vid=f5d9a9b3-558f-4d87-a4a3-2e93dcd5a3b9","ios":"levelo://app?vid=f5d9a9b3-558f-4d87-a4a3-2e93dcd5a3b9"},"vehicle_type_id":"4","last_reported":1765909105,"current_range_meters":10000,"station_id":"st_d3svhcjqgbts73a3dn0g","pricing_plan_id":"cebpf4jnsgd1na2vs0mg"},{"bike_id":"c4099e76-a2f4-48a3-89a9-a2a40410a4f8","system_id":"levelo_inurba_marseille","lat":43.29813,"lon":5.44066,"is_reserved":false,"is_disabled":false,"rental_uris":{"android":"levelo://app?vid=c4099e76-a2f4-48a3-89a9-a2a40410a4f8","ios":"levelo://app?vid=c4099e76-a2f4-48a3-89a9-a2a40410a4f8"},"vehicle_type_id":"4","last_reported":1765909105,"current_range_meters":10000,"station_id":"st_d3jp68qikq2c7381ktn0","pricing_plan_id":"cebpf4jnsgd1na2vs0mg"},{"bike_id":"3f93ea7c-7c40-4532-bd43-dc82f5596ed7","system_id":"levelo_inurba_marseille","lat":43.29915,"lon":5.38139,"is_reserved":false,"is_disabled":false,"rental_uris":{"android":"levelo://app?vid=3f93ea7c-7c40-4532-bd43-dc82f5596ed7","ios":"levelo://app?vid=3f93ea7c-7c40-4532-bd43-dc82f5596ed7"},"vehicle_type_id":"4","last_reported":1765909105,"current_range_meters":10000,"station_id":"ce4bgj12rcd13ifvqbc0","pricing_plan_id":"cebpf4jnsgd1na2vs0mg"},{"bike_id":"ba63d727-0bb0-4968-918c-07e0f5c5ff47","system_id":"levelo_inurba_marseille","lat":43.287,"lon":5.38685,"is_reserved":false,"is_disabled":false,"rental_uris":{"android":"levelo://app?vid=ba63d727-0bb0-4968-918c-07e0f5c5ff47","ios":"levelo://app?vid=ba63d727-0bb0-4968-918c-07e0f5c5ff47"},"vehicle_type_id":"4","last_reported":1765909105,"current_range_meters":10000,"station_id":"ce4bh492rcd13ifvqdug","pricing_plan_id":"cebpf4jnsgd1na2vs0mg"},{"bike_id":"6d3c4f06-53c6-4dcd-a34e-72af2ce75aaf","system_id":"levelo_inurba_marseille","lat":43.29311,"lon":5.37461,"is_reserved":false,"is_disabled":false,"rental_uris":{"android":"levelo://app?vid=6d3c4f06-53c6-4dcd-a34e-72af2ce75aaf","ios":"levelo://app?vid=6d3c4f06-53c6-4dcd-a34e-72af2ce75aaf"},"vehicle_type_id":"4","last_reported":1765909105,"current_range_meters":10000,"station_id":"ce4bgi12rcd13ifvqb70","pricing_plan_id":"cebpf4jnsgd1na2vs0mg"},{"bike_id":"47fe3e79-aab6-4e8f-b1d6-0e4abaf0f630","system_id":"levelo_inurba_marseille","lat":43.286609,"lon":5.363502,"is_reserved":false,"is_disabled":false,"rental_uris":{"android":"levelo://app?vid=47fe3e79-aab6-4e8f-b1d6-0e4abaf0f630","ios":"levelo://app?vid=47fe3e79-aab6-4e8f-b1d6-0e4abaf0f630"},"vehicle_type_id":"4","last_reported":1765909105,"current_range_meters":10800,"station_id":"","pricing_plan_id":"cebpf4jnsgd1na2vs0mg"},{"bike_id":"dc9b6e3f-8e79-47b2-8319-e45dd942c044","system_id":"levelo_inurba_marseille","lat":43.295623,"lon":5.375183,"is_reserved":false,"is_disabled":false,"rental_uris":{"android":"levelo://app?vid=dc9b6e3f-8e79-47b2-8319-e45dd942c044","ios":"levelo://app?vid=dc9b6e3f-8e79-47b2-8319-e45dd942c044"},"vehicle_type_id":"4","last_reported":1765909105,"current_range_meters":10800,"station_id":"ce4bgh92rcd13ifvqb50","pricing_plan_id":"cebpf4jnsgd1na2vs0mg"},{"bike_id":"fd7fe341-e9e1-43e0-9282-b94a778a6675","system_id":"levelo_inurba_marseille","lat":43.337444,"lon":5.374475,"is_reserved":false,"is_disabled":false,"rental_uris":{"android":"levelo://app?vid=fd7fe341-e9e1-43e0-9282-b94a778a6675","ios":"levelo://app?vid=fd7fe341-e9e1-43e0-9282-b94a778a6675"},"vehicle_type_id":"4","last_reported":1765909105,"current_range_meters":10800,"station_id":"","pricing_plan_id":"cebpf4jnsgd1na2vs0mg"},{"bike_id":"65a482fc-112c-410a-91f7-7ccf200cee2f","system_id":"levelo_inurba_marseille","lat":43.29964,"lon":5.38497,"is_reserved":false,"is_disabled":false,"rental_uris":{"android":"levelo://app?vid=65a482fc-112c-410a-91f7-7ccf200cee2f","ios":"levelo://app?vid=65a482fc-112c-410a-91f7-7ccf200cee2f"},"vehicle_type_id":"4","last_reported":1765909105,"current_range_meters":10800,"station_id":"ce4bgj92rcd13ifvqbd0","pricing_plan_id":"cebpf4jnsgd1na2vs0mg"},{"bike_id":"bc74ef6c-60c8-4f6c-abb8-03b7a515cf09","system_id":"levelo_inurba_marseille","lat":43.31585,"lon":5.37305,"is_reserved":false,"is_disabled":false,"rental_uris":{"android":"levelo://app?vid=bc74ef6c-60c8-4f6c-abb8-03b7a515cf09","ios":"levelo://app?vid=bc74ef6c-60c8-4f6c-abb8-03b7a515cf09"},"vehicle_type_id":"4","last_reported":1765909105,"current_range_meters":10800,"station_id":"","pricing_plan_id":"cebpf4jnsgd1na2vs0mg"},{"bike_id":"5baf169f-bf45-4dd8-bfb0-f5b474d99a69","system_id":"levelo_inurba_marseille","lat":43.28749,"lon":5.38416,"is_reserved":false,"is_disabled":false,"rental_uris":{"android":"levelo://app?vid=5baf169f-bf45-4dd8-bfb0-f5b474d99a69","ios":"levelo://app?vid=5baf169f-bf45-4dd8-bfb0-f5b474d99a69"},"vehicle_type_id":"4","last_reported":1765909105,"current_range_meters":10800,"station_id":"","pricing_plan_id":"cebpf4jnsgd1na2vs0mg"},{"bike_id":"f5db0d0f-678c-44a3-a0e0-fd3df162f1eb","system_id":"levelo_inurba_marseille","lat":43.2706,"lon":5.38311,"is_reserved":false,"is_disabled":false,"rental_uris":{"android":"levelo://app?vid=f5db0d0f-678c-44a3-a0e0-fd3df162f1eb","ios":"levelo://app?vid=f5db0d0f-678c-44a3-a0e0-fd3df162f1eb"},"vehicle_type_id":"4","last_reported":1765909105,"current_range_meters":10800,"station_id":"st_d3n2fo6cfp8s73cte1j0","pricing_plan_id":"cebpf4jnsgd1na2vs0mg"},{"bike_id":"30373659-1302-4bf2-b36d-72447b8a5e72","system_id":"levelo_inurba_marseille","lat":43.28691,"lon":5.37956,"is_reserved":false,"is_disabled":false,"rental_uris":{"android":"levelo://app?vid=30373659-1302-4bf2-b36d-72447b8a5e72","ios":"levelo://app?vid=30373659-1302-4bf2-b36d-72447b8a5e72"},"vehicle_type_id":"4","last_reported":1765909105,"current_range_meters":10800,"station_id":"","pricing_plan_id":"cebpf4jnsgd1na2vs0mg"},{"bike_id":"b959cc19-b00a-4f78-bf9b-f737abeb0c3b","system_id":"levelo_inurba_marseille","lat":43.29486,"lon":5.38315,"is_reserved":false,"is_disabled":false,"rental_uris":{"android":"levelo://app?vid=b959cc19-b00a-4f78-bf9b-f737abeb0c3b","ios":"levelo://app?vid=b959cc19-b00a-4f78-bf9b-f737abeb0c3b"},"vehicle_type_id":"4","last_reported":1765909105,"current_range_meters":10800,"station_id":"","pricing_plan_id":"cebpf4jnsgd1na2vs0mg"},{"bike_id":"0842d1d3-5ffd-403c-8b8e-75cc6c0c6212","system_id":"levelo_inurba_marseille","lat":43.26949,"lon":5.38638,"is_reserved":false,"is_disabled":false,"rental_uris":{"android":"levelo://app?vid=0842d1d3-5ffd-403c-8b8e-75cc6c0c6212","ios":"levelo://app?vid=0842d1d3-5ffd-403c-8b8e-75cc6c0c6212"},"vehicle_type_id":"4","last_reported":1765909105,"current_range_meters":11200,"station_id":"ce4bhh92rcd13ifvqfh0","pricing_plan_id":"cebpf4jnsgd1na2vs0mg"},{"bike_id":"f2065926-dded-4394-a6ff-f4e3d6ea47b0","system_id":"levelo_inurba_marseille","lat":43.24998,"lon":5.38931,"is_reserved":false,"is_disabled":false,"rental_uris":{"android":"levelo://app?vid=f2065926-dded-4394-a6ff-f4e3d6ea47b0","ios":"levelo://app?vid=f2065926-dded-4394-a6ff-f4e3d6ea47b0"},"vehicle_type_id":"4","last_reported":1765909105,"current_range_meters":11200,"station_id":"ce4bhgp2rcd13ifvqfd0","pricing_plan_id":"cebpf4jnsgd1na2vs0mg"},{"bike_id":"4f8ad109-8352-4f43-a7a6-267abdf04ef1","system_id":"levelo_inurba_marseille","lat":43.27911,"lon":5.39586,"is_reserved":false,"is_disabled":false,"rental_uris":{"android":"levelo://app?vid=4f8ad109-8352-4f43-a7a6-267abdf04ef1","ios":"levelo://app?vid=4f8ad109-8352-4f43-a7a6-267abdf04ef1"},"vehicle_type_id":"4","last_reported":1765909105,"current_range_meters":11200,"station_id":"ce4bhf92rcd13ifvqf40","pricing_plan_id":"cebpf4jnsgd1na2vs0mg"},{"bike_id":"2ef24484-8e4e-49c0-a3a9-f83b77f53191","system_id":"levelo_inurba_marseille","lat":43.27066,"lon":5.42257,"is_reserved":false,"is_disabled":true,"rental_uris":{"android":"levelo://app?vid=2ef24484-8e4e-49c0-a3a9-f83b77f53191","ios":"levelo://app?vid=2ef24484-8e4e-49c0-a3a9-f83b77f53191"},"vehicle_type_id":"4","last_reported":1765909105,"current_range_meters":11200,"station_id":"ce4bhk92rcd13ifvqgb0","pricing_plan_id":"cebpf4jnsgd1na2vs0mg"},{"bike_id":"2833047e-5d18-4b3c-9479-5d7320904cd9","system_id":"levelo_inurba_marseille","lat":43.28532,"lon":5.4409,"is_reserved":false,"is_disabled":false,"rental_uris":{"android":"levelo://app?vid=2833047e-5d18-4b3c-9479-5d7320904cd9","ios":"levelo://app?vid=2833047e-5d18-4b3c-9479-5d7320904cd9"},"vehicle_type_id":"4","last_reported":1765909105,"current_range_meters":11200,"station_id":"st_d3j3df2ikq2c7380ej80","pricing_plan_id":"cebpf4jnsgd1na2vs0mg"},{"bike_id":"5dac6ce7-9bc8-405c-a597-ab37f1e95174","system_id":"levelo_inurba_marseille","lat":43.31038,"lon":5.37173,"is_reserved":false,"is_disabled":false,"rental_uris":{"android":"levelo://app?vid=5dac6ce7-9bc8-405c-a597-ab37f1e95174","ios":"levelo://app?vid=5dac6ce7-9bc8-405c-a597-ab37f1e95174"},"vehicle_type_id":"4","last_reported":1765909105,"current_range_meters":11600,"station_id":"st_d4kl2rp97mjs73e7tdfg","pricing_plan_id":"cebpf4jnsgd1na2vs0mg"},{"bike_id":"4c1c7053-1690-46ae-b248-e8260967b03f","system_id":"levelo_inurba_marseille","lat":43.316791,"lon":5.375612,"is_reserved":false,"is_disabled":false,"rental_uris":{"android":"levelo://app?vid=4c1c7053-1690-46ae-b248-e8260967b03f","ios":"levelo://app?vid=4c1c7053-1690-46ae-b248-e8260967b03f"},"vehicle_type_id":"4","last_reported":1765909105,"current_range_meters":11600,"station_id":"","pricing_plan_id":"cebpf4jnsgd1na2vs0mg"},{"bike_id":"d6f90051-adc4-44d1-a726-3c1a90bf2e04","system_id":"levelo_inurba_marseille","lat":43.28232,"lon":5.34901,"is_reserved":false,"is_disabled":false,"rental_uris":{"android":"levelo://app?vid=d6f90051-adc4-44d1-a726-3c1a90bf2e04","ios":"levelo://app?vid=d6f90051-adc4-44d1-a726-3c1a90bf2e04"},"vehicle_type_id":"4","last_reported":1765909105,"current_range_meters":11600,"station_id":"","pricing_plan_id":"cebpf4jnsgd1na2vs0mg"},{"bike_id":"d3a2e4e7-6aac-4366-981a-52d89642477a","system_id":"levelo_inurba_marseille","lat":43.30301,"lon":5.3778,"is_reserved":false,"is_disabled":true,"rental_uris":{"android":"levelo://app?vid=d3a2e4e7-6aac-4366-981a-52d89642477a","ios":"levelo://app?vid=d3a2e4e7-6aac-4366-981a-52d89642477a"},"vehicle_type_id":"4","last_reported":1765909105,"current_range_meters":11600,"station_id":"","pricing_plan_id":"cebpf4jnsgd1na2vs0mg"},{"bike_id":"e1bcc35a-6222-4a59-9fc9-f339f90545b5","system_id":"levelo_inurba_marseille","lat":43.27615,"lon":5.36108,"is_reserved":false,"is_disabled":false,"rental_uris":{"android":"levelo://app?vid=e1bcc35a-6222-4a59-9fc9-f339f90545b5","ios":"levelo://app?vid=e1bcc35a-6222-4a59-9fc9-f339f90545b5"},"vehicle_type_id":"4","last_reported":1765909105,"current_range_meters":11600,"station_id":"ce4bgj92rcd13ifvqbe0","pricing_plan_id":"cebpf4jnsgd1na2vs0mg"},{"bike_id":"f641aa90-ec3b-4796-8606-62959c7d36d4","system_id":"levelo_inurba_marseille","lat":43.29524,"lon":5.39402,"is_reserved":false,"is_disabled":false,"rental_uris":{"android":"levelo://app?vid=f641aa90-ec3b-4796-8606-62959c7d36d4","ios":"levelo://app?vid=f641aa90-ec3b-4796-8606-62959c7d36d4"},"vehicle_type_id":"4","last_reported":1765909105,"current_range_meters":12000,"station_id":"ce4bh292rcd13ifvqdf0","pricing_plan_id":"cebpf4jnsgd1na2vs0mg"},{"bike_id":"ddaf0a15-5f3a-4e96-9f64-14ebada7811d","system_id":"levelo_inurba_marseille","lat":43.26061,"lon":5.39398,"is_reserved":false,"is_disabled":false,"rental_uris":{"android":"levelo://app?vid=ddaf0a15-5f3a-4e96-9f64-14ebada7811d","ios":"levelo://app?vid=ddaf0a15-5f3a-4e96-9f64-14ebada7811d"},"vehicle_type_id":"4","last_reported":1765909105,"current_range_meters":12000,"station_id":"ce4bhh92rcd13ifvqfj0","pricing_plan_id":"cebpf4jnsgd1na2vs0mg"},{"bike_id":"71508078-6838-4792-8f86-6d1edd517671","system_id":"levelo_inurba_marseille","lat":43.28543,"lon":5.44083,"is_reserved":false,"is_disabled":false,"rental_uris":{"android":"levelo://app?vid=71508078-6838-4792-8f86-6d1edd517671","ios":"levelo://app?vid=71508078-6838-4792-8f86-6d1edd517671"},"vehicle_type_id":"4","last_reported":1765909105,"current_range_meters":12000,"station_id":"st_d3j3df2ikq2c7380ej80","pricing_plan_id":"cebpf4jnsgd1na2vs0mg"},{"bike_id":"37dece40-dcf4-4e2c-a8b3-b8739611ab01","system_id":"levelo_inurba_marseille","lat":43.28563,"lon":5.39497,"is_reserved":false,"is_disabled":false,"rental_uris":{"android":"levelo://app?vid=37dece40-dcf4-4e2c-a8b3-b8739611ab01","ios":"levelo://app?vid=37dece40-dcf4-4e2c-a8b3-b8739611ab01"},"vehicle_type_id":"4","last_reported":1765909105,"current_range_meters":12000,"station_id":"ce4bh292rcd13ifvqdg0","pricing_plan_id":"cebpf4jnsgd1na2vs0mg"},{"bike_id":"9ebcaad2-2e19-4608-9c02-cecea313b5ae","system_id":"levelo_inurba_marseille","lat":43.24634,"lon":5.43144,"is_reserved":false,"is_disabled":false,"rental_uris":{"android":"levelo://app?vid=9ebcaad2-2e19-4608-9c02-cecea313b5ae","ios":"levelo://app?vid=9ebcaad2-2e19-4608-9c02-cecea313b5ae"},"vehicle_type_id":"4","last_reported":1765909105,"current_range_meters":12000,"station_id":"st_d2m6c4gdas8pm72e190g","pricing_plan_id":"cebpf4jnsgd1na2vs0mg"},{"bike_id":"094e6f42-8188-456e-b536-25ce771d7e44","system_id":"levelo_inurba_marseille","lat":43.241664,"lon":5.363884,"is_reserved":false,"is_disabled":false,"rental_uris":{"android":"levelo://app?vid=094e6f42-8188-456e-b536-25ce771d7e44","ios":"levelo://app?vid=094e6f42-8188-456e-b536-25ce771d7e44"},"vehicle_type_id":"4","last_reported":1765909105,"current_range_meters":12000,"station_id":"cpo36qri1sfpv3e86is0","pricing_plan_id":"cebpf4jnsgd1na2vs0mg"},{"bike_id":"ec025ddd-e46a-46ed-b97d-7c73102604e0","system_id":"levelo_inurba_marseille","lat":43.27322,"lon":5.39067,"is_reserved":false,"is_disabled":true,"rental_uris":{"android":"levelo://app?vid=ec025ddd-e46a-46ed-b97d-7c73102604e0","ios":"levelo://app?vid=ec025ddd-e46a-46ed-b97d-7c73102604e0"},"vehicle_type_id":"4","last_reported":1765909105,"current_range_meters":12000,"station_id":"ce4bhgp2rcd13ifvqfe0","pricing_plan_id":"cebpf4jnsgd1na2vs0mg"},{"bike_id":"c572c9bc-c7d0-402f-b86b-91b011c7b447","system_id":"levelo_inurba_marseille","lat":43.279641,"lon":5.378967,"is_reserved":false,"is_disabled":false,"rental_uris":{"android":"levelo://app?vid=c572c9bc-c7d0-402f-b86b-91b011c7b447","ios":"levelo://app?vid=c572c9bc-c7d0-402f-b86b-91b011c7b447"},"vehicle_type_id":"4","last_reported":1765909105,"current_range_meters":12000,"station_id":"ce4bhf92rcd13ifvqf50","pricing_plan_id":"cebpf4jnsgd1na2vs0mg"},{"bike_id":"516b3289-2209-47cd-8852-dcc2c8e7a52a","system_id":"levelo_inurba_marseille","lat":43.28663,"lon":5.3634,"is_reserved":false,"is_disabled":false,"rental_uris":{"android":"levelo://app?vid=516b3289-2209-47cd-8852-dcc2c8e7a52a","ios":"levelo://app?vid=516b3289-2209-47cd-8852-dcc2c8e7a52a"},"vehicle_type_id":"4","last_reported":1765909105,"current_range_meters":12000,"station_id":"ce4bhah2rcd13ifvqej0","pricing_plan_id":"cebpf4jnsgd1na2vs0mg"},{"bike_id":"600e97af-9a9c-49d5-98f0-3889e38d2e47","system_id":"levelo_inurba_marseille","lat":43.297918,"lon":5.393417,"is_reserved":false,"is_disabled":false,"rental_uris":{"android":"levelo://app?vid=600e97af-9a9c-49d5-98f0-3889e38d2e47","ios":"levelo://app?vid=600e97af-9a9c-49d5-98f0-3889e38d2e47"},"vehicle_type_id":"4","last_reported":1765909105,"current_range_meters":12000,"station_id":"chh1huq6cuj3fo74tm60","pricing_plan_id":"cebpf4jnsgd1na2vs0mg"},{"bike_id":"2baf383b-6381-419d-bee0-bdbabee5e0e0","system_id":"levelo_inurba_marseille","lat":43.2292,"lon":5.35373,"is_reserved":false,"is_disabled":false,"rental_uris":{"android":"levelo://app?vid=2baf383b-6381-419d-bee0-bdbabee5e0e0","ios":"levelo://app?vid=2baf383b-6381-419d-bee0-bdbabee5e0e0"},"vehicle_type_id":"4","last_reported":1765909105,"current_range_meters":12000,"station_id":"cpo3532slgdg3j2ikp40","pricing_plan_id":"cebpf4jnsgd1na2vs0mg"},{"bike_id":"6a1c7e85-8e77-445a-88b1-93dccc0c75c2","system_id":"levelo_inurba_marseille","lat":43.317584,"lon":5.390168,"is_reserved":false,"is_disabled":false,"rental_uris":{"android":"levelo://app?vid=6a1c7e85-8e77-445a-88b1-93dccc0c75c2","ios":"levelo://app?vid=6a1c7e85-8e77-445a-88b1-93dccc0c75c2"},"vehicle_type_id":"4","last_reported":1765909105,"current_range_meters":12000,"station_id":"ce4bhqp2rcd13ifvqhng","pricing_plan_id":"cebpf4jnsgd1na2vs0mg"},{"bike_id":"acef88f3-04e9-43c4-ba5c-620b6998f263","system_id":"levelo_inurba_marseille","lat":43.309092,"lon":5.371835,"is_reserved":false,"is_disabled":false,"rental_uris":{"android":"levelo://app?vid=acef88f3-04e9-43c4-ba5c-620b6998f263","ios":"levelo://app?vid=acef88f3-04e9-43c4-ba5c-620b6998f263"},"vehicle_type_id":"4","last_reported":1765909105,"current_range_meters":12000,"station_id":"","pricing_plan_id":"cebpf4jnsgd1na2vs0mg"},{"bike_id":"65ef1610-5e5b-4ae4-92ec-9a2a1dd20a47","system_id":"levelo_inurba_marseille","lat":43.25328,"lon":5.42169,"is_reserved":false,"is_disabled":false,"rental_uris":{"android":"levelo://app?vid=65ef1610-5e5b-4ae4-92ec-9a2a1dd20a47","ios":"levelo://app?vid=65ef1610-5e5b-4ae4-92ec-9a2a1dd20a47"},"vehicle_type_id":"4","last_reported":1765909105,"current_range_meters":12400,"station_id":"st_d2m65c5bi1j21697t3ng","pricing_plan_id":"cebpf4jnsgd1na2vs0mg"},{"bike_id":"8f1e215d-7f38-4b5d-954b-5cf04b55b078","system_id":"levelo_inurba_marseille","lat":43.2706,"lon":5.38313,"is_reserved":false,"is_disabled":false,"rental_uris":{"android":"levelo://app?vid=8f1e215d-7f38-4b5d-954b-5cf04b55b078","ios":"levelo://app?vid=8f1e215d-7f38-4b5d-954b-5cf04b55b078"},"vehicle_type_id":"4","last_reported":1765909105,"current_range_meters":12400,"station_id":"st_d3n2fo6cfp8s73cte1j0","pricing_plan_id":"cebpf4jnsgd1na2vs0mg"},{"bike_id":"966ee9b8-6cc6-4ddb-a687-fdc2139f50ef","system_id":"levelo_inurba_marseille","lat":43.288575,"lon":5.35845,"is_reserved":false,"is_disabled":false,"rental_uris":{"android":"levelo://app?vid=966ee9b8-6cc6-4ddb-a687-fdc2139f50ef","ios":"levelo://app?vid=966ee9b8-6cc6-4ddb-a687-fdc2139f50ef"},"vehicle_type_id":"4","last_reported":1765909105,"current_range_meters":12400,"station_id":"ce4bhb12rcd13ifvqem0","pricing_plan_id":"cebpf4jnsgd1na2vs0mg"},{"bike_id":"5b9b0249-af26-48bc-a6fd-72f489db67a9","system_id":"levelo_inurba_marseille","lat":43.32352,"lon":5.36723,"is_reserved":false,"is_disabled":false,"rental_uris":{"android":"levelo://app?vid=5b9b0249-af26-48bc-a6fd-72f489db67a9","ios":"levelo://app?vid=5b9b0249-af26-48bc-a6fd-72f489db67a9"},"vehicle_type_id":"4","last_reported":1765909105,"current_range_meters":12400,"station_id":"ce4bhsh2rcd13ifvqi2g","pricing_plan_id":"cebpf4jnsgd1na2vs0mg"},{"bike_id":"50eb9144-4aad-42e2-af56-7bb119d81ac2","system_id":"levelo_inurba_marseille","lat":43.31213,"lon":5.36853,"is_reserved":false,"is_disabled":false,"rental_uris":{"android":"levelo://app?vid=50eb9144-4aad-42e2-af56-7bb119d81ac2","ios":"levelo://app?vid=50eb9144-4aad-42e2-af56-7bb119d81ac2"},"vehicle_type_id":"4","last_reported":1765909105,"current_range_meters":12400,"station_id":"ce4bgl92rcd13ifvqbq0","pricing_plan_id":"cebpf4jnsgd1na2vs0mg"},{"bike_id":"b32e4917-4651-4915-accd-6ad72ebf913f","system_id":"levelo_inurba_marseille","lat":43.29218,"lon":5.36047,"is_reserved":false,"is_disabled":true,"rental_uris":{"android":"levelo://app?vid=b32e4917-4651-4915-accd-6ad72ebf913f","ios":"levelo://app?vid=b32e4917-4651-4915-accd-6ad72ebf913f"},"vehicle_type_id":"4","last_reported":1765909105,"current_range_meters":12400,"station_id":"ce4bhbh2rcd13ifvqeqg","pricing_plan_id":"cebpf4jnsgd1na2vs0mg"},{"bike_id":"e2cbb5e6-3f9d-4a3d-a899-57d885f29ddd","system_id":"levelo_inurba_marseille","lat":43.337444,"lon":5.374475,"is_reserved":false,"is_disabled":false,"rental_uris":{"android":"levelo://app?vid=e2cbb5e6-3f9d-4a3d-a899-57d885f29ddd","ios":"levelo://app?vid=e2cbb5e6-3f9d-4a3d-a899-57d885f29ddd"},"vehicle_type_id":"4","last_reported":1765909105,"current_range_meters":12800,"station_id":"","pricing_plan_id":"cebpf4jnsgd1na2vs0mg"},{"bike_id":"29dc40ed-9031-47a0-9a38-598a30443efa","system_id":"levelo_inurba_marseille","lat":43.32072,"lon":5.41559,"is_reserved":false,"is_disabled":false,"rental_uris":{"android":"levelo://app?vid=29dc40ed-9031-47a0-9a38-598a30443efa","ios":"levelo://app?vid=29dc40ed-9031-47a0-9a38-598a30443efa"},"vehicle_type_id":"4","last_reported":1765909105,"current_range_meters":12800,"station_id":"ce4bhq92rcd13ifvqhkg","pricing_plan_id":"cebpf4jnsgd1na2vs0mg"},{"bike_id":"f13507cb-dd7b-49a8-9e65-015b8f41659d","system_id":"levelo_inurba_marseille","lat":43.27614,"lon":5.36165,"is_reserved":false,"is_disabled":false,"rental_uris":{"android":"levelo://app?vid=f13507cb-dd7b-49a8-9e65-015b8f41659d","ios":"levelo://app?vid=f13507cb-dd7b-49a8-9e65-015b8f41659d"},"vehicle_type_id":"4","last_reported":1765909105,"current_range_meters":12800,"station_id":"","pricing_plan_id":"cebpf4jnsgd1na2vs0mg"},{"bike_id":"2ab2710b-733d-44fe-a9f8-fe4cbf8606c7","system_id":"levelo_inurba_marseille","lat":43.33522,"lon":5.3748,"is_reserved":false,"is_disabled":false,"rental_uris":{"android":"levelo://app?vid=2ab2710b-733d-44fe-a9f8-fe4cbf8606c7","ios":"levelo://app?vid=2ab2710b-733d-44fe-a9f8-fe4cbf8606c7"},"vehicle_type_id":"4","last_reported":1765909105,"current_range_meters":12800,"station_id":"st_d46tts09ee8s73dlu43g","pricing_plan_id":"cebpf4jnsgd1na2vs0mg"},{"bike_id":"50434642-f9bc-48a5-9aa9-e1c1ac067a3f","system_id":"levelo_inurba_marseille","lat":43.24808,"lon":5.3745,"is_reserved":false,"is_disabled":false,"rental_uris":{"android":"levelo://app?vid=50434642-f9bc-48a5-9aa9-e1c1ac067a3f","ios":"levelo://app?vid=50434642-f9bc-48a5-9aa9-e1c1ac067a3f"},"vehicle_type_id":"4","last_reported":1765909105,"current_range_meters":12800,"station_id":"ce4bhgh2rcd13ifvqfb0","pricing_plan_id":"cebpf4jnsgd1na2vs0mg"},{"bike_id":"129fd518-986f-4eb5-a723-54d72c4463cc","system_id":"levelo_inurba_marseille","lat":43.295334,"lon":5.390433,"is_reserved":false,"is_disabled":false,"rental_uris":{"android":"levelo://app?vid=129fd518-986f-4eb5-a723-54d72c4463cc","ios":"levelo://app?vid=129fd518-986f-4eb5-a723-54d72c4463cc"},"vehicle_type_id":"4","last_reported":1765909105,"current_range_meters":13600,"station_id":"ce4bh3p2rcd13ifvqdp0","pricing_plan_id":"cebpf4jnsgd1na2vs0mg"},{"bike_id":"0b9299da-2145-4472-a752-9522638c09f9","system_id":"levelo_inurba_marseille","lat":43.27988,"lon":5.40013,"is_reserved":false,"is_disabled":false,"rental_uris":{"android":"levelo://app?vid=0b9299da-2145-4472-a752-9522638c09f9","ios":"levelo://app?vid=0b9299da-2145-4472-a752-9522638c09f9"},"vehicle_type_id":"4","last_reported":1765909105,"current_range_meters":13600,"station_id":"ce4bho92rcd13ifvqh4g","pricing_plan_id":"cebpf4jnsgd1na2vs0mg"},{"bike_id":"f96d197e-d68e-4b9e-b261-84222baa54d9","system_id":"levelo_inurba_marseille","lat":43.23787,"lon":5.36633,"is_reserved":false,"is_disabled":false,"rental_uris":{"android":"levelo://app?vid=f96d197e-d68e-4b9e-b261-84222baa54d9","ios":"levelo://app?vid=f96d197e-d68e-4b9e-b261-84222baa54d9"},"vehicle_type_id":"4","last_reported":1765909105,"current_range_meters":13600,"station_id":"st_d3nk18o9ro0c73en2l3g","pricing_plan_id":"cebpf4jnsgd1na2vs0mg"},{"bike_id":"651b29d3-4f51-4bd5-bf59-d7b9bcb7f108","system_id":"levelo_inurba_marseille","lat":43.25353,"lon":5.42164,"is_reserved":false,"is_disabled":true,"rental_uris":{"android":"levelo://app?vid=651b29d3-4f51-4bd5-bf59-d7b9bcb7f108","ios":"levelo://app?vid=651b29d3-4f51-4bd5-bf59-d7b9bcb7f108"},"vehicle_type_id":"4","last_reported":1765909105,"current_range_meters":13600,"station_id":"st_d2m65c5bi1j21697t3ng","pricing_plan_id":"cebpf4jnsgd1na2vs0mg"},{"bike_id":"10cd36ac-3f97-4cf5-9b61-129d6ceb7467","system_id":"levelo_inurba_marseille","lat":43.28698,"lon":5.39989,"is_reserved":false,"is_disabled":false,"rental_uris":{"android":"levelo://app?vid=10cd36ac-3f97-4cf5-9b61-129d6ceb7467","ios":"levelo://app?vid=10cd36ac-3f97-4cf5-9b61-129d6ceb7467"},"vehicle_type_id":"4","last_reported":1765909105,"current_range_meters":13600,"station_id":"ce4bho92rcd13ifvqh3g","pricing_plan_id":"cebpf4jnsgd1na2vs0mg"},{"bike_id":"2f55b60b-9e1e-48dc-bbbb-c371d55361ae","system_id":"levelo_inurba_marseille","lat":43.24648,"lon":5.38892,"is_reserved":false,"is_disabled":false,"rental_uris":{"android":"levelo://app?vid=2f55b60b-9e1e-48dc-bbbb-c371d55361ae","ios":"levelo://app?vid=2f55b60b-9e1e-48dc-bbbb-c371d55361ae"},"vehicle_type_id":"4","last_reported":1765909105,"current_range_meters":13600,"station_id":"ce4bhg12rcd13ifvqf60","pricing_plan_id":"cebpf4jnsgd1na2vs0mg"},{"bike_id":"73622435-c5fd-4005-8594-c94cc5b0c5e3","system_id":"levelo_inurba_marseille","lat":43.29515,"lon":5.3904,"is_reserved":false,"is_disabled":true,"rental_uris":{"android":"levelo://app?vid=73622435-c5fd-4005-8594-c94cc5b0c5e3","ios":"levelo://app?vid=73622435-c5fd-4005-8594-c94cc5b0c5e3"},"vehicle_type_id":"4","last_reported":1765909105,"current_range_meters":13600,"station_id":"ce4bh3p2rcd13ifvqdp0","pricing_plan_id":"cebpf4jnsgd1na2vs0mg"},{"bike_id":"d5222808-4792-4c00-bfa6-5c5345aa980a","system_id":"levelo_inurba_marseille","lat":43.29045,"lon":5.39971,"is_reserved":false,"is_disabled":false,"rental_uris":{"android":"levelo://app?vid=d5222808-4792-4c00-bfa6-5c5345aa980a","ios":"levelo://app?vid=d5222808-4792-4c00-bfa6-5c5345aa980a"},"vehicle_type_id":"4","last_reported":1765909105,"current_range_meters":13600,"station_id":"ce4bh392rcd13ifvqdm0","pricing_plan_id":"cebpf4jnsgd1na2vs0mg"},{"bike_id":"37c64312-bacf-418e-938c-ab682523f7de","system_id":"levelo_inurba_marseille","lat":43.28527,"lon":5.44111,"is_reserved":false,"is_disabled":false,"rental_uris":{"android":"levelo://app?vid=37c64312-bacf-418e-938c-ab682523f7de","ios":"levelo://app?vid=37c64312-bacf-418e-938c-ab682523f7de"},"vehicle_type_id":"4","last_reported":1765909105,"current_range_meters":13600,"station_id":"st_d3j3df2ikq2c7380ej80","pricing_plan_id":"cebpf4jnsgd1na2vs0mg"},{"bike_id":"6234b39e-3835-4567-817a-15726b383442","system_id":"levelo_inurba_marseille","lat":43.30148,"lon":5.38792,"is_reserved":false,"is_disabled":false,"rental_uris":{"android":"levelo://app?vid=6234b39e-3835-4567-817a-15726b383442","ios":"levelo://app?vid=6234b39e-3835-4567-817a-15726b383442"},"vehicle_type_id":"4","last_reported":1765909105,"current_range_meters":13600,"station_id":"ce4bghh2rcd13ifvqb60","pricing_plan_id":"cebpf4jnsgd1na2vs0mg"},{"bike_id":"1f6ed5b7-cfc6-4ff1-8212-01aa6525df2d","system_id":"levelo_inurba_marseille","lat":43.28682,"lon":5.38676,"is_reserved":false,"is_disabled":false,"rental_uris":{"android":"levelo://app?vid=1f6ed5b7-cfc6-4ff1-8212-01aa6525df2d","ios":"levelo://app?vid=1f6ed5b7-cfc6-4ff1-8212-01aa6525df2d"},"vehicle_type_id":"4","last_reported":1765909105,"current_range_meters":13600,"station_id":"ce4bh492rcd13ifvqdug","pricing_plan_id":"cebpf4jnsgd1na2vs0mg"},{"bike_id":"8c2c2ce3-73da-4ebf-ba92-d3797395fcb1","system_id":"levelo_inurba_marseille","lat":43.24628,"lon":5.43133,"is_reserved":false,"is_disabled":true,"rental_uris":{"android":"levelo://app?vid=8c2c2ce3-73da-4ebf-ba92-d3797395fcb1","ios":"levelo://app?vid=8c2c2ce3-73da-4ebf-ba92-d3797395fcb1"},"vehicle_type_id":"4","last_reported":1765909105,"current_range_meters":14000,"station_id":"st_d2m6c4gdas8pm72e190g","pricing_plan_id":"cebpf4jnsgd1na2vs0mg"},{"bike_id":"ddb7d15d-3f99-4d7a-aae0-1a9d45669c33","system_id":"levelo_inurba_marseille","lat":43.23181,"lon":5.43701,"is_reserved":false,"is_disabled":true,"rental_uris":{"android":"levelo://app?vid=ddb7d15d-3f99-4d7a-aae0-1a9d45669c33","ios":"levelo://app?vid=ddb7d15d-3f99-4d7a-aae0-1a9d45669c33"},"vehicle_type_id":"4","last_reported":1765909105,"current_range_meters":14000,"station_id":"ce4bhmp2rcd13ifvqgog","pricing_plan_id":"cebpf4jnsgd1na2vs0mg"},{"bike_id":"ebd8bf1b-f660-4eb5-8ea2-2aef2922fbd8","system_id":"levelo_inurba_marseille","lat":43.2455,"lon":5.39525,"is_reserved":false,"is_disabled":true,"rental_uris":{"android":"levelo://app?vid=ebd8bf1b-f660-4eb5-8ea2-2aef2922fbd8","ios":"levelo://app?vid=ebd8bf1b-f660-4eb5-8ea2-2aef2922fbd8"},"vehicle_type_id":"4","last_reported":1765909105,"current_range_meters":14000,"station_id":"ce4bhlp2rcd13ifvqgjg","pricing_plan_id":"cebpf4jnsgd1na2vs0mg"},{"bike_id":"8149bdaf-7022-4aaa-bf14-a140c75be7c5","system_id":"levelo_inurba_marseille","lat":43.29964,"lon":5.38498,"is_reserved":false,"is_disabled":false,"rental_uris":{"android":"levelo://app?vid=8149bdaf-7022-4aaa-bf14-a140c75be7c5","ios":"levelo://app?vid=8149bdaf-7022-4aaa-bf14-a140c75be7c5"},"vehicle_type_id":"4","last_reported":1765909105,"current_range_meters":14000,"station_id":"ce4bgj92rcd13ifvqbd0","pricing_plan_id":"cebpf4jnsgd1na2vs0mg"},{"bike_id":"33583a3e-eb6f-4736-a38d-d228e9cd63c0","system_id":"levelo_inurba_marseille","lat":43.29814,"lon":5.44069,"is_reserved":false,"is_disabled":false,"rental_uris":{"android":"levelo://app?vid=33583a3e-eb6f-4736-a38d-d228e9cd63c0","ios":"levelo://app?vid=33583a3e-eb6f-4736-a38d-d228e9cd63c0"},"vehicle_type_id":"4","last_reported":1765909105,"current_range_meters":14000,"station_id":"","pricing_plan_id":"cebpf4jnsgd1na2vs0mg"},{"bike_id":"19b66638-3211-46a9-8beb-4f12406d7672","system_id":"levelo_inurba_marseille","lat":43.27283,"lon":5.41078,"is_reserved":false,"is_disabled":false,"rental_uris":{"android":"levelo://app?vid=19b66638-3211-46a9-8beb-4f12406d7672","ios":"levelo://app?vid=19b66638-3211-46a9-8beb-4f12406d7672"},"vehicle_type_id":"4","last_reported":1765909105,"current_range_meters":14000,"station_id":"","pricing_plan_id":"cebpf4jnsgd1na2vs0mg"},{"bike_id":"246a48af-f13c-4fb7-a68f-1ba1cc0c21d5","system_id":"levelo_inurba_marseille","lat":43.28473,"lon":5.38422,"is_reserved":false,"is_disabled":false,"rental_uris":{"android":"levelo://app?vid=246a48af-f13c-4fb7-a68f-1ba1cc0c21d5","ios":"levelo://app?vid=246a48af-f13c-4fb7-a68f-1ba1cc0c21d5"},"vehicle_type_id":"4","last_reported":1765909105,"current_range_meters":14000,"station_id":"ce4bh512rcd13ifvqe3g","pricing_plan_id":"cebpf4jnsgd1na2vs0mg"},{"bike_id":"98067007-2388-469b-b67e-30f53a911e59","system_id":"levelo_inurba_marseille","lat":43.28079,"lon":5.39655,"is_reserved":false,"is_disabled":false,"rental_uris":{"android":"levelo://app?vid=98067007-2388-469b-b67e-30f53a911e59","ios":"levelo://app?vid=98067007-2388-469b-b67e-30f53a911e59"},"vehicle_type_id":"4","last_reported":1765909105,"current_range_meters":14000,"station_id":"ce4bho12rcd13ifvqh2g","pricing_plan_id":"cebpf4jnsgd1na2vs0mg"},{"bike_id":"486c0964-2d36-4a09-bd4e-308eb84dc832","system_id":"levelo_inurba_marseille","lat":43.29934,"lon":5.37458,"is_reserved":false,"is_disabled":false,"rental_uris":{"android":"levelo://app?vid=486c0964-2d36-4a09-bd4e-308eb84dc832","ios":"levelo://app?vid=486c0964-2d36-4a09-bd4e-308eb84dc832"},"vehicle_type_id":"4","last_reported":1765909105,"current_range_meters":14000,"station_id":"ce4bgjh2rcd13ifvqbg0","pricing_plan_id":"cebpf4jnsgd1na2vs0mg"},{"bike_id":"4426e565-55ce-4ab9-b08c-86117389e09a","system_id":"levelo_inurba_marseille","lat":43.28025,"lon":5.36951,"is_reserved":false,"is_disabled":false,"rental_uris":{"android":"levelo://app?vid=4426e565-55ce-4ab9-b08c-86117389e09a","ios":"levelo://app?vid=4426e565-55ce-4ab9-b08c-86117389e09a"},"vehicle_type_id":"4","last_reported":1765909105,"current_range_meters":14400,"station_id":"ce4bha12rcd13ifvqef0","pricing_plan_id":"cebpf4jnsgd1na2vs0mg"},{"bike_id":"b972c994-16b3-47fe-974f-b887645957a5","system_id":"levelo_inurba_marseille","lat":43.265576,"lon":5.372854,"is_reserved":false,"is_disabled":false,"rental_uris":{"android":"levelo://app?vid=b972c994-16b3-47fe-974f-b887645957a5","ios":"levelo://app?vid=b972c994-16b3-47fe-974f-b887645957a5"},"vehicle_type_id":"4","last_reported":1765909105,"current_range_meters":14400,"station_id":"ce4bhih2rcd13ifvqfr0","pricing_plan_id":"cebpf4jnsgd1na2vs0mg"},{"bike_id":"e31ce4d8-b9e5-4e17-819d-7c1fd46e0443","system_id":"levelo_inurba_marseille","lat":43.30885,"lon":5.39655,"is_reserved":false,"is_disabled":false,"rental_uris":{"android":"levelo://app?vid=e31ce4d8-b9e5-4e17-819d-7c1fd46e0443","ios":"levelo://app?vid=e31ce4d8-b9e5-4e17-819d-7c1fd46e0443"},"vehicle_type_id":"4","last_reported":1765909105,"current_range_meters":14400,"station_id":"ce4bh012rcd13ifvqcv0","pricing_plan_id":"cebpf4jnsgd1na2vs0mg"},{"bike_id":"cfd897e3-7c17-4af6-828f-31c670a6e49d","system_id":"levelo_inurba_marseille","lat":43.30641,"lon":5.40086,"is_reserved":false,"is_disabled":false,"rental_uris":{"android":"levelo://app?vid=cfd897e3-7c17-4af6-828f-31c670a6e49d","ios":"levelo://app?vid=cfd897e3-7c17-4af6-828f-31c670a6e49d"},"vehicle_type_id":"4","last_reported":1765909105,"current_range_meters":14400,"station_id":"ce4bh112rcd13ifvqda0","pricing_plan_id":"cebpf4jnsgd1na2vs0mg"},{"bike_id":"f275463d-48ad-4972-be8c-49ace4bb9c08","system_id":"levelo_inurba_marseille","lat":43.31755,"lon":5.39013,"is_reserved":false,"is_disabled":false,"rental_uris":{"android":"levelo://app?vid=f275463d-48ad-4972-be8c-49ace4bb9c08","ios":"levelo://app?vid=f275463d-48ad-4972-be8c-49ace4bb9c08"},"vehicle_type_id":"4","last_reported":1765909105,"current_range_meters":14400,"station_id":"ce4bhqp2rcd13ifvqhng","pricing_plan_id":"cebpf4jnsgd1na2vs0mg"},{"bike_id":"1985a16d-974e-4764-a075-1c51a005d839","system_id":"levelo_inurba_marseille","lat":43.298154,"lon":5.440713,"is_reserved":false,"is_disabled":false,"rental_uris":{"android":"levelo://app?vid=1985a16d-974e-4764-a075-1c51a005d839","ios":"levelo://app?vid=1985a16d-974e-4764-a075-1c51a005d839"},"vehicle_type_id":"4","last_reported":1765909105,"current_range_meters":14400,"station_id":"st_d3jp68qikq2c7381ktn0","pricing_plan_id":"cebpf4jnsgd1na2vs0mg"},{"bike_id":"9019d9b8-86ea-49f7-a56a-aeb4972533ff","system_id":"levelo_inurba_marseille","lat":43.29942,"lon":5.3652,"is_reserved":false,"is_disabled":false,"rental_uris":{"android":"levelo://app?vid=9019d9b8-86ea-49f7-a56a-aeb4972533ff","ios":"levelo://app?vid=9019d9b8-86ea-49f7-a56a-aeb4972533ff"},"vehicle_type_id":"4","last_reported":1765909105,"current_range_meters":14400,"station_id":"ce4bgm92rcd13ifvqbr0","pricing_plan_id":"cebpf4jnsgd1na2vs0mg"},{"bike_id":"7a24ff1b-6535-4064-b84d-6a84ab90cd9a","system_id":"levelo_inurba_marseille","lat":43.2894,"lon":5.36632,"is_reserved":false,"is_disabled":false,"rental_uris":{"android":"levelo://app?vid=7a24ff1b-6535-4064-b84d-6a84ab90cd9a","ios":"levelo://app?vid=7a24ff1b-6535-4064-b84d-6a84ab90cd9a"},"vehicle_type_id":"4","last_reported":1765909105,"current_range_meters":14400,"station_id":"ce4bhap2rcd13ifvqek0","pricing_plan_id":"cebpf4jnsgd1na2vs0mg"},{"bike_id":"5560bc30-feb5-441e-bb0e-aa8412fb304f","system_id":"levelo_inurba_marseille","lat":43.2678,"lon":5.39319,"is_reserved":false,"is_disabled":false,"rental_uris":{"android":"levelo://app?vid=5560bc30-feb5-441e-bb0e-aa8412fb304f","ios":"levelo://app?vid=5560bc30-feb5-441e-bb0e-aa8412fb304f"},"vehicle_type_id":"4","last_reported":1765909105,"current_range_meters":14400,"station_id":"","pricing_plan_id":"cebpf4jnsgd1na2vs0mg"},{"bike_id":"30e8c1d4-8f98-4f2a-9837-de8ef1192e2d","system_id":"levelo_inurba_marseille","lat":43.231857,"lon":5.399851,"is_reserved":false,"is_disabled":false,"rental_uris":{"android":"levelo://app?vid=30e8c1d4-8f98-4f2a-9837-de8ef1192e2d","ios":"levelo://app?vid=30e8c1d4-8f98-4f2a-9837-de8ef1192e2d"},"vehicle_type_id":"4","last_reported":1765909105,"current_range_meters":14400,"station_id":"ce4bhn12rcd13ifvqgqg","pricing_plan_id":"cebpf4jnsgd1na2vs0mg"},{"bike_id":"2d1b0225-3394-4b7f-9868-bfe37e568210","system_id":"levelo_inurba_marseille","lat":43.28931,"lon":5.364,"is_reserved":false,"is_disabled":false,"rental_uris":{"android":"levelo://app?vid=2d1b0225-3394-4b7f-9868-bfe37e568210","ios":"levelo://app?vid=2d1b0225-3394-4b7f-9868-bfe37e568210"},"vehicle_type_id":"4","last_reported":1765909105,"current_range_meters":14400,"station_id":"ce4bhc92rcd13ifvqetg","pricing_plan_id":"cebpf4jnsgd1na2vs0mg"},{"bike_id":"af0feff8-d1fc-4be2-b5ee-27f1b157d9db","system_id":"levelo_inurba_marseille","lat":43.29583,"lon":5.37512,"is_reserved":false,"is_disabled":false,"rental_uris":{"android":"levelo://app?vid=af0feff8-d1fc-4be2-b5ee-27f1b157d9db","ios":"levelo://app?vid=af0feff8-d1fc-4be2-b5ee-27f1b157d9db"},"vehicle_type_id":"4","last_reported":1765909105,"current_range_meters":14400,"station_id":"ce4bgh92rcd13ifvqb50","pricing_plan_id":"cebpf4jnsgd1na2vs0mg"},{"bike_id":"8d712679-a7fb-4bab-9d7c-efd2ec62250a","system_id":"levelo_inurba_marseille","lat":43.2893,"lon":5.36393,"is_reserved":false,"is_disabled":false,"rental_uris":{"android":"levelo://app?vid=8d712679-a7fb-4bab-9d7c-efd2ec62250a","ios":"levelo://app?vid=8d712679-a7fb-4bab-9d7c-efd2ec62250a"},"vehicle_type_id":"4","last_reported":1765909105,"current_range_meters":14400,"station_id":"ce4bhc92rcd13ifvqetg","pricing_plan_id":"cebpf4jnsgd1na2vs0mg"},{"bike_id":"7240d5a0-1829-4528-af1c-0c5911b64357","system_id":"levelo_inurba_marseille","lat":43.250218,"lon":5.375169,"is_reserved":false,"is_disabled":false,"rental_uris":{"android":"levelo://app?vid=7240d5a0-1829-4528-af1c-0c5911b64357","ios":"levelo://app?vid=7240d5a0-1829-4528-af1c-0c5911b64357"},"vehicle_type_id":"4","last_reported":1765909105,"current_range_meters":14400,"station_id":"ce4bhgh2rcd13ifvqfb0","pricing_plan_id":"cebpf4jnsgd1na2vs0mg"},{"bike_id":"adb2db29-046b-4d50-8cb9-e42e242ebc7d","system_id":"levelo_inurba_marseille","lat":43.27573,"lon":5.38396,"is_reserved":false,"is_disabled":false,"rental_uris":{"android":"levelo://app?vid=adb2db29-046b-4d50-8cb9-e42e242ebc7d","ios":"levelo://app?vid=adb2db29-046b-4d50-8cb9-e42e242ebc7d"},"vehicle_type_id":"4","last_reported":1765909105,"current_range_meters":14800,"station_id":"ce4bhh92rcd13ifvqfi0","pricing_plan_id":"cebpf4jnsgd1na2vs0mg"},{"bike_id":"4824a2bb-7351-4049-8fb9-1f8b55445bbe","system_id":"levelo_inurba_marseille","lat":43.24172,"lon":5.36398,"is_reserved":false,"is_disabled":false,"rental_uris":{"android":"levelo://app?vid=4824a2bb-7351-4049-8fb9-1f8b55445bbe","ios":"levelo://app?vid=4824a2bb-7351-4049-8fb9-1f8b55445bbe"},"vehicle_type_id":"4","last_reported":1765909105,"current_range_meters":14800,"station_id":"cpo36qri1sfpv3e86is0","pricing_plan_id":"cebpf4jnsgd1na2vs0mg"},{"bike_id":"a46445b0-0e05-4854-90e8-7e9116d714dc","system_id":"levelo_inurba_marseille","lat":43.337634,"lon":5.37441,"is_reserved":false,"is_disabled":false,"rental_uris":{"android":"levelo://app?vid=a46445b0-0e05-4854-90e8-7e9116d714dc","ios":"levelo://app?vid=a46445b0-0e05-4854-90e8-7e9116d714dc"},"vehicle_type_id":"4","last_reported":1765909105,"current_range_meters":14800,"station_id":"","pricing_plan_id":"cebpf4jnsgd1na2vs0mg"},{"bike_id":"75d8ba18-d90c-4ed0-9b8e-985c955e4ecd","system_id":"levelo_inurba_marseille","lat":43.29961,"lon":5.38493,"is_reserved":false,"is_disabled":false,"rental_uris":{"android":"levelo://app?vid=75d8ba18-d90c-4ed0-9b8e-985c955e4ecd","ios":"levelo://app?vid=75d8ba18-d90c-4ed0-9b8e-985c955e4ecd"},"vehicle_type_id":"4","last_reported":1765909105,"current_range_meters":14800,"station_id":"ce4bgj92rcd13ifvqbd0","pricing_plan_id":"cebpf4jnsgd1na2vs0mg"},{"bike_id":"8fb69c52-e174-4c35-b229-8436cc385bed","system_id":"levelo_inurba_marseille","lat":43.28692,"lon":5.3741,"is_reserved":false,"is_disabled":true,"rental_uris":{"android":"levelo://app?vid=8fb69c52-e174-4c35-b229-8436cc385bed","ios":"levelo://app?vid=8fb69c52-e174-4c35-b229-8436cc385bed"},"vehicle_type_id":"4","last_reported":1765909105,"current_range_meters":14800,"station_id":"ce4bh3p2rcd13ifvqdq0","pricing_plan_id":"cebpf4jnsgd1na2vs0mg"},{"bike_id":"8c7465bb-38d0-4c5c-a95d-c15db3e1fefe","system_id":"levelo_inurba_marseille","lat":43.31977,"lon":5.38136,"is_reserved":false,"is_disabled":false,"rental_uris":{"android":"levelo://app?vid=8c7465bb-38d0-4c5c-a95d-c15db3e1fefe","ios":"levelo://app?vid=8c7465bb-38d0-4c5c-a95d-c15db3e1fefe"},"vehicle_type_id":"4","last_reported":1765909105,"current_range_meters":14800,"station_id":"ce4bhr12rcd13ifvqhpg","pricing_plan_id":"cebpf4jnsgd1na2vs0mg"},{"bike_id":"0dd965e5-394e-4578-bc4b-f4a1a49a4402","system_id":"levelo_inurba_marseille","lat":43.31116,"lon":5.37768,"is_reserved":false,"is_disabled":false,"rental_uris":{"android":"levelo://app?vid=0dd965e5-394e-4578-bc4b-f4a1a49a4402","ios":"levelo://app?vid=0dd965e5-394e-4578-bc4b-f4a1a49a4402"},"vehicle_type_id":"4","last_reported":1765909105,"current_range_meters":14800,"station_id":"ce4bgt92rcd13ifvqcg0","pricing_plan_id":"cebpf4jnsgd1na2vs0mg"},{"bike_id":"21d811c1-7050-4594-a3cb-f8c92bd4ffe9","system_id":"levelo_inurba_marseille","lat":43.27906,"lon":5.38011,"is_reserved":false,"is_disabled":false,"rental_uris":{"android":"levelo://app?vid=21d811c1-7050-4594-a3cb-f8c92bd4ffe9","ios":"levelo://app?vid=21d811c1-7050-4594-a3cb-f8c92bd4ffe9"},"vehicle_type_id":"4","last_reported":1765909105,"current_range_meters":14800,"station_id":"ce4bhf92rcd13ifvqf50","pricing_plan_id":"cebpf4jnsgd1na2vs0mg"},{"bike_id":"b95a071e-c34e-4172-ae42-82d4f52a7c12","system_id":"levelo_inurba_marseille","lat":43.30146,"lon":5.39877,"is_reserved":false,"is_disabled":false,"rental_uris":{"android":"levelo://app?vid=b95a071e-c34e-4172-ae42-82d4f52a7c12","ios":"levelo://app?vid=b95a071e-c34e-4172-ae42-82d4f52a7c12"},"vehicle_type_id":"4","last_reported":1765909105,"current_range_meters":14800,"station_id":"ce4bh0h2rcd13ifvqd40","pricing_plan_id":"cebpf4jnsgd1na2vs0mg"},{"bike_id":"43e98a42-00ee-44db-bbb8-0326349684be","system_id":"levelo_inurba_marseille","lat":43.31712,"lon":5.437,"is_reserved":false,"is_disabled":false,"rental_uris":{"android":"levelo://app?vid=43e98a42-00ee-44db-bbb8-0326349684be","ios":"levelo://app?vid=43e98a42-00ee-44db-bbb8-0326349684be"},"vehicle_type_id":"4","last_reported":1765909105,"current_range_meters":14800,"station_id":"ce4bhp92rcd13ifvqhcg","pricing_plan_id":"cebpf4jnsgd1na2vs0mg"},{"bike_id":"1761dee6-2fc9-43ea-a081-e6bc83df43e8","system_id":"levelo_inurba_marseille","lat":43.31742,"lon":5.37623,"is_reserved":false,"is_disabled":false,"rental_uris":{"android":"levelo://app?vid=1761dee6-2fc9-43ea-a081-e6bc83df43e8","ios":"levelo://app?vid=1761dee6-2fc9-43ea-a081-e6bc83df43e8"},"vehicle_type_id":"4","last_reported":1765909105,"current_range_meters":15200,"station_id":"","pricing_plan_id":"cebpf4jnsgd1na2vs0mg"},{"bike_id":"63388b1a-3470-4c94-a050-28c0a98fc38d","system_id":"levelo_inurba_marseille","lat":43.29817,"lon":5.44046,"is_reserved":false,"is_disabled":false,"rental_uris":{"android":"levelo://app?vid=63388b1a-3470-4c94-a050-28c0a98fc38d","ios":"levelo://app?vid=63388b1a-3470-4c94-a050-28c0a98fc38d"},"vehicle_type_id":"4","last_reported":1765909105,"current_range_meters":15200,"station_id":"st_d3jp68qikq2c7381ktn0","pricing_plan_id":"cebpf4jnsgd1na2vs0mg"},{"bike_id":"29a5cb6a-a46c-4ea0-a272-7a2d51ec0f87","system_id":"levelo_inurba_marseille","lat":43.29301,"lon":5.3717,"is_reserved":false,"is_disabled":false,"rental_uris":{"android":"levelo://app?vid=29a5cb6a-a46c-4ea0-a272-7a2d51ec0f87","ios":"levelo://app?vid=29a5cb6a-a46c-4ea0-a272-7a2d51ec0f87"},"vehicle_type_id":"4","last_reported":1765909105,"current_range_meters":15200,"station_id":"ce4bgh92rcd13ifvqb40","pricing_plan_id":"cebpf4jnsgd1na2vs0mg"},{"bike_id":"2e2d5abd-a5ef-410b-b72e-d38d80e78f52","system_id":"levelo_inurba_marseille","lat":43.30132,"lon":5.43099,"is_reserved":false,"is_disabled":false,"rental_uris":{"android":"levelo://app?vid=2e2d5abd-a5ef-410b-b72e-d38d80e78f52","ios":"levelo://app?vid=2e2d5abd-a5ef-410b-b72e-d38d80e78f52"},"vehicle_type_id":"4","last_reported":1765909105,"current_range_meters":15200,"station_id":"st_d3js3co5814s73ftftug","pricing_plan_id":"cebpf4jnsgd1na2vs0mg"},{"bike_id":"6c7631b2-9bb1-45d3-abcd-6fdb69c6f423","system_id":"levelo_inurba_marseille","lat":43.32495,"lon":5.36574,"is_reserved":false,"is_disabled":false,"rental_uris":{"android":"levelo://app?vid=6c7631b2-9bb1-45d3-abcd-6fdb69c6f423","ios":"levelo://app?vid=6c7631b2-9bb1-45d3-abcd-6fdb69c6f423"},"vehicle_type_id":"4","last_reported":1765909105,"current_range_meters":15200,"station_id":"ce4bhs12rcd13ifvqhvg","pricing_plan_id":"cebpf4jnsgd1na2vs0mg"},{"bike_id":"2d9be9df-3d9b-45f9-8822-775a0a71b6a1","system_id":"levelo_inurba_marseille","lat":43.28146,"lon":5.4264,"is_reserved":false,"is_disabled":false,"rental_uris":{"android":"levelo://app?vid=2d9be9df-3d9b-45f9-8822-775a0a71b6a1","ios":"levelo://app?vid=2d9be9df-3d9b-45f9-8822-775a0a71b6a1"},"vehicle_type_id":"4","last_reported":1765909105,"current_range_meters":15200,"station_id":"ce4bhnh2rcd13ifvqgug","pricing_plan_id":"cebpf4jnsgd1na2vs0mg"},{"bike_id":"315cc520-8393-4987-9dfd-a5538ce7be2c","system_id":"levelo_inurba_marseille","lat":43.287,"lon":5.37386,"is_reserved":false,"is_disabled":false,"rental_uris":{"android":"levelo://app?vid=315cc520-8393-4987-9dfd-a5538ce7be2c","ios":"levelo://app?vid=315cc520-8393-4987-9dfd-a5538ce7be2c"},"vehicle_type_id":"4","last_reported":1765909105,"current_range_meters":15200,"station_id":"ce4bh3p2rcd13ifvqdq0","pricing_plan_id":"cebpf4jnsgd1na2vs0mg"},{"bike_id":"aa15371c-c7a5-4862-b7ac-faed336d9de4","system_id":"levelo_inurba_marseille","lat":43.319903,"lon":5.367451,"is_reserved":false,"is_disabled":false,"rental_uris":{"android":"levelo://app?vid=aa15371c-c7a5-4862-b7ac-faed336d9de4","ios":"levelo://app?vid=aa15371c-c7a5-4862-b7ac-faed336d9de4"},"vehicle_type_id":"4","last_reported":1765909105,"current_range_meters":15200,"station_id":"ce4bhs12rcd13ifvqhvg","pricing_plan_id":"cebpf4jnsgd1na2vs0mg"},{"bike_id":"7475d289-f2e7-434d-8620-535fd031a678","system_id":"levelo_inurba_marseille","lat":43.28449,"lon":5.35889,"is_reserved":false,"is_disabled":false,"rental_uris":{"android":"levelo://app?vid=7475d289-f2e7-434d-8620-535fd031a678","ios":"levelo://app?vid=7475d289-f2e7-434d-8620-535fd031a678"},"vehicle_type_id":"4","last_reported":1765909105,"current_range_meters":15200,"station_id":"ce4bhah2rcd13ifvqei0","pricing_plan_id":"cebpf4jnsgd1na2vs0mg"},