{"last_updated":1725034202,"ttl":30,"version":"2.2","data":{"bikes":[{"bike_id":"dde86ae7-d908-43a1-b312-739a100ba737","system_id":"levelo_inurba_marseille","lat":43.312239,"lon":5.368562,"is_reserved":false,"is_disabled":false,"rental_uris":{"android":"levelo://app?vid=dde86ae7-d908-43a1-b312-739a100ba737","ios":"levelo://app?vid=dde86ae7-d908-43a1-b312-739a100ba737"},"vehicle_type_id":"4","last_reported":1725034202,"current_range_meters":11200,"station_id":"ce4bgl92rcd13ifvqbq0","pricing_plan_id":"cebpf4jnsgd1na2vs0mg"},{"bike_id":"7a24aad8-4151-4300-a53c-7b5acbb4a0ab","system_id":"levelo_inurba_marseille","lat":43.312239,"lon":5.368562,"is_reserved":false,"is_disabled":false,"rental_uris":{"android":"levelo://app?vid=7a24aad8-4151-4300-a53c-7b5acbb4a0ab","ios":"levelo://app?vid=7a24aad8-4151-4300-a53c-7b5acbb4a0ab"},"vehicle_type_id":"4","last_reported":1725034202,"current_range_meters":20800,"station_id":"ce4bgl92rcd13ifvqbq0","pricing_plan_id":"cebpf4jnsgd1na2vs0mg"},{"bike_id":"4d84e896-7559-4f8b-af4d-60dd17d5f13f","system_id":"levelo_inurba_marseille","lat":43.314811,"lon":5.373103,"is_reserved":false,"is_disabled":false,"rental_uris":{"android":"levelo://app?vid=4d84e896-7559-4f8b-af4d-60dd17d5f13f","ios":"levelo://app?vid=4d84e896-7559-4f8b-af4d-60dd17d5f13f"},"vehicle_type_id":"4","last_reported":1725034202,"current_range_meters":20000,"station_id":"ce4bgt12rcd13ifvqcd0","pricing_plan_id":"cebpf4jnsgd1na2vs0mg"},{"bike_id":"8f3b7c3f-26fd-4110-998b-db35a667028c","system_id":"levelo_inurba_marseille","lat":43.305368,"lon":5.367343,"is_reserved":false,"is_disabled":false,"rental_uris":{"android":"levelo://app?vid=8f3b7c3f-26fd-4110-998b-db35a667028c","ios":"levelo://app?vid=8f3b7c3f-26fd-4110-998b-db35a667028c"},"vehicle_type_id":"4","last_reported":1725034202,"current_range_meters":0,"station_id":"ce4bgrp2rcd13ifvqc9g","pricing_plan_id":"cebpf4jnsgd1na2vs0mg"},{"bike_id":"53b12bc9-0a90-475b-9944-f49141ab9c78","system_id":"levelo_inurba_marseille","lat":43.3054,"lon":5.36709,"is_reserved":false,"is_disabled":false,"rental_uris":{"android":"levelo://app?vid=53b12bc9-0a90-475b-9944-f49141ab9c78","ios":"levelo://app?vid=53b12bc9-0a90-475b-9944-f49141ab9c78"},"vehicle_type_id":"4","last_reported":1725034202,"current_range_meters":0,"station_id":"ce4bgrp2rcd13ifvqc9g","pricing_plan_id":"cebpf4jnsgd1na2vs0mg"},{"bike_id":"214dc421-d20c-4dbd-9b39-17c73a4c5f6e","system_id":"levelo_inurba_marseille","lat":43.305714,"lon":5.365633,"is_reserved":false,"is_disabled":false,"rental_uris":{"android":"levelo://app?vid=214dc421-d20c-4dbd-9b39-17c73a4c5f6e","ios":"levelo://app?vid=214dc421-d20c-4dbd-9b39-17c73a4c5f6e"},"vehicle_type_id":"4","last_reported":1725034202,"current_range_meters":0,"station_id":"ce4bgs12rcd13ifvqcag","pricing_plan_id":"cebpf4jnsgd1na2vs0mg"},{"bike_id":"7c943e52-7cf6-4c18-abd2-f0d7e820deaa","system_id":"levelo_inurba_marseille","lat":43.305368,"lon":5.367343,"is_reserved":false,"is_disabled":false,"rental_uris":{"android":"levelo://app?vid=7c943e52-7cf6-4c18-abd2-f0d7e820deaa","ios":"levelo://app?vid=7c943e52-7cf6-4c18-abd2-f0d7e820deaa"},"vehicle_type_id":"4","last_reported":1725034202,"current_range_meters":20400,"station_id":"ce4bgrp2rcd13ifvqc9g","pricing_plan_id":"cebpf4jnsgd1na2vs0mg"},{"bike_id":"d7a3fe9a-25ab-4099-b73b-b50931850546","system_id":"levelo_inurba_marseille","lat":43.311131,"lon":5.377651,"is_reserved":false,"is_disabled":false,"rental_uris":{"android":"levelo://app?vid=d7a3fe9a-25ab-4099-b73b-b50931850546","ios":"levelo://app?vid=d7a3fe9a-25ab-4099-b73b-b50931850546"},"vehicle_type_id":"4","last_reported":1725034202,"current_range_meters":10400,"station_id":"ce4bgt92rcd13ifvqcg0","pricing_plan_id":"cebpf4jnsgd1na2vs0mg"},{"bike_id":"a51de440-6fa1-4113-980b-13699ed9af1e","system_id":"levelo_inurba_marseille","lat":43.311125,"lon":5.377624,"is_reserved":false,"is_disabled":false,"rental_uris":{"android":"levelo://app?vid=a51de440-6fa1-4113-980b-13699ed9af1e","ios":"levelo://app?vid=a51de440-6fa1-4113-980b-13699ed9af1e"},"vehicle_type_id":"4","last_reported":1725034202,"current_range_meters":12400,"station_id":"ce4bgt92rcd13ifvqcg0","pricing_plan_id":"cebpf4jnsgd1na2vs0mg"},{"bike_id":"578fcd73-1d78-40ca-b482-12829f813d24","system_id":"levelo_inurba_marseille","lat":43.31127,"lon":5.37768,"is_reserved":false,"is_disabled":false,"rental_uris":{"android":"levelo://app?vid=578fcd73-1d78-40ca-b482-12829f813d24","ios":"levelo://app?vid=578fcd73-1d78-40ca-b482-12829f813d24"},"vehicle_type_id":"4","last_reported":1725034202,"current_range_meters":7600,"station_id":"ce4bgt92rcd13ifvqcg0","pricing_plan_id":"cebpf4jnsgd1na2vs0mg"},{"bike_id":"e3cb74c3-3ff1-4ac9-8557-56229eb1f145","system_id":"levelo_inurba_marseille","lat":43.311125,"lon":5.377624,"is_reserved":false,"is_disabled":false,"rental_uris":{"android":"levelo://app?vid=e3cb74c3-3ff1-4ac9-8557-56229eb1f145","ios":"levelo://app?vid=e3cb74c3-3ff1-4ac9-8557-56229eb1f145"},"vehicle_type_id":"4","last_reported":1725034202,"current_range_meters":12000,"station_id":"ce4bgt92rcd13ifvqcg0","pricing_plan_id":"cebpf4jnsgd1na2vs0mg"},{"bike_id":"4d9d5f74-3f7c-40f6-9754-7d488a6040d8","system_id":"levelo_inurba_marseille","lat":43.317075,"lon":5.377367,"is_reserved":false,"is_disabled":false,"rental_uris":{"android":"levelo://app?vid=4d9d5f74-3f7c-40f6-9754-7d488a6040d8","ios":"levelo://app?vid=4d9d5f74-3f7c-40f6-9754-7d488a6040d8"},"vehicle_type_id":"4","last_reported":1725034202,"current_range_meters":5200,"station_id":"ce4bgth2rcd13ifvqch0","pricing_plan_id":"cebpf4jnsgd1na2vs0mg"},{"bike_id":"98c0e859-4700-4ef0-8d5f-81b35b25a9e1","system_id":"levelo_inurba_marseille","lat":43.317075,"lon":5.377367,"is_reserved":false,"is_disabled":false,"rental_uris":{"android":"levelo://app?vid=98c0e859-4700-4ef0-8d5f-81b35b25a9e1","ios":"levelo://app?vid=98c0e859-4700-4ef0-8d5f-81b35b25a9e1"},"vehicle_type_id":"4","last_reported":1725034202,"current_range_meters":16800,"station_id":"ce4bgth2rcd13ifvqch0","pricing_plan_id":"cebpf4jnsgd1na2vs0mg"},{"bike_id":"5668a3fc-0479-4b9e-bccc-5b0efa76d224","system_id":"levelo_inurba_marseille","lat":43.30308,"lon":5.36872,"is_reserved":false,"is_disabled":false,"rental_uris":{"android":"levelo://app?vid=5668a3fc-0479-4b9e-bccc-5b0efa76d224","ios":"levelo://app?vid=5668a3fc-0479-4b9e-bccc-5b0efa76d224"},"vehicle_type_id":"4","last_reported":1725034202,"current_range_meters":7200,"station_id":"ce4bgqh2rcd13ifvqc5g","pricing_plan_id":"cebpf4jnsgd1na2vs0mg"},{"bike_id":"b267ce73-4a9e-4167-a3c0-6ef467297da4","system_id":"levelo_inurba_marseille","lat":43.30307,"lon":5.36897,"is_reserved":false,"is_disabled":false,"rental_uris":{"android":"levelo://app?vid=b267ce73-4a9e-4167-a3c0-6ef467297da4","ios":"levelo://app?vid=b267ce73-4a9e-4167-a3c0-6ef467297da4"},"vehicle_type_id":"4","last_reported":1725034202,"current_range_meters":26800,"station_id":"ce4bgqh2rcd13ifvqc5g","pricing_plan_id":"cebpf4jnsgd1na2vs0mg"},{"bike_id":"1c6d3a62-e1fc-4cf6-800a-9645f0cbc619","system_id":"levelo_inurba_marseille","lat":43.303046,"lon":5.368981,"is_reserved":false,"is_disabled":false,"rental_uris":{"android":"levelo://app?vid=1c6d3a62-e1fc-4cf6-800a-9645f0cbc619","ios":"levelo://app?vid=1c6d3a62-e1fc-4cf6-800a-9645f0cbc619"},"vehicle_type_id":"4","last_reported":1725034202,"current_range_meters":7600,"station_id":"ce4bgqh2rcd13ifvqc5g","pricing_plan_id":"cebpf4jnsgd1na2vs0mg"},{"bike_id":"83ad24c0-dcc2-4074-84a7-0b26645f8207","system_id":"levelo_inurba_marseille","lat":43.315289,"lon":5.380349,"is_reserved":false,"is_disabled":false,"rental_uris":{"android":"levelo://app?vid=83ad24c0-dcc2-4074-84a7-0b26645f8207","ios":"levelo://app?vid=83ad24c0-dcc2-4074-84a7-0b26645f8207"},"vehicle_type_id":"4","last_reported":1725034202,"current_range_meters":28400,"station_id":"ce4bhsp2rcd13ifvqi50","pricing_plan_id":"cebpf4jnsgd1na2vs0mg"},{"bike_id":"17abc87e-4d1b-47e2-876a-7df007d10412","system_id":"levelo_inurba_marseille","lat":43.301939,"lon":5.366286,"is_reserved":false,"is_disabled":false,"rental_uris":{"android":"levelo://app?vid=17abc87e-4d1b-47e2-876a-7df007d10412","ios":"levelo://app?vid=17abc87e-4d1b-47e2-876a-7df007d10412"},"vehicle_type_id":"4","last_reported":1725034202,"current_range_meters":10000,"station_id":"ce4bgrh2rcd13ifvqc8g","pricing_plan_id":"cebpf4jnsgd1na2vs0mg"},{"bike_id":"43a9b30a-e048-4ce3-9cce-f9ba45e82585","system_id":"levelo_inurba_marseille","lat":43.301939,"lon":5.366286,"is_reserved":false,"is_disabled":false,"rental_uris":{"android":"levelo://app?vid=43a9b30a-e048-4ce3-9cce-f9ba45e82585","ios":"levelo://app?vid=43a9b30a-e048-4ce3-9cce-f9ba45e82585"},"vehicle_type_id":"4","last_reported":1725034202,"current_range_meters":5600,"station_id":"ce4bgrh2rcd13ifvqc8g","pricing_plan_id":"cebpf4jnsgd1na2vs0mg"},{"bike_id":"317d3ff4-472c-4d6f-9b21-e7529d810659","system_id":"levelo_inurba_marseille","lat":43.324771,"lon":5.36557,"is_reserved":false,"is_disabled":false,"rental_uris":{"android":"levelo://app?vid=317d3ff4-472c-4d6f-9b21-e7529d810659","ios":"levelo://app?vid=317d3ff4-472c-4d6f-9b21-e7529d810659"},"vehicle_type_id":"4","last_reported":1725034202,"current_range_meters":2000,"station_id":"ce4bhs12rcd13ifvqhvg","pricing_plan_id":"cebpf4jnsgd1na2vs0mg"},{"bike_id":"3948a4c9-17f4-4157-a7b7-f5ed34e955c8","system_id":"levelo_inurba_marseille","lat":43.310804,"lon":5.38359,"is_reserved":false,"is_disabled":false,"rental_uris":{"android":"levelo://app?vid=3948a4c9-17f4-4157-a7b7-f5ed34e955c8","ios":"levelo://app?vid=3948a4c9-17f4-4157-a7b7-f5ed34e955c8"},"vehicle_type_id":"4","last_reported":1725034202,"current_range_meters":12800,"station_id":"ce4bgv92rcd13ifvqcr0","pricing_plan_id":"cebpf4jnsgd1na2vs0mg"},{"bike_id":"71a4ba01-fb8d-4359-a3d5-6833db3be625","system_id":"levelo_inurba_marseille","lat":43.30143,"lon":5.37413,"is_reserved":false,"is_disabled":false,"rental_uris":{"android":"levelo://app?vid=71a4ba01-fb8d-4359-a3d5-6833db3be625","ios":"levelo://app?vid=71a4ba01-fb8d-4359-a3d5-6833db3be625"},"vehicle_type_id":"4","last_reported":1725034202,"current_range_meters":20800,"station_id":"ce4bgs92rcd13ifvqcc0","pricing_plan_id":"cebpf4jnsgd1na2vs0mg"},{"bike_id":"6207c27f-7267-4f69-97f7-714a80cfa293","system_id":"levelo_inurba_marseille","lat":43.31984,"lon":5.38146,"is_reserved":false,"is_disabled":false,"rental_uris":{"android":"levelo://app?vid=6207c27f-7267-4f69-97f7-714a80cfa293","ios":"levelo://app?vid=6207c27f-7267-4f69-97f7-714a80cfa293"},"vehicle_type_id":"4","last_reported":1725034202,"current_range_meters":0,"station_id":"","pricing_plan_id":"cebpf4jnsgd1na2vs0mg"},{"bike_id":"eed7d355-3afe-4cb9-98a4-0c4a1483e4c2","system_id":"levelo_inurba_marseille","lat":43.319935,"lon":5.381699,"is_reserved":false,"is_disabled":false,"rental_uris":{"android":"levelo://app?vid=eed7d355-3afe-4cb9-98a4-0c4a1483e4c2","ios":"levelo://app?vid=eed7d355-3afe-4cb9-98a4-0c4a1483e4c2"},"vehicle_type_id":"4","last_reported":1725034202,"current_range_meters":22000,"station_id":"ce4bhr12rcd13ifvqhpg","pricing_plan_id":"cebpf4jnsgd1na2vs0mg"},{"bike_id":"5b8cf1be-49b8-4fa9-af3c-9576cf4d3996","system_id":"levelo_inurba_marseille","lat":43.319935,"lon":5.381699,"is_reserved":false,"is_disabled":false,"rental_uris":{"android":"levelo://app?vid=5b8cf1be-49b8-4fa9-af3c-9576cf4d3996","ios":"levelo://app?vid=5b8cf1be-49b8-4fa9-af3c-9576cf4d3996"},"vehicle_type_id":"4","last_reported":1725034202,"current_range_meters":11200,"station_id":"ce4bhr12rcd13ifvqhpg","pricing_plan_id":"cebpf4jnsgd1na2vs0mg"},{"bike_id":"3f63413f-e844-491c-be07-fe23d1f488e5","system_id":"levelo_inurba_marseille","lat":43.313571,"lon":5.384829,"is_reserved":false,"is_disabled":false,"rental_uris":{"android":"levelo://app?vid=3f63413f-e844-491c-be07-fe23d1f488e5","ios":"levelo://app?vid=3f63413f-e844-491c-be07-fe23d1f488e5"},"vehicle_type_id":"4","last_reported":1725034202,"current_range_meters":4400,"station_id":"ce4bgt92rcd13ifvqcf0","pricing_plan_id":"cebpf4jnsgd1na2vs0mg"},{"bike_id":"be0846f7-43e1-4645-90a1-bb60ac589502","system_id":"levelo_inurba_marseille","lat":43.299243,"lon":5.374807,"is_reserved":false,"is_disabled":false,"rental_uris":{"android":"levelo://app?vid=be0846f7-43e1-4645-90a1-bb60ac589502","ios":"levelo://app?vid=be0846f7-43e1-4645-90a1-bb60ac589502"},"vehicle_type_id":"4","last_reported":1725034202,"current_range_meters":2400,"station_id":"ce4bgjh2rcd13ifvqbg0","pricing_plan_id":"cebpf4jnsgd1na2vs0mg"},{"bike_id":"ca964045-35e3-4c5a-bba5-18f792bf96c8","system_id":"levelo_inurba_marseille","lat":43.31167,"lon":5.38717,"is_reserved":false,"is_disabled":false,"rental_uris":{"android":"levelo://app?vid=ca964045-35e3-4c5a-bba5-18f792bf96c8","ios":"levelo://app?vid=ca964045-35e3-4c5a-bba5-18f792bf96c8"},"vehicle_type_id":"4","last_reported":1725034202,"current_range_meters":0,"station_id":"ce4bgv12rcd13ifvqcp0","pricing_plan_id":"cebpf4jnsgd1na2vs0mg"},{"bike_id":"5dab5cf6-ce81-44f7-ae12-6beae2267091","system_id":"levelo_inurba_marseille","lat":43.301417,"lon":5.3809,"is_reserved":false,"is_disabled":false,"rental_uris":{"android":"levelo://app?vid=5dab5cf6-ce81-44f7-ae12-6beae2267091","ios":"levelo://app?vid=5dab5cf6-ce81-44f7-ae12-6beae2267091"},"vehicle_type_id":"4","last_reported":1725034202,"current_range_meters":10400,"station_id":"ce4bgjp2rcd13ifvqbh0","pricing_plan_id":"cebpf4jnsgd1na2vs0mg"},{"bike_id":"cb73b66e-dfa6-4f93-80b9-a70c2f549e78","system_id":"levelo_inurba_marseille","lat":43.32294,"lon":5.38259,"is_reserved":false,"is_disabled":false,"rental_uris":{"android":"levelo://app?vid=cb73b66e-dfa6-4f93-80b9-a70c2f549e78","ios":"levelo://app?vid=cb73b66e-dfa6-4f93-80b9-a70c2f549e78"},"vehicle_type_id":"4","last_reported":1725034202,"current_range_meters":24000,"station_id":"ce4bhr12rcd13ifvqhqg","pricing_plan_id":"cebpf4jnsgd1na2vs0mg"},{"bike_id":"d1d550d3-5200-4f30-b9db-c79bf6bc7c2c","system_id":"levelo_inurba_marseille","lat":43.297774,"lon":5.370875,"is_reserved":false,"is_disabled":false,"rental_uris":{"android":"levelo://app?vid=d1d550d3-5200-4f30-b9db-c79bf6bc7c2c","ios":"levelo://app?vid=d1d550d3-5200-4f30-b9db-c79bf6bc7c2c"},"vehicle_type_id":"4","last_reported":1725034202,"current_range_meters":7200,"station_id":"ce4bgop2rcd13ifvqc1g","pricing_plan_id":"cebpf4jnsgd1na2vs0mg"},{"bike_id":"362c03bc-6a28-4cdb-8a8a-77181789a6ff","system_id":"levelo_inurba_marseille","lat":43.311722,"lon":5.387247,"is_reserved":false,"is_disabled":false,"rental_uris":{"android":"levelo://app?vid=362c03bc-6a28-4cdb-8a8a-77181789a6ff","ios":"levelo://app?vid=362c03bc-6a28-4cdb-8a8a-77181789a6ff"},"vehicle_type_id":"4","last_reported":1725034202,"current_range_meters":24400,"station_id":"ce4bgv12rcd13ifvqcp0","pricing_plan_id":"cebpf4jnsgd1na2vs0mg"},{"bike_id":"f80cfea7-0989-463e-af6c-8edcb451d63a","system_id":"levelo_inurba_marseille","lat":43.29721,"lon":5.36878,"is_reserved":false,"is_disabled":false,"rental_uris":{"android":"levelo://app?vid=f80cfea7-0989-463e-af6c-8edcb451d63a","ios":"levelo://app?vid=f80cfea7-0989-463e-af6c-8edcb451d63a"},"vehicle_type_id":"4","last_reported":1725034202,"current_range_meters":15600,"station_id":"","pricing_plan_id":"cebpf4jnsgd1na2vs0mg"},{"bike_id":"5f0e73b2-d1b0-4341-9825-94a0496f2c48","system_id":"levelo_inurba_marseille","lat":43.297163,"lon":5.365866,"is_reserved":false,"is_disabled":false,"rental_uris":{"android":"levelo://app?vid=5f0e73b2-d1b0-4341-9825-94a0496f2c48","ios":"levelo://app?vid=5f0e73b2-d1b0-4341-9825-94a0496f2c48"},"vehicle_type_id":"4","last_reported":1725034202,"current_range_meters":0,"station_id":"ce4bgn12rcd13ifvqbt0","pricing_plan_id":"cebpf4jnsgd1na2vs0mg"},{"bike_id":"ceddfc2a-6372-4fb5-ba7b-9615caa62723","system_id":"levelo_inurba_marseille","lat":43.29899,"lon":5.38021,"is_reserved":false,"is_disabled":false,"rental_uris":{"android":"levelo://app?vid=ceddfc2a-6372-4fb5-ba7b-9615caa62723","ios":"levelo://app?vid=ceddfc2a-6372-4fb5-ba7b-9615caa62723"},"vehicle_type_id":"4","last_reported":1725034202,"current_range_meters":6400,"station_id":"","pricing_plan_id":"cebpf4jnsgd1na2vs0mg"},{"bike_id":"c8ea7346-a9de-4ebe-9e25-4d0c3cd531af","system_id":"levelo_inurba_marseille","lat":43.296131,"lon":5.370791,"is_reserved":false,"is_disabled":false,"rental_uris":{"android":"levelo://app?vid=c8ea7346-a9de-4ebe-9e25-4d0c3cd531af","ios":"levelo://app?vid=c8ea7346-a9de-4ebe-9e25-4d0c3cd531af"},"vehicle_type_id":"4","last_reported":1725034202,"current_range_meters":2400,"station_id":"ce4bgnh2rcd13ifvqc0g","pricing_plan_id":"cebpf4jnsgd1na2vs0mg"},{"bike_id":"f7c26ae6-c9e2-4524-8cce-fa5c5b0640dd","system_id":"levelo_inurba_marseille","lat":43.296935,"lon":5.376544,"is_reserved":false,"is_disabled":false,"rental_uris":{"android":"levelo://app?vid=f7c26ae6-c9e2-4524-8cce-fa5c5b0640dd","ios":"levelo://app?vid=f7c26ae6-c9e2-4524-8cce-fa5c5b0640dd"},"vehicle_type_id":"4","last_reported":1725034202,"current_range_meters":21200,"station_id":"ce4bgkh2rcd13ifvqbl0","pricing_plan_id":"cebpf4jnsgd1na2vs0mg"},{"bike_id":"ad43ca1b-6496-492a-9dd8-6dd67c551272","system_id":"levelo_inurba_marseille","lat":43.30954,"lon":5.39021,"is_reserved":false,"is_disabled":false,"rental_uris":{"android":"levelo://app?vid=ad43ca1b-6496-492a-9dd8-6dd67c551272","ios":"levelo://app?vid=ad43ca1b-6496-492a-9dd8-6dd67c551272"},"vehicle_type_id":"4","last_reported":1725034202,"current_range_meters":27600,"station_id":"ce4bgup2rcd13ifvqco0","pricing_plan_id":"cebpf4jnsgd1na2vs0mg"},{"bike_id":"7856dd42-e5db-4d6c-95f8-87b731effc34","system_id":"levelo_inurba_marseille","lat":43.309443,"lon":5.3902,"is_reserved":false,"is_disabled":false,"rental_uris":{"android":"levelo://app?vid=7856dd42-e5db-4d6c-95f8-87b731effc34","ios":"levelo://app?vid=7856dd42-e5db-4d6c-95f8-87b731effc34"},"vehicle_type_id":"4","last_reported":1725034202,"current_range_meters":26400,"station_id":"ce4bgup2rcd13ifvqco0","pricing_plan_id":"cebpf4jnsgd1na2vs0mg"},{"bike_id":"d3f5bed6-db20-40dc-8a58-8c6c2542622a","system_id":"levelo_inurba_marseille","lat":43.309589,"lon":5.390258,"is_reserved":false,"is_disabled":false,"rental_uris":{"android":"levelo://app?vid=d3f5bed6-db20-40dc-8a58-8c6c2542622a","ios":"levelo://app?vid=d3f5bed6-db20-40dc-8a58-8c6c2542622a"},"vehicle_type_id":"4","last_reported":1725034202,"current_range_meters":20400,"station_id":"ce4bgup2rcd13ifvqco0","pricing_plan_id":"cebpf4jnsgd1na2vs0mg"},{"bike_id":"e7a3689b-d055-4773-acec-5c6ba73dfce9","system_id":"levelo_inurba_marseille","lat":43.309589,"lon":5.390258,"is_reserved":false,"is_disabled":false,"rental_uris":{"android":"levelo://app?vid=e7a3689b-d055-4773-acec-5c6ba73dfce9","ios":"levelo://app?vid=e7a3689b-d055-4773-acec-5c6ba73dfce9"},"vehicle_type_id":"4","last_reported":1725034202,"current_range_meters":24400,"station_id":"ce4bgup2rcd13ifvqco0","pricing_plan_id":"cebpf4jnsgd1na2vs0mg"},{"bike_id":"69311b30-be50-4381-8ee7-f15cec0d2c10","system_id":"levelo_inurba_marseille","lat":43.30957,"lon":5.39027,"is_reserved":false,"is_disabled":false,"rental_uris":{"android":"levelo://app?vid=69311b30-be50-4381-8ee7-f15cec0d2c10","ios":"levelo://app?vid=69311b30-be50-4381-8ee7-f15cec0d2c10"},"vehicle_type_id":"4","last_reported":1725034202,"current_range_meters":23200,"station_id":"ce4bgup2rcd13ifvqco0","pricing_plan_id":"cebpf4jnsgd1na2vs0mg"},{"bike_id":"551295f7-6f41-4441-b7d6-d74c4efd4af9","system_id":"levelo_inurba_marseille","lat":43.309589,"lon":5.390258,"is_reserved":false,"is_disabled":false,"rental_uris":{"android":"levelo://app?vid=551295f7-6f41-4441-b7d6-d74c4efd4af9","ios":"levelo://app?vid=551295f7-6f41-4441-b7d6-d74c4efd4af9"},"vehicle_type_id":"4","last_reported":1725034202,"current_range_meters":11600,"station_id":"ce4bgup2rcd13ifvqco0","pricing_plan_id":"cebpf4jnsgd1na2vs0mg"},{"bike_id":"1ce25cf8-3827-41ca-98da-ee19fb0f21b9","system_id":"levelo_inurba_marseille","lat":43.309589,"lon":5.390258,"is_reserved":false,"is_disabled":false,"rental_uris":{"android":"levelo://app?vid=1ce25cf8-3827-41ca-98da-ee19fb0f21b9","ios":"levelo://app?vid=1ce25cf8-3827-41ca-98da-ee19fb0f21b9"},"vehicle_type_id":"4","last_reported":1725034202,"current_range_meters":10000,"station_id":"ce4bgup2rcd13ifvqco0","pricing_plan_id":"cebpf4jnsgd1na2vs0mg"},{"bike_id":"cdda4406-c5d4-482c-9aa6-7fc247fc0a7e","system_id":"levelo_inurba_marseille","lat":43.309589,"lon":5.390258,"is_reserved":false,"is_disabled":false,"rental_uris":{"android":"levelo://app?vid=cdda4406-c5d4-482c-9aa6-7fc247fc0a7e","ios":"levelo://app?vid=cdda4406-c5d4-482c-9aa6-7fc247fc0a7e"},"vehicle_type_id":"4","last_reported":1725034202,"current_range_meters":0,"station_id":"ce4bgup2rcd13ifvqco0","pricing_plan_id":"cebpf4jnsgd1na2vs0mg"},{"bike_id":"8ac0f379-a87e-4ebe-842c-7cc83d01e5db","system_id":"levelo_inurba_marseille","lat":43.309589,"lon":5.390258,"is_reserved":false,"is_disabled":false,"rental_uris":{"android":"levelo://app?vid=8ac0f379-a87e-4ebe-842c-7cc83d01e5db","ios":"levelo://app?vid=8ac0f379-a87e-4ebe-842c-7cc83d01e5db"},"vehicle_type_id":"4","last_reported":1725034202,"current_range_meters":15600,"station_id":"ce4bgup2rcd13ifvqco0","pricing_plan_id":"cebpf4jnsgd1na2vs0mg"},{"bike_id":"74984e22-0963-4234-940d-be1a26ed5e22","system_id":"levelo_inurba_marseille","lat":43.30955,"lon":5.39031,"is_reserved":false,"is_disabled":false,"rental_uris":{"android":"levelo://app?vid=74984e22-0963-4234-940d-be1a26ed5e22","ios":"levelo://app?vid=74984e22-0963-4234-940d-be1a26ed5e22"},"vehicle_type_id":"4","last_reported":1725034202,"current_range_meters":15600,"station_id":"ce4bgup2rcd13ifvqco0","pricing_plan_id":"cebpf4jnsgd1na2vs0mg"},{"bike_id":"7c7d84f4-1dc1-4629-929d-d71bd8489d30","system_id":"levelo_inurba_marseille","lat":43.309589,"lon":5.390258,"is_reserved":false,"is_disabled":false,"rental_uris":{"android":"levelo://app?vid=7c7d84f4-1dc1-4629-929d-d71bd8489d30","ios":"levelo://app?vid=7c7d84f4-1dc1-4629-929d-d71bd8489d30"},"vehicle_type_id":"4","last_reported":1725034202,"current_range_meters":14800,"station_id":"ce4bgup2rcd13ifvqco0","pricing_plan_id":"cebpf4jnsgd1na2vs0mg"},{"bike_id":"351ba214-71f0-4aaf-aa09-8b2706983648","system_id":"levelo_inurba_marseille","lat":43.30955,"lon":5.39037,"is_reserved":false,"is_disabled":false,"rental_uris":{"android":"levelo://app?vid=351ba214-71f0-4aaf-aa09-8b2706983648","ios":"levelo://app?vid=351ba214-71f0-4aaf-aa09-8b2706983648"},"vehicle_type_id":"4","last_reported":1725034202,"current_range_meters":3200,"station_id":"ce4bgup2rcd13ifvqco0","pricing_plan_id":"cebpf4jnsgd1na2vs0mg"},{"bike_id":"8e09f62e-9c53-4a65-94ee-54d5039217e4","system_id":"levelo_inurba_marseille","lat":43.317557,"lon":5.390173,"is_reserved":false,"is_disabled":false,"rental_uris":{"android":"levelo://app?vid=8e09f62e-9c53-4a65-94ee-54d5039217e4","ios":"levelo://app?vid=8e09f62e-9c53-4a65-94ee-54d5039217e4"},"vehicle_type_id":"4","last_reported":1725034202,"current_range_meters":8800,"station_id":"ce4bhqp2rcd13ifvqhng","pricing_plan_id":"cebpf4jnsgd1na2vs0mg"},{"bike_id":"8262b081-c886-494f-a5f1-30d01a5c09d8","system_id":"levelo_inurba_marseille","lat":43.317557,"lon":5.390173,"is_reserved":false,"is_disabled":false,"rental_uris":{"android":"levelo://app?vid=8262b081-c886-494f-a5f1-30d01a5c09d8","ios":"levelo://app?vid=8262b081-c886-494f-a5f1-30d01a5c09d8"},"vehicle_type_id":"4","last_reported":1725034202,"current_range_meters":17600,"station_id":"ce4bhqp2rcd13ifvqhng","pricing_plan_id":"cebpf4jnsgd1na2vs0mg"},{"bike_id":"6e0c408c-52da-4eda-9568-fa47cf1c07d4","system_id":"levelo_inurba_marseille","lat":43.317557,"lon":5.390173,"is_reserved":false,"is_disabled":false,"rental_uris":{"android":"levelo://app?vid=6e0c408c-52da-4eda-9568-fa47cf1c07d4","ios":"levelo://app?vid=6e0c408c-52da-4eda-9568-fa47cf1c07d4"},"vehicle_type_id":"4","last_reported":1725034202,"current_range_meters":13200,"station_id":"ce4bhqp2rcd13ifvqhng","pricing_plan_id":"cebpf4jnsgd1na2vs0mg"},{"bike_id":"32113990-32bb-460d-b84a-e1b64dd537e3","system_id":"levelo_inurba_marseille","lat":43.317557,"lon":5.390173,"is_reserved":false,"is_disabled":false,"rental_uris":{"android":"levelo://app?vid=32113990-32bb-460d-b84a-e1b64dd537e3","ios":"levelo://app?vid=32113990-32bb-460d-b84a-e1b64dd537e3"},"vehicle_type_id":"4","last_reported":1725034202,"current_range_meters":5200,"station_id":"ce4bhqp2rcd13ifvqhng","pricing_plan_id":"cebpf4jnsgd1na2vs0mg"},{"bike_id":"58aa9bdb-8595-489c-9775-e469aa97196e","system_id":"levelo_inurba_marseille","lat":43.296277,"lon":5.377108,"is_reserved":false,"is_disabled":false,"rental_uris":{"android":"levelo://app?vid=58aa9bdb-8595-489c-9775-e469aa97196e","ios":"levelo://app?vid=58aa9bdb-8595-489c-9775-e469aa97196e"},"vehicle_type_id":"4","last_reported":1725034202,"current_range_meters":8000,"station_id":"ce4bgi92rcd13ifvqb90","pricing_plan_id":"cebpf4jnsgd1na2vs0mg"},{"bike_id":"8a8887de-5c7d-4b1c-91b2-78e9c920b48d","system_id":"levelo_inurba_marseille","lat":43.2957,"lon":5.37525,"is_reserved":false,"is_disabled":false,"rental_uris":{"android":"levelo://app?vid=8a8887de-5c7d-4b1c-91b2-78e9c920b48d","ios":"levelo://app?vid=8a8887de-5c7d-4b1c-91b2-78e9c920b48d"},"vehicle_type_id":"4","last_reported":1725034202,"current_range_meters":29200,"station_id":"ce4bgh92rcd13ifvqb50","pricing_plan_id":"cebpf4jnsgd1na2vs0mg"},{"bike_id":"e0f3199a-aef8-4a18-b727-f0601ee6d1c4","system_id":"levelo_inurba_marseille","lat":43.296263,"lon":5.377094,"is_reserved":false,"is_disabled":false,"rental_uris":{"android":"levelo://app?vid=e0f3199a-aef8-4a18-b727-f0601ee6d1c4","ios":"levelo://app?vid=e0f3199a-aef8-4a18-b727-f0601ee6d1c4"},"vehicle_type_id":"4","last_reported":1725034202,"current_range_meters":22000,"station_id":"ce4bgi92rcd13ifvqb90","pricing_plan_id":"cebpf4jnsgd1na2vs0mg"},{"bike_id":"f840659e-c49d-4f08-94c6-70fadd8dff31","system_id":"levelo_inurba_marseille","lat":43.304274,"lon":5.388873,"is_reserved":false,"is_disabled":false,"rental_uris":{"android":"levelo://app?vid=f840659e-c49d-4f08-94c6-70fadd8dff31","ios":"levelo://app?vid=f840659e-c49d-4f08-94c6-70fadd8dff31"},"vehicle_type_id":"4","last_reported":1725034202,"current_range_meters":9200,"station_id":"ce4bgk12rcd13ifvqbi0","pricing_plan_id":"cebpf4jnsgd1na2vs0mg"},{"bike_id":"a1eb1c81-bcd3-478a-97fb-0144c34b5c43","system_id":"levelo_inurba_marseille","lat":43.296277,"lon":5.377108,"is_reserved":false,"is_disabled":false,"rental_uris":{"android":"levelo://app?vid=a1eb1c81-bcd3-478a-97fb-0144c34b5c43","ios":"levelo://app?vid=a1eb1c81-bcd3-478a-97fb-0144c34b5c43"},"vehicle_type_id":"4","last_reported":1725034202,"current_range_meters":0,"station_id":"ce4bgi92rcd13ifvqb90","pricing_plan_id":"cebpf4jnsgd1na2vs0mg"},{"bike_id":"c36e06fe-1702-42c2-ba69-da65e0e73452","system_id":"levelo_inurba_marseille","lat":43.299707,"lon":5.384859,"is_reserved":false,"is_disabled":false,"rental_uris":{"android":"levelo://app?vid=c36e06fe-1702-42c2-ba69-da65e0e73452","ios":"levelo://app?vid=c36e06fe-1702-42c2-ba69-da65e0e73452"},"vehicle_type_id":"4","last_reported":1725034202,"current_range_meters":12400,"station_id":"ce4bgj92rcd13ifvqbd0","pricing_plan_id":"cebpf4jnsgd1na2vs0mg"},{"bike_id":"aa1f252a-3079-4b15-8217-db56fd6a5fce","system_id":"levelo_inurba_marseille","lat":43.299707,"lon":5.384859,"is_reserved":false,"is_disabled":false,"rental_uris":{"android":"levelo://app?vid=aa1f252a-3079-4b15-8217-db56fd6a5fce","ios":"levelo://app?vid=aa1f252a-3079-4b15-8217-db56fd6a5fce"},"vehicle_type_id":"4","last_reported":1725034202,"current_range_meters":0,"station_id":"ce4bgj92rcd13ifvqbd0","pricing_plan_id":"cebpf4jnsgd1na2vs0mg"},{"bike_id":"8c61c1dc-c6ab-4424-bdba-68b64a894167","system_id":"levelo_inurba_marseille","lat":43.299707,"lon":5.384859,"is_reserved":false,"is_disabled":false,"rental_uris":{"android":"levelo://app?vid=8c61c1dc-c6ab-4424-bdba-68b64a894167","ios":"levelo://app?vid=8c61c1dc-c6ab-4424-bdba-68b64a894167"},"vehicle_type_id":"4","last_reported":1725034202,"current_range_meters":0,"station_id":"ce4bgj92rcd13ifvqbd0","pricing_plan_id":"cebpf4jnsgd1na2vs0mg"},{"bike_id":"123f66e5-3c25-4eec-975b-0b5342f5a95d","system_id":"levelo_inurba_marseille","lat":43.301396,"lon":5.387812,"is_reserved":false,"is_disabled":false,"rental_uris":{"android":"levelo://app?vid=123f66e5-3c25-4eec-975b-0b5342f5a95d","ios":"levelo://app?vid=123f66e5-3c25-4eec-975b-0b5342f5a95d"},"vehicle_type_id":"4","last_reported":1725034202,"current_range_meters":29600,"station_id":"ce4bghh2rcd13ifvqb60","pricing_plan_id":"cebpf4jnsgd1na2vs0mg"},{"bike_id":"5f65083e-3e3e-4e95-b1e1-166a50bfe7db","system_id":"levelo_inurba_marseille","lat":43.31461,"lon":5.39289,"is_reserved":false,"is_disabled":false,"rental_uris":{"android":"levelo://app?vid=5f65083e-3e3e-4e95-b1e1-166a50bfe7db","ios":"levelo://app?vid=5f65083e-3e3e-4e95-b1e1-166a50bfe7db"},"vehicle_type_id":"4","last_reported":1725034202,"current_range_meters":26000,"station_id":"","pricing_plan_id":"cebpf4jnsgd1na2vs0mg"},{"bike_id":"c3cf4b8d-a4ee-4f22-b805-fc4029876dcd","system_id":"levelo_inurba_marseille","lat":43.31158,"lon":5.39317,"is_reserved":false,"is_disabled":false,"rental_uris":{"android":"levelo://app?vid=c3cf4b8d-a4ee-4f22-b805-fc4029876dcd","ios":"levelo://app?vid=c3cf4b8d-a4ee-4f22-b805-fc4029876dcd"},"vehicle_type_id":"4","last_reported":1725034202,"current_range_meters":3200,"station_id":"","pricing_plan_id":"cebpf4jnsgd1na2vs0mg"},{"bike_id":"593c9e1b-07b1-4c60-8993-6b149f4fa4a7","system_id":"levelo_inurba_marseille","lat":43.311202,"lon":5.393649,"is_reserved":false,"is_disabled":false,"rental_uris":{"android":"levelo://app?vid=593c9e1b-07b1-4c60-8993-6b149f4fa4a7","ios":"levelo://app?vid=593c9e1b-07b1-4c60-8993-6b149f4fa4a7"},"vehicle_type_id":"4","last_reported":1725034202,"current_range_meters":1600,"station_id":"","pricing_plan_id":"cebpf4jnsgd1na2vs0mg"},{"bike_id":"a90eb8fe-2e4f-4e75-9ded-34ef3253d86f","system_id":"levelo_inurba_marseille","lat":43.29336,"lon":5.37063,"is_reserved":false,"is_disabled":false,"rental_uris":{"android":"levelo://app?vid=a90eb8fe-2e4f-4e75-9ded-34ef3253d86f","ios":"levelo://app?vid=a90eb8fe-2e4f-4e75-9ded-34ef3253d86f"},"vehicle_type_id":"4","last_reported":1725034202,"current_range_meters":21600,"station_id":"","pricing_plan_id":"cebpf4jnsgd1na2vs0mg"},{"bike_id":"4ab5e112-d452-41b2-a66a-9b989fe8c7e5","system_id":"levelo_inurba_marseille","lat":43.31429,"lon":5.39374,"is_reserved":false,"is_disabled":false,"rental_uris":{"android":"levelo://app?vid=4ab5e112-d452-41b2-a66a-9b989fe8c7e5","ios":"levelo://app?vid=4ab5e112-d452-41b2-a66a-9b989fe8c7e5"},"vehicle_type_id":"4","last_reported":1725034202,"current_range_meters":24000,"station_id":"","pricing_plan_id":"cebpf4jnsgd1na2vs0mg"},{"bike_id":"e1ebc559-e0b9-4ad3-a329-d0d1d85ccc75","system_id":"levelo_inurba_marseille","lat":43.29602,"lon":5.381084,"is_reserved":false,"is_disabled":false,"rental_uris":{"android":"levelo://app?vid=e1ebc559-e0b9-4ad3-a329-d0d1d85ccc75","ios":"levelo://app?vid=e1ebc559-e0b9-4ad3-a329-d0d1d85ccc75"},"vehicle_type_id":"4","last_reported":1725034202,"current_range_meters":20400,"station_id":"ce4bgl12rcd13ifvqbo0","pricing_plan_id":"cebpf4jnsgd1na2vs0mg"},{"bike_id":"f3375af0-f2bf-4b8d-9fec-c1973ad3eb70","system_id":"levelo_inurba_marseille","lat":43.29602,"lon":5.381084,"is_reserved":false,"is_disabled":false,"rental_uris":{"android":"levelo://app?vid=f3375af0-f2bf-4b8d-9fec-c1973ad3eb70","ios":"levelo://app?vid=f3375af0-f2bf-4b8d-9fec-c1973ad3eb70"},"vehicle_type_id":"4","last_reported":1725034202,"current_range_meters":28800,"station_id":"ce4bgl12rcd13ifvqbo0","pricing_plan_id":"cebpf4jnsgd1na2vs0mg"},{"bike_id":"c92295f6-e68f-48eb-ba43-f0fff02914d6","system_id":"levelo_inurba_marseille","lat":43.291994,"lon":5.392907,"is_reserved":false,"is_disabled":false,"rental_uris":{"android":"levelo://app?vid=c92295f6-e68f-48eb-ba43-f0fff02914d6","ios":"levelo://app?vid=c92295f6-e68f-48eb-ba43-f0fff02914d6"},"vehicle_type_id":"4","last_reported":1725034202,"current_range_meters":2000,"station_id":"ce4bh192rcd13ifvqdd0","pricing_plan_id":"cebpf4jnsgd1na2vs0mg"},{"bike_id":"d06021cf-2eba-4036-ac8d-9a235dbd93e1","system_id":"levelo_inurba_marseille","lat":43.293249,"lon":5.371578,"is_reserved":false,"is_disabled":false,"rental_uris":{"android":"levelo://app?vid=d06021cf-2eba-4036-ac8d-9a235dbd93e1","ios":"levelo://app?vid=d06021cf-2eba-4036-ac8d-9a235dbd93e1"},"vehicle_type_id":"4","last_reported":1725034202,"current_range_meters":0,"station_id":"ce4bgh92rcd13ifvqb40","pricing_plan_id":"cebpf4jnsgd1na2vs0mg"},{"bike_id":"6e68fe10-0e44-4061-b9a8-1dbdd2a2438c","system_id":"levelo_inurba_marseille","lat":43.29279,"lon":5.36847,"is_reserved":false,"is_disabled":false,"rental_uris":{"android":"levelo://app?vid=6e68fe10-0e44-4061-b9a8-1dbdd2a2438c","ios":"levelo://app?vid=6e68fe10-0e44-4061-b9a8-1dbdd2a2438c"},"vehicle_type_id":"4","last_reported":1725034202,"current_range_meters":0,"station_id":"ce4bhbp2rcd13ifvqesg","pricing_plan_id":"cebpf4jnsgd1na2vs0mg"},{"bike_id":"273a2773-a603-459e-b35b-5bee89c23d08","system_id":"levelo_inurba_marseille","lat":43.293249,"lon":5.371578,"is_reserved":false,"is_disabled":false,"rental_uris":{"android":"levelo://app?vid=273a2773-a603-459e-b35b-5bee89c23d08","ios":"levelo://app?vid=273a2773-a603-459e-b35b-5bee89c23d08"},"vehicle_type_id":"4","last_reported":1725034202,"current_range_meters":31200,"station_id":"ce4bgh92rcd13ifvqb40","pricing_plan_id":"cebpf4jnsgd1na2vs0mg"},{"bike_id":"a72fea7a-2529-4428-b316-8fff2c42a5e2","system_id":"levelo_inurba_marseille","lat":43.29264,"lon":5.36851,"is_reserved":false,"is_disabled":false,"rental_uris":{"android":"levelo://app?vid=a72fea7a-2529-4428-b316-8fff2c42a5e2","ios":"levelo://app?vid=a72fea7a-2529-4428-b316-8fff2c42a5e2"},"vehicle_type_id":"4","last_reported":1725034202,"current_range_meters":0,"station_id":"ce4bhbp2rcd13ifvqesg","pricing_plan_id":"cebpf4jnsgd1na2vs0mg"},{"bike_id":"b67d6e1b-f43e-4147-872a-90184a5748de","system_id":"levelo_inurba_marseille","lat":43.293009,"lon":5.374584,"is_reserved":false,"is_disabled":false,"rental_uris":{"android":"levelo://app?vid=b67d6e1b-f43e-4147-872a-90184a5748de","ios":"levelo://app?vid=b67d6e1b-f43e-4147-872a-90184a5748de"},"vehicle_type_id":"4","last_reported":1725034202,"current_range_meters":0,"station_id":"ce4bgi12rcd13ifvqb70","pricing_plan_id":"cebpf4jnsgd1na2vs0mg"},{"bike_id":"f32209ab-b256-430e-8430-7cf1699ebc9f","system_id":"levelo_inurba_marseille","lat":43.293009,"lon":5.374584,"is_reserved":false,"is_disabled":false,"rental_uris":{"android":"levelo://app?vid=f32209ab-b256-430e-8430-7cf1699ebc9f","ios":"levelo://app?vid=f32209ab-b256-430e-8430-7cf1699ebc9f"},"vehicle_type_id":"4","last_reported":1725034202,"current_range_meters":8800,"station_id":"ce4bgi12rcd13ifvqb70","pricing_plan_id":"cebpf4jnsgd1na2vs0mg"},{"bike_id":"36333ede-617c-4b5c-aee9-ffec942716de","system_id":"levelo_inurba_marseille","lat":43.293249,"lon":5.371578,"is_reserved":false,"is_disabled":false,"rental_uris":{"android":"levelo://app?vid=36333ede-617c-4b5c-aee9-ffec942716de","ios":"levelo://app?vid=36333ede-617c-4b5c-aee9-ffec942716de"},"vehicle_type_id":"4","last_reported":1725034202,"current_range_meters":3600,"station_id":"ce4bgh92rcd13ifvqb40","pricing_plan_id":"cebpf4jnsgd1na2vs0mg"},{"bike_id":"12c42da3-4a8f-4b68-8d80-f6b6c47465ee","system_id":"levelo_inurba_marseille","lat":43.2936,"lon":5.37835,"is_reserved":false,"is_disabled":false,"rental_uris":{"android":"levelo://app?vid=12c42da3-4a8f-4b68-8d80-f6b6c47465ee","ios":"levelo://app?vid=12c42da3-4a8f-4b68-8d80-f6b6c47465ee"},"vehicle_type_id":"4","last_reported":1725034202,"current_range_meters":0,"station_id":"ce4bgjh2rcd13ifvqbf0","pricing_plan_id":"cebpf4jnsgd1na2vs0mg"},{"bike_id":"d8f7857b-72f7-4244-95c5-3e4d315f5263","system_id":"levelo_inurba_marseille","lat":43.2989,"lon":5.38855,"is_reserved":false,"is_disabled":false,"rental_uris":{"android":"levelo://app?vid=d8f7857b-72f7-4244-95c5-3e4d315f5263","ios":"levelo://app?vid=d8f7857b-72f7-4244-95c5-3e4d315f5263"},"vehicle_type_id":"4","last_reported":1725034202,"current_range_meters":7200,"station_id":"","pricing_plan_id":"cebpf4jnsgd1na2vs0mg"},{"bike_id":"5bb1e170-2da1-43c6-b258-e41dd356b95b","system_id":"levelo_inurba_marseille","lat":43.292311,"lon":5.360731,"is_reserved":false,"is_disabled":false,"rental_uris":{"android":"levelo://app?vid=5bb1e170-2da1-43c6-b258-e41dd356b95b","ios":"levelo://app?vid=5bb1e170-2da1-43c6-b258-e41dd356b95b"},"vehicle_type_id":"4","last_reported":1725034202,"current_range_meters":21600,"station_id":"ce4bhbh2rcd13ifvqeqg","pricing_plan_id":"cebpf4jnsgd1na2vs0mg"},{"bike_id":"c9bd3d4f-d72d-4ff3-b538-88dc8d8a51db","system_id":"levelo_inurba_marseille","lat":43.292311,"lon":5.360731,"is_reserved":false,"is_disabled":false,"rental_uris":{"android":"levelo://app?vid=c9bd3d4f-d72d-4ff3-b538-88dc8d8a51db","ios":"levelo://app?vid=c9bd3d4f-d72d-4ff3-b538-88dc8d8a51db"},"vehicle_type_id":"4","last_reported":1725034202,"current_range_meters":0,"station_id":"ce4bhbh2rcd13ifvqeqg","pricing_plan_id":"cebpf4jnsgd1na2vs0mg"},{"bike_id":"c3afa10a-c126-4a85-881e-ad5a8c2269b4","system_id":"levelo_inurba_marseille","lat":43.292311,"lon":5.360731,"is_reserved":false,"is_disabled":false,"rental_uris":{"android":"levelo://app?vid=c3afa10a-c126-4a85-881e-ad5a8c2269b4","ios":"levelo://app?vid=c3afa10a-c126-4a85-881e-ad5a8c2269b4"},"vehicle_type_id":"4","last_reported":1725034202,"current_range_meters":18400,"station_id":"ce4bhbh2rcd13ifvqeqg","pricing_plan_id":"cebpf4jnsgd1na2vs0mg"},{"bike_id":"ddca04cd-c574-474e-ad7a-a99454cd9736","system_id":"levelo_inurba_marseille","lat":43.29372,"lon":5.37961,"is_reserved":false,"is_disabled":false,"rental_uris":{"android":"levelo://app?vid=ddca04cd-c574-474e-ad7a-a99454cd9736","ios":"levelo://app?vid=ddca04cd-c574-474e-ad7a-a99454cd9736"},"vehicle_type_id":"4","last_reported":1725034202,"current_range_meters":18000,"station_id":"","pricing_plan_id":"cebpf4jnsgd1na2vs0mg"},{"bike_id":"3861b2b5-b69c-4b39-ac8d-1e7be925d24d","system_id":"levelo_inurba_marseille","lat":43.29171,"lon":5.37146,"is_reserved":false,"is_disabled":false,"rental_uris":{"android":"levelo://app?vid=3861b2b5-b69c-4b39-ac8d-1e7be925d24d","ios":"levelo://app?vid=3861b2b5-b69c-4b39-ac8d-1e7be925d24d"},"vehicle_type_id":"4","last_reported":1725034202,"current_range_meters":0,"station_id":"ce4bha92rcd13ifvqeh0","pricing_plan_id":"cebpf4jnsgd1na2vs0mg"},{"bike_id":"aa8c3858-16fc-43b9-9005-31017eee8d92","system_id":"levelo_inurba_marseille","lat":43.298764,"lon":5.388973,"is_reserved":false,"is_disabled":false,"rental_uris":{"android":"levelo://app?vid=aa8c3858-16fc-43b9-9005-31017eee8d92","ios":"levelo://app?vid=aa8c3858-16fc-43b9-9005-31017eee8d92"},"vehicle_type_id":"4","last_reported":1725034202,"current_range_meters":0,"station_id":"ce4bh392rcd13ifvqdl0","pricing_plan_id":"cebpf4jnsgd1na2vs0mg"},{"bike_id":"7f2c8aba-32fa-4911-b088-d71d8233c586","system_id":"levelo_inurba_marseille","lat":43.298764,"lon":5.388973,"is_reserved":false,"is_disabled":false,"rental_uris":{"android":"levelo://app?vid=7f2c8aba-32fa-4911-b088-d71d8233c586","ios":"levelo://app?vid=7f2c8aba-32fa-4911-b088-d71d8233c586"},"vehicle_type_id":"4","last_reported":1725034202,"current_range_meters":2000,"station_id":"ce4bh392rcd13ifvqdl0","pricing_plan_id":"cebpf4jnsgd1na2vs0mg"},{"bike_id":"4dd3ad64-bd82-432c-a6f1-493fa2dd8d3e","system_id":"levelo_inurba_marseille","lat":43.291983,"lon":5.358053,"is_reserved":false,"is_disabled":false,"rental_uris":{"android":"levelo://app?vid=4dd3ad64-bd82-432c-a6f1-493fa2dd8d3e","ios":"levelo://app?vid=4dd3ad64-bd82-432c-a6f1-493fa2dd8d3e"},"vehicle_type_id":"4","last_reported":1725034202,"current_range_meters":7600,"station_id":"ce4bhb12rcd13ifvqel0","pricing_plan_id":"cebpf4jnsgd1na2vs0mg"},{"bike_id":"12e9be23-5838-4ce0-9abd-d6ee2f792ac6","system_id":"levelo_inurba_marseille","lat":43.31337,"lon":5.39681,"is_reserved":false,"is_disabled":false,"rental_uris":{"android":"levelo://app?vid=12e9be23-5838-4ce0-9abd-d6ee2f792ac6","ios":"levelo://app?vid=12e9be23-5838-4ce0-9abd-d6ee2f792ac6"},"vehicle_type_id":"4","last_reported":1725034202,"current_range_meters":20000,"station_id":"ce4bgvp2rcd13ifvqcu0","pricing_plan_id":"cebpf4jnsgd1na2vs0mg"},{"bike_id":"3af62313-f051-484d-8084-6aaf0e0a356e","system_id":"levelo_inurba_marseille","lat":43.292005,"lon":5.357875,"is_reserved":false,"is_disabled":false,"rental_uris":{"android":"levelo://app?vid=3af62313-f051-484d-8084-6aaf0e0a356e","ios":"levelo://app?vid=3af62313-f051-484d-8084-6aaf0e0a356e"},"vehicle_type_id":"4","last_reported":1725034202,"current_range_meters":0,"station_id":"ce4bhb12rcd13ifvqel0","pricing_plan_id":"cebpf4jnsgd1na2vs0mg"},{"bike_id":"14c1c456-e25e-46d0-a067-579ab2c292ef","system_id":"levelo_inurba_marseille","lat":43.31331,"lon":5.39689,"is_reserved":false,"is_disabled":false,"rental_uris":{"android":"levelo://app?vid=14c1c456-e25e-46d0-a067-579ab2c292ef","ios":"levelo://app?vid=14c1c456-e25e-46d0-a067-579ab2c292ef"},"vehicle_type_id":"4","last_reported":1725034202,"current_range_meters":8400,"station_id":"ce4bgvp2rcd13ifvqcu0","pricing_plan_id":"cebpf4jnsgd1na2vs0mg"},{"bike_id":"a1da220e-6d7e-44b6-8983-978c29fbd203","system_id":"levelo_inurba_marseille","lat":43.31332,"lon":5.3969,"is_reserved":false,"is_disabled":false,"rental_uris":{"android":"levelo://app?vid=a1da220e-6d7e-44b6-8983-978c29fbd203","ios":"levelo://app?vid=a1da220e-6d7e-44b6-8983-978c29fbd203"},"vehicle_type_id":"4","last_reported":1725034202,"current_range_meters":14800,"station_id":"ce4bgvp2rcd13ifvqcu0","pricing_plan_id":"cebpf4jnsgd1na2vs0mg"},{"bike_id":"85878811-aacd-452f-bcd6-b4dad395ebfb","system_id":"levelo_inurba_marseille","lat":43.313291,"lon":5.396838,"is_reserved":false,"is_disabled":false,"rental_uris":{"android":"levelo://app?vid=85878811-aacd-452f-bcd6-b4dad395ebfb","ios":"levelo://app?vid=85878811-aacd-452f-bcd6-b4dad395ebfb"},"vehicle_type_id":"4","last_reported":1725034202,"current_range_meters":26800,"station_id":"ce4bgvp2rcd13ifvqcu0","pricing_plan_id":"cebpf4jnsgd1na2vs0mg"},{"bike_id":"f6c93191-3618-41b9-a1f4-515a6fb31609","system_id":"levelo_inurba_marseille","lat":43.313291,"lon":5.396838,"is_reserved":false,"is_disabled":false,"rental_uris":{"android":"levelo://app?vid=f6c93191-3618-41b9-a1f4-515a6fb31609","ios":"levelo://app?vid=f6c93191-3618-41b9-a1f4-515a6fb31609"},"vehicle_type_id":"4","last_reported":1725034202,"current_range_meters":19600,"station_id":"ce4bgvp2rcd13ifvqcu0","pricing_plan_id":"cebpf4jnsgd1na2vs0mg"},{"bike_id":"574fe891-0ac8-4fd6-b83c-e9fc5f1863fd","system_id":"levelo_inurba_marseille","lat":43.313291,"lon":5.396838,"is_reserved":false,"is_disabled":false,"rental_uris":{"android":"levelo://app?vid=574fe891-0ac8-4fd6-b83c-e9fc5f1863fd","ios":"levelo://app?vid=574fe891-0ac8-4fd6-b83c-e9fc5f1863fd"},"vehicle_type_id":"4","last_reported":1725034202,"current_range_meters":27600,"station_id":"ce4bgvp2rcd13ifvqcu0","pricing_plan_id":"cebpf4jnsgd1na2vs0mg"},{"bike_id":"50c1b2d2-472f-41c5-9855-6d8be61fd4be","system_id":"levelo_inurba_marseille","lat":43.309047,"lon":5.396551,"is_reserved":false,"is_disabled":false,"rental_uris":{"android":"levelo://app?vid=50c1b2d2-472f-41c5-9855-6d8be61fd4be","ios":"levelo://app?vid=50c1b2d2-472f-41c5-9855-6d8be61fd4be"},"vehicle_type_id":"4","last_reported":1725034202,"current_range_meters":30000,"station_id":"ce4bh012rcd13ifvqcv0","pricing_plan_id":"cebpf4jnsgd1na2vs0mg"},{"bike_id":"356a3af9-8be4-402e-bfa2-5de63cb55808","system_id":"levelo_inurba_marseille","lat":43.31332,"lon":5.39693,"is_reserved":false,"is_disabled":false,"rental_uris":{"android":"levelo://app?vid=356a3af9-8be4-402e-bfa2-5de63cb55808","ios":"levelo://app?vid=356a3af9-8be4-402e-bfa2-5de63cb55808"},"vehicle_type_id":"4","last_reported":1725034202,"current_range_meters":18800,"station_id":"ce4bgvp2rcd13ifvqcu0","pricing_plan_id":"cebpf4jnsgd1na2vs0mg"},{"bike_id":"2a818fd2-ac68-40d5-b737-0142b438c0a9","system_id":"levelo_inurba_marseille","lat":43.29529,"lon":5.385581,"is_reserved":false,"is_disabled":false,"rental_uris":{"android":"levelo://app?vid=2a818fd2-ac68-40d5-b737-0142b438c0a9","ios":"levelo://app?vid=2a818fd2-ac68-40d5-b737-0142b438c0a9"},"vehicle_type_id":"4","last_reported":1725034202,"current_range_meters":5200,"station_id":"ce4bgih2rcd13ifvqba0","pricing_plan_id":"cebpf4jnsgd1na2vs0mg"},{"bike_id":"5a89a0c3-6b57-4b82-baed-b317abbd9638","system_id":"levelo_inurba_marseille","lat":43.29529,"lon":5.385581,"is_reserved":false,"is_disabled":false,"rental_uris":{"android":"levelo://app?vid=5a89a0c3-6b57-4b82-baed-b317abbd9638","ios":"levelo://app?vid=5a89a0c3-6b57-4b82-baed-b317abbd9638"},"vehicle_type_id":"4","last_reported":1725034202,"current_range_meters":4800,"station_id":"ce4bgih2rcd13ifvqba0","pricing_plan_id":"cebpf4jnsgd1na2vs0mg"},{"bike_id":"7d839945-0af0-4816-8dd0-ea6ed35af0c2","system_id":"levelo_inurba_marseille","lat":43.29528,"lon":5.3854,"is_reserved":false,"is_disabled":false,"rental_uris":{"android":"levelo://app?vid=7d839945-0af0-4816-8dd0-ea6ed35af0c2","ios":"levelo://app?vid=7d839945-0af0-4816-8dd0-ea6ed35af0c2"},"vehicle_type_id":"4","last_reported":1725034202,"current_range_meters":0,"station_id":"ce4bgih2rcd13ifvqba0","pricing_plan_id":"cebpf4jnsgd1na2vs0mg"},{"bike_id":"a51ab684-c2fd-4cc0-865a-cc32c66a3a3c","system_id":"levelo_inurba_marseille","lat":43.29529,"lon":5.385581,"is_reserved":false,"is_disabled":false,"rental_uris":{"android":"levelo://app?vid=a51ab684-c2fd-4cc0-865a-cc32c66a3a3c","ios":"levelo://app?vid=a51ab684-c2fd-4cc0-865a-cc32c66a3a3c"},"vehicle_type_id":"4","last_reported":1725034202,"current_range_meters":3200,"station_id":"ce4bgih2rcd13ifvqba0","pricing_plan_id":"cebpf4jnsgd1na2vs0mg"},{"bike_id":"ff03eb63-ef07-49e5-9d46-5974548e6150","system_id":"levelo_inurba_marseille","lat":43.302008,"lon":5.394694,"is_reserved":false,"is_disabled":false,"rental_uris":{"android":"levelo://app?vid=ff03eb63-ef07-49e5-9d46-5974548e6150","ios":"levelo://app?vid=ff03eb63-ef07-49e5-9d46-5974548e6150"},"vehicle_type_id":"4","last_reported":1725034202,"current_range_meters":0,"station_id":"ce4bh0p2rcd13ifvqd70","pricing_plan_id":"cebpf4jnsgd1na2vs0mg"},{"bike_id":"93082d61-c1b3-4664-a574-636a9d9b508a","system_id":"levelo_inurba_marseille","lat":43.29414,"lon":5.38633,"is_reserved":false,"is_disabled":false,"rental_uris":{"android":"levelo://app?vid=93082d61-c1b3-4664-a574-636a9d9b508a","ios":"levelo://app?vid=93082d61-c1b3-4664-a574-636a9d9b508a"},"vehicle_type_id":"4","last_reported":1725034202,"current_range_meters":0,"station_id":"ce4bh2h2rcd13ifvqdh0","pricing_plan_id":"cebpf4jnsgd1na2vs0mg"},{"bike_id":"dd9d596b-6cfd-42f8-a1ab-252982cefc6a","system_id":"levelo_inurba_marseille","lat":43.289468,"lon":5.363719,"is_reserved":false,"is_disabled":false,"rental_uris":{"android":"levelo://app?vid=dd9d596b-6cfd-42f8-a1ab-252982cefc6a","ios":"levelo://app?vid=dd9d596b-6cfd-42f8-a1ab-252982cefc6a"},"vehicle_type_id":"4","last_reported":1725034202,"current_range_meters":5200,"station_id":"ce4bhc92rcd13ifvqetg","pricing_plan_id":"cebpf4jnsgd1na2vs0mg"},{"bike_id":"732bd1d2-984c-43a0-8f03-30a2097f2913","system_id":"levelo_inurba_marseille","lat":43.292644,"lon":5.384257,"is_reserved":false,"is_disabled":false,"rental_uris":{"android":"levelo://app?vid=732bd1d2-984c-43a0-8f03-30a2097f2913","ios":"levelo://app?vid=732bd1d2-984c-43a0-8f03-30a2097f2913"},"vehicle_type_id":"4","last_reported":1725034202,"current_range_meters":12800,"station_id":"ce4bh692rcd13ifvqea0","pricing_plan_id":"cebpf4jnsgd1na2vs0mg"},{"bike_id":"fb5d2d49-aa45-44b3-a8f2-90a9dcb85561","system_id":"levelo_inurba_marseille","lat":43.292644,"lon":5.384257,"is_reserved":false,"is_disabled":false,"rental_uris":{"android":"levelo://app?vid=fb5d2d49-aa45-44b3-a8f2-90a9dcb85561","ios":"levelo://app?vid=fb5d2d49-aa45-44b3-a8f2-90a9dcb85561"},"vehicle_type_id":"4","last_reported":1725034202,"current_range_meters":6400,"station_id":"ce4bh692rcd13ifvqea0","pricing_plan_id":"cebpf4jnsgd1na2vs0mg"},{"bike_id":"dce84d15-d13f-4a22-8f65-525aad8d72b8","system_id":"levelo_inurba_marseille","lat":43.292644,"lon":5.384257,"is_reserved":false,"is_disabled":false,"rental_uris":{"android":"levelo://app?vid=dce84d15-d13f-4a22-8f65-525aad8d72b8","ios":"levelo://app?vid=dce84d15-d13f-4a22-8f65-525aad8d72b8"},"vehicle_type_id":"4","last_reported":1725034202,"current_range_meters":0,"station_id":"ce4bh692rcd13ifvqea0","pricing_plan_id":"cebpf4jnsgd1na2vs0mg"},{"bike_id":"7cdbb98a-c1fd-46a4-8564-ebdad4fd0b4e","system_id":"levelo_inurba_marseille","lat":43.29259,"lon":5.38434,"is_reserved":false,"is_disabled":false,"rental_uris":{"android":"levelo://app?vid=7cdbb98a-c1fd-46a4-8564-ebdad4fd0b4e","ios":"levelo://app?vid=7cdbb98a-c1fd-46a4-8564-ebdad4fd0b4e"},"vehicle_type_id":"4","last_reported":1725034202,"current_range_meters":0,"station_id":"ce4bh692rcd13ifvqea0","pricing_plan_id":"cebpf4jnsgd1na2vs0mg"},{"bike_id":"013ca2a8-defc-4832-a6da-93a08f84fd72","system_id":"levelo_inurba_marseille","lat":43.304296,"lon":5.397513,"is_reserved":false,"is_disabled":false,"rental_uris":{"android":"levelo://app?vid=013ca2a8-defc-4832-a6da-93a08f84fd72","ios":"levelo://app?vid=013ca2a8-defc-4832-a6da-93a08f84fd72"},"vehicle_type_id":"4","last_reported":1725034202,"current_range_meters":0,"station_id":"ce4bh092rcd13ifvqd20","pricing_plan_id":"cebpf4jnsgd1na2vs0mg"},{"bike_id":"160e5a91-6967-46e9-b7c3-16b0d737bc69","system_id":"levelo_inurba_marseille","lat":43.290103,"lon":5.356114,"is_reserved":false,"is_disabled":false,"rental_uris":{"android":"levelo://app?vid=160e5a91-6967-46e9-b7c3-16b0d737bc69","ios":"levelo://app?vid=160e5a91-6967-46e9-b7c3-16b0d737bc69"},"vehicle_type_id":"4","last_reported":1725034202,"current_range_meters":1200,"station_id":"ce4bhb92rcd13ifvqen0","pricing_plan_id":"cebpf4jnsgd1na2vs0mg"},{"bike_id":"e7721c3f-caf5-4760-bfe0-7eb7e0783031","system_id":"levelo_inurba_marseille","lat":43.290103,"lon":5.356114,"is_reserved":false,"is_disabled":false,"rental_uris":{"android":"levelo://app?vid=e7721c3f-caf5-4760-bfe0-7eb7e0783031","ios":"levelo://app?vid=e7721c3f-caf5-4760-bfe0-7eb7e0783031"},"vehicle_type_id":"4","last_reported":1725034202,"current_range_meters":23200,"station_id":"ce4bhb92rcd13ifvqen0","pricing_plan_id":"cebpf4jnsgd1na2vs0mg"},{"bike_id":"3e61917d-b2e9-4eb0-bd35-74d9674e2878","system_id":"levelo_inurba_marseille","lat":43.290103,"lon":5.356114,"is_reserved":false,"is_disabled":false,"rental_uris":{"android":"levelo://app?vid=3e61917d-b2e9-4eb0-bd35-74d9674e2878","ios":"levelo://app?vid=3e61917d-b2e9-4eb0-bd35-74d9674e2878"},"vehicle_type_id":"4","last_reported":1725034202,"current_range_meters":30800,"station_id":"ce4bhb92rcd13ifvqen0","pricing_plan_id":"cebpf4jnsgd1na2vs0mg"},{"bike_id":"dd644b56-428e-4606-ac33-072fe5394bdb","system_id":"levelo_inurba_marseille","lat":43.290104,"lon":5.356111,"is_reserved":false,"is_disabled":false,"rental_uris":{"android":"levelo://app?vid=dd644b56-428e-4606-ac33-072fe5394bdb","ios":"levelo://app?vid=dd644b56-428e-4606-ac33-072fe5394bdb"},"vehicle_type_id":"4","last_reported":1725034202,"current_range_meters":14000,"station_id":"ce4bhb92rcd13ifvqen0","pricing_plan_id":"cebpf4jnsgd1na2vs0mg"},{"bike_id":"c342bc9b-ad22-4249-bd4f-a0e68ba3df8f","system_id":"levelo_inurba_marseille","lat":43.297815,"lon":5.393548,"is_reserved":false,"is_disabled":false,"rental_uris":{"android":"levelo://app?vid=c342bc9b-ad22-4249-bd4f-a0e68ba3df8f","ios":"levelo://app?vid=c342bc9b-ad22-4249-bd4f-a0e68ba3df8f"},"vehicle_type_id":"4","last_reported":1725034202,"current_range_meters":0,"station_id":"chh1huq6cuj3fo74tm60","pricing_plan_id":"cebpf4jnsgd1na2vs0mg"},{"bike_id":"92f687ff-cd10-44ca-bf05-cf2531d877b0","system_id":"levelo_inurba_marseille","lat":43.29782,"lon":5.39337,"is_reserved":false,"is_disabled":false,"rental_uris":{"android":"levelo://app?vid=92f687ff-cd10-44ca-bf05-cf2531d877b0","ios":"levelo://app?vid=92f687ff-cd10-44ca-bf05-cf2531d877b0"},"vehicle_type_id":"4","last_reported":1725034202,"current_range_meters":12000,"station_id":"chh1huq6cuj3fo74tm60","pricing_plan_id":"cebpf4jnsgd1na2vs0mg"},{"bike_id":"7e67f472-5b26-413c-b1d2-e66d0ce28ced","system_id":"levelo_inurba_marseille","lat":43.289743,"lon":5.378304,"is_reserved":false,"is_disabled":false,"rental_uris":{"android":"levelo://app?vid=7e67f472-5b26-413c-b1d2-e66d0ce28ced","ios":"levelo://app?vid=7e67f472-5b26-413c-b1d2-e66d0ce28ced"},"vehicle_type_id":"4","last_reported":1725034202,"current_range_meters":17600,"station_id":"ce4bh9p2rcd13ifvqed0","pricing_plan_id":"cebpf4jnsgd1na2vs0mg"},{"bike_id":"5e8aeb64-b401-4989-af62-8e6e2c84e77b","system_id":"levelo_inurba_marseille","lat":43.330442,"lon":5.389148,"is_reserved":false,"is_disabled":false,"rental_uris":{"android":"levelo://app?vid=5e8aeb64-b401-4989-af62-8e6e2c84e77b","ios":"levelo://app?vid=5e8aeb64-b401-4989-af62-8e6e2c84e77b"},"vehicle_type_id":"4","last_reported":1725034202,"current_range_meters":15600,"station_id":"ce4bhr92rcd13ifvqhrg","pricing_plan_id":"cebpf4jnsgd1na2vs0mg"},{"bike_id":"2f22f5f6-5415-425c-a31c-921de53ff76b","system_id":"levelo_inurba_marseille","lat":43.330442,"lon":5.389148,"is_reserved":false,"is_disabled":false,"rental_uris":{"android":"levelo://app?vid=2f22f5f6-5415-425c-a31c-921de53ff76b","ios":"levelo://app?vid=2f22f5f6-5415-425c-a31c-921de53ff76b"},"vehicle_type_id":"4","last_reported":1725034202,"current_range_meters":16000,"station_id":"ce4bhr92rcd13ifvqhrg","pricing_plan_id":"cebpf4jnsgd1na2vs0mg"},{"bike_id":"4d929ad5-8da3-4c54-9068-2ea2fea8502e","system_id":"levelo_inurba_marseille","lat":43.289741,"lon":5.378306,"is_reserved":false,"is_disabled":false,"rental_uris":{"android":"levelo://app?vid=4d929ad5-8da3-4c54-9068-2ea2fea8502e","ios":"levelo://app?vid=4d929ad5-8da3-4c54-9068-2ea2fea8502e"},"vehicle_type_id":"4","last_reported":1725034202,"current_range_meters":0,"station_id":"ce4bh9p2rcd13ifvqed0","pricing_plan_id":"cebpf4jnsgd1na2vs0mg"},{"bike_id":"45209c04-95ba-42ef-bf49-767bead22c92","system_id":"levelo_inurba_marseille","lat":43.288613,"lon":5.372625,"is_reserved":false,"is_disabled":false,"rental_uris":{"android":"levelo://app?vid=45209c04-95ba-42ef-bf49-767bead22c92","ios":"levelo://app?vid=45209c04-95ba-42ef-bf49-767bead22c92"},"vehicle_type_id":"4","last_reported":1725034202,"current_range_meters":2800,"station_id":"","pricing_plan_id":"cebpf4jnsgd1na2vs0mg"},{"bike_id":"6f56b31e-4f84-46c7-843b-cc51e0c9f1f6","system_id":"levelo_inurba_marseille","lat":43.289741,"lon":5.378306,"is_reserved":false,"is_disabled":false,"rental_uris":{"android":"levelo://app?vid=6f56b31e-4f84-46c7-843b-cc51e0c9f1f6","ios":"levelo://app?vid=6f56b31e-4f84-46c7-843b-cc51e0c9f1f6"},"vehicle_type_id":"4","last_reported":1725034202,"current_range_meters":18000,"station_id":"ce4bh9p2rcd13ifvqed0","pricing_plan_id":"cebpf4jnsgd1na2vs0mg"},{"bike_id":"ef805e57-d14b-4c72-9a56-60a0c4e0d70f","system_id":"levelo_inurba_marseille","lat":43.330442,"lon":5.389148,"is_reserved":false,"is_disabled":false,"rental_uris":{"android":"levelo://app?vid=ef805e57-d14b-4c72-9a56-60a0c4e0d70f","ios":"levelo://app?vid=ef805e57-d14b-4c72-9a56-60a0c4e0d70f"},"vehicle_type_id":"4","last_reported":1725034202,"current_range_meters":14400,"station_id":"ce4bhr92rcd13ifvqhrg","pricing_plan_id":"cebpf4jnsgd1na2vs0mg"},{"bike_id":"d44bbc1c-e876-4033-9370-84dbd7a41bc4","system_id":"levelo_inurba_marseille","lat":43.28856,"lon":5.358371,"is_reserved":false,"is_disabled":false,"rental_uris":{"android":"levelo://app?vid=d44bbc1c-e876-4033-9370-84dbd7a41bc4","ios":"levelo://app?vid=d44bbc1c-e876-4033-9370-84dbd7a41bc4"},"vehicle_type_id":"4","last_reported":1725034202,"current_range_meters":15200,"station_id":"ce4bhb12rcd13ifvqem0","pricing_plan_id":"cebpf4jnsgd1na2vs0mg"},{"bike_id":"475f6868-3924-404e-8895-c39eb3c007e6","system_id":"levelo_inurba_marseille","lat":43.28845,"lon":5.35848,"is_reserved":false,"is_disabled":false,"rental_uris":{"android":"levelo://app?vid=475f6868-3924-404e-8895-c39eb3c007e6","ios":"levelo://app?vid=475f6868-3924-404e-8895-c39eb3c007e6"},"vehicle_type_id":"4","last_reported":1725034202,"current_range_meters":3200,"station_id":"ce4bhb12rcd13ifvqem0","pricing_plan_id":"cebpf4jnsgd1na2vs0mg"},{"bike_id":"d160cda5-8150-476b-b4b2-bd8d1f9e276a","system_id":"levelo_inurba_marseille","lat":43.28844,"lon":5.35844,"is_reserved":false,"is_disabled":false,"rental_uris":{"android":"levelo://app?vid=d160cda5-8150-476b-b4b2-bd8d1f9e276a","ios":"levelo://app?vid=d160cda5-8150-476b-b4b2-bd8d1f9e276a"},"vehicle_type_id":"4","last_reported":1725034202,"current_range_meters":24800,"station_id":"ce4bhb12rcd13ifvqem0","pricing_plan_id":"cebpf4jnsgd1na2vs0mg"},{"bike_id":"d8a97d86-9246-4319-a67c-d2e8eef90861","system_id":"levelo_inurba_marseille","lat":43.312609,"lon":5.401662,"is_reserved":false,"is_disabled":false,"rental_uris":{"android":"levelo://app?vid=d8a97d86-9246-4319-a67c-d2e8eef90861","ios":"levelo://app?vid=d8a97d86-9246-4319-a67c-d2e8eef90861"},"vehicle_type_id":"4","last_reported":1725034202,"current_range_meters":29200,"station_id":"ce4bh092rcd13ifvqd30","pricing_plan_id":"cebpf4jnsgd1na2vs0mg"},{"bike_id":"cafc7e8f-29ff-4a1a-aff8-1744c60b0e54","system_id":"levelo_inurba_marseille","lat":43.312609,"lon":5.401662,"is_reserved":false,"is_disabled":false,"rental_uris":{"android":"levelo://app?vid=cafc7e8f-29ff-4a1a-aff8-1744c60b0e54","ios":"levelo://app?vid=cafc7e8f-29ff-4a1a-aff8-1744c60b0e54"},"vehicle_type_id":"4","last_reported":1725034202,"current_range_meters":0,"station_id":"ce4bh092rcd13ifvqd30","pricing_plan_id":"cebpf4jnsgd1na2vs0mg"},{"bike_id":"8988ce0f-a2c4-4847-a3f1-aa028d943322","system_id":"levelo_inurba_marseille","lat":43.312609,"lon":5.401662,"is_reserved":false,"is_disabled":false,"rental_uris":{"android":"levelo://app?vid=8988ce0f-a2c4-4847-a3f1-aa028d943322","ios":"levelo://app?vid=8988ce0f-a2c4-4847-a3f1-aa028d943322"},"vehicle_type_id":"4","last_reported":1725034202,"current_range_meters":4400,"station_id":"ce4bh092rcd13ifvqd30","pricing_plan_id":"cebpf4jnsgd1na2vs0mg"},{"bike_id":"8750297c-19d3-45b3-91aa-8b1c1014217e","system_id":"levelo_inurba_marseille","lat":43.312609,"lon":5.401662,"is_reserved":false,"is_disabled":false,"rental_uris":{"android":"levelo://app?vid=8750297c-19d3-45b3-91aa-8b1c1014217e","ios":"levelo://app?vid=8750297c-19d3-45b3-91aa-8b1c1014217e"},"vehicle_type_id":"4","last_reported":1725034202,"current_range_meters":3600,"station_id":"ce4bh092rcd13ifvqd30","pricing_plan_id":"cebpf4jnsgd1na2vs0mg"},{"bike_id":"a17e4398-2b4c-4fa8-a68a-ad86ae824577","system_id":"levelo_inurba_marseille","lat":43.309371,"lon":5.401449,"is_reserved":false,"is_disabled":false,"rental_uris":{"android":"levelo://app?vid=a17e4398-2b4c-4fa8-a68a-ad86ae824577","ios":"levelo://app?vid=a17e4398-2b4c-4fa8-a68a-ad86ae824577"},"vehicle_type_id":"4","last_reported":1725034202,"current_range_meters":16400,"station_id":"ce4bgvp2rcd13ifvqct0","pricing_plan_id":"cebpf4jnsgd1na2vs0mg"},{"bike_id":"40b14f62-1032-41aa-99cc-4ce627a28f5a","system_id":"levelo_inurba_marseille","lat":43.33757,"lon":5.37485,"is_reserved":false,"is_disabled":false,"rental_uris":{"android":"levelo://app?vid=40b14f62-1032-41aa-99cc-4ce627a28f5a","ios":"levelo://app?vid=40b14f62-1032-41aa-99cc-4ce627a28f5a"},"vehicle_type_id":"4","last_reported":1725034202,"current_range_meters":6800,"station_id":"","pricing_plan_id":"cebpf4jnsgd1na2vs0mg"},{"bike_id":"600aae98-4ba4-4eb4-b7a7-a56a1bcfbb23","system_id":"levelo_inurba_marseille","lat":43.306412,"lon":5.401035,"is_reserved":false,"is_disabled":false,"rental_uris":{"android":"levelo://app?vid=600aae98-4ba4-4eb4-b7a7-a56a1bcfbb23","ios":"levelo://app?vid=600aae98-4ba4-4eb4-b7a7-a56a1bcfbb23"},"vehicle_type_id":"4","last_reported":1725034202,"current_range_meters":23200,"station_id":"ce4bh112rcd13ifvqda0","pricing_plan_id":"cebpf4jnsgd1na2vs0mg"},{"bike_id":"70e2d2ba-939b-4fa4-bce9-d9ae5a8d1265","system_id":"levelo_inurba_marseille","lat":43.30642,"lon":5.401031,"is_reserved":false,"is_disabled":false,"rental_uris":{"android":"levelo://app?vid=70e2d2ba-939b-4fa4-bce9-d9ae5a8d1265","ios":"levelo://app?vid=70e2d2ba-939b-4fa4-bce9-d9ae5a8d1265"},"vehicle_type_id":"4","last_reported":1725034202,"current_range_meters":16000,"station_id":"ce4bh112rcd13ifvqda0","pricing_plan_id":"cebpf4jnsgd1na2vs0mg"},{"bike_id":"1e8f011e-d4a1-401d-a0ca-296787f25da0","system_id":"levelo_inurba_marseille","lat":43.33769,"lon":5.37446,"is_reserved":false,"is_disabled":false,"rental_uris":{"android":"levelo://app?vid=1e8f011e-d4a1-401d-a0ca-296787f25da0","ios":"levelo://app?vid=1e8f011e-d4a1-401d-a0ca-296787f25da0"},"vehicle_type_id":"4","last_reported":1725034202,"current_range_meters":13600,"station_id":"","pricing_plan_id":"cebpf4jnsgd1na2vs0mg"},{"bike_id":"33ce0d8d-1ad9-4f92-9c34-10ff0166e75f","system_id":"levelo_inurba_marseille","lat":43.301117,"lon":5.398795,"is_reserved":false,"is_disabled":false,"rental_uris":{"android":"levelo://app?vid=33ce0d8d-1ad9-4f92-9c34-10ff0166e75f","ios":"levelo://app?vid=33ce0d8d-1ad9-4f92-9c34-10ff0166e75f"},"vehicle_type_id":"4","last_reported":1725034202,"current_range_meters":10400,"station_id":"ce4bh0h2rcd13ifvqd40","pricing_plan_id":"cebpf4jnsgd1na2vs0mg"},{"bike_id":"1e4ffd91-ae0b-4913-9bdc-14bf97b49033","system_id":"levelo_inurba_marseille","lat":43.28726,"lon":5.36093,"is_reserved":false,"is_disabled":false,"rental_uris":{"android":"levelo://app?vid=1e4ffd91-ae0b-4913-9bdc-14bf97b49033","ios":"levelo://app?vid=1e4ffd91-ae0b-4913-9bdc-14bf97b49033"},"vehicle_type_id":"4","last_reported":1725034202,"current_range_meters":0,"station_id":"cki0cbj6b192h4jlfktg","pricing_plan_id":"cebpf4jnsgd1na2vs0mg"},{"bike_id":"21939941-06bf-499a-8dfd-4b077d53a170","system_id":"levelo_inurba_marseille","lat":43.28727,"lon":5.36078,"is_reserved":false,"is_disabled":false,"rental_uris":{"android":"levelo://app?vid=21939941-06bf-499a-8dfd-4b077d53a170","ios":"levelo://app?vid=21939941-06bf-499a-8dfd-4b077d53a170"},"vehicle_type_id":"4","last_reported":1725034202,"current_range_meters":17200,"station_id":"cki0cbj6b192h4jlfktg","pricing_plan_id":"cebpf4jnsgd1na2vs0mg"},{"bike_id":"450f1846-5206-479e-9137-69ccb81be3f8","system_id":"levelo_inurba_marseille","lat":43.286593,"lon":5.363346,"is_reserved":false,"is_disabled":false,"rental_uris":{"android":"levelo://app?vid=450f1846-5206-479e-9137-69ccb81be3f8","ios":"levelo://app?vid=450f1846-5206-479e-9137-69ccb81be3f8"},"vehicle_type_id":"4","last_reported":1725034202,"current_range_meters":17200,"station_id":"ce4bhah2rcd13ifvqej0","pricing_plan_id":"cebpf4jnsgd1na2vs0mg"},{"bike_id":"4b85e126-13fb-48ff-8d98-7a4a88f33d01","system_id":"levelo_inurba_marseille","lat":43.298681,"lon":5.397225,"is_reserved":false,"is_disabled":false,"rental_uris":{"android":"levelo://app?vid=4b85e126-13fb-48ff-8d98-7a4a88f33d01","ios":"levelo://app?vid=4b85e126-13fb-48ff-8d98-7a4a88f33d01"},"vehicle_type_id":"4","last_reported":1725034202,"current_range_meters":26800,"station_id":"ce4bh0h2rcd13ifvqd50","pricing_plan_id":"cebpf4jnsgd1na2vs0mg"},{"bike_id":"1554a53f-43b3-4101-b540-b17ec7f646c6","system_id":"levelo_inurba_marseille","lat":43.298681,"lon":5.397225,"is_reserved":false,"is_disabled":false,"rental_uris":{"android":"levelo://app?vid=1554a53f-43b3-4101-b540-b17ec7f646c6","ios":"levelo://app?vid=1554a53f-43b3-4101-b540-b17ec7f646c6"},"vehicle_type_id":"4","last_reported":1725034202,"current_range_meters":24400,"station_id":"ce4bh0h2rcd13ifvqd50","pricing_plan_id":"cebpf4jnsgd1na2vs0mg"},{"bike_id":"3c81030e-c07f-4770-a11f-2789c4bbe811","system_id":"levelo_inurba_marseille","lat":43.286961,"lon":5.373785,"is_reserved":false,"is_disabled":false,"rental_uris":{"android":"levelo://app?vid=3c81030e-c07f-4770-a11f-2789c4bbe811","ios":"levelo://app?vid=3c81030e-c07f-4770-a11f-2789c4bbe811"},"vehicle_type_id":"4","last_reported":1725034202,"current_range_meters":2000,"station_id":"ce4bh3p2rcd13ifvqdq0","pricing_plan_id":"cebpf4jnsgd1na2vs0mg"},{"bike_id":"c0b3b94e-2005-4f5f-a31d-ad0c0dd57ab1","system_id":"levelo_inurba_marseille","lat":43.298681,"lon":5.397225,"is_reserved":false,"is_disabled":false,"rental_uris":{"android":"levelo://app?vid=c0b3b94e-2005-4f5f-a31d-ad0c0dd57ab1","ios":"levelo://app?vid=c0b3b94e-2005-4f5f-a31d-ad0c0dd57ab1"},"vehicle_type_id":"4","last_reported":1725034202,"current_range_meters":12400,"station_id":"ce4bh0h2rcd13ifvqd50","pricing_plan_id":"cebpf4jnsgd1na2vs0mg"},{"bike_id":"ab331d68-7441-4ac4-bbf9-1d65b7a1ebe1","system_id":"levelo_inurba_marseille","lat":43.286593,"lon":5.363346,"is_reserved":false,"is_disabled":false,"rental_uris":{"android":"levelo://app?vid=ab331d68-7441-4ac4-bbf9-1d65b7a1ebe1","ios":"levelo://app?vid=ab331d68-7441-4ac4-bbf9-1d65b7a1ebe1"},"vehicle_type_id":"4","last_reported":1725034202,"current_range_meters":7600,"station_id":"ce4bhah2rcd13ifvqej0","pricing_plan_id":"cebpf4jnsgd1na2vs0mg"},{"bike_id":"fd2ffee0-8781-4aa1-8a35-f8ad54f15305","system_id":"levelo_inurba_marseille","lat":43.286749,"lon":5.362569,"is_reserved":false,"is_disabled":false,"rental_uris":{"android":"levelo://app?vid=fd2ffee0-8781-4aa1-8a35-f8ad54f15305","ios":"levelo://app?vid=fd2ffee0-8781-4aa1-8a35-f8ad54f15305"},"vehicle_type_id":"4","last_reported":1725034202,"current_range_meters":0,"station_id":"","pricing_plan_id":"cebpf4jnsgd1na2vs0mg"},{"bike_id":"db292c9f-487f-4af5-97da-e488b201e1b7","system_id":"levelo_inurba_marseille","lat":43.302759,"lon":5.400793,"is_reserved":false,"is_disabled":false,"rental_uris":{"android":"levelo://app?vid=db292c9f-487f-4af5-97da-e488b201e1b7","ios":"levelo://app?vid=db292c9f-487f-4af5-97da-e488b201e1b7"},"vehicle_type_id":"4","last_reported":1725034202,"current_range_meters":22800,"station_id":"ce4bgvh2rcd13ifvqcs0","pricing_plan_id":"cebpf4jnsgd1na2vs0mg"},{"bike_id":"a54e1ece-db66-4a67-907e-3e0aa0dcd44e","system_id":"levelo_inurba_marseille","lat":43.3031,"lon":5.40117,"is_reserved":false,"is_disabled":false,"rental_uris":{"android":"levelo://app?vid=a54e1ece-db66-4a67-907e-3e0aa0dcd44e","ios":"levelo://app?vid=a54e1ece-db66-4a67-907e-3e0aa0dcd44e"},"vehicle_type_id":"4","last_reported":1725034202,"current_range_meters":8800,"station_id":"ce4bgvh2rcd13ifvqcs0","pricing_plan_id":"cebpf4jnsgd1na2vs0mg"},{"bike_id":"d785da2b-6149-4df5-8f39-506fd06a5d87","system_id":"levelo_inurba_marseille","lat":43.28715,"lon":5.37936,"is_reserved":false,"is_disabled":false,"rental_uris":{"android":"levelo://app?vid=d785da2b-6149-4df5-8f39-506fd06a5d87","ios":"levelo://app?vid=d785da2b-6149-4df5-8f39-506fd06a5d87"},"vehicle_type_id":"4","last_reported":1725034202,"current_range_meters":0,"station_id":"ce4bh9p2rcd13ifvqec0","pricing_plan_id":"cebpf4jnsgd1na2vs0mg"},{"bike_id":"1bb211d8-1e78-4f2e-bbd6-02bc9ce14459","system_id":"levelo_inurba_marseille","lat":43.28712,"lon":5.37939,"is_reserved":false,"is_disabled":false,"rental_uris":{"android":"levelo://app?vid=1bb211d8-1e78-4f2e-bbd6-02bc9ce14459","ios":"levelo://app?vid=1bb211d8-1e78-4f2e-bbd6-02bc9ce14459"},"vehicle_type_id":"4","last_reported":1725034202,"current_range_meters":0,"station_id":"ce4bh9p2rcd13ifvqec0","pricing_plan_id":"cebpf4jnsgd1na2vs0mg"},{"bike_id":"29b16561-ac25-4504-bf8e-5ea6616a1f79","system_id":"levelo_inurba_marseille","lat":43.287913,"lon":5.382628,"is_reserved":false,"is_disabled":false,"rental_uris":{"android":"levelo://app?vid=29b16561-ac25-4504-bf8e-5ea6616a1f79","ios":"levelo://app?vid=29b16561-ac25-4504-bf8e-5ea6616a1f79"},"vehicle_type_id":"4","last_reported":1725034202,"current_range_meters":24000,"station_id":"","pricing_plan_id":"cebpf4jnsgd1na2vs0mg"},{"bike_id":"f57b4bba-ecfb-4d09-90a5-328a015e6fa6","system_id":"levelo_inurba_marseille","lat":43.291994,"lon":5.392907,"is_reserved":false,"is_disabled":false,"rental_uris":{"android":"levelo://app?vid=f57b4bba-ecfb-4d09-90a5-328a015e6fa6","ios":"levelo://app?vid=f57b4bba-ecfb-4d09-90a5-328a015e6fa6"},"vehicle_type_id":"4","last_reported":1725034202,"current_range_meters":21200,"station_id":"ce4bh192rcd13ifvqdd0","pricing_plan_id":"cebpf4jnsgd1na2vs0mg"},{"bike_id":"bebb5105-4255-4e4b-93c0-aa25d253b67b","system_id":"levelo_inurba_marseille","lat":43.291994,"lon":5.392907,"is_reserved":false,"is_disabled":false,"rental_uris":{"android":"levelo://app?vid=bebb5105-4255-4e4b-93c0-aa25d253b67b","ios":"levelo://app?vid=bebb5105-4255-4e4b-93c0-aa25d253b67b"},"vehicle_type_id":"4","last_reported":1725034202,"current_range_meters":0,"station_id":"ce4bh192rcd13ifvqdd0","pricing_plan_id":"cebpf4jnsgd1na2vs0mg"},{"bike_id":"b2f5f0ab-dd3f-427f-8e71-9d5d5b6302e8","system_id":"levelo_inurba_marseille","lat":43.29188,"lon":5.39331,"is_reserved":false,"is_disabled":false,"rental_uris":{"android":"levelo://app?vid=b2f5f0ab-dd3f-427f-8e71-9d5d5b6302e8","ios":"levelo://app?vid=b2f5f0ab-dd3f-427f-8e71-9d5d5b6302e8"},"vehicle_type_id":"4","last_reported":1725034202,"current_range_meters":2000,"station_id":"ce4bh192rcd13ifvqdd0","pricing_plan_id":"cebpf4jnsgd1na2vs0mg"},{"bike_id":"1d8d0f22-cdb2-42df-8ff2-629da276daac","system_id":"levelo_inurba_marseille","lat":43.3176,"lon":5.405761,"is_reserved":false,"is_disabled":false,"rental_uris":{"android":"levelo://app?vid=1d8d0f22-cdb2-42df-8ff2-629da276daac","ios":"levelo://app?vid=1d8d0f22-cdb2-42df-8ff2-629da276daac"},"vehicle_type_id":"4","last_reported":1725034202,"current_range_meters":9200,"station_id":"","pricing_plan_id":"cebpf4jnsgd1na2vs0mg"},{"bike_id":"929591ce-3db9-44e4-bf43-7dbb607d42a5","system_id":"levelo_inurba_marseille","lat":43.284538,"lon":5.358657,"is_reserved":false,"is_disabled":false,"rental_uris":{"android":"levelo://app?vid=929591ce-3db9-44e4-bf43-7dbb607d42a5","ios":"levelo://app?vid=929591ce-3db9-44e4-bf43-7dbb607d42a5"},"vehicle_type_id":"4","last_reported":1725034202,"current_range_meters":400,"station_id":"ce4bhah2rcd13ifvqei0","pricing_plan_id":"cebpf4jnsgd1na2vs0mg"},{"bike_id":"19990962-f91c-443e-a3ee-a8482ee78cd9","system_id":"levelo_inurba_marseille","lat":43.284538,"lon":5.358657,"is_reserved":false,"is_disabled":false,"rental_uris":{"android":"levelo://app?vid=19990962-f91c-443e-a3ee-a8482ee78cd9","ios":"levelo://app?vid=19990962-f91c-443e-a3ee-a8482ee78cd9"},"vehicle_type_id":"4","last_reported":1725034202,"current_range_meters":7600,"station_id":"ce4bhah2rcd13ifvqei0","pricing_plan_id":"cebpf4jnsgd1na2vs0mg"},{"bike_id":"179c7f97-f135-4460-91b2-7bf1a21ca572","system_id":"levelo_inurba_marseille","lat":43.231919,"lon":5.355532,"is_reserved":false,"is_disabled":false,"rental_uris":{"android":"levelo://app?vid=179c7f97-f135-4460-91b2-7bf1a21ca572","ios":"levelo://app?vid=179c7f97-f135-4460-91b2-7bf1a21ca572"},"vehicle_type_id":"4","last_reported":1725034202,"current_range_meters":30400,"station_id":"ce4bhu92rcd13ifvqi70","pricing_plan_id":"cebpf4jnsgd1na2vs0mg"},{"bike_id":"4c5a2686-1e2c-4322-af30-c6acc8234468","system_id":"levelo_inurba_marseille","lat":43.28621,"lon":5.35105,"is_reserved":false,"is_disabled":false,"rental_uris":{"android":"levelo://app?vid=4c5a2686-1e2c-4322-af30-c6acc8234468","ios":"levelo://app?vid=4c5a2686-1e2c-4322-af30-c6acc8234468"},"vehicle_type_id":"4","last_reported":1725034202,"current_range_meters":25600,"station_id":"ce4bhch2rcd13ifvqeug","pricing_plan_id":"cebpf4jnsgd1na2vs0mg"},{"bike_id":"99e121cb-a560-4871-a6a7-d99d9cffff30","system_id":"levelo_inurba_marseille","lat":43.28621,"lon":5.35102,"is_reserved":false,"is_disabled":false,"rental_uris":{"android":"levelo://app?vid=99e121cb-a560-4871-a6a7-d99d9cffff30","ios":"levelo://app?vid=99e121cb-a560-4871-a6a7-d99d9cffff30"},"vehicle_type_id":"4","last_reported":1725034202,"current_range_meters":0,"station_id":"ce4bhch2rcd13ifvqeug","pricing_plan_id":"cebpf4jnsgd1na2vs0mg"},{"bike_id":"c137cf9d-cd7d-4eb8-87a6-ddc179f4ba3d","system_id":"levelo_inurba_marseille","lat":43.2862,"lon":5.35104,"is_reserved":false,"is_disabled":false,"rental_uris":{"android":"levelo://app?vid=c137cf9d-cd7d-4eb8-87a6-ddc179f4ba3d","ios":"levelo://app?vid=c137cf9d-cd7d-4eb8-87a6-ddc179f4ba3d"},"vehicle_type_id":"4","last_reported":1725034202,"current_range_meters":0,"station_id":"ce4bhch2rcd13ifvqeug","pricing_plan_id":"cebpf4jnsgd1na2vs0mg"},{"bike_id":"b23ea0df-3a9c-491a-a848-318f2e7506cd","system_id":"levelo_inurba_marseille","lat":43.2862,"lon":5.35103,"is_reserved":false,"is_disabled":false,"rental_uris":{"android":"levelo://app?vid=b23ea0df-3a9c-491a-a848-318f2e7506cd","ios":"levelo://app?vid=b23ea0df-3a9c-491a-a848-318f2e7506cd"},"vehicle_type_id":"4","last_reported":1725034202,"current_range_meters":26000,"station_id":"ce4bhch2rcd13ifvqeug","pricing_plan_id":"cebpf4jnsgd1na2vs0mg"},{"bike_id":"fe4309e1-bdd9-4a07-ba89-4c7916e6a873","system_id":"levelo_inurba_marseille","lat":43.286191,"lon":5.351051,"is_reserved":false,"is_disabled":false,"rental_uris":{"android":"levelo://app?vid=fe4309e1-bdd9-4a07-ba89-4c7916e6a873","ios":"levelo://app?vid=fe4309e1-bdd9-4a07-ba89-4c7916e6a873"},"vehicle_type_id":"4","last_reported":1725034202,"current_range_meters":0,"station_id":"","pricing_plan_id":"cebpf4jnsgd1na2vs0mg"},{"bike_id":"3b0c4fed-51f6-4a10-9c64-e079174b2687","system_id":"levelo_inurba_marseille","lat":43.28619,"lon":5.35104,"is_reserved":false,"is_disabled":false,"rental_uris":{"android":"levelo://app?vid=3b0c4fed-51f6-4a10-9c64-e079174b2687","ios":"levelo://app?vid=3b0c4fed-51f6-4a10-9c64-e079174b2687"},"vehicle_type_id":"4","last_reported":1725034202,"current_range_meters":5600,"station_id":"ce4bhch2rcd13ifvqeug","pricing_plan_id":"cebpf4jnsgd1na2vs0mg"},{"bike_id":"dfc8b114-11af-4632-8704-98cdbcf4efe9","system_id":"levelo_inurba_marseille","lat":43.285856,"lon":5.350771,"is_reserved":false,"is_disabled":false,"rental_uris":{"android":"levelo://app?vid=dfc8b114-11af-4632-8704-98cdbcf4efe9","ios":"levelo://app?vid=dfc8b114-11af-4632-8704-98cdbcf4efe9"},"vehicle_type_id":"4","last_reported":1725034202,"current_range_meters":16400,"station_id":"ce4bhch2rcd13ifvqeug","pricing_plan_id":"cebpf4jnsgd1na2vs0mg"},{"bike_id":"5b327142-5158-418a-8644-97d69f18fb46","system_id":"levelo_inurba_marseille","lat":43.28618,"lon":5.35099,"is_reserved":false,"is_disabled":false,"rental_uris":{"android":"levelo://app?vid=5b327142-5158-418a-8644-97d69f18fb46","ios":"levelo://app?vid=5b327142-5158-418a-8644-97d69f18fb46"},"vehicle_type_id":"4","last_reported":1725034202,"current_range_meters":9600,"station_id":"ce4bhch2rcd13ifvqeug","pricing_plan_id":"cebpf4jnsgd1na2vs0mg"},{"bike_id":"afc6d688-b3f4-4a84-85d3-fde960046695","system_id":"levelo_inurba_marseille","lat":43.285848,"lon":5.350787,"is_reserved":false,"is_disabled":false,"rental_uris":{"android":"levelo://app?vid=afc6d688-b3f4-4a84-85d3-fde960046695","ios":"levelo://app?vid=afc6d688-b3f4-4a84-85d3-fde960046695"},"vehicle_type_id":"4","last_reported":1725034202,"current_range_meters":30400,"station_id":"ce4bhch2rcd13ifvqeug","pricing_plan_id":"cebpf4jnsgd1na2vs0mg"},{"bike_id":"812567fa-7525-4343-b710-068673bc6a5c","system_id":"levelo_inurba_marseille","lat":43.28616,"lon":5.35103,"is_reserved":false,"is_disabled":false,"rental_uris":{"android":"levelo://app?vid=812567fa-7525-4343-b710-068673bc6a5c","ios":"levelo://app?vid=812567fa-7525-4343-b710-068673bc6a5c"},"vehicle_type_id":"4","last_reported":1725034202,"current_range_meters":6400,"station_id":"ce4bhch2rcd13ifvqeug","pricing_plan_id":"cebpf4jnsgd1na2vs0mg"},{"bike_id":"393d0f65-9517-4723-87c2-05daea577835","system_id":"levelo_inurba_marseille","lat":43.28617,"lon":5.35099,"is_reserved":false,"is_disabled":false,"rental_uris":{"android":"levelo://app?vid=393d0f65-9517-4723-87c2-05daea577835","ios":"levelo://app?vid=393d0f65-9517-4723-87c2-05daea577835"},"vehicle_type_id":"4","last_reported":1725034202,"current_range_meters":17600,"station_id":"ce4bhch2rcd13ifvqeug","pricing_plan_id":"cebpf4jnsgd1na2vs0mg"},{"bike_id":"daec3746-d53f-4d02-b084-aa9f8276f72a","system_id":"levelo_inurba_marseille","lat":43.28615,"lon":5.35105,"is_reserved":false,"is_disabled":false,"rental_uris":{"android":"levelo://app?vid=daec3746-d53f-4d02-b084-aa9f8276f72a","ios":"levelo://app?vid=daec3746-d53f-4d02-b084-aa9f8276f72a"},"vehicle_type_id":"4","last_reported":1725034202,"current_range_meters":6800,"station_id":"ce4bhch2rcd13ifvqeug","pricing_plan_id":"cebpf4jnsgd1na2vs0mg"},{"bike_id":"59c29825-af74-48ef-b152-33dda66b309f","system_id":"levelo_inurba_marseille","lat":43.28615,"lon":5.35103,"is_reserved":false,"is_disabled":false,"rental_uris":{"android":"levelo://app?vid=59c29825-af74-48ef-b152-33dda66b309f","ios":"levelo://app?vid=59c29825-af74-48ef-b152-33dda66b309f"},"vehicle_type_id":"4","last_reported":1725034202,"current_range_meters":17600,"station_id":"ce4bhch2rcd13ifvqeug","pricing_plan_id":"cebpf4jnsgd1na2vs0mg"},{"bike_id":"437da8b6-62a7-4727-a057-48e0aa1a1975","system_id":"levelo_inurba_marseille","lat":43.28616,"lon":5.35097,"is_reserved":false,"is_disabled":false,"rental_uris":{"android":"levelo://app?vid=437da8b6-62a7-4727-a057-48e0aa1a1975","ios":"levelo://app?vid=437da8b6-62a7-4727-a057-48e0aa1a1975"},"vehicle_type_id":"4","last_reported":1725034202,"current_range_meters":2400,"station_id":"ce4bhch2rcd13ifvqeug","pricing_plan_id":"cebpf4jnsgd1na2vs0mg"},{"bike_id":"c38ecb6f-69d3-498a-a2f9-f23a0edc01c0","system_id":"levelo_inurba_marseille","lat":43.28615,"lon":5.35097,"is_reserved":false,"is_disabled":false,"rental_uris":{"android":"levelo://app?vid=c38ecb6f-69d3-498a-a2f9-f23a0edc01c0","ios":"levelo://app?vid=c38ecb6f-69d3-498a-a2f9-f23a0edc01c0"},"vehicle_type_id":"4","last_reported":1725034202,"current_range_meters":28400,"station_id":"ce4bhch2rcd13ifvqeug","pricing_plan_id":"cebpf4jnsgd1na2vs0mg"},{"bike_id":"784054a0-ec51-4e1c-b668-14243c9f18bc","system_id":"levelo_inurba_marseille","lat":43.28614,"lon":5.35097,"is_reserved":false,"is_disabled":false,"rental_uris":{"android":"levelo://app?vid=784054a0-ec51-4e1c-b668-14243c9f18bc","ios":"levelo://app?vid=784054a0-ec51-4e1c-b668-14243c9f18bc"},"vehicle_type_id":"4","last_reported":1725034202,"current_range_meters":26400,"station_id":"ce4bhch2rcd13ifvqeug","pricing_plan_id":"cebpf4jnsgd1na2vs0mg"},{"bike_id":"37c5acf0-6f22-4274-86fb-5ea68a88e053","system_id":"levelo_inurba_marseille","lat":43.285848,"lon":5.350787,"is_reserved":false,"is_disabled":false,"rental_uris":{"android":"levelo://app?vid=37c5acf0-6f22-4274-86fb-5ea68a88e053","ios":"levelo://app?vid=37c5acf0-6f22-4274-86fb-5ea68a88e053"},"vehicle_type_id":"4","last_reported":1725034202,"current_range_meters":12800,"station_id":"ce4bhch2rcd13ifvqeug","pricing_plan_id":"cebpf4jnsgd1na2vs0mg"},{"bike_id":"bac20f4c-af51-465d-8446-b31ab84c3c5a","system_id":"levelo_inurba_marseille","lat":43.28659,"lon":5.38441,"is_reserved":false,"is_disabled":false,"rental_uris":{"android":"levelo://app?vid=bac20f4c-af51-465d-8446-b31ab84c3c5a","ios":"levelo://app?vid=bac20f4c-af51-465d-8446-b31ab84c3c5a"},"vehicle_type_id":"4","last_reported":1725034202,"current_range_meters":11600,"station_id":"","pricing_plan_id":"cebpf4jnsgd1na2vs0mg"},{"bike_id":"cac620f0-9234-4a30-b365-4033416d1ce9","system_id":"levelo_inurba_marseille","lat":43.28407,"lon":5.37496,"is_reserved":false,"is_disabled":false,"rental_uris":{"android":"levelo://app?vid=cac620f0-9234-4a30-b365-4033416d1ce9","ios":"levelo://app?vid=cac620f0-9234-4a30-b365-4033416d1ce9"},"vehicle_type_id":"4","last_reported":1725034202,"current_range_meters":7200,"station_id":"ce4bh412rcd13ifvqds0","pricing_plan_id":"cebpf4jnsgd1na2vs0mg"},{"bike_id":"f6737d91-1524-4767-a24a-8991a35e8653","system_id":"levelo_inurba_marseille","lat":43.295713,"lon":5.399639,"is_reserved":false,"is_disabled":false,"rental_uris":{"android":"levelo://app?vid=f6737d91-1524-4767-a24a-8991a35e8653","ios":"levelo://app?vid=f6737d91-1524-4767-a24a-8991a35e8653"},"vehicle_type_id":"4","last_reported":1725034202,"current_range_meters":0,"station_id":"ce4bh312rcd13ifvqdj0","pricing_plan_id":"cebpf4jnsgd1na2vs0mg"},{"bike_id":"98afb50d-9641-4e8d-8ee7-62fbe4d98cb2","system_id":"levelo_inurba_marseille","lat":43.295713,"lon":5.399639,"is_reserved":false,"is_disabled":false,"rental_uris":{"android":"levelo://app?vid=98afb50d-9641-4e8d-8ee7-62fbe4d98cb2","ios":"levelo://app?vid=98afb50d-9641-4e8d-8ee7-62fbe4d98cb2"},"vehicle_type_id":"4","last_reported":1725034202,"current_range_meters":400,"station_id":"ce4bh312rcd13ifvqdj0","pricing_plan_id":"cebpf4jnsgd1na2vs0mg"},{"bike_id":"4dbd9c2b-02d8-40bf-9d42-cb5b7dc26e6e","system_id":"levelo_inurba_marseille","lat":43.295713,"lon":5.399639,"is_reserved":false,"is_disabled":false,"rental_uris":{"android":"levelo://app?vid=4dbd9c2b-02d8-40bf-9d42-cb5b7dc26e6e","ios":"levelo://app?vid=4dbd9c2b-02d8-40bf-9d42-cb5b7dc26e6e"},"vehicle_type_id":"4","last_reported":1725034202,"current_range_meters":17200,"station_id":"ce4bh312rcd13ifvqdj0","pricing_plan_id":"cebpf4jnsgd1na2vs0mg"},{"bike_id":"712bd222-3081-4a84-b850-9cfbe0687747","system_id":"levelo_inurba_marseille","lat":43.32668,"lon":5.40308,"is_reserved":false,"is_disabled":false,"rental_uris":{"android":"levelo://app?vid=712bd222-3081-4a84-b850-9cfbe0687747","ios":"levelo://app?vid=712bd222-3081-4a84-b850-9cfbe0687747"},"vehicle_type_id":"4","last_reported":1725034202,"current_range_meters":5200,"station_id":"ce4rr2p2rcd13i802rgg","pricing_plan_id":"cebpf4jnsgd1na2vs0mg"},{"bike_id":"57bb8869-7794-479b-b825-02334420727f","system_id":"levelo_inurba_marseille","lat":43.31895,"lon":5.4073,"is_reserved":false,"is_disabled":false,"rental_uris":{"android":"levelo://app?vid=57bb8869-7794-479b-b825-02334420727f","ios":"levelo://app?vid=57bb8869-7794-479b-b825-02334420727f"},"vehicle_type_id":"4","last_reported":1725034202,"current_range_meters":29200,"station_id":"ce4bhq12rcd13ifvqhig","pricing_plan_id":"cebpf4jnsgd1na2vs0mg"},{"bike_id":"2fbbebce-0225-4dd7-8fc5-d6f23037561c","system_id":"levelo_inurba_marseille","lat":43.319179,"lon":5.407725,"is_reserved":false,"is_disabled":false,"rental_uris":{"android":"levelo://app?vid=2fbbebce-0225-4dd7-8fc5-d6f23037561c","ios":"levelo://app?vid=2fbbebce-0225-4dd7-8fc5-d6f23037561c"},"vehicle_type_id":"4","last_reported":1725034202,"current_range_meters":8000,"station_id":"ce4bhq12rcd13ifvqhig","pricing_plan_id":"cebpf4jnsgd1na2vs0mg"},{"bike_id":"8786a59f-c230-4592-b4ec-c67411dab3a2","system_id":"levelo_inurba_marseille","lat":43.3231,"lon":5.40621,"is_reserved":false,"is_disabled":false,"rental_uris":{"android":"levelo://app?vid=8786a59f-c230-4592-b4ec-c67411dab3a2","ios":"levelo://app?vid=8786a59f-c230-4592-b4ec-c67411dab3a2"},"vehicle_type_id":"4","last_reported":1725034202,"current_range_meters":4800,"station_id":"ce4bhq92rcd13ifvqhjg","pricing_plan_id":"cebpf4jnsgd1na2vs0mg"},{"bike_id":"d6cac55c-6e4e-4573-bd11-a60f7b67b5ba","system_id":"levelo_inurba_marseille","lat":43.33728,"lon":5.39198,"is_reserved":false,"is_disabled":false,"rental_uris":{"android":"levelo://app?vid=d6cac55c-6e4e-4573-bd11-a60f7b67b5ba","ios":"levelo://app?vid=d6cac55c-6e4e-4573-bd11-a60f7b67b5ba"},"vehicle_type_id":"4","last_reported":1725034202,"current_range_meters":18000,"station_id":"ce4bhr92rcd13ifvqhsg","pricing_plan_id":"cebpf4jnsgd1na2vs0mg"},{"bike_id":"4ab059e9-e8a3-454f-8d83-1bd49a9acb70","system_id":"levelo_inurba_marseille","lat":43.32352,"lon":5.40625,"is_reserved":false,"is_disabled":false,"rental_uris":{"android":"levelo://app?vid=4ab059e9-e8a3-454f-8d83-1bd49a9acb70","ios":"levelo://app?vid=4ab059e9-e8a3-454f-8d83-1bd49a9acb70"},"vehicle_type_id":"4","last_reported":1725034202,"current_range_meters":8000,"station_id":"ce4bhq92rcd13ifvqhjg","pricing_plan_id":"cebpf4jnsgd1na2vs0mg"},{"bike_id":"ea1839fc-4c45-4ca2-9740-55f6bd0a60d0","system_id":"levelo_inurba_marseille","lat":43.284787,"lon":5.384116,"is_reserved":false,"is_disabled":false,"rental_uris":{"android":"levelo://app?vid=ea1839fc-4c45-4ca2-9740-55f6bd0a60d0","ios":"levelo://app?vid=ea1839fc-4c45-4ca2-9740-55f6bd0a60d0"},"vehicle_type_id":"4","last_reported":1725034202,"current_range_meters":1200,"station_id":"ce4bh512rcd13ifvqe3g","pricing_plan_id":"cebpf4jnsgd1na2vs0mg"},{"bike_id":"6e08eb80-d3b6-450a-bb4d-4e7be5c63e73","system_id":"levelo_inurba_marseille","lat":43.284787,"lon":5.384116,"is_reserved":false,"is_disabled":false,"rental_uris":{"android":"levelo://app?vid=6e08eb80-d3b6-450a-bb4d-4e7be5c63e73","ios":"levelo://app?vid=6e08eb80-d3b6-450a-bb4d-4e7be5c63e73"},"vehicle_type_id":"4","last_reported":1725034202,"current_range_meters":7600,"station_id":"ce4bh512rcd13ifvqe3g","pricing_plan_id":"cebpf4jnsgd1na2vs0mg"},{"bike_id":"56dce851-f036-47a3-a9d4-e53023d485a8","system_id":"levelo_inurba_marseille","lat":43.288497,"lon":5.393089,"is_reserved":false,"is_disabled":false,"rental_uris":{"android":"levelo://app?vid=56dce851-f036-47a3-a9d4-e53023d485a8","ios":"levelo://app?vid=56dce851-f036-47a3-a9d4-e53023d485a8"},"vehicle_type_id":"4","last_reported":1725034202,"current_range_meters":0,"station_id":"ce4bh2p2rcd13ifvqdi0","pricing_plan_id":"cebpf4jnsgd1na2vs0mg"},{"bike_id":"6cc90288-e88c-4bff-b85b-0c62b6dd8b57","system_id":"levelo_inurba_marseille","lat":43.284214,"lon":5.349706,"is_reserved":false,"is_disabled":false,"rental_uris":{"android":"levelo://app?vid=6cc90288-e88c-4bff-b85b-0c62b6dd8b57","ios":"levelo://app?vid=6cc90288-e88c-4bff-b85b-0c62b6dd8b57"},"vehicle_type_id":"4","last_reported":1725034202,"current_range_meters":16000,"station_id":"ce4bhbh2rcd13ifvqepg","pricing_plan_id":"cebpf4jnsgd1na2vs0mg"},{"bike_id":"c53e45da-edc5-465d-b8d6-9e101a9954e8","system_id":"levelo_inurba_marseille","lat":43.284219,"lon":5.3497,"is_reserved":false,"is_disabled":false,"rental_uris":{"android":"levelo://app?vid=c53e45da-edc5-465d-b8d6-9e101a9954e8","ios":"levelo://app?vid=c53e45da-edc5-465d-b8d6-9e101a9954e8"},"vehicle_type_id":"4","last_reported":1725034202,"current_range_meters":31600,"station_id":"ce4bhbh2rcd13ifvqepg","pricing_plan_id":"cebpf4jnsgd1na2vs0mg"},{"bike_id":"3db4056c-e5f4-4e0c-9744-c5f7f9e0022b","system_id":"levelo_inurba_marseille","lat":43.284214,"lon":5.349706,"is_reserved":false,"is_disabled":false,"rental_uris":{"android":"levelo://app?vid=3db4056c-e5f4-4e0c-9744-c5f7f9e0022b","ios":"levelo://app?vid=3db4056c-e5f4-4e0c-9744-c5f7f9e0022b"},"vehicle_type_id":"4","last_reported":1725034202,"current_range_meters":22800,"station_id":"ce4bhbh2rcd13ifvqepg","pricing_plan_id":"cebpf4jnsgd1na2vs0mg"},{"bike_id":"c17e36fb-9a83-45b0-ab45-1c1fc6a8413b","system_id":"levelo_inurba_marseille","lat":43.284223,"lon":5.349878,"is_reserved":false,"is_disabled":false,"rental_uris":{"android":"levelo://app?vid=c17e36fb-9a83-45b0-ab45-1c1fc6a8413b","ios":"levelo://app?vid=c17e36fb-9a83-45b0-ab45-1c1fc6a8413b"},"vehicle_type_id":"4","last_reported":1725034202,"current_range_meters":30800,"station_id":"ce4bhbh2rcd13ifvqepg","pricing_plan_id":"cebpf4jnsgd1na2vs0mg"},{"bike_id":"33e7b818-72d1-4ee5-a323-d75456ee54dd","system_id":"levelo_inurba_marseille","lat":43.28423,"lon":5.34983,"is_reserved":false,"is_disabled":false,"rental_uris":{"android":"levelo://app?vid=33e7b818-72d1-4ee5-a323-d75456ee54dd","ios":"levelo://app?vid=33e7b818-72d1-4ee5-a323-d75456ee54dd"},"vehicle_type_id":"4","last_reported":1725034202,"current_range_meters":18400,"station_id":"ce4bhbh2rcd13ifvqepg","pricing_plan_id":"cebpf4jnsgd1na2vs0mg"},{"bike_id":"554de789-0d4b-409f-b10e-faa6c688c183","system_id":"levelo_inurba_marseille","lat":43.28419,"lon":5.3499,"is_reserved":false,"is_disabled":false,"rental_uris":{"android":"levelo://app?vid=554de789-0d4b-409f-b10e-faa6c688c183","ios":"levelo://app?vid=554de789-0d4b-409f-b10e-faa6c688c183"},"vehicle_type_id":"4","last_reported":1725034202,"current_range_meters":8400,"station_id":"ce4bhbh2rcd13ifvqepg","pricing_plan_id":"cebpf4jnsgd1na2vs0mg"},{"bike_id":"13bfacbc-765f-472c-83f2-80f49b6de425","system_id":"levelo_inurba_marseille","lat":43.28419,"lon":5.34985,"is_reserved":false,"is_disabled":false,"rental_uris":{"android":"levelo://app?vid=13bfacbc-765f-472c-83f2-80f49b6de425","ios":"levelo://app?vid=13bfacbc-765f-472c-83f2-80f49b6de425"},"vehicle_type_id":"4","last_reported":1725034202,"current_range_meters":16000,"station_id":"ce4bhbh2rcd13ifvqepg","pricing_plan_id":"cebpf4jnsgd1na2vs0mg"},{"bike_id":"000cba3a-6c41-44c3-a412-f3901f7b9601","system_id":"levelo_inurba_marseille","lat":43.284219,"lon":5.3497,"is_reserved":false,"is_disabled":false,"rental_uris":{"android":"levelo://app?vid=000cba3a-6c41-44c3-a412-f3901f7b9601","ios":"levelo://app?vid=000cba3a-6c41-44c3-a412-f3901f7b9601"},"vehicle_type_id":"4","last_reported":1725034202,"current_range_meters":16800,"station_id":"ce4bhbh2rcd13ifvqepg","pricing_plan_id":"cebpf4jnsgd1na2vs0mg"},{"bike_id":"2065e7ac-e118-4dd7-8cbe-a7450222ed98","system_id":"levelo_inurba_marseille","lat":43.284163,"lon":5.349927,"is_reserved":false,"is_disabled":false,"rental_uris":{"android":"levelo://app?vid=2065e7ac-e118-4dd7-8cbe-a7450222ed98","ios":"levelo://app?vid=2065e7ac-e118-4dd7-8cbe-a7450222ed98"},"vehicle_type_id":"4","last_reported":1725034202,"current_range_meters":16000,"station_id":"ce4bhbh2rcd13ifvqepg","pricing_plan_id":"cebpf4jnsgd1na2vs0mg"},{"bike_id":"7a5b5fb1-6a25-4c3a-852e-34d1fdc8fda0","system_id":"levelo_inurba_marseille","lat":43.28415,"lon":5.34994,"is_reserved":false,"is_disabled":false,"rental_uris":{"android":"levelo://app?vid=7a5b5fb1-6a25-4c3a-852e-34d1fdc8fda0","ios":"levelo://app?vid=7a5b5fb1-6a25-4c3a-852e-34d1fdc8fda0"},"vehicle_type_id":"4","last_reported":1725034202,"current_range_meters":12000,"station_id":"ce4bhbh2rcd13ifvqepg","pricing_plan_id":"cebpf4jnsgd1na2vs0mg"},{"bike_id":"bf99fac5-0e65-4e4b-ad03-eb2945e54799","system_id":"levelo_inurba_marseille","lat":43.28421,"lon":5.34974,"is_reserved":false,"is_disabled":false,"rental_uris":{"android":"levelo://app?vid=bf99fac5-0e65-4e4b-ad03-eb2945e54799","ios":"levelo://app?vid=bf99fac5-0e65-4e4b-ad03-eb2945e54799"},"vehicle_type_id":"4","last_reported":1725034202,"current_range_meters":26000,"station_id":"ce4bhbh2rcd13ifvqepg","pricing_plan_id":"cebpf4jnsgd1na2vs0mg"},{"bike_id":"7914bce5-018f-4a76-9bb3-cd2735d6f12c","system_id":"levelo_inurba_marseille","lat":43.284171,"lon":5.349839,"is_reserved":false,"is_disabled":false,"rental_uris":{"android":"levelo://app?vid=7914bce5-018f-4a76-9bb3-cd2735d6f12c","ios":"levelo://app?vid=7914bce5-018f-4a76-9bb3-cd2735d6f12c"},"vehicle_type_id":"4","last_reported":1725034202,"current_range_meters":28000,"station_id":"ce4bhbh2rcd13ifvqepg","pricing_plan_id":"cebpf4jnsgd1na2vs0mg"},{"bike_id":"dcd98386-9635-408f-adc3-51366f13ee60","system_id":"levelo_inurba_marseille","lat":43.28418,"lon":5.34981,"is_reserved":false,"is_disabled":false,"rental_uris":{"android":"levelo://app?vid=dcd98386-9635-408f-adc3-51366f13ee60","ios":"levelo://app?vid=dcd98386-9635-408f-adc3-51366f13ee60"},"vehicle_type_id":"4","last_reported":1725034202,"current_range_meters":0,"station_id":"ce4bhbh2rcd13ifvqepg","pricing_plan_id":"cebpf4jnsgd1na2vs0mg"},{"bike_id":"1c17cd7c-6b08-4b31-b85a-006b5cd2d061","system_id":"levelo_inurba_marseille","lat":43.28417,"lon":5.34982,"is_reserved":false,"is_disabled":false,"rental_uris":{"android":"levelo://app?vid=1c17cd7c-6b08-4b31-b85a-006b5cd2d061","ios":"levelo://app?vid=1c17cd7c-6b08-4b31-b85a-006b5cd2d061"},"vehicle_type_id":"4","last_reported":1725034202,"current_range_meters":30800,"station_id":"ce4bhbh2rcd13ifvqepg","pricing_plan_id":"cebpf4jnsgd1na2vs0mg"},{"bike_id":"8d2b16fc-d294-473b-89b9-efb0ec7a7d65","system_id":"levelo_inurba_marseille","lat":43.28414,"lon":5.34988,"is_reserved":false,"is_disabled":false,"rental_uris":{"android":"levelo://app?vid=8d2b16fc-d294-473b-89b9-efb0ec7a7d65","ios":"levelo://app?vid=8d2b16fc-d294-473b-89b9-efb0ec7a7d65"},"vehicle_type_id":"4","last_reported":1725034202,"current_range_meters":30800,"station_id":"ce4bhbh2rcd13ifvqepg","pricing_plan_id":"cebpf4jnsgd1na2vs0mg"},{"bike_id":"e2734062-2d7f-4689-9b0b-20fb3a6c7b4a","system_id":"levelo_inurba_marseille","lat":43.28414,"lon":5.349832,"is_reserved":false,"is_disabled":false,"rental_uris":{"android":"levelo://app?vid=e2734062-2d7f-4689-9b0b-20fb3a6c7b4a","ios":"levelo://app?vid=e2734062-2d7f-4689-9b0b-20fb3a6c7b4a"},"vehicle_type_id":"4","last_reported":1725034202,"current_range_meters":8000,"station_id":"ce4bhbh2rcd13ifvqepg","pricing_plan_id":"cebpf4jnsgd1na2vs0mg"},{"bike_id":"f5c2421e-c6a6-4fd8-938b-8f8a6428d47e","system_id":"levelo_inurba_marseille","lat":43.28414,"lon":5.34983,"is_reserved":false,"is_disabled":false,"rental_uris":{"android":"levelo://app?vid=f5c2421e-c6a6-4fd8-938b-8f8a6428d47e","ios":"levelo://app?vid=f5c2421e-c6a6-4fd8-938b-8f8a6428d47e"},"vehicle_type_id":"4","last_reported":1725034202,"current_range_meters":17600,"station_id":"ce4bhbh2rcd13ifvqepg","pricing_plan_id":"cebpf4jnsgd1na2vs0mg"},{"bike_id":"14a73591-f3ea-43bd-a47a-ce5e409eebd7","system_id":"levelo_inurba_marseille","lat":43.284217,"lon":5.349697,"is_reserved":false,"is_disabled":false,"rental_uris":{"android":"levelo://app?vid=14a73591-f3ea-43bd-a47a-ce5e409eebd7","ios":"levelo://app?vid=14a73591-f3ea-43bd-a47a-ce5e409eebd7"},"vehicle_type_id":"4","last_reported":1725034202,"current_range_meters":28000,"station_id":"ce4bhbh2rcd13ifvqepg","pricing_plan_id":"cebpf4jnsgd1na2vs0mg"},{"bike_id":"5859731d-d4a8-450f-9039-09d10d7e5aca","system_id":"levelo_inurba_marseille","lat":43.28413,"lon":5.34977,"is_reserved":false,"is_disabled":false,"rental_uris":{"android":"levelo://app?vid=5859731d-d4a8-450f-9039-09d10d7e5aca","ios":"levelo://app?vid=5859731d-d4a8-450f-9039-09d10d7e5aca"},"vehicle_type_id":"4","last_reported":1725034202,"current_range_meters":5600,"station_id":"ce4bhbh2rcd13ifvqepg","pricing_plan_id":"cebpf4jnsgd1na2vs0mg"},{"bike_id":"6d0f9c0d-3d79-484a-ba8c-229a0aba20ba","system_id":"levelo_inurba_marseille","lat":43.28412,"lon":5.34979,"is_reserved":false,"is_disabled":false,"rental_uris":{"android":"levelo://app?vid=6d0f9c0d-3d79-484a-ba8c-229a0aba20ba","ios":"levelo://app?vid=6d0f9c0d-3d79-484a-ba8c-229a0aba20ba"},"vehicle_type_id":"4","last_reported":1725034202,"current_range_meters":21200,"station_id":"ce4bhbh2rcd13ifvqepg","pricing_plan_id":"cebpf4jnsgd1na2vs0mg"},{"bike_id":"e017830a-3495-4a5e-9314-fb79a92623f0","system_id":"levelo_inurba_marseille","lat":43.2841,"lon":5.34985,"is_reserved":false,"is_disabled":false,"rental_uris":{"android":"levelo://app?vid=e017830a-3495-4a5e-9314-fb79a92623f0","ios":"levelo://app?vid=e017830a-3495-4a5e-9314-fb79a92623f0"},"vehicle_type_id":"4","last_reported":1725034202,"current_range_meters":0,"station_id":"ce4bhbh2rcd13ifvqepg","pricing_plan_id":"cebpf4jnsgd1na2vs0mg"},{"bike_id":"d7b7d298-a527-49f3-87f4-27caf9d65ca0","system_id":"levelo_inurba_marseille","lat":43.28413,"lon":5.34975,"is_reserved":false,"is_disabled":false,"rental_uris":{"android":"levelo://app?vid=d7b7d298-a527-49f3-87f4-27caf9d65ca0","ios":"levelo://app?vid=d7b7d298-a527-49f3-87f4-27caf9d65ca0"},"vehicle_type_id":"4","last_reported":1725034202,"current_range_meters":0,"station_id":"ce4bhbh2rcd13ifvqepg","pricing_plan_id":"cebpf4jnsgd1na2vs0mg"},{"bike_id":"b07d622f-8e73-481b-a5db-d12694b5bf62","system_id":"levelo_inurba_marseille","lat":43.28411,"lon":5.34978,"is_reserved":false,"is_disabled":false,"rental_uris":{"android":"levelo://app?vid=b07d622f-8e73-481b-a5db-d12694b5bf62","ios":"levelo://app?vid=b07d622f-8e73-481b-a5db-d12694b5bf62"},"vehicle_type_id":"4","last_reported":1725034202,"current_range_meters":0,"station_id":"ce4bhbh2rcd13ifvqepg","pricing_plan_id":"cebpf4jnsgd1na2vs0mg"},{"bike_id":"b3cc51d1-24dd-4e80-9340-9e0ec5bb9737","system_id":"levelo_inurba_marseille","lat":43.28409,"lon":5.34976,"is_reserved":false,"is_disabled":false,"rental_uris":{"android":"levelo://app?vid=b3cc51d1-24dd-4e80-9340-9e0ec5bb9737","ios":"levelo://app?vid=b3cc51d1-24dd-4e80-9340-9e0ec5bb9737"},"vehicle_type_id":"4","last_reported":1725034202,"current_range_meters":14000,"station_id":"ce4bhbh2rcd13ifvqepg","pricing_plan_id":"cebpf4jnsgd1na2vs0mg"},{"bike_id":"4cdaeb9e-b45e-496f-87d0-66545d4f0c31","system_id":"levelo_inurba_marseille","lat":43.284057,"lon":5.34982,"is_reserved":false,"is_disabled":false,"rental_uris":{"android":"levelo://app?vid=4cdaeb9e-b45e-496f-87d0-66545d4f0c31","ios":"levelo://app?vid=4cdaeb9e-b45e-496f-87d0-66545d4f0c31"},"vehicle_type_id":"4","last_reported":1725034202,"current_range_meters":6800,"station_id":"ce4bhbh2rcd13ifvqepg","pricing_plan_id":"cebpf4jnsgd1na2vs0mg"},{"bike_id":"beac6a7f-5f84-40bd-b05b-5357f83ba833","system_id":"levelo_inurba_marseille","lat":43.28405,"lon":5.3498,"is_reserved":false,"is_disabled":false,"rental_uris":{"android":"levelo://app?vid=beac6a7f-5f84-40bd-b05b-5357f83ba833","ios":"levelo://app?vid=beac6a7f-5f84-40bd-b05b-5357f83ba833"},"vehicle_type_id":"4","last_reported":1725034202,"current_range_meters":10000,"station_id":"ce4bhbh2rcd13ifvqepg","pricing_plan_id":"cebpf4jnsgd1na2vs0mg"},{"bike_id":"c2306f13-2fd0-4fdf-ab75-60f54bca1985","system_id":"levelo_inurba_marseille","lat":43.292724,"lon":5.401131,"is_reserved":false,"is_disabled":false,"rental_uris":{"android":"levelo://app?vid=c2306f13-2fd0-4fdf-ab75-60f54bca1985","ios":"levelo://app?vid=c2306f13-2fd0-4fdf-ab75-60f54bca1985"},"vehicle_type_id":"4","last_reported":1725034202,"current_range_meters":4000,"station_id":"ce4bh312rcd13ifvqdk0","pricing_plan_id":"cebpf4jnsgd1na2vs0mg"},{"bike_id":"41795116-07ca-4d07-bccb-1cd6e3336320","system_id":"levelo_inurba_marseille","lat":43.28275,"lon":5.350667,"is_reserved":false,"is_disabled":false,"rental_uris":{"android":"levelo://app?vid=41795116-07ca-4d07-bccb-1cd6e3336320","ios":"levelo://app?vid=41795116-07ca-4d07-bccb-1cd6e3336320"},"vehicle_type_id":"4","last_reported":1725034202,"current_range_meters":22400,"station_id":"ce4bhbp2rcd13ifvqerg","pricing_plan_id":"cebpf4jnsgd1na2vs0mg"},{"bike_id":"40752d0f-6afd-4324-8b40-2704b1f35bad","system_id":"levelo_inurba_marseille","lat":43.28276,"lon":5.35056,"is_reserved":false,"is_disabled":false,"rental_uris":{"android":"levelo://app?vid=40752d0f-6afd-4324-8b40-2704b1f35bad","ios":"levelo://app?vid=40752d0f-6afd-4324-8b40-2704b1f35bad"},"vehicle_type_id":"4","last_reported":1725034202,"current_range_meters":21200,"station_id":"ce4bhbp2rcd13ifvqerg","pricing_plan_id":"cebpf4jnsgd1na2vs0mg"},{"bike_id":"69d41117-fae2-43fe-aa48-88f000445ea0","system_id":"levelo_inurba_marseille","lat":43.282754,"lon":5.350519,"is_reserved":false,"is_disabled":false,"rental_uris":{"android":"levelo://app?vid=69d41117-fae2-43fe-aa48-88f000445ea0","ios":"levelo://app?vid=69d41117-fae2-43fe-aa48-88f000445ea0"},"vehicle_type_id":"4","last_reported":1725034202,"current_range_meters":13600,"station_id":"ce4bhbp2rcd13ifvqerg","pricing_plan_id":"cebpf4jnsgd1na2vs0mg"},{"bike_id":"c014156f-7325-4ca3-a911-f2471b44d8b9","system_id":"levelo_inurba_marseille","lat":43.28273,"lon":5.35054,"is_reserved":false,"is_disabled":false,"rental_uris":{"android":"levelo://app?vid=c014156f-7325-4ca3-a911-f2471b44d8b9","ios":"levelo://app?vid=c014156f-7325-4ca3-a911-f2471b44d8b9"},"vehicle_type_id":"4","last_reported":1725034202,"current_range_meters":31200,"station_id":"ce4bhbp2rcd13ifvqerg","pricing_plan_id":"cebpf4jnsgd1na2vs0mg"},{"bike_id":"bcb44e03-aeb2-4723-b524-56e8bc96b5c6","system_id":"levelo_inurba_marseille","lat":43.28268,"lon":5.35071,"is_reserved":false,"is_disabled":false,"rental_uris":{"android":"levelo://app?vid=bcb44e03-aeb2-4723-b524-56e8bc96b5c6","ios":"levelo://app?vid=bcb44e03-aeb2-4723-b524-56e8bc96b5c6"},"vehicle_type_id":"4","last_reported":1725034202,"current_range_meters":21600,"station_id":"ce4bhbp2rcd13ifvqerg","pricing_plan_id":"cebpf4jnsgd1na2vs0mg"},{"bike_id":"d96f1b62-4a19-482e-bfde-b95257e78bf4","system_id":"levelo_inurba_marseille","lat":43.282713,"lon":5.350553,"is_reserved":false,"is_disabled":false,"rental_uris":{"android":"levelo://app?vid=d96f1b62-4a19-482e-bfde-b95257e78bf4","ios":"levelo://app?vid=d96f1b62-4a19-482e-bfde-b95257e78bf4"},"vehicle_type_id":"4","last_reported":1725034202,"current_range_meters":24800,"station_id":"ce4bhbp2rcd13ifvqerg","pricing_plan_id":"cebpf4jnsgd1na2vs0mg"},