{"last_updated":1696950425,"ttl":30,"version":"2.2","data":{"bikes":[{"bike_id":"93290d19-ef8e-483f-9136-0bc8eaa51d29","system_id":"levelo_inurba_marseille","lat":43.312239,"lon":5.368562,"is_reserved":false,"is_disabled":false,"rental_uris":{"android":"levelo://app?vid=93290d19-ef8e-483f-9136-0bc8eaa51d29","ios":"levelo://app?vid=93290d19-ef8e-483f-9136-0bc8eaa51d29"},"vehicle_type_id":"4","last_reported":1696950426,"current_range_meters":31200,"station_id":"ce4bgl92rcd13ifvqbq0","pricing_plan_id":"free"},{"bike_id":"d41a5b53-8e6c-4742-84de-1a0f7088d01f","system_id":"levelo_inurba_marseille","lat":43.31218,"lon":5.3685,"is_reserved":false,"is_disabled":false,"rental_uris":{"android":"levelo://app?vid=d41a5b53-8e6c-4742-84de-1a0f7088d01f","ios":"levelo://app?vid=d41a5b53-8e6c-4742-84de-1a0f7088d01f"},"vehicle_type_id":"4","last_reported":1696950426,"current_range_meters":29200,"station_id":"ce4bgl92rcd13ifvqbq0","pricing_plan_id":"free"},{"bike_id":"adb18d85-094f-49c8-bd2e-3e9c0a7281f2","system_id":"levelo_inurba_marseille","lat":43.312239,"lon":5.368562,"is_reserved":false,"is_disabled":false,"rental_uris":{"android":"levelo://app?vid=adb18d85-094f-49c8-bd2e-3e9c0a7281f2","ios":"levelo://app?vid=adb18d85-094f-49c8-bd2e-3e9c0a7281f2"},"vehicle_type_id":"4","last_reported":1696950426,"current_range_meters":30800,"station_id":"ce4bgl92rcd13ifvqbq0","pricing_plan_id":"free"},{"bike_id":"6518ad5d-9c86-4bd6-8fd3-dd29f109ac86","system_id":"levelo_inurba_marseille","lat":43.31537,"lon":5.36865,"is_reserved":false,"is_disabled":false,"rental_uris":{"android":"levelo://app?vid=6518ad5d-9c86-4bd6-8fd3-dd29f109ac86","ios":"levelo://app?vid=6518ad5d-9c86-4bd6-8fd3-dd29f109ac86"},"vehicle_type_id":"4","last_reported":1696950426,"current_range_meters":4800,"station_id":"","pricing_plan_id":"free"},{"bike_id":"aa36214c-6cba-4b46-94e6-3641872a9a10","system_id":"levelo_inurba_marseille","lat":43.31433,"lon":5.37225,"is_reserved":false,"is_disabled":false,"rental_uris":{"android":"levelo://app?vid=aa36214c-6cba-4b46-94e6-3641872a9a10","ios":"levelo://app?vid=aa36214c-6cba-4b46-94e6-3641872a9a10"},"vehicle_type_id":"4","last_reported":1696950426,"current_range_meters":0,"station_id":"","pricing_plan_id":"free"},{"bike_id":"c2b4c9ff-4ba8-4a39-8f10-f403b3d85931","system_id":"levelo_inurba_marseille","lat":43.31872,"lon":5.36669,"is_reserved":false,"is_disabled":false,"rental_uris":{"android":"levelo://app?vid=c2b4c9ff-4ba8-4a39-8f10-f403b3d85931","ios":"levelo://app?vid=c2b4c9ff-4ba8-4a39-8f10-f403b3d85931"},"vehicle_type_id":"4","last_reported":1696950426,"current_range_meters":13600,"station_id":"","pricing_plan_id":"free"},{"bike_id":"97b72d6b-2ebd-4d2f-b37e-ae2005d05adb","system_id":"levelo_inurba_marseille","lat":43.31877,"lon":5.37157,"is_reserved":false,"is_disabled":false,"rental_uris":{"android":"levelo://app?vid=97b72d6b-2ebd-4d2f-b37e-ae2005d05adb","ios":"levelo://app?vid=97b72d6b-2ebd-4d2f-b37e-ae2005d05adb"},"vehicle_type_id":"4","last_reported":1696950426,"current_range_meters":29200,"station_id":"","pricing_plan_id":"free"},{"bike_id":"8317e0e4-50df-4f1c-9c21-7b1203752db1","system_id":"levelo_inurba_marseille","lat":43.31348,"lon":5.37642,"is_reserved":false,"is_disabled":false,"rental_uris":{"android":"levelo://app?vid=8317e0e4-50df-4f1c-9c21-7b1203752db1","ios":"levelo://app?vid=8317e0e4-50df-4f1c-9c21-7b1203752db1"},"vehicle_type_id":"4","last_reported":1696950426,"current_range_meters":0,"station_id":"","pricing_plan_id":"free"},{"bike_id":"933baba4-0ef2-4358-878e-8858b6f3db76","system_id":"levelo_inurba_marseille","lat":43.31352,"lon":5.37693,"is_reserved":false,"is_disabled":false,"rental_uris":{"android":"levelo://app?vid=933baba4-0ef2-4358-878e-8858b6f3db76","ios":"levelo://app?vid=933baba4-0ef2-4358-878e-8858b6f3db76"},"vehicle_type_id":"4","last_reported":1696950426,"current_range_meters":2800,"station_id":"ce4bgvp2rcd13ifvqcu0","pricing_plan_id":"free"},{"bike_id":"843d4739-b985-4c55-84da-ccb9a83160fa","system_id":"levelo_inurba_marseille","lat":43.311125,"lon":5.377624,"is_reserved":false,"is_disabled":false,"rental_uris":{"android":"levelo://app?vid=843d4739-b985-4c55-84da-ccb9a83160fa","ios":"levelo://app?vid=843d4739-b985-4c55-84da-ccb9a83160fa"},"vehicle_type_id":"4","last_reported":1696950426,"current_range_meters":21200,"station_id":"ce4bgt92rcd13ifvqcg0","pricing_plan_id":"free"},{"bike_id":"cf52fc07-da07-414d-9bb1-9deb2ebcda0c","system_id":"levelo_inurba_marseille","lat":43.31117,"lon":5.377925,"is_reserved":false,"is_disabled":false,"rental_uris":{"android":"levelo://app?vid=cf52fc07-da07-414d-9bb1-9deb2ebcda0c","ios":"levelo://app?vid=cf52fc07-da07-414d-9bb1-9deb2ebcda0c"},"vehicle_type_id":"4","last_reported":1696950426,"current_range_meters":0,"station_id":"ce4bgt92rcd13ifvqcg0","pricing_plan_id":"free"},{"bike_id":"9524b0ac-6bb3-41e0-91d0-c5ee7bcfd62f","system_id":"levelo_inurba_marseille","lat":43.307956,"lon":5.376488,"is_reserved":false,"is_disabled":false,"rental_uris":{"android":"levelo://app?vid=9524b0ac-6bb3-41e0-91d0-c5ee7bcfd62f","ios":"levelo://app?vid=9524b0ac-6bb3-41e0-91d0-c5ee7bcfd62f"},"vehicle_type_id":"4","last_reported":1696950426,"current_range_meters":6000,"station_id":"","pricing_plan_id":"free"},{"bike_id":"800ebe94-4960-4f9e-8c64-9491f9501b96","system_id":"levelo_inurba_marseille","lat":43.306064,"lon":5.375433,"is_reserved":false,"is_disabled":false,"rental_uris":{"android":"levelo://app?vid=800ebe94-4960-4f9e-8c64-9491f9501b96","ios":"levelo://app?vid=800ebe94-4960-4f9e-8c64-9491f9501b96"},"vehicle_type_id":"4","last_reported":1696950426,"current_range_meters":6000,"station_id":"","pricing_plan_id":"free"},{"bike_id":"5a96bd28-cda0-449f-b4e4-905f9045e549","system_id":"levelo_inurba_marseille","lat":43.32183,"lon":5.36842,"is_reserved":false,"is_disabled":false,"rental_uris":{"android":"levelo://app?vid=5a96bd28-cda0-449f-b4e4-905f9045e549","ios":"levelo://app?vid=5a96bd28-cda0-449f-b4e4-905f9045e549"},"vehicle_type_id":"4","last_reported":1696950426,"current_range_meters":12000,"station_id":"","pricing_plan_id":"free"},{"bike_id":"163d2399-bf5f-4bc1-93ce-b45bdf89425b","system_id":"levelo_inurba_marseille","lat":43.303046,"lon":5.368981,"is_reserved":false,"is_disabled":false,"rental_uris":{"android":"levelo://app?vid=163d2399-bf5f-4bc1-93ce-b45bdf89425b","ios":"levelo://app?vid=163d2399-bf5f-4bc1-93ce-b45bdf89425b"},"vehicle_type_id":"4","last_reported":1696950426,"current_range_meters":25600,"station_id":"ce4bgqh2rcd13ifvqc5g","pricing_plan_id":"free"},{"bike_id":"ea587c33-a516-42b7-b8f3-df1ecbbf17ff","system_id":"levelo_inurba_marseille","lat":43.30304,"lon":5.368987,"is_reserved":false,"is_disabled":false,"rental_uris":{"android":"levelo://app?vid=ea587c33-a516-42b7-b8f3-df1ecbbf17ff","ios":"levelo://app?vid=ea587c33-a516-42b7-b8f3-df1ecbbf17ff"},"vehicle_type_id":"4","last_reported":1696950426,"current_range_meters":17600,"station_id":"ce4bgqh2rcd13ifvqc5g","pricing_plan_id":"free"},{"bike_id":"071a1a65-ebbe-471e-8857-6fa3c16c42e3","system_id":"levelo_inurba_marseille","lat":43.308012,"lon":5.381511,"is_reserved":false,"is_disabled":false,"rental_uris":{"android":"levelo://app?vid=071a1a65-ebbe-471e-8857-6fa3c16c42e3","ios":"levelo://app?vid=071a1a65-ebbe-471e-8857-6fa3c16c42e3"},"vehicle_type_id":"4","last_reported":1696950426,"current_range_meters":31600,"station_id":"ce4bgt12rcd13ifvqce0","pricing_plan_id":"free"},{"bike_id":"505ee5ae-b22c-4079-acf8-ef84951315fc","system_id":"levelo_inurba_marseille","lat":43.308012,"lon":5.381511,"is_reserved":false,"is_disabled":false,"rental_uris":{"android":"levelo://app?vid=505ee5ae-b22c-4079-acf8-ef84951315fc","ios":"levelo://app?vid=505ee5ae-b22c-4079-acf8-ef84951315fc"},"vehicle_type_id":"4","last_reported":1696950426,"current_range_meters":17200,"station_id":"ce4bgt12rcd13ifvqce0","pricing_plan_id":"free"},{"bike_id":"8f992a64-4b6b-4034-bdf1-7c3ba967de7d","system_id":"levelo_inurba_marseille","lat":43.308021,"lon":5.381567,"is_reserved":false,"is_disabled":false,"rental_uris":{"android":"levelo://app?vid=8f992a64-4b6b-4034-bdf1-7c3ba967de7d","ios":"levelo://app?vid=8f992a64-4b6b-4034-bdf1-7c3ba967de7d"},"vehicle_type_id":"4","last_reported":1696950426,"current_range_meters":0,"station_id":"","pricing_plan_id":"free"},{"bike_id":"08844995-7460-488b-a77c-008d0bdd2add","system_id":"levelo_inurba_marseille","lat":43.282754,"lon":5.350519,"is_reserved":false,"is_disabled":false,"rental_uris":{"android":"levelo://app?vid=08844995-7460-488b-a77c-008d0bdd2add","ios":"levelo://app?vid=08844995-7460-488b-a77c-008d0bdd2add"},"vehicle_type_id":"4","last_reported":1696950426,"current_range_meters":4400,"station_id":"ce4bhbp2rcd13ifvqerg","pricing_plan_id":"free"},{"bike_id":"afa87554-46fd-491d-b8a5-ed52f8a15fb0","system_id":"levelo_inurba_marseille","lat":43.31991,"lon":5.38064,"is_reserved":false,"is_disabled":false,"rental_uris":{"android":"levelo://app?vid=afa87554-46fd-491d-b8a5-ed52f8a15fb0","ios":"levelo://app?vid=afa87554-46fd-491d-b8a5-ed52f8a15fb0"},"vehicle_type_id":"4","last_reported":1696950426,"current_range_meters":6000,"station_id":"","pricing_plan_id":"free"},{"bike_id":"5c81aeb9-c045-4e59-858c-a7da63fbf941","system_id":"levelo_inurba_marseille","lat":43.319935,"lon":5.381699,"is_reserved":false,"is_disabled":false,"rental_uris":{"android":"levelo://app?vid=5c81aeb9-c045-4e59-858c-a7da63fbf941","ios":"levelo://app?vid=5c81aeb9-c045-4e59-858c-a7da63fbf941"},"vehicle_type_id":"4","last_reported":1696950426,"current_range_meters":17600,"station_id":"ce4bhr12rcd13ifvqhpg","pricing_plan_id":"free"},{"bike_id":"29c89d61-eb3b-4999-a8e3-732632ba045e","system_id":"levelo_inurba_marseille","lat":43.313571,"lon":5.384829,"is_reserved":false,"is_disabled":false,"rental_uris":{"android":"levelo://app?vid=29c89d61-eb3b-4999-a8e3-732632ba045e","ios":"levelo://app?vid=29c89d61-eb3b-4999-a8e3-732632ba045e"},"vehicle_type_id":"4","last_reported":1696950426,"current_range_meters":18000,"station_id":"ce4bgt92rcd13ifvqcf0","pricing_plan_id":"free"},{"bike_id":"bce7fca3-5ae0-47b1-8fbd-ed4d9e11f710","system_id":"levelo_inurba_marseille","lat":43.299767,"lon":5.371789,"is_reserved":false,"is_disabled":false,"rental_uris":{"android":"levelo://app?vid=bce7fca3-5ae0-47b1-8fbd-ed4d9e11f710","ios":"levelo://app?vid=bce7fca3-5ae0-47b1-8fbd-ed4d9e11f710"},"vehicle_type_id":"4","last_reported":1696950426,"current_range_meters":0,"station_id":"ce4bgr92rcd13ifvqc7g","pricing_plan_id":"free"},{"bike_id":"a537e31a-4df1-4b90-b31a-744f50d94c5b","system_id":"levelo_inurba_marseille","lat":43.299222,"lon":5.365554,"is_reserved":false,"is_disabled":false,"rental_uris":{"android":"levelo://app?vid=a537e31a-4df1-4b90-b31a-744f50d94c5b","ios":"levelo://app?vid=a537e31a-4df1-4b90-b31a-744f50d94c5b"},"vehicle_type_id":"4","last_reported":1696950426,"current_range_meters":28800,"station_id":"ce4bgm92rcd13ifvqbr0","pricing_plan_id":"free"},{"bike_id":"7f1eba7a-375a-4bf5-9fcf-dc154d61ee4b","system_id":"levelo_inurba_marseille","lat":43.32665,"lon":5.36101,"is_reserved":false,"is_disabled":false,"rental_uris":{"android":"levelo://app?vid=7f1eba7a-375a-4bf5-9fcf-dc154d61ee4b","ios":"levelo://app?vid=7f1eba7a-375a-4bf5-9fcf-dc154d61ee4b"},"vehicle_type_id":"4","last_reported":1696950426,"current_range_meters":16000,"station_id":"","pricing_plan_id":"free"},{"bike_id":"643f5228-3ca6-41d1-85a7-151f977e9ddb","system_id":"levelo_inurba_marseille","lat":43.298014,"lon":5.366568,"is_reserved":false,"is_disabled":false,"rental_uris":{"android":"levelo://app?vid=643f5228-3ca6-41d1-85a7-151f977e9ddb","ios":"levelo://app?vid=643f5228-3ca6-41d1-85a7-151f977e9ddb"},"vehicle_type_id":"4","last_reported":1696950426,"current_range_meters":13200,"station_id":"","pricing_plan_id":"free"},{"bike_id":"3ae6d611-1a87-4b10-9443-7ed127bc2a5f","system_id":"levelo_inurba_marseille","lat":43.311867,"lon":5.387163,"is_reserved":false,"is_disabled":false,"rental_uris":{"android":"levelo://app?vid=3ae6d611-1a87-4b10-9443-7ed127bc2a5f","ios":"levelo://app?vid=3ae6d611-1a87-4b10-9443-7ed127bc2a5f"},"vehicle_type_id":"4","last_reported":1696950426,"current_range_meters":24400,"station_id":"ce4bgv12rcd13ifvqcp0","pricing_plan_id":"free"},{"bike_id":"c4d71f33-4020-4e3b-a4ec-b8001d9b2a98","system_id":"levelo_inurba_marseille","lat":43.29907,"lon":5.37467,"is_reserved":false,"is_disabled":false,"rental_uris":{"android":"levelo://app?vid=c4d71f33-4020-4e3b-a4ec-b8001d9b2a98","ios":"levelo://app?vid=c4d71f33-4020-4e3b-a4ec-b8001d9b2a98"},"vehicle_type_id":"4","last_reported":1696950426,"current_range_meters":29600,"station_id":"ce4bgjh2rcd13ifvqbg0","pricing_plan_id":"free"},{"bike_id":"f6ea16a2-7a11-413f-aee2-6d3ff90898f5","system_id":"levelo_inurba_marseille","lat":43.29909,"lon":5.37524,"is_reserved":false,"is_disabled":false,"rental_uris":{"android":"levelo://app?vid=f6ea16a2-7a11-413f-aee2-6d3ff90898f5","ios":"levelo://app?vid=f6ea16a2-7a11-413f-aee2-6d3ff90898f5"},"vehicle_type_id":"4","last_reported":1696950426,"current_range_meters":0,"station_id":"","pricing_plan_id":"free"},{"bike_id":"b1866448-5164-40f6-8f79-393f63f39a02","system_id":"levelo_inurba_marseille","lat":43.297824,"lon":5.371114,"is_reserved":false,"is_disabled":false,"rental_uris":{"android":"levelo://app?vid=b1866448-5164-40f6-8f79-393f63f39a02","ios":"levelo://app?vid=b1866448-5164-40f6-8f79-393f63f39a02"},"vehicle_type_id":"4","last_reported":1696950426,"current_range_meters":21200,"station_id":"ce4bgop2rcd13ifvqc1g","pricing_plan_id":"free"},{"bike_id":"cc697ebc-eb22-464f-a06c-f679aded9ab4","system_id":"levelo_inurba_marseille","lat":43.322872,"lon":5.382756,"is_reserved":false,"is_disabled":false,"rental_uris":{"android":"levelo://app?vid=cc697ebc-eb22-464f-a06c-f679aded9ab4","ios":"levelo://app?vid=cc697ebc-eb22-464f-a06c-f679aded9ab4"},"vehicle_type_id":"4","last_reported":1696950426,"current_range_meters":14400,"station_id":"ce4bhr12rcd13ifvqhqg","pricing_plan_id":"free"},{"bike_id":"dbdfefec-ce94-4f57-b6f3-fb7ecb0de27f","system_id":"levelo_inurba_marseille","lat":43.32831,"lon":5.36688,"is_reserved":false,"is_disabled":false,"rental_uris":{"android":"levelo://app?vid=dbdfefec-ce94-4f57-b6f3-fb7ecb0de27f","ios":"levelo://app?vid=dbdfefec-ce94-4f57-b6f3-fb7ecb0de27f"},"vehicle_type_id":"4","last_reported":1696950426,"current_range_meters":0,"station_id":"ce4bhs92rcd13ifvqi0g","pricing_plan_id":"free"},{"bike_id":"451377af-1837-4987-a10e-e8525d55de14","system_id":"levelo_inurba_marseille","lat":43.29953,"lon":5.37845,"is_reserved":false,"is_disabled":false,"rental_uris":{"android":"levelo://app?vid=451377af-1837-4987-a10e-e8525d55de14","ios":"levelo://app?vid=451377af-1837-4987-a10e-e8525d55de14"},"vehicle_type_id":"4","last_reported":1696950426,"current_range_meters":6000,"station_id":"","pricing_plan_id":"free"},{"bike_id":"1293be6d-465b-4c7b-8a6b-828f589c90a0","system_id":"levelo_inurba_marseille","lat":43.297163,"lon":5.365866,"is_reserved":false,"is_disabled":false,"rental_uris":{"android":"levelo://app?vid=1293be6d-465b-4c7b-8a6b-828f589c90a0","ios":"levelo://app?vid=1293be6d-465b-4c7b-8a6b-828f589c90a0"},"vehicle_type_id":"4","last_reported":1696950426,"current_range_meters":28400,"station_id":"ce4bgn12rcd13ifvqbt0","pricing_plan_id":"free"},{"bike_id":"108b82d4-4d07-4f7d-aca1-4d808ba61c64","system_id":"levelo_inurba_marseille","lat":43.29573,"lon":5.367355,"is_reserved":false,"is_disabled":false,"rental_uris":{"android":"levelo://app?vid=108b82d4-4d07-4f7d-aca1-4d808ba61c64","ios":"levelo://app?vid=108b82d4-4d07-4f7d-aca1-4d808ba61c64"},"vehicle_type_id":"4","last_reported":1696950426,"current_range_meters":21200,"station_id":"ce4bgph2rcd13ifvqc2g","pricing_plan_id":"free"},{"bike_id":"ac68c931-946a-41b8-b86e-16c723aa6ae4","system_id":"levelo_inurba_marseille","lat":43.296131,"lon":5.370773,"is_reserved":false,"is_disabled":false,"rental_uris":{"android":"levelo://app?vid=ac68c931-946a-41b8-b86e-16c723aa6ae4","ios":"levelo://app?vid=ac68c931-946a-41b8-b86e-16c723aa6ae4"},"vehicle_type_id":"4","last_reported":1696950426,"current_range_meters":4400,"station_id":"ce4bgnh2rcd13ifvqc0g","pricing_plan_id":"free"},{"bike_id":"6f8346ec-a05d-4d82-b782-cdbedbf07d14","system_id":"levelo_inurba_marseille","lat":43.32195,"lon":5.386885,"is_reserved":false,"is_disabled":false,"rental_uris":{"android":"levelo://app?vid=6f8346ec-a05d-4d82-b782-cdbedbf07d14","ios":"levelo://app?vid=6f8346ec-a05d-4d82-b782-cdbedbf07d14"},"vehicle_type_id":"4","last_reported":1696950426,"current_range_meters":24400,"station_id":"","pricing_plan_id":"free"},{"bike_id":"10b68299-af20-4e45-924c-63c9a94bfc4c","system_id":"levelo_inurba_marseille","lat":43.299028,"lon":5.381509,"is_reserved":false,"is_disabled":false,"rental_uris":{"android":"levelo://app?vid=10b68299-af20-4e45-924c-63c9a94bfc4c","ios":"levelo://app?vid=10b68299-af20-4e45-924c-63c9a94bfc4c"},"vehicle_type_id":"4","last_reported":1696950426,"current_range_meters":0,"station_id":"ce4bgj12rcd13ifvqbc0","pricing_plan_id":"free"},{"bike_id":"7ccc1751-061f-4aa0-83f4-b8b1b7a8f02b","system_id":"levelo_inurba_marseille","lat":43.31758,"lon":5.39013,"is_reserved":false,"is_disabled":false,"rental_uris":{"android":"levelo://app?vid=7ccc1751-061f-4aa0-83f4-b8b1b7a8f02b","ios":"levelo://app?vid=7ccc1751-061f-4aa0-83f4-b8b1b7a8f02b"},"vehicle_type_id":"4","last_reported":1696950426,"current_range_meters":15600,"station_id":"ce4bhqp2rcd13ifvqhng","pricing_plan_id":"free"},{"bike_id":"65ec6746-f3ad-476a-b97d-4f6d24a3448e","system_id":"levelo_inurba_marseille","lat":43.298116,"lon":5.380908,"is_reserved":false,"is_disabled":false,"rental_uris":{"android":"levelo://app?vid=65ec6746-f3ad-476a-b97d-4f6d24a3448e","ios":"levelo://app?vid=65ec6746-f3ad-476a-b97d-4f6d24a3448e"},"vehicle_type_id":"4","last_reported":1696950426,"current_range_meters":31200,"station_id":"ce4bgip2rcd13ifvqbb0","pricing_plan_id":"free"},{"bike_id":"7334c9dd-6883-42a4-9e96-b16ec63905ad","system_id":"levelo_inurba_marseille","lat":43.298037,"lon":5.381066,"is_reserved":false,"is_disabled":false,"rental_uris":{"android":"levelo://app?vid=7334c9dd-6883-42a4-9e96-b16ec63905ad","ios":"levelo://app?vid=7334c9dd-6883-42a4-9e96-b16ec63905ad"},"vehicle_type_id":"4","last_reported":1696950426,"current_range_meters":22800,"station_id":"ce4bgip2rcd13ifvqbb0","pricing_plan_id":"free"},{"bike_id":"1a29d695-fec4-478c-9487-273bf934d107","system_id":"levelo_inurba_marseille","lat":43.304278,"lon":5.388868,"is_reserved":false,"is_disabled":false,"rental_uris":{"android":"levelo://app?vid=1a29d695-fec4-478c-9487-273bf934d107","ios":"levelo://app?vid=1a29d695-fec4-478c-9487-273bf934d107"},"vehicle_type_id":"4","last_reported":1696950426,"current_range_meters":22800,"station_id":"ce4bgk12rcd13ifvqbi0","pricing_plan_id":"free"},{"bike_id":"599cfab0-9815-44f2-a2a6-5d3932297b58","system_id":"levelo_inurba_marseille","lat":43.304278,"lon":5.388868,"is_reserved":false,"is_disabled":false,"rental_uris":{"android":"levelo://app?vid=599cfab0-9815-44f2-a2a6-5d3932297b58","ios":"levelo://app?vid=599cfab0-9815-44f2-a2a6-5d3932297b58"},"vehicle_type_id":"4","last_reported":1696950426,"current_range_meters":12000,"station_id":"ce4bgk12rcd13ifvqbi0","pricing_plan_id":"free"},{"bike_id":"42b51f72-a002-4bec-b56c-a6c3ce8cc10d","system_id":"levelo_inurba_marseille","lat":43.304278,"lon":5.388868,"is_reserved":false,"is_disabled":false,"rental_uris":{"android":"levelo://app?vid=42b51f72-a002-4bec-b56c-a6c3ce8cc10d","ios":"levelo://app?vid=42b51f72-a002-4bec-b56c-a6c3ce8cc10d"},"vehicle_type_id":"4","last_reported":1696950426,"current_range_meters":10800,"station_id":"ce4bgk12rcd13ifvqbi0","pricing_plan_id":"free"},{"bike_id":"ace4b955-fa36-45ac-b5df-f6d81bf7dc2c","system_id":"levelo_inurba_marseille","lat":43.299717,"lon":5.384845,"is_reserved":false,"is_disabled":false,"rental_uris":{"android":"levelo://app?vid=ace4b955-fa36-45ac-b5df-f6d81bf7dc2c","ios":"levelo://app?vid=ace4b955-fa36-45ac-b5df-f6d81bf7dc2c"},"vehicle_type_id":"4","last_reported":1696950426,"current_range_meters":9600,"station_id":"ce4bgj92rcd13ifvqbd0","pricing_plan_id":"free"},{"bike_id":"3d7fc691-7f09-44c2-8970-e8f1aaf3e99b","system_id":"levelo_inurba_marseille","lat":43.295279,"lon":5.375048,"is_reserved":false,"is_disabled":false,"rental_uris":{"android":"levelo://app?vid=3d7fc691-7f09-44c2-8970-e8f1aaf3e99b","ios":"levelo://app?vid=3d7fc691-7f09-44c2-8970-e8f1aaf3e99b"},"vehicle_type_id":"4","last_reported":1696950426,"current_range_meters":30000,"station_id":"ce4bgkp2rcd13ifvqbmg","pricing_plan_id":"free"},{"bike_id":"f6585b31-ff45-4402-8685-c8d7b792653b","system_id":"levelo_inurba_marseille","lat":43.32182,"lon":5.38938,"is_reserved":false,"is_disabled":false,"rental_uris":{"android":"levelo://app?vid=f6585b31-ff45-4402-8685-c8d7b792653b","ios":"levelo://app?vid=f6585b31-ff45-4402-8685-c8d7b792653b"},"vehicle_type_id":"4","last_reported":1696950426,"current_range_meters":2000,"station_id":"","pricing_plan_id":"free"},{"bike_id":"a29a04f6-ee4a-4115-8fc8-75c200ab0e32","system_id":"levelo_inurba_marseille","lat":43.323712,"lon":5.388874,"is_reserved":false,"is_disabled":false,"rental_uris":{"android":"levelo://app?vid=a29a04f6-ee4a-4115-8fc8-75c200ab0e32","ios":"levelo://app?vid=a29a04f6-ee4a-4115-8fc8-75c200ab0e32"},"vehicle_type_id":"4","last_reported":1696950426,"current_range_meters":31200,"station_id":"","pricing_plan_id":"free"},{"bike_id":"a875ff7f-ef81-40eb-bdca-5427178a55a5","system_id":"levelo_inurba_marseille","lat":43.32385,"lon":5.38923,"is_reserved":false,"is_disabled":false,"rental_uris":{"android":"levelo://app?vid=a875ff7f-ef81-40eb-bdca-5427178a55a5","ios":"levelo://app?vid=a875ff7f-ef81-40eb-bdca-5427178a55a5"},"vehicle_type_id":"4","last_reported":1696950426,"current_range_meters":22000,"station_id":"ce4bhqp2rcd13ifvqhog","pricing_plan_id":"free"},{"bike_id":"3fa2ecd5-db71-4707-8e7c-94160de5eba8","system_id":"levelo_inurba_marseille","lat":43.293249,"lon":5.371578,"is_reserved":false,"is_disabled":false,"rental_uris":{"android":"levelo://app?vid=3fa2ecd5-db71-4707-8e7c-94160de5eba8","ios":"levelo://app?vid=3fa2ecd5-db71-4707-8e7c-94160de5eba8"},"vehicle_type_id":"4","last_reported":1696950426,"current_range_meters":14000,"station_id":"ce4bgh92rcd13ifvqb40","pricing_plan_id":"free"},{"bike_id":"d86a408e-d6db-4d79-8711-34f0d975c8bc","system_id":"levelo_inurba_marseille","lat":43.292749,"lon":5.368402,"is_reserved":false,"is_disabled":false,"rental_uris":{"android":"levelo://app?vid=d86a408e-d6db-4d79-8711-34f0d975c8bc","ios":"levelo://app?vid=d86a408e-d6db-4d79-8711-34f0d975c8bc"},"vehicle_type_id":"4","last_reported":1696950426,"current_range_meters":14400,"station_id":"ce4bhbp2rcd13ifvqesg","pricing_plan_id":"free"},{"bike_id":"6ef7a9a9-dbed-462a-b7e9-ba47f68b6cf5","system_id":"levelo_inurba_marseille","lat":43.292749,"lon":5.368402,"is_reserved":false,"is_disabled":false,"rental_uris":{"android":"levelo://app?vid=6ef7a9a9-dbed-462a-b7e9-ba47f68b6cf5","ios":"levelo://app?vid=6ef7a9a9-dbed-462a-b7e9-ba47f68b6cf5"},"vehicle_type_id":"4","last_reported":1696950426,"current_range_meters":20400,"station_id":"ce4bhbp2rcd13ifvqesg","pricing_plan_id":"free"},{"bike_id":"c8baeaa5-fe7f-4bd5-bda8-673fb3793006","system_id":"levelo_inurba_marseille","lat":43.32908,"lon":5.38393,"is_reserved":false,"is_disabled":false,"rental_uris":{"android":"levelo://app?vid=c8baeaa5-fe7f-4bd5-bda8-673fb3793006","ios":"levelo://app?vid=c8baeaa5-fe7f-4bd5-bda8-673fb3793006"},"vehicle_type_id":"4","last_reported":1696950426,"current_range_meters":9600,"station_id":"","pricing_plan_id":"free"},{"bike_id":"0db3cde6-504c-4608-9121-5ec7f794ca19","system_id":"levelo_inurba_marseille","lat":43.302992,"lon":5.392136,"is_reserved":false,"is_disabled":false,"rental_uris":{"android":"levelo://app?vid=0db3cde6-504c-4608-9121-5ec7f794ca19","ios":"levelo://app?vid=0db3cde6-504c-4608-9121-5ec7f794ca19"},"vehicle_type_id":"4","last_reported":1696950426,"current_range_meters":31200,"station_id":"ce4bgkh2rcd13ifvqbk0","pricing_plan_id":"free"},{"bike_id":"55da4b1e-ec25-4280-b823-fbb2e26c473e","system_id":"levelo_inurba_marseille","lat":43.29299,"lon":5.37617,"is_reserved":false,"is_disabled":false,"rental_uris":{"android":"levelo://app?vid=55da4b1e-ec25-4280-b823-fbb2e26c473e","ios":"levelo://app?vid=55da4b1e-ec25-4280-b823-fbb2e26c473e"},"vehicle_type_id":"4","last_reported":1696950426,"current_range_meters":5600,"station_id":"ce4bgi12rcd13ifvqb80","pricing_plan_id":"free"},{"bike_id":"8ccdb072-973c-4d28-9dae-097ae9aa0448","system_id":"levelo_inurba_marseille","lat":43.32183,"lon":5.39285,"is_reserved":false,"is_disabled":false,"rental_uris":{"android":"levelo://app?vid=8ccdb072-973c-4d28-9dae-097ae9aa0448","ios":"levelo://app?vid=8ccdb072-973c-4d28-9dae-097ae9aa0448"},"vehicle_type_id":"4","last_reported":1696950426,"current_range_meters":10000,"station_id":"","pricing_plan_id":"free"},{"bike_id":"3f76ab58-2bf0-4049-a7c1-33f2a3ab9fc7","system_id":"levelo_inurba_marseille","lat":43.292311,"lon":5.360731,"is_reserved":false,"is_disabled":false,"rental_uris":{"android":"levelo://app?vid=3f76ab58-2bf0-4049-a7c1-33f2a3ab9fc7","ios":"levelo://app?vid=3f76ab58-2bf0-4049-a7c1-33f2a3ab9fc7"},"vehicle_type_id":"4","last_reported":1696950426,"current_range_meters":3200,"station_id":"ce4bhbh2rcd13ifvqeqg","pricing_plan_id":"free"},{"bike_id":"f4cf515f-ac45-4bb7-822b-793dae161a8f","system_id":"levelo_inurba_marseille","lat":43.300852,"lon":5.390859,"is_reserved":false,"is_disabled":false,"rental_uris":{"android":"levelo://app?vid=f4cf515f-ac45-4bb7-822b-793dae161a8f","ios":"levelo://app?vid=f4cf515f-ac45-4bb7-822b-793dae161a8f"},"vehicle_type_id":"4","last_reported":1696950426,"current_range_meters":29200,"station_id":"ce4bh192rcd13ifvqdb0","pricing_plan_id":"free"},{"bike_id":"fac78421-ff13-4315-8d72-069e691b1b56","system_id":"levelo_inurba_marseille","lat":43.291705,"lon":5.371571,"is_reserved":false,"is_disabled":false,"rental_uris":{"android":"levelo://app?vid=fac78421-ff13-4315-8d72-069e691b1b56","ios":"levelo://app?vid=fac78421-ff13-4315-8d72-069e691b1b56"},"vehicle_type_id":"4","last_reported":1696950426,"current_range_meters":6000,"station_id":"","pricing_plan_id":"free"},{"bike_id":"f3877aac-2557-46dd-a031-4ffdbf9e091d","system_id":"levelo_inurba_marseille","lat":43.298764,"lon":5.388973,"is_reserved":false,"is_disabled":false,"rental_uris":{"android":"levelo://app?vid=f3877aac-2557-46dd-a031-4ffdbf9e091d","ios":"levelo://app?vid=f3877aac-2557-46dd-a031-4ffdbf9e091d"},"vehicle_type_id":"4","last_reported":1696950426,"current_range_meters":0,"station_id":"ce4bh392rcd13ifvqdl0","pricing_plan_id":"free"},{"bike_id":"64ae4127-0610-406b-a6dd-301a9328c4d4","system_id":"levelo_inurba_marseille","lat":43.298764,"lon":5.388973,"is_reserved":false,"is_disabled":false,"rental_uris":{"android":"levelo://app?vid=64ae4127-0610-406b-a6dd-301a9328c4d4","ios":"levelo://app?vid=64ae4127-0610-406b-a6dd-301a9328c4d4"},"vehicle_type_id":"4","last_reported":1696950426,"current_range_meters":0,"station_id":"ce4bh392rcd13ifvqdl0","pricing_plan_id":"free"},{"bike_id":"89d2cc24-f8aa-4956-bb4a-2ede2919a2a9","system_id":"levelo_inurba_marseille","lat":43.29203,"lon":5.35797,"is_reserved":false,"is_disabled":false,"rental_uris":{"android":"levelo://app?vid=89d2cc24-f8aa-4956-bb4a-2ede2919a2a9","ios":"levelo://app?vid=89d2cc24-f8aa-4956-bb4a-2ede2919a2a9"},"vehicle_type_id":"4","last_reported":1696950426,"current_range_meters":14000,"station_id":"","pricing_plan_id":"free"},{"bike_id":"b1c23c03-71d9-4872-980f-940c090cb580","system_id":"levelo_inurba_marseille","lat":43.291959,"lon":5.358015,"is_reserved":false,"is_disabled":false,"rental_uris":{"android":"levelo://app?vid=b1c23c03-71d9-4872-980f-940c090cb580","ios":"levelo://app?vid=b1c23c03-71d9-4872-980f-940c090cb580"},"vehicle_type_id":"4","last_reported":1696950426,"current_range_meters":20400,"station_id":"","pricing_plan_id":"free"},{"bike_id":"c01f722a-a6ce-424f-be9b-ffebb1014fc0","system_id":"levelo_inurba_marseille","lat":43.3132,"lon":5.396989,"is_reserved":false,"is_disabled":false,"rental_uris":{"android":"levelo://app?vid=c01f722a-a6ce-424f-be9b-ffebb1014fc0","ios":"levelo://app?vid=c01f722a-a6ce-424f-be9b-ffebb1014fc0"},"vehicle_type_id":"4","last_reported":1696950426,"current_range_meters":28400,"station_id":"","pricing_plan_id":"free"},{"bike_id":"a145fc46-731a-4708-9ba1-7bd45a993589","system_id":"levelo_inurba_marseille","lat":43.313291,"lon":5.396838,"is_reserved":false,"is_disabled":false,"rental_uris":{"android":"levelo://app?vid=a145fc46-731a-4708-9ba1-7bd45a993589","ios":"levelo://app?vid=a145fc46-731a-4708-9ba1-7bd45a993589"},"vehicle_type_id":"4","last_reported":1696950426,"current_range_meters":15600,"station_id":"ce4bgvp2rcd13ifvqcu0","pricing_plan_id":"free"},{"bike_id":"c46a8da0-8470-4673-a487-229ce8622409","system_id":"levelo_inurba_marseille","lat":43.33371,"lon":5.35765,"is_reserved":false,"is_disabled":false,"rental_uris":{"android":"levelo://app?vid=c46a8da0-8470-4673-a487-229ce8622409","ios":"levelo://app?vid=c46a8da0-8470-4673-a487-229ce8622409"},"vehicle_type_id":"4","last_reported":1696950426,"current_range_meters":0,"station_id":"","pricing_plan_id":"free"},{"bike_id":"aa4819cd-a5a5-485c-b0ef-19ae8bff7e42","system_id":"levelo_inurba_marseille","lat":43.29029,"lon":5.36981,"is_reserved":false,"is_disabled":false,"rental_uris":{"android":"levelo://app?vid=aa4819cd-a5a5-485c-b0ef-19ae8bff7e42","ios":"levelo://app?vid=aa4819cd-a5a5-485c-b0ef-19ae8bff7e42"},"vehicle_type_id":"4","last_reported":1696950426,"current_range_meters":0,"station_id":"","pricing_plan_id":"free"},{"bike_id":"1fc4f0db-d8b1-4352-aeac-7b2836e2782f","system_id":"levelo_inurba_marseille","lat":43.302008,"lon":5.394694,"is_reserved":false,"is_disabled":false,"rental_uris":{"android":"levelo://app?vid=1fc4f0db-d8b1-4352-aeac-7b2836e2782f","ios":"levelo://app?vid=1fc4f0db-d8b1-4352-aeac-7b2836e2782f"},"vehicle_type_id":"4","last_reported":1696950426,"current_range_meters":28000,"station_id":"ce4bh0p2rcd13ifvqd70","pricing_plan_id":"free"},{"bike_id":"542e036d-0908-47e3-aed2-6fb888bb85bb","system_id":"levelo_inurba_marseille","lat":43.290631,"lon":5.359244,"is_reserved":false,"is_disabled":false,"rental_uris":{"android":"levelo://app?vid=542e036d-0908-47e3-aed2-6fb888bb85bb","ios":"levelo://app?vid=542e036d-0908-47e3-aed2-6fb888bb85bb"},"vehicle_type_id":"4","last_reported":1696950426,"current_range_meters":26800,"station_id":"ce4bha92rcd13ifvqeg0","pricing_plan_id":"free"},{"bike_id":"4c3f12e2-a44a-4680-9890-36e6573998a1","system_id":"levelo_inurba_marseille","lat":43.29135,"lon":5.35458,"is_reserved":false,"is_disabled":false,"rental_uris":{"android":"levelo://app?vid=4c3f12e2-a44a-4680-9890-36e6573998a1","ios":"levelo://app?vid=4c3f12e2-a44a-4680-9890-36e6573998a1"},"vehicle_type_id":"4","last_reported":1696950426,"current_range_meters":15200,"station_id":"ce4bh192rcd13ifvqdc0","pricing_plan_id":"free"},{"bike_id":"093b1a73-9998-452f-ace4-36ff67ece9b3","system_id":"levelo_inurba_marseille","lat":43.2903,"lon":5.37558,"is_reserved":false,"is_disabled":false,"rental_uris":{"android":"levelo://app?vid=093b1a73-9998-452f-ace4-36ff67ece9b3","ios":"levelo://app?vid=093b1a73-9998-452f-ace4-36ff67ece9b3"},"vehicle_type_id":"4","last_reported":1696950426,"current_range_meters":0,"station_id":"ce4bh692rcd13ifvqe90","pricing_plan_id":"free"},{"bike_id":"4c57b2ea-0255-4d60-a0f7-48fd735ac896","system_id":"levelo_inurba_marseille","lat":43.29416,"lon":5.38628,"is_reserved":false,"is_disabled":false,"rental_uris":{"android":"levelo://app?vid=4c57b2ea-0255-4d60-a0f7-48fd735ac896","ios":"levelo://app?vid=4c57b2ea-0255-4d60-a0f7-48fd735ac896"},"vehicle_type_id":"4","last_reported":1696950426,"current_range_meters":30000,"station_id":"ce4bh2h2rcd13ifvqdh0","pricing_plan_id":"free"},{"bike_id":"9a391f28-63cd-46cd-ba8d-bb668ccbd82a","system_id":"levelo_inurba_marseille","lat":43.32723,"lon":5.39208,"is_reserved":false,"is_disabled":false,"rental_uris":{"android":"levelo://app?vid=9a391f28-63cd-46cd-ba8d-bb668ccbd82a","ios":"levelo://app?vid=9a391f28-63cd-46cd-ba8d-bb668ccbd82a"},"vehicle_type_id":"4","last_reported":1696950426,"current_range_meters":0,"station_id":"","pricing_plan_id":"free"},{"bike_id":"4f855ead-3b87-4c75-927d-cb6d529b12fb","system_id":"levelo_inurba_marseille","lat":43.289184,"lon":5.366408,"is_reserved":false,"is_disabled":false,"rental_uris":{"android":"levelo://app?vid=4f855ead-3b87-4c75-927d-cb6d529b12fb","ios":"levelo://app?vid=4f855ead-3b87-4c75-927d-cb6d529b12fb"},"vehicle_type_id":"4","last_reported":1696950426,"current_range_meters":29600,"station_id":"ce4bhap2rcd13ifvqek0","pricing_plan_id":"free"},{"bike_id":"cbc0f37f-dca2-44e2-8094-df16ecd24fd1","system_id":"levelo_inurba_marseille","lat":43.292644,"lon":5.384257,"is_reserved":false,"is_disabled":false,"rental_uris":{"android":"levelo://app?vid=cbc0f37f-dca2-44e2-8094-df16ecd24fd1","ios":"levelo://app?vid=cbc0f37f-dca2-44e2-8094-df16ecd24fd1"},"vehicle_type_id":"4","last_reported":1696950426,"current_range_meters":0,"station_id":"ce4bh692rcd13ifvqea0","pricing_plan_id":"free"},{"bike_id":"d5e01090-44c3-41b4-b463-029ed49cf274","system_id":"levelo_inurba_marseille","lat":43.29263,"lon":5.38444,"is_reserved":false,"is_disabled":false,"rental_uris":{"android":"levelo://app?vid=d5e01090-44c3-41b4-b463-029ed49cf274","ios":"levelo://app?vid=d5e01090-44c3-41b4-b463-029ed49cf274"},"vehicle_type_id":"4","last_reported":1696950426,"current_range_meters":0,"station_id":"ce4bh692rcd13ifvqea0","pricing_plan_id":"free"},{"bike_id":"220a6936-a90f-4521-8469-1d104baf6b37","system_id":"levelo_inurba_marseille","lat":43.292642,"lon":5.384254,"is_reserved":false,"is_disabled":false,"rental_uris":{"android":"levelo://app?vid=220a6936-a90f-4521-8469-1d104baf6b37","ios":"levelo://app?vid=220a6936-a90f-4521-8469-1d104baf6b37"},"vehicle_type_id":"4","last_reported":1696950426,"current_range_meters":27200,"station_id":"ce4bh692rcd13ifvqea0","pricing_plan_id":"free"},{"bike_id":"e6d57891-78f5-4887-b717-d4842a14a6ac","system_id":"levelo_inurba_marseille","lat":43.33039,"lon":5.38925,"is_reserved":false,"is_disabled":false,"rental_uris":{"android":"levelo://app?vid=e6d57891-78f5-4887-b717-d4842a14a6ac","ios":"levelo://app?vid=e6d57891-78f5-4887-b717-d4842a14a6ac"},"vehicle_type_id":"4","last_reported":1696950426,"current_range_meters":8000,"station_id":"ce4bhr92rcd13ifvqhrg","pricing_plan_id":"free"},{"bike_id":"3f8f0e1e-01b5-4975-8475-f5e280844a31","system_id":"levelo_inurba_marseille","lat":43.290103,"lon":5.356114,"is_reserved":false,"is_disabled":false,"rental_uris":{"android":"levelo://app?vid=3f8f0e1e-01b5-4975-8475-f5e280844a31","ios":"levelo://app?vid=3f8f0e1e-01b5-4975-8475-f5e280844a31"},"vehicle_type_id":"4","last_reported":1696950426,"current_range_meters":23200,"station_id":"ce4bhb92rcd13ifvqen0","pricing_plan_id":"free"},{"bike_id":"6c7faff8-005b-49b0-ac0c-75cbb7f4a12a","system_id":"levelo_inurba_marseille","lat":43.290018,"lon":5.356114,"is_reserved":false,"is_disabled":false,"rental_uris":{"android":"levelo://app?vid=6c7faff8-005b-49b0-ac0c-75cbb7f4a12a","ios":"levelo://app?vid=6c7faff8-005b-49b0-ac0c-75cbb7f4a12a"},"vehicle_type_id":"4","last_reported":1696950426,"current_range_meters":31200,"station_id":"ce4bhb92rcd13ifvqen0","pricing_plan_id":"free"},{"bike_id":"52e572f2-572c-4146-994c-afc7605ce2a8","system_id":"levelo_inurba_marseille","lat":43.295169,"lon":5.390426,"is_reserved":false,"is_disabled":false,"rental_uris":{"android":"levelo://app?vid=52e572f2-572c-4146-994c-afc7605ce2a8","ios":"levelo://app?vid=52e572f2-572c-4146-994c-afc7605ce2a8"},"vehicle_type_id":"4","last_reported":1696950426,"current_range_meters":24800,"station_id":"ce4bh3p2rcd13ifvqdp0","pricing_plan_id":"free"},{"bike_id":"9b47612a-8f57-489c-b23f-9753e6643f7b","system_id":"levelo_inurba_marseille","lat":43.295169,"lon":5.390426,"is_reserved":false,"is_disabled":false,"rental_uris":{"android":"levelo://app?vid=9b47612a-8f57-489c-b23f-9753e6643f7b","ios":"levelo://app?vid=9b47612a-8f57-489c-b23f-9753e6643f7b"},"vehicle_type_id":"4","last_reported":1696950426,"current_range_meters":400,"station_id":"ce4bh3p2rcd13ifvqdp0","pricing_plan_id":"free"},{"bike_id":"7ccf4bb7-8e26-491a-8203-c24cd8344de3","system_id":"levelo_inurba_marseille","lat":43.28856,"lon":5.358371,"is_reserved":false,"is_disabled":false,"rental_uris":{"android":"levelo://app?vid=7ccf4bb7-8e26-491a-8203-c24cd8344de3","ios":"levelo://app?vid=7ccf4bb7-8e26-491a-8203-c24cd8344de3"},"vehicle_type_id":"4","last_reported":1696950426,"current_range_meters":30000,"station_id":"ce4bhb12rcd13ifvqem0","pricing_plan_id":"free"},{"bike_id":"db1b326e-e050-4b8f-af46-aa71a5d0ad12","system_id":"levelo_inurba_marseille","lat":43.29003,"lon":5.38161,"is_reserved":false,"is_disabled":false,"rental_uris":{"android":"levelo://app?vid=db1b326e-e050-4b8f-af46-aa71a5d0ad12","ios":"levelo://app?vid=db1b326e-e050-4b8f-af46-aa71a5d0ad12"},"vehicle_type_id":"4","last_reported":1696950426,"current_range_meters":0,"station_id":"ce4bh4p2rcd13ifvqe1g","pricing_plan_id":"free"},{"bike_id":"d1cb4fc3-486d-4331-b54f-9d93a4c0c7e3","system_id":"levelo_inurba_marseille","lat":43.33788,"lon":5.36787,"is_reserved":false,"is_disabled":false,"rental_uris":{"android":"levelo://app?vid=d1cb4fc3-486d-4331-b54f-9d93a4c0c7e3","ios":"levelo://app?vid=d1cb4fc3-486d-4331-b54f-9d93a4c0c7e3"},"vehicle_type_id":"4","last_reported":1696950426,"current_range_meters":11600,"station_id":"","pricing_plan_id":"free"},{"bike_id":"2498e350-d56c-4c4d-9194-731f5518e3e0","system_id":"levelo_inurba_marseille","lat":43.337328,"lon":5.374652,"is_reserved":false,"is_disabled":false,"rental_uris":{"android":"levelo://app?vid=2498e350-d56c-4c4d-9194-731f5518e3e0","ios":"levelo://app?vid=2498e350-d56c-4c4d-9194-731f5518e3e0"},"vehicle_type_id":"4","last_reported":1696950426,"current_range_meters":31200,"station_id":"","pricing_plan_id":"free"},{"bike_id":"135bf23b-0679-4e58-9a71-5fc578a9398b","system_id":"levelo_inurba_marseille","lat":43.337463,"lon":5.374556,"is_reserved":false,"is_disabled":false,"rental_uris":{"android":"levelo://app?vid=135bf23b-0679-4e58-9a71-5fc578a9398b","ios":"levelo://app?vid=135bf23b-0679-4e58-9a71-5fc578a9398b"},"vehicle_type_id":"4","last_reported":1696950426,"current_range_meters":28000,"station_id":"","pricing_plan_id":"free"},{"bike_id":"e5530f6b-92bf-4696-b197-99566a6f6b8b","system_id":"levelo_inurba_marseille","lat":43.309371,"lon":5.401449,"is_reserved":false,"is_disabled":false,"rental_uris":{"android":"levelo://app?vid=e5530f6b-92bf-4696-b197-99566a6f6b8b","ios":"levelo://app?vid=e5530f6b-92bf-4696-b197-99566a6f6b8b"},"vehicle_type_id":"4","last_reported":1696950426,"current_range_meters":30000,"station_id":"ce4bgvp2rcd13ifvqct0","pricing_plan_id":"free"},{"bike_id":"e91523e1-7c63-46a9-b49b-1f697684489f","system_id":"levelo_inurba_marseille","lat":43.337502,"lon":5.374509,"is_reserved":false,"is_disabled":false,"rental_uris":{"android":"levelo://app?vid=e91523e1-7c63-46a9-b49b-1f697684489f","ios":"levelo://app?vid=e91523e1-7c63-46a9-b49b-1f697684489f"},"vehicle_type_id":"4","last_reported":1696950426,"current_range_meters":18400,"station_id":"","pricing_plan_id":"free"},{"bike_id":"05647e7d-129a-48d7-8f0e-ea7d2f5b1d6c","system_id":"levelo_inurba_marseille","lat":43.337509,"lon":5.374609,"is_reserved":false,"is_disabled":false,"rental_uris":{"android":"levelo://app?vid=05647e7d-129a-48d7-8f0e-ea7d2f5b1d6c","ios":"levelo://app?vid=05647e7d-129a-48d7-8f0e-ea7d2f5b1d6c"},"vehicle_type_id":"4","last_reported":1696950426,"current_range_meters":13200,"station_id":"","pricing_plan_id":"free"},{"bike_id":"506daf5b-1fd0-4822-8a10-89fc4f985347","system_id":"levelo_inurba_marseille","lat":43.312973,"lon":5.401872,"is_reserved":false,"is_disabled":false,"rental_uris":{"android":"levelo://app?vid=506daf5b-1fd0-4822-8a10-89fc4f985347","ios":"levelo://app?vid=506daf5b-1fd0-4822-8a10-89fc4f985347"},"vehicle_type_id":"4","last_reported":1696950426,"current_range_meters":0,"station_id":"","pricing_plan_id":"free"},{"bike_id":"1238509b-e8c9-4e04-b4ea-b95e4f4b0ebb","system_id":"levelo_inurba_marseille","lat":43.337568,"lon":5.3745,"is_reserved":false,"is_disabled":false,"rental_uris":{"android":"levelo://app?vid=1238509b-e8c9-4e04-b4ea-b95e4f4b0ebb","ios":"levelo://app?vid=1238509b-e8c9-4e04-b4ea-b95e4f4b0ebb"},"vehicle_type_id":"4","last_reported":1696950426,"current_range_meters":26000,"station_id":"","pricing_plan_id":"free"},{"bike_id":"a68e0488-9b8d-4757-8bab-7fb1cc9dc4d3","system_id":"levelo_inurba_marseille","lat":43.33027,"lon":5.39228,"is_reserved":false,"is_disabled":false,"rental_uris":{"android":"levelo://app?vid=a68e0488-9b8d-4757-8bab-7fb1cc9dc4d3","ios":"levelo://app?vid=a68e0488-9b8d-4757-8bab-7fb1cc9dc4d3"},"vehicle_type_id":"4","last_reported":1696950426,"current_range_meters":8800,"station_id":"","pricing_plan_id":"free"},{"bike_id":"92286f60-689d-4d7e-af53-31460ae2df9f","system_id":"levelo_inurba_marseille","lat":43.33768,"lon":5.374335,"is_reserved":false,"is_disabled":false,"rental_uris":{"android":"levelo://app?vid=92286f60-689d-4d7e-af53-31460ae2df9f","ios":"levelo://app?vid=92286f60-689d-4d7e-af53-31460ae2df9f"},"vehicle_type_id":"4","last_reported":1696950426,"current_range_meters":30000,"station_id":"","pricing_plan_id":"free"},{"bike_id":"463d2e23-3a01-4ab4-9552-f3a0556dabee","system_id":"levelo_inurba_marseille","lat":43.337713,"lon":5.374306,"is_reserved":false,"is_disabled":false,"rental_uris":{"android":"levelo://app?vid=463d2e23-3a01-4ab4-9552-f3a0556dabee","ios":"levelo://app?vid=463d2e23-3a01-4ab4-9552-f3a0556dabee"},"vehicle_type_id":"4","last_reported":1696950426,"current_range_meters":30000,"station_id":"","pricing_plan_id":"free"},{"bike_id":"c1cde366-b834-4c73-a39f-89d7d0a97293","system_id":"levelo_inurba_marseille","lat":43.337595,"lon":5.375083,"is_reserved":false,"is_disabled":false,"rental_uris":{"android":"levelo://app?vid=c1cde366-b834-4c73-a39f-89d7d0a97293","ios":"levelo://app?vid=c1cde366-b834-4c73-a39f-89d7d0a97293"},"vehicle_type_id":"4","last_reported":1696950426,"current_range_meters":30400,"station_id":"","pricing_plan_id":"free"},{"bike_id":"f2bab616-2568-4f41-9898-f2004d9b5795","system_id":"levelo_inurba_marseille","lat":43.337736,"lon":5.374292,"is_reserved":false,"is_disabled":false,"rental_uris":{"android":"levelo://app?vid=f2bab616-2568-4f41-9898-f2004d9b5795","ios":"levelo://app?vid=f2bab616-2568-4f41-9898-f2004d9b5795"},"vehicle_type_id":"4","last_reported":1696950426,"current_range_meters":30000,"station_id":"","pricing_plan_id":"free"},{"bike_id":"49b33027-ea3a-4c9e-aecd-b0b1c5704b69","system_id":"levelo_inurba_marseille","lat":43.309282,"lon":5.401749,"is_reserved":false,"is_disabled":false,"rental_uris":{"android":"levelo://app?vid=49b33027-ea3a-4c9e-aecd-b0b1c5704b69","ios":"levelo://app?vid=49b33027-ea3a-4c9e-aecd-b0b1c5704b69"},"vehicle_type_id":"4","last_reported":1696950426,"current_range_meters":800,"station_id":"ce4bh512rcd13ifvqe2g","pricing_plan_id":"free"},{"bike_id":"76c22cb2-110d-4d8d-b418-bfd56b7bf7c5","system_id":"levelo_inurba_marseille","lat":43.287027,"lon":5.373897,"is_reserved":false,"is_disabled":false,"rental_uris":{"android":"levelo://app?vid=76c22cb2-110d-4d8d-b418-bfd56b7bf7c5","ios":"levelo://app?vid=76c22cb2-110d-4d8d-b418-bfd56b7bf7c5"},"vehicle_type_id":"4","last_reported":1696950426,"current_range_meters":0,"station_id":"ce4bh3p2rcd13ifvqdq0","pricing_plan_id":"free"},{"bike_id":"3dd78e35-a4fc-4e25-9f57-858ab37bc516","system_id":"levelo_inurba_marseille","lat":43.287559,"lon":5.377053,"is_reserved":false,"is_disabled":false,"rental_uris":{"android":"levelo://app?vid=3dd78e35-a4fc-4e25-9f57-858ab37bc516","ios":"levelo://app?vid=3dd78e35-a4fc-4e25-9f57-858ab37bc516"},"vehicle_type_id":"4","last_reported":1696950426,"current_range_meters":16400,"station_id":"","pricing_plan_id":"free"},{"bike_id":"f2bb4301-5852-48e9-b951-44503ca0ada5","system_id":"levelo_inurba_marseille","lat":43.295196,"lon":5.39397,"is_reserved":false,"is_disabled":false,"rental_uris":{"android":"levelo://app?vid=f2bb4301-5852-48e9-b951-44503ca0ada5","ios":"levelo://app?vid=f2bb4301-5852-48e9-b951-44503ca0ada5"},"vehicle_type_id":"4","last_reported":1696950426,"current_range_meters":18000,"station_id":"ce4bh292rcd13ifvqdf0","pricing_plan_id":"free"},{"bike_id":"36dfaa93-6331-4ac5-930f-e63016ee4d14","system_id":"levelo_inurba_marseille","lat":43.302759,"lon":5.400793,"is_reserved":false,"is_disabled":false,"rental_uris":{"android":"levelo://app?vid=36dfaa93-6331-4ac5-930f-e63016ee4d14","ios":"levelo://app?vid=36dfaa93-6331-4ac5-930f-e63016ee4d14"},"vehicle_type_id":"4","last_reported":1696950426,"current_range_meters":26800,"station_id":"ce4bgvh2rcd13ifvqcs0","pricing_plan_id":"free"},{"bike_id":"fdf7afa0-f757-4400-a2aa-fa0e0838f54a","system_id":"levelo_inurba_marseille","lat":43.2903,"lon":5.38638,"is_reserved":false,"is_disabled":false,"rental_uris":{"android":"levelo://app?vid=fdf7afa0-f757-4400-a2aa-fa0e0838f54a","ios":"levelo://app?vid=fdf7afa0-f757-4400-a2aa-fa0e0838f54a"},"vehicle_type_id":"4","last_reported":1696950426,"current_range_meters":2800,"station_id":"ce4bh4p2rcd13ifvqe0g","pricing_plan_id":"free"},{"bike_id":"443f4f62-5634-4fa3-a3f8-dd713199fa5f","system_id":"levelo_inurba_marseille","lat":43.290299,"lon":5.38652,"is_reserved":false,"is_disabled":false,"rental_uris":{"android":"levelo://app?vid=443f4f62-5634-4fa3-a3f8-dd713199fa5f","ios":"levelo://app?vid=443f4f62-5634-4fa3-a3f8-dd713199fa5f"},"vehicle_type_id":"4","last_reported":1696950426,"current_range_meters":18400,"station_id":"","pricing_plan_id":"free"},{"bike_id":"2988d417-fb60-4bc7-aa70-597b9053f754","system_id":"levelo_inurba_marseille","lat":43.302759,"lon":5.400793,"is_reserved":false,"is_disabled":false,"rental_uris":{"android":"levelo://app?vid=2988d417-fb60-4bc7-aa70-597b9053f754","ios":"levelo://app?vid=2988d417-fb60-4bc7-aa70-597b9053f754"},"vehicle_type_id":"4","last_reported":1696950426,"current_range_meters":0,"station_id":"ce4bgvh2rcd13ifvqcs0","pricing_plan_id":"free"},{"bike_id":"60eef652-5a62-46ad-b0d1-52c5963b690e","system_id":"levelo_inurba_marseille","lat":43.286039,"lon":5.370679,"is_reserved":false,"is_disabled":false,"rental_uris":{"android":"levelo://app?vid=60eef652-5a62-46ad-b0d1-52c5963b690e","ios":"levelo://app?vid=60eef652-5a62-46ad-b0d1-52c5963b690e"},"vehicle_type_id":"4","last_reported":1696950426,"current_range_meters":26000,"station_id":"ce4bht12rcd13ifvqi60","pricing_plan_id":"free"},{"bike_id":"5656ee0e-7962-45b0-881b-660fa6ec295d","system_id":"levelo_inurba_marseille","lat":43.286039,"lon":5.370681,"is_reserved":false,"is_disabled":false,"rental_uris":{"android":"levelo://app?vid=5656ee0e-7962-45b0-881b-660fa6ec295d","ios":"levelo://app?vid=5656ee0e-7962-45b0-881b-660fa6ec295d"},"vehicle_type_id":"4","last_reported":1696950426,"current_range_meters":31200,"station_id":"ce4bht12rcd13ifvqi60","pricing_plan_id":"free"},{"bike_id":"67267d25-aad2-4be1-b7e7-1f18e8af3b86","system_id":"levelo_inurba_marseille","lat":43.33907,"lon":5.35656,"is_reserved":false,"is_disabled":false,"rental_uris":{"android":"levelo://app?vid=67267d25-aad2-4be1-b7e7-1f18e8af3b86","ios":"levelo://app?vid=67267d25-aad2-4be1-b7e7-1f18e8af3b86"},"vehicle_type_id":"4","last_reported":1696950426,"current_range_meters":0,"station_id":"","pricing_plan_id":"free"},{"bike_id":"f35c5f73-8967-4b15-b9a3-cd805574b5ef","system_id":"levelo_inurba_marseille","lat":43.33483,"lon":5.38996,"is_reserved":false,"is_disabled":false,"rental_uris":{"android":"levelo://app?vid=f35c5f73-8967-4b15-b9a3-cd805574b5ef","ios":"levelo://app?vid=f35c5f73-8967-4b15-b9a3-cd805574b5ef"},"vehicle_type_id":"4","last_reported":1696950426,"current_range_meters":10400,"station_id":"","pricing_plan_id":"free"},{"bike_id":"56bd3465-0ea3-4795-bcb2-6fbfd611d5d4","system_id":"levelo_inurba_marseille","lat":43.291994,"lon":5.392907,"is_reserved":false,"is_disabled":false,"rental_uris":{"android":"levelo://app?vid=56bd3465-0ea3-4795-bcb2-6fbfd611d5d4","ios":"levelo://app?vid=56bd3465-0ea3-4795-bcb2-6fbfd611d5d4"},"vehicle_type_id":"4","last_reported":1696950426,"current_range_meters":26400,"station_id":"ce4bh192rcd13ifvqdd0","pricing_plan_id":"free"},{"bike_id":"7b6a6488-c6ec-4718-baf4-80c1f85903f2","system_id":"levelo_inurba_marseille","lat":43.33103,"lon":5.39697,"is_reserved":false,"is_disabled":false,"rental_uris":{"android":"levelo://app?vid=7b6a6488-c6ec-4718-baf4-80c1f85903f2","ios":"levelo://app?vid=7b6a6488-c6ec-4718-baf4-80c1f85903f2"},"vehicle_type_id":"4","last_reported":1696950426,"current_range_meters":4800,"station_id":"","pricing_plan_id":"free"},{"bike_id":"20f68591-2385-4605-acf6-d88b391add51","system_id":"levelo_inurba_marseille","lat":43.286509,"lon":5.351419,"is_reserved":false,"is_disabled":false,"rental_uris":{"android":"levelo://app?vid=20f68591-2385-4605-acf6-d88b391add51","ios":"levelo://app?vid=20f68591-2385-4605-acf6-d88b391add51"},"vehicle_type_id":"4","last_reported":1696950426,"current_range_meters":10800,"station_id":"ce4bgj92rcd13ifvqbd0","pricing_plan_id":"free"},{"bike_id":"ef595ded-539a-4ea3-b651-ca820330c4a9","system_id":"levelo_inurba_marseille","lat":43.2847,"lon":5.35887,"is_reserved":false,"is_disabled":false,"rental_uris":{"android":"levelo://app?vid=ef595ded-539a-4ea3-b651-ca820330c4a9","ios":"levelo://app?vid=ef595ded-539a-4ea3-b651-ca820330c4a9"},"vehicle_type_id":"4","last_reported":1696950426,"current_range_meters":0,"station_id":"ce4bhah2rcd13ifvqei0","pricing_plan_id":"free"},{"bike_id":"96ebd9f7-1573-4309-a677-41465e945ed9","system_id":"levelo_inurba_marseille","lat":43.284538,"lon":5.358657,"is_reserved":false,"is_disabled":false,"rental_uris":{"android":"levelo://app?vid=96ebd9f7-1573-4309-a677-41465e945ed9","ios":"levelo://app?vid=96ebd9f7-1573-4309-a677-41465e945ed9"},"vehicle_type_id":"4","last_reported":1696950426,"current_range_meters":22800,"station_id":"ce4bhah2rcd13ifvqei0","pricing_plan_id":"free"},{"bike_id":"20dabc70-917d-4f2e-b8d5-2342dd6acd52","system_id":"levelo_inurba_marseille","lat":43.284534,"lon":5.358662,"is_reserved":false,"is_disabled":false,"rental_uris":{"android":"levelo://app?vid=20dabc70-917d-4f2e-b8d5-2342dd6acd52","ios":"levelo://app?vid=20dabc70-917d-4f2e-b8d5-2342dd6acd52"},"vehicle_type_id":"4","last_reported":1696950426,"current_range_meters":23200,"station_id":"ce4bhah2rcd13ifvqei0","pricing_plan_id":"free"},{"bike_id":"5cccc76b-6907-495a-b5ef-cd575ba06e96","system_id":"levelo_inurba_marseille","lat":43.284538,"lon":5.358657,"is_reserved":false,"is_disabled":false,"rental_uris":{"android":"levelo://app?vid=5cccc76b-6907-495a-b5ef-cd575ba06e96","ios":"levelo://app?vid=5cccc76b-6907-495a-b5ef-cd575ba06e96"},"vehicle_type_id":"4","last_reported":1696950426,"current_range_meters":30800,"station_id":"ce4bhah2rcd13ifvqei0","pricing_plan_id":"free"},{"bike_id":"ab8abb7f-c7ab-4a7c-bd36-10eccd8a515d","system_id":"levelo_inurba_marseille","lat":43.31621,"lon":5.40613,"is_reserved":false,"is_disabled":false,"rental_uris":{"android":"levelo://app?vid=ab8abb7f-c7ab-4a7c-bd36-10eccd8a515d","ios":"levelo://app?vid=ab8abb7f-c7ab-4a7c-bd36-10eccd8a515d"},"vehicle_type_id":"4","last_reported":1696950426,"current_range_meters":15600,"station_id":"","pricing_plan_id":"free"},{"bike_id":"f96d6fac-ed0c-4806-b8be-15703d23cad2","system_id":"levelo_inurba_marseille","lat":43.284538,"lon":5.358657,"is_reserved":false,"is_disabled":false,"rental_uris":{"android":"levelo://app?vid=f96d6fac-ed0c-4806-b8be-15703d23cad2","ios":"levelo://app?vid=f96d6fac-ed0c-4806-b8be-15703d23cad2"},"vehicle_type_id":"4","last_reported":1696950426,"current_range_meters":20400,"station_id":"ce4bhah2rcd13ifvqei0","pricing_plan_id":"free"},{"bike_id":"0780c7d0-27c0-4ae5-98b0-5462785f5f34","system_id":"levelo_inurba_marseille","lat":43.284538,"lon":5.358657,"is_reserved":false,"is_disabled":false,"rental_uris":{"android":"levelo://app?vid=0780c7d0-27c0-4ae5-98b0-5462785f5f34","ios":"levelo://app?vid=0780c7d0-27c0-4ae5-98b0-5462785f5f34"},"vehicle_type_id":"4","last_reported":1696950426,"current_range_meters":11600,"station_id":"ce4bhah2rcd13ifvqei0","pricing_plan_id":"free"},{"bike_id":"17b2c1a9-89c2-43c3-9c50-10fb536aa2e4","system_id":"levelo_inurba_marseille","lat":43.283998,"lon":5.375062,"is_reserved":false,"is_disabled":false,"rental_uris":{"android":"levelo://app?vid=17b2c1a9-89c2-43c3-9c50-10fb536aa2e4","ios":"levelo://app?vid=17b2c1a9-89c2-43c3-9c50-10fb536aa2e4"},"vehicle_type_id":"4","last_reported":1696950426,"current_range_meters":13600,"station_id":"ce4bh412rcd13ifvqds0","pricing_plan_id":"free"},{"bike_id":"517563d3-93c9-4955-805b-cc2f44beb179","system_id":"levelo_inurba_marseille","lat":43.28622,"lon":5.35106,"is_reserved":false,"is_disabled":false,"rental_uris":{"android":"levelo://app?vid=517563d3-93c9-4955-805b-cc2f44beb179","ios":"levelo://app?vid=517563d3-93c9-4955-805b-cc2f44beb179"},"vehicle_type_id":"4","last_reported":1696950426,"current_range_meters":30800,"station_id":"ce4bhch2rcd13ifvqeug","pricing_plan_id":"free"},{"bike_id":"bfa7725c-b29c-42e2-9110-a6096a95cef8","system_id":"levelo_inurba_marseille","lat":43.286197,"lon":5.351071,"is_reserved":false,"is_disabled":false,"rental_uris":{"android":"levelo://app?vid=bfa7725c-b29c-42e2-9110-a6096a95cef8","ios":"levelo://app?vid=bfa7725c-b29c-42e2-9110-a6096a95cef8"},"vehicle_type_id":"4","last_reported":1696950426,"current_range_meters":30800,"station_id":"","pricing_plan_id":"free"},{"bike_id":"cabf40c6-c811-41ff-8ad5-8bc4c94302a3","system_id":"levelo_inurba_marseille","lat":43.286159,"lon":5.351148,"is_reserved":false,"is_disabled":false,"rental_uris":{"android":"levelo://app?vid=cabf40c6-c811-41ff-8ad5-8bc4c94302a3","ios":"levelo://app?vid=cabf40c6-c811-41ff-8ad5-8bc4c94302a3"},"vehicle_type_id":"4","last_reported":1696950426,"current_range_meters":22800,"station_id":"","pricing_plan_id":"free"},{"bike_id":"bf6b5cd4-509d-40cc-80f3-5fd5efbd28b4","system_id":"levelo_inurba_marseille","lat":43.286145,"lon":5.351087,"is_reserved":false,"is_disabled":false,"rental_uris":{"android":"levelo://app?vid=bf6b5cd4-509d-40cc-80f3-5fd5efbd28b4","ios":"levelo://app?vid=bf6b5cd4-509d-40cc-80f3-5fd5efbd28b4"},"vehicle_type_id":"4","last_reported":1696950426,"current_range_meters":20800,"station_id":"","pricing_plan_id":"free"},{"bike_id":"8b3fd766-771f-404d-a216-2f17d246932a","system_id":"levelo_inurba_marseille","lat":43.33894,"lon":5.38459,"is_reserved":false,"is_disabled":false,"rental_uris":{"android":"levelo://app?vid=8b3fd766-771f-404d-a216-2f17d246932a","ios":"levelo://app?vid=8b3fd766-771f-404d-a216-2f17d246932a"},"vehicle_type_id":"4","last_reported":1696950426,"current_range_meters":8000,"station_id":"","pricing_plan_id":"free"},{"bike_id":"883a2abb-3b2f-4302-a2ad-1c3f81321c19","system_id":"levelo_inurba_marseille","lat":43.283998,"lon":5.375062,"is_reserved":false,"is_disabled":false,"rental_uris":{"android":"levelo://app?vid=883a2abb-3b2f-4302-a2ad-1c3f81321c19","ios":"levelo://app?vid=883a2abb-3b2f-4302-a2ad-1c3f81321c19"},"vehicle_type_id":"4","last_reported":1696950426,"current_range_meters":0,"station_id":"ce4bh412rcd13ifvqds0","pricing_plan_id":"free"},{"bike_id":"660a86e4-73cd-4192-80b7-59309f92418b","system_id":"levelo_inurba_marseille","lat":43.283998,"lon":5.375062,"is_reserved":false,"is_disabled":false,"rental_uris":{"android":"levelo://app?vid=660a86e4-73cd-4192-80b7-59309f92418b","ios":"levelo://app?vid=660a86e4-73cd-4192-80b7-59309f92418b"},"vehicle_type_id":"4","last_reported":1696950426,"current_range_meters":25200,"station_id":"ce4bh412rcd13ifvqds0","pricing_plan_id":"free"},{"bike_id":"9711d633-e3f0-430d-b868-56abb2f9ba45","system_id":"levelo_inurba_marseille","lat":43.29566,"lon":5.39964,"is_reserved":false,"is_disabled":false,"rental_uris":{"android":"levelo://app?vid=9711d633-e3f0-430d-b868-56abb2f9ba45","ios":"levelo://app?vid=9711d633-e3f0-430d-b868-56abb2f9ba45"},"vehicle_type_id":"4","last_reported":1696950426,"current_range_meters":29200,"station_id":"ce4bh312rcd13ifvqdj0","pricing_plan_id":"free"},{"bike_id":"979e170d-e599-485b-b52a-f222ae6d8c72","system_id":"levelo_inurba_marseille","lat":43.33739,"lon":5.39102,"is_reserved":false,"is_disabled":false,"rental_uris":{"android":"levelo://app?vid=979e170d-e599-485b-b52a-f222ae6d8c72","ios":"levelo://app?vid=979e170d-e599-485b-b52a-f222ae6d8c72"},"vehicle_type_id":"4","last_reported":1696950426,"current_range_meters":5600,"station_id":"","pricing_plan_id":"free"},{"bike_id":"38c9201c-1764-4b3a-9275-f8795ef08782","system_id":"levelo_inurba_marseille","lat":43.337168,"lon":5.391825,"is_reserved":false,"is_disabled":false,"rental_uris":{"android":"levelo://app?vid=38c9201c-1764-4b3a-9275-f8795ef08782","ios":"levelo://app?vid=38c9201c-1764-4b3a-9275-f8795ef08782"},"vehicle_type_id":"4","last_reported":1696950426,"current_range_meters":18400,"station_id":"ce4bhr92rcd13ifvqhsg","pricing_plan_id":"free"},{"bike_id":"9d52b1d7-7901-48a4-9344-5f67abf941e4","system_id":"levelo_inurba_marseille","lat":43.323464,"lon":5.406297,"is_reserved":false,"is_disabled":false,"rental_uris":{"android":"levelo://app?vid=9d52b1d7-7901-48a4-9344-5f67abf941e4","ios":"levelo://app?vid=9d52b1d7-7901-48a4-9344-5f67abf941e4"},"vehicle_type_id":"4","last_reported":1696950426,"current_range_meters":18400,"station_id":"ce4bhq92rcd13ifvqhjg","pricing_plan_id":"free"},{"bike_id":"4bd3312b-c136-47d8-8ab5-7d8d35a9eed9","system_id":"levelo_inurba_marseille","lat":43.323464,"lon":5.406297,"is_reserved":false,"is_disabled":false,"rental_uris":{"android":"levelo://app?vid=4bd3312b-c136-47d8-8ab5-7d8d35a9eed9","ios":"levelo://app?vid=4bd3312b-c136-47d8-8ab5-7d8d35a9eed9"},"vehicle_type_id":"4","last_reported":1696950426,"current_range_meters":28800,"station_id":"ce4bhq92rcd13ifvqhjg","pricing_plan_id":"free"},{"bike_id":"53b6207b-821c-4d70-9ede-fac7dac6e8bb","system_id":"levelo_inurba_marseille","lat":43.337168,"lon":5.391825,"is_reserved":false,"is_disabled":false,"rental_uris":{"android":"levelo://app?vid=53b6207b-821c-4d70-9ede-fac7dac6e8bb","ios":"levelo://app?vid=53b6207b-821c-4d70-9ede-fac7dac6e8bb"},"vehicle_type_id":"4","last_reported":1696950426,"current_range_meters":25200,"station_id":"ce4bhr92rcd13ifvqhsg","pricing_plan_id":"free"},{"bike_id":"ddc68901-2e09-491d-9c65-02a5b5ee46c5","system_id":"levelo_inurba_marseille","lat":43.285021,"lon":5.384416,"is_reserved":false,"is_disabled":false,"rental_uris":{"android":"levelo://app?vid=ddc68901-2e09-491d-9c65-02a5b5ee46c5","ios":"levelo://app?vid=ddc68901-2e09-491d-9c65-02a5b5ee46c5"},"vehicle_type_id":"4","last_reported":1696950426,"current_range_meters":14400,"station_id":"ce4bh512rcd13ifvqe3g","pricing_plan_id":"free"},{"bike_id":"7b4aa130-1b74-42ca-8404-3fc83189795e","system_id":"levelo_inurba_marseille","lat":43.28467,"lon":5.38416,"is_reserved":false,"is_disabled":false,"rental_uris":{"android":"levelo://app?vid=7b4aa130-1b74-42ca-8404-3fc83189795e","ios":"levelo://app?vid=7b4aa130-1b74-42ca-8404-3fc83189795e"},"vehicle_type_id":"4","last_reported":1696950426,"current_range_meters":30400,"station_id":"ce4bh512rcd13ifvqe3g","pricing_plan_id":"free"},{"bike_id":"c84afc24-e428-4bd9-bffc-76d0802cec69","system_id":"levelo_inurba_marseille","lat":43.32536,"lon":5.40567,"is_reserved":false,"is_disabled":false,"rental_uris":{"android":"levelo://app?vid=c84afc24-e428-4bd9-bffc-76d0802cec69","ios":"levelo://app?vid=c84afc24-e428-4bd9-bffc-76d0802cec69"},"vehicle_type_id":"4","last_reported":1696950426,"current_range_meters":0,"station_id":"","pricing_plan_id":"free"},{"bike_id":"0544b0a5-2402-481b-ae2e-5ddca0b23ee3","system_id":"levelo_inurba_marseille","lat":43.284429,"lon":5.349678,"is_reserved":false,"is_disabled":false,"rental_uris":{"android":"levelo://app?vid=0544b0a5-2402-481b-ae2e-5ddca0b23ee3","ios":"levelo://app?vid=0544b0a5-2402-481b-ae2e-5ddca0b23ee3"},"vehicle_type_id":"4","last_reported":1696950426,"current_range_meters":15600,"station_id":"ce4bgi12rcd13ifvqb70","pricing_plan_id":"free"},{"bike_id":"691064c3-61cd-4e50-b1f2-c9114afd2b08","system_id":"levelo_inurba_marseille","lat":43.3335,"lon":5.398555,"is_reserved":false,"is_disabled":false,"rental_uris":{"android":"levelo://app?vid=691064c3-61cd-4e50-b1f2-c9114afd2b08","ios":"levelo://app?vid=691064c3-61cd-4e50-b1f2-c9114afd2b08"},"vehicle_type_id":"4","last_reported":1696950426,"current_range_meters":23600,"station_id":"","pricing_plan_id":"free"},{"bike_id":"ad4903fe-b3ad-4a0e-b157-00fb79512e1a","system_id":"levelo_inurba_marseille","lat":43.284225,"lon":5.349942,"is_reserved":false,"is_disabled":false,"rental_uris":{"android":"levelo://app?vid=ad4903fe-b3ad-4a0e-b157-00fb79512e1a","ios":"levelo://app?vid=ad4903fe-b3ad-4a0e-b157-00fb79512e1a"},"vehicle_type_id":"4","last_reported":1696950426,"current_range_meters":30400,"station_id":"","pricing_plan_id":"free"},{"bike_id":"1cae7157-4bf7-4c21-921e-cea24b03540b","system_id":"levelo_inurba_marseille","lat":43.28422,"lon":5.349889,"is_reserved":false,"is_disabled":false,"rental_uris":{"android":"levelo://app?vid=1cae7157-4bf7-4c21-921e-cea24b03540b","ios":"levelo://app?vid=1cae7157-4bf7-4c21-921e-cea24b03540b"},"vehicle_type_id":"4","last_reported":1696950426,"current_range_meters":4400,"station_id":"","pricing_plan_id":"free"},{"bike_id":"b3778644-8737-484e-aff9-246e2686df2f","system_id":"levelo_inurba_marseille","lat":43.284207,"lon":5.3499,"is_reserved":false,"is_disabled":false,"rental_uris":{"android":"levelo://app?vid=b3778644-8737-484e-aff9-246e2686df2f","ios":"levelo://app?vid=b3778644-8737-484e-aff9-246e2686df2f"},"vehicle_type_id":"4","last_reported":1696950426,"current_range_meters":28800,"station_id":"","pricing_plan_id":"free"},{"bike_id":"25ec3562-29ad-4782-bec3-5dd0ec8b4e89","system_id":"levelo_inurba_marseille","lat":43.284219,"lon":5.3497,"is_reserved":false,"is_disabled":false,"rental_uris":{"android":"levelo://app?vid=25ec3562-29ad-4782-bec3-5dd0ec8b4e89","ios":"levelo://app?vid=25ec3562-29ad-4782-bec3-5dd0ec8b4e89"},"vehicle_type_id":"4","last_reported":1696950426,"current_range_meters":30400,"station_id":"ce4bhbh2rcd13ifvqepg","pricing_plan_id":"free"},{"bike_id":"951d0e31-aa3d-4d9d-990c-481e5c142ffd","system_id":"levelo_inurba_marseille","lat":43.284203,"lon":5.349872,"is_reserved":false,"is_disabled":false,"rental_uris":{"android":"levelo://app?vid=951d0e31-aa3d-4d9d-990c-481e5c142ffd","ios":"levelo://app?vid=951d0e31-aa3d-4d9d-990c-481e5c142ffd"},"vehicle_type_id":"4","last_reported":1696950426,"current_range_meters":18400,"station_id":"","pricing_plan_id":"free"},{"bike_id":"fd9ed22d-37bb-44e7-8411-1054e8b682f2","system_id":"levelo_inurba_marseille","lat":43.284194,"lon":5.349877,"is_reserved":false,"is_disabled":false,"rental_uris":{"android":"levelo://app?vid=fd9ed22d-37bb-44e7-8411-1054e8b682f2","ios":"levelo://app?vid=fd9ed22d-37bb-44e7-8411-1054e8b682f2"},"vehicle_type_id":"4","last_reported":1696950426,"current_range_meters":30400,"station_id":"ce4bhbh2rcd13ifvqepg","pricing_plan_id":"free"},{"bike_id":"69eaadfa-c489-45f2-bb5b-b03e4ad0b3c7","system_id":"levelo_inurba_marseille","lat":43.284219,"lon":5.3497,"is_reserved":false,"is_disabled":false,"rental_uris":{"android":"levelo://app?vid=69eaadfa-c489-45f2-bb5b-b03e4ad0b3c7","ios":"levelo://app?vid=69eaadfa-c489-45f2-bb5b-b03e4ad0b3c7"},"vehicle_type_id":"4","last_reported":1696950426,"current_range_meters":21600,"station_id":"ce4bhbh2rcd13ifvqepg","pricing_plan_id":"free"},{"bike_id":"f28f02a8-240a-4f62-86ef-03cf650a8693","system_id":"levelo_inurba_marseille","lat":43.265714,"lon":5.372891,"is_reserved":false,"is_disabled":false,"rental_uris":{"android":"levelo://app?vid=f28f02a8-240a-4f62-86ef-03cf650a8693","ios":"levelo://app?vid=f28f02a8-240a-4f62-86ef-03cf650a8693"},"vehicle_type_id":"4","last_reported":1696950426,"current_range_meters":0,"station_id":"ce4bhg12rcd13ifvqf70","pricing_plan_id":"free"},{"bike_id":"eb028789-5112-4418-bf32-c34e8611be70","system_id":"levelo_inurba_marseille","lat":43.289363,"lon":5.396322,"is_reserved":false,"is_disabled":false,"rental_uris":{"android":"levelo://app?vid=eb028789-5112-4418-bf32-c34e8611be70","ios":"levelo://app?vid=eb028789-5112-4418-bf32-c34e8611be70"},"vehicle_type_id":"4","last_reported":1696950426,"current_range_meters":27200,"station_id":"ce4bh3h2rcd13ifvqdn0","pricing_plan_id":"free"},{"bike_id":"0acac390-d523-4b38-8e92-d87be9dcfb28","system_id":"levelo_inurba_marseille","lat":43.280528,"lon":5.369305,"is_reserved":false,"is_disabled":false,"rental_uris":{"android":"levelo://app?vid=0acac390-d523-4b38-8e92-d87be9dcfb28","ios":"levelo://app?vid=0acac390-d523-4b38-8e92-d87be9dcfb28"},"vehicle_type_id":"4","last_reported":1696950426,"current_range_meters":25200,"station_id":"","pricing_plan_id":"free"},{"bike_id":"b00fdbae-a55b-4191-abf8-617d655448f9","system_id":"levelo_inurba_marseille","lat":43.28267,"lon":5.35068,"is_reserved":false,"is_disabled":false,"rental_uris":{"android":"levelo://app?vid=b00fdbae-a55b-4191-abf8-617d655448f9","ios":"levelo://app?vid=b00fdbae-a55b-4191-abf8-617d655448f9"},"vehicle_type_id":"4","last_reported":1696950426,"current_range_meters":17200,"station_id":"ce4bhbp2rcd13ifvqerg","pricing_plan_id":"free"},{"bike_id":"dcb6d9de-78a5-45a1-b9ed-9e51ebb4e8ae","system_id":"levelo_inurba_marseille","lat":43.28267,"lon":5.35068,"is_reserved":false,"is_disabled":false,"rental_uris":{"android":"levelo://app?vid=dcb6d9de-78a5-45a1-b9ed-9e51ebb4e8ae","ios":"levelo://app?vid=dcb6d9de-78a5-45a1-b9ed-9e51ebb4e8ae"},"vehicle_type_id":"4","last_reported":1696950426,"current_range_meters":21600,"station_id":"ce4bhbp2rcd13ifvqerg","pricing_plan_id":"free"},{"bike_id":"47d7be76-8449-4b73-8196-cf40ff52e904","system_id":"levelo_inurba_marseille","lat":43.282744,"lon":5.350533,"is_reserved":false,"is_disabled":false,"rental_uris":{"android":"levelo://app?vid=47d7be76-8449-4b73-8196-cf40ff52e904","ios":"levelo://app?vid=47d7be76-8449-4b73-8196-cf40ff52e904"},"vehicle_type_id":"4","last_reported":1696950426,"current_range_meters":11600,"station_id":"ce4bhbp2rcd13ifvqerg","pricing_plan_id":"free"},{"bike_id":"0aad2889-0ee2-450b-b3fa-bcc9f9f1a644","system_id":"levelo_inurba_marseille","lat":43.28039,"lon":5.369297,"is_reserved":false,"is_disabled":false,"rental_uris":{"android":"levelo://app?vid=0aad2889-0ee2-450b-b3fa-bcc9f9f1a644","ios":"levelo://app?vid=0aad2889-0ee2-450b-b3fa-bcc9f9f1a644"},"vehicle_type_id":"4","last_reported":1696950426,"current_range_meters":22000,"station_id":"ce4bha12rcd13ifvqef0","pricing_plan_id":"free"},{"bike_id":"2168f134-73a4-478e-80c9-d0d53e99af4e","system_id":"levelo_inurba_marseille","lat":43.32382,"lon":5.40902,"is_reserved":false,"is_disabled":false,"rental_uris":{"android":"levelo://app?vid=2168f134-73a4-478e-80c9-d0d53e99af4e","ios":"levelo://app?vid=2168f134-73a4-478e-80c9-d0d53e99af4e"},"vehicle_type_id":"4","last_reported":1696950426,"current_range_meters":0,"station_id":"","pricing_plan_id":"free"},{"bike_id":"020c59e6-ea56-4976-9842-0352b6c2e605","system_id":"levelo_inurba_marseille","lat":43.281044,"lon":5.378308,"is_reserved":false,"is_disabled":false,"rental_uris":{"android":"levelo://app?vid=020c59e6-ea56-4976-9842-0352b6c2e605","ios":"levelo://app?vid=020c59e6-ea56-4976-9842-0352b6c2e605"},"vehicle_type_id":"4","last_reported":1696950426,"current_range_meters":24400,"station_id":"ce4bha12rcd13ifvqee0","pricing_plan_id":"free"},{"bike_id":"4d864564-e985-4a5f-bd2d-ae15571ca1ee","system_id":"levelo_inurba_marseille","lat":43.34357,"lon":5.38363,"is_reserved":false,"is_disabled":false,"rental_uris":{"android":"levelo://app?vid=4d864564-e985-4a5f-bd2d-ae15571ca1ee","ios":"levelo://app?vid=4d864564-e985-4a5f-bd2d-ae15571ca1ee"},"vehicle_type_id":"4","last_reported":1696950426,"current_range_meters":16800,"station_id":"","pricing_plan_id":"free"},{"bike_id":"e1481018-0682-4647-bfec-bb991d9aca91","system_id":"levelo_inurba_marseille","lat":43.281044,"lon":5.378308,"is_reserved":false,"is_disabled":false,"rental_uris":{"android":"levelo://app?vid=e1481018-0682-4647-bfec-bb991d9aca91","ios":"levelo://app?vid=e1481018-0682-4647-bfec-bb991d9aca91"},"vehicle_type_id":"4","last_reported":1696950426,"current_range_meters":20800,"station_id":"ce4bha12rcd13ifvqee0","pricing_plan_id":"free"},{"bike_id":"0ce76b8b-2e00-4992-b3b5-72420cb4b006","system_id":"levelo_inurba_marseille","lat":43.32658,"lon":5.40955,"is_reserved":false,"is_disabled":false,"rental_uris":{"android":"levelo://app?vid=0ce76b8b-2e00-4992-b3b5-72420cb4b006","ios":"levelo://app?vid=0ce76b8b-2e00-4992-b3b5-72420cb4b006"},"vehicle_type_id":"4","last_reported":1696950426,"current_range_meters":400,"station_id":"ce4bhpp2rcd13ifvqhgg","pricing_plan_id":"free"},{"bike_id":"14b61463-b7c2-4629-97d6-bf0f47b738bb","system_id":"levelo_inurba_marseille","lat":43.281455,"lon":5.385333,"is_reserved":false,"is_disabled":false,"rental_uris":{"android":"levelo://app?vid=14b61463-b7c2-4629-97d6-bf0f47b738bb","ios":"levelo://app?vid=14b61463-b7c2-4629-97d6-bf0f47b738bb"},"vehicle_type_id":"4","last_reported":1696950426,"current_range_meters":1600,"station_id":"","pricing_plan_id":"free"},{"bike_id":"0ed0ad5a-81f8-4d54-b57a-fefabaad1f9e","system_id":"levelo_inurba_marseille","lat":43.34632,"lon":5.37617,"is_reserved":false,"is_disabled":false,"rental_uris":{"android":"levelo://app?vid=0ed0ad5a-81f8-4d54-b57a-fefabaad1f9e","ios":"levelo://app?vid=0ed0ad5a-81f8-4d54-b57a-fefabaad1f9e"},"vehicle_type_id":"4","last_reported":1696950426,"current_range_meters":11600,"station_id":"","pricing_plan_id":"free"},{"bike_id":"fbe84689-e4ad-43d0-b5eb-93ddc61c0d75","system_id":"levelo_inurba_marseille","lat":43.32669,"lon":5.41071,"is_reserved":false,"is_disabled":false,"rental_uris":{"android":"levelo://app?vid=fbe84689-e4ad-43d0-b5eb-93ddc61c0d75","ios":"levelo://app?vid=fbe84689-e4ad-43d0-b5eb-93ddc61c0d75"},"vehicle_type_id":"4","last_reported":1696950426,"current_range_meters":25600,"station_id":"","pricing_plan_id":"free"},{"bike_id":"69cb4574-9668-4f7f-b899-4229f1f52c09","system_id":"levelo_inurba_marseille","lat":43.287154,"lon":5.399979,"is_reserved":false,"is_disabled":false,"rental_uris":{"android":"levelo://app?vid=69cb4574-9668-4f7f-b899-4229f1f52c09","ios":"levelo://app?vid=69cb4574-9668-4f7f-b899-4229f1f52c09"},"vehicle_type_id":"4","last_reported":1696950426,"current_range_meters":30800,"station_id":"ce4bho92rcd13ifvqh3g","pricing_plan_id":"free"},{"bike_id":"41f3515d-d791-4036-b2f1-321309778902","system_id":"levelo_inurba_marseille","lat":43.326605,"lon":5.409903,"is_reserved":false,"is_disabled":false,"rental_uris":{"android":"levelo://app?vid=41f3515d-d791-4036-b2f1-321309778902","ios":"levelo://app?vid=41f3515d-d791-4036-b2f1-321309778902"},"vehicle_type_id":"4","last_reported":1696950426,"current_range_meters":19600,"station_id":"ce4bhpp2rcd13ifvqhgg","pricing_plan_id":"free"},{"bike_id":"5ba0b775-9fac-4383-b65f-e722daefecb5","system_id":"levelo_inurba_marseille","lat":43.320045,"lon":5.415046,"is_reserved":false,"is_disabled":false,"rental_uris":{"android":"levelo://app?vid=5ba0b775-9fac-4383-b65f-e722daefecb5","ios":"levelo://app?vid=5ba0b775-9fac-4383-b65f-e722daefecb5"},"vehicle_type_id":"4","last_reported":1696950426,"current_range_meters":30400,"station_id":"ce4bhq92rcd13ifvqhkg","pricing_plan_id":"free"},{"bike_id":"0e8c48ca-7f31-4ab6-8309-4c6568f5cf68","system_id":"levelo_inurba_marseille","lat":43.279742,"lon":5.38744,"is_reserved":false,"is_disabled":false,"rental_uris":{"android":"levelo://app?vid=0e8c48ca-7f31-4ab6-8309-4c6568f5cf68","ios":"levelo://app?vid=0e8c48ca-7f31-4ab6-8309-4c6568f5cf68"},"vehicle_type_id":"4","last_reported":1696950426,"current_range_meters":17200,"station_id":"ce4bhg12rcd13ifvqf80","pricing_plan_id":"free"},{"bike_id":"a4a7fb89-f40a-4ed0-bc43-da988a898f9c","system_id":"levelo_inurba_marseille","lat":43.273125,"lon":5.390731,"is_reserved":false,"is_disabled":false,"rental_uris":{"android":"levelo://app?vid=a4a7fb89-f40a-4ed0-bc43-da988a898f9c","ios":"levelo://app?vid=a4a7fb89-f40a-4ed0-bc43-da988a898f9c"},"vehicle_type_id":"4","last_reported":1696950426,"current_range_meters":22000,"station_id":"ce4bhgp2rcd13ifvqfe0","pricing_plan_id":"free"},{"bike_id":"f6941377-2c6a-499e-b63f-0c426eedbbfb","system_id":"levelo_inurba_marseille","lat":43.292561,"lon":5.408959,"is_reserved":false,"is_disabled":false,"rental_uris":{"android":"levelo://app?vid=f6941377-2c6a-499e-b63f-0c426eedbbfb","ios":"levelo://app?vid=f6941377-2c6a-499e-b63f-0c426eedbbfb"},"vehicle_type_id":"4","last_reported":1696950426,"current_range_meters":0,"station_id":"","pricing_plan_id":"free"},{"bike_id":"5b276282-9734-4b1e-b568-ea419108e192","system_id":"levelo_inurba_marseille","lat":43.292571,"lon":5.409107,"is_reserved":false,"is_disabled":false,"rental_uris":{"android":"levelo://app?vid=5b276282-9734-4b1e-b568-ea419108e192","ios":"levelo://app?vid=5b276282-9734-4b1e-b568-ea419108e192"},"vehicle_type_id":"4","last_reported":1696950426,"current_range_meters":24400,"station_id":"ce4bh192rcd13ifvqdc0","pricing_plan_id":"free"},{"bike_id":"262e7783-8391-411b-a228-65c9d7263d4f","system_id":"levelo_inurba_marseille","lat":43.325233,"lon":5.414318,"is_reserved":false,"is_disabled":false,"rental_uris":{"android":"levelo://app?vid=262e7783-8391-411b-a228-65c9d7263d4f","ios":"levelo://app?vid=262e7783-8391-411b-a228-65c9d7263d4f"},"vehicle_type_id":"4","last_reported":1696950426,"current_range_meters":27600,"station_id":"ce4bhq12rcd13ifvqhhg","pricing_plan_id":"free"},{"bike_id":"8e007821-bf88-4de4-9a1c-48b9922a7d46","system_id":"levelo_inurba_marseille","lat":43.276231,"lon":5.361078,"is_reserved":false,"is_disabled":false,"rental_uris":{"android":"levelo://app?vid=8e007821-bf88-4de4-9a1c-48b9922a7d46","ios":"levelo://app?vid=8e007821-bf88-4de4-9a1c-48b9922a7d46"},"vehicle_type_id":"4","last_reported":1696950426,"current_range_meters":18000,"station_id":"ce4bgj92rcd13ifvqbe0","pricing_plan_id":"free"},{"bike_id":"1e1c8c9c-a20d-4700-bdbb-13e62b643de5","system_id":"levelo_inurba_marseille","lat":43.276192,"lon":5.361049,"is_reserved":false,"is_disabled":false,"rental_uris":{"android":"levelo://app?vid=1e1c8c9c-a20d-4700-bdbb-13e62b643de5","ios":"levelo://app?vid=1e1c8c9c-a20d-4700-bdbb-13e62b643de5"},"vehicle_type_id":"4","last_reported":1696950426,"current_range_meters":27600,"station_id":"ce4bgj92rcd13ifvqbe0","pricing_plan_id":"free"},{"bike_id":"dfcc5f7c-105e-49a1-a0a4-e34f4f91f2a4","system_id":"levelo_inurba_marseille","lat":43.276172,"lon":5.361017,"is_reserved":false,"is_disabled":false,"rental_uris":{"android":"levelo://app?vid=dfcc5f7c-105e-49a1-a0a4-e34f4f91f2a4","ios":"levelo://app?vid=dfcc5f7c-105e-49a1-a0a4-e34f4f91f2a4"},"vehicle_type_id":"4","last_reported":1696950426,"current_range_meters":27600,"station_id":"","pricing_plan_id":"free"},{"bike_id":"9545ca84-38e6-456e-ad00-ecd14a1e433f","system_id":"levelo_inurba_marseille","lat":43.276138,"lon":5.361016,"is_reserved":false,"is_disabled":false,"rental_uris":{"android":"levelo://app?vid=9545ca84-38e6-456e-ad00-ecd14a1e433f","ios":"levelo://app?vid=9545ca84-38e6-456e-ad00-ecd14a1e433f"},"vehicle_type_id":"4","last_reported":1696950426,"current_range_meters":31200,"station_id":"","pricing_plan_id":"free"},{"bike_id":"8bc055ae-1208-46a7-a471-371d21ff0303","system_id":"levelo_inurba_marseille","lat":43.276131,"lon":5.36098,"is_reserved":false,"is_disabled":false,"rental_uris":{"android":"levelo://app?vid=8bc055ae-1208-46a7-a471-371d21ff0303","ios":"levelo://app?vid=8bc055ae-1208-46a7-a471-371d21ff0303"},"vehicle_type_id":"4","last_reported":1696950426,"current_range_meters":26400,"station_id":"","pricing_plan_id":"free"},{"bike_id":"eacafb46-ec42-454d-b535-57affb872ac9","system_id":"levelo_inurba_marseille","lat":43.276095,"lon":5.360954,"is_reserved":false,"is_disabled":false,"rental_uris":{"android":"levelo://app?vid=eacafb46-ec42-454d-b535-57affb872ac9","ios":"levelo://app?vid=eacafb46-ec42-454d-b535-57affb872ac9"},"vehicle_type_id":"4","last_reported":1696950426,"current_range_meters":30400,"station_id":"","pricing_plan_id":"free"},{"bike_id":"3fe56494-78d3-41b7-819b-4f29a0a0d1b8","system_id":"levelo_inurba_marseille","lat":43.27672,"lon":5.38009,"is_reserved":false,"is_disabled":false,"rental_uris":{"android":"levelo://app?vid=3fe56494-78d3-41b7-819b-4f29a0a0d1b8","ios":"levelo://app?vid=3fe56494-78d3-41b7-819b-4f29a0a0d1b8"},"vehicle_type_id":"4","last_reported":1696950426,"current_range_meters":24000,"station_id":"","pricing_plan_id":"free"},{"bike_id":"b32362f8-ecfe-48b8-9dc1-8c76c1d99667","system_id":"levelo_inurba_marseille","lat":43.278345,"lon":5.389595,"is_reserved":false,"is_disabled":false,"rental_uris":{"android":"levelo://app?vid=b32362f8-ecfe-48b8-9dc1-8c76c1d99667","ios":"levelo://app?vid=b32362f8-ecfe-48b8-9dc1-8c76c1d99667"},"vehicle_type_id":"4","last_reported":1696950426,"current_range_meters":0,"station_id":"","pricing_plan_id":"free"},{"bike_id":"374985d7-4d3c-402d-8c07-939c28fb3773","system_id":"levelo_inurba_marseille","lat":43.278401,"lon":5.392152,"is_reserved":false,"is_disabled":false,"rental_uris":{"android":"levelo://app?vid=374985d7-4d3c-402d-8c07-939c28fb3773","ios":"levelo://app?vid=374985d7-4d3c-402d-8c07-939c28fb3773"},"vehicle_type_id":"4","last_reported":1696950426,"current_range_meters":22400,"station_id":"ce4bhjp2rcd13ifvqga0","pricing_plan_id":"free"},{"bike_id":"b17a54f7-fcda-438b-a907-9eb60f1a89cb","system_id":"levelo_inurba_marseille","lat":43.273613,"lon":5.362705,"is_reserved":false,"is_disabled":false,"rental_uris":{"android":"levelo://app?vid=b17a54f7-fcda-438b-a907-9eb60f1a89cb","ios":"levelo://app?vid=b17a54f7-fcda-438b-a907-9eb60f1a89cb"},"vehicle_type_id":"4","last_reported":1696950426,"current_range_meters":15200,"station_id":"ce4bhbh2rcd13ifvqeo0","pricing_plan_id":"free"},{"bike_id":"478705ec-19c0-40ef-91b2-4f352fd1c681","system_id":"levelo_inurba_marseille","lat":43.273609,"lon":5.362708,"is_reserved":false,"is_disabled":false,"rental_uris":{"android":"levelo://app?vid=478705ec-19c0-40ef-91b2-4f352fd1c681","ios":"levelo://app?vid=478705ec-19c0-40ef-91b2-4f352fd1c681"},"vehicle_type_id":"4","last_reported":1696950426,"current_range_meters":18000,"station_id":"ce4bhbh2rcd13ifvqeo0","pricing_plan_id":"free"},{"bike_id":"d578dab5-a6f6-4961-91c1-5e1937ab0e50","system_id":"levelo_inurba_marseille","lat":43.273613,"lon":5.362705,"is_reserved":false,"is_disabled":false,"rental_uris":{"android":"levelo://app?vid=d578dab5-a6f6-4961-91c1-5e1937ab0e50","ios":"levelo://app?vid=d578dab5-a6f6-4961-91c1-5e1937ab0e50"},"vehicle_type_id":"4","last_reported":1696950426,"current_range_meters":19600,"station_id":"ce4bhbh2rcd13ifvqeo0","pricing_plan_id":"free"},{"bike_id":"50545cb1-8c1a-4573-88ce-8fb237daea73","system_id":"levelo_inurba_marseille","lat":43.273613,"lon":5.362705,"is_reserved":false,"is_disabled":false,"rental_uris":{"android":"levelo://app?vid=50545cb1-8c1a-4573-88ce-8fb237daea73","ios":"levelo://app?vid=50545cb1-8c1a-4573-88ce-8fb237daea73"},"vehicle_type_id":"4","last_reported":1696950426,"current_range_meters":29200,"station_id":"ce4bhbh2rcd13ifvqeo0","pricing_plan_id":"free"},{"bike_id":"660f3416-0ec8-47e3-b54a-1e483fa23463","system_id":"levelo_inurba_marseille","lat":43.273609,"lon":5.362708,"is_reserved":false,"is_disabled":false,"rental_uris":{"android":"levelo://app?vid=660f3416-0ec8-47e3-b54a-1e483fa23463","ios":"levelo://app?vid=660f3416-0ec8-47e3-b54a-1e483fa23463"},"vehicle_type_id":"4","last_reported":1696950426,"current_range_meters":1200,"station_id":"ce4bhbh2rcd13ifvqeo0","pricing_plan_id":"free"},{"bike_id":"f6dd1483-5d28-423b-8663-10f77df710fe","system_id":"levelo_inurba_marseille","lat":43.273609,"lon":5.362708,"is_reserved":false,"is_disabled":false,"rental_uris":{"android":"levelo://app?vid=f6dd1483-5d28-423b-8663-10f77df710fe","ios":"levelo://app?vid=f6dd1483-5d28-423b-8663-10f77df710fe"},"vehicle_type_id":"4","last_reported":1696950426,"current_range_meters":14400,"station_id":"ce4bhbh2rcd13ifvqeo0","pricing_plan_id":"free"},{"bike_id":"c879ab27-3e8a-4543-965c-4ca2748d15c6","system_id":"levelo_inurba_marseille","lat":43.273613,"lon":5.362705,"is_reserved":false,"is_disabled":false,"rental_uris":{"android":"levelo://app?vid=c879ab27-3e8a-4543-965c-4ca2748d15c6","ios":"levelo://app?vid=c879ab27-3e8a-4543-965c-4ca2748d15c6"},"vehicle_type_id":"4","last_reported":1696950426,"current_range_meters":29200,"station_id":"ce4bhbh2rcd13ifvqeo0","pricing_plan_id":"free"},{"bike_id":"81a71c91-fa4c-4df7-ab7a-922f6a31bed2","system_id":"levelo_inurba_marseille","lat":43.27372,"lon":5.3626,"is_reserved":false,"is_disabled":false,"rental_uris":{"android":"levelo://app?vid=81a71c91-fa4c-4df7-ab7a-922f6a31bed2","ios":"levelo://app?vid=81a71c91-fa4c-4df7-ab7a-922f6a31bed2"},"vehicle_type_id":"4","last_reported":1696950426,"current_range_meters":15600,"station_id":"ce4bhbh2rcd13ifvqeo0","pricing_plan_id":"free"},{"bike_id":"fd3a44e9-0097-4994-9781-ac2c8451a090","system_id":"levelo_inurba_marseille","lat":43.275625,"lon":5.384392,"is_reserved":false,"is_disabled":false,"rental_uris":{"android":"levelo://app?vid=fd3a44e9-0097-4994-9781-ac2c8451a090","ios":"levelo://app?vid=fd3a44e9-0097-4994-9781-ac2c8451a090"},"vehicle_type_id":"4","last_reported":1696950426,"current_range_meters":23200,"station_id":"ce4bhh92rcd13ifvqfi0","pricing_plan_id":"free"},{"bike_id":"8b5fc64e-58c6-4c02-9f32-b04222fbd329","system_id":"levelo_inurba_marseille","lat":43.283343,"lon":5.402554,"is_reserved":false,"is_disabled":false,"rental_uris":{"android":"levelo://app?vid=8b5fc64e-58c6-4c02-9f32-b04222fbd329","ios":"levelo://app?vid=8b5fc64e-58c6-4c02-9f32-b04222fbd329"},"vehicle_type_id":"4","last_reported":1696950426,"current_range_meters":14000,"station_id":"","pricing_plan_id":"free"},{"bike_id":"00e523d3-9891-4518-8f9e-26f51605e3c8","system_id":"levelo_inurba_marseille","lat":43.27557,"lon":5.38415,"is_reserved":false,"is_disabled":false,"rental_uris":{"android":"levelo://app?vid=00e523d3-9891-4518-8f9e-26f51605e3c8","ios":"levelo://app?vid=00e523d3-9891-4518-8f9e-26f51605e3c8"},"vehicle_type_id":"4","last_reported":1696950426,"current_range_meters":19200,"station_id":"ce4bhh92rcd13ifvqfi0","pricing_plan_id":"free"},{"bike_id":"c054420e-fd82-4a17-9843-aab642324df8","system_id":"levelo_inurba_marseille","lat":43.276771,"lon":5.388799,"is_reserved":false,"is_disabled":false,"rental_uris":{"android":"levelo://app?vid=c054420e-fd82-4a17-9843-aab642324df8","ios":"levelo://app?vid=c054420e-fd82-4a17-9843-aab642324df8"},"vehicle_type_id":"4","last_reported":1696950426,"current_range_meters":11600,"station_id":"ce4bhi12rcd13ifvqfo0","pricing_plan_id":"free"},{"bike_id":"70cfd93b-531b-4296-96c2-994448fbee2e","system_id":"levelo_inurba_marseille","lat":43.276294,"lon":5.390926,"is_reserved":false,"is_disabled":false,"rental_uris":{"android":"levelo://app?vid=70cfd93b-531b-4296-96c2-994448fbee2e","ios":"levelo://app?vid=70cfd93b-531b-4296-96c2-994448fbee2e"},"vehicle_type_id":"4","last_reported":1696950426,"current_range_meters":0,"station_id":"","pricing_plan_id":"free"},{"bike_id":"fa16487e-2e30-412d-b20a-ba21612d9767","system_id":"levelo_inurba_marseille","lat":43.231923,"lon":5.355545,"is_reserved":false,"is_disabled":false,"rental_uris":{"android":"levelo://app?vid=fa16487e-2e30-412d-b20a-ba21612d9767","ios":"levelo://app?vid=fa16487e-2e30-412d-b20a-ba21612d9767"},"vehicle_type_id":"4","last_reported":1696950426,"current_range_meters":400,"station_id":"ce4bhu92rcd13ifvqi70","pricing_plan_id":"free"},{"bike_id":"ba8d1f46-cbb6-4a7a-b2cd-aed052c69917","system_id":"levelo_inurba_marseille","lat":43.31716,"lon":5.42395,"is_reserved":false,"is_disabled":false,"rental_uris":{"android":"levelo://app?vid=ba8d1f46-cbb6-4a7a-b2cd-aed052c69917","ios":"levelo://app?vid=ba8d1f46-cbb6-4a7a-b2cd-aed052c69917"},"vehicle_type_id":"4","last_reported":1696950426,"current_range_meters":0,"station_id":"ce4bhp92rcd13ifvqhbg","pricing_plan_id":"free"},{"bike_id":"72ca17ed-9855-4fef-89a7-921e70153dca","system_id":"levelo_inurba_marseille","lat":43.261782,"lon":5.374515,"is_reserved":false,"is_disabled":false,"rental_uris":{"android":"levelo://app?vid=72ca17ed-9855-4fef-89a7-921e70153dca","ios":"levelo://app?vid=72ca17ed-9855-4fef-89a7-921e70153dca"},"vehicle_type_id":"4","last_reported":1696950426,"current_range_meters":2400,"station_id":"ce4bhgp2rcd13ifvqfc0","pricing_plan_id":"free"},{"bike_id":"61544d6a-7323-447a-a081-e411b262973a","system_id":"levelo_inurba_marseille","lat":43.317176,"lon":5.424007,"is_reserved":false,"is_disabled":false,"rental_uris":{"android":"levelo://app?vid=61544d6a-7323-447a-a081-e411b262973a","ios":"levelo://app?vid=61544d6a-7323-447a-a081-e411b262973a"},"vehicle_type_id":"4","last_reported":1696950426,"current_range_meters":18400,"station_id":"ce4bhp92rcd13ifvqhbg","pricing_plan_id":"free"},{"bike_id":"248e8c2b-9735-406a-86f3-c3aa4af12321","system_id":"levelo_inurba_marseille","lat":43.317121,"lon":5.423936,"is_reserved":false,"is_disabled":false,"rental_uris":{"android":"levelo://app?vid=248e8c2b-9735-406a-86f3-c3aa4af12321","ios":"levelo://app?vid=248e8c2b-9735-406a-86f3-c3aa4af12321"},"vehicle_type_id":"4","last_reported":1696950426,"current_range_meters":22400,"station_id":"ce4bhp92rcd13ifvqhbg","pricing_plan_id":"free"},{"bike_id":"1534d283-c7b9-44d4-bdf6-6e302290696a","system_id":"levelo_inurba_marseille","lat":43.340804,"lon":5.410219,"is_reserved":false,"is_disabled":false,"rental_uris":{"android":"levelo://app?vid=1534d283-c7b9-44d4-bdf6-6e302290696a","ios":"levelo://app?vid=1534d283-c7b9-44d4-bdf6-6e302290696a"},"vehicle_type_id":"4","last_reported":1696950426,"current_range_meters":7600,"station_id":"ce4bhqh2rcd13ifvqhlg","pricing_plan_id":"free"},{"bike_id":"7803b4f1-db03-45e0-b75d-f7a44db41f32","system_id":"levelo_inurba_marseille","lat":43.231793,"lon":5.400044,"is_reserved":false,"is_disabled":false,"rental_uris":{"android":"levelo://app?vid=7803b4f1-db03-45e0-b75d-f7a44db41f32","ios":"levelo://app?vid=7803b4f1-db03-45e0-b75d-f7a44db41f32"},"vehicle_type_id":"4","last_reported":1696950426,"current_range_meters":14400,"station_id":"ce4bhn12rcd13ifvqgqg","pricing_plan_id":"free"},{"bike_id":"bfd4646e-79e7-493e-b667-a92c4096c604","system_id":"levelo_inurba_marseille","lat":43.273125,"lon":5.390731,"is_reserved":false,"is_disabled":false,"rental_uris":{"android":"levelo://app?vid=bfd4646e-79e7-493e-b667-a92c4096c604","ios":"levelo://app?vid=bfd4646e-79e7-493e-b667-a92c4096c604"},"vehicle_type_id":"4","last_reported":1696950426,"current_range_meters":28000,"station_id":"ce4bhgp2rcd13ifvqfe0","pricing_plan_id":"free"},{"bike_id":"601f09bc-bd51-4dab-a62b-68c5ec9b9b0d","system_id":"levelo_inurba_marseille","lat":43.274103,"lon":5.394016,"is_reserved":false,"is_disabled":false,"rental_uris":{"android":"levelo://app?vid=601f09bc-bd51-4dab-a62b-68c5ec9b9b0d","ios":"levelo://app?vid=601f09bc-bd51-4dab-a62b-68c5ec9b9b0d"},"vehicle_type_id":"4","last_reported":1696950426,"current_range_meters":4800,"station_id":"ce4bhdp2rcd13ifvqf20","pricing_plan_id":"free"},{"bike_id":"21658fc6-ff88-4a7a-ac16-28cebc82df8b","system_id":"levelo_inurba_marseille","lat":43.278399,"lon":5.392139,"is_reserved":false,"is_disabled":false,"rental_uris":{"android":"levelo://app?vid=21658fc6-ff88-4a7a-ac16-28cebc82df8b","ios":"levelo://app?vid=21658fc6-ff88-4a7a-ac16-28cebc82df8b"},"vehicle_type_id":"4","last_reported":1696950426,"current_range_meters":0,"station_id":"ce4bhjp2rcd13ifvqga0","pricing_plan_id":"free"},{"bike_id":"cd9dd4a7-aa78-4918-88d1-ccde02d0fd55","system_id":"levelo_inurba_marseille","lat":43.272116,"lon":5.391747,"is_reserved":false,"is_disabled":false,"rental_uris":{"android":"levelo://app?vid=cd9dd4a7-aa78-4918-88d1-ccde02d0fd55","ios":"levelo://app?vid=cd9dd4a7-aa78-4918-88d1-ccde02d0fd55"},"vehicle_type_id":"4","last_reported":1696950426,"current_range_meters":26000,"station_id":"ce4bhhp2rcd13ifvqfm0","pricing_plan_id":"free"},{"bike_id":"d5d70dbe-f176-45ae-be72-50635d221675","system_id":"levelo_inurba_marseille","lat":43.278128,"lon":5.407195,"is_reserved":false,"is_disabled":false,"rental_uris":{"android":"levelo://app?vid=d5d70dbe-f176-45ae-be72-50635d221675","ios":"levelo://app?vid=d5d70dbe-f176-45ae-be72-50635d221675"},"vehicle_type_id":"4","last_reported":1696950426,"current_range_meters":25600,"station_id":"ce4bhnh2rcd13ifvqgtg","pricing_plan_id":"free"},{"bike_id":"5d1a4141-0a6d-46f0-ac49-88677e011844","system_id":"levelo_inurba_marseille","lat":43.26681,"lon":5.382694,"is_reserved":false,"is_disabled":false,"rental_uris":{"android":"levelo://app?vid=5d1a4141-0a6d-46f0-ac49-88677e011844","ios":"levelo://app?vid=5d1a4141-0a6d-46f0-ac49-88677e011844"},"vehicle_type_id":"4","last_reported":1696950426,"current_range_meters":4000,"station_id":"ce4bhg92rcd13ifvqf90","pricing_plan_id":"free"},{"bike_id":"adb54670-cc9f-46aa-b90f-8fb17f357678","system_id":"levelo_inurba_marseille","lat":43.26681,"lon":5.382694,"is_reserved":false,"is_disabled":false,"rental_uris":{"android":"levelo://app?vid=adb54670-cc9f-46aa-b90f-8fb17f357678","ios":"levelo://app?vid=adb54670-cc9f-46aa-b90f-8fb17f357678"},"vehicle_type_id":"4","last_reported":1696950426,"current_range_meters":26000,"station_id":"ce4bhg92rcd13ifvqf90","pricing_plan_id":"free"},{"bike_id":"59d2b01d-c258-444b-a503-4685d767c95d","system_id":"levelo_inurba_marseille","lat":43.26681,"lon":5.382694,"is_reserved":false,"is_disabled":false,"rental_uris":{"android":"levelo://app?vid=59d2b01d-c258-444b-a503-4685d767c95d","ios":"levelo://app?vid=59d2b01d-c258-444b-a503-4685d767c95d"},"vehicle_type_id":"4","last_reported":1696950426,"current_range_meters":0,"station_id":"ce4bhg92rcd13ifvqf90","pricing_plan_id":"free"},{"bike_id":"dc0ec9d1-8174-4394-ab59-0003a2c1478d","system_id":"levelo_inurba_marseille","lat":43.26681,"lon":5.382694,"is_reserved":false,"is_disabled":false,"rental_uris":{"android":"levelo://app?vid=dc0ec9d1-8174-4394-ab59-0003a2c1478d","ios":"levelo://app?vid=dc0ec9d1-8174-4394-ab59-0003a2c1478d"},"vehicle_type_id":"4","last_reported":1696950426,"current_range_meters":13200,"station_id":"ce4bhg92rcd13ifvqf90","pricing_plan_id":"free"},{"bike_id":"19e3997b-663c-44bb-832b-9c412cd71690","system_id":"levelo_inurba_marseille","lat":43.325818,"lon":5.429533,"is_reserved":false,"is_disabled":false,"rental_uris":{"android":"levelo://app?vid=19e3997b-663c-44bb-832b-9c412cd71690","ios":"levelo://app?vid=19e3997b-663c-44bb-832b-9c412cd71690"},"vehicle_type_id":"4","last_reported":1696950426,"current_range_meters":22800,"station_id":"","pricing_plan_id":"free"},{"bike_id":"10264151-75ac-4b6e-beb6-5b0c1fe03040","system_id":"levelo_inurba_marseille","lat":43.272124,"lon":5.391768,"is_reserved":false,"is_disabled":false,"rental_uris":{"android":"levelo://app?vid=10264151-75ac-4b6e-beb6-5b0c1fe03040","ios":"levelo://app?vid=10264151-75ac-4b6e-beb6-5b0c1fe03040"},"vehicle_type_id":"4","last_reported":1696950426,"current_range_meters":26800,"station_id":"ce4bhhp2rcd13ifvqfm0","pricing_plan_id":"free"},{"bike_id":"a1860f3f-3279-466a-837e-112ae5be5c09","system_id":"levelo_inurba_marseille","lat":43.2799,"lon":5.41645,"is_reserved":false,"is_disabled":false,"rental_uris":{"android":"levelo://app?vid=a1860f3f-3279-466a-837e-112ae5be5c09","ios":"levelo://app?vid=a1860f3f-3279-466a-837e-112ae5be5c09"},"vehicle_type_id":"4","last_reported":1696950426,"current_range_meters":24400,"station_id":"ce4bho12rcd13ifvqh1g","pricing_plan_id":"free"},{"bike_id":"776011b2-5e36-4378-b715-338e3f04a791","system_id":"levelo_inurba_marseille","lat":43.2799,"lon":5.41662,"is_reserved":false,"is_disabled":false,"rental_uris":{"android":"levelo://app?vid=776011b2-5e36-4378-b715-338e3f04a791","ios":"levelo://app?vid=776011b2-5e36-4378-b715-338e3f04a791"},"vehicle_type_id":"4","last_reported":1696950426,"current_range_meters":21200,"station_id":"ce4bho12rcd13ifvqh1g","pricing_plan_id":"free"},{"bike_id":"329275b7-a631-44f3-bb65-2989beecec4c","system_id":"levelo_inurba_marseille","lat":43.27989,"lon":5.41664,"is_reserved":false,"is_disabled":false,"rental_uris":{"android":"levelo://app?vid=329275b7-a631-44f3-bb65-2989beecec4c","ios":"levelo://app?vid=329275b7-a631-44f3-bb65-2989beecec4c"},"vehicle_type_id":"4","last_reported":1696950426,"current_range_meters":7200,"station_id":"","pricing_plan_id":"free"},{"bike_id":"e884acf6-1b71-4e4a-8c1f-e90ce1569ec4","system_id":"levelo_inurba_marseille","lat":43.267966,"lon":5.393976,"is_reserved":false,"is_disabled":false,"rental_uris":{"android":"levelo://app?vid=e884acf6-1b71-4e4a-8c1f-e90ce1569ec4","ios":"levelo://app?vid=e884acf6-1b71-4e4a-8c1f-e90ce1569ec4"},"vehicle_type_id":"4","last_reported":1696950426,"current_range_meters":0,"station_id":"ce4bhh12rcd13ifvqfg0","pricing_plan_id":"free"},{"bike_id":"ba767f52-a9f8-455a-a8d3-724aae526edb","system_id":"levelo_inurba_marseille","lat":43.279675,"lon":5.418185,"is_reserved":false,"is_disabled":false,"rental_uris":{"android":"levelo://app?vid=ba767f52-a9f8-455a-a8d3-724aae526edb","ios":"levelo://app?vid=ba767f52-a9f8-455a-a8d3-724aae526edb"},"vehicle_type_id":"4","last_reported":1696950426,"current_range_meters":21200,"station_id":"ce4bgh92rcd13ifvqb50","pricing_plan_id":"free"},{"bike_id":"0f4e233d-e3f8-4c52-a6f3-a1bb2bc7cfe4","system_id":"levelo_inurba_marseille","lat":43.265571,"lon":5.390032,"is_reserved":false,"is_disabled":false,"rental_uris":{"android":"levelo://app?vid=0f4e233d-e3f8-4c52-a6f3-a1bb2bc7cfe4","ios":"levelo://app?vid=0f4e233d-e3f8-4c52-a6f3-a1bb2bc7cfe4"},"vehicle_type_id":"4","last_reported":1696950426,"current_range_meters":0,"station_id":"ce4bhe12rcd13ifvqf30","pricing_plan_id":"free"},{"bike_id":"aa5ce969-a249-4eed-a864-361d2522daa9","system_id":"levelo_inurba_marseille","lat":43.269405,"lon":5.402507,"is_reserved":false,"is_disabled":false,"rental_uris":{"android":"levelo://app?vid=aa5ce969-a249-4eed-a864-361d2522daa9","ios":"levelo://app?vid=aa5ce969-a249-4eed-a864-361d2522daa9"},"vehicle_type_id":"4","last_reported":1696950426,"current_range_meters":20400,"station_id":"","pricing_plan_id":"free"},{"bike_id":"932429be-e980-4ea2-8b62-131e8082975c","system_id":"levelo_inurba_marseille","lat":43.267959,"lon":5.402685,"is_reserved":false,"is_disabled":false,"rental_uris":{"android":"levelo://app?vid=932429be-e980-4ea2-8b62-131e8082975c","ios":"levelo://app?vid=932429be-e980-4ea2-8b62-131e8082975c"},"vehicle_type_id":"4","last_reported":1696950426,"current_range_meters":20800,"station_id":"ce501612rcd8frsf0b60","pricing_plan_id":"free"},{"bike_id":"52c5c711-aaf4-4236-b76b-e519ba3b6141","system_id":"levelo_inurba_marseille","lat":43.31755,"lon":5.43803,"is_reserved":false,"is_disabled":false,"rental_uris":{"android":"levelo://app?vid=52c5c711-aaf4-4236-b76b-e519ba3b6141","ios":"levelo://app?vid=52c5c711-aaf4-4236-b76b-e519ba3b6141"},"vehicle_type_id":"4","last_reported":1696950426,"current_range_meters":26000,"station_id":"","pricing_plan_id":"free"},{"bike_id":"32071625-b9ed-4fe6-b1ec-9fcda629e11f","system_id":"levelo_inurba_marseille","lat":43.298768,"lon":5.43643,"is_reserved":false,"is_disabled":false,"rental_uris":{"android":"levelo://app?vid=32071625-b9ed-4fe6-b1ec-9fcda629e11f","ios":"levelo://app?vid=32071625-b9ed-4fe6-b1ec-9fcda629e11f"},"vehicle_type_id":"4","last_reported":1696950426,"current_range_meters":14400,"station_id":"ce4bhpp2rcd13ifvqhfg","pricing_plan_id":"free"},{"bike_id":"d16fe159-fc05-4901-b5db-8ff9a67d0400","system_id":"levelo_inurba_marseille","lat":43.260219,"lon":5.37546,"is_reserved":false,"is_disabled":false,"rental_uris":{"android":"levelo://app?vid=d16fe159-fc05-4901-b5db-8ff9a67d0400","ios":"levelo://app?vid=d16fe159-fc05-4901-b5db-8ff9a67d0400"},"vehicle_type_id":"4","last_reported":1696950426,"current_range_meters":0,"station_id":"ce4bhgh2rcd13ifvqfa0","pricing_plan_id":"free"},{"bike_id":"99e378ce-b15a-4425-a872-b75c4262a49a","system_id":"levelo_inurba_marseille","lat":43.281492,"lon":5.426379,"is_reserved":false,"is_disabled":false,"rental_uris":{"android":"levelo://app?vid=99e378ce-b15a-4425-a872-b75c4262a49a","ios":"levelo://app?vid=99e378ce-b15a-4425-a872-b75c4262a49a"},"vehicle_type_id":"4","last_reported":1696950426,"current_range_meters":30800,"station_id":"ce4bhnh2rcd13ifvqgug","pricing_plan_id":"free"},{"bike_id":"a1912746-bc22-4eda-afd9-f00d7ce9617a","system_id":"levelo_inurba_marseille","lat":43.27495,"lon":5.42454,"is_reserved":false,"is_disabled":false,"rental_uris":{"android":"levelo://app?vid=a1912746-bc22-4eda-afd9-f00d7ce9617a","ios":"levelo://app?vid=a1912746-bc22-4eda-afd9-f00d7ce9617a"},"vehicle_type_id":"4","last_reported":1696950426,"current_range_meters":24400,"station_id":"ce4bhn92rcd13ifvqgrg","pricing_plan_id":"free"},{"bike_id":"9b3be89e-727d-45a5-b8fd-877b51a5df08","system_id":"levelo_inurba_marseille","lat":43.27491,"lon":5.42453,"is_reserved":false,"is_disabled":false,"rental_uris":{"android":"levelo://app?vid=9b3be89e-727d-45a5-b8fd-877b51a5df08","ios":"levelo://app?vid=9b3be89e-727d-45a5-b8fd-877b51a5df08"},"vehicle_type_id":"4","last_reported":1696950426,"current_range_meters":0,"station_id":"ce4bhn92rcd13ifvqgrg","pricing_plan_id":"free"},{"bike_id":"f23e4339-f948-4297-ba6a-7b8dc72b4977","system_id":"levelo_inurba_marseille","lat":43.275028,"lon":5.424534,"is_reserved":false,"is_disabled":false,"rental_uris":{"android":"levelo://app?vid=f23e4339-f948-4297-ba6a-7b8dc72b4977","ios":"levelo://app?vid=f23e4339-f948-4297-ba6a-7b8dc72b4977"},"vehicle_type_id":"4","last_reported":1696950426,"current_range_meters":20000,"station_id":"ce4bhn92rcd13ifvqgrg","pricing_plan_id":"free"},{"bike_id":"70c19c03-c94b-4681-bcd7-76ab48501f35","system_id":"levelo_inurba_marseille","lat":43.275028,"lon":5.424534,"is_reserved":false,"is_disabled":false,"rental_uris":{"android":"levelo://app?vid=70c19c03-c94b-4681-bcd7-76ab48501f35","ios":"levelo://app?vid=70c19c03-c94b-4681-bcd7-76ab48501f35"},"vehicle_type_id":"4","last_reported":1696950426,"current_range_meters":14400,"station_id":"ce4bhn92rcd13ifvqgrg","pricing_plan_id":"free"},{"bike_id":"825f5c16-89e5-4770-9b99-17c09aec7806","system_id":"levelo_inurba_marseille","lat":43.258224,"lon":5.394369,"is_reserved":false,"is_disabled":false,"rental_uris":{"android":"levelo://app?vid=825f5c16-89e5-4770-9b99-17c09aec7806","ios":"levelo://app?vid=825f5c16-89e5-4770-9b99-17c09aec7806"},"vehicle_type_id":"4","last_reported":1696950426,"current_range_meters":6800,"station_id":"ce4bhip2rcd13ifvqft0","pricing_plan_id":"free"},{"bike_id":"cb8d8725-7239-43f5-934c-9eef9be4b800","system_id":"levelo_inurba_marseille","lat":43.254945,"lon":5.376454,"is_reserved":false,"is_disabled":false,"rental_uris":{"android":"levelo://app?vid=cb8d8725-7239-43f5-934c-9eef9be4b800","ios":"levelo://app?vid=cb8d8725-7239-43f5-934c-9eef9be4b800"},"vehicle_type_id":"4","last_reported":1696950426,"current_range_meters":31200,"station_id":"ce4bhh12rcd13ifvqff0","pricing_plan_id":"free"},{"bike_id":"ca07df03-71a4-41ba-8f60-5ccf605f74d5","system_id":"levelo_inurba_marseille","lat":43.254947,"lon":5.376454,"is_reserved":false,"is_disabled":false,"rental_uris":{"android":"levelo://app?vid=ca07df03-71a4-41ba-8f60-5ccf605f74d5","ios":"levelo://app?vid=ca07df03-71a4-41ba-8f60-5ccf605f74d5"},"vehicle_type_id":"4","last_reported":1696950426,"current_range_meters":31200,"station_id":"ce4bhh12rcd13ifvqff0","pricing_plan_id":"free"},{"bike_id":"eea466b8-1153-494d-a8a3-827b1ba8201d","system_id":"levelo_inurba_marseille","lat":43.270721,"lon":5.422764,"is_reserved":false,"is_disabled":false,"rental_uris":{"android":"levelo://app?vid=eea466b8-1153-494d-a8a3-827b1ba8201d","ios":"levelo://app?vid=eea466b8-1153-494d-a8a3-827b1ba8201d"},"vehicle_type_id":"4","last_reported":1696950426,"current_range_meters":16000,"station_id":"ce4bhk92rcd13ifvqgb0","pricing_plan_id":"free"},{"bike_id":"cde75614-f975-442b-b7d3-c94e8e70ad8b","system_id":"levelo_inurba_marseille","lat":43.270721,"lon":5.422764,"is_reserved":false,"is_disabled":false,"rental_uris":{"android":"levelo://app?vid=cde75614-f975-442b-b7d3-c94e8e70ad8b","ios":"levelo://app?vid=cde75614-f975-442b-b7d3-c94e8e70ad8b"},