{"last_updated":1784491248,"ttl":60,"version":"2.2","data":{"bikes":[{"bike_id":"ba0c28b1-8732-48e2-8079-f25b2b3fbc3c","system_id":"levelo_inurba_marseille","lat":43.337444,"lon":5.374475,"is_reserved":false,"is_disabled":false,"rental_uris":{"android":"levelo://app?vid=ba0c28b1-8732-48e2-8079-f25b2b3fbc3c","ios":"levelo://app?vid=ba0c28b1-8732-48e2-8079-f25b2b3fbc3c"},"vehicle_type_id":"4","last_reported":1784491248,"current_range_meters":0,"station_id":"","pricing_plan_id":"cebpf4jnsgd1na2vs0mg"},{"bike_id":"b4a0efc4-ed79-47bb-8fc8-25f6cf1a9ba2","system_id":"levelo_inurba_marseille","lat":43.22535,"lon":5.34828,"is_reserved":false,"is_disabled":false,"rental_uris":{"android":"levelo://app?vid=b4a0efc4-ed79-47bb-8fc8-25f6cf1a9ba2","ios":"levelo://app?vid=b4a0efc4-ed79-47bb-8fc8-25f6cf1a9ba2"},"vehicle_type_id":"4","last_reported":1784491248,"current_range_meters":38000,"station_id":"","pricing_plan_id":"cebpf4jnsgd1na2vs0mg"},{"bike_id":"a966e85f-68d2-4c23-8395-3915ebf05c3e","system_id":"levelo_inurba_marseille","lat":43.33537,"lon":5.3746,"is_reserved":false,"is_disabled":false,"rental_uris":{"android":"levelo://app?vid=a966e85f-68d2-4c23-8395-3915ebf05c3e","ios":"levelo://app?vid=a966e85f-68d2-4c23-8395-3915ebf05c3e"},"vehicle_type_id":"4","last_reported":1784491248,"current_range_meters":10800,"station_id":"st_d46tts09ee8s73dlu43g","pricing_plan_id":"cebpf4jnsgd1na2vs0mg"},{"bike_id":"63dc20ac-90f4-4eae-ac6c-d24ae13a7929","system_id":"levelo_inurba_marseille","lat":43.25338,"lon":5.4217,"is_reserved":false,"is_disabled":false,"rental_uris":{"android":"levelo://app?vid=63dc20ac-90f4-4eae-ac6c-d24ae13a7929","ios":"levelo://app?vid=63dc20ac-90f4-4eae-ac6c-d24ae13a7929"},"vehicle_type_id":"4","last_reported":1784491248,"current_range_meters":27600,"station_id":"st_d2m65c5bi1j21697t3ng","pricing_plan_id":"cebpf4jnsgd1na2vs0mg"},{"bike_id":"43d2e4b6-67ad-4bfb-baf8-238b2d893885","system_id":"levelo_inurba_marseille","lat":43.30552,"lon":5.36583,"is_reserved":false,"is_disabled":true,"rental_uris":{"android":"levelo://app?vid=43d2e4b6-67ad-4bfb-baf8-238b2d893885","ios":"levelo://app?vid=43d2e4b6-67ad-4bfb-baf8-238b2d893885"},"vehicle_type_id":"4","last_reported":1784491248,"current_range_meters":400,"station_id":"ce4bgs12rcd13ifvqcag","pricing_plan_id":"cebpf4jnsgd1na2vs0mg"},{"bike_id":"0d74f378-8a88-4e25-8887-f2e6e1da58e7","system_id":"levelo_inurba_marseille","lat":43.29535,"lon":5.38529,"is_reserved":false,"is_disabled":false,"rental_uris":{"android":"levelo://app?vid=0d74f378-8a88-4e25-8887-f2e6e1da58e7","ios":"levelo://app?vid=0d74f378-8a88-4e25-8887-f2e6e1da58e7"},"vehicle_type_id":"4","last_reported":1784491248,"current_range_meters":39200,"station_id":"ce4bgih2rcd13ifvqba0","pricing_plan_id":"cebpf4jnsgd1na2vs0mg"},{"bike_id":"e9552b2c-374a-4df7-84fa-23905f69b8d0","system_id":"levelo_inurba_marseille","lat":43.28947,"lon":5.36626,"is_reserved":false,"is_disabled":false,"rental_uris":{"android":"levelo://app?vid=e9552b2c-374a-4df7-84fa-23905f69b8d0","ios":"levelo://app?vid=e9552b2c-374a-4df7-84fa-23905f69b8d0"},"vehicle_type_id":"4","last_reported":1784491248,"current_range_meters":23200,"station_id":"ce4bhap2rcd13ifvqek0","pricing_plan_id":"cebpf4jnsgd1na2vs0mg"},{"bike_id":"fbd59603-b417-42b3-81b8-b4f8fad98ab1","system_id":"levelo_inurba_marseille","lat":43.25114,"lon":5.40322,"is_reserved":false,"is_disabled":false,"rental_uris":{"android":"levelo://app?vid=fbd59603-b417-42b3-81b8-b4f8fad98ab1","ios":"levelo://app?vid=fbd59603-b417-42b3-81b8-b4f8fad98ab1"},"vehicle_type_id":"4","last_reported":1784491248,"current_range_meters":10000,"station_id":"ce4bhlh2rcd13ifvqgig","pricing_plan_id":"cebpf4jnsgd1na2vs0mg"},{"bike_id":"84bb7bb0-831d-4d6f-baf0-87eb1e8e096a","system_id":"levelo_inurba_marseille","lat":43.28449,"lon":5.39204,"is_reserved":false,"is_disabled":false,"rental_uris":{"android":"levelo://app?vid=84bb7bb0-831d-4d6f-baf0-87eb1e8e096a","ios":"levelo://app?vid=84bb7bb0-831d-4d6f-baf0-87eb1e8e096a"},"vehicle_type_id":"4","last_reported":1784491248,"current_range_meters":24000,"station_id":"ce4bhoh2rcd13ifvqh5g","pricing_plan_id":"cebpf4jnsgd1na2vs0mg"},{"bike_id":"54d6a8c9-5e9f-4108-8cad-6cf1781e6a5a","system_id":"levelo_inurba_marseille","lat":43.24994,"lon":5.38945,"is_reserved":false,"is_disabled":false,"rental_uris":{"android":"levelo://app?vid=54d6a8c9-5e9f-4108-8cad-6cf1781e6a5a","ios":"levelo://app?vid=54d6a8c9-5e9f-4108-8cad-6cf1781e6a5a"},"vehicle_type_id":"4","last_reported":1784491248,"current_range_meters":32400,"station_id":"ce4bhgp2rcd13ifvqfd0","pricing_plan_id":"cebpf4jnsgd1na2vs0mg"},{"bike_id":"0671173c-a69c-4c9c-af23-0ba572f52f57","system_id":"levelo_inurba_marseille","lat":43.29554,"lon":5.38528,"is_reserved":false,"is_disabled":false,"rental_uris":{"android":"levelo://app?vid=0671173c-a69c-4c9c-af23-0ba572f52f57","ios":"levelo://app?vid=0671173c-a69c-4c9c-af23-0ba572f52f57"},"vehicle_type_id":"4","last_reported":1784491248,"current_range_meters":33200,"station_id":"ce4bgih2rcd13ifvqba0","pricing_plan_id":"cebpf4jnsgd1na2vs0mg"},{"bike_id":"2e1ec244-6a09-470a-a3fa-843f9ed5a0d0","system_id":"levelo_inurba_marseille","lat":43.27939,"lon":5.41042,"is_reserved":false,"is_disabled":false,"rental_uris":{"android":"levelo://app?vid=2e1ec244-6a09-470a-a3fa-843f9ed5a0d0","ios":"levelo://app?vid=2e1ec244-6a09-470a-a3fa-843f9ed5a0d0"},"vehicle_type_id":"4","last_reported":1784491248,"current_range_meters":10000,"station_id":"ce4bhnp2rcd13ifvqh0g","pricing_plan_id":"cebpf4jnsgd1na2vs0mg"},{"bike_id":"1811d03e-f44a-4a56-9bcd-a145f97c4039","system_id":"levelo_inurba_marseille","lat":43.24396,"lon":5.37069,"is_reserved":false,"is_disabled":false,"rental_uris":{"android":"levelo://app?vid=1811d03e-f44a-4a56-9bcd-a145f97c4039","ios":"levelo://app?vid=1811d03e-f44a-4a56-9bcd-a145f97c4039"},"vehicle_type_id":"4","last_reported":1784491248,"current_range_meters":7200,"station_id":"ce4bhhh2rcd13ifvqfk0","pricing_plan_id":"cebpf4jnsgd1na2vs0mg"},{"bike_id":"822b2734-c0cf-49c3-a01f-ae40cc756c1b","system_id":"levelo_inurba_marseille","lat":43.29514,"lon":5.37502,"is_reserved":false,"is_disabled":false,"rental_uris":{"android":"levelo://app?vid=822b2734-c0cf-49c3-a01f-ae40cc756c1b","ios":"levelo://app?vid=822b2734-c0cf-49c3-a01f-ae40cc756c1b"},"vehicle_type_id":"4","last_reported":1784491248,"current_range_meters":39200,"station_id":"ce4bgkp2rcd13ifvqbmg","pricing_plan_id":"cebpf4jnsgd1na2vs0mg"},{"bike_id":"e71494cd-d4a8-436a-a5c6-260a2924500e","system_id":"levelo_inurba_marseille","lat":43.26203,"lon":5.3875,"is_reserved":false,"is_disabled":true,"rental_uris":{"android":"levelo://app?vid=e71494cd-d4a8-436a-a5c6-260a2924500e","ios":"levelo://app?vid=e71494cd-d4a8-436a-a5c6-260a2924500e"},"vehicle_type_id":"4","last_reported":1784491248,"current_range_meters":24400,"station_id":"st_d8gjfg747rts73coq3b0","pricing_plan_id":"cebpf4jnsgd1na2vs0mg"},{"bike_id":"4a000764-aee4-44dc-8be4-d5d8e44185fb","system_id":"levelo_inurba_marseille","lat":43.29032,"lon":5.37566,"is_reserved":false,"is_disabled":false,"rental_uris":{"android":"levelo://app?vid=4a000764-aee4-44dc-8be4-d5d8e44185fb","ios":"levelo://app?vid=4a000764-aee4-44dc-8be4-d5d8e44185fb"},"vehicle_type_id":"4","last_reported":1784491248,"current_range_meters":38400,"station_id":"ce4bh692rcd13ifvqe90","pricing_plan_id":"cebpf4jnsgd1na2vs0mg"},{"bike_id":"bedff844-9130-492b-a7c3-37d670bbb559","system_id":"levelo_inurba_marseille","lat":43.32358,"lon":5.36728,"is_reserved":false,"is_disabled":false,"rental_uris":{"android":"levelo://app?vid=bedff844-9130-492b-a7c3-37d670bbb559","ios":"levelo://app?vid=bedff844-9130-492b-a7c3-37d670bbb559"},"vehicle_type_id":"4","last_reported":1784491248,"current_range_meters":38400,"station_id":"ce4bhsh2rcd13ifvqi2g","pricing_plan_id":"cebpf4jnsgd1na2vs0mg"},{"bike_id":"7a4f8f77-30d7-4fb8-a6b3-4ea21bdcf328","system_id":"levelo_inurba_marseille","lat":43.307935,"lon":5.381458,"is_reserved":false,"is_disabled":true,"rental_uris":{"android":"levelo://app?vid=7a4f8f77-30d7-4fb8-a6b3-4ea21bdcf328","ios":"levelo://app?vid=7a4f8f77-30d7-4fb8-a6b3-4ea21bdcf328"},"vehicle_type_id":"4","last_reported":1784491248,"current_range_meters":400,"station_id":"ce4bgt12rcd13ifvqce0","pricing_plan_id":"cebpf4jnsgd1na2vs0mg"},{"bike_id":"9ce1c7ee-e3ec-4f19-9fd3-cbc8c6325b36","system_id":"levelo_inurba_marseille","lat":43.27567,"lon":5.38408,"is_reserved":false,"is_disabled":false,"rental_uris":{"android":"levelo://app?vid=9ce1c7ee-e3ec-4f19-9fd3-cbc8c6325b36","ios":"levelo://app?vid=9ce1c7ee-e3ec-4f19-9fd3-cbc8c6325b36"},"vehicle_type_id":"4","last_reported":1784491248,"current_range_meters":9600,"station_id":"ce4bhh92rcd13ifvqfi0","pricing_plan_id":"cebpf4jnsgd1na2vs0mg"},{"bike_id":"be2c6eaf-5633-42b8-9fa5-8b8442fbbf7b","system_id":"levelo_inurba_marseille","lat":43.24627,"lon":5.43134,"is_reserved":false,"is_disabled":false,"rental_uris":{"android":"levelo://app?vid=be2c6eaf-5633-42b8-9fa5-8b8442fbbf7b","ios":"levelo://app?vid=be2c6eaf-5633-42b8-9fa5-8b8442fbbf7b"},"vehicle_type_id":"4","last_reported":1784491248,"current_range_meters":28800,"station_id":"st_d2m6c4gdas8pm72e190g","pricing_plan_id":"cebpf4jnsgd1na2vs0mg"},{"bike_id":"11fb5aa4-2718-400c-8086-1cccc6b5e833","system_id":"levelo_inurba_marseille","lat":43.29271,"lon":5.38454,"is_reserved":false,"is_disabled":false,"rental_uris":{"android":"levelo://app?vid=11fb5aa4-2718-400c-8086-1cccc6b5e833","ios":"levelo://app?vid=11fb5aa4-2718-400c-8086-1cccc6b5e833"},"vehicle_type_id":"4","last_reported":1784491248,"current_range_meters":37600,"station_id":"ce4bh692rcd13ifvqea0","pricing_plan_id":"cebpf4jnsgd1na2vs0mg"},{"bike_id":"32ed2206-662d-4dc8-8aec-718d76ff8fe4","system_id":"levelo_inurba_marseille","lat":43.27987,"lon":5.4165,"is_reserved":false,"is_disabled":false,"rental_uris":{"android":"levelo://app?vid=32ed2206-662d-4dc8-8aec-718d76ff8fe4","ios":"levelo://app?vid=32ed2206-662d-4dc8-8aec-718d76ff8fe4"},"vehicle_type_id":"4","last_reported":1784491248,"current_range_meters":36800,"station_id":"ce4bho12rcd13ifvqh1g","pricing_plan_id":"cebpf4jnsgd1na2vs0mg"},{"bike_id":"fd44db52-2137-49f3-8d2b-a4d3bd7fb764","system_id":"levelo_inurba_marseille","lat":43.31503,"lon":5.37302,"is_reserved":false,"is_disabled":false,"rental_uris":{"android":"levelo://app?vid=fd44db52-2137-49f3-8d2b-a4d3bd7fb764","ios":"levelo://app?vid=fd44db52-2137-49f3-8d2b-a4d3bd7fb764"},"vehicle_type_id":"4","last_reported":1784491248,"current_range_meters":17600,"station_id":"ce4bgt12rcd13ifvqcd0","pricing_plan_id":"cebpf4jnsgd1na2vs0mg"},{"bike_id":"0ecdb674-3c3c-46be-9a7b-0387e7579f88","system_id":"levelo_inurba_marseille","lat":43.24472,"lon":5.42533,"is_reserved":false,"is_disabled":false,"rental_uris":{"android":"levelo://app?vid=0ecdb674-3c3c-46be-9a7b-0387e7579f88","ios":"levelo://app?vid=0ecdb674-3c3c-46be-9a7b-0387e7579f88"},"vehicle_type_id":"4","last_reported":1784491248,"current_range_meters":28000,"station_id":"st_d4a3vfp97mjs738cd8kg","pricing_plan_id":"cebpf4jnsgd1na2vs0mg"},{"bike_id":"7078b637-2550-4523-aae8-59fff3728713","system_id":"levelo_inurba_marseille","lat":43.2924,"lon":5.37634,"is_reserved":false,"is_disabled":false,"rental_uris":{"android":"levelo://app?vid=7078b637-2550-4523-aae8-59fff3728713","ios":"levelo://app?vid=7078b637-2550-4523-aae8-59fff3728713"},"vehicle_type_id":"4","last_reported":1784491248,"current_range_meters":4800,"station_id":"ce4bgi12rcd13ifvqb80","pricing_plan_id":"cebpf4jnsgd1na2vs0mg"},{"bike_id":"129ac767-2638-4c48-b9ca-8da71d89525b","system_id":"levelo_inurba_marseille","lat":43.23893,"lon":5.37457,"is_reserved":false,"is_disabled":false,"rental_uris":{"android":"levelo://app?vid=129ac767-2638-4c48-b9ca-8da71d89525b","ios":"levelo://app?vid=129ac767-2638-4c48-b9ca-8da71d89525b"},"vehicle_type_id":"4","last_reported":1784491248,"current_range_meters":27600,"station_id":"st_d6sm7csbq4hs73f8fpjg","pricing_plan_id":"cebpf4jnsgd1na2vs0mg"},{"bike_id":"e2c24341-435c-46e7-90d7-f3ef4b8cde06","system_id":"levelo_inurba_marseille","lat":43.29297,"lon":5.37164,"is_reserved":false,"is_disabled":false,"rental_uris":{"android":"levelo://app?vid=e2c24341-435c-46e7-90d7-f3ef4b8cde06","ios":"levelo://app?vid=e2c24341-435c-46e7-90d7-f3ef4b8cde06"},"vehicle_type_id":"4","last_reported":1784491248,"current_range_meters":27600,"station_id":"ce4bgh92rcd13ifvqb40","pricing_plan_id":"cebpf4jnsgd1na2vs0mg"},{"bike_id":"8dcb20ec-2201-4b6c-ad47-7bdc9e5f6705","system_id":"levelo_inurba_marseille","lat":43.2842,"lon":5.3754,"is_reserved":false,"is_disabled":false,"rental_uris":{"android":"levelo://app?vid=8dcb20ec-2201-4b6c-ad47-7bdc9e5f6705","ios":"levelo://app?vid=8dcb20ec-2201-4b6c-ad47-7bdc9e5f6705"},"vehicle_type_id":"4","last_reported":1784491248,"current_range_meters":28000,"station_id":"ce4bh412rcd13ifvqds0","pricing_plan_id":"cebpf4jnsgd1na2vs0mg"},{"bike_id":"f909fdac-afd1-474b-ac5e-781e31bab381","system_id":"levelo_inurba_marseille","lat":43.26951,"lon":5.3864,"is_reserved":false,"is_disabled":false,"rental_uris":{"android":"levelo://app?vid=f909fdac-afd1-474b-ac5e-781e31bab381","ios":"levelo://app?vid=f909fdac-afd1-474b-ac5e-781e31bab381"},"vehicle_type_id":"4","last_reported":1784491248,"current_range_meters":14800,"station_id":"ce4bhh92rcd13ifvqfh0","pricing_plan_id":"cebpf4jnsgd1na2vs0mg"},{"bike_id":"fcb4a754-16f7-497a-aaa3-491452390f62","system_id":"levelo_inurba_marseille","lat":43.28931,"lon":5.36628,"is_reserved":false,"is_disabled":false,"rental_uris":{"android":"levelo://app?vid=fcb4a754-16f7-497a-aaa3-491452390f62","ios":"levelo://app?vid=fcb4a754-16f7-497a-aaa3-491452390f62"},"vehicle_type_id":"4","last_reported":1784491248,"current_range_meters":37600,"station_id":"ce4bhap2rcd13ifvqek0","pricing_plan_id":"cebpf4jnsgd1na2vs0mg"},{"bike_id":"ae4de62c-7f6d-47d3-bf8f-025f88859098","system_id":"levelo_inurba_marseille","lat":43.29304,"lon":5.37149,"is_reserved":false,"is_disabled":false,"rental_uris":{"android":"levelo://app?vid=ae4de62c-7f6d-47d3-bf8f-025f88859098","ios":"levelo://app?vid=ae4de62c-7f6d-47d3-bf8f-025f88859098"},"vehicle_type_id":"4","last_reported":1784491248,"current_range_meters":14400,"station_id":"ce4bgh92rcd13ifvqb40","pricing_plan_id":"cebpf4jnsgd1na2vs0mg"},{"bike_id":"ef58ecff-3f6f-421a-8bcb-1c3563ad8889","system_id":"levelo_inurba_marseille","lat":43.24956,"lon":5.38976,"is_reserved":false,"is_disabled":false,"rental_uris":{"android":"levelo://app?vid=ef58ecff-3f6f-421a-8bcb-1c3563ad8889","ios":"levelo://app?vid=ef58ecff-3f6f-421a-8bcb-1c3563ad8889"},"vehicle_type_id":"4","last_reported":1784491248,"current_range_meters":6800,"station_id":"","pricing_plan_id":"cebpf4jnsgd1na2vs0mg"},{"bike_id":"ef6880d0-6944-4f6a-8f40-6662368b8f75","system_id":"levelo_inurba_marseille","lat":43.31701,"lon":5.43696,"is_reserved":false,"is_disabled":false,"rental_uris":{"android":"levelo://app?vid=ef6880d0-6944-4f6a-8f40-6662368b8f75","ios":"levelo://app?vid=ef6880d0-6944-4f6a-8f40-6662368b8f75"},"vehicle_type_id":"4","last_reported":1784491248,"current_range_meters":39200,"station_id":"ce4bhp92rcd13ifvqhcg","pricing_plan_id":"cebpf4jnsgd1na2vs0mg"},{"bike_id":"a9980c70-8710-4935-a17b-03702e6ebda9","system_id":"levelo_inurba_marseille","lat":43.32548,"lon":5.41445,"is_reserved":false,"is_disabled":false,"rental_uris":{"android":"levelo://app?vid=a9980c70-8710-4935-a17b-03702e6ebda9","ios":"levelo://app?vid=a9980c70-8710-4935-a17b-03702e6ebda9"},"vehicle_type_id":"4","last_reported":1784491248,"current_range_meters":37600,"station_id":"ce4bhq12rcd13ifvqhhg","pricing_plan_id":"cebpf4jnsgd1na2vs0mg"},{"bike_id":"6e287f0a-f9e7-4f51-acaa-98916312b661","system_id":"levelo_inurba_marseille","lat":43.29871,"lon":5.38925,"is_reserved":false,"is_disabled":false,"rental_uris":{"android":"levelo://app?vid=6e287f0a-f9e7-4f51-acaa-98916312b661","ios":"levelo://app?vid=6e287f0a-f9e7-4f51-acaa-98916312b661"},"vehicle_type_id":"4","last_reported":1784491248,"current_range_meters":36800,"station_id":"ce4bh392rcd13ifvqdl0","pricing_plan_id":"cebpf4jnsgd1na2vs0mg"},{"bike_id":"a0dc5e16-0d76-45f6-9d5b-d2240fe4de8f","system_id":"levelo_inurba_marseille","lat":43.29891,"lon":5.3892,"is_reserved":false,"is_disabled":false,"rental_uris":{"android":"levelo://app?vid=a0dc5e16-0d76-45f6-9d5b-d2240fe4de8f","ios":"levelo://app?vid=a0dc5e16-0d76-45f6-9d5b-d2240fe4de8f"},"vehicle_type_id":"4","last_reported":1784491248,"current_range_meters":35200,"station_id":"ce4bh392rcd13ifvqdl0","pricing_plan_id":"cebpf4jnsgd1na2vs0mg"},{"bike_id":"6ed47cfa-6705-42d2-9797-0d07937a2035","system_id":"levelo_inurba_marseille","lat":43.29183,"lon":5.39314,"is_reserved":false,"is_disabled":false,"rental_uris":{"android":"levelo://app?vid=6ed47cfa-6705-42d2-9797-0d07937a2035","ios":"levelo://app?vid=6ed47cfa-6705-42d2-9797-0d07937a2035"},"vehicle_type_id":"4","last_reported":1784491248,"current_range_meters":20400,"station_id":"ce4bh192rcd13ifvqdd0","pricing_plan_id":"cebpf4jnsgd1na2vs0mg"},{"bike_id":"d183c213-4177-4bf2-b9e0-24872be8a9c8","system_id":"levelo_inurba_marseille","lat":43.28476,"lon":5.48387,"is_reserved":false,"is_disabled":false,"rental_uris":{"android":"levelo://app?vid=d183c213-4177-4bf2-b9e0-24872be8a9c8","ios":"levelo://app?vid=d183c213-4177-4bf2-b9e0-24872be8a9c8"},"vehicle_type_id":"4","last_reported":1784491248,"current_range_meters":12800,"station_id":"st_d3svhcjqgbts73a3dn0g","pricing_plan_id":"cebpf4jnsgd1na2vs0mg"},{"bike_id":"2d6aad27-edd8-40d8-9909-7631942c4892","system_id":"levelo_inurba_marseille","lat":43.31987,"lon":5.38153,"is_reserved":false,"is_disabled":false,"rental_uris":{"android":"levelo://app?vid=2d6aad27-edd8-40d8-9909-7631942c4892","ios":"levelo://app?vid=2d6aad27-edd8-40d8-9909-7631942c4892"},"vehicle_type_id":"4","last_reported":1784491248,"current_range_meters":28400,"station_id":"ce4bhr12rcd13ifvqhpg","pricing_plan_id":"cebpf4jnsgd1na2vs0mg"},{"bike_id":"0ae50d00-a50e-40fa-b72f-2a46428c7751","system_id":"levelo_inurba_marseille","lat":43.29541,"lon":5.38534,"is_reserved":false,"is_disabled":false,"rental_uris":{"android":"levelo://app?vid=0ae50d00-a50e-40fa-b72f-2a46428c7751","ios":"levelo://app?vid=0ae50d00-a50e-40fa-b72f-2a46428c7751"},"vehicle_type_id":"4","last_reported":1784491248,"current_range_meters":36400,"station_id":"ce4bgih2rcd13ifvqba0","pricing_plan_id":"cebpf4jnsgd1na2vs0mg"},{"bike_id":"b29e6b5d-352a-434a-9c78-0039b8bc6d38","system_id":"levelo_inurba_marseille","lat":43.29213,"lon":5.36046,"is_reserved":false,"is_disabled":false,"rental_uris":{"android":"levelo://app?vid=b29e6b5d-352a-434a-9c78-0039b8bc6d38","ios":"levelo://app?vid=b29e6b5d-352a-434a-9c78-0039b8bc6d38"},"vehicle_type_id":"4","last_reported":1784491248,"current_range_meters":36800,"station_id":"","pricing_plan_id":"cebpf4jnsgd1na2vs0mg"},{"bike_id":"17945528-279e-4b89-8ebf-81337f3cc26d","system_id":"levelo_inurba_marseille","lat":43.30149,"lon":5.37432,"is_reserved":false,"is_disabled":false,"rental_uris":{"android":"levelo://app?vid=17945528-279e-4b89-8ebf-81337f3cc26d","ios":"levelo://app?vid=17945528-279e-4b89-8ebf-81337f3cc26d"},"vehicle_type_id":"4","last_reported":1784491248,"current_range_meters":22800,"station_id":"ce4bgs92rcd13ifvqcc0","pricing_plan_id":"cebpf4jnsgd1na2vs0mg"},{"bike_id":"17e4be99-494c-4c9f-8720-fc080f3b6be4","system_id":"levelo_inurba_marseille","lat":43.29836,"lon":5.37611,"is_reserved":false,"is_disabled":false,"rental_uris":{"android":"levelo://app?vid=17e4be99-494c-4c9f-8720-fc080f3b6be4","ios":"levelo://app?vid=17e4be99-494c-4c9f-8720-fc080f3b6be4"},"vehicle_type_id":"4","last_reported":1784491248,"current_range_meters":2800,"station_id":"","pricing_plan_id":"cebpf4jnsgd1na2vs0mg"},{"bike_id":"191f3069-1c83-46a1-b2b2-b295879cd958","system_id":"levelo_inurba_marseille","lat":43.29029,"lon":5.38644,"is_reserved":false,"is_disabled":false,"rental_uris":{"android":"levelo://app?vid=191f3069-1c83-46a1-b2b2-b295879cd958","ios":"levelo://app?vid=191f3069-1c83-46a1-b2b2-b295879cd958"},"vehicle_type_id":"4","last_reported":1784491248,"current_range_meters":8000,"station_id":"ce4bh4p2rcd13ifvqe0g","pricing_plan_id":"cebpf4jnsgd1na2vs0mg"},{"bike_id":"fe15ad90-aa2c-4ebb-826e-225ff0bf6e3f","system_id":"levelo_inurba_marseille","lat":43.29368,"lon":5.37852,"is_reserved":false,"is_disabled":false,"rental_uris":{"android":"levelo://app?vid=fe15ad90-aa2c-4ebb-826e-225ff0bf6e3f","ios":"levelo://app?vid=fe15ad90-aa2c-4ebb-826e-225ff0bf6e3f"},"vehicle_type_id":"4","last_reported":1784491248,"current_range_meters":39200,"station_id":"ce4bgjh2rcd13ifvqbf0","pricing_plan_id":"cebpf4jnsgd1na2vs0mg"},{"bike_id":"63c1781a-36c2-4a4a-9f14-acd6b65eaf1b","system_id":"levelo_inurba_marseille","lat":43.29533,"lon":5.38535,"is_reserved":false,"is_disabled":false,"rental_uris":{"android":"levelo://app?vid=63c1781a-36c2-4a4a-9f14-acd6b65eaf1b","ios":"levelo://app?vid=63c1781a-36c2-4a4a-9f14-acd6b65eaf1b"},"vehicle_type_id":"4","last_reported":1784491248,"current_range_meters":40000,"station_id":"ce4bgih2rcd13ifvqba0","pricing_plan_id":"cebpf4jnsgd1na2vs0mg"},{"bike_id":"92f9377a-62ba-495b-8de9-1750140cdb94","system_id":"levelo_inurba_marseille","lat":43.29626,"lon":5.37034,"is_reserved":false,"is_disabled":true,"rental_uris":{"android":"levelo://app?vid=92f9377a-62ba-495b-8de9-1750140cdb94","ios":"levelo://app?vid=92f9377a-62ba-495b-8de9-1750140cdb94"},"vehicle_type_id":"4","last_reported":1784491248,"current_range_meters":26000,"station_id":"","pricing_plan_id":"cebpf4jnsgd1na2vs0mg"},{"bike_id":"09b2123d-bdf2-43ae-bd23-5dd90a826d9f","system_id":"levelo_inurba_marseille","lat":43.3032,"lon":5.4044,"is_reserved":false,"is_disabled":false,"rental_uris":{"android":"levelo://app?vid=09b2123d-bdf2-43ae-bd23-5dd90a826d9f","ios":"levelo://app?vid=09b2123d-bdf2-43ae-bd23-5dd90a826d9f"},"vehicle_type_id":"4","last_reported":1784491248,"current_range_meters":6800,"station_id":"","pricing_plan_id":"cebpf4jnsgd1na2vs0mg"},{"bike_id":"36fe0f4a-2984-4ec5-b6ca-df8f64d9102f","system_id":"levelo_inurba_marseille","lat":43.27178,"lon":5.40991,"is_reserved":false,"is_disabled":true,"rental_uris":{"android":"levelo://app?vid=36fe0f4a-2984-4ec5-b6ca-df8f64d9102f","ios":"levelo://app?vid=36fe0f4a-2984-4ec5-b6ca-df8f64d9102f"},"vehicle_type_id":"4","last_reported":1784491248,"current_range_meters":28400,"station_id":"ce4bhl12rcd13ifvqgf0","pricing_plan_id":"cebpf4jnsgd1na2vs0mg"},{"bike_id":"25014373-6bdd-4197-961e-2a4c51227d99","system_id":"levelo_inurba_marseille","lat":43.29265,"lon":5.38417,"is_reserved":false,"is_disabled":false,"rental_uris":{"android":"levelo://app?vid=25014373-6bdd-4197-961e-2a4c51227d99","ios":"levelo://app?vid=25014373-6bdd-4197-961e-2a4c51227d99"},"vehicle_type_id":"4","last_reported":1784491248,"current_range_meters":28400,"station_id":"ce4bh692rcd13ifvqea0","pricing_plan_id":"cebpf4jnsgd1na2vs0mg"},{"bike_id":"56936ed9-ced3-4a44-b1c3-a594e07664c9","system_id":"levelo_inurba_marseille","lat":43.29028,"lon":5.38135,"is_reserved":false,"is_disabled":false,"rental_uris":{"android":"levelo://app?vid=56936ed9-ced3-4a44-b1c3-a594e07664c9","ios":"levelo://app?vid=56936ed9-ced3-4a44-b1c3-a594e07664c9"},"vehicle_type_id":"4","last_reported":1784491248,"current_range_meters":16400,"station_id":"ce4bh4p2rcd13ifvqe1g","pricing_plan_id":"cebpf4jnsgd1na2vs0mg"},{"bike_id":"c2e7fe27-d2b0-440e-b62d-ead50feed951","system_id":"levelo_inurba_marseille","lat":43.29486,"lon":5.43311,"is_reserved":false,"is_disabled":false,"rental_uris":{"android":"levelo://app?vid=c2e7fe27-d2b0-440e-b62d-ead50feed951","ios":"levelo://app?vid=c2e7fe27-d2b0-440e-b62d-ead50feed951"},"vehicle_type_id":"4","last_reported":1784491248,"current_range_meters":38800,"station_id":"st_d3j5ugp08ojc73fj9d10","pricing_plan_id":"cebpf4jnsgd1na2vs0mg"},{"bike_id":"4f00d92f-a5b0-4009-81c6-6dd2e59b1401","system_id":"levelo_inurba_marseille","lat":43.28919,"lon":5.38371,"is_reserved":false,"is_disabled":false,"rental_uris":{"android":"levelo://app?vid=4f00d92f-a5b0-4009-81c6-6dd2e59b1401","ios":"levelo://app?vid=4f00d92f-a5b0-4009-81c6-6dd2e59b1401"},"vehicle_type_id":"4","last_reported":1784491248,"current_range_meters":39200,"station_id":"ce4bh612rcd13ifvqe6g","pricing_plan_id":"cebpf4jnsgd1na2vs0mg"},{"bike_id":"5b8c0c23-a01a-4662-a9be-35d868455eb2","system_id":"levelo_inurba_marseille","lat":43.29257,"lon":5.38458,"is_reserved":false,"is_disabled":false,"rental_uris":{"android":"levelo://app?vid=5b8c0c23-a01a-4662-a9be-35d868455eb2","ios":"levelo://app?vid=5b8c0c23-a01a-4662-a9be-35d868455eb2"},"vehicle_type_id":"4","last_reported":1784491248,"current_range_meters":39200,"station_id":"ce4bh692rcd13ifvqea0","pricing_plan_id":"cebpf4jnsgd1na2vs0mg"},{"bike_id":"53c0bb62-b897-4702-94bc-45a4c2af197c","system_id":"levelo_inurba_marseille","lat":43.29933,"lon":5.38542,"is_reserved":false,"is_disabled":false,"rental_uris":{"android":"levelo://app?vid=53c0bb62-b897-4702-94bc-45a4c2af197c","ios":"levelo://app?vid=53c0bb62-b897-4702-94bc-45a4c2af197c"},"vehicle_type_id":"4","last_reported":1784491248,"current_range_meters":9600,"station_id":"","pricing_plan_id":"cebpf4jnsgd1na2vs0mg"},{"bike_id":"2623e023-e953-40ac-8068-15d2169ca99d","system_id":"levelo_inurba_marseille","lat":43.28695,"lon":5.46685,"is_reserved":false,"is_disabled":false,"rental_uris":{"android":"levelo://app?vid=2623e023-e953-40ac-8068-15d2169ca99d","ios":"levelo://app?vid=2623e023-e953-40ac-8068-15d2169ca99d"},"vehicle_type_id":"4","last_reported":1784491248,"current_range_meters":37600,"station_id":"st_d6tc3vkotcvc738tfjhg","pricing_plan_id":"cebpf4jnsgd1na2vs0mg"},{"bike_id":"1fabaaec-ee49-484e-a010-c578e8dd69a9","system_id":"levelo_inurba_marseille","lat":43.3122,"lon":5.36889,"is_reserved":false,"is_disabled":false,"rental_uris":{"android":"levelo://app?vid=1fabaaec-ee49-484e-a010-c578e8dd69a9","ios":"levelo://app?vid=1fabaaec-ee49-484e-a010-c578e8dd69a9"},"vehicle_type_id":"4","last_reported":1784491248,"current_range_meters":9200,"station_id":"ce4bgl92rcd13ifvqbq0","pricing_plan_id":"cebpf4jnsgd1na2vs0mg"},{"bike_id":"5b260d90-01ba-4394-a026-9653e406c36e","system_id":"levelo_inurba_marseille","lat":43.30884,"lon":5.37199,"is_reserved":false,"is_disabled":true,"rental_uris":{"android":"levelo://app?vid=5b260d90-01ba-4394-a026-9653e406c36e","ios":"levelo://app?vid=5b260d90-01ba-4394-a026-9653e406c36e"},"vehicle_type_id":"4","last_reported":1784491248,"current_range_meters":20000,"station_id":"ce4bguh2rcd13ifvqckg","pricing_plan_id":"cebpf4jnsgd1na2vs0mg"},{"bike_id":"90fd9e21-a9e5-4ba9-ba28-3da8875c3ef6","system_id":"levelo_inurba_marseille","lat":43.27891,"lon":5.3554,"is_reserved":false,"is_disabled":false,"rental_uris":{"android":"levelo://app?vid=90fd9e21-a9e5-4ba9-ba28-3da8875c3ef6","ios":"levelo://app?vid=90fd9e21-a9e5-4ba9-ba28-3da8875c3ef6"},"vehicle_type_id":"4","last_reported":1784491248,"current_range_meters":27200,"station_id":"","pricing_plan_id":"cebpf4jnsgd1na2vs0mg"},{"bike_id":"5764cc65-ead2-472a-a3cd-3354f026cea4","system_id":"levelo_inurba_marseille","lat":43.31998,"lon":5.38148,"is_reserved":false,"is_disabled":false,"rental_uris":{"android":"levelo://app?vid=5764cc65-ead2-472a-a3cd-3354f026cea4","ios":"levelo://app?vid=5764cc65-ead2-472a-a3cd-3354f026cea4"},"vehicle_type_id":"4","last_reported":1784491248,"current_range_meters":38000,"station_id":"ce4bhr12rcd13ifvqhpg","pricing_plan_id":"cebpf4jnsgd1na2vs0mg"},{"bike_id":"108b77fc-af18-450d-af7a-b371c96698b1","system_id":"levelo_inurba_marseille","lat":43.2586,"lon":5.39922,"is_reserved":false,"is_disabled":false,"rental_uris":{"android":"levelo://app?vid=108b77fc-af18-450d-af7a-b371c96698b1","ios":"levelo://app?vid=108b77fc-af18-450d-af7a-b371c96698b1"},"vehicle_type_id":"4","last_reported":1784491248,"current_range_meters":39200,"station_id":"ce4bhl92rcd13ifvqghg","pricing_plan_id":"cebpf4jnsgd1na2vs0mg"},{"bike_id":"d8351db5-91ae-4723-9606-f2f30f2359e3","system_id":"levelo_inurba_marseille","lat":43.29279,"lon":5.40182,"is_reserved":false,"is_disabled":false,"rental_uris":{"android":"levelo://app?vid=d8351db5-91ae-4723-9606-f2f30f2359e3","ios":"levelo://app?vid=d8351db5-91ae-4723-9606-f2f30f2359e3"},"vehicle_type_id":"4","last_reported":1784491248,"current_range_meters":9600,"station_id":"ce4bh312rcd13ifvqdk0","pricing_plan_id":"cebpf4jnsgd1na2vs0mg"},{"bike_id":"68d2bcb7-fc94-4345-ba06-b6b497b8ace9","system_id":"levelo_inurba_marseille","lat":43.28446,"lon":5.39158,"is_reserved":false,"is_disabled":false,"rental_uris":{"android":"levelo://app?vid=68d2bcb7-fc94-4345-ba06-b6b497b8ace9","ios":"levelo://app?vid=68d2bcb7-fc94-4345-ba06-b6b497b8ace9"},"vehicle_type_id":"4","last_reported":1784491248,"current_range_meters":29600,"station_id":"ce4bhoh2rcd13ifvqh5g","pricing_plan_id":"cebpf4jnsgd1na2vs0mg"},{"bike_id":"863d0357-9100-4091-8be6-61d932e4e898","system_id":"levelo_inurba_marseille","lat":43.33756,"lon":5.37458,"is_reserved":false,"is_disabled":false,"rental_uris":{"android":"levelo://app?vid=863d0357-9100-4091-8be6-61d932e4e898","ios":"levelo://app?vid=863d0357-9100-4091-8be6-61d932e4e898"},"vehicle_type_id":"4","last_reported":1784491248,"current_range_meters":34800,"station_id":"","pricing_plan_id":"cebpf4jnsgd1na2vs0mg"},{"bike_id":"0d249168-c1b9-4fc1-a9ca-ee81dcabf286","system_id":"levelo_inurba_marseille","lat":43.30834,"lon":5.40442,"is_reserved":false,"is_disabled":false,"rental_uris":{"android":"levelo://app?vid=0d249168-c1b9-4fc1-a9ca-ee81dcabf286","ios":"levelo://app?vid=0d249168-c1b9-4fc1-a9ca-ee81dcabf286"},"vehicle_type_id":"4","last_reported":1784491248,"current_range_meters":9200,"station_id":"","pricing_plan_id":"cebpf4jnsgd1na2vs0mg"},{"bike_id":"ef9bc6d4-37ce-41ce-af06-ee7ea00eb306","system_id":"levelo_inurba_marseille","lat":43.25833,"lon":5.39432,"is_reserved":false,"is_disabled":false,"rental_uris":{"android":"levelo://app?vid=ef9bc6d4-37ce-41ce-af06-ee7ea00eb306","ios":"levelo://app?vid=ef9bc6d4-37ce-41ce-af06-ee7ea00eb306"},"vehicle_type_id":"4","last_reported":1784491248,"current_range_meters":13600,"station_id":"ce4bhip2rcd13ifvqft0","pricing_plan_id":"cebpf4jnsgd1na2vs0mg"},{"bike_id":"479f6d73-289e-4a64-9a92-081a85c0df32","system_id":"levelo_inurba_marseille","lat":43.25088,"lon":5.40335,"is_reserved":false,"is_disabled":false,"rental_uris":{"android":"levelo://app?vid=479f6d73-289e-4a64-9a92-081a85c0df32","ios":"levelo://app?vid=479f6d73-289e-4a64-9a92-081a85c0df32"},"vehicle_type_id":"4","last_reported":1784491248,"current_range_meters":39200,"station_id":"ce4bhlh2rcd13ifvqgig","pricing_plan_id":"cebpf4jnsgd1na2vs0mg"},{"bike_id":"e81d39c5-de88-4670-b269-6cb2da305080","system_id":"levelo_inurba_marseille","lat":43.28155,"lon":5.42642,"is_reserved":false,"is_disabled":false,"rental_uris":{"android":"levelo://app?vid=e81d39c5-de88-4670-b269-6cb2da305080","ios":"levelo://app?vid=e81d39c5-de88-4670-b269-6cb2da305080"},"vehicle_type_id":"4","last_reported":1784491248,"current_range_meters":38400,"station_id":"ce4bhnh2rcd13ifvqgug","pricing_plan_id":"cebpf4jnsgd1na2vs0mg"},{"bike_id":"e15b712c-8cdd-47f2-8a02-fef2aa639098","system_id":"levelo_inurba_marseille","lat":43.21193,"lon":5.35072,"is_reserved":false,"is_disabled":false,"rental_uris":{"android":"levelo://app?vid=e15b712c-8cdd-47f2-8a02-fef2aa639098","ios":"levelo://app?vid=e15b712c-8cdd-47f2-8a02-fef2aa639098"},"vehicle_type_id":"4","last_reported":1784491248,"current_range_meters":6400,"station_id":"st_cvj6sg6p6f1abm77japg","pricing_plan_id":"cebpf4jnsgd1na2vs0mg"},{"bike_id":"8ba7f2d6-52d3-4c56-b19a-19a142e62779","system_id":"levelo_inurba_marseille","lat":43.24072,"lon":5.37756,"is_reserved":false,"is_disabled":false,"rental_uris":{"android":"levelo://app?vid=8ba7f2d6-52d3-4c56-b19a-19a142e62779","ios":"levelo://app?vid=8ba7f2d6-52d3-4c56-b19a-19a142e62779"},"vehicle_type_id":"4","last_reported":1784491248,"current_range_meters":9200,"station_id":"ce4bhnp2rcd13ifvqgvg","pricing_plan_id":"cebpf4jnsgd1na2vs0mg"},{"bike_id":"ffdafddb-edce-478b-b283-0a15f46a5cac","system_id":"levelo_inurba_marseille","lat":43.25859,"lon":5.39924,"is_reserved":false,"is_disabled":false,"rental_uris":{"android":"levelo://app?vid=ffdafddb-edce-478b-b283-0a15f46a5cac","ios":"levelo://app?vid=ffdafddb-edce-478b-b283-0a15f46a5cac"},"vehicle_type_id":"4","last_reported":1784491248,"current_range_meters":35600,"station_id":"ce4bhl92rcd13ifvqghg","pricing_plan_id":"cebpf4jnsgd1na2vs0mg"},{"bike_id":"78d74c11-c7d0-4587-8612-d4d55bb83eaa","system_id":"levelo_inurba_marseille","lat":43.27963,"lon":5.41042,"is_reserved":false,"is_disabled":false,"rental_uris":{"android":"levelo://app?vid=78d74c11-c7d0-4587-8612-d4d55bb83eaa","ios":"levelo://app?vid=78d74c11-c7d0-4587-8612-d4d55bb83eaa"},"vehicle_type_id":"4","last_reported":1784491248,"current_range_meters":8400,"station_id":"ce4bhnp2rcd13ifvqh0g","pricing_plan_id":"cebpf4jnsgd1na2vs0mg"},{"bike_id":"7d17ec02-c515-47da-8342-7d7f362cd29b","system_id":"levelo_inurba_marseille","lat":43.25734,"lon":5.4111,"is_reserved":false,"is_disabled":false,"rental_uris":{"android":"levelo://app?vid=7d17ec02-c515-47da-8342-7d7f362cd29b","ios":"levelo://app?vid=7d17ec02-c515-47da-8342-7d7f362cd29b"},"vehicle_type_id":"4","last_reported":1784491248,"current_range_meters":30400,"station_id":"ce4bhkp2rcd13ifvqgd0","pricing_plan_id":"cebpf4jnsgd1na2vs0mg"},{"bike_id":"6a73d93c-6339-46f5-8ebc-d03b3464630c","system_id":"levelo_inurba_marseille","lat":43.26383,"lon":5.41075,"is_reserved":false,"is_disabled":false,"rental_uris":{"android":"levelo://app?vid=6a73d93c-6339-46f5-8ebc-d03b3464630c","ios":"levelo://app?vid=6a73d93c-6339-46f5-8ebc-d03b3464630c"},"vehicle_type_id":"4","last_reported":1784491248,"current_range_meters":30800,"station_id":"st_d4e5ca6na9uc73bfl5fg","pricing_plan_id":"cebpf4jnsgd1na2vs0mg"},{"bike_id":"aa313a60-563e-470c-b19a-a0debe98f23a","system_id":"levelo_inurba_marseille","lat":43.29369,"lon":5.37843,"is_reserved":false,"is_disabled":false,"rental_uris":{"android":"levelo://app?vid=aa313a60-563e-470c-b19a-a0debe98f23a","ios":"levelo://app?vid=aa313a60-563e-470c-b19a-a0debe98f23a"},"vehicle_type_id":"4","last_reported":1784491248,"current_range_meters":39200,"station_id":"ce4bgjh2rcd13ifvqbf0","pricing_plan_id":"cebpf4jnsgd1na2vs0mg"},{"bike_id":"f68023ce-5f61-45e8-beb8-d3b87ec1a04a","system_id":"levelo_inurba_marseille","lat":43.28004,"lon":5.39998,"is_reserved":false,"is_disabled":true,"rental_uris":{"android":"levelo://app?vid=f68023ce-5f61-45e8-beb8-d3b87ec1a04a","ios":"levelo://app?vid=f68023ce-5f61-45e8-beb8-d3b87ec1a04a"},"vehicle_type_id":"4","last_reported":1784491248,"current_range_meters":34800,"station_id":"ce4bho92rcd13ifvqh4g","pricing_plan_id":"cebpf4jnsgd1na2vs0mg"},{"bike_id":"505c470b-ac37-49d3-b636-d6566f7a1192","system_id":"levelo_inurba_marseille","lat":43.24822,"lon":5.37498,"is_reserved":false,"is_disabled":false,"rental_uris":{"android":"levelo://app?vid=505c470b-ac37-49d3-b636-d6566f7a1192","ios":"levelo://app?vid=505c470b-ac37-49d3-b636-d6566f7a1192"},"vehicle_type_id":"4","last_reported":1784491248,"current_range_meters":27600,"station_id":"","pricing_plan_id":"cebpf4jnsgd1na2vs0mg"},{"bike_id":"83b8491e-88d1-430a-bd9e-f9c57e99e4c0","system_id":"levelo_inurba_marseille","lat":43.29605,"lon":5.37761,"is_reserved":false,"is_disabled":false,"rental_uris":{"android":"levelo://app?vid=83b8491e-88d1-430a-bd9e-f9c57e99e4c0","ios":"levelo://app?vid=83b8491e-88d1-430a-bd9e-f9c57e99e4c0"},"vehicle_type_id":"4","last_reported":1784491248,"current_range_meters":36400,"station_id":"ce4bgi92rcd13ifvqb90","pricing_plan_id":"cebpf4jnsgd1na2vs0mg"},{"bike_id":"cf903313-73c0-4e88-bf9f-a4e6394c71eb","system_id":"levelo_inurba_marseille","lat":43.28613,"lon":5.3988,"is_reserved":false,"is_disabled":false,"rental_uris":{"android":"levelo://app?vid=cf903313-73c0-4e88-bf9f-a4e6394c71eb","ios":"levelo://app?vid=cf903313-73c0-4e88-bf9f-a4e6394c71eb"},"vehicle_type_id":"4","last_reported":1784491248,"current_range_meters":8400,"station_id":"st_d4a7ka997mjs738ck50g","pricing_plan_id":"cebpf4jnsgd1na2vs0mg"},{"bike_id":"5c3ecaf7-bf6b-492a-bf87-f52370387155","system_id":"levelo_inurba_marseille","lat":43.25083,"lon":5.39517,"is_reserved":false,"is_disabled":false,"rental_uris":{"android":"levelo://app?vid=5c3ecaf7-bf6b-492a-bf87-f52370387155","ios":"levelo://app?vid=5c3ecaf7-bf6b-492a-bf87-f52370387155"},"vehicle_type_id":"4","last_reported":1784491248,"current_range_meters":10800,"station_id":"ce4bhm12rcd13ifvqgkg","pricing_plan_id":"cebpf4jnsgd1na2vs0mg"},{"bike_id":"834663dc-b688-4a9c-9405-405785a26871","system_id":"levelo_inurba_marseille","lat":43.30595,"lon":5.3722,"is_reserved":false,"is_disabled":false,"rental_uris":{"android":"levelo://app?vid=834663dc-b688-4a9c-9405-405785a26871","ios":"levelo://app?vid=834663dc-b688-4a9c-9405-405785a26871"},"vehicle_type_id":"4","last_reported":1784491248,"current_range_meters":20400,"station_id":"ce4bgqh2rcd13ifvqc4g","pricing_plan_id":"cebpf4jnsgd1na2vs0mg"},{"bike_id":"5dfc391c-c727-4e6b-aaf8-b282930a568c","system_id":"levelo_inurba_marseille","lat":43.30359,"lon":5.41881,"is_reserved":false,"is_disabled":false,"rental_uris":{"android":"levelo://app?vid=5dfc391c-c727-4e6b-aaf8-b282930a568c","ios":"levelo://app?vid=5dfc391c-c727-4e6b-aaf8-b282930a568c"},"vehicle_type_id":"4","last_reported":1784491248,"current_range_meters":24400,"station_id":"ce4bhop2rcd13ifvqh7g","pricing_plan_id":"cebpf4jnsgd1na2vs0mg"},{"bike_id":"5b8151a9-0906-420e-89ed-354d624d1e25","system_id":"levelo_inurba_marseille","lat":43.29042,"lon":5.38647,"is_reserved":false,"is_disabled":false,"rental_uris":{"android":"levelo://app?vid=5b8151a9-0906-420e-89ed-354d624d1e25","ios":"levelo://app?vid=5b8151a9-0906-420e-89ed-354d624d1e25"},"vehicle_type_id":"4","last_reported":1784491248,"current_range_meters":30800,"station_id":"ce4bh4p2rcd13ifvqe0g","pricing_plan_id":"cebpf4jnsgd1na2vs0mg"},{"bike_id":"7e62a1e7-e43e-4c6d-97fe-eb42228edf6d","system_id":"levelo_inurba_marseille","lat":43.26522,"lon":5.39445,"is_reserved":false,"is_disabled":false,"rental_uris":{"android":"levelo://app?vid=7e62a1e7-e43e-4c6d-97fe-eb42228edf6d","ios":"levelo://app?vid=7e62a1e7-e43e-4c6d-97fe-eb42228edf6d"},"vehicle_type_id":"4","last_reported":1784491248,"current_range_meters":6800,"station_id":"","pricing_plan_id":"cebpf4jnsgd1na2vs0mg"},{"bike_id":"79d4a451-554e-4cf1-a64c-a19915fbd5fe","system_id":"levelo_inurba_marseille","lat":43.23781,"lon":5.36635,"is_reserved":false,"is_disabled":false,"rental_uris":{"android":"levelo://app?vid=79d4a451-554e-4cf1-a64c-a19915fbd5fe","ios":"levelo://app?vid=79d4a451-554e-4cf1-a64c-a19915fbd5fe"},"vehicle_type_id":"4","last_reported":1784491248,"current_range_meters":24800,"station_id":"st_d3nk18o9ro0c73en2l3g","pricing_plan_id":"cebpf4jnsgd1na2vs0mg"},{"bike_id":"69a82f9a-4ba3-4b36-bf6d-8f30baceae46","system_id":"levelo_inurba_marseille","lat":43.26386,"lon":5.41085,"is_reserved":false,"is_disabled":false,"rental_uris":{"android":"levelo://app?vid=69a82f9a-4ba3-4b36-bf6d-8f30baceae46","ios":"levelo://app?vid=69a82f9a-4ba3-4b36-bf6d-8f30baceae46"},"vehicle_type_id":"4","last_reported":1784491248,"current_range_meters":29600,"station_id":"st_d4e5ca6na9uc73bfl5fg","pricing_plan_id":"cebpf4jnsgd1na2vs0mg"},{"bike_id":"bfb048b7-63dd-4ab6-948c-10daffec0237","system_id":"levelo_inurba_marseille","lat":43.29297,"lon":5.37167,"is_reserved":false,"is_disabled":false,"rental_uris":{"android":"levelo://app?vid=bfb048b7-63dd-4ab6-948c-10daffec0237","ios":"levelo://app?vid=bfb048b7-63dd-4ab6-948c-10daffec0237"},"vehicle_type_id":"4","last_reported":1784491248,"current_range_meters":28800,"station_id":"ce4bgh92rcd13ifvqb40","pricing_plan_id":"cebpf4jnsgd1na2vs0mg"},{"bike_id":"48b89ee5-e923-4e38-99f5-a3099d9d1497","system_id":"levelo_inurba_marseille","lat":43.28536,"lon":5.44111,"is_reserved":false,"is_disabled":false,"rental_uris":{"android":"levelo://app?vid=48b89ee5-e923-4e38-99f5-a3099d9d1497","ios":"levelo://app?vid=48b89ee5-e923-4e38-99f5-a3099d9d1497"},"vehicle_type_id":"4","last_reported":1784491248,"current_range_meters":39200,"station_id":"st_d3j3df2ikq2c7380ej80","pricing_plan_id":"cebpf4jnsgd1na2vs0mg"},{"bike_id":"24cd3240-e518-4e87-93f2-0d78c0915c9d","system_id":"levelo_inurba_marseille","lat":43.22986,"lon":5.35453,"is_reserved":false,"is_disabled":false,"rental_uris":{"android":"levelo://app?vid=24cd3240-e518-4e87-93f2-0d78c0915c9d","ios":"levelo://app?vid=24cd3240-e518-4e87-93f2-0d78c0915c9d"},"vehicle_type_id":"4","last_reported":1784491248,"current_range_meters":13600,"station_id":"","pricing_plan_id":"cebpf4jnsgd1na2vs0mg"},{"bike_id":"81587832-75ed-49cd-91c3-f57f9b8cec45","system_id":"levelo_inurba_marseille","lat":43.29062,"lon":5.35931,"is_reserved":false,"is_disabled":true,"rental_uris":{"android":"levelo://app?vid=81587832-75ed-49cd-91c3-f57f9b8cec45","ios":"levelo://app?vid=81587832-75ed-49cd-91c3-f57f9b8cec45"},"vehicle_type_id":"4","last_reported":1784491248,"current_range_meters":39200,"station_id":"ce4bha92rcd13ifvqeg0","pricing_plan_id":"cebpf4jnsgd1na2vs0mg"},{"bike_id":"bf993a1d-6573-43fa-a3fa-2f3288b1a5c0","system_id":"levelo_inurba_marseille","lat":43.29269,"lon":5.3843,"is_reserved":false,"is_disabled":false,"rental_uris":{"android":"levelo://app?vid=bf993a1d-6573-43fa-a3fa-2f3288b1a5c0","ios":"levelo://app?vid=bf993a1d-6573-43fa-a3fa-2f3288b1a5c0"},"vehicle_type_id":"4","last_reported":1784491248,"current_range_meters":39200,"station_id":"ce4bh692rcd13ifvqea0","pricing_plan_id":"cebpf4jnsgd1na2vs0mg"},{"bike_id":"667cf3c4-5fbb-4a5c-b31d-badb56365dd1","system_id":"levelo_inurba_marseille","lat":43.30152,"lon":5.37396,"is_reserved":false,"is_disabled":false,"rental_uris":{"android":"levelo://app?vid=667cf3c4-5fbb-4a5c-b31d-badb56365dd1","ios":"levelo://app?vid=667cf3c4-5fbb-4a5c-b31d-badb56365dd1"},"vehicle_type_id":"4","last_reported":1784491248,"current_range_meters":11200,"station_id":"ce4bgs92rcd13ifvqcc0","pricing_plan_id":"cebpf4jnsgd1na2vs0mg"},{"bike_id":"32bed7e8-f5e2-42e8-b5d1-b2eac4dfc0a8","system_id":"levelo_inurba_marseille","lat":43.2953,"lon":5.38538,"is_reserved":false,"is_disabled":false,"rental_uris":{"android":"levelo://app?vid=32bed7e8-f5e2-42e8-b5d1-b2eac4dfc0a8","ios":"levelo://app?vid=32bed7e8-f5e2-42e8-b5d1-b2eac4dfc0a8"},"vehicle_type_id":"4","last_reported":1784491248,"current_range_meters":39200,"station_id":"ce4bgih2rcd13ifvqba0","pricing_plan_id":"cebpf4jnsgd1na2vs0mg"},{"bike_id":"974e121f-7e5c-48a8-9c06-b4f3048d4bf4","system_id":"levelo_inurba_marseille","lat":43.29868,"lon":5.38918,"is_reserved":false,"is_disabled":false,"rental_uris":{"android":"levelo://app?vid=974e121f-7e5c-48a8-9c06-b4f3048d4bf4","ios":"levelo://app?vid=974e121f-7e5c-48a8-9c06-b4f3048d4bf4"},"vehicle_type_id":"4","last_reported":1784491248,"current_range_meters":39200,"station_id":"ce4bh392rcd13ifvqdl0","pricing_plan_id":"cebpf4jnsgd1na2vs0mg"},{"bike_id":"10a859df-461a-4ad5-b10b-166dca92f43c","system_id":"levelo_inurba_marseille","lat":43.3081,"lon":5.38167,"is_reserved":false,"is_disabled":false,"rental_uris":{"android":"levelo://app?vid=10a859df-461a-4ad5-b10b-166dca92f43c","ios":"levelo://app?vid=10a859df-461a-4ad5-b10b-166dca92f43c"},"vehicle_type_id":"4","last_reported":1784491248,"current_range_meters":8400,"station_id":"ce4bgt12rcd13ifvqce0","pricing_plan_id":"cebpf4jnsgd1na2vs0mg"},{"bike_id":"8af0df7e-cc30-46ec-af42-8ca23109e3a3","system_id":"levelo_inurba_marseille","lat":43.29489,"lon":5.4331,"is_reserved":false,"is_disabled":false,"rental_uris":{"android":"levelo://app?vid=8af0df7e-cc30-46ec-af42-8ca23109e3a3","ios":"levelo://app?vid=8af0df7e-cc30-46ec-af42-8ca23109e3a3"},"vehicle_type_id":"4","last_reported":1784491248,"current_range_meters":26800,"station_id":"st_d3j5ugp08ojc73fj9d10","pricing_plan_id":"cebpf4jnsgd1na2vs0mg"},{"bike_id":"e0b96ede-7743-41d8-824b-0110d15513b3","system_id":"levelo_inurba_marseille","lat":43.29231,"lon":5.36079,"is_reserved":false,"is_disabled":false,"rental_uris":{"android":"levelo://app?vid=e0b96ede-7743-41d8-824b-0110d15513b3","ios":"levelo://app?vid=e0b96ede-7743-41d8-824b-0110d15513b3"},"vehicle_type_id":"4","last_reported":1784491248,"current_range_meters":19600,"station_id":"","pricing_plan_id":"cebpf4jnsgd1na2vs0mg"},{"bike_id":"4d9f5c7c-1d45-4e77-b4db-4f67f3184e0a","system_id":"levelo_inurba_marseille","lat":43.29589,"lon":5.36741,"is_reserved":false,"is_disabled":true,"rental_uris":{"android":"levelo://app?vid=4d9f5c7c-1d45-4e77-b4db-4f67f3184e0a","ios":"levelo://app?vid=4d9f5c7c-1d45-4e77-b4db-4f67f3184e0a"},"vehicle_type_id":"4","last_reported":1784491248,"current_range_meters":14000,"station_id":"","pricing_plan_id":"cebpf4jnsgd1na2vs0mg"},{"bike_id":"41b9f830-c43f-422c-8925-b4ff2562a971","system_id":"levelo_inurba_marseille","lat":43.29255,"lon":5.38436,"is_reserved":false,"is_disabled":false,"rental_uris":{"android":"levelo://app?vid=41b9f830-c43f-422c-8925-b4ff2562a971","ios":"levelo://app?vid=41b9f830-c43f-422c-8925-b4ff2562a971"},"vehicle_type_id":"4","last_reported":1784491248,"current_range_meters":23200,"station_id":"ce4bh692rcd13ifvqea0","pricing_plan_id":"cebpf4jnsgd1na2vs0mg"},{"bike_id":"e18e61c0-7ccf-464d-9753-cfbdcb7c7074","system_id":"levelo_inurba_marseille","lat":43.27994,"lon":5.38696,"is_reserved":false,"is_disabled":false,"rental_uris":{"android":"levelo://app?vid=e18e61c0-7ccf-464d-9753-cfbdcb7c7074","ios":"levelo://app?vid=e18e61c0-7ccf-464d-9753-cfbdcb7c7074"},"vehicle_type_id":"4","last_reported":1784491248,"current_range_meters":32000,"station_id":"ce4bhg12rcd13ifvqf80","pricing_plan_id":"cebpf4jnsgd1na2vs0mg"},{"bike_id":"7ff8118f-6c81-4cdf-8a1d-4753d954065d","system_id":"levelo_inurba_marseille","lat":43.29616,"lon":5.37984,"is_reserved":false,"is_disabled":true,"rental_uris":{"android":"levelo://app?vid=7ff8118f-6c81-4cdf-8a1d-4753d954065d","ios":"levelo://app?vid=7ff8118f-6c81-4cdf-8a1d-4753d954065d"},"vehicle_type_id":"4","last_reported":1784491248,"current_range_meters":1600,"station_id":"","pricing_plan_id":"cebpf4jnsgd1na2vs0mg"},{"bike_id":"b7cc120c-04ca-4960-96bf-b15c600d9291","system_id":"levelo_inurba_marseille","lat":43.29527,"lon":5.39036,"is_reserved":false,"is_disabled":false,"rental_uris":{"android":"levelo://app?vid=b7cc120c-04ca-4960-96bf-b15c600d9291","ios":"levelo://app?vid=b7cc120c-04ca-4960-96bf-b15c600d9291"},"vehicle_type_id":"4","last_reported":1784491248,"current_range_meters":39200,"station_id":"ce4bh3p2rcd13ifvqdp0","pricing_plan_id":"cebpf4jnsgd1na2vs0mg"},{"bike_id":"002f0f77-2509-42be-9859-c934948b6004","system_id":"levelo_inurba_marseille","lat":43.32347,"lon":5.36747,"is_reserved":false,"is_disabled":false,"rental_uris":{"android":"levelo://app?vid=002f0f77-2509-42be-9859-c934948b6004","ios":"levelo://app?vid=002f0f77-2509-42be-9859-c934948b6004"},"vehicle_type_id":"4","last_reported":1784491248,"current_range_meters":10800,"station_id":"ce4bhsh2rcd13ifvqi2g","pricing_plan_id":"cebpf4jnsgd1na2vs0mg"},{"bike_id":"01647499-5deb-458e-b098-0eb88e2c1ae8","system_id":"levelo_inurba_marseille","lat":43.29527,"lon":5.38543,"is_reserved":false,"is_disabled":false,"rental_uris":{"android":"levelo://app?vid=01647499-5deb-458e-b098-0eb88e2c1ae8","ios":"levelo://app?vid=01647499-5deb-458e-b098-0eb88e2c1ae8"},"vehicle_type_id":"4","last_reported":1784491248,"current_range_meters":35200,"station_id":"ce4bgih2rcd13ifvqba0","pricing_plan_id":"cebpf4jnsgd1na2vs0mg"},{"bike_id":"1821d233-c579-4fe7-bdf3-a2e157eeb38a","system_id":"levelo_inurba_marseille","lat":43.29542,"lon":5.38536,"is_reserved":false,"is_disabled":false,"rental_uris":{"android":"levelo://app?vid=1821d233-c579-4fe7-bdf3-a2e157eeb38a","ios":"levelo://app?vid=1821d233-c579-4fe7-bdf3-a2e157eeb38a"},"vehicle_type_id":"4","last_reported":1784491248,"current_range_meters":36800,"station_id":"ce4bgih2rcd13ifvqba0","pricing_plan_id":"cebpf4jnsgd1na2vs0mg"},{"bike_id":"2f02e79b-05f8-40cd-832b-9b9b78fb1551","system_id":"levelo_inurba_marseille","lat":43.29269,"lon":5.3845,"is_reserved":false,"is_disabled":false,"rental_uris":{"android":"levelo://app?vid=2f02e79b-05f8-40cd-832b-9b9b78fb1551","ios":"levelo://app?vid=2f02e79b-05f8-40cd-832b-9b9b78fb1551"},"vehicle_type_id":"4","last_reported":1784491248,"current_range_meters":8800,"station_id":"ce4bh692rcd13ifvqea0","pricing_plan_id":"cebpf4jnsgd1na2vs0mg"},{"bike_id":"258c79c8-115b-43a8-9763-ee7a5585ee7a","system_id":"levelo_inurba_marseille","lat":43.23202,"lon":5.35551,"is_reserved":false,"is_disabled":false,"rental_uris":{"android":"levelo://app?vid=258c79c8-115b-43a8-9763-ee7a5585ee7a","ios":"levelo://app?vid=258c79c8-115b-43a8-9763-ee7a5585ee7a"},"vehicle_type_id":"4","last_reported":1784491248,"current_range_meters":33200,"station_id":"ce4bhu92rcd13ifvqi70","pricing_plan_id":"cebpf4jnsgd1na2vs0mg"},{"bike_id":"5f08e8f8-1927-4edc-8d10-9df2db9cee00","system_id":"levelo_inurba_marseille","lat":43.31499,"lon":5.37313,"is_reserved":false,"is_disabled":false,"rental_uris":{"android":"levelo://app?vid=5f08e8f8-1927-4edc-8d10-9df2db9cee00","ios":"levelo://app?vid=5f08e8f8-1927-4edc-8d10-9df2db9cee00"},"vehicle_type_id":"4","last_reported":1784491248,"current_range_meters":38400,"station_id":"ce4bgt12rcd13ifvqcd0","pricing_plan_id":"cebpf4jnsgd1na2vs0mg"},{"bike_id":"2bd4bfbf-4001-452e-bb1e-368180e7fd47","system_id":"levelo_inurba_marseille","lat":43.29575,"lon":5.37509,"is_reserved":false,"is_disabled":false,"rental_uris":{"android":"levelo://app?vid=2bd4bfbf-4001-452e-bb1e-368180e7fd47","ios":"levelo://app?vid=2bd4bfbf-4001-452e-bb1e-368180e7fd47"},"vehicle_type_id":"4","last_reported":1784491248,"current_range_meters":39200,"station_id":"ce4bgh92rcd13ifvqb50","pricing_plan_id":"cebpf4jnsgd1na2vs0mg"},{"bike_id":"161f5985-4315-4be0-b49f-7a6842befc04","system_id":"levelo_inurba_marseille","lat":43.29261,"lon":5.3845,"is_reserved":false,"is_disabled":false,"rental_uris":{"android":"levelo://app?vid=161f5985-4315-4be0-b49f-7a6842befc04","ios":"levelo://app?vid=161f5985-4315-4be0-b49f-7a6842befc04"},"vehicle_type_id":"4","last_reported":1784491248,"current_range_meters":20400,"station_id":"ce4bh692rcd13ifvqea0","pricing_plan_id":"cebpf4jnsgd1na2vs0mg"},{"bike_id":"a7c42e62-f2d7-4f0f-96f4-b9d2418cea29","system_id":"levelo_inurba_marseille","lat":43.29636,"lon":5.40614,"is_reserved":false,"is_disabled":true,"rental_uris":{"android":"levelo://app?vid=a7c42e62-f2d7-4f0f-96f4-b9d2418cea29","ios":"levelo://app?vid=a7c42e62-f2d7-4f0f-96f4-b9d2418cea29"},"vehicle_type_id":"4","last_reported":1784491248,"current_range_meters":38400,"station_id":"ce4bh0h2rcd13ifvqd60","pricing_plan_id":"cebpf4jnsgd1na2vs0mg"},{"bike_id":"848633e3-bce1-43d5-8326-ee4da77ad8a5","system_id":"levelo_inurba_marseille","lat":43.29815,"lon":5.44068,"is_reserved":false,"is_disabled":false,"rental_uris":{"android":"levelo://app?vid=848633e3-bce1-43d5-8326-ee4da77ad8a5","ios":"levelo://app?vid=848633e3-bce1-43d5-8326-ee4da77ad8a5"},"vehicle_type_id":"4","last_reported":1784491248,"current_range_meters":27600,"station_id":"st_d3jp68qikq2c7381ktn0","pricing_plan_id":"cebpf4jnsgd1na2vs0mg"},{"bike_id":"fed5bffd-bed6-4fda-88af-fdf52fbc2f78","system_id":"levelo_inurba_marseille","lat":43.28074,"lon":5.39676,"is_reserved":false,"is_disabled":false,"rental_uris":{"android":"levelo://app?vid=fed5bffd-bed6-4fda-88af-fdf52fbc2f78","ios":"levelo://app?vid=fed5bffd-bed6-4fda-88af-fdf52fbc2f78"},"vehicle_type_id":"4","last_reported":1784491248,"current_range_meters":32000,"station_id":"ce4bho12rcd13ifvqh2g","pricing_plan_id":"cebpf4jnsgd1na2vs0mg"},{"bike_id":"0f6ff1da-c9e3-42e7-a8d3-8280d1c0addc","system_id":"levelo_inurba_marseille","lat":43.33718,"lon":5.37415,"is_reserved":false,"is_disabled":false,"rental_uris":{"android":"levelo://app?vid=0f6ff1da-c9e3-42e7-a8d3-8280d1c0addc","ios":"levelo://app?vid=0f6ff1da-c9e3-42e7-a8d3-8280d1c0addc"},"vehicle_type_id":"4","last_reported":1784491248,"current_range_meters":27200,"station_id":"","pricing_plan_id":"cebpf4jnsgd1na2vs0mg"},{"bike_id":"3ceff190-3a3e-47d0-ab6b-e1975730f31e","system_id":"levelo_inurba_marseille","lat":43.26379,"lon":5.41084,"is_reserved":false,"is_disabled":false,"rental_uris":{"android":"levelo://app?vid=3ceff190-3a3e-47d0-ab6b-e1975730f31e","ios":"levelo://app?vid=3ceff190-3a3e-47d0-ab6b-e1975730f31e"},"vehicle_type_id":"4","last_reported":1784491248,"current_range_meters":35200,"station_id":"st_d4e5ca6na9uc73bfl5fg","pricing_plan_id":"cebpf4jnsgd1na2vs0mg"},{"bike_id":"8337f5b4-2806-4bc0-9f71-af183adb5db8","system_id":"levelo_inurba_marseille","lat":43.23822,"lon":5.43512,"is_reserved":false,"is_disabled":false,"rental_uris":{"android":"levelo://app?vid=8337f5b4-2806-4bc0-9f71-af183adb5db8","ios":"levelo://app?vid=8337f5b4-2806-4bc0-9f71-af183adb5db8"},"vehicle_type_id":"4","last_reported":1784491248,"current_range_meters":2800,"station_id":"","pricing_plan_id":"cebpf4jnsgd1na2vs0mg"},{"bike_id":"0d69c6ad-1581-485b-8bcd-d541c4976ef8","system_id":"levelo_inurba_marseille","lat":43.31907,"lon":5.36848,"is_reserved":false,"is_disabled":false,"rental_uris":{"android":"levelo://app?vid=0d69c6ad-1581-485b-8bcd-d541c4976ef8","ios":"levelo://app?vid=0d69c6ad-1581-485b-8bcd-d541c4976ef8"},"vehicle_type_id":"4","last_reported":1784491248,"current_range_meters":8000,"station_id":"st_d6o2h0d0559c73evc1b0","pricing_plan_id":"cebpf4jnsgd1na2vs0mg"},{"bike_id":"38a2cc3d-9988-4742-ab91-e9c4ce6b2869","system_id":"levelo_inurba_marseille","lat":43.25509,"lon":5.37658,"is_reserved":false,"is_disabled":true,"rental_uris":{"android":"levelo://app?vid=38a2cc3d-9988-4742-ab91-e9c4ce6b2869","ios":"levelo://app?vid=38a2cc3d-9988-4742-ab91-e9c4ce6b2869"},"vehicle_type_id":"4","last_reported":1784491248,"current_range_meters":30400,"station_id":"ce4bhh12rcd13ifvqff0","pricing_plan_id":"cebpf4jnsgd1na2vs0mg"},{"bike_id":"333623d6-6252-4079-929b-579d1ad6a941","system_id":"levelo_inurba_marseille","lat":43.29866,"lon":5.39726,"is_reserved":false,"is_disabled":false,"rental_uris":{"android":"levelo://app?vid=333623d6-6252-4079-929b-579d1ad6a941","ios":"levelo://app?vid=333623d6-6252-4079-929b-579d1ad6a941"},"vehicle_type_id":"4","last_reported":1784491248,"current_range_meters":32400,"station_id":"ce4bh0h2rcd13ifvqd50","pricing_plan_id":"cebpf4jnsgd1na2vs0mg"},{"bike_id":"9b90f838-1e94-44ce-964b-2c7e792aeab2","system_id":"levelo_inurba_marseille","lat":43.29561,"lon":5.375,"is_reserved":false,"is_disabled":false,"rental_uris":{"android":"levelo://app?vid=9b90f838-1e94-44ce-964b-2c7e792aeab2","ios":"levelo://app?vid=9b90f838-1e94-44ce-964b-2c7e792aeab2"},"vehicle_type_id":"4","last_reported":1784491248,"current_range_meters":39200,"station_id":"ce4bgh92rcd13ifvqb50","pricing_plan_id":"cebpf4jnsgd1na2vs0mg"},{"bike_id":"9772ae11-9228-4434-979a-bcf5d3518e5e","system_id":"levelo_inurba_marseille","lat":43.23218,"lon":5.3657,"is_reserved":false,"is_disabled":false,"rental_uris":{"android":"levelo://app?vid=9772ae11-9228-4434-979a-bcf5d3518e5e","ios":"levelo://app?vid=9772ae11-9228-4434-979a-bcf5d3518e5e"},"vehicle_type_id":"4","last_reported":1784491248,"current_range_meters":35200,"station_id":"","pricing_plan_id":"cebpf4jnsgd1na2vs0mg"},{"bike_id":"50018d60-5cee-4e25-806f-789978a424f4","system_id":"levelo_inurba_marseille","lat":43.23265,"lon":5.3538,"is_reserved":false,"is_disabled":false,"rental_uris":{"android":"levelo://app?vid=50018d60-5cee-4e25-806f-789978a424f4","ios":"levelo://app?vid=50018d60-5cee-4e25-806f-789978a424f4"},"vehicle_type_id":"4","last_reported":1784491248,"current_range_meters":30000,"station_id":"","pricing_plan_id":"cebpf4jnsgd1na2vs0mg"},{"bike_id":"8a3b37db-0852-4141-86b3-390dc5614453","system_id":"levelo_inurba_marseille","lat":43.27198,"lon":5.39183,"is_reserved":false,"is_disabled":false,"rental_uris":{"android":"levelo://app?vid=8a3b37db-0852-4141-86b3-390dc5614453","ios":"levelo://app?vid=8a3b37db-0852-4141-86b3-390dc5614453"},"vehicle_type_id":"4","last_reported":1784491248,"current_range_meters":32400,"station_id":"ce4bhhp2rcd13ifvqfm0","pricing_plan_id":"cebpf4jnsgd1na2vs0mg"},{"bike_id":"942148f9-90f2-4171-8f05-98ba0ca85bcb","system_id":"levelo_inurba_marseille","lat":43.28492,"lon":5.4842,"is_reserved":false,"is_disabled":false,"rental_uris":{"android":"levelo://app?vid=942148f9-90f2-4171-8f05-98ba0ca85bcb","ios":"levelo://app?vid=942148f9-90f2-4171-8f05-98ba0ca85bcb"},"vehicle_type_id":"4","last_reported":1784491248,"current_range_meters":36400,"station_id":"st_d3svhcjqgbts73a3dn0g","pricing_plan_id":"cebpf4jnsgd1na2vs0mg"},{"bike_id":"c0f7102c-54d1-4de7-acac-a7b403f3d233","system_id":"levelo_inurba_marseille","lat":43.27984,"lon":5.41653,"is_reserved":false,"is_disabled":false,"rental_uris":{"android":"levelo://app?vid=c0f7102c-54d1-4de7-acac-a7b403f3d233","ios":"levelo://app?vid=c0f7102c-54d1-4de7-acac-a7b403f3d233"},"vehicle_type_id":"4","last_reported":1784491248,"current_range_meters":25600,"station_id":"ce4bho12rcd13ifvqh1g","pricing_plan_id":"cebpf4jnsgd1na2vs0mg"},{"bike_id":"8be94530-dbf2-4d31-bebd-071d2bd97003","system_id":"levelo_inurba_marseille","lat":43.267824,"lon":5.39409,"is_reserved":false,"is_disabled":false,"rental_uris":{"android":"levelo://app?vid=8be94530-dbf2-4d31-bebd-071d2bd97003","ios":"levelo://app?vid=8be94530-dbf2-4d31-bebd-071d2bd97003"},"vehicle_type_id":"4","last_reported":1784491248,"current_range_meters":18800,"station_id":"","pricing_plan_id":"cebpf4jnsgd1na2vs0mg"},{"bike_id":"fa288643-b967-4c77-8362-0941ea5afa2f","system_id":"levelo_inurba_marseille","lat":43.23202,"lon":5.35507,"is_reserved":false,"is_disabled":false,"rental_uris":{"android":"levelo://app?vid=fa288643-b967-4c77-8362-0941ea5afa2f","ios":"levelo://app?vid=fa288643-b967-4c77-8362-0941ea5afa2f"},"vehicle_type_id":"4","last_reported":1784491248,"current_range_meters":39200,"station_id":"ce4bhu92rcd13ifvqi70","pricing_plan_id":"cebpf4jnsgd1na2vs0mg"},{"bike_id":"2a93def1-9840-4751-b465-b53bb0ce6123","system_id":"levelo_inurba_marseille","lat":43.22568,"lon":5.4163,"is_reserved":false,"is_disabled":false,"rental_uris":{"android":"levelo://app?vid=2a93def1-9840-4751-b465-b53bb0ce6123","ios":"levelo://app?vid=2a93def1-9840-4751-b465-b53bb0ce6123"},"vehicle_type_id":"4","last_reported":1784491248,"current_range_meters":4800,"station_id":"st_d2o4gvlbi1j2169b742g","pricing_plan_id":"cebpf4jnsgd1na2vs0mg"},{"bike_id":"f40f4ba5-87ce-4797-88c4-03b4eb30e2be","system_id":"levelo_inurba_marseille","lat":43.26549,"lon":5.37296,"is_reserved":false,"is_disabled":false,"rental_uris":{"android":"levelo://app?vid=f40f4ba5-87ce-4797-88c4-03b4eb30e2be","ios":"levelo://app?vid=f40f4ba5-87ce-4797-88c4-03b4eb30e2be"},"vehicle_type_id":"4","last_reported":1784491248,"current_range_meters":38400,"station_id":"ce4bhg12rcd13ifvqf70","pricing_plan_id":"cebpf4jnsgd1na2vs0mg"},{"bike_id":"d2b08bfe-8d05-4397-91e9-fe938a2b845f","system_id":"levelo_inurba_marseille","lat":43.27505,"lon":5.42501,"is_reserved":false,"is_disabled":false,"rental_uris":{"android":"levelo://app?vid=d2b08bfe-8d05-4397-91e9-fe938a2b845f","ios":"levelo://app?vid=d2b08bfe-8d05-4397-91e9-fe938a2b845f"},"vehicle_type_id":"4","last_reported":1784491248,"current_range_meters":28000,"station_id":"ce4bhn92rcd13ifvqgrg","pricing_plan_id":"cebpf4jnsgd1na2vs0mg"},{"bike_id":"4f242086-589c-406d-bdd8-41a82ced5a8d","system_id":"levelo_inurba_marseille","lat":43.231467,"lon":5.436974,"is_reserved":false,"is_disabled":false,"rental_uris":{"android":"levelo://app?vid=4f242086-589c-406d-bdd8-41a82ced5a8d","ios":"levelo://app?vid=4f242086-589c-406d-bdd8-41a82ced5a8d"},"vehicle_type_id":"4","last_reported":1784491248,"current_range_meters":20800,"station_id":"ce4bhmp2rcd13ifvqgog","pricing_plan_id":"cebpf4jnsgd1na2vs0mg"},{"bike_id":"e97d923d-d560-461e-94e7-6b746b3d8d92","system_id":"levelo_inurba_marseille","lat":43.32107,"lon":5.368,"is_reserved":false,"is_disabled":false,"rental_uris":{"android":"levelo://app?vid=e97d923d-d560-461e-94e7-6b746b3d8d92","ios":"levelo://app?vid=e97d923d-d560-461e-94e7-6b746b3d8d92"},"vehicle_type_id":"4","last_reported":1784491248,"current_range_meters":22000,"station_id":"ce4bhrh2rcd13ifvqhug","pricing_plan_id":"cebpf4jnsgd1na2vs0mg"},{"bike_id":"36b4d290-dd7c-4dde-8dd9-f0a58badcd06","system_id":"levelo_inurba_marseille","lat":43.27696,"lon":5.38942,"is_reserved":false,"is_disabled":true,"rental_uris":{"android":"levelo://app?vid=36b4d290-dd7c-4dde-8dd9-f0a58badcd06","ios":"levelo://app?vid=36b4d290-dd7c-4dde-8dd9-f0a58badcd06"},"vehicle_type_id":"4","last_reported":1784491248,"current_range_meters":20400,"station_id":"ce4bhi12rcd13ifvqfo0","pricing_plan_id":"cebpf4jnsgd1na2vs0mg"},{"bike_id":"b7aa1f7e-f948-4c85-8ebb-7af17d93841d","system_id":"levelo_inurba_marseille","lat":43.25234,"lon":5.40066,"is_reserved":false,"is_disabled":false,"rental_uris":{"android":"levelo://app?vid=b7aa1f7e-f948-4c85-8ebb-7af17d93841d","ios":"levelo://app?vid=b7aa1f7e-f948-4c85-8ebb-7af17d93841d"},"vehicle_type_id":"4","last_reported":1784491248,"current_range_meters":37600,"station_id":"","pricing_plan_id":"cebpf4jnsgd1na2vs0mg"},{"bike_id":"5cf8bbcc-75a9-4356-98f4-afeb1e52d9f8","system_id":"levelo_inurba_marseille","lat":43.2861,"lon":5.37052,"is_reserved":false,"is_disabled":false,"rental_uris":{"android":"levelo://app?vid=5cf8bbcc-75a9-4356-98f4-afeb1e52d9f8","ios":"levelo://app?vid=5cf8bbcc-75a9-4356-98f4-afeb1e52d9f8"},"vehicle_type_id":"4","last_reported":1784491248,"current_range_meters":22400,"station_id":"ce4bht12rcd13ifvqi60","pricing_plan_id":"cebpf4jnsgd1na2vs0mg"},{"bike_id":"a73f2824-04af-4eb1-8696-07548fb915c6","system_id":"levelo_inurba_marseille","lat":43.27064,"lon":5.42271,"is_reserved":false,"is_disabled":false,"rental_uris":{"android":"levelo://app?vid=a73f2824-04af-4eb1-8696-07548fb915c6","ios":"levelo://app?vid=a73f2824-04af-4eb1-8696-07548fb915c6"},"vehicle_type_id":"4","last_reported":1784491248,"current_range_meters":32000,"station_id":"ce4bhk92rcd13ifvqgb0","pricing_plan_id":"cebpf4jnsgd1na2vs0mg"},{"bike_id":"5bc44a58-d609-49eb-9343-f22982157db4","system_id":"levelo_inurba_marseille","lat":43.29471,"lon":5.36308,"is_reserved":false,"is_disabled":false,"rental_uris":{"android":"levelo://app?vid=5bc44a58-d609-49eb-9343-f22982157db4","ios":"levelo://app?vid=5bc44a58-d609-49eb-9343-f22982157db4"},"vehicle_type_id":"4","last_reported":1784491248,"current_range_meters":5600,"station_id":"","pricing_plan_id":"cebpf4jnsgd1na2vs0mg"},{"bike_id":"dae56290-3ae1-48c1-a93e-499502aeaa6f","system_id":"levelo_inurba_marseille","lat":43.25721,"lon":5.41111,"is_reserved":false,"is_disabled":false,"rental_uris":{"android":"levelo://app?vid=dae56290-3ae1-48c1-a93e-499502aeaa6f","ios":"levelo://app?vid=dae56290-3ae1-48c1-a93e-499502aeaa6f"},"vehicle_type_id":"4","last_reported":1784491248,"current_range_meters":8000,"station_id":"ce4bhkp2rcd13ifvqgd0","pricing_plan_id":"cebpf4jnsgd1na2vs0mg"},{"bike_id":"23b50eb0-5c3d-41b3-9ba7-37e29fc8dbdc","system_id":"levelo_inurba_marseille","lat":43.29238,"lon":5.38442,"is_reserved":false,"is_disabled":false,"rental_uris":{"android":"levelo://app?vid=23b50eb0-5c3d-41b3-9ba7-37e29fc8dbdc","ios":"levelo://app?vid=23b50eb0-5c3d-41b3-9ba7-37e29fc8dbdc"},"vehicle_type_id":"4","last_reported":1784491248,"current_range_meters":39200,"station_id":"ce4bh692rcd13ifvqea0","pricing_plan_id":"cebpf4jnsgd1na2vs0mg"},{"bike_id":"160b0153-3c70-4a0e-b0da-4ad40e9a3569","system_id":"levelo_inurba_marseille","lat":43.23385,"lon":5.41239,"is_reserved":false,"is_disabled":false,"rental_uris":{"android":"levelo://app?vid=160b0153-3c70-4a0e-b0da-4ad40e9a3569","ios":"levelo://app?vid=160b0153-3c70-4a0e-b0da-4ad40e9a3569"},"vehicle_type_id":"4","last_reported":1784491248,"current_range_meters":35600,"station_id":"st_d75pvndhf9lc73cqq3eg","pricing_plan_id":"cebpf4jnsgd1na2vs0mg"},{"bike_id":"61d87550-68ff-4618-8cc2-8ce13025dac4","system_id":"levelo_inurba_marseille","lat":43.28484,"lon":5.38434,"is_reserved":false,"is_disabled":false,"rental_uris":{"android":"levelo://app?vid=61d87550-68ff-4618-8cc2-8ce13025dac4","ios":"levelo://app?vid=61d87550-68ff-4618-8cc2-8ce13025dac4"},"vehicle_type_id":"4","last_reported":1784491248,"current_range_meters":4800,"station_id":"ce4bh512rcd13ifvqe3g","pricing_plan_id":"cebpf4jnsgd1na2vs0mg"},{"bike_id":"0072b311-c2d5-4e23-a271-7871940c8a69","system_id":"levelo_inurba_marseille","lat":43.28354,"lon":5.3868,"is_reserved":false,"is_disabled":false,"rental_uris":{"android":"levelo://app?vid=0072b311-c2d5-4e23-a271-7871940c8a69","ios":"levelo://app?vid=0072b311-c2d5-4e23-a271-7871940c8a69"},"vehicle_type_id":"4","last_reported":1784491248,"current_range_meters":28800,"station_id":"ce4bh492rcd13ifvqdvg","pricing_plan_id":"cebpf4jnsgd1na2vs0mg"},{"bike_id":"a7dd7713-701a-4a8c-af71-20cc75bc7327","system_id":"levelo_inurba_marseille","lat":43.3235,"lon":5.38899,"is_reserved":false,"is_disabled":false,"rental_uris":{"android":"levelo://app?vid=a7dd7713-701a-4a8c-af71-20cc75bc7327","ios":"levelo://app?vid=a7dd7713-701a-4a8c-af71-20cc75bc7327"},"vehicle_type_id":"4","last_reported":1784491248,"current_range_meters":38400,"station_id":"ce4bhqp2rcd13ifvqhog","pricing_plan_id":"cebpf4jnsgd1na2vs0mg"},{"bike_id":"3d4aa178-44db-467e-a1bd-4fcdf991f22c","system_id":"levelo_inurba_marseille","lat":43.31717,"lon":5.43719,"is_reserved":false,"is_disabled":false,"rental_uris":{"android":"levelo://app?vid=3d4aa178-44db-467e-a1bd-4fcdf991f22c","ios":"levelo://app?vid=3d4aa178-44db-467e-a1bd-4fcdf991f22c"},"vehicle_type_id":"4","last_reported":1784491248,"current_range_meters":40000,"station_id":"ce4bhp92rcd13ifvqhcg","pricing_plan_id":"cebpf4jnsgd1na2vs0mg"},{"bike_id":"78b472ae-7ca1-438d-a65f-f93d06645001","system_id":"levelo_inurba_marseille","lat":43.29223,"lon":5.36048,"is_reserved":false,"is_disabled":true,"rental_uris":{"android":"levelo://app?vid=78b472ae-7ca1-438d-a65f-f93d06645001","ios":"levelo://app?vid=78b472ae-7ca1-438d-a65f-f93d06645001"},"vehicle_type_id":"4","last_reported":1784491248,"current_range_meters":37600,"station_id":"","pricing_plan_id":"cebpf4jnsgd1na2vs0mg"},{"bike_id":"40724a1f-ce5c-4810-b613-a36109a6f509","system_id":"levelo_inurba_marseille","lat":43.23794,"lon":5.3664,"is_reserved":false,"is_disabled":false,"rental_uris":{"android":"levelo://app?vid=40724a1f-ce5c-4810-b613-a36109a6f509","ios":"levelo://app?vid=40724a1f-ce5c-4810-b613-a36109a6f509"},"vehicle_type_id":"4","last_reported":1784491248,"current_range_meters":35600,"station_id":"st_d3nk18o9ro0c73en2l3g","pricing_plan_id":"cebpf4jnsgd1na2vs0mg"},{"bike_id":"83c40625-b82f-4350-8100-fb082d1cffc9","system_id":"levelo_inurba_marseille","lat":43.29624,"lon":5.37719,"is_reserved":false,"is_disabled":true,"rental_uris":{"android":"levelo://app?vid=83c40625-b82f-4350-8100-fb082d1cffc9","ios":"levelo://app?vid=83c40625-b82f-4350-8100-fb082d1cffc9"},"vehicle_type_id":"4","last_reported":1784491248,"current_range_meters":0,"station_id":"ce4bgi92rcd13ifvqb90","pricing_plan_id":"cebpf4jnsgd1na2vs0mg"},{"bike_id":"6bc4c533-420d-4831-b8c1-9a3b925c6aca","system_id":"levelo_inurba_marseille","lat":43.29262,"lon":5.38453,"is_reserved":false,"is_disabled":false,"rental_uris":{"android":"levelo://app?vid=6bc4c533-420d-4831-b8c1-9a3b925c6aca","ios":"levelo://app?vid=6bc4c533-420d-4831-b8c1-9a3b925c6aca"},"vehicle_type_id":"4","last_reported":1784491248,"current_range_meters":39200,"station_id":"ce4bh692rcd13ifvqea0","pricing_plan_id":"cebpf4jnsgd1na2vs0mg"},{"bike_id":"d0abce5b-2d97-4b28-b10c-bbd8dbd98574","system_id":"levelo_inurba_marseille","lat":43.29565,"lon":5.37493,"is_reserved":false,"is_disabled":false,"rental_uris":{"android":"levelo://app?vid=d0abce5b-2d97-4b28-b10c-bbd8dbd98574","ios":"levelo://app?vid=d0abce5b-2d97-4b28-b10c-bbd8dbd98574"},"vehicle_type_id":"4","last_reported":1784491248,"current_range_meters":32400,"station_id":"ce4bgh92rcd13ifvqb50","pricing_plan_id":"cebpf4jnsgd1na2vs0mg"},{"bike_id":"88b3333d-68df-42df-8ef7-a9a4f08abce5","system_id":"levelo_inurba_marseille","lat":43.22906,"lon":5.41526,"is_reserved":false,"is_disabled":false,"rental_uris":{"android":"levelo://app?vid=88b3333d-68df-42df-8ef7-a9a4f08abce5","ios":"levelo://app?vid=88b3333d-68df-42df-8ef7-a9a4f08abce5"},"vehicle_type_id":"4","last_reported":1784491248,"current_range_meters":17600,"station_id":"","pricing_plan_id":"cebpf4jnsgd1na2vs0mg"},{"bike_id":"b8d72355-45ea-46aa-891d-dd0ec8d082db","system_id":"levelo_inurba_marseille","lat":43.29685,"lon":5.37305,"is_reserved":false,"is_disabled":false,"rental_uris":{"android":"levelo://app?vid=b8d72355-45ea-46aa-891d-dd0ec8d082db","ios":"levelo://app?vid=b8d72355-45ea-46aa-891d-dd0ec8d082db"},"vehicle_type_id":"4","last_reported":1784491248,"current_range_meters":21600,"station_id":"ce4bgk12rcd13ifvqbj0","pricing_plan_id":"cebpf4jnsgd1na2vs0mg"},{"bike_id":"e0ffd750-bf13-4fb2-af10-1955238db672","system_id":"levelo_inurba_marseille","lat":43.2621,"lon":5.37444,"is_reserved":false,"is_disabled":false,"rental_uris":{"android":"levelo://app?vid=e0ffd750-bf13-4fb2-af10-1955238db672","ios":"levelo://app?vid=e0ffd750-bf13-4fb2-af10-1955238db672"},"vehicle_type_id":"4","last_reported":1784491248,"current_range_meters":35600,"station_id":"ce4bhgp2rcd13ifvqfc0","pricing_plan_id":"cebpf4jnsgd1na2vs0mg"},{"bike_id":"67cc13ec-7983-4e02-8476-a12d7f7e598e","system_id":"levelo_inurba_marseille","lat":43.26692,"lon":5.3826,"is_reserved":false,"is_disabled":false,"rental_uris":{"android":"levelo://app?vid=67cc13ec-7983-4e02-8476-a12d7f7e598e","ios":"levelo://app?vid=67cc13ec-7983-4e02-8476-a12d7f7e598e"},"vehicle_type_id":"4","last_reported":1784491248,"current_range_meters":20000,"station_id":"ce4bhg92rcd13ifvqf90","pricing_plan_id":"cebpf4jnsgd1na2vs0mg"},{"bike_id":"8d0d64a7-8bef-4335-8299-db0ba9dc3763","system_id":"levelo_inurba_marseille","lat":43.29567,"lon":5.37516,"is_reserved":false,"is_disabled":false,"rental_uris":{"android":"levelo://app?vid=8d0d64a7-8bef-4335-8299-db0ba9dc3763","ios":"levelo://app?vid=8d0d64a7-8bef-4335-8299-db0ba9dc3763"},"vehicle_type_id":"4","last_reported":1784491248,"current_range_meters":39200,"station_id":"ce4bgh92rcd13ifvqb50","pricing_plan_id":"cebpf4jnsgd1na2vs0mg"},{"bike_id":"3a65c32f-2435-4e03-96fa-0a76f1e46419","system_id":"levelo_inurba_marseille","lat":43.32683,"lon":5.40989,"is_reserved":false,"is_disabled":false,"rental_uris":{"android":"levelo://app?vid=3a65c32f-2435-4e03-96fa-0a76f1e46419","ios":"levelo://app?vid=3a65c32f-2435-4e03-96fa-0a76f1e46419"},"vehicle_type_id":"4","last_reported":1784491248,"current_range_meters":37600,"station_id":"ce4bhpp2rcd13ifvqhgg","pricing_plan_id":"cebpf4jnsgd1na2vs0mg"},{"bike_id":"b9bf91b1-f6c3-4792-a380-5b253e1ff4ad","system_id":"levelo_inurba_marseille","lat":43.23177,"lon":5.35573,"is_reserved":false,"is_disabled":false,"rental_uris":{"android":"levelo://app?vid=b9bf91b1-f6c3-4792-a380-5b253e1ff4ad","ios":"levelo://app?vid=b9bf91b1-f6c3-4792-a380-5b253e1ff4ad"},"vehicle_type_id":"4","last_reported":1784491248,"current_range_meters":28000,"station_id":"ce4bhu92rcd13ifvqi70","pricing_plan_id":"cebpf4jnsgd1na2vs0mg"},{"bike_id":"3331c6c8-0e15-49d1-8915-53d26d8aa8c2","system_id":"levelo_inurba_marseille","lat":43.30609,"lon":5.37255,"is_reserved":false,"is_disabled":false,"rental_uris":{"android":"levelo://app?vid=3331c6c8-0e15-49d1-8915-53d26d8aa8c2","ios":"levelo://app?vid=3331c6c8-0e15-49d1-8915-53d26d8aa8c2"},"vehicle_type_id":"4","last_reported":1784491248,"current_range_meters":30400,"station_id":"ce4bgqh2rcd13ifvqc4g","pricing_plan_id":"cebpf4jnsgd1na2vs0mg"},{"bike_id":"924a1626-5fd2-481c-9ed9-8d01de5a6be3","system_id":"levelo_inurba_marseille","lat":43.30566,"lon":5.38203,"is_reserved":false,"is_disabled":false,"rental_uris":{"android":"levelo://app?vid=924a1626-5fd2-481c-9ed9-8d01de5a6be3","ios":"levelo://app?vid=924a1626-5fd2-481c-9ed9-8d01de5a6be3"},"vehicle_type_id":"4","last_reported":1784491248,"current_range_meters":15200,"station_id":"","pricing_plan_id":"cebpf4jnsgd1na2vs0mg"},{"bike_id":"4f54c651-15d1-492f-8d09-70f1f809ad4f","system_id":"levelo_inurba_marseille","lat":43.27502,"lon":5.42536,"is_reserved":false,"is_disabled":false,"rental_uris":{"android":"levelo://app?vid=4f54c651-15d1-492f-8d09-70f1f809ad4f","ios":"levelo://app?vid=4f54c651-15d1-492f-8d09-70f1f809ad4f"},"vehicle_type_id":"4","last_reported":1784491248,"current_range_meters":14400,"station_id":"st_d8t4bh7nbrqs73arha60","pricing_plan_id":"cebpf4jnsgd1na2vs0mg"},{"bike_id":"7065528a-f292-4b1d-9927-6e05933d2cf0","system_id":"levelo_inurba_marseille","lat":43.22563,"lon":5.41632,"is_reserved":false,"is_disabled":false,"rental_uris":{"android":"levelo://app?vid=7065528a-f292-4b1d-9927-6e05933d2cf0","ios":"levelo://app?vid=7065528a-f292-4b1d-9927-6e05933d2cf0"},"vehicle_type_id":"4","last_reported":1784491248,"current_range_meters":22000,"station_id":"st_d2o4gvlbi1j2169b742g","pricing_plan_id":"cebpf4jnsgd1na2vs0mg"},{"bike_id":"862d8e62-6e66-4b66-a64b-9c49ce2182be","system_id":"levelo_inurba_marseille","lat":43.30395,"lon":5.40805,"is_reserved":false,"is_disabled":false,"rental_uris":{"android":"levelo://app?vid=862d8e62-6e66-4b66-a64b-9c49ce2182be","ios":"levelo://app?vid=862d8e62-6e66-4b66-a64b-9c49ce2182be"},"vehicle_type_id":"4","last_reported":1784491248,"current_range_meters":28000,"station_id":"","pricing_plan_id":"cebpf4jnsgd1na2vs0mg"},{"bike_id":"126b0827-4f1d-4758-be65-0e5fb99b6c7b","system_id":"levelo_inurba_marseille","lat":43.2854,"lon":5.39435,"is_reserved":false,"is_disabled":false,"rental_uris":{"android":"levelo://app?vid=126b0827-4f1d-4758-be65-0e5fb99b6c7b","ios":"levelo://app?vid=126b0827-4f1d-4758-be65-0e5fb99b6c7b"},"vehicle_type_id":"4","last_reported":1784491248,"current_range_meters":11200,"station_id":"ce4bh292rcd13ifvqdg0","pricing_plan_id":"cebpf4jnsgd1na2vs0mg"},{"bike_id":"11914078-231d-4077-9bc0-bdb34b6580e0","system_id":"levelo_inurba_marseille","lat":43.28098,"lon":5.37845,"is_reserved":false,"is_disabled":false,"rental_uris":{"android":"levelo://app?vid=11914078-231d-4077-9bc0-bdb34b6580e0","ios":"levelo://app?vid=11914078-231d-4077-9bc0-bdb34b6580e0"},"vehicle_type_id":"4","last_reported":1784491248,"current_range_meters":20400,"station_id":"ce4bha12rcd13ifvqee0","pricing_plan_id":"cebpf4jnsgd1na2vs0mg"},{"bike_id":"7e95463a-bc3b-4a8f-891b-aecd7964af17","system_id":"levelo_inurba_marseille","lat":43.28271,"lon":5.35066,"is_reserved":false,"is_disabled":true,"rental_uris":{"android":"levelo://app?vid=7e95463a-bc3b-4a8f-891b-aecd7964af17","ios":"levelo://app?vid=7e95463a-bc3b-4a8f-891b-aecd7964af17"},"vehicle_type_id":"4","last_reported":1784491248,"current_range_meters":19200,"station_id":"ce4bhbp2rcd13ifvqerg","pricing_plan_id":"cebpf4jnsgd1na2vs0mg"},{"bike_id":"e35b3037-ccf2-48a7-b6f2-14a77143bba4","system_id":"levelo_inurba_marseille","lat":43.32344,"lon":5.36736,"is_reserved":false,"is_disabled":false,"rental_uris":{"android":"levelo://app?vid=e35b3037-ccf2-48a7-b6f2-14a77143bba4","ios":"levelo://app?vid=e35b3037-ccf2-48a7-b6f2-14a77143bba4"},"vehicle_type_id":"4","last_reported":1784491248,"current_range_meters":35600,"station_id":"ce4bhsh2rcd13ifvqi2g","pricing_plan_id":"cebpf4jnsgd1na2vs0mg"},{"bike_id":"c7db8ee0-df96-43ac-85a4-f457ad6319b0","system_id":"levelo_inurba_marseille","lat":43.29097,"lon":5.38148,"is_reserved":false,"is_disabled":false,"rental_uris":{"android":"levelo://app?vid=c7db8ee0-df96-43ac-85a4-f457ad6319b0","ios":"levelo://app?vid=c7db8ee0-df96-43ac-85a4-f457ad6319b0"},"vehicle_type_id":"4","last_reported":1784491248,"current_range_meters":11600,"station_id":"ce4bh512rcd13ifvqe2g","pricing_plan_id":"cebpf4jnsgd1na2vs0mg"},{"bike_id":"ce45fdf9-66bd-4414-8bb7-2bf3c4382875","system_id":"levelo_inurba_marseille","lat":43.2953,"lon":5.38552,"is_reserved":false,"is_disabled":false,"rental_uris":{"android":"levelo://app?vid=ce45fdf9-66bd-4414-8bb7-2bf3c4382875","ios":"levelo://app?vid=ce45fdf9-66bd-4414-8bb7-2bf3c4382875"},"vehicle_type_id":"4","last_reported":1784491248,"current_range_meters":24000,"station_id":"ce4bgih2rcd13ifvqba0","pricing_plan_id":"cebpf4jnsgd1na2vs0mg"},{"bike_id":"375677a7-82d0-40cd-8c96-c28fdf8e0bb5","system_id":"levelo_inurba_marseille","lat":43.30323,"lon":5.40443,"is_reserved":false,"is_disabled":false,"rental_uris":{"android":"levelo://app?vid=375677a7-82d0-40cd-8c96-c28fdf8e0bb5","ios":"levelo://app?vid=375677a7-82d0-40cd-8c96-c28fdf8e0bb5"},"vehicle_type_id":"4","last_reported":1784491248,"current_range_meters":11200,"station_id":"ce4bh012rcd13ifvqd10","pricing_plan_id":"cebpf4jnsgd1na2vs0mg"},{"bike_id":"75e7e139-2c59-401a-96b3-3d78991d2316","system_id":"levelo_inurba_marseille","lat":43.29549,"lon":5.38534,"is_reserved":false,"is_disabled":false,"rental_uris":{"android":"levelo://app?vid=75e7e139-2c59-401a-96b3-3d78991d2316","ios":"levelo://app?vid=75e7e139-2c59-401a-96b3-3d78991d2316"},"vehicle_type_id":"4","last_reported":1784491248,"current_range_meters":19600,"station_id":"ce4bgih2rcd13ifvqba0","pricing_plan_id":"cebpf4jnsgd1na2vs0mg"},{"bike_id":"87a04f4f-3a10-4390-9793-b425acd5327a","system_id":"levelo_inurba_marseille","lat":43.29208,"lon":5.36846,"is_reserved":false,"is_disabled":false,"rental_uris":{"android":"levelo://app?vid=87a04f4f-3a10-4390-9793-b425acd5327a","ios":"levelo://app?vid=87a04f4f-3a10-4390-9793-b425acd5327a"},"vehicle_type_id":"4","last_reported":1784491248,"current_range_meters":20800,"station_id":"","pricing_plan_id":"cebpf4jnsgd1na2vs0mg"},{"bike_id":"d3763a0c-6ecc-4e5b-830e-5883d835d782","system_id":"levelo_inurba_marseille","lat":43.31716,"lon":5.43705,"is_reserved":false,"is_disabled":false,"rental_uris":{"android":"levelo://app?vid=d3763a0c-6ecc-4e5b-830e-5883d835d782","ios":"levelo://app?vid=d3763a0c-6ecc-4e5b-830e-5883d835d782"},"vehicle_type_id":"4","last_reported":1784491248,"current_range_meters":14000,"station_id":"ce4bhp92rcd13ifvqhcg","pricing_plan_id":"cebpf4jnsgd1na2vs0mg"},{"bike_id":"2d3e69d2-558b-4a81-9733-0750aa7726ab","system_id":"levelo_inurba_marseille","lat":43.23051,"lon":5.355,"is_reserved":false,"is_disabled":false,"rental_uris":{"android":"levelo://app?vid=2d3e69d2-558b-4a81-9733-0750aa7726ab","ios":"levelo://app?vid=2d3e69d2-558b-4a81-9733-0750aa7726ab"},"vehicle_type_id":"4","last_reported":1784491248,"current_range_meters":8800,"station_id":"cpo3342slgdg3j2ifvpg","pricing_plan_id":"cebpf4jnsgd1na2vs0mg"},{"bike_id":"e0b59b94-4abf-4e2b-8eca-155fc1c0b722","system_id":"levelo_inurba_marseille","lat":43.23065,"lon":5.35494,"is_reserved":false,"is_disabled":false,"rental_uris":{"android":"levelo://app?vid=e0b59b94-4abf-4e2b-8eca-155fc1c0b722","ios":"levelo://app?vid=e0b59b94-4abf-4e2b-8eca-155fc1c0b722"},"vehicle_type_id":"4","last_reported":1784491248,"current_range_meters":39200,"station_id":"cpo3342slgdg3j2ifvpg","pricing_plan_id":"cebpf4jnsgd1na2vs0mg"},{"bike_id":"01e7462b-b9cf-469e-92a6-2a1201a0f2a3","system_id":"levelo_inurba_marseille","lat":43.30511,"lon":5.39844,"is_reserved":false,"is_disabled":true,"rental_uris":{"android":"levelo://app?vid=01e7462b-b9cf-469e-92a6-2a1201a0f2a3","ios":"levelo://app?vid=01e7462b-b9cf-469e-92a6-2a1201a0f2a3"},"vehicle_type_id":"4","last_reported":1784491248,"current_range_meters":0,"station_id":"","pricing_plan_id":"cebpf4jnsgd1na2vs0mg"},{"bike_id":"63ee1f05-8135-4f46-8949-84438ca4a905","system_id":"levelo_inurba_marseille","lat":43.25193,"lon":5.3732,"is_reserved":false,"is_disabled":false,"rental_uris":{"android":"levelo://app?vid=63ee1f05-8135-4f46-8949-84438ca4a905","ios":"levelo://app?vid=63ee1f05-8135-4f46-8949-84438ca4a905"},"vehicle_type_id":"4","last_reported":1784491248,"current_range_meters":20800,"station_id":"","pricing_plan_id":"cebpf4jnsgd1na2vs0mg"},{"bike_id":"5c8e0b07-71c9-4c7f-972b-d3cb3729e911","system_id":"levelo_inurba_marseille","lat":43.28912,"lon":5.38409,"is_reserved":false,"is_disabled":false,"rental_uris":{"android":"levelo://app?vid=5c8e0b07-71c9-4c7f-972b-d3cb3729e911","ios":"levelo://app?vid=5c8e0b07-71c9-4c7f-972b-d3cb3729e911"},"vehicle_type_id":"4","last_reported":1784491248,"current_range_meters":30800,"station_id":"ce4bh612rcd13ifvqe6g","pricing_plan_id":"cebpf4jnsgd1na2vs0mg"},{"bike_id":"cde7738b-76c1-4df5-8f33-510784ec5e2c","system_id":"levelo_inurba_marseille","lat":43.29238,"lon":5.38462,"is_reserved":false,"is_disabled":false,"rental_uris":{"android":"levelo://app?vid=cde7738b-76c1-4df5-8f33-510784ec5e2c","ios":"levelo://app?vid=cde7738b-76c1-4df5-8f33-510784ec5e2c"},"vehicle_type_id":"4","last_reported":1784491248,"current_range_meters":22000,"station_id":"ce4bh692rcd13ifvqea0","pricing_plan_id":"cebpf4jnsgd1na2vs0mg"},{"bike_id":"8ea8d4b3-6448-4b21-be78-af0ed81d8446","system_id":"levelo_inurba_marseille","lat":43.2927,"lon":5.38434,"is_reserved":false,"is_disabled":false,"rental_uris":{"android":"levelo://app?vid=8ea8d4b3-6448-4b21-be78-af0ed81d8446","ios":"levelo://app?vid=8ea8d4b3-6448-4b21-be78-af0ed81d8446"},"vehicle_type_id":"4","last_reported":1784491248,"current_range_meters":28000,"station_id":"ce4bh692rcd13ifvqea0","pricing_plan_id":"cebpf4jnsgd1na2vs0mg"},{"bike_id":"0d3e100f-48fe-47e1-bef7-0a1dcfcc4955","system_id":"levelo_inurba_marseille","lat":43.33739,"lon":5.39175,"is_reserved":false,"is_disabled":false,"rental_uris":{"android":"levelo://app?vid=0d3e100f-48fe-47e1-bef7-0a1dcfcc4955","ios":"levelo://app?vid=0d3e100f-48fe-47e1-bef7-0a1dcfcc4955"},"vehicle_type_id":"4","last_reported":1784491248,"current_range_meters":39200,"station_id":"ce4bhr92rcd13ifvqhsg","pricing_plan_id":"cebpf4jnsgd1na2vs0mg"},{"bike_id":"000bf672-eb2c-4abc-9914-fc29cf52597d","system_id":"levelo_inurba_marseille","lat":43.32667,"lon":5.41009,"is_reserved":false,"is_disabled":false,"rental_uris":{"android":"levelo://app?vid=000bf672-eb2c-4abc-9914-fc29cf52597d","ios":"levelo://app?vid=000bf672-eb2c-4abc-9914-fc29cf52597d"},"vehicle_type_id":"4","last_reported":1784491248,"current_range_meters":4000,"station_id":"ce4bhpp2rcd13ifvqhgg","pricing_plan_id":"cebpf4jnsgd1na2vs0mg"},{"bike_id":"f07fd99f-9f81-4159-b0ac-c1f0872b85f7","system_id":"levelo_inurba_marseille","lat":43.31383,"lon":5.38497,"is_reserved":false,"is_disabled":false,"rental_uris":{"android":"levelo://app?vid=f07fd99f-9f81-4159-b0ac-c1f0872b85f7","ios":"levelo://app?vid=f07fd99f-9f81-4159-b0ac-c1f0872b85f7"},"vehicle_type_id":"4","last_reported":1784491248,"current_range_meters":33600,"station_id":"ce4bgt92rcd13ifvqcf0","pricing_plan_id":"cebpf4jnsgd1na2vs0mg"},{"bike_id":"b07de785-9167-43b6-98d8-d1752695866f","system_id":"levelo_inurba_marseille","lat":43.30201,"lon":5.36627,"is_reserved":false,"is_disabled":false,"rental_uris":{"android":"levelo://app?vid=b07de785-9167-43b6-98d8-d1752695866f","ios":"levelo://app?vid=b07de785-9167-43b6-98d8-d1752695866f"},"vehicle_type_id":"4","last_reported":1784491248,"current_range_meters":4000,"station_id":"ce4bgrh2rcd13ifvqc8g","pricing_plan_id":"cebpf4jnsgd1na2vs0mg"},{"bike_id":"0e8ed7a2-dc9a-45a0-b3fb-c8ec617b127f","system_id":"levelo_inurba_marseille","lat":43.28182,"lon":5.37792,"is_reserved":false,"is_disabled":false,"rental_uris":{"android":"levelo://app?vid=0e8ed7a2-dc9a-45a0-b3fb-c8ec617b127f","ios":"levelo://app?vid=0e8ed7a2-dc9a-45a0-b3fb-c8ec617b127f"},"vehicle_type_id":"4","last_reported":1784491248,"current_range_meters":39200,"station_id":"","pricing_plan_id":"cebpf4jnsgd1na2vs0mg"},{"bike_id":"e9131ba3-bdff-49bc-8871-d1c479bce313","system_id":"levelo_inurba_marseille","lat":43.29031,"lon":5.38647,"is_reserved":false,"is_disabled":false,"rental_uris":{"android":"levelo://app?vid=e9131ba3-bdff-49bc-8871-d1c479bce313","ios":"levelo://app?vid=e9131ba3-bdff-49bc-8871-d1c479bce313"},"vehicle_type_id":"4","last_reported":1784491248,"current_range_meters":3200,"station_id":"ce4bh4p2rcd13ifvqe0g","pricing_plan_id":"cebpf4jnsgd1na2vs0mg"},{"bike_id":"af9cb856-2a1a-4801-80cc-f305db9e72a7","system_id":"levelo_inurba_marseille","lat":43.25915,"lon":5.40906,"is_reserved":false,"is_disabled":false,"rental_uris":{"android":"levelo://app?vid=af9cb856-2a1a-4801-80cc-f305db9e72a7","ios":"levelo://app?vid=af9cb856-2a1a-4801-80cc-f305db9e72a7"},"vehicle_type_id":"4","last_reported":1784491248,"current_range_meters":35600,"station_id":"ce4bhm92rcd13ifvqglg","pricing_plan_id":"cebpf4jnsgd1na2vs0mg"},{"bike_id":"979038d2-4fce-48fa-8142-ca9268c5113f","system_id":"levelo_inurba_marseille","lat":43.29253,"lon":5.38471,"is_reserved":false,"is_disabled":false,"rental_uris":{"android":"levelo://app?vid=979038d2-4fce-48fa-8142-ca9268c5113f","ios":"levelo://app?vid=979038d2-4fce-48fa-8142-ca9268c5113f"},"vehicle_type_id":"4","last_reported":1784491248,"current_range_meters":25600,"station_id":"ce4bh692rcd13ifvqea0","pricing_plan_id":"cebpf4jnsgd1na2vs0mg"},{"bike_id":"ebed4e51-a17e-4f1e-8fda-f36decd0df85","system_id":"levelo_inurba_marseille","lat":43.29306,"lon":5.37158,"is_reserved":false,"is_disabled":false,"rental_uris":{"android":"levelo://app?vid=ebed4e51-a17e-4f1e-8fda-f36decd0df85","ios":"levelo://app?vid=ebed4e51-a17e-4f1e-8fda-f36decd0df85"},"vehicle_type_id":"4","last_reported":1784491248,"current_range_meters":8400,"station_id":"ce4bgh92rcd13ifvqb40","pricing_plan_id":"cebpf4jnsgd1na2vs0mg"},{"bike_id":"bf92e73f-5ebb-482e-9b16-38b660c0b75a","system_id":"levelo_inurba_marseille","lat":43.21739,"lon":5.34599,"is_reserved":false,"is_disabled":true,"rental_uris":{"android":"levelo://app?vid=bf92e73f-5ebb-482e-9b16-38b660c0b75a","ios":"levelo://app?vid=bf92e73f-5ebb-482e-9b16-38b660c0b75a"},"vehicle_type_id":"4","last_reported":1784491248,"current_range_meters":5600,"station_id":"st_cvj6r9ubvosntc0bgbag","pricing_plan_id":"cebpf4jnsgd1na2vs0mg"},{"bike_id":"98bce0f5-25e4-4db3-b698-d3dcf6d7b213","system_id":"levelo_inurba_marseille","lat":43.24819,"lon":5.37453,"is_reserved":false,"is_disabled":false,"rental_uris":{"android":"levelo://app?vid=98bce0f5-25e4-4db3-b698-d3dcf6d7b213","ios":"levelo://app?vid=98bce0f5-25e4-4db3-b698-d3dcf6d7b213"},"vehicle_type_id":"4","last_reported":1784491248,"current_range_meters":20400,"station_id":"ce4bhgh2rcd13ifvqfb0","pricing_plan_id":"cebpf4jnsgd1na2vs0mg"},{"bike_id":"ed25373e-a7cc-4ffa-bb01-0b8e073362da","system_id":"levelo_inurba_marseille","lat":43.31204,"lon":5.36901,"is_reserved":false,"is_disabled":false,"rental_uris":{"android":"levelo://app?vid=ed25373e-a7cc-4ffa-bb01-0b8e073362da","ios":"levelo://app?vid=ed25373e-a7cc-4ffa-bb01-0b8e073362da"},"vehicle_type_id":"4","last_reported":1784491248,"current_range_meters":37600,"station_id":"ce4bgl92rcd13ifvqbq0","pricing_plan_id":"cebpf4jnsgd1na2vs0mg"},{"bike_id":"cd8b0274-02a6-4775-8c38-f681fd740715","system_id":"levelo_inurba_marseille","lat":43.32472,"lon":5.36616,"is_reserved":false,"is_disabled":true,"rental_uris":{"android":"levelo://app?vid=cd8b0274-02a6-4775-8c38-f681fd740715","ios":"levelo://app?vid=cd8b0274-02a6-4775-8c38-f681fd740715"},"vehicle_type_id":"4","last_reported":1784491248,"current_range_meters":36800,"station_id":"ce4bhs12rcd13ifvqhvg","pricing_plan_id":"cebpf4jnsgd1na2vs0mg"},{"bike_id":"cb83cb54-d7e2-4e4c-b01d-6084c5ef1f75","system_id":"levelo_inurba_marseille","lat":43.26685,"lon":5.38271,"is_reserved":false,"is_disabled":false,"rental_uris":{"android":"levelo://app?vid=cb83cb54-d7e2-4e4c-b01d-6084c5ef1f75","ios":"levelo://app?vid=cb83cb54-d7e2-4e4c-b01d-6084c5ef1f75"},"vehicle_type_id":"4","last_reported":1784491248,"current_range_meters":38800,"station_id":"ce4bhg92rcd13ifvqf90","pricing_plan_id":"cebpf4jnsgd1na2vs0mg"},{"bike_id":"bf94bbb1-0344-4a40-9e3a-5c4e2673d65c","system_id":"levelo_inurba_marseille","lat":43.29944,"lon":5.36548,"is_reserved":false,"is_disabled":false,"rental_uris":{"android":"levelo://app?vid=bf94bbb1-0344-4a40-9e3a-5c4e2673d65c","ios":"levelo://app?vid=bf94bbb1-0344-4a40-9e3a-5c4e2673d65c"},"vehicle_type_id":"4","last_reported":1784491248,"current_range_meters":30400,"station_id":"ce4bgm92rcd13ifvqbr0","pricing_plan_id":"cebpf4jnsgd1na2vs0mg"},{"bike_id":"e33e7e56-b1af-4e57-9514-4de84c42a5c6","system_id":"levelo_inurba_marseille","lat":43.23967,"lon":5.36622,"is_reserved":false,"is_disabled":true,"rental_uris":{"android":"levelo://app?vid=e33e7e56-b1af-4e57-9514-4de84c42a5c6","ios":"levelo://app?vid=e33e7e56-b1af-4e57-9514-4de84c42a5c6"},"vehicle_type_id":"4","last_reported":1784491248,"current_range_meters":20800,"station_id":"ce4bhi12rcd13ifvqfp0","pricing_plan_id":"cebpf4jnsgd1na2vs0mg"},{"bike_id":"bfcc0ca0-f355-498d-b2f0-f14d7dc602fc","system_id":"levelo_inurba_marseille","lat":43.32091,"lon":5.36802,"is_reserved":false,"is_disabled":false,"rental_uris":{"android":"levelo://app?vid=bfcc0ca0-f355-498d-b2f0-f14d7dc602fc","ios":"levelo://app?vid=bfcc0ca0-f355-498d-b2f0-f14d7dc602fc"},"vehicle_type_id":"4","last_reported":1784491248,"current_range_meters":6400,"station_id":"ce4bhrh2rcd13ifvqhug","pricing_plan_id":"cebpf4jnsgd1na2vs0mg"},{"bike_id":"6f94d330-d3f8-4607-b74f-5c94d3acea4b","system_id":"levelo_inurba_marseille","lat":43.24549,"lon":5.3953,"is_reserved":false,"is_disabled":false,"rental_uris":{"android":"levelo://app?vid=6f94d330-d3f8-4607-b74f-5c94d3acea4b","ios":"levelo://app?vid=6f94d330-d3f8-4607-b74f-5c94d3acea4b"},"vehicle_type_id":"4","last_reported":1784491248,"current_range_meters":27600,"station_id":"ce4bhlp2rcd13ifvqgjg","pricing_plan_id":"cebpf4jnsgd1na2vs0mg"},{"bike_id":"7604574c-06cb-407e-9e16-b7858411e1bc","system_id":"levelo_inurba_marseille","lat":43.27813,"lon":5.40723,"is_reserved":false,"is_disabled":true,"rental_uris":{"android":"levelo://app?vid=7604574c-06cb-407e-9e16-b7858411e1bc","ios":"levelo://app?vid=7604574c-06cb-407e-9e16-b7858411e1bc"},"vehicle_type_id":"4","last_reported":1784491248,"current_range_meters":14800,"station_id":"ce4bhnh2rcd13ifvqgtg","pricing_plan_id":"cebpf4jnsgd1na2vs0mg"},{"bike_id":"600d3649-4b6d-473c-a715-d27921e00684","system_id":"levelo_inurba_marseille","lat":43.23195,"lon":5.35548,"is_reserved":false,"is_disabled":false,"rental_uris":{"android":"levelo://app?vid=600d3649-4b6d-473c-a715-d27921e00684","ios":"levelo://app?vid=600d3649-4b6d-473c-a715-d27921e00684"},"vehicle_type_id":"4","last_reported":1784491248,"current_range_meters":17600,"station_id":"ce4bhu92rcd13ifvqi70","pricing_plan_id":"cebpf4jnsgd1na2vs0mg"},{"bike_id":"4f5d180b-7df1-4bec-b4f8-45c82ca3cddb","system_id":"levelo_inurba_marseille","lat":43.28474,"lon":5.48406,"is_reserved":false,"is_disabled":false,"rental_uris":{"android":"levelo://app?vid=4f5d180b-7df1-4bec-b4f8-45c82ca3cddb","ios":"levelo://app?vid=4f5d180b-7df1-4bec-b4f8-45c82ca3cddb"},"vehicle_type_id":"4","last_reported":1784491248,"current_range_meters":26000,"station_id":"st_d3svhcjqgbts73a3dn0g","pricing_plan_id":"cebpf4jnsgd1na2vs0mg"},{"bike_id":"8601b829-59f8-4eab-bab2-2f8e891d8617","system_id":"levelo_inurba_marseille","lat":43.254993,"lon":5.376487,"is_reserved":false,"is_disabled":false,"rental_uris":{"android":"levelo://app?vid=8601b829-59f8-4eab-bab2-2f8e891d8617","ios":"levelo://app?vid=8601b829-59f8-4eab-bab2-2f8e891d8617"},"vehicle_type_id":"4","last_reported":1784491248,"current_range_meters":19600,"station_id":"ce4bhh12rcd13ifvqff0","pricing_plan_id":"cebpf4jnsgd1na2vs0mg"},{"bike_id":"69f76047-e370-43be-99d2-af61460318b7","system_id":"levelo_inurba_marseille","lat":43.29622,"lon":5.37743,"is_reserved":false,"is_disabled":false,"rental_uris":{"android":"levelo://app?vid=69f76047-e370-43be-99d2-af61460318b7","ios":"levelo://app?vid=69f76047-e370-43be-99d2-af61460318b7"},"vehicle_type_id":"4","last_reported":1784491248,"current_range_meters":35200,"station_id":"ce4bgi92rcd13ifvqb90","pricing_plan_id":"cebpf4jnsgd1na2vs0mg"},{"bike_id":"cb2ecf96-afb8-4f30-b587-5db7f5bc3451","system_id":"levelo_inurba_marseille","lat":43.29448,"lon":5.38639,"is_reserved":false,"is_disabled":false,"rental_uris":{"android":"levelo://app?vid=cb2ecf96-afb8-4f30-b587-5db7f5bc3451","ios":"levelo://app?vid=cb2ecf96-afb8-4f30-b587-5db7f5bc3451"},"vehicle_type_id":"4","last_reported":1784491248,"current_range_meters":22400,"station_id":"","pricing_plan_id":"cebpf4jnsgd1na2vs0mg"},{"bike_id":"05060649-1159-4341-98f1-9ef049a36f15","system_id":"levelo_inurba_marseille","lat":43.23899,"lon":5.37485,"is_reserved":false,"is_disabled":false,"rental_uris":{"android":"levelo://app?vid=05060649-1159-4341-98f1-9ef049a36f15","ios":"levelo://app?vid=05060649-1159-4341-98f1-9ef049a36f15"},"vehicle_type_id":"4","last_reported":1784491248,"current_range_meters":39200,"station_id":"st_d6sm7csbq4hs73f8fpjg","pricing_plan_id":"cebpf4jnsgd1na2vs0mg"},{"bike_id":"e854f2c5-4431-4941-b3f1-1d450db194dc","system_id":"levelo_inurba_marseille","lat":43.26568,"lon":5.40326,"is_reserved":false,"is_disabled":false,"rental_uris":{"android":"levelo://app?vid=e854f2c5-4431-4941-b3f1-1d450db194dc","ios":"levelo://app?vid=e854f2c5-4431-4941-b3f1-1d450db194dc"},"vehicle_type_id":"4","last_reported":1784491248,"current_range_meters":29600,"station_id":"ce4bhmp2rcd13ifvqgng","pricing_plan_id":"cebpf4jnsgd1na2vs0mg"},{"bike_id":"c90d4976-666a-48df-8843-43361faba4d4","system_id":"levelo_inurba_marseille","lat":43.29534,"lon":5.3751,"is_reserved":false,"is_disabled":false,"rental_uris":{"android":"levelo://app?vid=c90d4976-666a-48df-8843-43361faba4d4","ios":"levelo://app?vid=c90d4976-666a-48df-8843-43361faba4d4"},"vehicle_type_id":"4","last_reported":1784491248,"current_range_meters":24000,"station_id":"ce4bgkp2rcd13ifvqbmg","pricing_plan_id":"cebpf4jnsgd1na2vs0mg"},{"bike_id":"9df5e7f3-1cb9-43a4-9683-68d4da00ac21","system_id":"levelo_inurba_marseille","lat":43.24997,"lon":5.38932,"is_reserved":false,"is_disabled":false,"rental_uris":{"android":"levelo://app?vid=9df5e7f3-1cb9-43a4-9683-68d4da00ac21","ios":"levelo://app?vid=9df5e7f3-1cb9-43a4-9683-68d4da00ac21"},"vehicle_type_id":"4","last_reported":1784491248,"current_range_meters":10000,"station_id":"ce4bhgp2rcd13ifvqfd0","pricing_plan_id":"cebpf4jnsgd1na2vs0mg"},{"bike_id":"5450c789-a3b5-4b2b-b675-738dbe9d501d","system_id":"levelo_inurba_marseille","lat":43.26213,"lon":5.37468,"is_reserved":false,"is_disabled":false,"rental_uris":{"android":"levelo://app?vid=5450c789-a3b5-4b2b-b675-738dbe9d501d","ios":"levelo://app?vid=5450c789-a3b5-4b2b-b675-738dbe9d501d"},"vehicle_type_id":"4","last_reported":1784491248,"current_range_meters":37600,"station_id":"ce4bhgp2rcd13ifvqfc0","pricing_plan_id":"cebpf4jnsgd1na2vs0mg"},{"bike_id":"7f583a3a-11c6-47a8-aaca-557ad999a980","system_id":"levelo_inurba_marseille","lat":43.29021,"lon":5.38645,"is_reserved":false,"is_disabled":false,"rental_uris":{"android":"levelo://app?vid=7f583a3a-11c6-47a8-aaca-557ad999a980","ios":"levelo://app?vid=7f583a3a-11c6-47a8-aaca-557ad999a980"},"vehicle_type_id":"4","last_reported":1784491248,"current_range_meters":39200,"station_id":"ce4bh4p2rcd13ifvqe0g","pricing_plan_id":"cebpf4jnsgd1na2vs0mg"},{"bike_id":"6dcae072-db9d-47d6-8753-8b202b7aab14","system_id":"levelo_inurba_marseille","lat":43.26382,"lon":5.41096,"is_reserved":false,"is_disabled":false,"rental_uris":{"android":"levelo://app?vid=6dcae072-db9d-47d6-8753-8b202b7aab14","ios":"levelo://app?vid=6dcae072-db9d-47d6-8753-8b202b7aab14"},"vehicle_type_id":"4","last_reported":1784491248,"current_range_meters":27200,"station_id":"st_d4e5ca6na9uc73bfl5fg","pricing_plan_id":"cebpf4jnsgd1na2vs0mg"},{"bike_id":"4deb96f7-77bc-4d03-b05f-9badc81e8841","system_id":"levelo_inurba_marseille","lat":43.225225,"lon":5.34832,"is_reserved":false,"is_disabled":false,"rental_uris":{"android":"levelo://app?vid=4deb96f7-77bc-4d03-b05f-9badc81e8841","ios":"levelo://app?vid=4deb96f7-77bc-4d03-b05f-9badc81e8841"},"vehicle_type_id":"4","last_reported":1784491248,"current_range_meters":14800,"station_id":"st_cvj5dfep6f1abm77gieg","pricing_plan_id":"cebpf4jnsgd1na2vs0mg"},{"bike_id":"659a68bc-86a6-4daf-9f1f-d3e7a32b91b8","system_id":"levelo_inurba_marseille","lat":43.23197,"lon":5.35553,"is_reserved":false,"is_disabled":false,"rental_uris":{"android":"levelo://app?vid=659a68bc-86a6-4daf-9f1f-d3e7a32b91b8","ios":"levelo://app?vid=659a68bc-86a6-4daf-9f1f-d3e7a32b91b8"},"vehicle_type_id":"4","last_reported":1784491248,"current_range_meters":36000,"station_id":"ce4bhu92rcd13ifvqi70","pricing_plan_id":"cebpf4jnsgd1na2vs0mg"},{"bike_id":"ac0c2642-05da-4ffe-9a20-63664581cb82","system_id":"levelo_inurba_marseille","lat":43.29551,"lon":5.38538,"is_reserved":false,"is_disabled":false,"rental_uris":{"android":"levelo://app?vid=ac0c2642-05da-4ffe-9a20-63664581cb82","ios":"levelo://app?vid=ac0c2642-05da-4ffe-9a20-63664581cb82"},"vehicle_type_id":"4","last_reported":1784491248,"current_range_meters":22000,"station_id":"ce4bgih2rcd13ifvqba0","pricing_plan_id":"cebpf4jnsgd1na2vs0mg"},{"bike_id":"de0708e4-f073-49f7-a6bd-13277f9be13d","system_id":"levelo_inurba_marseille","lat":43.29213,"lon":5.36072,"is_reserved":false,"is_disabled":false,"rental_uris":{"android":"levelo://app?vid=de0708e4-f073-49f7-a6bd-13277f9be13d","ios":"levelo://app?vid=de0708e4-f073-49f7-a6bd-13277f9be13d"},"vehicle_type_id":"4","last_reported":1784491248,"current_range_meters":6000,"station_id":"","pricing_plan_id":"cebpf4jnsgd1na2vs0mg"},{"bike_id":"0b9a8051-de27-4642-9944-0d7422b17bff","system_id":"levelo_inurba_marseille","lat":43.29323,"lon":5.37172,"is_reserved":false,"is_disabled":false,"rental_uris":{"android":"levelo://app?vid=0b9a8051-de27-4642-9944-0d7422b17bff","ios":"levelo://app?vid=0b9a8051-de27-4642-9944-0d7422b17bff"},"vehicle_type_id":"4","last_reported":1784491248,"current_range_meters":6400,"station_id":"ce4bgh92rcd13ifvqb40","pricing_plan_id":"cebpf4jnsgd1na2vs0mg"},{"bike_id":"0ae73df4-cb4e-46da-8b0c-cc88cecc2bb3","system_id":"levelo_inurba_marseille","lat":43.29269,"lon":5.38457,"is_reserved":false,"is_disabled":false,"rental_uris":{"android":"levelo://app?vid=0ae73df4-cb4e-46da-8b0c-cc88cecc2bb3","ios":"levelo://app?vid=0ae73df4-cb4e-46da-8b0c-cc88cecc2bb3"},"vehicle_type_id":"4","last_reported":1784491248,"current_range_meters":26800,"station_id":"ce4bh692rcd13ifvqea0","pricing_plan_id":"cebpf4jnsgd1na2vs0mg"},{"bike_id":"836e30ce-dfad-46d2-869d-bd9dedaa1944","system_id":"levelo_inurba_marseille","lat":43.26939,"lon":5.38895,"is_reserved":false,"is_disabled":false,"rental_uris":{"android":"levelo://app?vid=836e30ce-dfad-46d2-869d-bd9dedaa1944","ios":"levelo://app?vid=836e30ce-dfad-46d2-869d-bd9dedaa1944"},"vehicle_type_id":"4","last_reported":1784491248,"current_range_meters":39200,"station_id":"ce4bhhh2rcd13ifvqfl0","pricing_plan_id":"cebpf4jnsgd1na2vs0mg"},{"bike_id":"0fd64a27-ac7d-4f5f-833c-0919e9d92b60","system_id":"levelo_inurba_marseille","lat":43.21186,"lon":5.35082,"is_reserved":false,"is_disabled":false,"rental_uris":{"android":"levelo://app?vid=0fd64a27-ac7d-4f5f-833c-0919e9d92b60","ios":"levelo://app?vid=0fd64a27-ac7d-4f5f-833c-0919e9d92b60"},"vehicle_type_id":"4","last_reported":1784491248,"current_range_meters":9200,"station_id":"st_cvj6sg6p6f1abm77japg","pricing_plan_id":"cebpf4jnsgd1na2vs0mg"},{"bike_id":"6e2d7e69-8df1-40a6-90f7-e69b5c931535","system_id":"levelo_inurba_marseille","lat":43.229331,"lon":5.353792,"is_reserved":false,"is_disabled":false,"rental_uris":{"android":"levelo://app?vid=6e2d7e69-8df1-40a6-90f7-e69b5c931535","ios":"levelo://app?vid=6e2d7e69-8df1-40a6-90f7-e69b5c931535"},"vehicle_type_id":"4","last_reported":1784491248,"current_range_meters":21600,"station_id":"st_cvj5dfep6f1abm77gieg","pricing_plan_id":"cebpf4jnsgd1na2vs0mg"},{"bike_id":"d3b82640-d84c-42c7-8c57-b5a14f4fcab5","system_id":"levelo_inurba_marseille","lat":43.30892,"lon":5.37194,"is_reserved":false,"is_disabled":false,"rental_uris":{"android":"levelo://app?vid=d3b82640-d84c-42c7-8c57-b5a14f4fcab5","ios":"levelo://app?vid=d3b82640-d84c-42c7-8c57-b5a14f4fcab5"},"vehicle_type_id":"4","last_reported":1784491248,"current_range_meters":30400,"station_id":"ce4bguh2rcd13ifvqckg","pricing_plan_id":"cebpf4jnsgd1na2vs0mg"},{"bike_id":"caee839e-3dfa-4533-aac6-88c6d8bfd134","system_id":"levelo_inurba_marseille","lat":43.31127,"lon":5.4645,"is_reserved":false,"is_disabled":false,"rental_uris":{"android":"levelo://app?vid=caee839e-3dfa-4533-aac6-88c6d8bfd134","ios":"levelo://app?vid=caee839e-3dfa-4533-aac6-88c6d8bfd134"},"vehicle_type_id":"4","last_reported":1784491248,"current_range_meters":12000,"station_id":"","pricing_plan_id":"cebpf4jnsgd1na2vs0mg"},