{"last_updated":1761401314,"ttl":60,"version":"2.2","data":{"bikes":[{"bike_id":"f32d416b-9090-4e38-bfbc-b27d4d8e6d30","system_id":"levelo_inurba_marseille","lat":43.308882,"lon":5.396609,"is_reserved":false,"is_disabled":false,"rental_uris":{"android":"levelo://app?vid=f32d416b-9090-4e38-bfbc-b27d4d8e6d30","ios":"levelo://app?vid=f32d416b-9090-4e38-bfbc-b27d4d8e6d30"},"vehicle_type_id":"4","last_reported":1761401314,"current_range_meters":2800,"station_id":"ce4bh012rcd13ifvqcv0","pricing_plan_id":"cebpf4jnsgd1na2vs0mg"},{"bike_id":"d0acce5a-9367-44da-a4fe-a170ae7b4f37","system_id":"levelo_inurba_marseille","lat":43.27097,"lon":5.38324,"is_reserved":false,"is_disabled":false,"rental_uris":{"android":"levelo://app?vid=d0acce5a-9367-44da-a4fe-a170ae7b4f37","ios":"levelo://app?vid=d0acce5a-9367-44da-a4fe-a170ae7b4f37"},"vehicle_type_id":"4","last_reported":1761401314,"current_range_meters":2800,"station_id":"st_d3n2fo6cfp8s73cte1j0","pricing_plan_id":"cebpf4jnsgd1na2vs0mg"},{"bike_id":"6fe96865-7550-461c-b9f1-308cd6c3b56c","system_id":"levelo_inurba_marseille","lat":43.28703,"lon":5.37404,"is_reserved":false,"is_disabled":false,"rental_uris":{"android":"levelo://app?vid=6fe96865-7550-461c-b9f1-308cd6c3b56c","ios":"levelo://app?vid=6fe96865-7550-461c-b9f1-308cd6c3b56c"},"vehicle_type_id":"4","last_reported":1761401314,"current_range_meters":3200,"station_id":"ce4bh3p2rcd13ifvqdq0","pricing_plan_id":"cebpf4jnsgd1na2vs0mg"},{"bike_id":"37ceceb1-9633-4aac-9978-bb75a0ab86d5","system_id":"levelo_inurba_marseille","lat":43.27366,"lon":5.36258,"is_reserved":false,"is_disabled":false,"rental_uris":{"android":"levelo://app?vid=37ceceb1-9633-4aac-9978-bb75a0ab86d5","ios":"levelo://app?vid=37ceceb1-9633-4aac-9978-bb75a0ab86d5"},"vehicle_type_id":"4","last_reported":1761401314,"current_range_meters":3200,"station_id":"ce4bhbh2rcd13ifvqeo0","pricing_plan_id":"cebpf4jnsgd1na2vs0mg"},{"bike_id":"ad4bd757-c665-495b-957e-bd09b0b15f0c","system_id":"levelo_inurba_marseille","lat":43.27941,"lon":5.41051,"is_reserved":false,"is_disabled":false,"rental_uris":{"android":"levelo://app?vid=ad4bd757-c665-495b-957e-bd09b0b15f0c","ios":"levelo://app?vid=ad4bd757-c665-495b-957e-bd09b0b15f0c"},"vehicle_type_id":"4","last_reported":1761401314,"current_range_meters":3200,"station_id":"ce4bhnp2rcd13ifvqh0g","pricing_plan_id":"cebpf4jnsgd1na2vs0mg"},{"bike_id":"1e1614f6-5c4c-4c0a-96be-3f315f6b4f3e","system_id":"levelo_inurba_marseille","lat":43.31168,"lon":5.38722,"is_reserved":false,"is_disabled":false,"rental_uris":{"android":"levelo://app?vid=1e1614f6-5c4c-4c0a-96be-3f315f6b4f3e","ios":"levelo://app?vid=1e1614f6-5c4c-4c0a-96be-3f315f6b4f3e"},"vehicle_type_id":"4","last_reported":1761401314,"current_range_meters":3600,"station_id":"ce4bgv12rcd13ifvqcp0","pricing_plan_id":"cebpf4jnsgd1na2vs0mg"},{"bike_id":"7523d6f3-12ef-4fc0-a2f8-a0fc577ec28e","system_id":"levelo_inurba_marseille","lat":43.28436,"lon":5.392,"is_reserved":false,"is_disabled":false,"rental_uris":{"android":"levelo://app?vid=7523d6f3-12ef-4fc0-a2f8-a0fc577ec28e","ios":"levelo://app?vid=7523d6f3-12ef-4fc0-a2f8-a0fc577ec28e"},"vehicle_type_id":"4","last_reported":1761401314,"current_range_meters":3600,"station_id":"ce4bhoh2rcd13ifvqh5g","pricing_plan_id":"cebpf4jnsgd1na2vs0mg"},{"bike_id":"5007ee91-3823-4bd9-9f7e-b649bdaf7bd4","system_id":"levelo_inurba_marseille","lat":43.2418,"lon":5.39724,"is_reserved":false,"is_disabled":false,"rental_uris":{"android":"levelo://app?vid=5007ee91-3823-4bd9-9f7e-b649bdaf7bd4","ios":"levelo://app?vid=5007ee91-3823-4bd9-9f7e-b649bdaf7bd4"},"vehicle_type_id":"4","last_reported":1761401314,"current_range_meters":3600,"station_id":"ce4bhn12rcd13ifvqgpg","pricing_plan_id":"cebpf4jnsgd1na2vs0mg"},{"bike_id":"2a968cc3-38c7-4e79-a8fd-090b635156b8","system_id":"levelo_inurba_marseille","lat":43.30143,"lon":5.37417,"is_reserved":false,"is_disabled":false,"rental_uris":{"android":"levelo://app?vid=2a968cc3-38c7-4e79-a8fd-090b635156b8","ios":"levelo://app?vid=2a968cc3-38c7-4e79-a8fd-090b635156b8"},"vehicle_type_id":"4","last_reported":1761401314,"current_range_meters":4000,"station_id":"ce4bgs92rcd13ifvqcc0","pricing_plan_id":"cebpf4jnsgd1na2vs0mg"},{"bike_id":"24acfd78-821e-45be-968b-00efe1538a90","system_id":"levelo_inurba_marseille","lat":43.26559,"lon":5.37284,"is_reserved":false,"is_disabled":false,"rental_uris":{"android":"levelo://app?vid=24acfd78-821e-45be-968b-00efe1538a90","ios":"levelo://app?vid=24acfd78-821e-45be-968b-00efe1538a90"},"vehicle_type_id":"4","last_reported":1761401314,"current_range_meters":4000,"station_id":"ce4bhg12rcd13ifvqf70","pricing_plan_id":"cebpf4jnsgd1na2vs0mg"},{"bike_id":"25f6e774-b75a-44a1-96d0-0c8c8d1491e2","system_id":"levelo_inurba_marseille","lat":43.241692,"lon":5.363977,"is_reserved":false,"is_disabled":false,"rental_uris":{"android":"levelo://app?vid=25f6e774-b75a-44a1-96d0-0c8c8d1491e2","ios":"levelo://app?vid=25f6e774-b75a-44a1-96d0-0c8c8d1491e2"},"vehicle_type_id":"4","last_reported":1761401314,"current_range_meters":4000,"station_id":"ce4bhhp2rcd13ifvqfm0","pricing_plan_id":"cebpf4jnsgd1na2vs0mg"},{"bike_id":"79455fcd-6ce4-4a94-abac-a34d2bf727db","system_id":"levelo_inurba_marseille","lat":43.30538,"lon":5.3843,"is_reserved":false,"is_disabled":false,"rental_uris":{"android":"levelo://app?vid=79455fcd-6ce4-4a94-abac-a34d2bf727db","ios":"levelo://app?vid=79455fcd-6ce4-4a94-abac-a34d2bf727db"},"vehicle_type_id":"4","last_reported":1761401314,"current_range_meters":4000,"station_id":"ce4bgg92rcd13ifvqb30","pricing_plan_id":"cebpf4jnsgd1na2vs0mg"},{"bike_id":"fc3fe5d0-dfcb-4186-9c51-3772116724f0","system_id":"levelo_inurba_marseille","lat":43.217271,"lon":5.34608,"is_reserved":false,"is_disabled":false,"rental_uris":{"android":"levelo://app?vid=fc3fe5d0-dfcb-4186-9c51-3772116724f0","ios":"levelo://app?vid=fc3fe5d0-dfcb-4186-9c51-3772116724f0"},"vehicle_type_id":"4","last_reported":1761401314,"current_range_meters":4400,"station_id":"st_cvj6r9ubvosntc0bgbag","pricing_plan_id":"cebpf4jnsgd1na2vs0mg"},{"bike_id":"7546f470-e2c9-46ad-b638-733b3092a9dc","system_id":"levelo_inurba_marseille","lat":43.22537,"lon":5.34844,"is_reserved":false,"is_disabled":false,"rental_uris":{"android":"levelo://app?vid=7546f470-e2c9-46ad-b638-733b3092a9dc","ios":"levelo://app?vid=7546f470-e2c9-46ad-b638-733b3092a9dc"},"vehicle_type_id":"4","last_reported":1761401314,"current_range_meters":4400,"station_id":"","pricing_plan_id":"cebpf4jnsgd1na2vs0mg"},{"bike_id":"3457d2e8-c2f8-4c0e-b155-9d881d88973d","system_id":"levelo_inurba_marseille","lat":43.303265,"lon":5.404334,"is_reserved":false,"is_disabled":false,"rental_uris":{"android":"levelo://app?vid=3457d2e8-c2f8-4c0e-b155-9d881d88973d","ios":"levelo://app?vid=3457d2e8-c2f8-4c0e-b155-9d881d88973d"},"vehicle_type_id":"4","last_reported":1761401314,"current_range_meters":4400,"station_id":"ce4bh012rcd13ifvqd10","pricing_plan_id":"cebpf4jnsgd1na2vs0mg"},{"bike_id":"081cccc9-7d3f-487f-b4c7-8849237ba056","system_id":"levelo_inurba_marseille","lat":43.3107,"lon":5.38357,"is_reserved":false,"is_disabled":false,"rental_uris":{"android":"levelo://app?vid=081cccc9-7d3f-487f-b4c7-8849237ba056","ios":"levelo://app?vid=081cccc9-7d3f-487f-b4c7-8849237ba056"},"vehicle_type_id":"4","last_reported":1761401314,"current_range_meters":4400,"station_id":"ce4bgv92rcd13ifvqcr0","pricing_plan_id":"cebpf4jnsgd1na2vs0mg"},{"bike_id":"4e128299-73b9-4bdc-87a0-217947517642","system_id":"levelo_inurba_marseille","lat":43.31173,"lon":5.38728,"is_reserved":false,"is_disabled":false,"rental_uris":{"android":"levelo://app?vid=4e128299-73b9-4bdc-87a0-217947517642","ios":"levelo://app?vid=4e128299-73b9-4bdc-87a0-217947517642"},"vehicle_type_id":"4","last_reported":1761401314,"current_range_meters":4800,"station_id":"ce4bgv12rcd13ifvqcp0","pricing_plan_id":"cebpf4jnsgd1na2vs0mg"},{"bike_id":"159d9f1c-c661-45c3-be36-812e47b7bbc2","system_id":"levelo_inurba_marseille","lat":43.26816,"lon":5.39353,"is_reserved":false,"is_disabled":false,"rental_uris":{"android":"levelo://app?vid=159d9f1c-c661-45c3-be36-812e47b7bbc2","ios":"levelo://app?vid=159d9f1c-c661-45c3-be36-812e47b7bbc2"},"vehicle_type_id":"4","last_reported":1761401314,"current_range_meters":4800,"station_id":"ce4bhi12rcd13ifvqfq0","pricing_plan_id":"cebpf4jnsgd1na2vs0mg"},{"bike_id":"9b7a42c1-b712-45d3-ba43-715a46b97f82","system_id":"levelo_inurba_marseille","lat":43.25511,"lon":5.37654,"is_reserved":false,"is_disabled":false,"rental_uris":{"android":"levelo://app?vid=9b7a42c1-b712-45d3-ba43-715a46b97f82","ios":"levelo://app?vid=9b7a42c1-b712-45d3-ba43-715a46b97f82"},"vehicle_type_id":"4","last_reported":1761401314,"current_range_meters":4800,"station_id":"ce4bhh12rcd13ifvqff0","pricing_plan_id":"cebpf4jnsgd1na2vs0mg"},{"bike_id":"0d76cd3e-e1fe-4078-9bc5-5b79d5ee85b0","system_id":"levelo_inurba_marseille","lat":43.30144,"lon":5.398864,"is_reserved":false,"is_disabled":false,"rental_uris":{"android":"levelo://app?vid=0d76cd3e-e1fe-4078-9bc5-5b79d5ee85b0","ios":"levelo://app?vid=0d76cd3e-e1fe-4078-9bc5-5b79d5ee85b0"},"vehicle_type_id":"4","last_reported":1761401314,"current_range_meters":4800,"station_id":"ce4bh0h2rcd13ifvqd40","pricing_plan_id":"cebpf4jnsgd1na2vs0mg"},{"bike_id":"7b1a758c-830b-4cbd-96fe-70122c1dd0c4","system_id":"levelo_inurba_marseille","lat":43.306395,"lon":5.365647,"is_reserved":false,"is_disabled":false,"rental_uris":{"android":"levelo://app?vid=7b1a758c-830b-4cbd-96fe-70122c1dd0c4","ios":"levelo://app?vid=7b1a758c-830b-4cbd-96fe-70122c1dd0c4"},"vehicle_type_id":"4","last_reported":1761401314,"current_range_meters":4800,"station_id":"","pricing_plan_id":"cebpf4jnsgd1na2vs0mg"},{"bike_id":"323bf2de-3bb4-4b4c-b330-b19ea807dbf5","system_id":"levelo_inurba_marseille","lat":43.329959,"lon":5.42952,"is_reserved":false,"is_disabled":false,"rental_uris":{"android":"levelo://app?vid=323bf2de-3bb4-4b4c-b330-b19ea807dbf5","ios":"levelo://app?vid=323bf2de-3bb4-4b4c-b330-b19ea807dbf5"},"vehicle_type_id":"4","last_reported":1761401314,"current_range_meters":4800,"station_id":"","pricing_plan_id":"cebpf4jnsgd1na2vs0mg"},{"bike_id":"5fab3a58-f431-436e-835e-9d738b48f781","system_id":"levelo_inurba_marseille","lat":43.21733,"lon":5.34612,"is_reserved":false,"is_disabled":false,"rental_uris":{"android":"levelo://app?vid=5fab3a58-f431-436e-835e-9d738b48f781","ios":"levelo://app?vid=5fab3a58-f431-436e-835e-9d738b48f781"},"vehicle_type_id":"4","last_reported":1761401314,"current_range_meters":4800,"station_id":"st_cvj6r9ubvosntc0bgbag","pricing_plan_id":"cebpf4jnsgd1na2vs0mg"},{"bike_id":"fcf49c83-188a-44da-b7fc-6052c90b7caa","system_id":"levelo_inurba_marseille","lat":43.30422,"lon":5.39759,"is_reserved":false,"is_disabled":false,"rental_uris":{"android":"levelo://app?vid=fcf49c83-188a-44da-b7fc-6052c90b7caa","ios":"levelo://app?vid=fcf49c83-188a-44da-b7fc-6052c90b7caa"},"vehicle_type_id":"4","last_reported":1761401314,"current_range_meters":4800,"station_id":"ce4bh092rcd13ifvqd20","pricing_plan_id":"cebpf4jnsgd1na2vs0mg"},{"bike_id":"ff5ea42a-c600-4a9b-88b6-41790710ef11","system_id":"levelo_inurba_marseille","lat":43.248036,"lon":5.37452,"is_reserved":false,"is_disabled":false,"rental_uris":{"android":"levelo://app?vid=ff5ea42a-c600-4a9b-88b6-41790710ef11","ios":"levelo://app?vid=ff5ea42a-c600-4a9b-88b6-41790710ef11"},"vehicle_type_id":"4","last_reported":1761401314,"current_range_meters":5600,"station_id":"ce4bhgh2rcd13ifvqfb0","pricing_plan_id":"cebpf4jnsgd1na2vs0mg"},{"bike_id":"03c08b43-2a6a-42e9-85b8-62d32a63e5fc","system_id":"levelo_inurba_marseille","lat":43.28854,"lon":5.35855,"is_reserved":false,"is_disabled":false,"rental_uris":{"android":"levelo://app?vid=03c08b43-2a6a-42e9-85b8-62d32a63e5fc","ios":"levelo://app?vid=03c08b43-2a6a-42e9-85b8-62d32a63e5fc"},"vehicle_type_id":"4","last_reported":1761401314,"current_range_meters":5600,"station_id":"ce4bhb12rcd13ifvqem0","pricing_plan_id":"cebpf4jnsgd1na2vs0mg"},{"bike_id":"6f841e51-481c-48ee-8f2f-560cc57b3f14","system_id":"levelo_inurba_marseille","lat":43.295705,"lon":5.375245,"is_reserved":false,"is_disabled":false,"rental_uris":{"android":"levelo://app?vid=6f841e51-481c-48ee-8f2f-560cc57b3f14","ios":"levelo://app?vid=6f841e51-481c-48ee-8f2f-560cc57b3f14"},"vehicle_type_id":"4","last_reported":1761401314,"current_range_meters":5600,"station_id":"ce4bgh92rcd13ifvqb50","pricing_plan_id":"cebpf4jnsgd1na2vs0mg"},{"bike_id":"17bd9fff-f8a7-45af-8120-cab272292f42","system_id":"levelo_inurba_marseille","lat":43.28475,"lon":5.48421,"is_reserved":false,"is_disabled":false,"rental_uris":{"android":"levelo://app?vid=17bd9fff-f8a7-45af-8120-cab272292f42","ios":"levelo://app?vid=17bd9fff-f8a7-45af-8120-cab272292f42"},"vehicle_type_id":"4","last_reported":1761401314,"current_range_meters":5600,"station_id":"st_d3svhcjqgbts73a3dn0g","pricing_plan_id":"cebpf4jnsgd1na2vs0mg"},{"bike_id":"39a8d96d-2005-4ba6-9502-0ba65ce0b4b1","system_id":"levelo_inurba_marseille","lat":43.28856,"lon":5.35859,"is_reserved":false,"is_disabled":false,"rental_uris":{"android":"levelo://app?vid=39a8d96d-2005-4ba6-9502-0ba65ce0b4b1","ios":"levelo://app?vid=39a8d96d-2005-4ba6-9502-0ba65ce0b4b1"},"vehicle_type_id":"4","last_reported":1761401314,"current_range_meters":5600,"station_id":"ce4bhb12rcd13ifvqem0","pricing_plan_id":"cebpf4jnsgd1na2vs0mg"},{"bike_id":"34521aac-18c8-4204-96b0-bf1fd55a05ac","system_id":"levelo_inurba_marseille","lat":43.23194,"lon":5.35556,"is_reserved":false,"is_disabled":false,"rental_uris":{"android":"levelo://app?vid=34521aac-18c8-4204-96b0-bf1fd55a05ac","ios":"levelo://app?vid=34521aac-18c8-4204-96b0-bf1fd55a05ac"},"vehicle_type_id":"4","last_reported":1761401314,"current_range_meters":5600,"station_id":"ce4bhu92rcd13ifvqi70","pricing_plan_id":"cebpf4jnsgd1na2vs0mg"},{"bike_id":"a5f0cf9d-e21c-47a1-ad1e-bf0e80b8bf52","system_id":"levelo_inurba_marseille","lat":43.21737,"lon":5.3462,"is_reserved":false,"is_disabled":false,"rental_uris":{"android":"levelo://app?vid=a5f0cf9d-e21c-47a1-ad1e-bf0e80b8bf52","ios":"levelo://app?vid=a5f0cf9d-e21c-47a1-ad1e-bf0e80b8bf52"},"vehicle_type_id":"4","last_reported":1761401314,"current_range_meters":5600,"station_id":"st_cvj6r9ubvosntc0bgbag","pricing_plan_id":"cebpf4jnsgd1na2vs0mg"},{"bike_id":"3c7ce920-4ffc-4c10-b467-bb71a6a8d004","system_id":"levelo_inurba_marseille","lat":43.29862,"lon":5.36284,"is_reserved":false,"is_disabled":false,"rental_uris":{"android":"levelo://app?vid=3c7ce920-4ffc-4c10-b467-bb71a6a8d004","ios":"levelo://app?vid=3c7ce920-4ffc-4c10-b467-bb71a6a8d004"},"vehicle_type_id":"4","last_reported":1761401314,"current_range_meters":6000,"station_id":"ce4bgpp2rcd13ifvqc3g","pricing_plan_id":"cebpf4jnsgd1na2vs0mg"},{"bike_id":"836fdf48-4606-42b4-a427-0e542cd76e16","system_id":"levelo_inurba_marseille","lat":43.305413,"lon":5.365553,"is_reserved":false,"is_disabled":false,"rental_uris":{"android":"levelo://app?vid=836fdf48-4606-42b4-a427-0e542cd76e16","ios":"levelo://app?vid=836fdf48-4606-42b4-a427-0e542cd76e16"},"vehicle_type_id":"4","last_reported":1761401314,"current_range_meters":6000,"station_id":"ce4bgs12rcd13ifvqcag","pricing_plan_id":"cebpf4jnsgd1na2vs0mg"},{"bike_id":"1d7c22b4-2f71-48bc-90e3-fa978e0e053f","system_id":"levelo_inurba_marseille","lat":43.30811,"lon":5.38175,"is_reserved":false,"is_disabled":false,"rental_uris":{"android":"levelo://app?vid=1d7c22b4-2f71-48bc-90e3-fa978e0e053f","ios":"levelo://app?vid=1d7c22b4-2f71-48bc-90e3-fa978e0e053f"},"vehicle_type_id":"4","last_reported":1761401314,"current_range_meters":6000,"station_id":"ce4bgt12rcd13ifvqce0","pricing_plan_id":"cebpf4jnsgd1na2vs0mg"},{"bike_id":"bf52d227-e2e6-4e46-bfde-44cbb96d7d45","system_id":"levelo_inurba_marseille","lat":43.21179,"lon":5.35082,"is_reserved":false,"is_disabled":false,"rental_uris":{"android":"levelo://app?vid=bf52d227-e2e6-4e46-bfde-44cbb96d7d45","ios":"levelo://app?vid=bf52d227-e2e6-4e46-bfde-44cbb96d7d45"},"vehicle_type_id":"4","last_reported":1761401314,"current_range_meters":6000,"station_id":"st_cvj6sg6p6f1abm77japg","pricing_plan_id":"cebpf4jnsgd1na2vs0mg"},{"bike_id":"cd69ef42-8886-4b9b-91d0-dddb4d015b1e","system_id":"levelo_inurba_marseille","lat":43.28671,"lon":5.38652,"is_reserved":false,"is_disabled":false,"rental_uris":{"android":"levelo://app?vid=cd69ef42-8886-4b9b-91d0-dddb4d015b1e","ios":"levelo://app?vid=cd69ef42-8886-4b9b-91d0-dddb4d015b1e"},"vehicle_type_id":"4","last_reported":1761401314,"current_range_meters":6000,"station_id":"ce4bh492rcd13ifvqdug","pricing_plan_id":"cebpf4jnsgd1na2vs0mg"},{"bike_id":"00fd3c6a-780c-49dc-9993-d4de69c9b57a","system_id":"levelo_inurba_marseille","lat":43.310738,"lon":5.37455,"is_reserved":false,"is_disabled":false,"rental_uris":{"android":"levelo://app?vid=00fd3c6a-780c-49dc-9993-d4de69c9b57a","ios":"levelo://app?vid=00fd3c6a-780c-49dc-9993-d4de69c9b57a"},"vehicle_type_id":"4","last_reported":1761401314,"current_range_meters":6000,"station_id":"","pricing_plan_id":"cebpf4jnsgd1na2vs0mg"},{"bike_id":"3cf896e0-75a8-4592-8080-fdbbd5b6579f","system_id":"levelo_inurba_marseille","lat":43.284149,"lon":5.349904,"is_reserved":false,"is_disabled":false,"rental_uris":{"android":"levelo://app?vid=3cf896e0-75a8-4592-8080-fdbbd5b6579f","ios":"levelo://app?vid=3cf896e0-75a8-4592-8080-fdbbd5b6579f"},"vehicle_type_id":"4","last_reported":1761401314,"current_range_meters":6400,"station_id":"ce4bhbh2rcd13ifvqepg","pricing_plan_id":"cebpf4jnsgd1na2vs0mg"},{"bike_id":"b9764ed2-f91a-421e-b54e-d7527bd8af22","system_id":"levelo_inurba_marseille","lat":43.29811,"lon":5.36588,"is_reserved":false,"is_disabled":false,"rental_uris":{"android":"levelo://app?vid=b9764ed2-f91a-421e-b54e-d7527bd8af22","ios":"levelo://app?vid=b9764ed2-f91a-421e-b54e-d7527bd8af22"},"vehicle_type_id":"4","last_reported":1761401314,"current_range_meters":6400,"station_id":"","pricing_plan_id":"cebpf4jnsgd1na2vs0mg"},{"bike_id":"8bcacd78-80de-4026-af75-b37ebe3030fe","system_id":"levelo_inurba_marseille","lat":43.334756,"lon":5.404255,"is_reserved":false,"is_disabled":false,"rental_uris":{"android":"levelo://app?vid=8bcacd78-80de-4026-af75-b37ebe3030fe","ios":"levelo://app?vid=8bcacd78-80de-4026-af75-b37ebe3030fe"},"vehicle_type_id":"4","last_reported":1761401314,"current_range_meters":6400,"station_id":"","pricing_plan_id":"cebpf4jnsgd1na2vs0mg"},{"bike_id":"e4d964b5-b154-4ec4-98bc-5c5d24c22f2e","system_id":"levelo_inurba_marseille","lat":43.27212,"lon":5.39179,"is_reserved":false,"is_disabled":false,"rental_uris":{"android":"levelo://app?vid=e4d964b5-b154-4ec4-98bc-5c5d24c22f2e","ios":"levelo://app?vid=e4d964b5-b154-4ec4-98bc-5c5d24c22f2e"},"vehicle_type_id":"4","last_reported":1761401314,"current_range_meters":6400,"station_id":"ce4bhhp2rcd13ifvqfm0","pricing_plan_id":"cebpf4jnsgd1na2vs0mg"},{"bike_id":"16419f7b-f008-4c2d-801c-faea47526df1","system_id":"levelo_inurba_marseille","lat":43.21191,"lon":5.35075,"is_reserved":false,"is_disabled":false,"rental_uris":{"android":"levelo://app?vid=16419f7b-f008-4c2d-801c-faea47526df1","ios":"levelo://app?vid=16419f7b-f008-4c2d-801c-faea47526df1"},"vehicle_type_id":"4","last_reported":1761401314,"current_range_meters":6400,"station_id":"st_cvj6sg6p6f1abm77japg","pricing_plan_id":"cebpf4jnsgd1na2vs0mg"},{"bike_id":"3289f9d9-e08e-45fb-b676-3042f4c6c721","system_id":"levelo_inurba_marseille","lat":43.27312,"lon":5.39084,"is_reserved":false,"is_disabled":false,"rental_uris":{"android":"levelo://app?vid=3289f9d9-e08e-45fb-b676-3042f4c6c721","ios":"levelo://app?vid=3289f9d9-e08e-45fb-b676-3042f4c6c721"},"vehicle_type_id":"4","last_reported":1761401314,"current_range_meters":6400,"station_id":"ce4bhgp2rcd13ifvqfe0","pricing_plan_id":"cebpf4jnsgd1na2vs0mg"},{"bike_id":"eb20524c-bc64-43e6-a9ef-c95ee2efacd5","system_id":"levelo_inurba_marseille","lat":43.2953,"lon":5.39049,"is_reserved":false,"is_disabled":false,"rental_uris":{"android":"levelo://app?vid=eb20524c-bc64-43e6-a9ef-c95ee2efacd5","ios":"levelo://app?vid=eb20524c-bc64-43e6-a9ef-c95ee2efacd5"},"vehicle_type_id":"4","last_reported":1761401314,"current_range_meters":6400,"station_id":"ce4bh3p2rcd13ifvqdp0","pricing_plan_id":"cebpf4jnsgd1na2vs0mg"},{"bike_id":"fb9c0891-5083-4476-8481-987fcb4d9b87","system_id":"levelo_inurba_marseille","lat":43.27373,"lon":5.3626,"is_reserved":false,"is_disabled":false,"rental_uris":{"android":"levelo://app?vid=fb9c0891-5083-4476-8481-987fcb4d9b87","ios":"levelo://app?vid=fb9c0891-5083-4476-8481-987fcb4d9b87"},"vehicle_type_id":"4","last_reported":1761401314,"current_range_meters":6400,"station_id":"ce4bhbh2rcd13ifvqeo0","pricing_plan_id":"cebpf4jnsgd1na2vs0mg"},{"bike_id":"96f28196-3c76-40a5-864b-b93965d64f94","system_id":"levelo_inurba_marseille","lat":43.30487,"lon":5.37917,"is_reserved":false,"is_disabled":false,"rental_uris":{"android":"levelo://app?vid=96f28196-3c76-40a5-864b-b93965d64f94","ios":"levelo://app?vid=96f28196-3c76-40a5-864b-b93965d64f94"},"vehicle_type_id":"4","last_reported":1761401314,"current_range_meters":6800,"station_id":"ce4bgup2rcd13ifvqcn0","pricing_plan_id":"cebpf4jnsgd1na2vs0mg"},{"bike_id":"29235ca7-831c-4256-8389-509f3a76afae","system_id":"levelo_inurba_marseille","lat":43.29017,"lon":5.38131,"is_reserved":false,"is_disabled":false,"rental_uris":{"android":"levelo://app?vid=29235ca7-831c-4256-8389-509f3a76afae","ios":"levelo://app?vid=29235ca7-831c-4256-8389-509f3a76afae"},"vehicle_type_id":"4","last_reported":1761401314,"current_range_meters":6800,"station_id":"ce4bh4p2rcd13ifvqe1g","pricing_plan_id":"cebpf4jnsgd1na2vs0mg"},{"bike_id":"a35a4922-b803-4cd9-8623-7e895c294787","system_id":"levelo_inurba_marseille","lat":43.29831,"lon":5.38244,"is_reserved":false,"is_disabled":true,"rental_uris":{"android":"levelo://app?vid=a35a4922-b803-4cd9-8623-7e895c294787","ios":"levelo://app?vid=a35a4922-b803-4cd9-8623-7e895c294787"},"vehicle_type_id":"4","last_reported":1761401314,"current_range_meters":6800,"station_id":"","pricing_plan_id":"cebpf4jnsgd1na2vs0mg"},{"bike_id":"cb14a91a-e5a7-4fa2-9c1d-b1acec3d3362","system_id":"levelo_inurba_marseille","lat":43.337444,"lon":5.374475,"is_reserved":false,"is_disabled":false,"rental_uris":{"android":"levelo://app?vid=cb14a91a-e5a7-4fa2-9c1d-b1acec3d3362","ios":"levelo://app?vid=cb14a91a-e5a7-4fa2-9c1d-b1acec3d3362"},"vehicle_type_id":"4","last_reported":1761401314,"current_range_meters":6800,"station_id":"","pricing_plan_id":"cebpf4jnsgd1na2vs0mg"},{"bike_id":"fc5b24d7-43c9-4bb1-a914-7fd3b36aaf83","system_id":"levelo_inurba_marseille","lat":43.29626,"lon":5.3772,"is_reserved":false,"is_disabled":false,"rental_uris":{"android":"levelo://app?vid=fc5b24d7-43c9-4bb1-a914-7fd3b36aaf83","ios":"levelo://app?vid=fc5b24d7-43c9-4bb1-a914-7fd3b36aaf83"},"vehicle_type_id":"4","last_reported":1761401314,"current_range_meters":6800,"station_id":"ce4bgi92rcd13ifvqb90","pricing_plan_id":"cebpf4jnsgd1na2vs0mg"},{"bike_id":"b2dc8b28-f5c8-4dce-9f69-37e454a38cb9","system_id":"levelo_inurba_marseille","lat":43.21744,"lon":5.34611,"is_reserved":false,"is_disabled":false,"rental_uris":{"android":"levelo://app?vid=b2dc8b28-f5c8-4dce-9f69-37e454a38cb9","ios":"levelo://app?vid=b2dc8b28-f5c8-4dce-9f69-37e454a38cb9"},"vehicle_type_id":"4","last_reported":1761401314,"current_range_meters":7200,"station_id":"st_cvj6r9ubvosntc0bgbag","pricing_plan_id":"cebpf4jnsgd1na2vs0mg"},{"bike_id":"e155dffe-ff6f-4b4d-977c-9e6d823e77c2","system_id":"levelo_inurba_marseille","lat":43.28038,"lon":5.36943,"is_reserved":false,"is_disabled":false,"rental_uris":{"android":"levelo://app?vid=e155dffe-ff6f-4b4d-977c-9e6d823e77c2","ios":"levelo://app?vid=e155dffe-ff6f-4b4d-977c-9e6d823e77c2"},"vehicle_type_id":"4","last_reported":1761401314,"current_range_meters":7200,"station_id":"ce4bha12rcd13ifvqef0","pricing_plan_id":"cebpf4jnsgd1na2vs0mg"},{"bike_id":"8e0e94a6-1b64-427e-b712-17dbd6144e86","system_id":"levelo_inurba_marseille","lat":43.28459,"lon":5.35894,"is_reserved":false,"is_disabled":false,"rental_uris":{"android":"levelo://app?vid=8e0e94a6-1b64-427e-b712-17dbd6144e86","ios":"levelo://app?vid=8e0e94a6-1b64-427e-b712-17dbd6144e86"},"vehicle_type_id":"4","last_reported":1761401314,"current_range_meters":7200,"station_id":"ce4bhah2rcd13ifvqei0","pricing_plan_id":"cebpf4jnsgd1na2vs0mg"},{"bike_id":"9881c788-42a8-46f5-8ccc-580a73583155","system_id":"levelo_inurba_marseille","lat":43.32082,"lon":5.40908,"is_reserved":false,"is_disabled":false,"rental_uris":{"android":"levelo://app?vid=9881c788-42a8-46f5-8ccc-580a73583155","ios":"levelo://app?vid=9881c788-42a8-46f5-8ccc-580a73583155"},"vehicle_type_id":"4","last_reported":1761401314,"current_range_meters":7200,"station_id":"","pricing_plan_id":"cebpf4jnsgd1na2vs0mg"},{"bike_id":"4d535fb0-d128-48ca-8bd6-14744b25473b","system_id":"levelo_inurba_marseille","lat":43.243824,"lon":5.370703,"is_reserved":false,"is_disabled":false,"rental_uris":{"android":"levelo://app?vid=4d535fb0-d128-48ca-8bd6-14744b25473b","ios":"levelo://app?vid=4d535fb0-d128-48ca-8bd6-14744b25473b"},"vehicle_type_id":"4","last_reported":1761401314,"current_range_meters":7200,"station_id":"ce4bhhh2rcd13ifvqfk0","pricing_plan_id":"cebpf4jnsgd1na2vs0mg"},{"bike_id":"e6f66958-5280-4ef5-902b-07fabfaf9132","system_id":"levelo_inurba_marseille","lat":43.28967,"lon":5.37845,"is_reserved":false,"is_disabled":false,"rental_uris":{"android":"levelo://app?vid=e6f66958-5280-4ef5-902b-07fabfaf9132","ios":"levelo://app?vid=e6f66958-5280-4ef5-902b-07fabfaf9132"},"vehicle_type_id":"4","last_reported":1761401314,"current_range_meters":8000,"station_id":"ce4bh9p2rcd13ifvqed0","pricing_plan_id":"cebpf4jnsgd1na2vs0mg"},{"bike_id":"09b2aaf0-fa5c-49c7-b735-4dfc548f1a22","system_id":"levelo_inurba_marseille","lat":43.28713,"lon":5.37942,"is_reserved":false,"is_disabled":false,"rental_uris":{"android":"levelo://app?vid=09b2aaf0-fa5c-49c7-b735-4dfc548f1a22","ios":"levelo://app?vid=09b2aaf0-fa5c-49c7-b735-4dfc548f1a22"},"vehicle_type_id":"4","last_reported":1761401314,"current_range_meters":8000,"station_id":"ce4bh9p2rcd13ifvqec0","pricing_plan_id":"cebpf4jnsgd1na2vs0mg"},{"bike_id":"2842f5fd-7b05-4b47-909c-5ee54d7d3bc5","system_id":"levelo_inurba_marseille","lat":43.32454,"lon":5.42822,"is_reserved":false,"is_disabled":false,"rental_uris":{"android":"levelo://app?vid=2842f5fd-7b05-4b47-909c-5ee54d7d3bc5","ios":"levelo://app?vid=2842f5fd-7b05-4b47-909c-5ee54d7d3bc5"},"vehicle_type_id":"4","last_reported":1761401314,"current_range_meters":8000,"station_id":"","pricing_plan_id":"cebpf4jnsgd1na2vs0mg"},{"bike_id":"da5ec092-2438-4dd2-a625-8fc0f3baf6af","system_id":"levelo_inurba_marseille","lat":43.33722,"lon":5.36287,"is_reserved":false,"is_disabled":false,"rental_uris":{"android":"levelo://app?vid=da5ec092-2438-4dd2-a625-8fc0f3baf6af","ios":"levelo://app?vid=da5ec092-2438-4dd2-a625-8fc0f3baf6af"},"vehicle_type_id":"4","last_reported":1761401314,"current_range_meters":8000,"station_id":"","pricing_plan_id":"cebpf4jnsgd1na2vs0mg"},{"bike_id":"5c71f7e7-b5e3-4001-be36-5eeeea8002ce","system_id":"levelo_inurba_marseille","lat":43.28932,"lon":5.3664,"is_reserved":false,"is_disabled":false,"rental_uris":{"android":"levelo://app?vid=5c71f7e7-b5e3-4001-be36-5eeeea8002ce","ios":"levelo://app?vid=5c71f7e7-b5e3-4001-be36-5eeeea8002ce"},"vehicle_type_id":"4","last_reported":1761401314,"current_range_meters":8000,"station_id":"ce4bhap2rcd13ifvqek0","pricing_plan_id":"cebpf4jnsgd1na2vs0mg"},{"bike_id":"61077500-fdc2-4b6c-8e26-edc48e82236e","system_id":"levelo_inurba_marseille","lat":43.30539,"lon":5.3651,"is_reserved":false,"is_disabled":false,"rental_uris":{"android":"levelo://app?vid=61077500-fdc2-4b6c-8e26-edc48e82236e","ios":"levelo://app?vid=61077500-fdc2-4b6c-8e26-edc48e82236e"},"vehicle_type_id":"4","last_reported":1761401314,"current_range_meters":8000,"station_id":"ce4bgs12rcd13ifvqcag","pricing_plan_id":"cebpf4jnsgd1na2vs0mg"},{"bike_id":"ec8b4e3d-9494-4477-9d94-6cdd43e9ede1","system_id":"levelo_inurba_marseille","lat":43.26943,"lon":5.38624,"is_reserved":false,"is_disabled":false,"rental_uris":{"android":"levelo://app?vid=ec8b4e3d-9494-4477-9d94-6cdd43e9ede1","ios":"levelo://app?vid=ec8b4e3d-9494-4477-9d94-6cdd43e9ede1"},"vehicle_type_id":"4","last_reported":1761401314,"current_range_meters":8400,"station_id":"ce4bhh92rcd13ifvqfh0","pricing_plan_id":"cebpf4jnsgd1na2vs0mg"},{"bike_id":"52b8d3b2-a470-422d-bd2b-e1c4cf518509","system_id":"levelo_inurba_marseille","lat":43.264841,"lon":5.395467,"is_reserved":false,"is_disabled":true,"rental_uris":{"android":"levelo://app?vid=52b8d3b2-a470-422d-bd2b-e1c4cf518509","ios":"levelo://app?vid=52b8d3b2-a470-422d-bd2b-e1c4cf518509"},"vehicle_type_id":"4","last_reported":1761401314,"current_range_meters":8400,"station_id":"ce4bhi12rcd13ifvqfq0","pricing_plan_id":"cebpf4jnsgd1na2vs0mg"},{"bike_id":"d3ae7a89-5329-4891-b9ef-aff90a8306f9","system_id":"levelo_inurba_marseille","lat":43.24181,"lon":5.39727,"is_reserved":false,"is_disabled":false,"rental_uris":{"android":"levelo://app?vid=d3ae7a89-5329-4891-b9ef-aff90a8306f9","ios":"levelo://app?vid=d3ae7a89-5329-4891-b9ef-aff90a8306f9"},"vehicle_type_id":"4","last_reported":1761401314,"current_range_meters":8400,"station_id":"ce4bhn12rcd13ifvqgpg","pricing_plan_id":"cebpf4jnsgd1na2vs0mg"},{"bike_id":"b60a04bc-7822-428a-8070-ed3398f7b5f5","system_id":"levelo_inurba_marseille","lat":43.24392,"lon":5.37054,"is_reserved":false,"is_disabled":false,"rental_uris":{"android":"levelo://app?vid=b60a04bc-7822-428a-8070-ed3398f7b5f5","ios":"levelo://app?vid=b60a04bc-7822-428a-8070-ed3398f7b5f5"},"vehicle_type_id":"4","last_reported":1761401314,"current_range_meters":8400,"station_id":"ce4bhhh2rcd13ifvqfk0","pricing_plan_id":"cebpf4jnsgd1na2vs0mg"},{"bike_id":"e35e1247-2ec0-4206-a360-6aaa534a130f","system_id":"levelo_inurba_marseille","lat":43.28487,"lon":5.48412,"is_reserved":false,"is_disabled":false,"rental_uris":{"android":"levelo://app?vid=e35e1247-2ec0-4206-a360-6aaa534a130f","ios":"levelo://app?vid=e35e1247-2ec0-4206-a360-6aaa534a130f"},"vehicle_type_id":"4","last_reported":1761401314,"current_range_meters":8400,"station_id":"st_d3svhcjqgbts73a3dn0g","pricing_plan_id":"cebpf4jnsgd1na2vs0mg"},{"bike_id":"575efb12-7b12-4f03-93a1-37f6c5ef750e","system_id":"levelo_inurba_marseille","lat":43.296605,"lon":5.427516,"is_reserved":false,"is_disabled":false,"rental_uris":{"android":"levelo://app?vid=575efb12-7b12-4f03-93a1-37f6c5ef750e","ios":"levelo://app?vid=575efb12-7b12-4f03-93a1-37f6c5ef750e"},"vehicle_type_id":"4","last_reported":1761401314,"current_range_meters":8400,"station_id":"","pricing_plan_id":"cebpf4jnsgd1na2vs0mg"},{"bike_id":"042ea050-8645-4b89-9aa3-afa448536b97","system_id":"levelo_inurba_marseille","lat":43.29293,"lon":5.37459,"is_reserved":false,"is_disabled":false,"rental_uris":{"android":"levelo://app?vid=042ea050-8645-4b89-9aa3-afa448536b97","ios":"levelo://app?vid=042ea050-8645-4b89-9aa3-afa448536b97"},"vehicle_type_id":"4","last_reported":1761401314,"current_range_meters":8800,"station_id":"ce4bgi12rcd13ifvqb70","pricing_plan_id":"cebpf4jnsgd1na2vs0mg"},{"bike_id":"5f9debc0-c360-4a2e-b517-592e9a0c2818","system_id":"levelo_inurba_marseille","lat":43.32935,"lon":5.428,"is_reserved":false,"is_disabled":false,"rental_uris":{"android":"levelo://app?vid=5f9debc0-c360-4a2e-b517-592e9a0c2818","ios":"levelo://app?vid=5f9debc0-c360-4a2e-b517-592e9a0c2818"},"vehicle_type_id":"4","last_reported":1761401314,"current_range_meters":8800,"station_id":"","pricing_plan_id":"cebpf4jnsgd1na2vs0mg"},{"bike_id":"32ce9492-4637-4d6e-a292-cd351db28377","system_id":"levelo_inurba_marseille","lat":43.330261,"lon":5.390411,"is_reserved":false,"is_disabled":false,"rental_uris":{"android":"levelo://app?vid=32ce9492-4637-4d6e-a292-cd351db28377","ios":"levelo://app?vid=32ce9492-4637-4d6e-a292-cd351db28377"},"vehicle_type_id":"4","last_reported":1761401314,"current_range_meters":8800,"station_id":"","pricing_plan_id":"cebpf4jnsgd1na2vs0mg"},{"bike_id":"0f403d1c-bcd9-4c57-a735-4cd04c31fb9d","system_id":"levelo_inurba_marseille","lat":43.297121,"lon":5.376919,"is_reserved":false,"is_disabled":false,"rental_uris":{"android":"levelo://app?vid=0f403d1c-bcd9-4c57-a735-4cd04c31fb9d","ios":"levelo://app?vid=0f403d1c-bcd9-4c57-a735-4cd04c31fb9d"},"vehicle_type_id":"4","last_reported":1761401314,"current_range_meters":8800,"station_id":"ce4bgkh2rcd13ifvqbl0","pricing_plan_id":"cebpf4jnsgd1na2vs0mg"},{"bike_id":"0beb5de7-33ee-4b74-89f3-db8776f1bdb3","system_id":"levelo_inurba_marseille","lat":43.29167,"lon":5.37149,"is_reserved":false,"is_disabled":false,"rental_uris":{"android":"levelo://app?vid=0beb5de7-33ee-4b74-89f3-db8776f1bdb3","ios":"levelo://app?vid=0beb5de7-33ee-4b74-89f3-db8776f1bdb3"},"vehicle_type_id":"4","last_reported":1761401314,"current_range_meters":8800,"station_id":"ce4bha92rcd13ifvqeh0","pricing_plan_id":"cebpf4jnsgd1na2vs0mg"},{"bike_id":"5a9ad3d6-9cae-4728-9f40-ff8723a3349d","system_id":"levelo_inurba_marseille","lat":43.24647,"lon":5.38887,"is_reserved":false,"is_disabled":false,"rental_uris":{"android":"levelo://app?vid=5a9ad3d6-9cae-4728-9f40-ff8723a3349d","ios":"levelo://app?vid=5a9ad3d6-9cae-4728-9f40-ff8723a3349d"},"vehicle_type_id":"4","last_reported":1761401314,"current_range_meters":8800,"station_id":"ce4bhg12rcd13ifvqf60","pricing_plan_id":"cebpf4jnsgd1na2vs0mg"},{"bike_id":"48f55e23-0f8d-4217-bb7b-b55dd2255037","system_id":"levelo_inurba_marseille","lat":43.21741,"lon":5.34618,"is_reserved":false,"is_disabled":false,"rental_uris":{"android":"levelo://app?vid=48f55e23-0f8d-4217-bb7b-b55dd2255037","ios":"levelo://app?vid=48f55e23-0f8d-4217-bb7b-b55dd2255037"},"vehicle_type_id":"4","last_reported":1761401314,"current_range_meters":8800,"station_id":"st_cvj6r9ubvosntc0bgbag","pricing_plan_id":"cebpf4jnsgd1na2vs0mg"},{"bike_id":"6fabc79b-dbf2-4176-9803-5e7530a78952","system_id":"levelo_inurba_marseille","lat":43.29968,"lon":5.37175,"is_reserved":false,"is_disabled":false,"rental_uris":{"android":"levelo://app?vid=6fabc79b-dbf2-4176-9803-5e7530a78952","ios":"levelo://app?vid=6fabc79b-dbf2-4176-9803-5e7530a78952"},"vehicle_type_id":"4","last_reported":1761401314,"current_range_meters":9200,"station_id":"ce4bgr92rcd13ifvqc7g","pricing_plan_id":"cebpf4jnsgd1na2vs0mg"},{"bike_id":"6398fd05-47e5-41f8-95bf-116d17d1d757","system_id":"levelo_inurba_marseille","lat":43.292603,"lon":5.384447,"is_reserved":false,"is_disabled":false,"rental_uris":{"android":"levelo://app?vid=6398fd05-47e5-41f8-95bf-116d17d1d757","ios":"levelo://app?vid=6398fd05-47e5-41f8-95bf-116d17d1d757"},"vehicle_type_id":"4","last_reported":1761401314,"current_range_meters":9600,"station_id":"","pricing_plan_id":"cebpf4jnsgd1na2vs0mg"},{"bike_id":"7ae607b8-f836-4784-b156-e29ffc7ef245","system_id":"levelo_inurba_marseille","lat":43.23054,"lon":5.35493,"is_reserved":false,"is_disabled":false,"rental_uris":{"android":"levelo://app?vid=7ae607b8-f836-4784-b156-e29ffc7ef245","ios":"levelo://app?vid=7ae607b8-f836-4784-b156-e29ffc7ef245"},"vehicle_type_id":"4","last_reported":1761401314,"current_range_meters":9600,"station_id":"cpo3342slgdg3j2ifvpg","pricing_plan_id":"cebpf4jnsgd1na2vs0mg"},{"bike_id":"1d3dcee3-dcf5-4ac8-a221-fdf8b7d71474","system_id":"levelo_inurba_marseille","lat":43.21741,"lon":5.34605,"is_reserved":false,"is_disabled":false,"rental_uris":{"android":"levelo://app?vid=1d3dcee3-dcf5-4ac8-a221-fdf8b7d71474","ios":"levelo://app?vid=1d3dcee3-dcf5-4ac8-a221-fdf8b7d71474"},"vehicle_type_id":"4","last_reported":1761401314,"current_range_meters":9600,"station_id":"st_cvj6r9ubvosntc0bgbag","pricing_plan_id":"cebpf4jnsgd1na2vs0mg"},{"bike_id":"74dfeaf5-68d6-4ce4-a7c2-e3e948271398","system_id":"levelo_inurba_marseille","lat":43.32288,"lon":5.3827,"is_reserved":false,"is_disabled":false,"rental_uris":{"android":"levelo://app?vid=74dfeaf5-68d6-4ce4-a7c2-e3e948271398","ios":"levelo://app?vid=74dfeaf5-68d6-4ce4-a7c2-e3e948271398"},"vehicle_type_id":"4","last_reported":1761401314,"current_range_meters":9600,"station_id":"ce4bhr12rcd13ifvqhqg","pricing_plan_id":"cebpf4jnsgd1na2vs0mg"},{"bike_id":"d725189d-c325-4380-b9df-225ae7c7309f","system_id":"levelo_inurba_marseille","lat":43.29573,"lon":5.36732,"is_reserved":false,"is_disabled":false,"rental_uris":{"android":"levelo://app?vid=d725189d-c325-4380-b9df-225ae7c7309f","ios":"levelo://app?vid=d725189d-c325-4380-b9df-225ae7c7309f"},"vehicle_type_id":"4","last_reported":1761401314,"current_range_meters":9600,"station_id":"ce4bgph2rcd13ifvqc2g","pricing_plan_id":"cebpf4jnsgd1na2vs0mg"},{"bike_id":"779b4c1b-e47b-45e0-b2a1-5df4bf9bf0da","system_id":"levelo_inurba_marseille","lat":43.21737,"lon":5.34602,"is_reserved":false,"is_disabled":false,"rental_uris":{"android":"levelo://app?vid=779b4c1b-e47b-45e0-b2a1-5df4bf9bf0da","ios":"levelo://app?vid=779b4c1b-e47b-45e0-b2a1-5df4bf9bf0da"},"vehicle_type_id":"4","last_reported":1761401314,"current_range_meters":9600,"station_id":"st_cvj6r9ubvosntc0bgbag","pricing_plan_id":"cebpf4jnsgd1na2vs0mg"},{"bike_id":"1aea99e3-391b-4761-9e33-b899e7eefb76","system_id":"levelo_inurba_marseille","lat":43.29978,"lon":5.41334,"is_reserved":false,"is_disabled":false,"rental_uris":{"android":"levelo://app?vid=1aea99e3-391b-4761-9e33-b899e7eefb76","ios":"levelo://app?vid=1aea99e3-391b-4761-9e33-b899e7eefb76"},"vehicle_type_id":"4","last_reported":1761401314,"current_range_meters":10000,"station_id":"ce4bhp12rcd13ifvqh9g","pricing_plan_id":"cebpf4jnsgd1na2vs0mg"},{"bike_id":"4f5c5045-2f2c-4ab7-ad8b-eeba1d52fe66","system_id":"levelo_inurba_marseille","lat":43.29602,"lon":5.36594,"is_reserved":false,"is_disabled":false,"rental_uris":{"android":"levelo://app?vid=4f5c5045-2f2c-4ab7-ad8b-eeba1d52fe66","ios":"levelo://app?vid=4f5c5045-2f2c-4ab7-ad8b-eeba1d52fe66"},"vehicle_type_id":"4","last_reported":1761401314,"current_range_meters":10000,"station_id":"","pricing_plan_id":"cebpf4jnsgd1na2vs0mg"},{"bike_id":"e94f57f2-601c-4cad-a187-6e953770aa25","system_id":"levelo_inurba_marseille","lat":43.31201,"lon":5.37836,"is_reserved":false,"is_disabled":false,"rental_uris":{"android":"levelo://app?vid=e94f57f2-601c-4cad-a187-6e953770aa25","ios":"levelo://app?vid=e94f57f2-601c-4cad-a187-6e953770aa25"},"vehicle_type_id":"4","last_reported":1761401314,"current_range_meters":10000,"station_id":"","pricing_plan_id":"cebpf4jnsgd1na2vs0mg"},{"bike_id":"55ef718f-2678-4d74-b7a2-251b09394b1a","system_id":"levelo_inurba_marseille","lat":43.231519,"lon":5.355286,"is_reserved":false,"is_disabled":false,"rental_uris":{"android":"levelo://app?vid=55ef718f-2678-4d74-b7a2-251b09394b1a","ios":"levelo://app?vid=55ef718f-2678-4d74-b7a2-251b09394b1a"},"vehicle_type_id":"4","last_reported":1761401314,"current_range_meters":10000,"station_id":"ce4bhu92rcd13ifvqi70","pricing_plan_id":"cebpf4jnsgd1na2vs0mg"},{"bike_id":"2c4902e4-93ef-443f-b4c7-48a16be8a31a","system_id":"levelo_inurba_marseille","lat":43.29619,"lon":5.3773,"is_reserved":false,"is_disabled":false,"rental_uris":{"android":"levelo://app?vid=2c4902e4-93ef-443f-b4c7-48a16be8a31a","ios":"levelo://app?vid=2c4902e4-93ef-443f-b4c7-48a16be8a31a"},"vehicle_type_id":"4","last_reported":1761401314,"current_range_meters":10000,"station_id":"ce4bgi92rcd13ifvqb90","pricing_plan_id":"cebpf4jnsgd1na2vs0mg"},{"bike_id":"69599b97-b573-4868-ae16-9bda40c9248f","system_id":"levelo_inurba_marseille","lat":43.2117,"lon":5.35091,"is_reserved":false,"is_disabled":false,"rental_uris":{"android":"levelo://app?vid=69599b97-b573-4868-ae16-9bda40c9248f","ios":"levelo://app?vid=69599b97-b573-4868-ae16-9bda40c9248f"},"vehicle_type_id":"4","last_reported":1761401314,"current_range_meters":10800,"station_id":"st_cvj6sg6p6f1abm77japg","pricing_plan_id":"cebpf4jnsgd1na2vs0mg"},{"bike_id":"61a84806-f053-4824-85f1-63bf9bd2027a","system_id":"levelo_inurba_marseille","lat":43.2736,"lon":5.36248,"is_reserved":false,"is_disabled":false,"rental_uris":{"android":"levelo://app?vid=61a84806-f053-4824-85f1-63bf9bd2027a","ios":"levelo://app?vid=61a84806-f053-4824-85f1-63bf9bd2027a"},"vehicle_type_id":"4","last_reported":1761401314,"current_range_meters":10800,"station_id":"ce4bhbh2rcd13ifvqeo0","pricing_plan_id":"cebpf4jnsgd1na2vs0mg"},{"bike_id":"2fa8e57b-e400-4898-83bc-c9dd4c795689","system_id":"levelo_inurba_marseille","lat":43.2293,"lon":5.35374,"is_reserved":false,"is_disabled":false,"rental_uris":{"android":"levelo://app?vid=2fa8e57b-e400-4898-83bc-c9dd4c795689","ios":"levelo://app?vid=2fa8e57b-e400-4898-83bc-c9dd4c795689"},"vehicle_type_id":"4","last_reported":1761401314,"current_range_meters":10800,"station_id":"cpo3532slgdg3j2ikp40","pricing_plan_id":"cebpf4jnsgd1na2vs0mg"},{"bike_id":"b62556da-d4b8-44e8-b732-f39f4931080a","system_id":"levelo_inurba_marseille","lat":43.211934,"lon":5.350728,"is_reserved":false,"is_disabled":false,"rental_uris":{"android":"levelo://app?vid=b62556da-d4b8-44e8-b732-f39f4931080a","ios":"levelo://app?vid=b62556da-d4b8-44e8-b732-f39f4931080a"},"vehicle_type_id":"4","last_reported":1761401314,"current_range_meters":10800,"station_id":"","pricing_plan_id":"cebpf4jnsgd1na2vs0mg"},{"bike_id":"7b823024-6114-403c-afba-fba402be6f62","system_id":"levelo_inurba_marseille","lat":43.27216,"lon":5.39172,"is_reserved":false,"is_disabled":false,"rental_uris":{"android":"levelo://app?vid=7b823024-6114-403c-afba-fba402be6f62","ios":"levelo://app?vid=7b823024-6114-403c-afba-fba402be6f62"},"vehicle_type_id":"4","last_reported":1761401314,"current_range_meters":10800,"station_id":"ce4bhhp2rcd13ifvqfm0","pricing_plan_id":"cebpf4jnsgd1na2vs0mg"},{"bike_id":"75ca35d3-86f0-45ac-b44b-1b22b815c7cd","system_id":"levelo_inurba_marseille","lat":43.23064,"lon":5.3551,"is_reserved":false,"is_disabled":false,"rental_uris":{"android":"levelo://app?vid=75ca35d3-86f0-45ac-b44b-1b22b815c7cd","ios":"levelo://app?vid=75ca35d3-86f0-45ac-b44b-1b22b815c7cd"},"vehicle_type_id":"4","last_reported":1761401314,"current_range_meters":11200,"station_id":"cpo3342slgdg3j2ifvpg","pricing_plan_id":"cebpf4jnsgd1na2vs0mg"},{"bike_id":"a394d3d5-da30-47c0-9006-72b2500fc633","system_id":"levelo_inurba_marseille","lat":43.29624,"lon":5.3771,"is_reserved":false,"is_disabled":false,"rental_uris":{"android":"levelo://app?vid=a394d3d5-da30-47c0-9006-72b2500fc633","ios":"levelo://app?vid=a394d3d5-da30-47c0-9006-72b2500fc633"},"vehicle_type_id":"4","last_reported":1761401314,"current_range_meters":11200,"station_id":"ce4bgi92rcd13ifvqb90","pricing_plan_id":"cebpf4jnsgd1na2vs0mg"},{"bike_id":"14a10596-1554-4130-9315-fc73e0165002","system_id":"levelo_inurba_marseille","lat":43.26806,"lon":5.4027,"is_reserved":false,"is_disabled":false,"rental_uris":{"android":"levelo://app?vid=14a10596-1554-4130-9315-fc73e0165002","ios":"levelo://app?vid=14a10596-1554-4130-9315-fc73e0165002"},"vehicle_type_id":"4","last_reported":1761401314,"current_range_meters":11200,"station_id":"ce501612rcd8frsf0b60","pricing_plan_id":"cebpf4jnsgd1na2vs0mg"},{"bike_id":"66609326-d1f6-41ab-a12a-4507fce96ad6","system_id":"levelo_inurba_marseille","lat":43.23785,"lon":5.36629,"is_reserved":false,"is_disabled":false,"rental_uris":{"android":"levelo://app?vid=66609326-d1f6-41ab-a12a-4507fce96ad6","ios":"levelo://app?vid=66609326-d1f6-41ab-a12a-4507fce96ad6"},"vehicle_type_id":"4","last_reported":1761401314,"current_range_meters":11200,"station_id":"st_d3nk18o9ro0c73en2l3g","pricing_plan_id":"cebpf4jnsgd1na2vs0mg"},{"bike_id":"8ae016d7-82f4-4601-a644-18f97b008298","system_id":"levelo_inurba_marseille","lat":43.29774,"lon":5.37099,"is_reserved":false,"is_disabled":false,"rental_uris":{"android":"levelo://app?vid=8ae016d7-82f4-4601-a644-18f97b008298","ios":"levelo://app?vid=8ae016d7-82f4-4601-a644-18f97b008298"},"vehicle_type_id":"4","last_reported":1761401314,"current_range_meters":11600,"station_id":"ce4bgop2rcd13ifvqc1g","pricing_plan_id":"cebpf4jnsgd1na2vs0mg"},{"bike_id":"72595d14-8f84-4de5-a9ab-f8151c131960","system_id":"levelo_inurba_marseille","lat":43.22929,"lon":5.35365,"is_reserved":false,"is_disabled":false,"rental_uris":{"android":"levelo://app?vid=72595d14-8f84-4de5-a9ab-f8151c131960","ios":"levelo://app?vid=72595d14-8f84-4de5-a9ab-f8151c131960"},"vehicle_type_id":"4","last_reported":1761401314,"current_range_meters":11600,"station_id":"cpo3532slgdg3j2ikp40","pricing_plan_id":"cebpf4jnsgd1na2vs0mg"},{"bike_id":"f623cc94-b1f6-4d32-a7be-ded60346df0e","system_id":"levelo_inurba_marseille","lat":43.29527,"lon":5.3903,"is_reserved":false,"is_disabled":false,"rental_uris":{"android":"levelo://app?vid=f623cc94-b1f6-4d32-a7be-ded60346df0e","ios":"levelo://app?vid=f623cc94-b1f6-4d32-a7be-ded60346df0e"},"vehicle_type_id":"4","last_reported":1761401314,"current_range_meters":11600,"station_id":"ce4bh3p2rcd13ifvqdp0","pricing_plan_id":"cebpf4jnsgd1na2vs0mg"},{"bike_id":"c70a5567-5460-4c31-a070-7544e706941c","system_id":"levelo_inurba_marseille","lat":43.22559,"lon":5.41653,"is_reserved":false,"is_disabled":false,"rental_uris":{"android":"levelo://app?vid=c70a5567-5460-4c31-a070-7544e706941c","ios":"levelo://app?vid=c70a5567-5460-4c31-a070-7544e706941c"},"vehicle_type_id":"4","last_reported":1761401314,"current_range_meters":11600,"station_id":"st_d2o4gvlbi1j2169b742g","pricing_plan_id":"cebpf4jnsgd1na2vs0mg"},{"bike_id":"9d964ec4-c537-4f1d-b21c-451d3f46b1bf","system_id":"levelo_inurba_marseille","lat":43.29879,"lon":5.37867,"is_reserved":false,"is_disabled":false,"rental_uris":{"android":"levelo://app?vid=9d964ec4-c537-4f1d-b21c-451d3f46b1bf","ios":"levelo://app?vid=9d964ec4-c537-4f1d-b21c-451d3f46b1bf"},"vehicle_type_id":"4","last_reported":1761401314,"current_range_meters":11600,"station_id":"","pricing_plan_id":"cebpf4jnsgd1na2vs0mg"},{"bike_id":"420b6971-47e2-4c67-8bd0-faa4f00e5ca7","system_id":"levelo_inurba_marseille","lat":43.299649,"lon":5.41319,"is_reserved":false,"is_disabled":false,"rental_uris":{"android":"levelo://app?vid=420b6971-47e2-4c67-8bd0-faa4f00e5ca7","ios":"levelo://app?vid=420b6971-47e2-4c67-8bd0-faa4f00e5ca7"},"vehicle_type_id":"4","last_reported":1761401314,"current_range_meters":12000,"station_id":"","pricing_plan_id":"cebpf4jnsgd1na2vs0mg"},{"bike_id":"4f6d245d-0277-4f24-8760-3d192a819e3d","system_id":"levelo_inurba_marseille","lat":43.27186,"lon":5.40993,"is_reserved":false,"is_disabled":false,"rental_uris":{"android":"levelo://app?vid=4f6d245d-0277-4f24-8760-3d192a819e3d","ios":"levelo://app?vid=4f6d245d-0277-4f24-8760-3d192a819e3d"},"vehicle_type_id":"4","last_reported":1761401314,"current_range_meters":12000,"station_id":"ce4bhl12rcd13ifvqgf0","pricing_plan_id":"cebpf4jnsgd1na2vs0mg"},{"bike_id":"fa063608-29c2-42ab-95b5-2fc82231eea9","system_id":"levelo_inurba_marseille","lat":43.211831,"lon":5.350732,"is_reserved":false,"is_disabled":true,"rental_uris":{"android":"levelo://app?vid=fa063608-29c2-42ab-95b5-2fc82231eea9","ios":"levelo://app?vid=fa063608-29c2-42ab-95b5-2fc82231eea9"},"vehicle_type_id":"4","last_reported":1761401314,"current_range_meters":12000,"station_id":"st_cvj6sg6p6f1abm77japg","pricing_plan_id":"cebpf4jnsgd1na2vs0mg"},{"bike_id":"36f6cdca-552f-439a-8720-2ce7fbad2722","system_id":"levelo_inurba_marseille","lat":43.21194,"lon":5.35078,"is_reserved":false,"is_disabled":false,"rental_uris":{"android":"levelo://app?vid=36f6cdca-552f-439a-8720-2ce7fbad2722","ios":"levelo://app?vid=36f6cdca-552f-439a-8720-2ce7fbad2722"},"vehicle_type_id":"4","last_reported":1761401314,"current_range_meters":12400,"station_id":"st_cvj6sg6p6f1abm77japg","pricing_plan_id":"cebpf4jnsgd1na2vs0mg"},{"bike_id":"8be6a47c-9542-4fed-8109-f6d91a0f2b3f","system_id":"levelo_inurba_marseille","lat":43.29174,"lon":5.37161,"is_reserved":false,"is_disabled":false,"rental_uris":{"android":"levelo://app?vid=8be6a47c-9542-4fed-8109-f6d91a0f2b3f","ios":"levelo://app?vid=8be6a47c-9542-4fed-8109-f6d91a0f2b3f"},"vehicle_type_id":"4","last_reported":1761401314,"current_range_meters":12400,"station_id":"ce4bha92rcd13ifvqeh0","pricing_plan_id":"cebpf4jnsgd1na2vs0mg"},{"bike_id":"be19196c-43ec-4fbd-9fb6-64ed8310544e","system_id":"levelo_inurba_marseille","lat":43.2869,"lon":5.37415,"is_reserved":false,"is_disabled":false,"rental_uris":{"android":"levelo://app?vid=be19196c-43ec-4fbd-9fb6-64ed8310544e","ios":"levelo://app?vid=be19196c-43ec-4fbd-9fb6-64ed8310544e"},"vehicle_type_id":"4","last_reported":1761401314,"current_range_meters":12400,"station_id":"ce4bh3p2rcd13ifvqdq0","pricing_plan_id":"cebpf4jnsgd1na2vs0mg"},{"bike_id":"c1ec6389-49d8-45a2-bcc8-528b10f21d8f","system_id":"levelo_inurba_marseille","lat":43.2841,"lon":5.34998,"is_reserved":false,"is_disabled":false,"rental_uris":{"android":"levelo://app?vid=c1ec6389-49d8-45a2-bcc8-528b10f21d8f","ios":"levelo://app?vid=c1ec6389-49d8-45a2-bcc8-528b10f21d8f"},"vehicle_type_id":"4","last_reported":1761401314,"current_range_meters":12400,"station_id":"ce4bhbh2rcd13ifvqepg","pricing_plan_id":"cebpf4jnsgd1na2vs0mg"},{"bike_id":"67804b34-092a-40c7-8497-bc245b22217a","system_id":"levelo_inurba_marseille","lat":43.24181,"lon":5.39733,"is_reserved":false,"is_disabled":false,"rental_uris":{"android":"levelo://app?vid=67804b34-092a-40c7-8497-bc245b22217a","ios":"levelo://app?vid=67804b34-092a-40c7-8497-bc245b22217a"},"vehicle_type_id":"4","last_reported":1761401314,"current_range_meters":12800,"station_id":"ce4bhn12rcd13ifvqgpg","pricing_plan_id":"cebpf4jnsgd1na2vs0mg"},{"bike_id":"106d0907-ea90-4fd3-a425-72139b0177e5","system_id":"levelo_inurba_marseille","lat":43.28372,"lon":5.38641,"is_reserved":false,"is_disabled":false,"rental_uris":{"android":"levelo://app?vid=106d0907-ea90-4fd3-a425-72139b0177e5","ios":"levelo://app?vid=106d0907-ea90-4fd3-a425-72139b0177e5"},"vehicle_type_id":"4","last_reported":1761401314,"current_range_meters":12800,"station_id":"ce4bh492rcd13ifvqdvg","pricing_plan_id":"cebpf4jnsgd1na2vs0mg"},{"bike_id":"43117888-69d1-4bc6-a73a-697554e4a08e","system_id":"levelo_inurba_marseille","lat":43.252553,"lon":5.378131,"is_reserved":false,"is_disabled":false,"rental_uris":{"android":"levelo://app?vid=43117888-69d1-4bc6-a73a-697554e4a08e","ios":"levelo://app?vid=43117888-69d1-4bc6-a73a-697554e4a08e"},"vehicle_type_id":"4","last_reported":1761401314,"current_range_meters":13600,"station_id":"","pricing_plan_id":"cebpf4jnsgd1na2vs0mg"},{"bike_id":"3310615f-aea1-494c-b320-aea612b2bbb0","system_id":"levelo_inurba_marseille","lat":43.24161,"lon":5.36391,"is_reserved":false,"is_disabled":false,"rental_uris":{"android":"levelo://app?vid=3310615f-aea1-494c-b320-aea612b2bbb0","ios":"levelo://app?vid=3310615f-aea1-494c-b320-aea612b2bbb0"},"vehicle_type_id":"4","last_reported":1761401314,"current_range_meters":13600,"station_id":"cpo36qri1sfpv3e86is0","pricing_plan_id":"cebpf4jnsgd1na2vs0mg"},{"bike_id":"8e92164c-deff-4fbd-9f4e-43ff81933572","system_id":"levelo_inurba_marseille","lat":43.29835,"lon":5.42035,"is_reserved":false,"is_disabled":false,"rental_uris":{"android":"levelo://app?vid=8e92164c-deff-4fbd-9f4e-43ff81933572","ios":"levelo://app?vid=8e92164c-deff-4fbd-9f4e-43ff81933572"},"vehicle_type_id":"4","last_reported":1761401314,"current_range_meters":13600,"station_id":"","pricing_plan_id":"cebpf4jnsgd1na2vs0mg"},{"bike_id":"3dd5840e-452f-4cdc-8e22-6d6a992991bd","system_id":"levelo_inurba_marseille","lat":43.303169,"lon":5.403045,"is_reserved":false,"is_disabled":false,"rental_uris":{"android":"levelo://app?vid=3dd5840e-452f-4cdc-8e22-6d6a992991bd","ios":"levelo://app?vid=3dd5840e-452f-4cdc-8e22-6d6a992991bd"},"vehicle_type_id":"4","last_reported":1761401314,"current_range_meters":13600,"station_id":"ce4bh012rcd13ifvqd10","pricing_plan_id":"cebpf4jnsgd1na2vs0mg"},{"bike_id":"a5124ea8-0986-4050-9d16-45672520e51f","system_id":"levelo_inurba_marseille","lat":43.29907,"lon":5.38161,"is_reserved":false,"is_disabled":false,"rental_uris":{"android":"levelo://app?vid=a5124ea8-0986-4050-9d16-45672520e51f","ios":"levelo://app?vid=a5124ea8-0986-4050-9d16-45672520e51f"},"vehicle_type_id":"4","last_reported":1761401314,"current_range_meters":14000,"station_id":"ce4bgj12rcd13ifvqbc0","pricing_plan_id":"cebpf4jnsgd1na2vs0mg"},{"bike_id":"59e0e55d-ae93-4c8a-989c-120e6e17d539","system_id":"levelo_inurba_marseille","lat":43.232084,"lon":5.355757,"is_reserved":false,"is_disabled":false,"rental_uris":{"android":"levelo://app?vid=59e0e55d-ae93-4c8a-989c-120e6e17d539","ios":"levelo://app?vid=59e0e55d-ae93-4c8a-989c-120e6e17d539"},"vehicle_type_id":"4","last_reported":1761401314,"current_range_meters":14000,"station_id":"","pricing_plan_id":"cebpf4jnsgd1na2vs0mg"},{"bike_id":"dab36927-4328-48fa-bffb-145a737de07e","system_id":"levelo_inurba_marseille","lat":43.30795,"lon":5.43532,"is_reserved":false,"is_disabled":true,"rental_uris":{"android":"levelo://app?vid=dab36927-4328-48fa-bffb-145a737de07e","ios":"levelo://app?vid=dab36927-4328-48fa-bffb-145a737de07e"},"vehicle_type_id":"4","last_reported":1761401314,"current_range_meters":14400,"station_id":"ce4bhph2rcd13ifvqheg","pricing_plan_id":"cebpf4jnsgd1na2vs0mg"},{"bike_id":"8860b08b-9657-4f09-af2d-9171cd8f5719","system_id":"levelo_inurba_marseille","lat":43.25828,"lon":5.39438,"is_reserved":false,"is_disabled":false,"rental_uris":{"android":"levelo://app?vid=8860b08b-9657-4f09-af2d-9171cd8f5719","ios":"levelo://app?vid=8860b08b-9657-4f09-af2d-9171cd8f5719"},"vehicle_type_id":"4","last_reported":1761401314,"current_range_meters":14400,"station_id":"ce4bhip2rcd13ifvqft0","pricing_plan_id":"cebpf4jnsgd1na2vs0mg"},{"bike_id":"bd526bc9-3399-4417-b08a-848ddedfd2c0","system_id":"levelo_inurba_marseille","lat":43.30548,"lon":5.36533,"is_reserved":false,"is_disabled":false,"rental_uris":{"android":"levelo://app?vid=bd526bc9-3399-4417-b08a-848ddedfd2c0","ios":"levelo://app?vid=bd526bc9-3399-4417-b08a-848ddedfd2c0"},"vehicle_type_id":"4","last_reported":1761401314,"current_range_meters":14400,"station_id":"ce4bgs12rcd13ifvqcag","pricing_plan_id":"cebpf4jnsgd1na2vs0mg"},{"bike_id":"5dd7b59e-49e3-4339-a9d2-399fd79e8208","system_id":"levelo_inurba_marseille","lat":43.21738,"lon":5.34613,"is_reserved":false,"is_disabled":false,"rental_uris":{"android":"levelo://app?vid=5dd7b59e-49e3-4339-a9d2-399fd79e8208","ios":"levelo://app?vid=5dd7b59e-49e3-4339-a9d2-399fd79e8208"},"vehicle_type_id":"4","last_reported":1761401314,"current_range_meters":14400,"station_id":"st_cvj6r9ubvosntc0bgbag","pricing_plan_id":"cebpf4jnsgd1na2vs0mg"},{"bike_id":"9fa34d90-15fe-41c0-89ab-ffda3dbbb4f3","system_id":"levelo_inurba_marseille","lat":43.211909,"lon":5.350693,"is_reserved":false,"is_disabled":false,"rental_uris":{"android":"levelo://app?vid=9fa34d90-15fe-41c0-89ab-ffda3dbbb4f3","ios":"levelo://app?vid=9fa34d90-15fe-41c0-89ab-ffda3dbbb4f3"},"vehicle_type_id":"4","last_reported":1761401314,"current_range_meters":14400,"station_id":"ce4bhbh2rcd13ifvqepg","pricing_plan_id":"cebpf4jnsgd1na2vs0mg"},{"bike_id":"6a322503-c328-4f09-908a-a859c60f5299","system_id":"levelo_inurba_marseille","lat":43.292675,"lon":5.3685,"is_reserved":false,"is_disabled":false,"rental_uris":{"android":"levelo://app?vid=6a322503-c328-4f09-908a-a859c60f5299","ios":"levelo://app?vid=6a322503-c328-4f09-908a-a859c60f5299"},"vehicle_type_id":"4","last_reported":1761401314,"current_range_meters":14400,"station_id":"","pricing_plan_id":"cebpf4jnsgd1na2vs0mg"},{"bike_id":"1bab0008-fda4-43ca-b92c-4f7c02cbdf7a","system_id":"levelo_inurba_marseille","lat":43.29885,"lon":5.43646,"is_reserved":false,"is_disabled":false,"rental_uris":{"android":"levelo://app?vid=1bab0008-fda4-43ca-b92c-4f7c02cbdf7a","ios":"levelo://app?vid=1bab0008-fda4-43ca-b92c-4f7c02cbdf7a"},"vehicle_type_id":"4","last_reported":1761401314,"current_range_meters":14400,"station_id":"ce4bhpp2rcd13ifvqhfg","pricing_plan_id":"cebpf4jnsgd1na2vs0mg"},{"bike_id":"fc89677d-6cb8-4218-af2a-c67ff40a28ce","system_id":"levelo_inurba_marseille","lat":43.28414,"lon":5.34983,"is_reserved":false,"is_disabled":false,"rental_uris":{"android":"levelo://app?vid=fc89677d-6cb8-4218-af2a-c67ff40a28ce","ios":"levelo://app?vid=fc89677d-6cb8-4218-af2a-c67ff40a28ce"},"vehicle_type_id":"4","last_reported":1761401314,"current_range_meters":14400,"station_id":"ce4bhbh2rcd13ifvqepg","pricing_plan_id":"cebpf4jnsgd1na2vs0mg"},{"bike_id":"8c35a7e4-8378-4fdf-b42f-02e88b6199ca","system_id":"levelo_inurba_marseille","lat":43.32103,"lon":5.36774,"is_reserved":false,"is_disabled":false,"rental_uris":{"android":"levelo://app?vid=8c35a7e4-8378-4fdf-b42f-02e88b6199ca","ios":"levelo://app?vid=8c35a7e4-8378-4fdf-b42f-02e88b6199ca"},"vehicle_type_id":"4","last_reported":1761401314,"current_range_meters":14400,"station_id":"ce4bhrh2rcd13ifvqhug","pricing_plan_id":"cebpf4jnsgd1na2vs0mg"},{"bike_id":"2290b310-eddd-4819-8604-cc95e78bc1a3","system_id":"levelo_inurba_marseille","lat":43.291741,"lon":5.400099,"is_reserved":false,"is_disabled":false,"rental_uris":{"android":"levelo://app?vid=2290b310-eddd-4819-8604-cc95e78bc1a3","ios":"levelo://app?vid=2290b310-eddd-4819-8604-cc95e78bc1a3"},"vehicle_type_id":"4","last_reported":1761401314,"current_range_meters":14400,"station_id":"","pricing_plan_id":"cebpf4jnsgd1na2vs0mg"},{"bike_id":"76f93d09-72c3-4935-8f20-3a444a5f785f","system_id":"levelo_inurba_marseille","lat":43.29033,"lon":5.3864,"is_reserved":false,"is_disabled":false,"rental_uris":{"android":"levelo://app?vid=76f93d09-72c3-4935-8f20-3a444a5f785f","ios":"levelo://app?vid=76f93d09-72c3-4935-8f20-3a444a5f785f"},"vehicle_type_id":"4","last_reported":1761401314,"current_range_meters":14400,"station_id":"ce4bh4p2rcd13ifvqe0g","pricing_plan_id":"cebpf4jnsgd1na2vs0mg"},{"bike_id":"cd26ab16-3e3e-43ea-a563-05ea7a953084","system_id":"levelo_inurba_marseille","lat":43.31093,"lon":5.36758,"is_reserved":false,"is_disabled":false,"rental_uris":{"android":"levelo://app?vid=cd26ab16-3e3e-43ea-a563-05ea7a953084","ios":"levelo://app?vid=cd26ab16-3e3e-43ea-a563-05ea7a953084"},"vehicle_type_id":"4","last_reported":1761401314,"current_range_meters":14400,"station_id":"","pricing_plan_id":"cebpf4jnsgd1na2vs0mg"},{"bike_id":"66324002-ac07-4639-a5b9-e5336ed7fa39","system_id":"levelo_inurba_marseille","lat":43.28613,"lon":5.37059,"is_reserved":false,"is_disabled":false,"rental_uris":{"android":"levelo://app?vid=66324002-ac07-4639-a5b9-e5336ed7fa39","ios":"levelo://app?vid=66324002-ac07-4639-a5b9-e5336ed7fa39"},"vehicle_type_id":"4","last_reported":1761401314,"current_range_meters":14800,"station_id":"ce4bht12rcd13ifvqi60","pricing_plan_id":"cebpf4jnsgd1na2vs0mg"},{"bike_id":"2b07dbd5-8741-4147-a30f-d7c2c85a4db8","system_id":"levelo_inurba_marseille","lat":43.23786,"lon":5.36612,"is_reserved":false,"is_disabled":false,"rental_uris":{"android":"levelo://app?vid=2b07dbd5-8741-4147-a30f-d7c2c85a4db8","ios":"levelo://app?vid=2b07dbd5-8741-4147-a30f-d7c2c85a4db8"},"vehicle_type_id":"4","last_reported":1761401314,"current_range_meters":14800,"station_id":"st_d3nk18o9ro0c73en2l3g","pricing_plan_id":"cebpf4jnsgd1na2vs0mg"},{"bike_id":"d42fd5a8-68ec-4a84-9b28-46f60ec05f99","system_id":"levelo_inurba_marseille","lat":43.2886,"lon":5.35858,"is_reserved":false,"is_disabled":false,"rental_uris":{"android":"levelo://app?vid=d42fd5a8-68ec-4a84-9b28-46f60ec05f99","ios":"levelo://app?vid=d42fd5a8-68ec-4a84-9b28-46f60ec05f99"},"vehicle_type_id":"4","last_reported":1761401314,"current_range_meters":14800,"station_id":"ce4bhb12rcd13ifvqem0","pricing_plan_id":"cebpf4jnsgd1na2vs0mg"},{"bike_id":"130d12f0-febb-4e7a-87a1-3c368e76e7d2","system_id":"levelo_inurba_marseille","lat":43.31887,"lon":5.40736,"is_reserved":false,"is_disabled":false,"rental_uris":{"android":"levelo://app?vid=130d12f0-febb-4e7a-87a1-3c368e76e7d2","ios":"levelo://app?vid=130d12f0-febb-4e7a-87a1-3c368e76e7d2"},"vehicle_type_id":"4","last_reported":1761401314,"current_range_meters":15200,"station_id":"ce4bhq12rcd13ifvqhig","pricing_plan_id":"cebpf4jnsgd1na2vs0mg"},{"bike_id":"8e1001bf-14bf-4add-9e80-532070c873ea","system_id":"levelo_inurba_marseille","lat":43.255781,"lon":5.382364,"is_reserved":false,"is_disabled":false,"rental_uris":{"android":"levelo://app?vid=8e1001bf-14bf-4add-9e80-532070c873ea","ios":"levelo://app?vid=8e1001bf-14bf-4add-9e80-532070c873ea"},"vehicle_type_id":"4","last_reported":1761401314,"current_range_meters":15200,"station_id":"ce4bhih2rcd13ifvqfs0","pricing_plan_id":"cebpf4jnsgd1na2vs0mg"},{"bike_id":"17f2043e-9cf4-48a9-8f9c-5640a818ee14","system_id":"levelo_inurba_marseille","lat":43.2659,"lon":5.39045,"is_reserved":false,"is_disabled":false,"rental_uris":{"android":"levelo://app?vid=17f2043e-9cf4-48a9-8f9c-5640a818ee14","ios":"levelo://app?vid=17f2043e-9cf4-48a9-8f9c-5640a818ee14"},"vehicle_type_id":"4","last_reported":1761401314,"current_range_meters":15200,"station_id":"ce4bhe12rcd13ifvqf30","pricing_plan_id":"cebpf4jnsgd1na2vs0mg"},{"bike_id":"6c1586ec-8784-49e2-8793-82bc6333849d","system_id":"levelo_inurba_marseille","lat":43.304248,"lon":5.412807,"is_reserved":false,"is_disabled":false,"rental_uris":{"android":"levelo://app?vid=6c1586ec-8784-49e2-8793-82bc6333849d","ios":"levelo://app?vid=6c1586ec-8784-49e2-8793-82bc6333849d"},"vehicle_type_id":"4","last_reported":1761401314,"current_range_meters":16000,"station_id":"ce4bhop2rcd13ifvqh8g","pricing_plan_id":"cebpf4jnsgd1na2vs0mg"},{"bike_id":"a3259590-f3eb-4688-8b42-4bbfef069116","system_id":"levelo_inurba_marseille","lat":43.217428,"lon":5.346106,"is_reserved":false,"is_disabled":false,"rental_uris":{"android":"levelo://app?vid=a3259590-f3eb-4688-8b42-4bbfef069116","ios":"levelo://app?vid=a3259590-f3eb-4688-8b42-4bbfef069116"},"vehicle_type_id":"4","last_reported":1761401314,"current_range_meters":16000,"station_id":"","pricing_plan_id":"cebpf4jnsgd1na2vs0mg"},{"bike_id":"3f65a34c-678e-4645-8607-420241df6b4d","system_id":"levelo_inurba_marseille","lat":43.28271,"lon":5.35065,"is_reserved":false,"is_disabled":false,"rental_uris":{"android":"levelo://app?vid=3f65a34c-678e-4645-8607-420241df6b4d","ios":"levelo://app?vid=3f65a34c-678e-4645-8607-420241df6b4d"},"vehicle_type_id":"4","last_reported":1761401314,"current_range_meters":16000,"station_id":"ce4bhbp2rcd13ifvqerg","pricing_plan_id":"cebpf4jnsgd1na2vs0mg"},{"bike_id":"4e7a3a2a-d050-47c7-bc4a-b406389877c5","system_id":"levelo_inurba_marseille","lat":43.24634,"lon":5.43158,"is_reserved":false,"is_disabled":false,"rental_uris":{"android":"levelo://app?vid=4e7a3a2a-d050-47c7-bc4a-b406389877c5","ios":"levelo://app?vid=4e7a3a2a-d050-47c7-bc4a-b406389877c5"},"vehicle_type_id":"4","last_reported":1761401314,"current_range_meters":16400,"station_id":"st_d2m6c4gdas8pm72e190g","pricing_plan_id":"cebpf4jnsgd1na2vs0mg"},{"bike_id":"0e0d77a0-742c-4bb4-87b1-ee4e763771b6","system_id":"levelo_inurba_marseille","lat":43.28944,"lon":5.3964,"is_reserved":false,"is_disabled":false,"rental_uris":{"android":"levelo://app?vid=0e0d77a0-742c-4bb4-87b1-ee4e763771b6","ios":"levelo://app?vid=0e0d77a0-742c-4bb4-87b1-ee4e763771b6"},"vehicle_type_id":"4","last_reported":1761401314,"current_range_meters":16400,"station_id":"ce4bh3h2rcd13ifvqdn0","pricing_plan_id":"cebpf4jnsgd1na2vs0mg"},{"bike_id":"79acc5ae-1f2e-4766-8068-80d5e38bc62b","system_id":"levelo_inurba_marseille","lat":43.23053,"lon":5.35492,"is_reserved":false,"is_disabled":false,"rental_uris":{"android":"levelo://app?vid=79acc5ae-1f2e-4766-8068-80d5e38bc62b","ios":"levelo://app?vid=79acc5ae-1f2e-4766-8068-80d5e38bc62b"},"vehicle_type_id":"4","last_reported":1761401314,"current_range_meters":16400,"station_id":"cpo3342slgdg3j2ifvpg","pricing_plan_id":"cebpf4jnsgd1na2vs0mg"},{"bike_id":"5743ab27-5dc0-4cc4-b60b-f531610ac672","system_id":"levelo_inurba_marseille","lat":43.27313,"lon":5.39136,"is_reserved":false,"is_disabled":false,"rental_uris":{"android":"levelo://app?vid=5743ab27-5dc0-4cc4-b60b-f531610ac672","ios":"levelo://app?vid=5743ab27-5dc0-4cc4-b60b-f531610ac672"},"vehicle_type_id":"4","last_reported":1761401314,"current_range_meters":16400,"station_id":"","pricing_plan_id":"cebpf4jnsgd1na2vs0mg"},{"bike_id":"51f6b392-8d0d-41b5-9bf6-76a949608beb","system_id":"levelo_inurba_marseille","lat":43.2534,"lon":5.42175,"is_reserved":false,"is_disabled":false,"rental_uris":{"android":"levelo://app?vid=51f6b392-8d0d-41b5-9bf6-76a949608beb","ios":"levelo://app?vid=51f6b392-8d0d-41b5-9bf6-76a949608beb"},"vehicle_type_id":"4","last_reported":1761401314,"current_range_meters":16400,"station_id":"st_d2m65c5bi1j21697t3ng","pricing_plan_id":"cebpf4jnsgd1na2vs0mg"},{"bike_id":"44246010-e9af-4e63-a0b9-1be03107f2a5","system_id":"levelo_inurba_marseille","lat":43.272,"lon":5.39196,"is_reserved":false,"is_disabled":false,"rental_uris":{"android":"levelo://app?vid=44246010-e9af-4e63-a0b9-1be03107f2a5","ios":"levelo://app?vid=44246010-e9af-4e63-a0b9-1be03107f2a5"},"vehicle_type_id":"4","last_reported":1761401314,"current_range_meters":16400,"station_id":"ce4bhhp2rcd13ifvqfm0","pricing_plan_id":"cebpf4jnsgd1na2vs0mg"},{"bike_id":"609056b7-31e0-4e22-8f5a-2042e113cd4e","system_id":"levelo_inurba_marseille","lat":43.26487,"lon":5.39559,"is_reserved":false,"is_disabled":true,"rental_uris":{"android":"levelo://app?vid=609056b7-31e0-4e22-8f5a-2042e113cd4e","ios":"levelo://app?vid=609056b7-31e0-4e22-8f5a-2042e113cd4e"},"vehicle_type_id":"4","last_reported":1761401314,"current_range_meters":16400,"station_id":"ce4bhi12rcd13ifvqfq0","pricing_plan_id":"cebpf4jnsgd1na2vs0mg"},{"bike_id":"bbff67b4-a7f7-4eaf-a44b-cd4141c84bc5","system_id":"levelo_inurba_marseille","lat":43.30929,"lon":5.40141,"is_reserved":false,"is_disabled":false,"rental_uris":{"android":"levelo://app?vid=bbff67b4-a7f7-4eaf-a44b-cd4141c84bc5","ios":"levelo://app?vid=bbff67b4-a7f7-4eaf-a44b-cd4141c84bc5"},"vehicle_type_id":"4","last_reported":1761401314,"current_range_meters":16400,"station_id":"ce4bgvp2rcd13ifvqct0","pricing_plan_id":"cebpf4jnsgd1na2vs0mg"},{"bike_id":"5508ebba-ea9d-4a21-87d4-b0fb296afb3e","system_id":"levelo_inurba_marseille","lat":43.282684,"lon":5.350527,"is_reserved":false,"is_disabled":false,"rental_uris":{"android":"levelo://app?vid=5508ebba-ea9d-4a21-87d4-b0fb296afb3e","ios":"levelo://app?vid=5508ebba-ea9d-4a21-87d4-b0fb296afb3e"},"vehicle_type_id":"4","last_reported":1761401314,"current_range_meters":16400,"station_id":"ce4bhbp2rcd13ifvqerg","pricing_plan_id":"cebpf4jnsgd1na2vs0mg"},{"bike_id":"d0d97312-c0ce-4e35-b465-0113c6bd0b31","system_id":"levelo_inurba_marseille","lat":43.23959,"lon":5.36646,"is_reserved":false,"is_disabled":false,"rental_uris":{"android":"levelo://app?vid=d0d97312-c0ce-4e35-b465-0113c6bd0b31","ios":"levelo://app?vid=d0d97312-c0ce-4e35-b465-0113c6bd0b31"},"vehicle_type_id":"4","last_reported":1761401314,"current_range_meters":16400,"station_id":"ce4bhi12rcd13ifvqfp0","pricing_plan_id":"cebpf4jnsgd1na2vs0mg"},{"bike_id":"ec5e8532-4f30-4bed-a12e-445a2cbe95e0","system_id":"levelo_inurba_marseille","lat":43.2984,"lon":5.36285,"is_reserved":false,"is_disabled":false,"rental_uris":{"android":"levelo://app?vid=ec5e8532-4f30-4bed-a12e-445a2cbe95e0","ios":"levelo://app?vid=ec5e8532-4f30-4bed-a12e-445a2cbe95e0"},"vehicle_type_id":"4","last_reported":1761401314,"current_range_meters":16400,"station_id":"ce4bgpp2rcd13ifvqc3g","pricing_plan_id":"cebpf4jnsgd1na2vs0mg"},{"bike_id":"d3145067-3ca0-4e72-b01a-ef78c0959aad","system_id":"levelo_inurba_marseille","lat":43.30256,"lon":5.40085,"is_reserved":false,"is_disabled":true,"rental_uris":{"android":"levelo://app?vid=d3145067-3ca0-4e72-b01a-ef78c0959aad","ios":"levelo://app?vid=d3145067-3ca0-4e72-b01a-ef78c0959aad"},"vehicle_type_id":"4","last_reported":1761401314,"current_range_meters":16400,"station_id":"ce4bgvh2rcd13ifvqcs0","pricing_plan_id":"cebpf4jnsgd1na2vs0mg"},{"bike_id":"7f045db1-16fb-481a-b3c7-992b38323f9b","system_id":"levelo_inurba_marseille","lat":43.2837,"lon":5.3864,"is_reserved":false,"is_disabled":false,"rental_uris":{"android":"levelo://app?vid=7f045db1-16fb-481a-b3c7-992b38323f9b","ios":"levelo://app?vid=7f045db1-16fb-481a-b3c7-992b38323f9b"},"vehicle_type_id":"4","last_reported":1761401314,"current_range_meters":16800,"station_id":"ce4bh492rcd13ifvqdvg","pricing_plan_id":"cebpf4jnsgd1na2vs0mg"},{"bike_id":"40fed290-3dea-4c73-bf2e-af05de8161fd","system_id":"levelo_inurba_marseille","lat":43.32111,"lon":5.36746,"is_reserved":false,"is_disabled":false,"rental_uris":{"android":"levelo://app?vid=40fed290-3dea-4c73-bf2e-af05de8161fd","ios":"levelo://app?vid=40fed290-3dea-4c73-bf2e-af05de8161fd"},"vehicle_type_id":"4","last_reported":1761401314,"current_range_meters":16800,"station_id":"ce4bhrh2rcd13ifvqhug","pricing_plan_id":"cebpf4jnsgd1na2vs0mg"},{"bike_id":"7ffa6b7f-030c-4147-9b3b-d5942785b435","system_id":"levelo_inurba_marseille","lat":43.29329,"lon":5.37497,"is_reserved":false,"is_disabled":false,"rental_uris":{"android":"levelo://app?vid=7ffa6b7f-030c-4147-9b3b-d5942785b435","ios":"levelo://app?vid=7ffa6b7f-030c-4147-9b3b-d5942785b435"},"vehicle_type_id":"4","last_reported":1761401314,"current_range_meters":16800,"station_id":"ce4bgi12rcd13ifvqb70","pricing_plan_id":"cebpf4jnsgd1na2vs0mg"},{"bike_id":"4f82a14d-47d5-4313-abd6-288ddfc03a93","system_id":"levelo_inurba_marseille","lat":43.23196,"lon":5.35552,"is_reserved":false,"is_disabled":false,"rental_uris":{"android":"levelo://app?vid=4f82a14d-47d5-4313-abd6-288ddfc03a93","ios":"levelo://app?vid=4f82a14d-47d5-4313-abd6-288ddfc03a93"},"vehicle_type_id":"4","last_reported":1761401314,"current_range_meters":16800,"station_id":"ce4bhu92rcd13ifvqi70","pricing_plan_id":"cebpf4jnsgd1na2vs0mg"},{"bike_id":"69eb24b9-3109-4845-abdc-4666ce28556e","system_id":"levelo_inurba_marseille","lat":43.26196,"lon":5.37443,"is_reserved":false,"is_disabled":false,"rental_uris":{"android":"levelo://app?vid=69eb24b9-3109-4845-abdc-4666ce28556e","ios":"levelo://app?vid=69eb24b9-3109-4845-abdc-4666ce28556e"},"vehicle_type_id":"4","last_reported":1761401314,"current_range_meters":16800,"station_id":"ce4bhgp2rcd13ifvqfc0","pricing_plan_id":"cebpf4jnsgd1na2vs0mg"},{"bike_id":"b9efc170-ddea-4b5d-8597-120c72bc41d4","system_id":"levelo_inurba_marseille","lat":43.25579,"lon":5.38246,"is_reserved":false,"is_disabled":false,"rental_uris":{"android":"levelo://app?vid=b9efc170-ddea-4b5d-8597-120c72bc41d4","ios":"levelo://app?vid=b9efc170-ddea-4b5d-8597-120c72bc41d4"},"vehicle_type_id":"4","last_reported":1761401314,"current_range_meters":16800,"station_id":"ce4bhih2rcd13ifvqfs0","pricing_plan_id":"cebpf4jnsgd1na2vs0mg"},{"bike_id":"5b2dac66-9c39-4a82-9950-f85524bca441","system_id":"levelo_inurba_marseille","lat":43.30322,"lon":5.40428,"is_reserved":false,"is_disabled":false,"rental_uris":{"android":"levelo://app?vid=5b2dac66-9c39-4a82-9950-f85524bca441","ios":"levelo://app?vid=5b2dac66-9c39-4a82-9950-f85524bca441"},"vehicle_type_id":"4","last_reported":1761401314,"current_range_meters":16800,"station_id":"ce4bh012rcd13ifvqd10","pricing_plan_id":"cebpf4jnsgd1na2vs0mg"},{"bike_id":"a6f0ed19-8042-4fbc-83cb-73ce2f11e459","system_id":"levelo_inurba_marseille","lat":43.3211,"lon":5.36778,"is_reserved":false,"is_disabled":false,"rental_uris":{"android":"levelo://app?vid=a6f0ed19-8042-4fbc-83cb-73ce2f11e459","ios":"levelo://app?vid=a6f0ed19-8042-4fbc-83cb-73ce2f11e459"},"vehicle_type_id":"4","last_reported":1761401314,"current_range_meters":17200,"station_id":"ce4bhrh2rcd13ifvqhug","pricing_plan_id":"cebpf4jnsgd1na2vs0mg"},{"bike_id":"312aaf13-7b12-4dfe-a241-ca5dadc1071d","system_id":"levelo_inurba_marseille","lat":43.262084,"lon":5.374416,"is_reserved":false,"is_disabled":false,"rental_uris":{"android":"levelo://app?vid=312aaf13-7b12-4dfe-a241-ca5dadc1071d","ios":"levelo://app?vid=312aaf13-7b12-4dfe-a241-ca5dadc1071d"},"vehicle_type_id":"4","last_reported":1761401314,"current_range_meters":17200,"station_id":"ce4bhgp2rcd13ifvqfc0","pricing_plan_id":"cebpf4jnsgd1na2vs0mg"},{"bike_id":"8ceaca39-a0b3-4e30-8364-19bcf75f95d6","system_id":"levelo_inurba_marseille","lat":43.25513,"lon":5.37656,"is_reserved":false,"is_disabled":false,"rental_uris":{"android":"levelo://app?vid=8ceaca39-a0b3-4e30-8364-19bcf75f95d6","ios":"levelo://app?vid=8ceaca39-a0b3-4e30-8364-19bcf75f95d6"},"vehicle_type_id":"4","last_reported":1761401314,"current_range_meters":17200,"station_id":"ce4bhh12rcd13ifvqff0","pricing_plan_id":"cebpf4jnsgd1na2vs0mg"},{"bike_id":"de4c9d67-aa03-439a-a821-c7b9a613d790","system_id":"levelo_inurba_marseille","lat":43.21182,"lon":5.35071,"is_reserved":false,"is_disabled":false,"rental_uris":{"android":"levelo://app?vid=de4c9d67-aa03-439a-a821-c7b9a613d790","ios":"levelo://app?vid=de4c9d67-aa03-439a-a821-c7b9a613d790"},"vehicle_type_id":"4","last_reported":1761401314,"current_range_meters":17200,"station_id":"st_cvj6sg6p6f1abm77japg","pricing_plan_id":"cebpf4jnsgd1na2vs0mg"},{"bike_id":"a112d1bd-b320-4b46-9803-c00500ea62d9","system_id":"levelo_inurba_marseille","lat":43.31117,"lon":5.37762,"is_reserved":false,"is_disabled":false,"rental_uris":{"android":"levelo://app?vid=a112d1bd-b320-4b46-9803-c00500ea62d9","ios":"levelo://app?vid=a112d1bd-b320-4b46-9803-c00500ea62d9"},"vehicle_type_id":"4","last_reported":1761401314,"current_range_meters":17200,"station_id":"ce4bgt92rcd13ifvqcg0","pricing_plan_id":"cebpf4jnsgd1na2vs0mg"},{"bike_id":"7ca67f57-0c02-43d1-ad57-8493ba8a5ab0","system_id":"levelo_inurba_marseille","lat":43.31765,"lon":5.39019,"is_reserved":false,"is_disabled":false,"rental_uris":{"android":"levelo://app?vid=7ca67f57-0c02-43d1-ad57-8493ba8a5ab0","ios":"levelo://app?vid=7ca67f57-0c02-43d1-ad57-8493ba8a5ab0"},"vehicle_type_id":"4","last_reported":1761401314,"current_range_meters":17200,"station_id":"ce4bhqp2rcd13ifvqhng","pricing_plan_id":"cebpf4jnsgd1na2vs0mg"},{"bike_id":"c0b81f28-bbba-4247-a74b-c55a34b31846","system_id":"levelo_inurba_marseille","lat":43.33258,"lon":5.41086,"is_reserved":false,"is_disabled":false,"rental_uris":{"android":"levelo://app?vid=c0b81f28-bbba-4247-a74b-c55a34b31846","ios":"levelo://app?vid=c0b81f28-bbba-4247-a74b-c55a34b31846"},"vehicle_type_id":"4","last_reported":1761401314,"current_range_meters":17600,"station_id":"","pricing_plan_id":"cebpf4jnsgd1na2vs0mg"},{"bike_id":"b9e7ecab-7dcf-451f-83b1-ce58eaa76caa","system_id":"levelo_inurba_marseille","lat":43.26227,"lon":5.40448,"is_reserved":false,"is_disabled":false,"rental_uris":{"android":"levelo://app?vid=b9e7ecab-7dcf-451f-83b1-ce58eaa76caa","ios":"levelo://app?vid=b9e7ecab-7dcf-451f-83b1-ce58eaa76caa"},"vehicle_type_id":"4","last_reported":1761401314,"current_range_meters":17600,"station_id":"ce4bhmh2rcd13ifvqgmg","pricing_plan_id":"cebpf4jnsgd1na2vs0mg"},{"bike_id":"ad9764bf-916f-4cce-818b-31edce991bd7","system_id":"levelo_inurba_marseille","lat":43.295316,"lon":5.385495,"is_reserved":false,"is_disabled":false,"rental_uris":{"android":"levelo://app?vid=ad9764bf-916f-4cce-818b-31edce991bd7","ios":"levelo://app?vid=ad9764bf-916f-4cce-818b-31edce991bd7"},"vehicle_type_id":"4","last_reported":1761401314,"current_range_meters":17600,"station_id":"ce4bgih2rcd13ifvqba0","pricing_plan_id":"cebpf4jnsgd1na2vs0mg"},{"bike_id":"29b38a45-3e07-40c1-b8b1-5f85b487711f","system_id":"levelo_inurba_marseille","lat":43.31235,"lon":5.40407,"is_reserved":false,"is_disabled":false,"rental_uris":{"android":"levelo://app?vid=29b38a45-3e07-40c1-b8b1-5f85b487711f","ios":"levelo://app?vid=29b38a45-3e07-40c1-b8b1-5f85b487711f"},"vehicle_type_id":"4","last_reported":1761401314,"current_range_meters":17600,"station_id":"","pricing_plan_id":"cebpf4jnsgd1na2vs0mg"},{"bike_id":"d466e1a4-f0c8-4226-8a1e-b3fbbfed4cd5","system_id":"levelo_inurba_marseille","lat":43.27377,"lon":5.36252,"is_reserved":false,"is_disabled":false,"rental_uris":{"android":"levelo://app?vid=d466e1a4-f0c8-4226-8a1e-b3fbbfed4cd5","ios":"levelo://app?vid=d466e1a4-f0c8-4226-8a1e-b3fbbfed4cd5"},"vehicle_type_id":"4","last_reported":1761401314,"current_range_meters":17600,"station_id":"ce4bhbh2rcd13ifvqeo0","pricing_plan_id":"cebpf4jnsgd1na2vs0mg"},{"bike_id":"fc74c03f-6810-4b94-8149-477bae3888a5","system_id":"levelo_inurba_marseille","lat":43.29813,"lon":5.44069,"is_reserved":false,"is_disabled":false,"rental_uris":{"android":"levelo://app?vid=fc74c03f-6810-4b94-8149-477bae3888a5","ios":"levelo://app?vid=fc74c03f-6810-4b94-8149-477bae3888a5"},"vehicle_type_id":"4","last_reported":1761401314,"current_range_meters":17600,"station_id":"st_d3jp68qikq2c7381ktn0","pricing_plan_id":"cebpf4jnsgd1na2vs0mg"},{"bike_id":"74546168-aafc-4fc6-824e-fd7787db6ac1","system_id":"levelo_inurba_marseille","lat":43.22927,"lon":5.35378,"is_reserved":false,"is_disabled":false,"rental_uris":{"android":"levelo://app?vid=74546168-aafc-4fc6-824e-fd7787db6ac1","ios":"levelo://app?vid=74546168-aafc-4fc6-824e-fd7787db6ac1"},"vehicle_type_id":"4","last_reported":1761401314,"current_range_meters":17600,"station_id":"cpo3532slgdg3j2ikp40","pricing_plan_id":"cebpf4jnsgd1na2vs0mg"},{"bike_id":"b47ef30d-4230-43d2-b013-0841bd2116c9","system_id":"levelo_inurba_marseille","lat":43.23776,"lon":5.36607,"is_reserved":false,"is_disabled":false,"rental_uris":{"android":"levelo://app?vid=b47ef30d-4230-43d2-b013-0841bd2116c9","ios":"levelo://app?vid=b47ef30d-4230-43d2-b013-0841bd2116c9"},"vehicle_type_id":"4","last_reported":1761401314,"current_range_meters":17600,"station_id":"st_d3nk18o9ro0c73en2l3g","pricing_plan_id":"cebpf4jnsgd1na2vs0mg"},{"bike_id":"5a904bdc-48f7-426a-bb39-53050af04aaf","system_id":"levelo_inurba_marseille","lat":43.26953,"lon":5.38633,"is_reserved":false,"is_disabled":false,"rental_uris":{"android":"levelo://app?vid=5a904bdc-48f7-426a-bb39-53050af04aaf","ios":"levelo://app?vid=5a904bdc-48f7-426a-bb39-53050af04aaf"},"vehicle_type_id":"4","last_reported":1761401314,"current_range_meters":17600,"station_id":"ce4bhh92rcd13ifvqfh0","pricing_plan_id":"cebpf4jnsgd1na2vs0mg"},{"bike_id":"e4746a2d-9cd3-46c8-bf0e-3a10fdb16ced","system_id":"levelo_inurba_marseille","lat":43.32339,"lon":5.36712,"is_reserved":false,"is_disabled":false,"rental_uris":{"android":"levelo://app?vid=e4746a2d-9cd3-46c8-bf0e-3a10fdb16ced","ios":"levelo://app?vid=e4746a2d-9cd3-46c8-bf0e-3a10fdb16ced"},"vehicle_type_id":"4","last_reported":1761401314,"current_range_meters":17600,"station_id":"ce4bhsh2rcd13ifvqi2g","pricing_plan_id":"cebpf4jnsgd1na2vs0mg"},{"bike_id":"1829dd36-64ae-43c8-b28c-58fb4823781c","system_id":"levelo_inurba_marseille","lat":43.23194,"lon":5.35552,"is_reserved":false,"is_disabled":false,"rental_uris":{"android":"levelo://app?vid=1829dd36-64ae-43c8-b28c-58fb4823781c","ios":"levelo://app?vid=1829dd36-64ae-43c8-b28c-58fb4823781c"},"vehicle_type_id":"4","last_reported":1761401314,"current_range_meters":17600,"station_id":"ce4bhu92rcd13ifvqi70","pricing_plan_id":"cebpf4jnsgd1na2vs0mg"},{"bike_id":"e0be5de7-28ef-42a3-aada-aa9c424d697a","system_id":"levelo_inurba_marseille","lat":43.27378,"lon":5.36255,"is_reserved":false,"is_disabled":false,"rental_uris":{"android":"levelo://app?vid=e0be5de7-28ef-42a3-aada-aa9c424d697a","ios":"levelo://app?vid=e0be5de7-28ef-42a3-aada-aa9c424d697a"},"vehicle_type_id":"4","last_reported":1761401314,"current_range_meters":17600,"station_id":"ce4bhbh2rcd13ifvqeo0","pricing_plan_id":"cebpf4jnsgd1na2vs0mg"},{"bike_id":"0924e12e-18f4-40ff-8112-62dbeb387362","system_id":"levelo_inurba_marseille","lat":43.27621,"lon":5.36106,"is_reserved":false,"is_disabled":false,"rental_uris":{"android":"levelo://app?vid=0924e12e-18f4-40ff-8112-62dbeb387362","ios":"levelo://app?vid=0924e12e-18f4-40ff-8112-62dbeb387362"},"vehicle_type_id":"4","last_reported":1761401314,"current_range_meters":18000,"station_id":"ce4bgj92rcd13ifvqbe0","pricing_plan_id":"cebpf4jnsgd1na2vs0mg"},{"bike_id":"8dc3641d-e17b-49fc-b3b0-e23706855182","system_id":"levelo_inurba_marseille","lat":43.291965,"lon":5.359068,"is_reserved":false,"is_disabled":false,"rental_uris":{"android":"levelo://app?vid=8dc3641d-e17b-49fc-b3b0-e23706855182","ios":"levelo://app?vid=8dc3641d-e17b-49fc-b3b0-e23706855182"},"vehicle_type_id":"4","last_reported":1761401314,"current_range_meters":18000,"station_id":"ce4bgi12rcd13ifvqb70","pricing_plan_id":"cebpf4jnsgd1na2vs0mg"},{"bike_id":"397e93f9-9643-408a-b83f-ecc23413a27c","system_id":"levelo_inurba_marseille","lat":43.27215,"lon":5.39189,"is_reserved":false,"is_disabled":false,"rental_uris":{"android":"levelo://app?vid=397e93f9-9643-408a-b83f-ecc23413a27c","ios":"levelo://app?vid=397e93f9-9643-408a-b83f-ecc23413a27c"},"vehicle_type_id":"4","last_reported":1761401314,"current_range_meters":18000,"station_id":"ce4bhhp2rcd13ifvqfm0","pricing_plan_id":"cebpf4jnsgd1na2vs0mg"},{"bike_id":"c8195882-066a-4a20-bd69-2b22216eae32","system_id":"levelo_inurba_marseille","lat":43.28411,"lon":5.34992,"is_reserved":false,"is_disabled":false,"rental_uris":{"android":"levelo://app?vid=c8195882-066a-4a20-bd69-2b22216eae32","ios":"levelo://app?vid=c8195882-066a-4a20-bd69-2b22216eae32"},"vehicle_type_id":"4","last_reported":1761401314,"current_range_meters":18000,"station_id":"ce4bhbh2rcd13ifvqepg","pricing_plan_id":"cebpf4jnsgd1na2vs0mg"},{"bike_id":"fb8d7c82-8525-4387-a38e-a1297cc473af","system_id":"levelo_inurba_marseille","lat":43.29308,"lon":5.37175,"is_reserved":false,"is_disabled":false,"rental_uris":{"android":"levelo://app?vid=fb8d7c82-8525-4387-a38e-a1297cc473af","ios":"levelo://app?vid=fb8d7c82-8525-4387-a38e-a1297cc473af"},"vehicle_type_id":"4","last_reported":1761401314,"current_range_meters":18000,"station_id":"ce4bgh92rcd13ifvqb40","pricing_plan_id":"cebpf4jnsgd1na2vs0mg"},{"bike_id":"7fb3971e-84b0-4ac6-82fb-b4ca6cdec2ab","system_id":"levelo_inurba_marseille","lat":43.294875,"lon":5.433095,"is_reserved":false,"is_disabled":false,"rental_uris":{"android":"levelo://app?vid=7fb3971e-84b0-4ac6-82fb-b4ca6cdec2ab","ios":"levelo://app?vid=7fb3971e-84b0-4ac6-82fb-b4ca6cdec2ab"},"vehicle_type_id":"4","last_reported":1761401314,"current_range_meters":18000,"station_id":"st_d3j5ugp08ojc73fj9d10","pricing_plan_id":"cebpf4jnsgd1na2vs0mg"},{"bike_id":"f72a00f1-1fed-4f6c-b4b5-8473dfdb4606","system_id":"levelo_inurba_marseille","lat":43.29673,"lon":5.40368,"is_reserved":false,"is_disabled":false,"rental_uris":{"android":"levelo://app?vid=f72a00f1-1fed-4f6c-b4b5-8473dfdb4606","ios":"levelo://app?vid=f72a00f1-1fed-4f6c-b4b5-8473dfdb4606"},"vehicle_type_id":"4","last_reported":1761401314,"current_range_meters":18000,"station_id":"","pricing_plan_id":"cebpf4jnsgd1na2vs0mg"},{"bike_id":"b3413244-73c1-42dd-ac5f-94ed8ca8ec9f","system_id":"levelo_inurba_marseille","lat":43.21742,"lon":5.34606,"is_reserved":false,"is_disabled":false,"rental_uris":{"android":"levelo://app?vid=b3413244-73c1-42dd-ac5f-94ed8ca8ec9f","ios":"levelo://app?vid=b3413244-73c1-42dd-ac5f-94ed8ca8ec9f"},"vehicle_type_id":"4","last_reported":1761401314,"current_range_meters":18000,"station_id":"st_cvj6r9ubvosntc0bgbag","pricing_plan_id":"cebpf4jnsgd1na2vs0mg"},{"bike_id":"6e914aef-2f66-4203-873d-c30c99233b92","system_id":"levelo_inurba_marseille","lat":43.27209,"lon":5.39175,"is_reserved":false,"is_disabled":false,"rental_uris":{"android":"levelo://app?vid=6e914aef-2f66-4203-873d-c30c99233b92","ios":"levelo://app?vid=6e914aef-2f66-4203-873d-c30c99233b92"},"vehicle_type_id":"4","last_reported":1761401314,"current_range_meters":18000,"station_id":"ce4bhhp2rcd13ifvqfm0","pricing_plan_id":"cebpf4jnsgd1na2vs0mg"},{"bike_id":"38a064e1-0c23-4c21-963f-8d817112a18f","system_id":"levelo_inurba_marseille","lat":43.283895,"lon":5.399056,"is_reserved":false,"is_disabled":false,"rental_uris":{"android":"levelo://app?vid=38a064e1-0c23-4c21-963f-8d817112a18f","ios":"levelo://app?vid=38a064e1-0c23-4c21-963f-8d817112a18f"},"vehicle_type_id":"4","last_reported":1761401314,"current_range_meters":18000,"station_id":"","pricing_plan_id":"cebpf4jnsgd1na2vs0mg"},{"bike_id":"e4ccce50-4824-4895-aa8c-033835526f23","system_id":"levelo_inurba_marseille","lat":43.31874,"lon":5.39979,"is_reserved":false,"is_disabled":false,"rental_uris":{"android":"levelo://app?vid=e4ccce50-4824-4895-aa8c-033835526f23","ios":"levelo://app?vid=e4ccce50-4824-4895-aa8c-033835526f23"},"vehicle_type_id":"4","last_reported":1761401314,"current_range_meters":18000,"station_id":"","pricing_plan_id":"cebpf4jnsgd1na2vs0mg"},{"bike_id":"558ce6b2-cee3-4a29-aecd-ef27ae26b8dc","system_id":"levelo_inurba_marseille","lat":43.284634,"lon":5.384721,"is_reserved":false,"is_disabled":false,"rental_uris":{"android":"levelo://app?vid=558ce6b2-cee3-4a29-aecd-ef27ae26b8dc","ios":"levelo://app?vid=558ce6b2-cee3-4a29-aecd-ef27ae26b8dc"},"vehicle_type_id":"4","last_reported":1761401314,"current_range_meters":18800,"station_id":"ce4bh512rcd13ifvqe3g","pricing_plan_id":"cebpf4jnsgd1na2vs0mg"},{"bike_id":"300f2c51-3969-4866-8974-7c5b0154ca14","system_id":"levelo_inurba_marseille","lat":43.29568,"lon":5.37531,"is_reserved":false,"is_disabled":false,"rental_uris":{"android":"levelo://app?vid=300f2c51-3969-4866-8974-7c5b0154ca14","ios":"levelo://app?vid=300f2c51-3969-4866-8974-7c5b0154ca14"},"vehicle_type_id":"4","last_reported":1761401314,"current_range_meters":18800,"station_id":"ce4bgh92rcd13ifvqb50","pricing_plan_id":"cebpf4jnsgd1na2vs0mg"},{"bike_id":"a3ba5929-0353-4113-b70c-d2daca4db2ad","system_id":"levelo_inurba_marseille","lat":43.21186,"lon":5.350808,"is_reserved":false,"is_disabled":false,"rental_uris":{"android":"levelo://app?vid=a3ba5929-0353-4113-b70c-d2daca4db2ad","ios":"levelo://app?vid=a3ba5929-0353-4113-b70c-d2daca4db2ad"},"vehicle_type_id":"4","last_reported":1761401314,"current_range_meters":18800,"station_id":"st_cvj6sg6p6f1abm77japg","pricing_plan_id":"cebpf4jnsgd1na2vs0mg"},{"bike_id":"35c4a68c-154f-4079-9eaa-0a400455bcfe","system_id":"levelo_inurba_marseille","lat":43.28266,"lon":5.35061,"is_reserved":false,"is_disabled":false,"rental_uris":{"android":"levelo://app?vid=35c4a68c-154f-4079-9eaa-0a400455bcfe","ios":"levelo://app?vid=35c4a68c-154f-4079-9eaa-0a400455bcfe"},"vehicle_type_id":"4","last_reported":1761401314,"current_range_meters":18800,"station_id":"ce4bhbp2rcd13ifvqerg","pricing_plan_id":"cebpf4jnsgd1na2vs0mg"},{"bike_id":"1d190005-b55f-4200-b76c-487b5cdcd765","system_id":"levelo_inurba_marseille","lat":43.24071,"lon":5.37755,"is_reserved":false,"is_disabled":false,"rental_uris":{"android":"levelo://app?vid=1d190005-b55f-4200-b76c-487b5cdcd765","ios":"levelo://app?vid=1d190005-b55f-4200-b76c-487b5cdcd765"},"vehicle_type_id":"4","last_reported":1761401314,"current_range_meters":18800,"station_id":"ce4bhnp2rcd13ifvqgvg","pricing_plan_id":"cebpf4jnsgd1na2vs0mg"},{"bike_id":"3da36b46-32f0-4723-8f3b-8cba39a84287","system_id":"levelo_inurba_marseille","lat":43.243881,"lon":5.370657,"is_reserved":false,"is_disabled":false,"rental_uris":{"android":"levelo://app?vid=3da36b46-32f0-4723-8f3b-8cba39a84287","ios":"levelo://app?vid=3da36b46-32f0-4723-8f3b-8cba39a84287"},"vehicle_type_id":"4","last_reported":1761401314,"current_range_meters":18800,"station_id":"ce4bhhh2rcd13ifvqfk0","pricing_plan_id":"cebpf4jnsgd1na2vs0mg"},{"bike_id":"e5bd73c9-d2fd-429b-a719-e50033314cf7","system_id":"levelo_inurba_marseille","lat":43.235301,"lon":5.412773,"is_reserved":false,"is_disabled":false,"rental_uris":{"android":"levelo://app?vid=e5bd73c9-d2fd-429b-a719-e50033314cf7","ios":"levelo://app?vid=e5bd73c9-d2fd-429b-a719-e50033314cf7"},"vehicle_type_id":"4","last_reported":1761401314,"current_range_meters":18800,"station_id":"ce4bh192rcd13ifvqdb0","pricing_plan_id":"cebpf4jnsgd1na2vs0mg"},{"bike_id":"a2f8c285-3185-461c-956e-9a1aafa8efeb","system_id":"levelo_inurba_marseille","lat":43.28274,"lon":5.35063,"is_reserved":false,"is_disabled":false,"rental_uris":{"android":"levelo://app?vid=a2f8c285-3185-461c-956e-9a1aafa8efeb","ios":"levelo://app?vid=a2f8c285-3185-461c-956e-9a1aafa8efeb"},"vehicle_type_id":"4","last_reported":1761401314,"current_range_meters":18800,"station_id":"ce4bhbp2rcd13ifvqerg","pricing_plan_id":"cebpf4jnsgd1na2vs0mg"},{"bike_id":"de5cece4-6186-4ccb-b70e-a25e8bd3fc86","system_id":"levelo_inurba_marseille","lat":43.337444,"lon":5.374475,"is_reserved":false,"is_disabled":false,"rental_uris":{"android":"levelo://app?vid=de5cece4-6186-4ccb-b70e-a25e8bd3fc86","ios":"levelo://app?vid=de5cece4-6186-4ccb-b70e-a25e8bd3fc86"},"vehicle_type_id":"4","last_reported":1761401314,"current_range_meters":18800,"station_id":"","pricing_plan_id":"cebpf4jnsgd1na2vs0mg"},{"bike_id":"e75ae714-0852-4f44-be50-e3fc4f827f30","system_id":"levelo_inurba_marseille","lat":43.311161,"lon":5.377664,"is_reserved":false,"is_disabled":false,"rental_uris":{"android":"levelo://app?vid=e75ae714-0852-4f44-be50-e3fc4f827f30","ios":"levelo://app?vid=e75ae714-0852-4f44-be50-e3fc4f827f30"},"vehicle_type_id":"4","last_reported":1761401314,"current_range_meters":19200,"station_id":"ce4bgt92rcd13ifvqcg0","pricing_plan_id":"cebpf4jnsgd1na2vs0mg"},{"bike_id":"d4f6cd6f-2e03-4d52-87e2-774301b94d7f","system_id":"levelo_inurba_marseille","lat":43.211931,"lon":5.350645,"is_reserved":false,"is_disabled":false,"rental_uris":{"android":"levelo://app?vid=d4f6cd6f-2e03-4d52-87e2-774301b94d7f","ios":"levelo://app?vid=d4f6cd6f-2e03-4d52-87e2-774301b94d7f"},"vehicle_type_id":"4","last_reported":1761401314,"current_range_meters":19200,"station_id":"st_cvj6sg6p6f1abm77japg","pricing_plan_id":"cebpf4jnsgd1na2vs0mg"},{"bike_id":"8847af5d-c1ad-4d8d-a5c1-273c3b41c105","system_id":"levelo_inurba_marseille","lat":43.322465,"lon":5.419625,"is_reserved":false,"is_disabled":false,"rental_uris":{"android":"levelo://app?vid=8847af5d-c1ad-4d8d-a5c1-273c3b41c105","ios":"levelo://app?vid=8847af5d-c1ad-4d8d-a5c1-273c3b41c105"},"vehicle_type_id":"4","last_reported":1761401314,"current_range_meters":19600,"station_id":"","pricing_plan_id":"cebpf4jnsgd1na2vs0mg"},{"bike_id":"07dd7e62-80ff-48a9-90e7-ea1151038459","system_id":"levelo_inurba_marseille","lat":43.27368,"lon":5.36254,"is_reserved":false,"is_disabled":false,"rental_uris":{"android":"levelo://app?vid=07dd7e62-80ff-48a9-90e7-ea1151038459","ios":"levelo://app?vid=07dd7e62-80ff-48a9-90e7-ea1151038459"},"vehicle_type_id":"4","last_reported":1761401314,"current_range_meters":19600,"station_id":"ce4bhbh2rcd13ifvqeo0","pricing_plan_id":"cebpf4jnsgd1na2vs0mg"},{"bike_id":"7a1877e8-1310-4142-900d-3cea9a2ef65f","system_id":"levelo_inurba_marseille","lat":43.29478,"lon":5.43306,"is_reserved":false,"is_disabled":false,"rental_uris":{"android":"levelo://app?vid=7a1877e8-1310-4142-900d-3cea9a2ef65f","ios":"levelo://app?vid=7a1877e8-1310-4142-900d-3cea9a2ef65f"},"vehicle_type_id":"4","last_reported":1761401314,"current_range_meters":19600,"station_id":"st_d3j5ugp08ojc73fj9d10","pricing_plan_id":"cebpf4jnsgd1na2vs0mg"},{"bike_id":"c9c21d7f-491d-4605-a042-46f5bbb9ac2d","system_id":"levelo_inurba_marseille","lat":43.25579,"lon":5.38244,"is_reserved":false,"is_disabled":false,"rental_uris":{"android":"levelo://app?vid=c9c21d7f-491d-4605-a042-46f5bbb9ac2d","ios":"levelo://app?vid=c9c21d7f-491d-4605-a042-46f5bbb9ac2d"},"vehicle_type_id":"4","last_reported":1761401314,"current_range_meters":19600,"station_id":"ce4bhih2rcd13ifvqfs0","pricing_plan_id":"cebpf4jnsgd1na2vs0mg"},{"bike_id":"67f8857f-0853-46d2-b9ef-96c5ce2639bc","system_id":"levelo_inurba_marseille","lat":43.23037,"lon":5.35502,"is_reserved":false,"is_disabled":false,"rental_uris":{"android":"levelo://app?vid=67f8857f-0853-46d2-b9ef-96c5ce2639bc","ios":"levelo://app?vid=67f8857f-0853-46d2-b9ef-96c5ce2639bc"},"vehicle_type_id":"4","last_reported":1761401314,"current_range_meters":19600,"station_id":"cpo3342slgdg3j2ifvpg","pricing_plan_id":"cebpf4jnsgd1na2vs0mg"},{"bike_id":"40fc96a0-f1e3-41fd-90dd-9e0246f45827","system_id":"levelo_inurba_marseille","lat":43.2306,"lon":5.355,"is_reserved":false,"is_disabled":false,"rental_uris":{"android":"levelo://app?vid=40fc96a0-f1e3-41fd-90dd-9e0246f45827","ios":"levelo://app?vid=40fc96a0-f1e3-41fd-90dd-9e0246f45827"},"vehicle_type_id":"4","last_reported":1761401314,"current_range_meters":19600,"station_id":"cpo3342slgdg3j2ifvpg","pricing_plan_id":"cebpf4jnsgd1na2vs0mg"},{"bike_id":"d5dfaebc-363f-4601-b26a-6e9c4f1c2b4b","system_id":"levelo_inurba_marseille","lat":43.21189,"lon":5.35076,"is_reserved":false,"is_disabled":false,"rental_uris":{"android":"levelo://app?vid=d5dfaebc-363f-4601-b26a-6e9c4f1c2b4b","ios":"levelo://app?vid=d5dfaebc-363f-4601-b26a-6e9c4f1c2b4b"},"vehicle_type_id":"4","last_reported":1761401314,"current_range_meters":19600,"station_id":"st_cvj6sg6p6f1abm77japg","pricing_plan_id":"cebpf4jnsgd1na2vs0mg"},{"bike_id":"e79e4f2c-3782-45e5-9872-f55a0401b3fa","system_id":"levelo_inurba_marseille","lat":43.29797,"lon":5.38095,"is_reserved":false,"is_disabled":false,"rental_uris":{"android":"levelo://app?vid=e79e4f2c-3782-45e5-9872-f55a0401b3fa","ios":"levelo://app?vid=e79e4f2c-3782-45e5-9872-f55a0401b3fa"},"vehicle_type_id":"4","last_reported":1761401314,"current_range_meters":19600,"station_id":"ce4bgip2rcd13ifvqbb0","pricing_plan_id":"cebpf4jnsgd1na2vs0mg"},{"bike_id":"317107fa-306d-4b8d-9380-a16cd06486ce","system_id":"levelo_inurba_marseille","lat":43.284585,"lon":5.35898,"is_reserved":false,"is_disabled":true,"rental_uris":{"android":"levelo://app?vid=317107fa-306d-4b8d-9380-a16cd06486ce","ios":"levelo://app?vid=317107fa-306d-4b8d-9380-a16cd06486ce"},"vehicle_type_id":"4","last_reported":1761401314,"current_range_meters":20000,"station_id":"ce4bhah2rcd13ifvqei0","pricing_plan_id":"cebpf4jnsgd1na2vs0mg"},{"bike_id":"b9576062-df6d-4982-a756-657655663f64","system_id":"levelo_inurba_marseille","lat":43.29922,"lon":5.3747,"is_reserved":false,"is_disabled":false,"rental_uris":{"android":"levelo://app?vid=b9576062-df6d-4982-a756-657655663f64","ios":"levelo://app?vid=b9576062-df6d-4982-a756-657655663f64"},"vehicle_type_id":"4","last_reported":1761401314,"current_range_meters":20000,"station_id":"ce4bgjh2rcd13ifvqbg0","pricing_plan_id":"cebpf4jnsgd1na2vs0mg"},{"bike_id":"852f7905-1ceb-452d-ac62-c0aef4408049","system_id":"levelo_inurba_marseille","lat":43.24157,"lon":5.39725,"is_reserved":false,"is_disabled":false,"rental_uris":{"android":"levelo://app?vid=852f7905-1ceb-452d-ac62-c0aef4408049","ios":"levelo://app?vid=852f7905-1ceb-452d-ac62-c0aef4408049"},"vehicle_type_id":"4","last_reported":1761401314,"current_range_meters":20000,"station_id":"ce4bhn12rcd13ifvqgpg","pricing_plan_id":"cebpf4jnsgd1na2vs0mg"},{"bike_id":"64b75b4a-3497-4861-8cc2-90dd62cd9f5e","system_id":"levelo_inurba_marseille","lat":43.294879,"lon":5.433077,"is_reserved":false,"is_disabled":false,"rental_uris":{"android":"levelo://app?vid=64b75b4a-3497-4861-8cc2-90dd62cd9f5e","ios":"levelo://app?vid=64b75b4a-3497-4861-8cc2-90dd62cd9f5e"},"vehicle_type_id":"4","last_reported":1761401314,"current_range_meters":20000,"station_id":"st_d3j5ugp08ojc73fj9d10","pricing_plan_id":"cebpf4jnsgd1na2vs0mg"},{"bike_id":"c124d4a0-9e47-48ec-ad7a-ea36eb6e5d35","system_id":"levelo_inurba_marseille","lat":43.243853,"lon":5.370485,"is_reserved":false,"is_disabled":false,"rental_uris":{"android":"levelo://app?vid=c124d4a0-9e47-48ec-ad7a-ea36eb6e5d35","ios":"levelo://app?vid=c124d4a0-9e47-48ec-ad7a-ea36eb6e5d35"},"vehicle_type_id":"4","last_reported":1761401314,"current_range_meters":20000,"station_id":"ce4bhhh2rcd13ifvqfk0","pricing_plan_id":"cebpf4jnsgd1na2vs0mg"},{"bike_id":"6b169e71-2202-4b5d-8ca7-2dadc3ad8055","system_id":"levelo_inurba_marseille","lat":43.29278,"lon":5.40115,"is_reserved":false,"is_disabled":false,"rental_uris":{"android":"levelo://app?vid=6b169e71-2202-4b5d-8ca7-2dadc3ad8055","ios":"levelo://app?vid=6b169e71-2202-4b5d-8ca7-2dadc3ad8055"},"vehicle_type_id":"4","last_reported":1761401314,"current_range_meters":20400,"station_id":"ce4bh312rcd13ifvqdk0","pricing_plan_id":"cebpf4jnsgd1na2vs0mg"},{"bike_id":"131ff746-0a90-476c-9f61-62f667e76ec8","system_id":"levelo_inurba_marseille","lat":43.29071,"lon":5.3717,"is_reserved":false,"is_disabled":false,"rental_uris":{"android":"levelo://app?vid=131ff746-0a90-476c-9f61-62f667e76ec8","ios":"levelo://app?vid=131ff746-0a90-476c-9f61-62f667e76ec8"},"vehicle_type_id":"4","last_reported":1761401314,"current_range_meters":20400,"station_id":"ce4bh5p2rcd13ifvqe4g","pricing_plan_id":"cebpf4jnsgd1na2vs0mg"},{"bike_id":"59e90fd9-8866-4ae9-a6f2-a970932bfd6c","system_id":"levelo_inurba_marseille","lat":43.23952,"lon":5.36624,"is_reserved":false,"is_disabled":false,"rental_uris":{"android":"levelo://app?vid=59e90fd9-8866-4ae9-a6f2-a970932bfd6c","ios":"levelo://app?vid=59e90fd9-8866-4ae9-a6f2-a970932bfd6c"},"vehicle_type_id":"4","last_reported":1761401314,"current_range_meters":20400,"station_id":"ce4bhi12rcd13ifvqfp0","pricing_plan_id":"cebpf4jnsgd1na2vs0mg"},{"bike_id":"1eac0aa7-2b82-4118-bb70-4582cf563475","system_id":"levelo_inurba_marseille","lat":43.28491,"lon":5.48392,"is_reserved":false,"is_disabled":false,"rental_uris":{"android":"levelo://app?vid=1eac0aa7-2b82-4118-bb70-4582cf563475","ios":"levelo://app?vid=1eac0aa7-2b82-4118-bb70-4582cf563475"},"vehicle_type_id":"4","last_reported":1761401314,"current_range_meters":20400,"station_id":"st_d3svhcjqgbts73a3dn0g","pricing_plan_id":"cebpf4jnsgd1na2vs0mg"},{"bike_id":"5ec56ab5-917d-4b97-89bb-1fe543acf06f","system_id":"levelo_inurba_marseille","lat":43.29974,"lon":5.37191,"is_reserved":false,"is_disabled":false,"rental_uris":{"android":"levelo://app?vid=5ec56ab5-917d-4b97-89bb-1fe543acf06f","ios":"levelo://app?vid=5ec56ab5-917d-4b97-89bb-1fe543acf06f"},"vehicle_type_id":"4","last_reported":1761401314,"current_range_meters":20400,"station_id":"ce4bgr92rcd13ifvqc7g","pricing_plan_id":"cebpf4jnsgd1na2vs0mg"},{"bike_id":"d53cf87a-2938-4a80-ad73-ce20f2098032","system_id":"levelo_inurba_marseille","lat":43.211889,"lon":5.350713,"is_reserved":false,"is_disabled":false,"rental_uris":{"android":"levelo://app?vid=d53cf87a-2938-4a80-ad73-ce20f2098032","ios":"levelo://app?vid=d53cf87a-2938-4a80-ad73-ce20f2098032"},"vehicle_type_id":"4","last_reported":1761401314,"current_range_meters":20400,"station_id":"st_cvj6sg6p6f1abm77japg","pricing_plan_id":"cebpf4jnsgd1na2vs0mg"},{"bike_id":"e1e42080-80dd-4c30-97c3-5d04b2fe73eb","system_id":"levelo_inurba_marseille","lat":43.26492,"lon":5.39541,"is_reserved":false,"is_disabled":false,"rental_uris":{"android":"levelo://app?vid=e1e42080-80dd-4c30-97c3-5d04b2fe73eb","ios":"levelo://app?vid=e1e42080-80dd-4c30-97c3-5d04b2fe73eb"},"vehicle_type_id":"4","last_reported":1761401314,"current_range_meters":20400,"station_id":"ce4bhi12rcd13ifvqfq0","pricing_plan_id":"cebpf4jnsgd1na2vs0mg"},{"bike_id":"5303d191-4bdf-40ba-a4e3-7c57e18ce023","system_id":"levelo_inurba_marseille","lat":43.29209,"lon":5.35794,"is_reserved":false,"is_disabled":false,"rental_uris":{"android":"levelo://app?vid=5303d191-4bdf-40ba-a4e3-7c57e18ce023","ios":"levelo://app?vid=5303d191-4bdf-40ba-a4e3-7c57e18ce023"},"vehicle_type_id":"4","last_reported":1761401314,"current_range_meters":20400,"station_id":"ce4bhb12rcd13ifvqel0","pricing_plan_id":"cebpf4jnsgd1na2vs0mg"},{"bike_id":"10439fb5-3d74-4cab-98fc-c68dc39b74a7","system_id":"levelo_inurba_marseille","lat":43.25584,"lon":5.38231,"is_reserved":false,"is_disabled":false,"rental_uris":{"android":"levelo://app?vid=10439fb5-3d74-4cab-98fc-c68dc39b74a7","ios":"levelo://app?vid=10439fb5-3d74-4cab-98fc-c68dc39b74a7"},"vehicle_type_id":"4","last_reported":1761401314,"current_range_meters":20800,"station_id":"ce4bhih2rcd13ifvqfs0","pricing_plan_id":"cebpf4jnsgd1na2vs0mg"},{"bike_id":"142bb69c-4893-4cf9-8d74-3ac22541fa82","system_id":"levelo_inurba_marseille","lat":43.27612,"lon":5.36108,"is_reserved":false,"is_disabled":false,"rental_uris":{"android":"levelo://app?vid=142bb69c-4893-4cf9-8d74-3ac22541fa82","ios":"levelo://app?vid=142bb69c-4893-4cf9-8d74-3ac22541fa82"},"vehicle_type_id":"4","last_reported":1761401314,"current_range_meters":20800,"station_id":"ce4bgj92rcd13ifvqbe0","pricing_plan_id":"cebpf4jnsgd1na2vs0mg"},{"bike_id":"af9e12e7-38b8-459b-8665-a09998ee41f3","system_id":"levelo_inurba_marseille","lat":43.24649,"lon":5.389,"is_reserved":false,"is_disabled":false,"rental_uris":{"android":"levelo://app?vid=af9e12e7-38b8-459b-8665-a09998ee41f3","ios":"levelo://app?vid=af9e12e7-38b8-459b-8665-a09998ee41f3"},"vehicle_type_id":"4","last_reported":1761401314,"current_range_meters":20800,"station_id":"ce4bhg12rcd13ifvqf60","pricing_plan_id":"cebpf4jnsgd1na2vs0mg"},{"bike_id":"d9ffd4fd-02ad-404f-b60b-50240b1bd02f","system_id":"levelo_inurba_marseille","lat":43.30119,"lon":5.43118,"is_reserved":false,"is_disabled":false,"rental_uris":{"android":"levelo://app?vid=d9ffd4fd-02ad-404f-b60b-50240b1bd02f","ios":"levelo://app?vid=d9ffd4fd-02ad-404f-b60b-50240b1bd02f"},"vehicle_type_id":"4","last_reported":1761401314,"current_range_meters":20800,"station_id":"st_d3js3co5814s73ftftug","pricing_plan_id":"cebpf4jnsgd1na2vs0mg"},