{"last_updated":1739898540,"ttl":60,"version":"2.2","data":{"bikes":[{"bike_id":"ded64d57-32f4-4954-8fa2-32b9bad92a97","system_id":"levelo_inurba_marseille","lat":43.277893,"lon":5.405557,"is_reserved":false,"is_disabled":false,"rental_uris":{"android":"levelo://app?vid=ded64d57-32f4-4954-8fa2-32b9bad92a97","ios":"levelo://app?vid=ded64d57-32f4-4954-8fa2-32b9bad92a97"},"vehicle_type_id":"4","last_reported":1739898541,"current_range_meters":2800,"station_id":"ce4bhnh2rcd13ifvqgtg","pricing_plan_id":"cebpf4jnsgd1na2vs0mg"},{"bike_id":"4633b269-43d5-4966-b7ca-f256bad2a59e","system_id":"levelo_inurba_marseille","lat":43.26025,"lon":5.37563,"is_reserved":false,"is_disabled":false,"rental_uris":{"android":"levelo://app?vid=4633b269-43d5-4966-b7ca-f256bad2a59e","ios":"levelo://app?vid=4633b269-43d5-4966-b7ca-f256bad2a59e"},"vehicle_type_id":"4","last_reported":1739898541,"current_range_meters":2800,"station_id":"","pricing_plan_id":"cebpf4jnsgd1na2vs0mg"},{"bike_id":"1ff00f58-dc8d-49d1-ad54-dcbbd9c6d66d","system_id":"levelo_inurba_marseille","lat":43.29539,"lon":5.38544,"is_reserved":false,"is_disabled":false,"rental_uris":{"android":"levelo://app?vid=1ff00f58-dc8d-49d1-ad54-dcbbd9c6d66d","ios":"levelo://app?vid=1ff00f58-dc8d-49d1-ad54-dcbbd9c6d66d"},"vehicle_type_id":"4","last_reported":1739898541,"current_range_meters":3600,"station_id":"","pricing_plan_id":"cebpf4jnsgd1na2vs0mg"},{"bike_id":"901bd776-6fc2-4056-946b-cb8549184353","system_id":"levelo_inurba_marseille","lat":43.27203,"lon":5.39182,"is_reserved":false,"is_disabled":false,"rental_uris":{"android":"levelo://app?vid=901bd776-6fc2-4056-946b-cb8549184353","ios":"levelo://app?vid=901bd776-6fc2-4056-946b-cb8549184353"},"vehicle_type_id":"4","last_reported":1739898541,"current_range_meters":3600,"station_id":"ce4bhhp2rcd13ifvqfm0","pricing_plan_id":"cebpf4jnsgd1na2vs0mg"},{"bike_id":"5ecb9d9a-5067-448e-99bb-7c118c2ca818","system_id":"levelo_inurba_marseille","lat":43.30645,"lon":5.40082,"is_reserved":false,"is_disabled":false,"rental_uris":{"android":"levelo://app?vid=5ecb9d9a-5067-448e-99bb-7c118c2ca818","ios":"levelo://app?vid=5ecb9d9a-5067-448e-99bb-7c118c2ca818"},"vehicle_type_id":"4","last_reported":1739898541,"current_range_meters":4000,"station_id":"ce4bh112rcd13ifvqda0","pricing_plan_id":"cebpf4jnsgd1na2vs0mg"},{"bike_id":"d9b42e1b-4416-4fe0-a4a4-2f57e9548869","system_id":"levelo_inurba_marseille","lat":43.32653,"lon":5.41001,"is_reserved":false,"is_disabled":false,"rental_uris":{"android":"levelo://app?vid=d9b42e1b-4416-4fe0-a4a4-2f57e9548869","ios":"levelo://app?vid=d9b42e1b-4416-4fe0-a4a4-2f57e9548869"},"vehicle_type_id":"4","last_reported":1739898541,"current_range_meters":4000,"station_id":"ce4bhpp2rcd13ifvqhgg","pricing_plan_id":"cebpf4jnsgd1na2vs0mg"},{"bike_id":"90330b82-c731-4f59-aadc-5d582d1a9c5d","system_id":"levelo_inurba_marseille","lat":43.27932,"lon":5.4103,"is_reserved":false,"is_disabled":false,"rental_uris":{"android":"levelo://app?vid=90330b82-c731-4f59-aadc-5d582d1a9c5d","ios":"levelo://app?vid=90330b82-c731-4f59-aadc-5d582d1a9c5d"},"vehicle_type_id":"4","last_reported":1739898541,"current_range_meters":4000,"station_id":"ce4bhnp2rcd13ifvqh0g","pricing_plan_id":"cebpf4jnsgd1na2vs0mg"},{"bike_id":"f413335c-036f-4c32-b8eb-e49cdca31a5c","system_id":"levelo_inurba_marseille","lat":43.28352,"lon":5.38106,"is_reserved":false,"is_disabled":false,"rental_uris":{"android":"levelo://app?vid=f413335c-036f-4c32-b8eb-e49cdca31a5c","ios":"levelo://app?vid=f413335c-036f-4c32-b8eb-e49cdca31a5c"},"vehicle_type_id":"4","last_reported":1739898541,"current_range_meters":4400,"station_id":"ce4bh412rcd13ifvqdr0","pricing_plan_id":"cebpf4jnsgd1na2vs0mg"},{"bike_id":"273e4c0d-1ee7-4fbd-beff-4c9fdf78e7fd","system_id":"levelo_inurba_marseille","lat":43.24394,"lon":5.37063,"is_reserved":false,"is_disabled":false,"rental_uris":{"android":"levelo://app?vid=273e4c0d-1ee7-4fbd-beff-4c9fdf78e7fd","ios":"levelo://app?vid=273e4c0d-1ee7-4fbd-beff-4c9fdf78e7fd"},"vehicle_type_id":"4","last_reported":1739898541,"current_range_meters":4400,"station_id":"ce4bhhh2rcd13ifvqfk0","pricing_plan_id":"cebpf4jnsgd1na2vs0mg"},{"bike_id":"ec48da03-5f02-4157-a337-5459fe3ea939","system_id":"levelo_inurba_marseille","lat":43.28724,"lon":5.36092,"is_reserved":false,"is_disabled":false,"rental_uris":{"android":"levelo://app?vid=ec48da03-5f02-4157-a337-5459fe3ea939","ios":"levelo://app?vid=ec48da03-5f02-4157-a337-5459fe3ea939"},"vehicle_type_id":"4","last_reported":1739898541,"current_range_meters":4800,"station_id":"cki0cbj6b192h4jlfktg","pricing_plan_id":"cebpf4jnsgd1na2vs0mg"},{"bike_id":"bfe2ea49-1fcc-4cca-aa4a-848ca43dc87e","system_id":"levelo_inurba_marseille","lat":43.29895,"lon":5.43674,"is_reserved":false,"is_disabled":false,"rental_uris":{"android":"levelo://app?vid=bfe2ea49-1fcc-4cca-aa4a-848ca43dc87e","ios":"levelo://app?vid=bfe2ea49-1fcc-4cca-aa4a-848ca43dc87e"},"vehicle_type_id":"4","last_reported":1739898541,"current_range_meters":4800,"station_id":"ce4bhpp2rcd13ifvqhfg","pricing_plan_id":"cebpf4jnsgd1na2vs0mg"},{"bike_id":"d9b38396-2daa-4538-85dc-9fc44ea41d51","system_id":"levelo_inurba_marseille","lat":43.32329,"lon":5.4063,"is_reserved":false,"is_disabled":false,"rental_uris":{"android":"levelo://app?vid=d9b38396-2daa-4538-85dc-9fc44ea41d51","ios":"levelo://app?vid=d9b38396-2daa-4538-85dc-9fc44ea41d51"},"vehicle_type_id":"4","last_reported":1739898541,"current_range_meters":7200,"station_id":"ce4bhq92rcd13ifvqhjg","pricing_plan_id":"cebpf4jnsgd1na2vs0mg"},{"bike_id":"1ef1dae4-ade1-45a9-b340-681ba29b223a","system_id":"levelo_inurba_marseille","lat":43.30104,"lon":5.39872,"is_reserved":false,"is_disabled":true,"rental_uris":{"android":"levelo://app?vid=1ef1dae4-ade1-45a9-b340-681ba29b223a","ios":"levelo://app?vid=1ef1dae4-ade1-45a9-b340-681ba29b223a"},"vehicle_type_id":"4","last_reported":1739898541,"current_range_meters":8800,"station_id":"ce4bh0h2rcd13ifvqd40","pricing_plan_id":"cebpf4jnsgd1na2vs0mg"},{"bike_id":"88296025-89ed-48fe-b548-11569bb30673","system_id":"levelo_inurba_marseille","lat":43.28931,"lon":5.38393,"is_reserved":false,"is_disabled":false,"rental_uris":{"android":"levelo://app?vid=88296025-89ed-48fe-b548-11569bb30673","ios":"levelo://app?vid=88296025-89ed-48fe-b548-11569bb30673"},"vehicle_type_id":"4","last_reported":1739898541,"current_range_meters":5600,"station_id":"ce4bh612rcd13ifvqe6g","pricing_plan_id":"cebpf4jnsgd1na2vs0mg"},{"bike_id":"490804e0-3d4e-4d8d-ae67-01bc047f2978","system_id":"levelo_inurba_marseille","lat":43.27049,"lon":5.40261,"is_reserved":false,"is_disabled":false,"rental_uris":{"android":"levelo://app?vid=490804e0-3d4e-4d8d-ae67-01bc047f2978","ios":"levelo://app?vid=490804e0-3d4e-4d8d-ae67-01bc047f2978"},"vehicle_type_id":"4","last_reported":1739898541,"current_range_meters":7200,"station_id":"ce4bhk92rcd13ifvqgc0","pricing_plan_id":"cebpf4jnsgd1na2vs0mg"},{"bike_id":"70b76a0f-85a3-4929-9d5b-882bdd3b5c76","system_id":"levelo_inurba_marseille","lat":43.2917,"lon":5.37162,"is_reserved":false,"is_disabled":false,"rental_uris":{"android":"levelo://app?vid=70b76a0f-85a3-4929-9d5b-882bdd3b5c76","ios":"levelo://app?vid=70b76a0f-85a3-4929-9d5b-882bdd3b5c76"},"vehicle_type_id":"4","last_reported":1739898541,"current_range_meters":5600,"station_id":"ce4bha92rcd13ifvqeh0","pricing_plan_id":"cebpf4jnsgd1na2vs0mg"},{"bike_id":"0658d2fb-5059-4553-a7cf-c10d583227b7","system_id":"levelo_inurba_marseille","lat":43.28609,"lon":5.37069,"is_reserved":false,"is_disabled":false,"rental_uris":{"android":"levelo://app?vid=0658d2fb-5059-4553-a7cf-c10d583227b7","ios":"levelo://app?vid=0658d2fb-5059-4553-a7cf-c10d583227b7"},"vehicle_type_id":"4","last_reported":1739898541,"current_range_meters":6000,"station_id":"","pricing_plan_id":"cebpf4jnsgd1na2vs0mg"},{"bike_id":"2e5e89c3-0e0e-4cca-b25a-7707cb6d7c5d","system_id":"levelo_inurba_marseille","lat":43.27638,"lon":5.40888,"is_reserved":false,"is_disabled":false,"rental_uris":{"android":"levelo://app?vid=2e5e89c3-0e0e-4cca-b25a-7707cb6d7c5d","ios":"levelo://app?vid=2e5e89c3-0e0e-4cca-b25a-7707cb6d7c5d"},"vehicle_type_id":"4","last_reported":1739898541,"current_range_meters":6000,"station_id":"","pricing_plan_id":"cebpf4jnsgd1na2vs0mg"},{"bike_id":"904cc673-2921-432d-ab7d-0e324a47691b","system_id":"levelo_inurba_marseille","lat":43.2904,"lon":5.37563,"is_reserved":false,"is_disabled":false,"rental_uris":{"android":"levelo://app?vid=904cc673-2921-432d-ab7d-0e324a47691b","ios":"levelo://app?vid=904cc673-2921-432d-ab7d-0e324a47691b"},"vehicle_type_id":"4","last_reported":1739898541,"current_range_meters":6400,"station_id":"ce4bh692rcd13ifvqe90","pricing_plan_id":"cebpf4jnsgd1na2vs0mg"},{"bike_id":"b4eabccf-33d1-4bed-94fb-dd79bd8cb427","system_id":"levelo_inurba_marseille","lat":43.2718,"lon":5.41004,"is_reserved":false,"is_disabled":false,"rental_uris":{"android":"levelo://app?vid=b4eabccf-33d1-4bed-94fb-dd79bd8cb427","ios":"levelo://app?vid=b4eabccf-33d1-4bed-94fb-dd79bd8cb427"},"vehicle_type_id":"4","last_reported":1739898541,"current_range_meters":6000,"station_id":"ce4bhl12rcd13ifvqgf0","pricing_plan_id":"cebpf4jnsgd1na2vs0mg"},{"bike_id":"828f024f-3fa3-492e-b4f4-7bfb9d5e214d","system_id":"levelo_inurba_marseille","lat":43.27071,"lon":5.42287,"is_reserved":false,"is_disabled":true,"rental_uris":{"android":"levelo://app?vid=828f024f-3fa3-492e-b4f4-7bfb9d5e214d","ios":"levelo://app?vid=828f024f-3fa3-492e-b4f4-7bfb9d5e214d"},"vehicle_type_id":"4","last_reported":1739898541,"current_range_meters":6000,"station_id":"ce4bhk92rcd13ifvqgb0","pricing_plan_id":"cebpf4jnsgd1na2vs0mg"},{"bike_id":"ecfecac4-bba7-401e-b228-1934aaec7e4c","system_id":"levelo_inurba_marseille","lat":43.29891,"lon":5.43657,"is_reserved":false,"is_disabled":false,"rental_uris":{"android":"levelo://app?vid=ecfecac4-bba7-401e-b228-1934aaec7e4c","ios":"levelo://app?vid=ecfecac4-bba7-401e-b228-1934aaec7e4c"},"vehicle_type_id":"4","last_reported":1739898541,"current_range_meters":6000,"station_id":"ce4bhpp2rcd13ifvqhfg","pricing_plan_id":"cebpf4jnsgd1na2vs0mg"},{"bike_id":"7623f232-f40d-4ae5-885d-8c45902d7869","system_id":"levelo_inurba_marseille","lat":43.2738,"lon":5.36273,"is_reserved":false,"is_disabled":false,"rental_uris":{"android":"levelo://app?vid=7623f232-f40d-4ae5-885d-8c45902d7869","ios":"levelo://app?vid=7623f232-f40d-4ae5-885d-8c45902d7869"},"vehicle_type_id":"4","last_reported":1739898541,"current_range_meters":5600,"station_id":"ce4bhbh2rcd13ifvqeo0","pricing_plan_id":"cebpf4jnsgd1na2vs0mg"},{"bike_id":"cce6e2ef-ab6c-4b45-a8c5-d8c412f1b1d0","system_id":"levelo_inurba_marseille","lat":43.294342,"lon":5.385873,"is_reserved":false,"is_disabled":false,"rental_uris":{"android":"levelo://app?vid=cce6e2ef-ab6c-4b45-a8c5-d8c412f1b1d0","ios":"levelo://app?vid=cce6e2ef-ab6c-4b45-a8c5-d8c412f1b1d0"},"vehicle_type_id":"4","last_reported":1739898541,"current_range_meters":6400,"station_id":"ce4bh2h2rcd13ifvqdh0","pricing_plan_id":"cebpf4jnsgd1na2vs0mg"},{"bike_id":"ddd78d9b-fbeb-4019-a86c-676aeacb00c8","system_id":"levelo_inurba_marseille","lat":43.28592,"lon":5.37048,"is_reserved":false,"is_disabled":false,"rental_uris":{"android":"levelo://app?vid=ddd78d9b-fbeb-4019-a86c-676aeacb00c8","ios":"levelo://app?vid=ddd78d9b-fbeb-4019-a86c-676aeacb00c8"},"vehicle_type_id":"4","last_reported":1739898541,"current_range_meters":6400,"station_id":"ce4bht12rcd13ifvqi60","pricing_plan_id":"cebpf4jnsgd1na2vs0mg"},{"bike_id":"ec5814cc-8b7e-4d45-b2f0-e8a2b9b37adc","system_id":"levelo_inurba_marseille","lat":43.28154,"lon":5.42643,"is_reserved":false,"is_disabled":false,"rental_uris":{"android":"levelo://app?vid=ec5814cc-8b7e-4d45-b2f0-e8a2b9b37adc","ios":"levelo://app?vid=ec5814cc-8b7e-4d45-b2f0-e8a2b9b37adc"},"vehicle_type_id":"4","last_reported":1739898541,"current_range_meters":6000,"station_id":"ce4bhnh2rcd13ifvqgug","pricing_plan_id":"cebpf4jnsgd1na2vs0mg"},{"bike_id":"cb742525-23f8-41d5-a576-af571b6e869c","system_id":"levelo_inurba_marseille","lat":43.27369,"lon":5.36249,"is_reserved":false,"is_disabled":false,"rental_uris":{"android":"levelo://app?vid=cb742525-23f8-41d5-a576-af571b6e869c","ios":"levelo://app?vid=cb742525-23f8-41d5-a576-af571b6e869c"},"vehicle_type_id":"4","last_reported":1739898541,"current_range_meters":6400,"station_id":"ce4bhbh2rcd13ifvqeo0","pricing_plan_id":"cebpf4jnsgd1na2vs0mg"},{"bike_id":"f0f61fdf-e262-479f-a259-1997ef9b3f40","system_id":"levelo_inurba_marseille","lat":43.28152,"lon":5.42649,"is_reserved":false,"is_disabled":false,"rental_uris":{"android":"levelo://app?vid=f0f61fdf-e262-479f-a259-1997ef9b3f40","ios":"levelo://app?vid=f0f61fdf-e262-479f-a259-1997ef9b3f40"},"vehicle_type_id":"4","last_reported":1739898541,"current_range_meters":6400,"station_id":"","pricing_plan_id":"cebpf4jnsgd1na2vs0mg"},{"bike_id":"2fc51c18-93da-4c7a-ae54-30bc1bf5f64d","system_id":"levelo_inurba_marseille","lat":43.2951,"lon":5.38198,"is_reserved":false,"is_disabled":true,"rental_uris":{"android":"levelo://app?vid=2fc51c18-93da-4c7a-ae54-30bc1bf5f64d","ios":"levelo://app?vid=2fc51c18-93da-4c7a-ae54-30bc1bf5f64d"},"vehicle_type_id":"4","last_reported":1739898541,"current_range_meters":6400,"station_id":"","pricing_plan_id":"cebpf4jnsgd1na2vs0mg"},{"bike_id":"ee889b9d-0fb4-475a-bb7c-62499bd63c71","system_id":"levelo_inurba_marseille","lat":43.26489,"lon":5.39548,"is_reserved":false,"is_disabled":false,"rental_uris":{"android":"levelo://app?vid=ee889b9d-0fb4-475a-bb7c-62499bd63c71","ios":"levelo://app?vid=ee889b9d-0fb4-475a-bb7c-62499bd63c71"},"vehicle_type_id":"4","last_reported":1739898541,"current_range_meters":6400,"station_id":"ce4bhi12rcd13ifvqfq0","pricing_plan_id":"cebpf4jnsgd1na2vs0mg"},{"bike_id":"a4af178d-0384-434f-89b4-935f9bc2cb39","system_id":"levelo_inurba_marseille","lat":43.29549,"lon":5.422746,"is_reserved":false,"is_disabled":false,"rental_uris":{"android":"levelo://app?vid=a4af178d-0384-434f-89b4-935f9bc2cb39","ios":"levelo://app?vid=a4af178d-0384-434f-89b4-935f9bc2cb39"},"vehicle_type_id":"4","last_reported":1739898541,"current_range_meters":6400,"station_id":"","pricing_plan_id":"cebpf4jnsgd1na2vs0mg"},{"bike_id":"67a64e15-25a8-423e-9f0b-ca31b4e7a525","system_id":"levelo_inurba_marseille","lat":43.29412,"lon":5.38628,"is_reserved":false,"is_disabled":false,"rental_uris":{"android":"levelo://app?vid=67a64e15-25a8-423e-9f0b-ca31b4e7a525","ios":"levelo://app?vid=67a64e15-25a8-423e-9f0b-ca31b4e7a525"},"vehicle_type_id":"4","last_reported":1739898541,"current_range_meters":9600,"station_id":"ce4bh2h2rcd13ifvqdh0","pricing_plan_id":"cebpf4jnsgd1na2vs0mg"},{"bike_id":"811901b7-6a39-4b98-9209-f363e05c2482","system_id":"levelo_inurba_marseille","lat":43.28152,"lon":5.42631,"is_reserved":false,"is_disabled":false,"rental_uris":{"android":"levelo://app?vid=811901b7-6a39-4b98-9209-f363e05c2482","ios":"levelo://app?vid=811901b7-6a39-4b98-9209-f363e05c2482"},"vehicle_type_id":"4","last_reported":1739898541,"current_range_meters":6800,"station_id":"ce4bhnh2rcd13ifvqgug","pricing_plan_id":"cebpf4jnsgd1na2vs0mg"},{"bike_id":"8dbe617a-73bb-43b1-955a-f0b57c2f6fa2","system_id":"levelo_inurba_marseille","lat":43.27371,"lon":5.36244,"is_reserved":false,"is_disabled":false,"rental_uris":{"android":"levelo://app?vid=8dbe617a-73bb-43b1-955a-f0b57c2f6fa2","ios":"levelo://app?vid=8dbe617a-73bb-43b1-955a-f0b57c2f6fa2"},"vehicle_type_id":"4","last_reported":1739898541,"current_range_meters":6800,"station_id":"ce4bhbh2rcd13ifvqeo0","pricing_plan_id":"cebpf4jnsgd1na2vs0mg"},{"bike_id":"41520582-3026-490a-bec6-300873e33046","system_id":"levelo_inurba_marseille","lat":43.30191,"lon":5.36621,"is_reserved":false,"is_disabled":false,"rental_uris":{"android":"levelo://app?vid=41520582-3026-490a-bec6-300873e33046","ios":"levelo://app?vid=41520582-3026-490a-bec6-300873e33046"},"vehicle_type_id":"4","last_reported":1739898541,"current_range_meters":6800,"station_id":"ce4bgrh2rcd13ifvqc8g","pricing_plan_id":"cebpf4jnsgd1na2vs0mg"},{"bike_id":"f3d16902-7d7c-4b49-aefb-647a75876c9a","system_id":"levelo_inurba_marseille","lat":43.30429,"lon":5.38888,"is_reserved":false,"is_disabled":false,"rental_uris":{"android":"levelo://app?vid=f3d16902-7d7c-4b49-aefb-647a75876c9a","ios":"levelo://app?vid=f3d16902-7d7c-4b49-aefb-647a75876c9a"},"vehicle_type_id":"4","last_reported":1739898541,"current_range_meters":6800,"station_id":"","pricing_plan_id":"cebpf4jnsgd1na2vs0mg"},{"bike_id":"98dafedc-f25b-409d-b3e2-803b47ffb900","system_id":"levelo_inurba_marseille","lat":43.245,"lon":5.372373,"is_reserved":false,"is_disabled":false,"rental_uris":{"android":"levelo://app?vid=98dafedc-f25b-409d-b3e2-803b47ffb900","ios":"levelo://app?vid=98dafedc-f25b-409d-b3e2-803b47ffb900"},"vehicle_type_id":"4","last_reported":1739898541,"current_range_meters":6800,"station_id":"","pricing_plan_id":"cebpf4jnsgd1na2vs0mg"},{"bike_id":"39f2c321-4ea3-40c6-97ba-81e57ff146a4","system_id":"levelo_inurba_marseille","lat":43.28615,"lon":5.37064,"is_reserved":false,"is_disabled":false,"rental_uris":{"android":"levelo://app?vid=39f2c321-4ea3-40c6-97ba-81e57ff146a4","ios":"levelo://app?vid=39f2c321-4ea3-40c6-97ba-81e57ff146a4"},"vehicle_type_id":"4","last_reported":1739898541,"current_range_meters":6800,"station_id":"ce4bht12rcd13ifvqi60","pricing_plan_id":"cebpf4jnsgd1na2vs0mg"},{"bike_id":"a293a9ae-3af2-4d3e-a53b-8f60536adf16","system_id":"levelo_inurba_marseille","lat":43.30815,"lon":5.38169,"is_reserved":false,"is_disabled":false,"rental_uris":{"android":"levelo://app?vid=a293a9ae-3af2-4d3e-a53b-8f60536adf16","ios":"levelo://app?vid=a293a9ae-3af2-4d3e-a53b-8f60536adf16"},"vehicle_type_id":"4","last_reported":1739898541,"current_range_meters":7200,"station_id":"ce4bgt12rcd13ifvqce0","pricing_plan_id":"cebpf4jnsgd1na2vs0mg"},{"bike_id":"59d8b3ce-c48f-4458-81b1-127b48772a44","system_id":"levelo_inurba_marseille","lat":43.25828,"lon":5.394431,"is_reserved":false,"is_disabled":false,"rental_uris":{"android":"levelo://app?vid=59d8b3ce-c48f-4458-81b1-127b48772a44","ios":"levelo://app?vid=59d8b3ce-c48f-4458-81b1-127b48772a44"},"vehicle_type_id":"4","last_reported":1739898541,"current_range_meters":7200,"station_id":"","pricing_plan_id":"cebpf4jnsgd1na2vs0mg"},{"bike_id":"55f64484-6797-4e89-a13b-8e2fefecf5da","system_id":"levelo_inurba_marseille","lat":43.29277,"lon":5.40114,"is_reserved":false,"is_disabled":false,"rental_uris":{"android":"levelo://app?vid=55f64484-6797-4e89-a13b-8e2fefecf5da","ios":"levelo://app?vid=55f64484-6797-4e89-a13b-8e2fefecf5da"},"vehicle_type_id":"4","last_reported":1739898541,"current_range_meters":7200,"station_id":"ce4bh312rcd13ifvqdk0","pricing_plan_id":"cebpf4jnsgd1na2vs0mg"},{"bike_id":"4f7ae8bc-f54b-47eb-a5e6-b88a1c0eeb3b","system_id":"levelo_inurba_marseille","lat":43.25581,"lon":5.38228,"is_reserved":false,"is_disabled":false,"rental_uris":{"android":"levelo://app?vid=4f7ae8bc-f54b-47eb-a5e6-b88a1c0eeb3b","ios":"levelo://app?vid=4f7ae8bc-f54b-47eb-a5e6-b88a1c0eeb3b"},"vehicle_type_id":"4","last_reported":1739898541,"current_range_meters":7200,"station_id":"ce4bhih2rcd13ifvqfs0","pricing_plan_id":"cebpf4jnsgd1na2vs0mg"},{"bike_id":"6997124b-4017-413b-998b-7f0460d18350","system_id":"levelo_inurba_marseille","lat":43.27371,"lon":5.36241,"is_reserved":false,"is_disabled":false,"rental_uris":{"android":"levelo://app?vid=6997124b-4017-413b-998b-7f0460d18350","ios":"levelo://app?vid=6997124b-4017-413b-998b-7f0460d18350"},"vehicle_type_id":"4","last_reported":1739898541,"current_range_meters":7200,"station_id":"","pricing_plan_id":"cebpf4jnsgd1na2vs0mg"},{"bike_id":"cd8ec8c4-85d7-4371-bdea-7c6f6814a7e7","system_id":"levelo_inurba_marseille","lat":43.27208,"lon":5.39175,"is_reserved":false,"is_disabled":false,"rental_uris":{"android":"levelo://app?vid=cd8ec8c4-85d7-4371-bdea-7c6f6814a7e7","ios":"levelo://app?vid=cd8ec8c4-85d7-4371-bdea-7c6f6814a7e7"},"vehicle_type_id":"4","last_reported":1739898541,"current_range_meters":10000,"station_id":"ce4bhhp2rcd13ifvqfm0","pricing_plan_id":"cebpf4jnsgd1na2vs0mg"},{"bike_id":"4f8fd95c-1b81-4b3a-829e-055d0fe8ff1a","system_id":"levelo_inurba_marseille","lat":43.23968,"lon":5.36635,"is_reserved":false,"is_disabled":false,"rental_uris":{"android":"levelo://app?vid=4f8fd95c-1b81-4b3a-829e-055d0fe8ff1a","ios":"levelo://app?vid=4f8fd95c-1b81-4b3a-829e-055d0fe8ff1a"},"vehicle_type_id":"4","last_reported":1739898541,"current_range_meters":7200,"station_id":"","pricing_plan_id":"cebpf4jnsgd1na2vs0mg"},{"bike_id":"a4f50a9f-ef38-4e20-93d5-7c41e70a2bcc","system_id":"levelo_inurba_marseille","lat":43.33028,"lon":5.39048,"is_reserved":false,"is_disabled":false,"rental_uris":{"android":"levelo://app?vid=a4f50a9f-ef38-4e20-93d5-7c41e70a2bcc","ios":"levelo://app?vid=a4f50a9f-ef38-4e20-93d5-7c41e70a2bcc"},"vehicle_type_id":"4","last_reported":1739898541,"current_range_meters":6800,"station_id":"ce4bhr92rcd13ifvqhrg","pricing_plan_id":"cebpf4jnsgd1na2vs0mg"},{"bike_id":"2e562ee2-1736-444a-b9be-e19c0feb4293","system_id":"levelo_inurba_marseille","lat":43.28363,"lon":5.38637,"is_reserved":false,"is_disabled":false,"rental_uris":{"android":"levelo://app?vid=2e562ee2-1736-444a-b9be-e19c0feb4293","ios":"levelo://app?vid=2e562ee2-1736-444a-b9be-e19c0feb4293"},"vehicle_type_id":"4","last_reported":1739898541,"current_range_meters":6400,"station_id":"ce4bh492rcd13ifvqdvg","pricing_plan_id":"cebpf4jnsgd1na2vs0mg"},{"bike_id":"b24b7db6-b781-4065-8113-81ef0ebc5a66","system_id":"levelo_inurba_marseille","lat":43.296173,"lon":5.371583,"is_reserved":false,"is_disabled":false,"rental_uris":{"android":"levelo://app?vid=b24b7db6-b781-4065-8113-81ef0ebc5a66","ios":"levelo://app?vid=b24b7db6-b781-4065-8113-81ef0ebc5a66"},"vehicle_type_id":"4","last_reported":1739898541,"current_range_meters":8000,"station_id":"ce4bgpp2rcd13ifvqc3g","pricing_plan_id":"cebpf4jnsgd1na2vs0mg"},{"bike_id":"9c084e7c-b35d-4504-b1da-870e318faa33","system_id":"levelo_inurba_marseille","lat":43.2439,"lon":5.37065,"is_reserved":false,"is_disabled":false,"rental_uris":{"android":"levelo://app?vid=9c084e7c-b35d-4504-b1da-870e318faa33","ios":"levelo://app?vid=9c084e7c-b35d-4504-b1da-870e318faa33"},"vehicle_type_id":"4","last_reported":1739898541,"current_range_meters":7200,"station_id":"ce4bhhh2rcd13ifvqfk0","pricing_plan_id":"cebpf4jnsgd1na2vs0mg"},{"bike_id":"9ef23051-7f4e-4cfe-bdd1-dbfaa0e0aacf","system_id":"levelo_inurba_marseille","lat":43.28478,"lon":5.38429,"is_reserved":false,"is_disabled":false,"rental_uris":{"android":"levelo://app?vid=9ef23051-7f4e-4cfe-bdd1-dbfaa0e0aacf","ios":"levelo://app?vid=9ef23051-7f4e-4cfe-bdd1-dbfaa0e0aacf"},"vehicle_type_id":"4","last_reported":1739898541,"current_range_meters":8000,"station_id":"ce4bh512rcd13ifvqe3g","pricing_plan_id":"cebpf4jnsgd1na2vs0mg"},{"bike_id":"6e811817-2243-495b-8f8c-6e1d0901bd48","system_id":"levelo_inurba_marseille","lat":43.28038,"lon":5.36946,"is_reserved":false,"is_disabled":false,"rental_uris":{"android":"levelo://app?vid=6e811817-2243-495b-8f8c-6e1d0901bd48","ios":"levelo://app?vid=6e811817-2243-495b-8f8c-6e1d0901bd48"},"vehicle_type_id":"4","last_reported":1739898541,"current_range_meters":7200,"station_id":"ce4bha12rcd13ifvqef0","pricing_plan_id":"cebpf4jnsgd1na2vs0mg"},{"bike_id":"020f9db3-6048-4a83-8c59-4acc533112c8","system_id":"levelo_inurba_marseille","lat":43.28162,"lon":5.4264,"is_reserved":false,"is_disabled":false,"rental_uris":{"android":"levelo://app?vid=020f9db3-6048-4a83-8c59-4acc533112c8","ios":"levelo://app?vid=020f9db3-6048-4a83-8c59-4acc533112c8"},"vehicle_type_id":"4","last_reported":1739898541,"current_range_meters":8000,"station_id":"ce4bhnh2rcd13ifvqgug","pricing_plan_id":"cebpf4jnsgd1na2vs0mg"},{"bike_id":"c0cf0c98-af34-4428-a8a8-2a46657eee1b","system_id":"levelo_inurba_marseille","lat":43.26563,"lon":5.37315,"is_reserved":false,"is_disabled":false,"rental_uris":{"android":"levelo://app?vid=c0cf0c98-af34-4428-a8a8-2a46657eee1b","ios":"levelo://app?vid=c0cf0c98-af34-4428-a8a8-2a46657eee1b"},"vehicle_type_id":"4","last_reported":1739898541,"current_range_meters":8000,"station_id":"ce4bhg12rcd13ifvqf70","pricing_plan_id":"cebpf4jnsgd1na2vs0mg"},{"bike_id":"d855430c-6af6-4afc-8621-8dac0152b130","system_id":"levelo_inurba_marseille","lat":43.29583,"lon":5.38585,"is_reserved":false,"is_disabled":false,"rental_uris":{"android":"levelo://app?vid=d855430c-6af6-4afc-8621-8dac0152b130","ios":"levelo://app?vid=d855430c-6af6-4afc-8621-8dac0152b130"},"vehicle_type_id":"4","last_reported":1739898541,"current_range_meters":8000,"station_id":"","pricing_plan_id":"cebpf4jnsgd1na2vs0mg"},{"bike_id":"6528e792-6c2b-41ab-b102-37d30001a0e7","system_id":"levelo_inurba_marseille","lat":43.2723,"lon":5.40073,"is_reserved":false,"is_disabled":false,"rental_uris":{"android":"levelo://app?vid=6528e792-6c2b-41ab-b102-37d30001a0e7","ios":"levelo://app?vid=6528e792-6c2b-41ab-b102-37d30001a0e7"},"vehicle_type_id":"4","last_reported":1739898541,"current_range_meters":8400,"station_id":"","pricing_plan_id":"cebpf4jnsgd1na2vs0mg"},{"bike_id":"6311a2b7-7363-426f-8923-8da7f14c68a3","system_id":"levelo_inurba_marseille","lat":43.28368,"lon":5.38641,"is_reserved":false,"is_disabled":false,"rental_uris":{"android":"levelo://app?vid=6311a2b7-7363-426f-8923-8da7f14c68a3","ios":"levelo://app?vid=6311a2b7-7363-426f-8923-8da7f14c68a3"},"vehicle_type_id":"4","last_reported":1739898541,"current_range_meters":8400,"station_id":"ce4bh492rcd13ifvqdvg","pricing_plan_id":"cebpf4jnsgd1na2vs0mg"},{"bike_id":"43e58a6d-2a17-41bb-bd75-661bed22a62b","system_id":"levelo_inurba_marseille","lat":43.31181,"lon":5.38726,"is_reserved":false,"is_disabled":false,"rental_uris":{"android":"levelo://app?vid=43e58a6d-2a17-41bb-bd75-661bed22a62b","ios":"levelo://app?vid=43e58a6d-2a17-41bb-bd75-661bed22a62b"},"vehicle_type_id":"4","last_reported":1739898541,"current_range_meters":8400,"station_id":"","pricing_plan_id":"cebpf4jnsgd1na2vs0mg"},{"bike_id":"cc2b379f-9ae5-430a-a904-41ebe284713b","system_id":"levelo_inurba_marseille","lat":43.2706,"lon":5.4026,"is_reserved":false,"is_disabled":false,"rental_uris":{"android":"levelo://app?vid=cc2b379f-9ae5-430a-a904-41ebe284713b","ios":"levelo://app?vid=cc2b379f-9ae5-430a-a904-41ebe284713b"},"vehicle_type_id":"4","last_reported":1739898541,"current_range_meters":8400,"station_id":"ce4bhk92rcd13ifvqgc0","pricing_plan_id":"cebpf4jnsgd1na2vs0mg"},{"bike_id":"82526cec-739d-4e79-a184-4efebe247834","system_id":"levelo_inurba_marseille","lat":43.30932,"lon":5.40145,"is_reserved":false,"is_disabled":false,"rental_uris":{"android":"levelo://app?vid=82526cec-739d-4e79-a184-4efebe247834","ios":"levelo://app?vid=82526cec-739d-4e79-a184-4efebe247834"},"vehicle_type_id":"4","last_reported":1739898541,"current_range_meters":8000,"station_id":"ce4bgvp2rcd13ifvqct0","pricing_plan_id":"cebpf4jnsgd1na2vs0mg"},{"bike_id":"150d470b-8649-4d00-b7ab-12e70df09d60","system_id":"levelo_inurba_marseille","lat":43.27939,"lon":5.41045,"is_reserved":false,"is_disabled":false,"rental_uris":{"android":"levelo://app?vid=150d470b-8649-4d00-b7ab-12e70df09d60","ios":"levelo://app?vid=150d470b-8649-4d00-b7ab-12e70df09d60"},"vehicle_type_id":"4","last_reported":1739898541,"current_range_meters":8400,"station_id":"ce4bhnp2rcd13ifvqh0g","pricing_plan_id":"cebpf4jnsgd1na2vs0mg"},{"bike_id":"6bb7ac37-d16c-4a25-b6eb-1bf8ca1b78d5","system_id":"levelo_inurba_marseille","lat":43.32558,"lon":5.41444,"is_reserved":false,"is_disabled":false,"rental_uris":{"android":"levelo://app?vid=6bb7ac37-d16c-4a25-b6eb-1bf8ca1b78d5","ios":"levelo://app?vid=6bb7ac37-d16c-4a25-b6eb-1bf8ca1b78d5"},"vehicle_type_id":"4","last_reported":1739898541,"current_range_meters":8400,"station_id":"ce4bhq12rcd13ifvqhhg","pricing_plan_id":"cebpf4jnsgd1na2vs0mg"},{"bike_id":"71524ab5-1ed7-4241-8afa-7d6c28f1d3a5","system_id":"levelo_inurba_marseille","lat":43.26195,"lon":5.3745,"is_reserved":false,"is_disabled":false,"rental_uris":{"android":"levelo://app?vid=71524ab5-1ed7-4241-8afa-7d6c28f1d3a5","ios":"levelo://app?vid=71524ab5-1ed7-4241-8afa-7d6c28f1d3a5"},"vehicle_type_id":"4","last_reported":1739898541,"current_range_meters":8400,"station_id":"","pricing_plan_id":"cebpf4jnsgd1na2vs0mg"},{"bike_id":"e7b5440b-9fd9-40fc-976b-200fd24b2e6d","system_id":"levelo_inurba_marseille","lat":43.25875,"lon":5.39904,"is_reserved":false,"is_disabled":false,"rental_uris":{"android":"levelo://app?vid=e7b5440b-9fd9-40fc-976b-200fd24b2e6d","ios":"levelo://app?vid=e7b5440b-9fd9-40fc-976b-200fd24b2e6d"},"vehicle_type_id":"4","last_reported":1739898541,"current_range_meters":8800,"station_id":"ce4bhl92rcd13ifvqghg","pricing_plan_id":"cebpf4jnsgd1na2vs0mg"},{"bike_id":"7d70a064-2fe7-4d1a-a6f3-52a24b9e26ae","system_id":"levelo_inurba_marseille","lat":43.23337,"lon":5.40292,"is_reserved":false,"is_disabled":false,"rental_uris":{"android":"levelo://app?vid=7d70a064-2fe7-4d1a-a6f3-52a24b9e26ae","ios":"levelo://app?vid=7d70a064-2fe7-4d1a-a6f3-52a24b9e26ae"},"vehicle_type_id":"4","last_reported":1739898541,"current_range_meters":8800,"station_id":"ce4bh012rcd13ifvqcv0","pricing_plan_id":"cebpf4jnsgd1na2vs0mg"},{"bike_id":"5c88bf5c-f837-417f-bc3c-270e6ebfac81","system_id":"levelo_inurba_marseille","lat":43.31124,"lon":5.37767,"is_reserved":false,"is_disabled":false,"rental_uris":{"android":"levelo://app?vid=5c88bf5c-f837-417f-bc3c-270e6ebfac81","ios":"levelo://app?vid=5c88bf5c-f837-417f-bc3c-270e6ebfac81"},"vehicle_type_id":"4","last_reported":1739898541,"current_range_meters":8800,"station_id":"ce4bgt92rcd13ifvqcg0","pricing_plan_id":"cebpf4jnsgd1na2vs0mg"},{"bike_id":"66bdaba1-8ea6-4d2c-ad9c-6d213bc14ad8","system_id":"levelo_inurba_marseille","lat":43.26203,"lon":5.37927,"is_reserved":false,"is_disabled":false,"rental_uris":{"android":"levelo://app?vid=66bdaba1-8ea6-4d2c-ad9c-6d213bc14ad8","ios":"levelo://app?vid=66bdaba1-8ea6-4d2c-ad9c-6d213bc14ad8"},"vehicle_type_id":"4","last_reported":1739898541,"current_range_meters":8800,"station_id":"ce4bhjp2rcd13ifvqg90","pricing_plan_id":"cebpf4jnsgd1na2vs0mg"},{"bike_id":"03de1974-ea90-4415-805b-dc551d3e4ba0","system_id":"levelo_inurba_marseille","lat":43.28986,"lon":5.37831,"is_reserved":false,"is_disabled":false,"rental_uris":{"android":"levelo://app?vid=03de1974-ea90-4415-805b-dc551d3e4ba0","ios":"levelo://app?vid=03de1974-ea90-4415-805b-dc551d3e4ba0"},"vehicle_type_id":"4","last_reported":1739898541,"current_range_meters":8400,"station_id":"ce4bh9p2rcd13ifvqed0","pricing_plan_id":"cebpf4jnsgd1na2vs0mg"},{"bike_id":"791feee5-516f-4e1f-8eb5-ca01e5f9e8fc","system_id":"levelo_inurba_marseille","lat":43.3237,"lon":5.4055,"is_reserved":false,"is_disabled":false,"rental_uris":{"android":"levelo://app?vid=791feee5-516f-4e1f-8eb5-ca01e5f9e8fc","ios":"levelo://app?vid=791feee5-516f-4e1f-8eb5-ca01e5f9e8fc"},"vehicle_type_id":"4","last_reported":1739898541,"current_range_meters":9600,"station_id":"ce4bh092rcd13ifvqd30","pricing_plan_id":"cebpf4jnsgd1na2vs0mg"},{"bike_id":"f1e80af9-8d1b-48ec-90a9-ad5475d3ad68","system_id":"levelo_inurba_marseille","lat":43.2827,"lon":5.35081,"is_reserved":false,"is_disabled":false,"rental_uris":{"android":"levelo://app?vid=f1e80af9-8d1b-48ec-90a9-ad5475d3ad68","ios":"levelo://app?vid=f1e80af9-8d1b-48ec-90a9-ad5475d3ad68"},"vehicle_type_id":"4","last_reported":1739898541,"current_range_meters":9200,"station_id":"","pricing_plan_id":"cebpf4jnsgd1na2vs0mg"},{"bike_id":"dcc4feb3-cf37-4b30-8294-b2dba81cbc00","system_id":"levelo_inurba_marseille","lat":43.26196,"lon":5.37452,"is_reserved":false,"is_disabled":false,"rental_uris":{"android":"levelo://app?vid=dcc4feb3-cf37-4b30-8294-b2dba81cbc00","ios":"levelo://app?vid=dcc4feb3-cf37-4b30-8294-b2dba81cbc00"},"vehicle_type_id":"4","last_reported":1739898541,"current_range_meters":9200,"station_id":"","pricing_plan_id":"cebpf4jnsgd1na2vs0mg"},{"bike_id":"14786bf8-d0f3-4ef3-97f5-dbe012b6e328","system_id":"levelo_inurba_marseille","lat":43.28929,"lon":5.38394,"is_reserved":false,"is_disabled":false,"rental_uris":{"android":"levelo://app?vid=14786bf8-d0f3-4ef3-97f5-dbe012b6e328","ios":"levelo://app?vid=14786bf8-d0f3-4ef3-97f5-dbe012b6e328"},"vehicle_type_id":"4","last_reported":1739898541,"current_range_meters":8800,"station_id":"ce4bh612rcd13ifvqe6g","pricing_plan_id":"cebpf4jnsgd1na2vs0mg"},{"bike_id":"d551a74b-c882-40ca-a40d-fbce521d709d","system_id":"levelo_inurba_marseille","lat":43.30249,"lon":5.39598,"is_reserved":false,"is_disabled":false,"rental_uris":{"android":"levelo://app?vid=d551a74b-c882-40ca-a40d-fbce521d709d","ios":"levelo://app?vid=d551a74b-c882-40ca-a40d-fbce521d709d"},"vehicle_type_id":"4","last_reported":1739898541,"current_range_meters":9200,"station_id":"ce4bgvh2rcd13ifvqcs0","pricing_plan_id":"cebpf4jnsgd1na2vs0mg"},{"bike_id":"6aa2c406-2904-4de6-bead-7f3a7da561e5","system_id":"levelo_inurba_marseille","lat":43.28341,"lon":5.38098,"is_reserved":false,"is_disabled":false,"rental_uris":{"android":"levelo://app?vid=6aa2c406-2904-4de6-bead-7f3a7da561e5","ios":"levelo://app?vid=6aa2c406-2904-4de6-bead-7f3a7da561e5"},"vehicle_type_id":"4","last_reported":1739898541,"current_range_meters":9200,"station_id":"ce4bh412rcd13ifvqdr0","pricing_plan_id":"cebpf4jnsgd1na2vs0mg"},{"bike_id":"f6399e64-3acb-49ba-b9c2-41043b4c3d44","system_id":"levelo_inurba_marseille","lat":43.294552,"lon":5.407694,"is_reserved":false,"is_disabled":false,"rental_uris":{"android":"levelo://app?vid=f6399e64-3acb-49ba-b9c2-41043b4c3d44","ios":"levelo://app?vid=f6399e64-3acb-49ba-b9c2-41043b4c3d44"},"vehicle_type_id":"4","last_reported":1739898541,"current_range_meters":9200,"station_id":"ce4bgqh2rcd13ifvqc4g","pricing_plan_id":"cebpf4jnsgd1na2vs0mg"},{"bike_id":"b6e39582-9506-44d9-89f2-ac419a65664a","system_id":"levelo_inurba_marseille","lat":43.29266,"lon":5.38431,"is_reserved":false,"is_disabled":false,"rental_uris":{"android":"levelo://app?vid=b6e39582-9506-44d9-89f2-ac419a65664a","ios":"levelo://app?vid=b6e39582-9506-44d9-89f2-ac419a65664a"},"vehicle_type_id":"4","last_reported":1739898541,"current_range_meters":9600,"station_id":"","pricing_plan_id":"cebpf4jnsgd1na2vs0mg"},{"bike_id":"fae7a368-7c98-4da4-b39b-d80977ef9d24","system_id":"levelo_inurba_marseille","lat":43.30543,"lon":5.36725,"is_reserved":false,"is_disabled":false,"rental_uris":{"android":"levelo://app?vid=fae7a368-7c98-4da4-b39b-d80977ef9d24","ios":"levelo://app?vid=fae7a368-7c98-4da4-b39b-d80977ef9d24"},"vehicle_type_id":"4","last_reported":1739898541,"current_range_meters":9200,"station_id":"ce4bgrp2rcd13ifvqc9g","pricing_plan_id":"cebpf4jnsgd1na2vs0mg"},{"bike_id":"bc034e9d-8f36-4bb1-921c-eee248a6aca7","system_id":"levelo_inurba_marseille","lat":43.30875,"lon":5.39649,"is_reserved":false,"is_disabled":false,"rental_uris":{"android":"levelo://app?vid=bc034e9d-8f36-4bb1-921c-eee248a6aca7","ios":"levelo://app?vid=bc034e9d-8f36-4bb1-921c-eee248a6aca7"},"vehicle_type_id":"4","last_reported":1739898541,"current_range_meters":9600,"station_id":"ce4bh012rcd13ifvqcv0","pricing_plan_id":"cebpf4jnsgd1na2vs0mg"},{"bike_id":"fab2cbc9-105a-42d6-9706-86ab4357243b","system_id":"levelo_inurba_marseille","lat":43.32117,"lon":5.36765,"is_reserved":false,"is_disabled":false,"rental_uris":{"android":"levelo://app?vid=fab2cbc9-105a-42d6-9706-86ab4357243b","ios":"levelo://app?vid=fab2cbc9-105a-42d6-9706-86ab4357243b"},"vehicle_type_id":"4","last_reported":1739898541,"current_range_meters":9600,"station_id":"ce4bhrh2rcd13ifvqhug","pricing_plan_id":"cebpf4jnsgd1na2vs0mg"},{"bike_id":"552ec2c4-0d04-4792-b806-dd277dec1331","system_id":"levelo_inurba_marseille","lat":43.2695,"lon":5.38633,"is_reserved":false,"is_disabled":false,"rental_uris":{"android":"levelo://app?vid=552ec2c4-0d04-4792-b806-dd277dec1331","ios":"levelo://app?vid=552ec2c4-0d04-4792-b806-dd277dec1331"},"vehicle_type_id":"4","last_reported":1739898541,"current_range_meters":9600,"station_id":"ce4bhh92rcd13ifvqfh0","pricing_plan_id":"cebpf4jnsgd1na2vs0mg"},{"bike_id":"603829f6-1bd6-420a-b866-4544fcbffbce","system_id":"levelo_inurba_marseille","lat":43.24823,"lon":5.37446,"is_reserved":false,"is_disabled":false,"rental_uris":{"android":"levelo://app?vid=603829f6-1bd6-420a-b866-4544fcbffbce","ios":"levelo://app?vid=603829f6-1bd6-420a-b866-4544fcbffbce"},"vehicle_type_id":"4","last_reported":1739898541,"current_range_meters":9600,"station_id":"","pricing_plan_id":"cebpf4jnsgd1na2vs0mg"},{"bike_id":"8b7ce16f-f71b-479a-8239-88f3f98a8fb0","system_id":"levelo_inurba_marseille","lat":43.29253,"lon":5.40907,"is_reserved":false,"is_disabled":false,"rental_uris":{"android":"levelo://app?vid=8b7ce16f-f71b-479a-8239-88f3f98a8fb0","ios":"levelo://app?vid=8b7ce16f-f71b-479a-8239-88f3f98a8fb0"},"vehicle_type_id":"4","last_reported":1739898541,"current_range_meters":9600,"station_id":"ce4bh192rcd13ifvqdc0","pricing_plan_id":"cebpf4jnsgd1na2vs0mg"},{"bike_id":"fc9896ce-1f52-403c-86a7-1678079c9523","system_id":"levelo_inurba_marseille","lat":43.28153,"lon":5.44241,"is_reserved":false,"is_disabled":false,"rental_uris":{"android":"levelo://app?vid=fc9896ce-1f52-403c-86a7-1678079c9523","ios":"levelo://app?vid=fc9896ce-1f52-403c-86a7-1678079c9523"},"vehicle_type_id":"4","last_reported":1739898541,"current_range_meters":9600,"station_id":"","pricing_plan_id":"cebpf4jnsgd1na2vs0mg"},{"bike_id":"63911d7d-4683-40e4-b45e-cbce8f88a5f3","system_id":"levelo_inurba_marseille","lat":43.28497,"lon":5.38418,"is_reserved":false,"is_disabled":false,"rental_uris":{"android":"levelo://app?vid=63911d7d-4683-40e4-b45e-cbce8f88a5f3","ios":"levelo://app?vid=63911d7d-4683-40e4-b45e-cbce8f88a5f3"},"vehicle_type_id":"4","last_reported":1739898541,"current_range_meters":9600,"station_id":"ce4bh512rcd13ifvqe3g","pricing_plan_id":"cebpf4jnsgd1na2vs0mg"},{"bike_id":"4e36f242-7552-40d3-8168-ee6da5e3670b","system_id":"levelo_inurba_marseille","lat":43.26062,"lon":5.39397,"is_reserved":false,"is_disabled":false,"rental_uris":{"android":"levelo://app?vid=4e36f242-7552-40d3-8168-ee6da5e3670b","ios":"levelo://app?vid=4e36f242-7552-40d3-8168-ee6da5e3670b"},"vehicle_type_id":"4","last_reported":1739898541,"current_range_meters":9600,"station_id":"ce4bhh92rcd13ifvqfj0","pricing_plan_id":"cebpf4jnsgd1na2vs0mg"},{"bike_id":"8072f034-69d4-48c5-b234-451357393f04","system_id":"levelo_inurba_marseille","lat":43.23969,"lon":5.36616,"is_reserved":false,"is_disabled":false,"rental_uris":{"android":"levelo://app?vid=8072f034-69d4-48c5-b234-451357393f04","ios":"levelo://app?vid=8072f034-69d4-48c5-b234-451357393f04"},"vehicle_type_id":"4","last_reported":1739898541,"current_range_meters":10000,"station_id":"ce4bhi12rcd13ifvqfp0","pricing_plan_id":"cebpf4jnsgd1na2vs0mg"},{"bike_id":"87f6c48b-f530-4ecd-861f-f23a50e42745","system_id":"levelo_inurba_marseille","lat":43.28476,"lon":5.38417,"is_reserved":false,"is_disabled":false,"rental_uris":{"android":"levelo://app?vid=87f6c48b-f530-4ecd-861f-f23a50e42745","ios":"levelo://app?vid=87f6c48b-f530-4ecd-861f-f23a50e42745"},"vehicle_type_id":"4","last_reported":1739898541,"current_range_meters":10000,"station_id":"ce4bh512rcd13ifvqe3g","pricing_plan_id":"cebpf4jnsgd1na2vs0mg"},{"bike_id":"c9071df5-5664-4a5e-b1b2-1df958a7db03","system_id":"levelo_inurba_marseille","lat":43.23978,"lon":5.36625,"is_reserved":false,"is_disabled":false,"rental_uris":{"android":"levelo://app?vid=c9071df5-5664-4a5e-b1b2-1df958a7db03","ios":"levelo://app?vid=c9071df5-5664-4a5e-b1b2-1df958a7db03"},"vehicle_type_id":"4","last_reported":1739898541,"current_range_meters":10000,"station_id":"","pricing_plan_id":"cebpf4jnsgd1na2vs0mg"},{"bike_id":"33604822-0839-49e5-a64a-3e509bb43553","system_id":"levelo_inurba_marseille","lat":43.28161,"lon":5.42645,"is_reserved":false,"is_disabled":false,"rental_uris":{"android":"levelo://app?vid=33604822-0839-49e5-a64a-3e509bb43553","ios":"levelo://app?vid=33604822-0839-49e5-a64a-3e509bb43553"},"vehicle_type_id":"4","last_reported":1739898541,"current_range_meters":10000,"station_id":"ce4bhnh2rcd13ifvqgug","pricing_plan_id":"cebpf4jnsgd1na2vs0mg"},{"bike_id":"533750df-7d4a-4730-8172-7b9b1e438d9f","system_id":"levelo_inurba_marseille","lat":43.29524,"lon":5.37508,"is_reserved":false,"is_disabled":false,"rental_uris":{"android":"levelo://app?vid=533750df-7d4a-4730-8172-7b9b1e438d9f","ios":"levelo://app?vid=533750df-7d4a-4730-8172-7b9b1e438d9f"},"vehicle_type_id":"4","last_reported":1739898541,"current_range_meters":6000,"station_id":"ce4bgkp2rcd13ifvqbmg","pricing_plan_id":"cebpf4jnsgd1na2vs0mg"},{"bike_id":"9127b88e-a8f7-4bc1-aec5-554173884c40","system_id":"levelo_inurba_marseille","lat":43.28487,"lon":5.3842,"is_reserved":false,"is_disabled":false,"rental_uris":{"android":"levelo://app?vid=9127b88e-a8f7-4bc1-aec5-554173884c40","ios":"levelo://app?vid=9127b88e-a8f7-4bc1-aec5-554173884c40"},"vehicle_type_id":"4","last_reported":1739898541,"current_range_meters":10000,"station_id":"ce4bh512rcd13ifvqe3g","pricing_plan_id":"cebpf4jnsgd1na2vs0mg"},{"bike_id":"3ab4ecca-a7d0-4e14-9e63-eca0d3b35304","system_id":"levelo_inurba_marseille","lat":43.30479,"lon":5.38214,"is_reserved":false,"is_disabled":false,"rental_uris":{"android":"levelo://app?vid=3ab4ecca-a7d0-4e14-9e63-eca0d3b35304","ios":"levelo://app?vid=3ab4ecca-a7d0-4e14-9e63-eca0d3b35304"},"vehicle_type_id":"4","last_reported":1739898541,"current_range_meters":10000,"station_id":"","pricing_plan_id":"cebpf4jnsgd1na2vs0mg"},{"bike_id":"5ac779f2-1fb7-4568-b0fe-31c31466d82e","system_id":"levelo_inurba_marseille","lat":43.26564,"lon":5.39005,"is_reserved":false,"is_disabled":false,"rental_uris":{"android":"levelo://app?vid=5ac779f2-1fb7-4568-b0fe-31c31466d82e","ios":"levelo://app?vid=5ac779f2-1fb7-4568-b0fe-31c31466d82e"},"vehicle_type_id":"4","last_reported":1739898541,"current_range_meters":10000,"station_id":"ce4bhe12rcd13ifvqf30","pricing_plan_id":"cebpf4jnsgd1na2vs0mg"},{"bike_id":"2a156535-c692-4f69-8b63-5f57cc18bc39","system_id":"levelo_inurba_marseille","lat":43.29253,"lon":5.38445,"is_reserved":false,"is_disabled":false,"rental_uris":{"android":"levelo://app?vid=2a156535-c692-4f69-8b63-5f57cc18bc39","ios":"levelo://app?vid=2a156535-c692-4f69-8b63-5f57cc18bc39"},"vehicle_type_id":"4","last_reported":1739898541,"current_range_meters":10000,"station_id":"ce4bh692rcd13ifvqea0","pricing_plan_id":"cebpf4jnsgd1na2vs0mg"},{"bike_id":"b252e956-ece5-49cc-acc1-49353e56c1d7","system_id":"levelo_inurba_marseille","lat":43.27976,"lon":5.38734,"is_reserved":false,"is_disabled":false,"rental_uris":{"android":"levelo://app?vid=b252e956-ece5-49cc-acc1-49353e56c1d7","ios":"levelo://app?vid=b252e956-ece5-49cc-acc1-49353e56c1d7"},"vehicle_type_id":"4","last_reported":1739898541,"current_range_meters":8400,"station_id":"ce4bhg12rcd13ifvqf80","pricing_plan_id":"cebpf4jnsgd1na2vs0mg"},{"bike_id":"40b5f5e0-c3f2-4435-bc23-fb47cad32225","system_id":"levelo_inurba_marseille","lat":43.28941,"lon":5.3664,"is_reserved":false,"is_disabled":false,"rental_uris":{"android":"levelo://app?vid=40b5f5e0-c3f2-4435-bc23-fb47cad32225","ios":"levelo://app?vid=40b5f5e0-c3f2-4435-bc23-fb47cad32225"},"vehicle_type_id":"4","last_reported":1739898541,"current_range_meters":10800,"station_id":"ce4bhap2rcd13ifvqek0","pricing_plan_id":"cebpf4jnsgd1na2vs0mg"},{"bike_id":"1e7891a1-67d3-4041-b602-5871576f8718","system_id":"levelo_inurba_marseille","lat":43.23961,"lon":5.36639,"is_reserved":false,"is_disabled":false,"rental_uris":{"android":"levelo://app?vid=1e7891a1-67d3-4041-b602-5871576f8718","ios":"levelo://app?vid=1e7891a1-67d3-4041-b602-5871576f8718"},"vehicle_type_id":"4","last_reported":1739898541,"current_range_meters":10800,"station_id":"","pricing_plan_id":"cebpf4jnsgd1na2vs0mg"},{"bike_id":"e605dea0-84a5-4395-b86a-134e39164b56","system_id":"levelo_inurba_marseille","lat":43.28627,"lon":5.35106,"is_reserved":false,"is_disabled":false,"rental_uris":{"android":"levelo://app?vid=e605dea0-84a5-4395-b86a-134e39164b56","ios":"levelo://app?vid=e605dea0-84a5-4395-b86a-134e39164b56"},"vehicle_type_id":"4","last_reported":1739898541,"current_range_meters":10800,"station_id":"ce4bhch2rcd13ifvqeug","pricing_plan_id":"cebpf4jnsgd1na2vs0mg"},{"bike_id":"cb8372d6-bad2-4555-89ad-5b495afb0b59","system_id":"levelo_inurba_marseille","lat":43.24822,"lon":5.37459,"is_reserved":false,"is_disabled":false,"rental_uris":{"android":"levelo://app?vid=cb8372d6-bad2-4555-89ad-5b495afb0b59","ios":"levelo://app?vid=cb8372d6-bad2-4555-89ad-5b495afb0b59"},"vehicle_type_id":"4","last_reported":1739898541,"current_range_meters":10800,"station_id":"ce4bhgh2rcd13ifvqfb0","pricing_plan_id":"cebpf4jnsgd1na2vs0mg"},{"bike_id":"70dee217-670e-40d7-b959-7dcdfca9f445","system_id":"levelo_inurba_marseille","lat":43.248,"lon":5.37458,"is_reserved":false,"is_disabled":false,"rental_uris":{"android":"levelo://app?vid=70dee217-670e-40d7-b959-7dcdfca9f445","ios":"levelo://app?vid=70dee217-670e-40d7-b959-7dcdfca9f445"},"vehicle_type_id":"4","last_reported":1739898541,"current_range_meters":10800,"station_id":"","pricing_plan_id":"cebpf4jnsgd1na2vs0mg"},{"bike_id":"faf064d1-ab7f-4112-973b-e4362743bba7","system_id":"levelo_inurba_marseille","lat":43.335388,"lon":5.391887,"is_reserved":false,"is_disabled":false,"rental_uris":{"android":"levelo://app?vid=faf064d1-ab7f-4112-973b-e4362743bba7","ios":"levelo://app?vid=faf064d1-ab7f-4112-973b-e4362743bba7"},"vehicle_type_id":"4","last_reported":1739898541,"current_range_meters":10800,"station_id":"","pricing_plan_id":"cebpf4jnsgd1na2vs0mg"},{"bike_id":"185b9034-ad54-4ea3-938e-2cb713010051","system_id":"levelo_inurba_marseille","lat":43.24385,"lon":5.37063,"is_reserved":false,"is_disabled":false,"rental_uris":{"android":"levelo://app?vid=185b9034-ad54-4ea3-938e-2cb713010051","ios":"levelo://app?vid=185b9034-ad54-4ea3-938e-2cb713010051"},"vehicle_type_id":"4","last_reported":1739898541,"current_range_meters":10800,"station_id":"ce4bhhh2rcd13ifvqfk0","pricing_plan_id":"cebpf4jnsgd1na2vs0mg"},{"bike_id":"b62a71c9-c153-4a70-bf13-c71155cbba97","system_id":"levelo_inurba_marseille","lat":43.25587,"lon":5.38227,"is_reserved":false,"is_disabled":false,"rental_uris":{"android":"levelo://app?vid=b62a71c9-c153-4a70-bf13-c71155cbba97","ios":"levelo://app?vid=b62a71c9-c153-4a70-bf13-c71155cbba97"},"vehicle_type_id":"4","last_reported":1739898541,"current_range_meters":11200,"station_id":"ce4bhih2rcd13ifvqfs0","pricing_plan_id":"cebpf4jnsgd1na2vs0mg"},{"bike_id":"0ddd8de4-1fa2-44a4-910e-01dbc6c0ee46","system_id":"levelo_inurba_marseille","lat":43.29622,"lon":5.37711,"is_reserved":false,"is_disabled":true,"rental_uris":{"android":"levelo://app?vid=0ddd8de4-1fa2-44a4-910e-01dbc6c0ee46","ios":"levelo://app?vid=0ddd8de4-1fa2-44a4-910e-01dbc6c0ee46"},"vehicle_type_id":"4","last_reported":1739898541,"current_range_meters":11200,"station_id":"","pricing_plan_id":"cebpf4jnsgd1na2vs0mg"},{"bike_id":"21ff831d-7c13-4b37-b7b8-1111ba31204e","system_id":"levelo_inurba_marseille","lat":43.256721,"lon":5.411079,"is_reserved":false,"is_disabled":false,"rental_uris":{"android":"levelo://app?vid=21ff831d-7c13-4b37-b7b8-1111ba31204e","ios":"levelo://app?vid=21ff831d-7c13-4b37-b7b8-1111ba31204e"},"vehicle_type_id":"4","last_reported":1739898541,"current_range_meters":11200,"station_id":"","pricing_plan_id":"cebpf4jnsgd1na2vs0mg"},{"bike_id":"10f8da56-b982-4af7-a78a-0fa9c8b1a438","system_id":"levelo_inurba_marseille","lat":43.31896,"lon":5.40737,"is_reserved":false,"is_disabled":false,"rental_uris":{"android":"levelo://app?vid=10f8da56-b982-4af7-a78a-0fa9c8b1a438","ios":"levelo://app?vid=10f8da56-b982-4af7-a78a-0fa9c8b1a438"},"vehicle_type_id":"4","last_reported":1739898541,"current_range_meters":11200,"station_id":"ce4bhq12rcd13ifvqhig","pricing_plan_id":"cebpf4jnsgd1na2vs0mg"},{"bike_id":"eb4082a0-fcf0-4d68-a549-09b13f0d99af","system_id":"levelo_inurba_marseille","lat":43.28939,"lon":5.36375,"is_reserved":false,"is_disabled":false,"rental_uris":{"android":"levelo://app?vid=eb4082a0-fcf0-4d68-a549-09b13f0d99af","ios":"levelo://app?vid=eb4082a0-fcf0-4d68-a549-09b13f0d99af"},"vehicle_type_id":"4","last_reported":1739898541,"current_range_meters":11200,"station_id":"ce4bhc92rcd13ifvqetg","pricing_plan_id":"cebpf4jnsgd1na2vs0mg"},{"bike_id":"d744b4e5-dabe-404a-9185-67f33275efc9","system_id":"levelo_inurba_marseille","lat":43.25589,"lon":5.38222,"is_reserved":false,"is_disabled":false,"rental_uris":{"android":"levelo://app?vid=d744b4e5-dabe-404a-9185-67f33275efc9","ios":"levelo://app?vid=d744b4e5-dabe-404a-9185-67f33275efc9"},"vehicle_type_id":"4","last_reported":1739898541,"current_range_meters":11200,"station_id":"","pricing_plan_id":"cebpf4jnsgd1na2vs0mg"},{"bike_id":"a435ef65-76bc-4104-8da3-73db3c078ce2","system_id":"levelo_inurba_marseille","lat":43.27622,"lon":5.36113,"is_reserved":false,"is_disabled":false,"rental_uris":{"android":"levelo://app?vid=a435ef65-76bc-4104-8da3-73db3c078ce2","ios":"levelo://app?vid=a435ef65-76bc-4104-8da3-73db3c078ce2"},"vehicle_type_id":"4","last_reported":1739898541,"current_range_meters":11200,"station_id":"ce4bgj92rcd13ifvqbe0","pricing_plan_id":"cebpf4jnsgd1na2vs0mg"},{"bike_id":"28d29371-58ca-4507-ba2d-658dd91ae2d3","system_id":"levelo_inurba_marseille","lat":43.25582,"lon":5.38234,"is_reserved":false,"is_disabled":false,"rental_uris":{"android":"levelo://app?vid=28d29371-58ca-4507-ba2d-658dd91ae2d3","ios":"levelo://app?vid=28d29371-58ca-4507-ba2d-658dd91ae2d3"},"vehicle_type_id":"4","last_reported":1739898541,"current_range_meters":11200,"station_id":"ce4bhih2rcd13ifvqfs0","pricing_plan_id":"cebpf4jnsgd1na2vs0mg"},{"bike_id":"91bf3218-0a05-4226-acc9-b3131b7d5a8d","system_id":"levelo_inurba_marseille","lat":43.23977,"lon":5.36598,"is_reserved":false,"is_disabled":false,"rental_uris":{"android":"levelo://app?vid=91bf3218-0a05-4226-acc9-b3131b7d5a8d","ios":"levelo://app?vid=91bf3218-0a05-4226-acc9-b3131b7d5a8d"},"vehicle_type_id":"4","last_reported":1739898541,"current_range_meters":11600,"station_id":"ce4bhi12rcd13ifvqfp0","pricing_plan_id":"cebpf4jnsgd1na2vs0mg"},{"bike_id":"27d281e4-ae2c-4d0a-b5af-b1a6c9a261f7","system_id":"levelo_inurba_marseille","lat":43.31707,"lon":5.37762,"is_reserved":false,"is_disabled":true,"rental_uris":{"android":"levelo://app?vid=27d281e4-ae2c-4d0a-b5af-b1a6c9a261f7","ios":"levelo://app?vid=27d281e4-ae2c-4d0a-b5af-b1a6c9a261f7"},"vehicle_type_id":"4","last_reported":1739898541,"current_range_meters":11600,"station_id":"ce4bgth2rcd13ifvqch0","pricing_plan_id":"cebpf4jnsgd1na2vs0mg"},{"bike_id":"934e2516-f1c4-463d-ae3d-da609a964688","system_id":"levelo_inurba_marseille","lat":43.23967,"lon":5.36637,"is_reserved":false,"is_disabled":false,"rental_uris":{"android":"levelo://app?vid=934e2516-f1c4-463d-ae3d-da609a964688","ios":"levelo://app?vid=934e2516-f1c4-463d-ae3d-da609a964688"},"vehicle_type_id":"4","last_reported":1739898541,"current_range_meters":11600,"station_id":"","pricing_plan_id":"cebpf4jnsgd1na2vs0mg"},{"bike_id":"b04b4901-a32c-404d-ac3b-6386c87511aa","system_id":"levelo_inurba_marseille","lat":43.30432,"lon":5.38895,"is_reserved":false,"is_disabled":false,"rental_uris":{"android":"levelo://app?vid=b04b4901-a32c-404d-ac3b-6386c87511aa","ios":"levelo://app?vid=b04b4901-a32c-404d-ac3b-6386c87511aa"},"vehicle_type_id":"4","last_reported":1739898541,"current_range_meters":11600,"station_id":"ce4bgk12rcd13ifvqbi0","pricing_plan_id":"cebpf4jnsgd1na2vs0mg"},{"bike_id":"6cddacd4-7bc4-443f-9bce-abdc1ff43426","system_id":"levelo_inurba_marseille","lat":43.28424,"lon":5.34997,"is_reserved":false,"is_disabled":false,"rental_uris":{"android":"levelo://app?vid=6cddacd4-7bc4-443f-9bce-abdc1ff43426","ios":"levelo://app?vid=6cddacd4-7bc4-443f-9bce-abdc1ff43426"},"vehicle_type_id":"4","last_reported":1739898541,"current_range_meters":11600,"station_id":"ce4bhbh2rcd13ifvqepg","pricing_plan_id":"cebpf4jnsgd1na2vs0mg"},{"bike_id":"ef0679c8-4291-4eda-b19f-9b1aa398357f","system_id":"levelo_inurba_marseille","lat":43.29531,"lon":5.37511,"is_reserved":false,"is_disabled":false,"rental_uris":{"android":"levelo://app?vid=ef0679c8-4291-4eda-b19f-9b1aa398357f","ios":"levelo://app?vid=ef0679c8-4291-4eda-b19f-9b1aa398357f"},"vehicle_type_id":"4","last_reported":1739898541,"current_range_meters":11600,"station_id":"ce4bgkp2rcd13ifvqbmg","pricing_plan_id":"cebpf4jnsgd1na2vs0mg"},{"bike_id":"b33c4823-eab9-442c-b0d4-6939ce7eeb21","system_id":"levelo_inurba_marseille","lat":43.26556,"lon":5.3729,"is_reserved":false,"is_disabled":false,"rental_uris":{"android":"levelo://app?vid=b33c4823-eab9-442c-b0d4-6939ce7eeb21","ios":"levelo://app?vid=b33c4823-eab9-442c-b0d4-6939ce7eeb21"},"vehicle_type_id":"4","last_reported":1739898541,"current_range_meters":12000,"station_id":"ce4bhg12rcd13ifvqf70","pricing_plan_id":"cebpf4jnsgd1na2vs0mg"},{"bike_id":"fa3067f1-c742-4c90-b5bb-9c7f125c9b24","system_id":"levelo_inurba_marseille","lat":43.29382,"lon":5.37872,"is_reserved":false,"is_disabled":false,"rental_uris":{"android":"levelo://app?vid=fa3067f1-c742-4c90-b5bb-9c7f125c9b24","ios":"levelo://app?vid=fa3067f1-c742-4c90-b5bb-9c7f125c9b24"},"vehicle_type_id":"4","last_reported":1739898541,"current_range_meters":6000,"station_id":"ce4bgjh2rcd13ifvqbf0","pricing_plan_id":"cebpf4jnsgd1na2vs0mg"},{"bike_id":"577d49c9-99eb-4971-83f3-5698c0e975e3","system_id":"levelo_inurba_marseille","lat":43.29161,"lon":5.37146,"is_reserved":false,"is_disabled":false,"rental_uris":{"android":"levelo://app?vid=577d49c9-99eb-4971-83f3-5698c0e975e3","ios":"levelo://app?vid=577d49c9-99eb-4971-83f3-5698c0e975e3"},"vehicle_type_id":"4","last_reported":1739898541,"current_range_meters":12000,"station_id":"ce4bha92rcd13ifvqeh0","pricing_plan_id":"cebpf4jnsgd1na2vs0mg"},{"bike_id":"7d8f51dc-26ee-49bf-b8a8-33752213fefa","system_id":"levelo_inurba_marseille","lat":43.28436,"lon":5.39204,"is_reserved":false,"is_disabled":false,"rental_uris":{"android":"levelo://app?vid=7d8f51dc-26ee-49bf-b8a8-33752213fefa","ios":"levelo://app?vid=7d8f51dc-26ee-49bf-b8a8-33752213fefa"},"vehicle_type_id":"4","last_reported":1739898541,"current_range_meters":12000,"station_id":"ce4bhoh2rcd13ifvqh5g","pricing_plan_id":"cebpf4jnsgd1na2vs0mg"},{"bike_id":"63538bc9-bd34-492b-a65c-2e6744a1e7c3","system_id":"levelo_inurba_marseille","lat":43.30442,"lon":5.38891,"is_reserved":false,"is_disabled":false,"rental_uris":{"android":"levelo://app?vid=63538bc9-bd34-492b-a65c-2e6744a1e7c3","ios":"levelo://app?vid=63538bc9-bd34-492b-a65c-2e6744a1e7c3"},"vehicle_type_id":"4","last_reported":1739898541,"current_range_meters":12000,"station_id":"ce4bgk12rcd13ifvqbi0","pricing_plan_id":"cebpf4jnsgd1na2vs0mg"},{"bike_id":"c5196719-d258-4dcc-b854-2fca555cf4cd","system_id":"levelo_inurba_marseille","lat":43.30933,"lon":5.40143,"is_reserved":false,"is_disabled":false,"rental_uris":{"android":"levelo://app?vid=c5196719-d258-4dcc-b854-2fca555cf4cd","ios":"levelo://app?vid=c5196719-d258-4dcc-b854-2fca555cf4cd"},"vehicle_type_id":"4","last_reported":1739898541,"current_range_meters":12000,"station_id":"ce4bgvp2rcd13ifvqct0","pricing_plan_id":"cebpf4jnsgd1na2vs0mg"},{"bike_id":"6c96a73f-ff01-463f-bd8c-14885ee904b6","system_id":"levelo_inurba_marseille","lat":43.2908,"lon":5.35756,"is_reserved":false,"is_disabled":false,"rental_uris":{"android":"levelo://app?vid=6c96a73f-ff01-463f-bd8c-14885ee904b6","ios":"levelo://app?vid=6c96a73f-ff01-463f-bd8c-14885ee904b6"},"vehicle_type_id":"4","last_reported":1739898541,"current_range_meters":12000,"station_id":"ce4bhb92rcd13ifvqen0","pricing_plan_id":"cebpf4jnsgd1na2vs0mg"},{"bike_id":"1ddb948f-b667-4acb-a6e0-90f5d661db9c","system_id":"levelo_inurba_marseille","lat":43.29528,"lon":5.3906,"is_reserved":false,"is_disabled":false,"rental_uris":{"android":"levelo://app?vid=1ddb948f-b667-4acb-a6e0-90f5d661db9c","ios":"levelo://app?vid=1ddb948f-b667-4acb-a6e0-90f5d661db9c"},"vehicle_type_id":"4","last_reported":1739898541,"current_range_meters":12000,"station_id":"ce4bh3p2rcd13ifvqdp0","pricing_plan_id":"cebpf4jnsgd1na2vs0mg"},{"bike_id":"fea78ddd-43fc-4feb-a76d-6c67e089edc1","system_id":"levelo_inurba_marseille","lat":43.29578,"lon":5.37514,"is_reserved":false,"is_disabled":false,"rental_uris":{"android":"levelo://app?vid=fea78ddd-43fc-4feb-a76d-6c67e089edc1","ios":"levelo://app?vid=fea78ddd-43fc-4feb-a76d-6c67e089edc1"},"vehicle_type_id":"4","last_reported":1739898541,"current_range_meters":12000,"station_id":"","pricing_plan_id":"cebpf4jnsgd1na2vs0mg"},{"bike_id":"eb8e2e87-ad12-4e87-8e4a-757897446f7e","system_id":"levelo_inurba_marseille","lat":43.25584,"lon":5.3823,"is_reserved":false,"is_disabled":false,"rental_uris":{"android":"levelo://app?vid=eb8e2e87-ad12-4e87-8e4a-757897446f7e","ios":"levelo://app?vid=eb8e2e87-ad12-4e87-8e4a-757897446f7e"},"vehicle_type_id":"4","last_reported":1739898541,"current_range_meters":12000,"station_id":"ce4bhih2rcd13ifvqfs0","pricing_plan_id":"cebpf4jnsgd1na2vs0mg"},{"bike_id":"216f6589-c81d-462f-9894-d40dca8f8eb7","system_id":"levelo_inurba_marseille","lat":43.29279,"lon":5.40116,"is_reserved":false,"is_disabled":false,"rental_uris":{"android":"levelo://app?vid=216f6589-c81d-462f-9894-d40dca8f8eb7","ios":"levelo://app?vid=216f6589-c81d-462f-9894-d40dca8f8eb7"},"vehicle_type_id":"4","last_reported":1739898541,"current_range_meters":12000,"station_id":"ce4bho92rcd13ifvqh3g","pricing_plan_id":"cebpf4jnsgd1na2vs0mg"},{"bike_id":"baf7f7c3-2e52-4d1b-96d0-7a3aebaaba61","system_id":"levelo_inurba_marseille","lat":43.28419,"lon":5.37507,"is_reserved":false,"is_disabled":false,"rental_uris":{"android":"levelo://app?vid=baf7f7c3-2e52-4d1b-96d0-7a3aebaaba61","ios":"levelo://app?vid=baf7f7c3-2e52-4d1b-96d0-7a3aebaaba61"},"vehicle_type_id":"4","last_reported":1739898541,"current_range_meters":12400,"station_id":"","pricing_plan_id":"cebpf4jnsgd1na2vs0mg"},{"bike_id":"f1c4a55a-ecb4-4e19-9726-c1fa32e854b0","system_id":"levelo_inurba_marseille","lat":43.29528,"lon":5.3854,"is_reserved":false,"is_disabled":false,"rental_uris":{"android":"levelo://app?vid=f1c4a55a-ecb4-4e19-9726-c1fa32e854b0","ios":"levelo://app?vid=f1c4a55a-ecb4-4e19-9726-c1fa32e854b0"},"vehicle_type_id":"4","last_reported":1739898541,"current_range_meters":12400,"station_id":"","pricing_plan_id":"cebpf4jnsgd1na2vs0mg"},{"bike_id":"401f1496-a505-4f21-8301-8c90a97dc5ac","system_id":"levelo_inurba_marseille","lat":43.319464,"lon":5.389946,"is_reserved":false,"is_disabled":false,"rental_uris":{"android":"levelo://app?vid=401f1496-a505-4f21-8301-8c90a97dc5ac","ios":"levelo://app?vid=401f1496-a505-4f21-8301-8c90a97dc5ac"},"vehicle_type_id":"4","last_reported":1739898541,"current_range_meters":12000,"station_id":"ce4bhr92rcd13ifvqhrg","pricing_plan_id":"cebpf4jnsgd1na2vs0mg"},{"bike_id":"889728f9-c6e1-4504-8d36-e934968012c0","system_id":"levelo_inurba_marseille","lat":43.30435,"lon":5.38897,"is_reserved":false,"is_disabled":false,"rental_uris":{"android":"levelo://app?vid=889728f9-c6e1-4504-8d36-e934968012c0","ios":"levelo://app?vid=889728f9-c6e1-4504-8d36-e934968012c0"},"vehicle_type_id":"4","last_reported":1739898541,"current_range_meters":12800,"station_id":"ce4bgk12rcd13ifvqbi0","pricing_plan_id":"cebpf4jnsgd1na2vs0mg"},{"bike_id":"c2dd4e4d-dd67-42eb-8560-62a01870c74d","system_id":"levelo_inurba_marseille","lat":43.29874,"lon":5.39724,"is_reserved":false,"is_disabled":false,"rental_uris":{"android":"levelo://app?vid=c2dd4e4d-dd67-42eb-8560-62a01870c74d","ios":"levelo://app?vid=c2dd4e4d-dd67-42eb-8560-62a01870c74d"},"vehicle_type_id":"4","last_reported":1739898541,"current_range_meters":12800,"station_id":"ce4bh0h2rcd13ifvqd50","pricing_plan_id":"cebpf4jnsgd1na2vs0mg"},{"bike_id":"5ed82f32-3023-4afe-bf08-c1f50cfe4d14","system_id":"levelo_inurba_marseille","lat":43.28272,"lon":5.35068,"is_reserved":false,"is_disabled":false,"rental_uris":{"android":"levelo://app?vid=5ed82f32-3023-4afe-bf08-c1f50cfe4d14","ios":"levelo://app?vid=5ed82f32-3023-4afe-bf08-c1f50cfe4d14"},"vehicle_type_id":"4","last_reported":1739898541,"current_range_meters":13600,"station_id":"","pricing_plan_id":"cebpf4jnsgd1na2vs0mg"},{"bike_id":"3ce98b9f-8430-48e9-8363-4a1113c2afd9","system_id":"levelo_inurba_marseille","lat":43.26492,"lon":5.39561,"is_reserved":false,"is_disabled":false,"rental_uris":{"android":"levelo://app?vid=3ce98b9f-8430-48e9-8363-4a1113c2afd9","ios":"levelo://app?vid=3ce98b9f-8430-48e9-8363-4a1113c2afd9"},"vehicle_type_id":"4","last_reported":1739898541,"current_range_meters":13600,"station_id":"ce4bhi12rcd13ifvqfq0","pricing_plan_id":"cebpf4jnsgd1na2vs0mg"},{"bike_id":"c3146a0f-4e72-480a-88cf-5aea9140fff7","system_id":"levelo_inurba_marseille","lat":43.29008,"lon":5.35612,"is_reserved":false,"is_disabled":false,"rental_uris":{"android":"levelo://app?vid=c3146a0f-4e72-480a-88cf-5aea9140fff7","ios":"levelo://app?vid=c3146a0f-4e72-480a-88cf-5aea9140fff7"},"vehicle_type_id":"4","last_reported":1739898541,"current_range_meters":14000,"station_id":"ce4bhb92rcd13ifvqen0","pricing_plan_id":"cebpf4jnsgd1na2vs0mg"},{"bike_id":"b9191b96-d088-4814-8558-b0c585ad4693","system_id":"levelo_inurba_marseille","lat":43.272736,"lon":5.391848,"is_reserved":false,"is_disabled":false,"rental_uris":{"android":"levelo://app?vid=b9191b96-d088-4814-8558-b0c585ad4693","ios":"levelo://app?vid=b9191b96-d088-4814-8558-b0c585ad4693"},"vehicle_type_id":"4","last_reported":1739898541,"current_range_meters":14000,"station_id":"","pricing_plan_id":"cebpf4jnsgd1na2vs0mg"},{"bike_id":"51667c60-47e8-48cc-a370-da79b28cf1ac","system_id":"levelo_inurba_marseille","lat":43.29212,"lon":5.38311,"is_reserved":false,"is_disabled":false,"rental_uris":{"android":"levelo://app?vid=51667c60-47e8-48cc-a370-da79b28cf1ac","ios":"levelo://app?vid=51667c60-47e8-48cc-a370-da79b28cf1ac"},"vehicle_type_id":"4","last_reported":1739898541,"current_range_meters":14000,"station_id":"ce4bh512rcd13ifvqe2g","pricing_plan_id":"cebpf4jnsgd1na2vs0mg"},{"bike_id":"0952e1f3-9e82-4e26-9fbd-91f62fecf5fe","system_id":"levelo_inurba_marseille","lat":43.33026,"lon":5.39041,"is_reserved":false,"is_disabled":false,"rental_uris":{"android":"levelo://app?vid=0952e1f3-9e82-4e26-9fbd-91f62fecf5fe","ios":"levelo://app?vid=0952e1f3-9e82-4e26-9fbd-91f62fecf5fe"},"vehicle_type_id":"4","last_reported":1739898541,"current_range_meters":14000,"station_id":"ce4bhr92rcd13ifvqhrg","pricing_plan_id":"cebpf4jnsgd1na2vs0mg"},{"bike_id":"25a87e91-9c0d-4903-b869-115b64990ac3","system_id":"levelo_inurba_marseille","lat":43.2816,"lon":5.42645,"is_reserved":false,"is_disabled":false,"rental_uris":{"android":"levelo://app?vid=25a87e91-9c0d-4903-b869-115b64990ac3","ios":"levelo://app?vid=25a87e91-9c0d-4903-b869-115b64990ac3"},"vehicle_type_id":"4","last_reported":1739898541,"current_range_meters":14000,"station_id":"ce4bhnh2rcd13ifvqgug","pricing_plan_id":"cebpf4jnsgd1na2vs0mg"},{"bike_id":"e89d3be9-db84-46e8-8f5a-51128374f3fc","system_id":"levelo_inurba_marseille","lat":43.286148,"lon":5.351137,"is_reserved":false,"is_disabled":false,"rental_uris":{"android":"levelo://app?vid=e89d3be9-db84-46e8-8f5a-51128374f3fc","ios":"levelo://app?vid=e89d3be9-db84-46e8-8f5a-51128374f3fc"},"vehicle_type_id":"4","last_reported":1739898541,"current_range_meters":14400,"station_id":"ce4bhbh2rcd13ifvqeqg","pricing_plan_id":"cebpf4jnsgd1na2vs0mg"},{"bike_id":"90017611-e2b1-401c-bcbf-f9d526ffc823","system_id":"levelo_inurba_marseille","lat":43.29359,"lon":5.38298,"is_reserved":false,"is_disabled":false,"rental_uris":{"android":"levelo://app?vid=90017611-e2b1-401c-bcbf-f9d526ffc823","ios":"levelo://app?vid=90017611-e2b1-401c-bcbf-f9d526ffc823"},"vehicle_type_id":"4","last_reported":1739898541,"current_range_meters":14400,"station_id":"","pricing_plan_id":"cebpf4jnsgd1na2vs0mg"},{"bike_id":"2cfeeb5a-dfc5-4280-bacf-5f9f118223ae","system_id":"levelo_inurba_marseille","lat":43.28418,"lon":5.37507,"is_reserved":false,"is_disabled":false,"rental_uris":{"android":"levelo://app?vid=2cfeeb5a-dfc5-4280-bacf-5f9f118223ae","ios":"levelo://app?vid=2cfeeb5a-dfc5-4280-bacf-5f9f118223ae"},"vehicle_type_id":"4","last_reported":1739898541,"current_range_meters":14400,"station_id":"ce4bh412rcd13ifvqds0","pricing_plan_id":"cebpf4jnsgd1na2vs0mg"},{"bike_id":"16ee744b-62bb-426c-83d5-fcc0e778b090","system_id":"levelo_inurba_marseille","lat":43.231537,"lon":5.437047,"is_reserved":false,"is_disabled":false,"rental_uris":{"android":"levelo://app?vid=16ee744b-62bb-426c-83d5-fcc0e778b090","ios":"levelo://app?vid=16ee744b-62bb-426c-83d5-fcc0e778b090"},"vehicle_type_id":"4","last_reported":1739898541,"current_range_meters":14400,"station_id":"","pricing_plan_id":"cebpf4jnsgd1na2vs0mg"},{"bike_id":"baa9c553-35b1-4888-ba7f-ef685f2a1020","system_id":"levelo_inurba_marseille","lat":43.23968,"lon":5.36628,"is_reserved":false,"is_disabled":false,"rental_uris":{"android":"levelo://app?vid=baa9c553-35b1-4888-ba7f-ef685f2a1020","ios":"levelo://app?vid=baa9c553-35b1-4888-ba7f-ef685f2a1020"},"vehicle_type_id":"4","last_reported":1739898541,"current_range_meters":14400,"station_id":"","pricing_plan_id":"cebpf4jnsgd1na2vs0mg"},{"bike_id":"7a956a2c-3e4f-4828-9371-ce582abeb15c","system_id":"levelo_inurba_marseille","lat":43.28264,"lon":5.35074,"is_reserved":false,"is_disabled":false,"rental_uris":{"android":"levelo://app?vid=7a956a2c-3e4f-4828-9371-ce582abeb15c","ios":"levelo://app?vid=7a956a2c-3e4f-4828-9371-ce582abeb15c"},"vehicle_type_id":"4","last_reported":1739898541,"current_range_meters":14800,"station_id":"","pricing_plan_id":"cebpf4jnsgd1na2vs0mg"},{"bike_id":"85e87220-f6a3-46be-8172-f6efecf3643e","system_id":"levelo_inurba_marseille","lat":43.28153,"lon":5.42644,"is_reserved":false,"is_disabled":false,"rental_uris":{"android":"levelo://app?vid=85e87220-f6a3-46be-8172-f6efecf3643e","ios":"levelo://app?vid=85e87220-f6a3-46be-8172-f6efecf3643e"},"vehicle_type_id":"4","last_reported":1739898541,"current_range_meters":14800,"station_id":"","pricing_plan_id":"cebpf4jnsgd1na2vs0mg"},{"bike_id":"f027fe38-3f5d-42fa-b16a-68ca60104c09","system_id":"levelo_inurba_marseille","lat":43.24176,"lon":5.364,"is_reserved":false,"is_disabled":false,"rental_uris":{"android":"levelo://app?vid=f027fe38-3f5d-42fa-b16a-68ca60104c09","ios":"levelo://app?vid=f027fe38-3f5d-42fa-b16a-68ca60104c09"},"vehicle_type_id":"4","last_reported":1739898541,"current_range_meters":14800,"station_id":"","pricing_plan_id":"cebpf4jnsgd1na2vs0mg"},{"bike_id":"70c546cd-0c0a-4431-9b7e-46c4cf5e107f","system_id":"levelo_inurba_marseille","lat":43.30799,"lon":5.38148,"is_reserved":false,"is_disabled":false,"rental_uris":{"android":"levelo://app?vid=70c546cd-0c0a-4431-9b7e-46c4cf5e107f","ios":"levelo://app?vid=70c546cd-0c0a-4431-9b7e-46c4cf5e107f"},"vehicle_type_id":"4","last_reported":1739898541,"current_range_meters":14800,"station_id":"ce4bgt12rcd13ifvqce0","pricing_plan_id":"cebpf4jnsgd1na2vs0mg"},{"bike_id":"3bd614c6-193b-401f-b664-06bb84413e13","system_id":"levelo_inurba_marseille","lat":43.29535,"lon":5.38553,"is_reserved":false,"is_disabled":false,"rental_uris":{"android":"levelo://app?vid=3bd614c6-193b-401f-b664-06bb84413e13","ios":"levelo://app?vid=3bd614c6-193b-401f-b664-06bb84413e13"},"vehicle_type_id":"4","last_reported":1739898541,"current_range_meters":15200,"station_id":"","pricing_plan_id":"cebpf4jnsgd1na2vs0mg"},{"bike_id":"d1dec037-ee4c-4db9-a655-1087d8ee1f4f","system_id":"levelo_inurba_marseille","lat":43.28444,"lon":5.39175,"is_reserved":false,"is_disabled":true,"rental_uris":{"android":"levelo://app?vid=d1dec037-ee4c-4db9-a655-1087d8ee1f4f","ios":"levelo://app?vid=d1dec037-ee4c-4db9-a655-1087d8ee1f4f"},"vehicle_type_id":"4","last_reported":1739898541,"current_range_meters":15200,"station_id":"","pricing_plan_id":"cebpf4jnsgd1na2vs0mg"},{"bike_id":"397b80cf-cbf3-4f7e-9d00-ad56509053a2","system_id":"levelo_inurba_marseille","lat":43.29174,"lon":5.39798,"is_reserved":false,"is_disabled":false,"rental_uris":{"android":"levelo://app?vid=397b80cf-cbf3-4f7e-9d00-ad56509053a2","ios":"levelo://app?vid=397b80cf-cbf3-4f7e-9d00-ad56509053a2"},"vehicle_type_id":"4","last_reported":1739898541,"current_range_meters":15200,"station_id":"","pricing_plan_id":"cebpf4jnsgd1na2vs0mg"},{"bike_id":"c6b4c1d4-7170-42e8-a495-57f7e8da8511","system_id":"levelo_inurba_marseille","lat":43.24656,"lon":5.38882,"is_reserved":false,"is_disabled":false,"rental_uris":{"android":"levelo://app?vid=c6b4c1d4-7170-42e8-a495-57f7e8da8511","ios":"levelo://app?vid=c6b4c1d4-7170-42e8-a495-57f7e8da8511"},"vehicle_type_id":"4","last_reported":1739898541,"current_range_meters":15200,"station_id":"ce4bhg12rcd13ifvqf60","pricing_plan_id":"cebpf4jnsgd1na2vs0mg"},{"bike_id":"b49dcc2d-b196-497c-9a60-33f8e20b5c7c","system_id":"levelo_inurba_marseille","lat":43.30421,"lon":5.38883,"is_reserved":false,"is_disabled":false,"rental_uris":{"android":"levelo://app?vid=b49dcc2d-b196-497c-9a60-33f8e20b5c7c","ios":"levelo://app?vid=b49dcc2d-b196-497c-9a60-33f8e20b5c7c"},"vehicle_type_id":"4","last_reported":1739898541,"current_range_meters":15200,"station_id":"ce4bgk12rcd13ifvqbi0","pricing_plan_id":"cebpf4jnsgd1na2vs0mg"},{"bike_id":"9eabfdb2-10ad-4473-bc14-c790df41561f","system_id":"levelo_inurba_marseille","lat":43.32103,"lon":5.36771,"is_reserved":false,"is_disabled":false,"rental_uris":{"android":"levelo://app?vid=9eabfdb2-10ad-4473-bc14-c790df41561f","ios":"levelo://app?vid=9eabfdb2-10ad-4473-bc14-c790df41561f"},"vehicle_type_id":"4","last_reported":1739898541,"current_range_meters":16000,"station_id":"ce4bhrh2rcd13ifvqhug","pricing_plan_id":"cebpf4jnsgd1na2vs0mg"},{"bike_id":"da81df58-b1f9-4a08-99cf-086c5905c848","system_id":"levelo_inurba_marseille","lat":43.292602,"lon":5.409114,"is_reserved":false,"is_disabled":false,"rental_uris":{"android":"levelo://app?vid=da81df58-b1f9-4a08-99cf-086c5905c848","ios":"levelo://app?vid=da81df58-b1f9-4a08-99cf-086c5905c848"},"vehicle_type_id":"4","last_reported":1739898541,"current_range_meters":16000,"station_id":"ce4bh192rcd13ifvqdc0","pricing_plan_id":"cebpf4jnsgd1na2vs0mg"},{"bike_id":"32d647ef-147b-415e-814f-6e013e7eb781","system_id":"levelo_inurba_marseille","lat":43.31521,"lon":5.38034,"is_reserved":false,"is_disabled":false,"rental_uris":{"android":"levelo://app?vid=32d647ef-147b-415e-814f-6e013e7eb781","ios":"levelo://app?vid=32d647ef-147b-415e-814f-6e013e7eb781"},"vehicle_type_id":"4","last_reported":1739898541,"current_range_meters":16000,"station_id":"ce4bhsp2rcd13ifvqi50","pricing_plan_id":"cebpf4jnsgd1na2vs0mg"},{"bike_id":"cdf97657-40d8-49ce-9c7e-1ba6384bd7f6","system_id":"levelo_inurba_marseille","lat":43.30252,"lon":5.40084,"is_reserved":false,"is_disabled":false,"rental_uris":{"android":"levelo://app?vid=cdf97657-40d8-49ce-9c7e-1ba6384bd7f6","ios":"levelo://app?vid=cdf97657-40d8-49ce-9c7e-1ba6384bd7f6"},"vehicle_type_id":"4","last_reported":1739898541,"current_range_meters":16000,"station_id":"ce4bgvh2rcd13ifvqcs0","pricing_plan_id":"cebpf4jnsgd1na2vs0mg"},{"bike_id":"1d63a175-89ef-49ff-9ead-dfe9ed6c22cf","system_id":"levelo_inurba_marseille","lat":43.24688,"lon":5.39436,"is_reserved":false,"is_disabled":false,"rental_uris":{"android":"levelo://app?vid=1d63a175-89ef-49ff-9ead-dfe9ed6c22cf","ios":"levelo://app?vid=1d63a175-89ef-49ff-9ead-dfe9ed6c22cf"},"vehicle_type_id":"4","last_reported":1739898541,"current_range_meters":16000,"station_id":"","pricing_plan_id":"cebpf4jnsgd1na2vs0mg"},{"bike_id":"5a94e1da-49a1-40fb-98cb-763ac7127f1b","system_id":"levelo_inurba_marseille","lat":43.2843,"lon":5.39149,"is_reserved":false,"is_disabled":false,"rental_uris":{"android":"levelo://app?vid=5a94e1da-49a1-40fb-98cb-763ac7127f1b","ios":"levelo://app?vid=5a94e1da-49a1-40fb-98cb-763ac7127f1b"},"vehicle_type_id":"4","last_reported":1739898541,"current_range_meters":16000,"station_id":"ce4bhoh2rcd13ifvqh5g","pricing_plan_id":"cebpf4jnsgd1na2vs0mg"},{"bike_id":"3a7f687d-1faf-45c9-b1c2-ea1a8e98c5ac","system_id":"levelo_inurba_marseille","lat":43.24391,"lon":5.37063,"is_reserved":false,"is_disabled":false,"rental_uris":{"android":"levelo://app?vid=3a7f687d-1faf-45c9-b1c2-ea1a8e98c5ac","ios":"levelo://app?vid=3a7f687d-1faf-45c9-b1c2-ea1a8e98c5ac"},"vehicle_type_id":"4","last_reported":1739898541,"current_range_meters":16000,"station_id":"ce4bhhh2rcd13ifvqfk0","pricing_plan_id":"cebpf4jnsgd1na2vs0mg"},{"bike_id":"d0c0cd74-5384-4aaa-8637-19bc76ea0b84","system_id":"levelo_inurba_marseille","lat":43.33024,"lon":5.39042,"is_reserved":false,"is_disabled":false,"rental_uris":{"android":"levelo://app?vid=d0c0cd74-5384-4aaa-8637-19bc76ea0b84","ios":"levelo://app?vid=d0c0cd74-5384-4aaa-8637-19bc76ea0b84"},"vehicle_type_id":"4","last_reported":1739898541,"current_range_meters":16000,"station_id":"ce4bhr92rcd13ifvqhrg","pricing_plan_id":"cebpf4jnsgd1na2vs0mg"},{"bike_id":"efc7d091-92a1-4947-9e24-841653c89b4e","system_id":"levelo_inurba_marseille","lat":43.29968,"lon":5.38496,"is_reserved":false,"is_disabled":false,"rental_uris":{"android":"levelo://app?vid=efc7d091-92a1-4947-9e24-841653c89b4e","ios":"levelo://app?vid=efc7d091-92a1-4947-9e24-841653c89b4e"},"vehicle_type_id":"4","last_reported":1739898541,"current_range_meters":16400,"station_id":"ce4bgj92rcd13ifvqbd0","pricing_plan_id":"cebpf4jnsgd1na2vs0mg"},{"bike_id":"2496f28f-529d-4b86-a9ef-00d9565268b8","system_id":"levelo_inurba_marseille","lat":43.29537,"lon":5.38555,"is_reserved":false,"is_disabled":false,"rental_uris":{"android":"levelo://app?vid=2496f28f-529d-4b86-a9ef-00d9565268b8","ios":"levelo://app?vid=2496f28f-529d-4b86-a9ef-00d9565268b8"},"vehicle_type_id":"4","last_reported":1739898541,"current_range_meters":16400,"station_id":"","pricing_plan_id":"cebpf4jnsgd1na2vs0mg"},{"bike_id":"1d43e5d7-52d5-4194-83ef-c6c6aac59d16","system_id":"levelo_inurba_marseille","lat":43.31713,"lon":5.43706,"is_reserved":false,"is_disabled":false,"rental_uris":{"android":"levelo://app?vid=1d43e5d7-52d5-4194-83ef-c6c6aac59d16","ios":"levelo://app?vid=1d43e5d7-52d5-4194-83ef-c6c6aac59d16"},"vehicle_type_id":"4","last_reported":1739898541,"current_range_meters":16400,"station_id":"","pricing_plan_id":"cebpf4jnsgd1na2vs0mg"},{"bike_id":"76ae7e0f-4eb8-44da-a410-8f2f6475f1d6","system_id":"levelo_inurba_marseille","lat":43.29531,"lon":5.38567,"is_reserved":false,"is_disabled":false,"rental_uris":{"android":"levelo://app?vid=76ae7e0f-4eb8-44da-a410-8f2f6475f1d6","ios":"levelo://app?vid=76ae7e0f-4eb8-44da-a410-8f2f6475f1d6"},"vehicle_type_id":"4","last_reported":1739898541,"current_range_meters":16800,"station_id":"ce4bgih2rcd13ifvqba0","pricing_plan_id":"cebpf4jnsgd1na2vs0mg"},{"bike_id":"b7ee7074-0ed1-413c-95bf-29ca1f13818b","system_id":"levelo_inurba_marseille","lat":43.25576,"lon":5.38243,"is_reserved":false,"is_disabled":false,"rental_uris":{"android":"levelo://app?vid=b7ee7074-0ed1-413c-95bf-29ca1f13818b","ios":"levelo://app?vid=b7ee7074-0ed1-413c-95bf-29ca1f13818b"},"vehicle_type_id":"4","last_reported":1739898541,"current_range_meters":16800,"station_id":"ce4bhih2rcd13ifvqfs0","pricing_plan_id":"cebpf4jnsgd1na2vs0mg"},{"bike_id":"d33038eb-e8fc-4908-8834-aded08525ab2","system_id":"levelo_inurba_marseille","lat":43.29262,"lon":5.3844,"is_reserved":false,"is_disabled":false,"rental_uris":{"android":"levelo://app?vid=d33038eb-e8fc-4908-8834-aded08525ab2","ios":"levelo://app?vid=d33038eb-e8fc-4908-8834-aded08525ab2"},"vehicle_type_id":"4","last_reported":1739898541,"current_range_meters":16800,"station_id":"","pricing_plan_id":"cebpf4jnsgd1na2vs0mg"},{"bike_id":"ac6ad62a-7f33-4acc-a079-0e8448da3240","system_id":"levelo_inurba_marseille","lat":43.29533,"lon":5.38552,"is_reserved":false,"is_disabled":false,"rental_uris":{"android":"levelo://app?vid=ac6ad62a-7f33-4acc-a079-0e8448da3240","ios":"levelo://app?vid=ac6ad62a-7f33-4acc-a079-0e8448da3240"},"vehicle_type_id":"4","last_reported":1739898541,"current_range_meters":16800,"station_id":"","pricing_plan_id":"cebpf4jnsgd1na2vs0mg"},{"bike_id":"e21caf5a-4dc1-4f00-8aa9-b8a7b45abf7f","system_id":"levelo_inurba_marseille","lat":43.29639,"lon":5.37189,"is_reserved":false,"is_disabled":false,"rental_uris":{"android":"levelo://app?vid=e21caf5a-4dc1-4f00-8aa9-b8a7b45abf7f","ios":"levelo://app?vid=e21caf5a-4dc1-4f00-8aa9-b8a7b45abf7f"},"vehicle_type_id":"4","last_reported":1739898541,"current_range_meters":16800,"station_id":"ce4bgnh2rcd13ifvqc0g","pricing_plan_id":"cebpf4jnsgd1na2vs0mg"},{"bike_id":"deefda23-c19b-473b-9cdb-213855dc3f66","system_id":"levelo_inurba_marseille","lat":43.29005,"lon":5.35613,"is_reserved":false,"is_disabled":false,"rental_uris":{"android":"levelo://app?vid=deefda23-c19b-473b-9cdb-213855dc3f66","ios":"levelo://app?vid=deefda23-c19b-473b-9cdb-213855dc3f66"},"vehicle_type_id":"4","last_reported":1739898541,"current_range_meters":16800,"station_id":"ce4bhb92rcd13ifvqen0","pricing_plan_id":"cebpf4jnsgd1na2vs0mg"},{"bike_id":"b64778c2-2434-4409-b125-e965a1fd469a","system_id":"levelo_inurba_marseille","lat":43.30296,"lon":5.36689,"is_reserved":false,"is_disabled":false,"rental_uris":{"android":"levelo://app?vid=b64778c2-2434-4409-b125-e965a1fd469a","ios":"levelo://app?vid=b64778c2-2434-4409-b125-e965a1fd469a"},"vehicle_type_id":"4","last_reported":1739898541,"current_range_meters":16800,"station_id":"ce4bgs12rcd13ifvqcag","pricing_plan_id":"cebpf4jnsgd1na2vs0mg"},{"bike_id":"1c43eb49-ea1b-41ce-946d-e5fe349433b9","system_id":"levelo_inurba_marseille","lat":43.27947,"lon":5.41053,"is_reserved":false,"is_disabled":false,"rental_uris":{"android":"levelo://app?vid=1c43eb49-ea1b-41ce-946d-e5fe349433b9","ios":"levelo://app?vid=1c43eb49-ea1b-41ce-946d-e5fe349433b9"},"vehicle_type_id":"4","last_reported":1739898541,"current_range_meters":17200,"station_id":"ce4bhnp2rcd13ifvqh0g","pricing_plan_id":"cebpf4jnsgd1na2vs0mg"},{"bike_id":"63060cba-6f7e-4d5b-b470-b320b39fe6e5","system_id":"levelo_inurba_marseille","lat":43.27433,"lon":5.39414,"is_reserved":false,"is_disabled":false,"rental_uris":{"android":"levelo://app?vid=63060cba-6f7e-4d5b-b470-b320b39fe6e5","ios":"levelo://app?vid=63060cba-6f7e-4d5b-b470-b320b39fe6e5"},"vehicle_type_id":"4","last_reported":1739898541,"current_range_meters":17200,"station_id":"ce4bhdp2rcd13ifvqf20","pricing_plan_id":"cebpf4jnsgd1na2vs0mg"},{"bike_id":"3377df61-e36f-4238-a0bb-3da255a8b241","system_id":"levelo_inurba_marseille","lat":43.31067,"lon":5.37096,"is_reserved":false,"is_disabled":false,"rental_uris":{"android":"levelo://app?vid=3377df61-e36f-4238-a0bb-3da255a8b241","ios":"levelo://app?vid=3377df61-e36f-4238-a0bb-3da255a8b241"},"vehicle_type_id":"4","last_reported":1739898541,"current_range_meters":17600,"station_id":"ce4bguh2rcd13ifvqckg","pricing_plan_id":"cebpf4jnsgd1na2vs0mg"},{"bike_id":"8b06552e-7507-45fc-8f19-9e5b69d1236e","system_id":"levelo_inurba_marseille","lat":43.24389,"lon":5.37063,"is_reserved":false,"is_disabled":false,"rental_uris":{"android":"levelo://app?vid=8b06552e-7507-45fc-8f19-9e5b69d1236e","ios":"levelo://app?vid=8b06552e-7507-45fc-8f19-9e5b69d1236e"},"vehicle_type_id":"4","last_reported":1739898541,"current_range_meters":16800,"station_id":"ce4bhhh2rcd13ifvqfk0","pricing_plan_id":"cebpf4jnsgd1na2vs0mg"},{"bike_id":"c67fb496-8441-458a-af2d-8f07c087bdd0","system_id":"levelo_inurba_marseille","lat":43.24172,"lon":5.36426,"is_reserved":false,"is_disabled":true,"rental_uris":{"android":"levelo://app?vid=c67fb496-8441-458a-af2d-8f07c087bdd0","ios":"levelo://app?vid=c67fb496-8441-458a-af2d-8f07c087bdd0"},"vehicle_type_id":"4","last_reported":1739898541,"current_range_meters":17200,"station_id":"","pricing_plan_id":"cebpf4jnsgd1na2vs0mg"},{"bike_id":"5a6cf3d1-b6d3-4322-b8e3-67100167abdb","system_id":"levelo_inurba_marseille","lat":43.24811,"lon":5.37464,"is_reserved":false,"is_disabled":false,"rental_uris":{"android":"levelo://app?vid=5a6cf3d1-b6d3-4322-b8e3-67100167abdb","ios":"levelo://app?vid=5a6cf3d1-b6d3-4322-b8e3-67100167abdb"},"vehicle_type_id":"4","last_reported":1739898541,"current_range_meters":17200,"station_id":"ce4bhgh2rcd13ifvqfb0","pricing_plan_id":"cebpf4jnsgd1na2vs0mg"},{"bike_id":"db7f2d58-492d-4297-aa78-ce0ad99a0a74","system_id":"levelo_inurba_marseille","lat":43.27054,"lon":5.40267,"is_reserved":false,"is_disabled":false,"rental_uris":{"android":"levelo://app?vid=db7f2d58-492d-4297-aa78-ce0ad99a0a74","ios":"levelo://app?vid=db7f2d58-492d-4297-aa78-ce0ad99a0a74"},"vehicle_type_id":"4","last_reported":1739898541,"current_range_meters":17200,"station_id":"ce4bhb92rcd13ifvqen0","pricing_plan_id":"cebpf4jnsgd1na2vs0mg"},{"bike_id":"59c06e16-2c1f-4444-a3f6-6a7b6c9c893e","system_id":"levelo_inurba_marseille","lat":43.3031,"lon":5.39192,"is_reserved":false,"is_disabled":true,"rental_uris":{"android":"levelo://app?vid=59c06e16-2c1f-4444-a3f6-6a7b6c9c893e","ios":"levelo://app?vid=59c06e16-2c1f-4444-a3f6-6a7b6c9c893e"},"vehicle_type_id":"4","last_reported":1739898541,"current_range_meters":17200,"station_id":"ce4bgkh2rcd13ifvqbk0","pricing_plan_id":"cebpf4jnsgd1na2vs0mg"},{"bike_id":"fe523753-9bfc-41ed-804e-057c3d42b5d0","system_id":"levelo_inurba_marseille","lat":43.26937,"lon":5.38916,"is_reserved":false,"is_disabled":false,"rental_uris":{"android":"levelo://app?vid=fe523753-9bfc-41ed-804e-057c3d42b5d0","ios":"levelo://app?vid=fe523753-9bfc-41ed-804e-057c3d42b5d0"},"vehicle_type_id":"4","last_reported":1739898541,"current_range_meters":16800,"station_id":"ce4bhhh2rcd13ifvqfl0","pricing_plan_id":"cebpf4jnsgd1na2vs0mg"},{"bike_id":"baf6d894-ad10-49a9-b91a-24f60ad956f7","system_id":"levelo_inurba_marseille","lat":43.28976,"lon":5.4268,"is_reserved":false,"is_disabled":false,"rental_uris":{"android":"levelo://app?vid=baf6d894-ad10-49a9-b91a-24f60ad956f7","ios":"levelo://app?vid=baf6d894-ad10-49a9-b91a-24f60ad956f7"},"vehicle_type_id":"4","last_reported":1739898541,"current_range_meters":17200,"station_id":"","pricing_plan_id":"cebpf4jnsgd1na2vs0mg"},{"bike_id":"fc971b16-bef3-4b6d-813c-ffc8ffa48842","system_id":"levelo_inurba_marseille","lat":43.2841,"lon":5.34986,"is_reserved":false,"is_disabled":true,"rental_uris":{"android":"levelo://app?vid=fc971b16-bef3-4b6d-813c-ffc8ffa48842","ios":"levelo://app?vid=fc971b16-bef3-4b6d-813c-ffc8ffa48842"},"vehicle_type_id":"4","last_reported":1739898541,"current_range_meters":17200,"station_id":"","pricing_plan_id":"cebpf4jnsgd1na2vs0mg"},{"bike_id":"839f414a-035b-4b2a-bb07-8b04a7da2014","system_id":"levelo_inurba_marseille","lat":43.28935,"lon":5.36636,"is_reserved":false,"is_disabled":false,"rental_uris":{"android":"levelo://app?vid=839f414a-035b-4b2a-bb07-8b04a7da2014","ios":"levelo://app?vid=839f414a-035b-4b2a-bb07-8b04a7da2014"},"vehicle_type_id":"4","last_reported":1739898541,"current_range_meters":17200,"station_id":"ce4bhap2rcd13ifvqek0","pricing_plan_id":"cebpf4jnsgd1na2vs0mg"},{"bike_id":"76caf722-c1f8-4269-b943-c5d75a927bc4","system_id":"levelo_inurba_marseille","lat":43.29913,"lon":5.3814,"is_reserved":false,"is_disabled":false,"rental_uris":{"android":"levelo://app?vid=76caf722-c1f8-4269-b943-c5d75a927bc4","ios":"levelo://app?vid=76caf722-c1f8-4269-b943-c5d75a927bc4"},"vehicle_type_id":"4","last_reported":1739898541,"current_range_meters":17200,"station_id":"ce4bgj12rcd13ifvqbc0","pricing_plan_id":"cebpf4jnsgd1na2vs0mg"},{"bike_id":"13992114-4dd4-4467-97ed-5f70e7890668","system_id":"levelo_inurba_marseille","lat":43.28432,"lon":5.34995,"is_reserved":false,"is_disabled":false,"rental_uris":{"android":"levelo://app?vid=13992114-4dd4-4467-97ed-5f70e7890668","ios":"levelo://app?vid=13992114-4dd4-4467-97ed-5f70e7890668"},"vehicle_type_id":"4","last_reported":1739898541,"current_range_meters":17200,"station_id":"ce4bhbh2rcd13ifvqepg","pricing_plan_id":"cebpf4jnsgd1na2vs0mg"},{"bike_id":"f77eb7d8-9434-4c05-861f-edd4244aaffc","system_id":"levelo_inurba_marseille","lat":43.25506,"lon":5.37654,"is_reserved":false,"is_disabled":false,"rental_uris":{"android":"levelo://app?vid=f77eb7d8-9434-4c05-861f-edd4244aaffc","ios":"levelo://app?vid=f77eb7d8-9434-4c05-861f-edd4244aaffc"},"vehicle_type_id":"4","last_reported":1739898541,"current_range_meters":17600,"station_id":"","pricing_plan_id":"cebpf4jnsgd1na2vs0mg"},{"bike_id":"090d254b-7e06-4322-b664-ffb12aca0039","system_id":"levelo_inurba_marseille","lat":43.2843,"lon":5.34988,"is_reserved":false,"is_disabled":false,"rental_uris":{"android":"levelo://app?vid=090d254b-7e06-4322-b664-ffb12aca0039","ios":"levelo://app?vid=090d254b-7e06-4322-b664-ffb12aca0039"},"vehicle_type_id":"4","last_reported":1739898541,"current_range_meters":17600,"station_id":"ce4bhbh2rcd13ifvqepg","pricing_plan_id":"cebpf4jnsgd1na2vs0mg"},{"bike_id":"0510b3ba-90de-4817-a71a-f9b55fa09d77","system_id":"levelo_inurba_marseille","lat":43.29256,"lon":5.40908,"is_reserved":false,"is_disabled":false,"rental_uris":{"android":"levelo://app?vid=0510b3ba-90de-4817-a71a-f9b55fa09d77","ios":"levelo://app?vid=0510b3ba-90de-4817-a71a-f9b55fa09d77"},"vehicle_type_id":"4","last_reported":1739898541,"current_range_meters":17600,"station_id":"ce4bh192rcd13ifvqdc0","pricing_plan_id":"cebpf4jnsgd1na2vs0mg"},{"bike_id":"8b8dde43-9538-49ac-8118-7715678fb1a9","system_id":"levelo_inurba_marseille","lat":43.28694,"lon":5.37376,"is_reserved":false,"is_disabled":false,"rental_uris":{"android":"levelo://app?vid=8b8dde43-9538-49ac-8118-7715678fb1a9","ios":"levelo://app?vid=8b8dde43-9538-49ac-8118-7715678fb1a9"},"vehicle_type_id":"4","last_reported":1739898541,"current_range_meters":17600,"station_id":"ce4bh3p2rcd13ifvqdq0","pricing_plan_id":"cebpf4jnsgd1na2vs0mg"},{"bike_id":"c708fafc-fe14-4f39-86b9-7c0a9260e9a9","system_id":"levelo_inurba_marseille","lat":43.27378,"lon":5.36261,"is_reserved":false,"is_disabled":false,"rental_uris":{"android":"levelo://app?vid=c708fafc-fe14-4f39-86b9-7c0a9260e9a9","ios":"levelo://app?vid=c708fafc-fe14-4f39-86b9-7c0a9260e9a9"},"vehicle_type_id":"4","last_reported":1739898541,"current_range_meters":17200,"station_id":"ce4bhbh2rcd13ifvqeo0","pricing_plan_id":"cebpf4jnsgd1na2vs0mg"},{"bike_id":"24dd12c1-4d8a-40c0-b521-a98d2d462c41","system_id":"levelo_inurba_marseille","lat":43.2417,"lon":5.36411,"is_reserved":false,"is_disabled":false,"rental_uris":{"android":"levelo://app?vid=24dd12c1-4d8a-40c0-b521-a98d2d462c41","ios":"levelo://app?vid=24dd12c1-4d8a-40c0-b521-a98d2d462c41"},"vehicle_type_id":"4","last_reported":1739898541,"current_range_meters":17600,"station_id":"","pricing_plan_id":"cebpf4jnsgd1na2vs0mg"},{"bike_id":"93682908-43c6-4032-8e45-6984dd069700","system_id":"levelo_inurba_marseille","lat":43.24653,"lon":5.38892,"is_reserved":false,"is_disabled":false,"rental_uris":{"android":"levelo://app?vid=93682908-43c6-4032-8e45-6984dd069700","ios":"levelo://app?vid=93682908-43c6-4032-8e45-6984dd069700"},"vehicle_type_id":"4","last_reported":1739898541,"current_range_meters":17600,"station_id":"ce4bhg12rcd13ifvqf60","pricing_plan_id":"cebpf4jnsgd1na2vs0mg"},{"bike_id":"602a348c-27a5-4b90-851e-0fd3d2c5fbec","system_id":"levelo_inurba_marseille","lat":43.28201,"lon":5.35105,"is_reserved":false,"is_disabled":false,"rental_uris":{"android":"levelo://app?vid=602a348c-27a5-4b90-851e-0fd3d2c5fbec","ios":"levelo://app?vid=602a348c-27a5-4b90-851e-0fd3d2c5fbec"},"vehicle_type_id":"4","last_reported":1739898541,"current_range_meters":19600,"station_id":"","pricing_plan_id":"cebpf4jnsgd1na2vs0mg"},{"bike_id":"a60f10a6-f69a-4e79-8a28-3744242d6f28","system_id":"levelo_inurba_marseille","lat":43.29021,"lon":5.38642,"is_reserved":false,"is_disabled":false,"rental_uris":{"android":"levelo://app?vid=a60f10a6-f69a-4e79-8a28-3744242d6f28","ios":"levelo://app?vid=a60f10a6-f69a-4e79-8a28-3744242d6f28"},"vehicle_type_id":"4","last_reported":1739898541,"current_range_meters":17200,"station_id":"ce4bh4p2rcd13ifvqe0g","pricing_plan_id":"cebpf4jnsgd1na2vs0mg"},{"bike_id":"fb008755-32fe-4fdf-a82e-ea2f9759dcfe","system_id":"levelo_inurba_marseille","lat":43.28444,"lon":5.39204,"is_reserved":false,"is_disabled":false,"rental_uris":{"android":"levelo://app?vid=fb008755-32fe-4fdf-a82e-ea2f9759dcfe","ios":"levelo://app?vid=fb008755-32fe-4fdf-a82e-ea2f9759dcfe"},"vehicle_type_id":"4","last_reported":1739898541,"current_range_meters":17600,"station_id":"ce4bhoh2rcd13ifvqh5g","pricing_plan_id":"cebpf4jnsgd1na2vs0mg"},{"bike_id":"178ded3a-a854-4c49-ad78-a7a972f73bf4","system_id":"levelo_inurba_marseille","lat":43.29912,"lon":5.39729,"is_reserved":false,"is_disabled":false,"rental_uris":{"android":"levelo://app?vid=178ded3a-a854-4c49-ad78-a7a972f73bf4","ios":"levelo://app?vid=178ded3a-a854-4c49-ad78-a7a972f73bf4"},"vehicle_type_id":"4","last_reported":1739898541,"current_range_meters":17600,"station_id":"ce4bh0h2rcd13ifvqd50","pricing_plan_id":"cebpf4jnsgd1na2vs0mg"},{"bike_id":"043e80ab-ad4e-4777-b08c-956a535d6f43","system_id":"levelo_inurba_marseille","lat":43.25494,"lon":5.37657,"is_reserved":false,"is_disabled":false,"rental_uris":{"android":"levelo://app?vid=043e80ab-ad4e-4777-b08c-956a535d6f43","ios":"levelo://app?vid=043e80ab-ad4e-4777-b08c-956a535d6f43"},"vehicle_type_id":"4","last_reported":1739898541,"current_range_meters":17600,"station_id":"","pricing_plan_id":"cebpf4jnsgd1na2vs0mg"},{"bike_id":"70e3349f-a7ae-456c-a34c-628f8438c6ae","system_id":"levelo_inurba_marseille","lat":43.292743,"lon":5.384398,"is_reserved":false,"is_disabled":false,"rental_uris":{"android":"levelo://app?vid=70e3349f-a7ae-456c-a34c-628f8438c6ae","ios":"levelo://app?vid=70e3349f-a7ae-456c-a34c-628f8438c6ae"},"vehicle_type_id":"4","last_reported":1739898541,"current_range_meters":15200,"station_id":"ce4bgt92rcd13ifvqcf0","pricing_plan_id":"cebpf4jnsgd1na2vs0mg"},{"bike_id":"ee318ccd-c697-43a6-bafd-c758274e6962","system_id":"levelo_inurba_marseille","lat":43.30334,"lon":5.4009,"is_reserved":false,"is_disabled":false,"rental_uris":{"android":"levelo://app?vid=ee318ccd-c697-43a6-bafd-c758274e6962","ios":"levelo://app?vid=ee318ccd-c697-43a6-bafd-c758274e6962"},"vehicle_type_id":"4","last_reported":1739898541,"current_range_meters":17600,"station_id":"","pricing_plan_id":"cebpf4jnsgd1na2vs0mg"},{"bike_id":"61c74ee5-d0d4-4ae1-bc12-7ba1f087e9fc","system_id":"levelo_inurba_marseille","lat":43.32368,"lon":5.38882,"is_reserved":false,"is_disabled":false,"rental_uris":{"android":"levelo://app?vid=61c74ee5-d0d4-4ae1-bc12-7ba1f087e9fc","ios":"levelo://app?vid=61c74ee5-d0d4-4ae1-bc12-7ba1f087e9fc"},"vehicle_type_id":"4","last_reported":1739898541,"current_range_meters":18000,"station_id":"ce4bhqp2rcd13ifvqhog","pricing_plan_id":"cebpf4jnsgd1na2vs0mg"},{"bike_id":"57708fc5-2744-4763-a091-3036762d24bc","system_id":"levelo_inurba_marseille","lat":43.3171,"lon":5.43707,"is_reserved":false,"is_disabled":false,"rental_uris":{"android":"levelo://app?vid=57708fc5-2744-4763-a091-3036762d24bc","ios":"levelo://app?vid=57708fc5-2744-4763-a091-3036762d24bc"},"vehicle_type_id":"4","last_reported":1739898541,"current_range_meters":18000,"station_id":"ce4bhp92rcd13ifvqhcg","pricing_plan_id":"cebpf4jnsgd1na2vs0mg"},{"bike_id":"4c049e8c-dd47-4937-b343-0b8e81c04fa5","system_id":"levelo_inurba_marseille","lat":43.29528,"lon":5.38558,"is_reserved":false,"is_disabled":false,"rental_uris":{"android":"levelo://app?vid=4c049e8c-dd47-4937-b343-0b8e81c04fa5","ios":"levelo://app?vid=4c049e8c-dd47-4937-b343-0b8e81c04fa5"},"vehicle_type_id":"4","last_reported":1739898541,"current_range_meters":18000,"station_id":"ce4bgih2rcd13ifvqba0","pricing_plan_id":"cebpf4jnsgd1na2vs0mg"},{"bike_id":"02f32280-3cbf-4cea-9a70-5516fbaa3fd8","system_id":"levelo_inurba_marseille","lat":43.26541,"lon":5.39045,"is_reserved":false,"is_disabled":false,"rental_uris":{"android":"levelo://app?vid=02f32280-3cbf-4cea-9a70-5516fbaa3fd8","ios":"levelo://app?vid=02f32280-3cbf-4cea-9a70-5516fbaa3fd8"},"vehicle_type_id":"4","last_reported":1739898541,"current_range_meters":18000,"station_id":"ce4bhe12rcd13ifvqf30","pricing_plan_id":"cebpf4jnsgd1na2vs0mg"},{"bike_id":"1b9c330a-f49c-4135-9beb-7013e9c4af0a","system_id":"levelo_inurba_marseille","lat":43.29531,"lon":5.39399,"is_reserved":false,"is_disabled":false,"rental_uris":{"android":"levelo://app?vid=1b9c330a-f49c-4135-9beb-7013e9c4af0a","ios":"levelo://app?vid=1b9c330a-f49c-4135-9beb-7013e9c4af0a"},"vehicle_type_id":"4","last_reported":1739898541,"current_range_meters":18000,"station_id":"ce4bh292rcd13ifvqdf0","pricing_plan_id":"cebpf4jnsgd1na2vs0mg"},{"bike_id":"51b56b2e-0026-4c5b-9e23-32423a0bdff7","system_id":"levelo_inurba_marseille","lat":43.29024,"lon":5.38125,"is_reserved":false,"is_disabled":false,"rental_uris":{"android":"levelo://app?vid=51b56b2e-0026-4c5b-9e23-32423a0bdff7","ios":"levelo://app?vid=51b56b2e-0026-4c5b-9e23-32423a0bdff7"},"vehicle_type_id":"4","last_reported":1739898541,"current_range_meters":17600,"station_id":"ce4bh4p2rcd13ifvqe1g","pricing_plan_id":"cebpf4jnsgd1na2vs0mg"},{"bike_id":"aab56d93-547d-40cc-9ff6-b85d4684f798","system_id":"levelo_inurba_marseille","lat":43.23955,"lon":5.36635,"is_reserved":false,"is_disabled":false,"rental_uris":{"android":"levelo://app?vid=aab56d93-547d-40cc-9ff6-b85d4684f798","ios":"levelo://app?vid=aab56d93-547d-40cc-9ff6-b85d4684f798"},"vehicle_type_id":"4","last_reported":1739898541,"current_range_meters":18000,"station_id":"ce4bhi12rcd13ifvqfp0","pricing_plan_id":"cebpf4jnsgd1na2vs0mg"},{"bike_id":"f7db23b2-4c03-4c27-a486-c3e2483540b0","system_id":"levelo_inurba_marseille","lat":43.2873,"lon":5.36096,"is_reserved":false,"is_disabled":false,"rental_uris":{"android":"levelo://app?vid=f7db23b2-4c03-4c27-a486-c3e2483540b0","ios":"levelo://app?vid=f7db23b2-4c03-4c27-a486-c3e2483540b0"},"vehicle_type_id":"4","last_reported":1739898541,"current_range_meters":18000,"station_id":"cki0cbj6b192h4jlfktg","pricing_plan_id":"cebpf4jnsgd1na2vs0mg"},{"bike_id":"5180f318-4948-4085-aaf1-5f3160b57dbe","system_id":"levelo_inurba_marseille","lat":43.27623,"lon":5.36104,"is_reserved":false,"is_disabled":true,"rental_uris":{"android":"levelo://app?vid=5180f318-4948-4085-aaf1-5f3160b57dbe","ios":"levelo://app?vid=5180f318-4948-4085-aaf1-5f3160b57dbe"},"vehicle_type_id":"4","last_reported":1739898541,"current_range_meters":18000,"station_id":"ce4bgj92rcd13ifvqbe0","pricing_plan_id":"cebpf4jnsgd1na2vs0mg"},{"bike_id":"5f9ede52-c720-4107-a864-980fb2608395","system_id":"levelo_inurba_marseille","lat":43.24103,"lon":5.38709,"is_reserved":false,"is_disabled":false,"rental_uris":{"android":"levelo://app?vid=5f9ede52-c720-4107-a864-980fb2608395","ios":"levelo://app?vid=5f9ede52-c720-4107-a864-980fb2608395"},"vehicle_type_id":"4","last_reported":1739898541,"current_range_meters":18800,"station_id":"","pricing_plan_id":"cebpf4jnsgd1na2vs0mg"},{"bike_id":"5089bb88-a0cd-4434-a1a9-f3d5b67361c6","system_id":"levelo_inurba_marseille","lat":43.24373,"lon":5.38766,"is_reserved":false,"is_disabled":false,"rental_uris":{"android":"levelo://app?vid=5089bb88-a0cd-4434-a1a9-f3d5b67361c6","ios":"levelo://app?vid=5089bb88-a0cd-4434-a1a9-f3d5b67361c6"},"vehicle_type_id":"4","last_reported":1739898541,"current_range_meters":18800,"station_id":"","pricing_plan_id":"cebpf4jnsgd1na2vs0mg"},{"bike_id":"b768b1a6-dfb0-4283-bce3-5f90f2a7562b","system_id":"levelo_inurba_marseille","lat":43.3233,"lon":5.3886,"is_reserved":false,"is_disabled":false,"rental_uris":{"android":"levelo://app?vid=b768b1a6-dfb0-4283-bce3-5f90f2a7562b","ios":"levelo://app?vid=b768b1a6-dfb0-4283-bce3-5f90f2a7562b"},"vehicle_type_id":"4","last_reported":1739898541,"current_range_meters":18800,"station_id":"ce4bhqp2rcd13ifvqhog","pricing_plan_id":"cebpf4jnsgd1na2vs0mg"},{"bike_id":"e4322138-f66d-4507-844a-b4920fb997cf","system_id":"levelo_inurba_marseille","lat":43.28163,"lon":5.42629,"is_reserved":false,"is_disabled":false,"rental_uris":{"android":"levelo://app?vid=e4322138-f66d-4507-844a-b4920fb997cf","ios":"levelo://app?vid=e4322138-f66d-4507-844a-b4920fb997cf"},"vehicle_type_id":"4","last_reported":1739898541,"current_range_meters":18800,"station_id":"ce4bhnh2rcd13ifvqgug","pricing_plan_id":"cebpf4jnsgd1na2vs0mg"},{"bike_id":"4b10ed7e-5b9b-4d66-ad81-b60d48b589a4","system_id":"levelo_inurba_marseille","lat":43.31536,"lon":5.38033,"is_reserved":false,"is_disabled":false,"rental_uris":{"android":"levelo://app?vid=4b10ed7e-5b9b-4d66-ad81-b60d48b589a4","ios":"levelo://app?vid=4b10ed7e-5b9b-4d66-ad81-b60d48b589a4"},"vehicle_type_id":"4","last_reported":1739898541,"current_range_meters":18800,"station_id":"ce4bhsp2rcd13ifvqi50","pricing_plan_id":"cebpf4jnsgd1na2vs0mg"},{"bike_id":"55673f38-bddd-46c7-8a8a-3c6d84fa3425","system_id":"levelo_inurba_marseille","lat":43.29168,"lon":5.37173,"is_reserved":false,"is_disabled":false,"rental_uris":{"android":"levelo://app?vid=55673f38-bddd-46c7-8a8a-3c6d84fa3425","ios":"levelo://app?vid=55673f38-bddd-46c7-8a8a-3c6d84fa3425"},"vehicle_type_id":"4","last_reported":1739898541,"current_range_meters":18800,"station_id":"ce4bha92rcd13ifvqeh0","pricing_plan_id":"cebpf4jnsgd1na2vs0mg"},{"bike_id":"a3d5fa8f-c749-4306-988d-35dd90db502c","system_id":"levelo_inurba_marseille","lat":43.28412,"lon":5.37507,"is_reserved":false,"is_disabled":false,"rental_uris":{"android":"levelo://app?vid=a3d5fa8f-c749-4306-988d-35dd90db502c","ios":"levelo://app?vid=a3d5fa8f-c749-4306-988d-35dd90db502c"},"vehicle_type_id":"4","last_reported":1739898541,"current_range_meters":18800,"station_id":"","pricing_plan_id":"cebpf4jnsgd1na2vs0mg"},{"bike_id":"a0af3547-0f5a-4ee7-a39d-23ed992db956","system_id":"levelo_inurba_marseille","lat":43.23418,"lon":5.40452,"is_reserved":false,"is_disabled":false,"rental_uris":{"android":"levelo://app?vid=a0af3547-0f5a-4ee7-a39d-23ed992db956","ios":"levelo://app?vid=a0af3547-0f5a-4ee7-a39d-23ed992db956"},"vehicle_type_id":"4","last_reported":1739898541,"current_range_meters":19200,"station_id":"","pricing_plan_id":"cebpf4jnsgd1na2vs0mg"},{"bike_id":"5ecd443d-db34-486a-b6f9-c8e67e540a70","system_id":"levelo_inurba_marseille","lat":43.28618,"lon":5.35107,"is_reserved":false,"is_disabled":false,"rental_uris":{"android":"levelo://app?vid=5ecd443d-db34-486a-b6f9-c8e67e540a70","ios":"levelo://app?vid=5ecd443d-db34-486a-b6f9-c8e67e540a70"},"vehicle_type_id":"4","last_reported":1739898541,"current_range_meters":19200,"station_id":"ce4bhch2rcd13ifvqeug","pricing_plan_id":"cebpf4jnsgd1na2vs0mg"},{"bike_id":"ffa697b7-285b-4519-acbd-7c152b9e76d0","system_id":"levelo_inurba_marseille","lat":43.28149,"lon":5.35137,"is_reserved":false,"is_disabled":false,"rental_uris":{"android":"levelo://app?vid=ffa697b7-285b-4519-acbd-7c152b9e76d0","ios":"levelo://app?vid=ffa697b7-285b-4519-acbd-7c152b9e76d0"},"vehicle_type_id":"4","last_reported":1739898541,"current_range_meters":19200,"station_id":"cki0cbj6b192h4jlfktg","pricing_plan_id":"cebpf4jnsgd1na2vs0mg"},{"bike_id":"bd4482ff-f0fe-41b1-9694-4952cd16ff16","system_id":"levelo_inurba_marseille","lat":43.29185,"lon":5.35659,"is_reserved":false,"is_disabled":false,"rental_uris":{"android":"levelo://app?vid=bd4482ff-f0fe-41b1-9694-4952cd16ff16","ios":"levelo://app?vid=bd4482ff-f0fe-41b1-9694-4952cd16ff16"},"vehicle_type_id":"4","last_reported":1739898541,"current_range_meters":19200,"station_id":"ce4bhb12rcd13ifvqel0","pricing_plan_id":"cebpf4jnsgd1na2vs0mg"},{"bike_id":"b85644ed-f65a-4039-a397-da921e97276e","system_id":"levelo_inurba_marseille","lat":43.23968,"lon":5.36633,"is_reserved":false,"is_disabled":false,"rental_uris":{"android":"levelo://app?vid=b85644ed-f65a-4039-a397-da921e97276e","ios":"levelo://app?vid=b85644ed-f65a-4039-a397-da921e97276e"},"vehicle_type_id":"4","last_reported":1739898541,"current_range_meters":19600,"station_id":"ce4bhi12rcd13ifvqfp0","pricing_plan_id":"cebpf4jnsgd1na2vs0mg"},{"bike_id":"fe215c83-92b6-4cf1-a82a-f0981a9dec90","system_id":"levelo_inurba_marseille","lat":43.27494,"lon":5.4245,"is_reserved":false,"is_disabled":false,"rental_uris":{"android":"levelo://app?vid=fe215c83-92b6-4cf1-a82a-f0981a9dec90","ios":"levelo://app?vid=fe215c83-92b6-4cf1-a82a-f0981a9dec90"},"vehicle_type_id":"4","last_reported":1739898541,"current_range_meters":19600,"station_id":"ce4bhn92rcd13ifvqgrg","pricing_plan_id":"cebpf4jnsgd1na2vs0mg"},{"bike_id":"62058ec6-c7c9-4bda-a27e-fd4e5c429150","system_id":"levelo_inurba_marseille","lat":43.25117,"lon":5.40324,"is_reserved":false,"is_disabled":false,"rental_uris":{"android":"levelo://app?vid=62058ec6-c7c9-4bda-a27e-fd4e5c429150","ios":"levelo://app?vid=62058ec6-c7c9-4bda-a27e-fd4e5c429150"},"vehicle_type_id":"4","last_reported":1739898541,"current_range_meters":19600,"station_id":"ce4bhlh2rcd13ifvqgig","pricing_plan_id":"cebpf4jnsgd1na2vs0mg"},