{"last_updated":1709060742,"ttl":30,"version":"2.2","data":{"bikes":[{"bike_id":"cf4f1734-a3d1-485f-a02b-08d3f927d5f8","system_id":"levelo_inurba_marseille","lat":43.312239,"lon":5.368562,"is_reserved":false,"is_disabled":false,"rental_uris":{"android":"levelo://app?vid=cf4f1734-a3d1-485f-a02b-08d3f927d5f8","ios":"levelo://app?vid=cf4f1734-a3d1-485f-a02b-08d3f927d5f8"},"vehicle_type_id":"4","last_reported":1709060742,"current_range_meters":16800,"station_id":"ce4bgl92rcd13ifvqbq0","pricing_plan_id":"cebpf4jnsgd1na2vs0mg"},{"bike_id":"5e34acb1-38ce-4248-8fd0-6cfa0d7fdfcf","system_id":"levelo_inurba_marseille","lat":43.309076,"lon":5.368465,"is_reserved":false,"is_disabled":false,"rental_uris":{"android":"levelo://app?vid=5e34acb1-38ce-4248-8fd0-6cfa0d7fdfcf","ios":"levelo://app?vid=5e34acb1-38ce-4248-8fd0-6cfa0d7fdfcf"},"vehicle_type_id":"4","last_reported":1709060742,"current_range_meters":31200,"station_id":"ce4bgn92rcd13ifvqbvg","pricing_plan_id":"cebpf4jnsgd1na2vs0mg"},{"bike_id":"e8dd9d76-964d-40cc-936b-3fe5eab15c97","system_id":"levelo_inurba_marseille","lat":43.317075,"lon":5.377367,"is_reserved":false,"is_disabled":false,"rental_uris":{"android":"levelo://app?vid=e8dd9d76-964d-40cc-936b-3fe5eab15c97","ios":"levelo://app?vid=e8dd9d76-964d-40cc-936b-3fe5eab15c97"},"vehicle_type_id":"4","last_reported":1709060742,"current_range_meters":12000,"station_id":"ce4bgth2rcd13ifvqch0","pricing_plan_id":"cebpf4jnsgd1na2vs0mg"},{"bike_id":"37ec1ee5-3363-4f4a-9980-229e8e44b326","system_id":"levelo_inurba_marseille","lat":43.3181,"lon":5.37271,"is_reserved":false,"is_disabled":false,"rental_uris":{"android":"levelo://app?vid=37ec1ee5-3363-4f4a-9980-229e8e44b326","ios":"levelo://app?vid=37ec1ee5-3363-4f4a-9980-229e8e44b326"},"vehicle_type_id":"4","last_reported":1709060742,"current_range_meters":22400,"station_id":"","pricing_plan_id":"cebpf4jnsgd1na2vs0mg"},{"bike_id":"6a7b141f-b9b4-4026-afa2-f60c30a19102","system_id":"levelo_inurba_marseille","lat":43.31042,"lon":5.37635,"is_reserved":false,"is_disabled":false,"rental_uris":{"android":"levelo://app?vid=6a7b141f-b9b4-4026-afa2-f60c30a19102","ios":"levelo://app?vid=6a7b141f-b9b4-4026-afa2-f60c30a19102"},"vehicle_type_id":"4","last_reported":1709060742,"current_range_meters":17200,"station_id":"","pricing_plan_id":"cebpf4jnsgd1na2vs0mg"},{"bike_id":"9f45f4c6-95e5-4d1f-ad4b-6ccb7de658ea","system_id":"levelo_inurba_marseille","lat":43.305368,"lon":5.367343,"is_reserved":false,"is_disabled":false,"rental_uris":{"android":"levelo://app?vid=9f45f4c6-95e5-4d1f-ad4b-6ccb7de658ea","ios":"levelo://app?vid=9f45f4c6-95e5-4d1f-ad4b-6ccb7de658ea"},"vehicle_type_id":"4","last_reported":1709060742,"current_range_meters":9200,"station_id":"ce4bgrp2rcd13ifvqc9g","pricing_plan_id":"cebpf4jnsgd1na2vs0mg"},{"bike_id":"9c332416-2000-4834-bdbe-7e78e86b3812","system_id":"levelo_inurba_marseille","lat":43.305706,"lon":5.365654,"is_reserved":false,"is_disabled":false,"rental_uris":{"android":"levelo://app?vid=9c332416-2000-4834-bdbe-7e78e86b3812","ios":"levelo://app?vid=9c332416-2000-4834-bdbe-7e78e86b3812"},"vehicle_type_id":"4","last_reported":1709060742,"current_range_meters":24400,"station_id":"ce4bgs12rcd13ifvqcag","pricing_plan_id":"cebpf4jnsgd1na2vs0mg"},{"bike_id":"3a43133b-8915-460c-88ae-40126bc1e5f4","system_id":"levelo_inurba_marseille","lat":43.311125,"lon":5.377624,"is_reserved":false,"is_disabled":false,"rental_uris":{"android":"levelo://app?vid=3a43133b-8915-460c-88ae-40126bc1e5f4","ios":"levelo://app?vid=3a43133b-8915-460c-88ae-40126bc1e5f4"},"vehicle_type_id":"4","last_reported":1709060742,"current_range_meters":22400,"station_id":"ce4bgt92rcd13ifvqcg0","pricing_plan_id":"cebpf4jnsgd1na2vs0mg"},{"bike_id":"95b2f935-ff58-4c3d-8e7b-e364d03dc3a8","system_id":"levelo_inurba_marseille","lat":43.305989,"lon":5.37225,"is_reserved":false,"is_disabled":false,"rental_uris":{"android":"levelo://app?vid=95b2f935-ff58-4c3d-8e7b-e364d03dc3a8","ios":"levelo://app?vid=95b2f935-ff58-4c3d-8e7b-e364d03dc3a8"},"vehicle_type_id":"4","last_reported":1709060742,"current_range_meters":6400,"station_id":"ce4bgqh2rcd13ifvqc4g","pricing_plan_id":"cebpf4jnsgd1na2vs0mg"},{"bike_id":"c441b64c-eb6b-4cff-aaaa-28da41b6bc58","system_id":"levelo_inurba_marseille","lat":43.305714,"lon":5.365633,"is_reserved":false,"is_disabled":false,"rental_uris":{"android":"levelo://app?vid=c441b64c-eb6b-4cff-aaaa-28da41b6bc58","ios":"levelo://app?vid=c441b64c-eb6b-4cff-aaaa-28da41b6bc58"},"vehicle_type_id":"4","last_reported":1709060742,"current_range_meters":4000,"station_id":"ce4bgs12rcd13ifvqcag","pricing_plan_id":"cebpf4jnsgd1na2vs0mg"},{"bike_id":"c8a45658-f704-4aa0-8afc-6655835d0082","system_id":"levelo_inurba_marseille","lat":43.305989,"lon":5.37225,"is_reserved":false,"is_disabled":false,"rental_uris":{"android":"levelo://app?vid=c8a45658-f704-4aa0-8afc-6655835d0082","ios":"levelo://app?vid=c8a45658-f704-4aa0-8afc-6655835d0082"},"vehicle_type_id":"4","last_reported":1709060742,"current_range_meters":31200,"station_id":"ce4bgqh2rcd13ifvqc4g","pricing_plan_id":"cebpf4jnsgd1na2vs0mg"},{"bike_id":"f60b2063-7dff-4e4d-b11f-d6107252e914","system_id":"levelo_inurba_marseille","lat":43.305989,"lon":5.37225,"is_reserved":false,"is_disabled":false,"rental_uris":{"android":"levelo://app?vid=f60b2063-7dff-4e4d-b11f-d6107252e914","ios":"levelo://app?vid=f60b2063-7dff-4e4d-b11f-d6107252e914"},"vehicle_type_id":"4","last_reported":1709060742,"current_range_meters":30800,"station_id":"ce4bgqh2rcd13ifvqc4g","pricing_plan_id":"cebpf4jnsgd1na2vs0mg"},{"bike_id":"72c5bfa1-c40d-4e1c-ba94-e5f5224534ee","system_id":"levelo_inurba_marseille","lat":43.311131,"lon":5.377651,"is_reserved":false,"is_disabled":false,"rental_uris":{"android":"levelo://app?vid=72c5bfa1-c40d-4e1c-ba94-e5f5224534ee","ios":"levelo://app?vid=72c5bfa1-c40d-4e1c-ba94-e5f5224534ee"},"vehicle_type_id":"4","last_reported":1709060742,"current_range_meters":27200,"station_id":"ce4bgt92rcd13ifvqcg0","pricing_plan_id":"cebpf4jnsgd1na2vs0mg"},{"bike_id":"dbc58d84-7f71-430a-a1a8-a14bc33498b0","system_id":"levelo_inurba_marseille","lat":43.311131,"lon":5.377651,"is_reserved":false,"is_disabled":false,"rental_uris":{"android":"levelo://app?vid=dbc58d84-7f71-430a-a1a8-a14bc33498b0","ios":"levelo://app?vid=dbc58d84-7f71-430a-a1a8-a14bc33498b0"},"vehicle_type_id":"4","last_reported":1709060742,"current_range_meters":1200,"station_id":"ce4bgt92rcd13ifvqcg0","pricing_plan_id":"cebpf4jnsgd1na2vs0mg"},{"bike_id":"b1017a68-54b6-44c7-a113-0ee7e037b9be","system_id":"levelo_inurba_marseille","lat":43.311131,"lon":5.377651,"is_reserved":false,"is_disabled":false,"rental_uris":{"android":"levelo://app?vid=b1017a68-54b6-44c7-a113-0ee7e037b9be","ios":"levelo://app?vid=b1017a68-54b6-44c7-a113-0ee7e037b9be"},"vehicle_type_id":"4","last_reported":1709060742,"current_range_meters":24400,"station_id":"ce4bgt92rcd13ifvqcg0","pricing_plan_id":"cebpf4jnsgd1na2vs0mg"},{"bike_id":"af9e807c-9aee-4335-af26-f39f0f600025","system_id":"levelo_inurba_marseille","lat":43.311131,"lon":5.377651,"is_reserved":false,"is_disabled":false,"rental_uris":{"android":"levelo://app?vid=af9e807c-9aee-4335-af26-f39f0f600025","ios":"levelo://app?vid=af9e807c-9aee-4335-af26-f39f0f600025"},"vehicle_type_id":"4","last_reported":1709060742,"current_range_meters":7200,"station_id":"ce4bgt92rcd13ifvqcg0","pricing_plan_id":"cebpf4jnsgd1na2vs0mg"},{"bike_id":"8fa476cf-7fba-44b5-bed4-dbecbf3a0543","system_id":"levelo_inurba_marseille","lat":43.315293,"lon":5.380349,"is_reserved":false,"is_disabled":false,"rental_uris":{"android":"levelo://app?vid=8fa476cf-7fba-44b5-bed4-dbecbf3a0543","ios":"levelo://app?vid=8fa476cf-7fba-44b5-bed4-dbecbf3a0543"},"vehicle_type_id":"4","last_reported":1709060742,"current_range_meters":15600,"station_id":"ce4bhsp2rcd13ifvqi50","pricing_plan_id":"cebpf4jnsgd1na2vs0mg"},{"bike_id":"b3c8e152-ed6a-4b4f-8238-20eec213ed9a","system_id":"levelo_inurba_marseille","lat":43.307945,"lon":5.376487,"is_reserved":false,"is_disabled":false,"rental_uris":{"android":"levelo://app?vid=b3c8e152-ed6a-4b4f-8238-20eec213ed9a","ios":"levelo://app?vid=b3c8e152-ed6a-4b4f-8238-20eec213ed9a"},"vehicle_type_id":"4","last_reported":1709060742,"current_range_meters":22800,"station_id":"ce4bgv92rcd13ifvqcq0","pricing_plan_id":"cebpf4jnsgd1na2vs0mg"},{"bike_id":"3b1077db-ecb3-430b-81be-e99e9cd5d158","system_id":"levelo_inurba_marseille","lat":43.30784,"lon":5.37655,"is_reserved":false,"is_disabled":false,"rental_uris":{"android":"levelo://app?vid=3b1077db-ecb3-430b-81be-e99e9cd5d158","ios":"levelo://app?vid=3b1077db-ecb3-430b-81be-e99e9cd5d158"},"vehicle_type_id":"4","last_reported":1709060742,"current_range_meters":1200,"station_id":"ce4bgv92rcd13ifvqcq0","pricing_plan_id":"cebpf4jnsgd1na2vs0mg"},{"bike_id":"3e0613d4-7eff-423f-ae42-5f1048330712","system_id":"levelo_inurba_marseille","lat":43.307945,"lon":5.376487,"is_reserved":false,"is_disabled":false,"rental_uris":{"android":"levelo://app?vid=3e0613d4-7eff-423f-ae42-5f1048330712","ios":"levelo://app?vid=3e0613d4-7eff-423f-ae42-5f1048330712"},"vehicle_type_id":"4","last_reported":1709060742,"current_range_meters":26800,"station_id":"ce4bgv92rcd13ifvqcq0","pricing_plan_id":"cebpf4jnsgd1na2vs0mg"},{"bike_id":"881ec65e-511c-4dc7-9541-94e73026687f","system_id":"levelo_inurba_marseille","lat":43.31706,"lon":5.377233,"is_reserved":false,"is_disabled":false,"rental_uris":{"android":"levelo://app?vid=881ec65e-511c-4dc7-9541-94e73026687f","ios":"levelo://app?vid=881ec65e-511c-4dc7-9541-94e73026687f"},"vehicle_type_id":"4","last_reported":1709060742,"current_range_meters":19600,"station_id":"ce4bgth2rcd13ifvqch0","pricing_plan_id":"cebpf4jnsgd1na2vs0mg"},{"bike_id":"2afabb95-7a9f-4556-9908-02961cc13ac6","system_id":"levelo_inurba_marseille","lat":43.317075,"lon":5.377367,"is_reserved":false,"is_disabled":false,"rental_uris":{"android":"levelo://app?vid=2afabb95-7a9f-4556-9908-02961cc13ac6","ios":"levelo://app?vid=2afabb95-7a9f-4556-9908-02961cc13ac6"},"vehicle_type_id":"4","last_reported":1709060742,"current_range_meters":11200,"station_id":"ce4bgth2rcd13ifvqch0","pricing_plan_id":"cebpf4jnsgd1na2vs0mg"},{"bike_id":"29aec56e-42bd-4353-985d-d37f14dc5095","system_id":"levelo_inurba_marseille","lat":43.317075,"lon":5.377367,"is_reserved":false,"is_disabled":false,"rental_uris":{"android":"levelo://app?vid=29aec56e-42bd-4353-985d-d37f14dc5095","ios":"levelo://app?vid=29aec56e-42bd-4353-985d-d37f14dc5095"},"vehicle_type_id":"4","last_reported":1709060742,"current_range_meters":7200,"station_id":"ce4bgth2rcd13ifvqch0","pricing_plan_id":"cebpf4jnsgd1na2vs0mg"},{"bike_id":"03281d4e-c96b-483d-902c-43dc3f3644e5","system_id":"levelo_inurba_marseille","lat":43.317075,"lon":5.377367,"is_reserved":false,"is_disabled":false,"rental_uris":{"android":"levelo://app?vid=03281d4e-c96b-483d-902c-43dc3f3644e5","ios":"levelo://app?vid=03281d4e-c96b-483d-902c-43dc3f3644e5"},"vehicle_type_id":"4","last_reported":1709060742,"current_range_meters":4000,"station_id":"ce4bgth2rcd13ifvqch0","pricing_plan_id":"cebpf4jnsgd1na2vs0mg"},{"bike_id":"19986099-ab32-4575-bc3a-e55eb4f4b772","system_id":"levelo_inurba_marseille","lat":43.317075,"lon":5.377367,"is_reserved":false,"is_disabled":false,"rental_uris":{"android":"levelo://app?vid=19986099-ab32-4575-bc3a-e55eb4f4b772","ios":"levelo://app?vid=19986099-ab32-4575-bc3a-e55eb4f4b772"},"vehicle_type_id":"4","last_reported":1709060742,"current_range_meters":2000,"station_id":"ce4bgth2rcd13ifvqch0","pricing_plan_id":"cebpf4jnsgd1na2vs0mg"},{"bike_id":"1df61fbd-823d-4b89-a856-3cc0677bd9ef","system_id":"levelo_inurba_marseille","lat":43.31699,"lon":5.37746,"is_reserved":false,"is_disabled":false,"rental_uris":{"android":"levelo://app?vid=1df61fbd-823d-4b89-a856-3cc0677bd9ef","ios":"levelo://app?vid=1df61fbd-823d-4b89-a856-3cc0677bd9ef"},"vehicle_type_id":"4","last_reported":1709060742,"current_range_meters":1200,"station_id":"ce4bgth2rcd13ifvqch0","pricing_plan_id":"cebpf4jnsgd1na2vs0mg"},{"bike_id":"93c2ccdd-8f85-498c-8e27-0902b6bb72ed","system_id":"levelo_inurba_marseille","lat":43.317075,"lon":5.377367,"is_reserved":false,"is_disabled":false,"rental_uris":{"android":"levelo://app?vid=93c2ccdd-8f85-498c-8e27-0902b6bb72ed","ios":"levelo://app?vid=93c2ccdd-8f85-498c-8e27-0902b6bb72ed"},"vehicle_type_id":"4","last_reported":1709060742,"current_range_meters":9200,"station_id":"ce4bgth2rcd13ifvqch0","pricing_plan_id":"cebpf4jnsgd1na2vs0mg"},{"bike_id":"a3b5adde-b6ae-4764-a239-47305abe482a","system_id":"levelo_inurba_marseille","lat":43.317075,"lon":5.377367,"is_reserved":false,"is_disabled":false,"rental_uris":{"android":"levelo://app?vid=a3b5adde-b6ae-4764-a239-47305abe482a","ios":"levelo://app?vid=a3b5adde-b6ae-4764-a239-47305abe482a"},"vehicle_type_id":"4","last_reported":1709060742,"current_range_meters":27200,"station_id":"ce4bgth2rcd13ifvqch0","pricing_plan_id":"cebpf4jnsgd1na2vs0mg"},{"bike_id":"79b43c6d-dcf8-4371-b5b4-a94b6f4e0671","system_id":"levelo_inurba_marseille","lat":43.317075,"lon":5.377367,"is_reserved":false,"is_disabled":false,"rental_uris":{"android":"levelo://app?vid=79b43c6d-dcf8-4371-b5b4-a94b6f4e0671","ios":"levelo://app?vid=79b43c6d-dcf8-4371-b5b4-a94b6f4e0671"},"vehicle_type_id":"4","last_reported":1709060742,"current_range_meters":15200,"station_id":"ce4bgth2rcd13ifvqch0","pricing_plan_id":"cebpf4jnsgd1na2vs0mg"},{"bike_id":"3e016ff9-0162-49b5-8a91-1afce3f12793","system_id":"levelo_inurba_marseille","lat":43.317075,"lon":5.377367,"is_reserved":false,"is_disabled":false,"rental_uris":{"android":"levelo://app?vid=3e016ff9-0162-49b5-8a91-1afce3f12793","ios":"levelo://app?vid=3e016ff9-0162-49b5-8a91-1afce3f12793"},"vehicle_type_id":"4","last_reported":1709060742,"current_range_meters":21600,"station_id":"ce4bgth2rcd13ifvqch0","pricing_plan_id":"cebpf4jnsgd1na2vs0mg"},{"bike_id":"3a9e9dac-20df-47dd-9b2a-16c0d693487e","system_id":"levelo_inurba_marseille","lat":43.31715,"lon":5.37739,"is_reserved":false,"is_disabled":false,"rental_uris":{"android":"levelo://app?vid=3a9e9dac-20df-47dd-9b2a-16c0d693487e","ios":"levelo://app?vid=3a9e9dac-20df-47dd-9b2a-16c0d693487e"},"vehicle_type_id":"4","last_reported":1709060742,"current_range_meters":0,"station_id":"ce4bgth2rcd13ifvqch0","pricing_plan_id":"cebpf4jnsgd1na2vs0mg"},{"bike_id":"6abe2244-a3d9-424e-a5b5-1c8ccef55d2e","system_id":"levelo_inurba_marseille","lat":43.317075,"lon":5.377367,"is_reserved":false,"is_disabled":false,"rental_uris":{"android":"levelo://app?vid=6abe2244-a3d9-424e-a5b5-1c8ccef55d2e","ios":"levelo://app?vid=6abe2244-a3d9-424e-a5b5-1c8ccef55d2e"},"vehicle_type_id":"4","last_reported":1709060742,"current_range_meters":4800,"station_id":"ce4bgth2rcd13ifvqch0","pricing_plan_id":"cebpf4jnsgd1na2vs0mg"},{"bike_id":"fdbbb02a-d11e-484d-9260-971f09d48d61","system_id":"levelo_inurba_marseille","lat":43.317075,"lon":5.377367,"is_reserved":false,"is_disabled":false,"rental_uris":{"android":"levelo://app?vid=fdbbb02a-d11e-484d-9260-971f09d48d61","ios":"levelo://app?vid=fdbbb02a-d11e-484d-9260-971f09d48d61"},"vehicle_type_id":"4","last_reported":1709060742,"current_range_meters":17600,"station_id":"ce4bgth2rcd13ifvqch0","pricing_plan_id":"cebpf4jnsgd1na2vs0mg"},{"bike_id":"6c9916f8-2af6-407b-a19b-590a2048d2b1","system_id":"levelo_inurba_marseille","lat":43.317075,"lon":5.377367,"is_reserved":false,"is_disabled":false,"rental_uris":{"android":"levelo://app?vid=6c9916f8-2af6-407b-a19b-590a2048d2b1","ios":"levelo://app?vid=6c9916f8-2af6-407b-a19b-590a2048d2b1"},"vehicle_type_id":"4","last_reported":1709060742,"current_range_meters":4800,"station_id":"ce4bgth2rcd13ifvqch0","pricing_plan_id":"cebpf4jnsgd1na2vs0mg"},{"bike_id":"dad93935-1cfa-416c-8c15-ff06b21a0d17","system_id":"levelo_inurba_marseille","lat":43.317075,"lon":5.377367,"is_reserved":false,"is_disabled":false,"rental_uris":{"android":"levelo://app?vid=dad93935-1cfa-416c-8c15-ff06b21a0d17","ios":"levelo://app?vid=dad93935-1cfa-416c-8c15-ff06b21a0d17"},"vehicle_type_id":"4","last_reported":1709060742,"current_range_meters":4400,"station_id":"ce4bgth2rcd13ifvqch0","pricing_plan_id":"cebpf4jnsgd1na2vs0mg"},{"bike_id":"7b99db59-26a7-48a7-947b-b943f3d6ae81","system_id":"levelo_inurba_marseille","lat":43.317075,"lon":5.377367,"is_reserved":false,"is_disabled":false,"rental_uris":{"android":"levelo://app?vid=7b99db59-26a7-48a7-947b-b943f3d6ae81","ios":"levelo://app?vid=7b99db59-26a7-48a7-947b-b943f3d6ae81"},"vehicle_type_id":"4","last_reported":1709060742,"current_range_meters":30400,"station_id":"ce4bgth2rcd13ifvqch0","pricing_plan_id":"cebpf4jnsgd1na2vs0mg"},{"bike_id":"f0c18dc6-3499-424f-ac78-38498c6a6159","system_id":"levelo_inurba_marseille","lat":43.317075,"lon":5.377367,"is_reserved":false,"is_disabled":false,"rental_uris":{"android":"levelo://app?vid=f0c18dc6-3499-424f-ac78-38498c6a6159","ios":"levelo://app?vid=f0c18dc6-3499-424f-ac78-38498c6a6159"},"vehicle_type_id":"4","last_reported":1709060742,"current_range_meters":16800,"station_id":"ce4bgth2rcd13ifvqch0","pricing_plan_id":"cebpf4jnsgd1na2vs0mg"},{"bike_id":"c39facae-def0-4cf9-afe1-d2a8175f1176","system_id":"levelo_inurba_marseille","lat":43.317075,"lon":5.377367,"is_reserved":false,"is_disabled":false,"rental_uris":{"android":"levelo://app?vid=c39facae-def0-4cf9-afe1-d2a8175f1176","ios":"levelo://app?vid=c39facae-def0-4cf9-afe1-d2a8175f1176"},"vehicle_type_id":"4","last_reported":1709060742,"current_range_meters":1200,"station_id":"ce4bgth2rcd13ifvqch0","pricing_plan_id":"cebpf4jnsgd1na2vs0mg"},{"bike_id":"41e0456e-3668-46d2-863d-c1e023e9d9e6","system_id":"levelo_inurba_marseille","lat":43.317075,"lon":5.377367,"is_reserved":false,"is_disabled":false,"rental_uris":{"android":"levelo://app?vid=41e0456e-3668-46d2-863d-c1e023e9d9e6","ios":"levelo://app?vid=41e0456e-3668-46d2-863d-c1e023e9d9e6"},"vehicle_type_id":"4","last_reported":1709060742,"current_range_meters":25200,"station_id":"ce4bgth2rcd13ifvqch0","pricing_plan_id":"cebpf4jnsgd1na2vs0mg"},{"bike_id":"8bd2d6ee-c69c-44a0-beeb-d0231eb183ac","system_id":"levelo_inurba_marseille","lat":43.317075,"lon":5.377367,"is_reserved":false,"is_disabled":false,"rental_uris":{"android":"levelo://app?vid=8bd2d6ee-c69c-44a0-beeb-d0231eb183ac","ios":"levelo://app?vid=8bd2d6ee-c69c-44a0-beeb-d0231eb183ac"},"vehicle_type_id":"4","last_reported":1709060742,"current_range_meters":29200,"station_id":"ce4bgth2rcd13ifvqch0","pricing_plan_id":"cebpf4jnsgd1na2vs0mg"},{"bike_id":"125fd96f-7a7d-4b07-ace5-722b4a1ef648","system_id":"levelo_inurba_marseille","lat":43.317075,"lon":5.377367,"is_reserved":false,"is_disabled":false,"rental_uris":{"android":"levelo://app?vid=125fd96f-7a7d-4b07-ace5-722b4a1ef648","ios":"levelo://app?vid=125fd96f-7a7d-4b07-ace5-722b4a1ef648"},"vehicle_type_id":"4","last_reported":1709060742,"current_range_meters":12800,"station_id":"ce4bgth2rcd13ifvqch0","pricing_plan_id":"cebpf4jnsgd1na2vs0mg"},{"bike_id":"5553d1e1-067c-42bb-8be9-33ad13e39b04","system_id":"levelo_inurba_marseille","lat":43.317075,"lon":5.377367,"is_reserved":false,"is_disabled":false,"rental_uris":{"android":"levelo://app?vid=5553d1e1-067c-42bb-8be9-33ad13e39b04","ios":"levelo://app?vid=5553d1e1-067c-42bb-8be9-33ad13e39b04"},"vehicle_type_id":"4","last_reported":1709060742,"current_range_meters":31200,"station_id":"ce4bgth2rcd13ifvqch0","pricing_plan_id":"cebpf4jnsgd1na2vs0mg"},{"bike_id":"cd51ba69-fc5e-4102-9684-f16915e1ec54","system_id":"levelo_inurba_marseille","lat":43.317075,"lon":5.377367,"is_reserved":false,"is_disabled":false,"rental_uris":{"android":"levelo://app?vid=cd51ba69-fc5e-4102-9684-f16915e1ec54","ios":"levelo://app?vid=cd51ba69-fc5e-4102-9684-f16915e1ec54"},"vehicle_type_id":"4","last_reported":1709060742,"current_range_meters":4800,"station_id":"ce4bgth2rcd13ifvqch0","pricing_plan_id":"cebpf4jnsgd1na2vs0mg"},{"bike_id":"e6d883fb-882a-4aec-a2bb-4b7d63c16ca0","system_id":"levelo_inurba_marseille","lat":43.317075,"lon":5.377367,"is_reserved":false,"is_disabled":false,"rental_uris":{"android":"levelo://app?vid=e6d883fb-882a-4aec-a2bb-4b7d63c16ca0","ios":"levelo://app?vid=e6d883fb-882a-4aec-a2bb-4b7d63c16ca0"},"vehicle_type_id":"4","last_reported":1709060742,"current_range_meters":6400,"station_id":"ce4bgth2rcd13ifvqch0","pricing_plan_id":"cebpf4jnsgd1na2vs0mg"},{"bike_id":"c3e4e39c-83d4-45fe-905a-63a2988b3518","system_id":"levelo_inurba_marseille","lat":43.307945,"lon":5.376487,"is_reserved":false,"is_disabled":false,"rental_uris":{"android":"levelo://app?vid=c3e4e39c-83d4-45fe-905a-63a2988b3518","ios":"levelo://app?vid=c3e4e39c-83d4-45fe-905a-63a2988b3518"},"vehicle_type_id":"4","last_reported":1709060742,"current_range_meters":8400,"station_id":"ce4bgv92rcd13ifvqcq0","pricing_plan_id":"cebpf4jnsgd1na2vs0mg"},{"bike_id":"1c383d85-4266-4b0a-af11-352581ec9800","system_id":"levelo_inurba_marseille","lat":43.301939,"lon":5.366286,"is_reserved":false,"is_disabled":false,"rental_uris":{"android":"levelo://app?vid=1c383d85-4266-4b0a-af11-352581ec9800","ios":"levelo://app?vid=1c383d85-4266-4b0a-af11-352581ec9800"},"vehicle_type_id":"4","last_reported":1709060742,"current_range_meters":8800,"station_id":"ce4bgrh2rcd13ifvqc8g","pricing_plan_id":"cebpf4jnsgd1na2vs0mg"},{"bike_id":"6cc4d5a9-f827-45ec-bd3a-32f95882074d","system_id":"levelo_inurba_marseille","lat":43.30705,"lon":5.38076,"is_reserved":false,"is_disabled":false,"rental_uris":{"android":"levelo://app?vid=6cc4d5a9-f827-45ec-bd3a-32f95882074d","ios":"levelo://app?vid=6cc4d5a9-f827-45ec-bd3a-32f95882074d"},"vehicle_type_id":"4","last_reported":1709060742,"current_range_meters":0,"station_id":"","pricing_plan_id":"cebpf4jnsgd1na2vs0mg"},{"bike_id":"7fbcbd6b-948e-4786-b866-03a9c9ae2b26","system_id":"levelo_inurba_marseille","lat":43.308012,"lon":5.381511,"is_reserved":false,"is_disabled":false,"rental_uris":{"android":"levelo://app?vid=7fbcbd6b-948e-4786-b866-03a9c9ae2b26","ios":"levelo://app?vid=7fbcbd6b-948e-4786-b866-03a9c9ae2b26"},"vehicle_type_id":"4","last_reported":1709060742,"current_range_meters":10800,"station_id":"ce4bgt12rcd13ifvqce0","pricing_plan_id":"cebpf4jnsgd1na2vs0mg"},{"bike_id":"28906e2c-8127-409f-a721-05ecc384713f","system_id":"levelo_inurba_marseille","lat":43.308012,"lon":5.381511,"is_reserved":false,"is_disabled":false,"rental_uris":{"android":"levelo://app?vid=28906e2c-8127-409f-a721-05ecc384713f","ios":"levelo://app?vid=28906e2c-8127-409f-a721-05ecc384713f"},"vehicle_type_id":"4","last_reported":1709060742,"current_range_meters":13200,"station_id":"ce4bgt12rcd13ifvqce0","pricing_plan_id":"cebpf4jnsgd1na2vs0mg"},{"bike_id":"f027d9f9-bb50-4270-94b2-a2436aecd0af","system_id":"levelo_inurba_marseille","lat":43.308012,"lon":5.381511,"is_reserved":false,"is_disabled":false,"rental_uris":{"android":"levelo://app?vid=f027d9f9-bb50-4270-94b2-a2436aecd0af","ios":"levelo://app?vid=f027d9f9-bb50-4270-94b2-a2436aecd0af"},"vehicle_type_id":"4","last_reported":1709060742,"current_range_meters":24800,"station_id":"ce4bgt12rcd13ifvqce0","pricing_plan_id":"cebpf4jnsgd1na2vs0mg"},{"bike_id":"6cc11d7a-97b4-4709-b4b9-5521fcc08136","system_id":"levelo_inurba_marseille","lat":43.308012,"lon":5.381511,"is_reserved":false,"is_disabled":false,"rental_uris":{"android":"levelo://app?vid=6cc11d7a-97b4-4709-b4b9-5521fcc08136","ios":"levelo://app?vid=6cc11d7a-97b4-4709-b4b9-5521fcc08136"},"vehicle_type_id":"4","last_reported":1709060742,"current_range_meters":9200,"station_id":"ce4bgt12rcd13ifvqce0","pricing_plan_id":"cebpf4jnsgd1na2vs0mg"},{"bike_id":"478367ec-7cf9-473f-98f3-65fdcb926f84","system_id":"levelo_inurba_marseille","lat":43.30464,"lon":5.378973,"is_reserved":false,"is_disabled":false,"rental_uris":{"android":"levelo://app?vid=478367ec-7cf9-473f-98f3-65fdcb926f84","ios":"levelo://app?vid=478367ec-7cf9-473f-98f3-65fdcb926f84"},"vehicle_type_id":"4","last_reported":1709060742,"current_range_meters":800,"station_id":"ce4bgup2rcd13ifvqcn0","pricing_plan_id":"cebpf4jnsgd1na2vs0mg"},{"bike_id":"47b9890f-6fca-4cb7-81d5-4324c3ed62c4","system_id":"levelo_inurba_marseille","lat":43.30455,"lon":5.378983,"is_reserved":false,"is_disabled":false,"rental_uris":{"android":"levelo://app?vid=47b9890f-6fca-4cb7-81d5-4324c3ed62c4","ios":"levelo://app?vid=47b9890f-6fca-4cb7-81d5-4324c3ed62c4"},"vehicle_type_id":"4","last_reported":1709060742,"current_range_meters":0,"station_id":"ce4bgup2rcd13ifvqcn0","pricing_plan_id":"cebpf4jnsgd1na2vs0mg"},{"bike_id":"080e752f-4a99-42a9-bc09-fa9ea9e0dc43","system_id":"levelo_inurba_marseille","lat":43.324771,"lon":5.36557,"is_reserved":false,"is_disabled":false,"rental_uris":{"android":"levelo://app?vid=080e752f-4a99-42a9-bc09-fa9ea9e0dc43","ios":"levelo://app?vid=080e752f-4a99-42a9-bc09-fa9ea9e0dc43"},"vehicle_type_id":"4","last_reported":1709060742,"current_range_meters":7200,"station_id":"ce4bhs12rcd13ifvqhvg","pricing_plan_id":"cebpf4jnsgd1na2vs0mg"},{"bike_id":"f6d88710-e323-459f-a2bd-3bfb95d6698f","system_id":"levelo_inurba_marseille","lat":43.324771,"lon":5.36557,"is_reserved":false,"is_disabled":false,"rental_uris":{"android":"levelo://app?vid=f6d88710-e323-459f-a2bd-3bfb95d6698f","ios":"levelo://app?vid=f6d88710-e323-459f-a2bd-3bfb95d6698f"},"vehicle_type_id":"4","last_reported":1709060742,"current_range_meters":8800,"station_id":"ce4bhs12rcd13ifvqhvg","pricing_plan_id":"cebpf4jnsgd1na2vs0mg"},{"bike_id":"bc19890f-298b-46c3-b4e7-7aaa976e0228","system_id":"levelo_inurba_marseille","lat":43.324771,"lon":5.36557,"is_reserved":false,"is_disabled":false,"rental_uris":{"android":"levelo://app?vid=bc19890f-298b-46c3-b4e7-7aaa976e0228","ios":"levelo://app?vid=bc19890f-298b-46c3-b4e7-7aaa976e0228"},"vehicle_type_id":"4","last_reported":1709060742,"current_range_meters":4400,"station_id":"ce4bhs12rcd13ifvqhvg","pricing_plan_id":"cebpf4jnsgd1na2vs0mg"},{"bike_id":"5a269137-364d-491b-844c-135942edaef3","system_id":"levelo_inurba_marseille","lat":43.324809,"lon":5.365799,"is_reserved":false,"is_disabled":false,"rental_uris":{"android":"levelo://app?vid=5a269137-364d-491b-844c-135942edaef3","ios":"levelo://app?vid=5a269137-364d-491b-844c-135942edaef3"},"vehicle_type_id":"4","last_reported":1709060742,"current_range_meters":19200,"station_id":"ce4bhs12rcd13ifvqhvg","pricing_plan_id":"cebpf4jnsgd1na2vs0mg"},{"bike_id":"bd87fb86-09f7-4996-8cfe-38c4939c1227","system_id":"levelo_inurba_marseille","lat":43.324771,"lon":5.36557,"is_reserved":false,"is_disabled":false,"rental_uris":{"android":"levelo://app?vid=bd87fb86-09f7-4996-8cfe-38c4939c1227","ios":"levelo://app?vid=bd87fb86-09f7-4996-8cfe-38c4939c1227"},"vehicle_type_id":"4","last_reported":1709060742,"current_range_meters":1200,"station_id":"ce4bhs12rcd13ifvqhvg","pricing_plan_id":"cebpf4jnsgd1na2vs0mg"},{"bike_id":"f1562a8d-1584-4cb1-b86e-05608153b917","system_id":"levelo_inurba_marseille","lat":43.324771,"lon":5.36557,"is_reserved":false,"is_disabled":false,"rental_uris":{"android":"levelo://app?vid=f1562a8d-1584-4cb1-b86e-05608153b917","ios":"levelo://app?vid=f1562a8d-1584-4cb1-b86e-05608153b917"},"vehicle_type_id":"4","last_reported":1709060742,"current_range_meters":7200,"station_id":"ce4bhs12rcd13ifvqhvg","pricing_plan_id":"cebpf4jnsgd1na2vs0mg"},{"bike_id":"ef7f4f67-6b73-4494-a22b-eaab9f489ade","system_id":"levelo_inurba_marseille","lat":43.324771,"lon":5.36557,"is_reserved":false,"is_disabled":false,"rental_uris":{"android":"levelo://app?vid=ef7f4f67-6b73-4494-a22b-eaab9f489ade","ios":"levelo://app?vid=ef7f4f67-6b73-4494-a22b-eaab9f489ade"},"vehicle_type_id":"4","last_reported":1709060742,"current_range_meters":0,"station_id":"ce4bhs12rcd13ifvqhvg","pricing_plan_id":"cebpf4jnsgd1na2vs0mg"},{"bike_id":"f6739c59-7471-47f0-adac-fd00e2358b01","system_id":"levelo_inurba_marseille","lat":43.310804,"lon":5.38359,"is_reserved":false,"is_disabled":false,"rental_uris":{"android":"levelo://app?vid=f6739c59-7471-47f0-adac-fd00e2358b01","ios":"levelo://app?vid=f6739c59-7471-47f0-adac-fd00e2358b01"},"vehicle_type_id":"4","last_reported":1709060742,"current_range_meters":20400,"station_id":"ce4bgv92rcd13ifvqcr0","pricing_plan_id":"cebpf4jnsgd1na2vs0mg"},{"bike_id":"26b91082-d61f-44c9-bc45-4eada925318b","system_id":"levelo_inurba_marseille","lat":43.310804,"lon":5.38359,"is_reserved":false,"is_disabled":false,"rental_uris":{"android":"levelo://app?vid=26b91082-d61f-44c9-bc45-4eada925318b","ios":"levelo://app?vid=26b91082-d61f-44c9-bc45-4eada925318b"},"vehicle_type_id":"4","last_reported":1709060742,"current_range_meters":15600,"station_id":"ce4bgv92rcd13ifvqcr0","pricing_plan_id":"cebpf4jnsgd1na2vs0mg"},{"bike_id":"d1f2cb3e-da36-4653-ac62-98d47cd91d95","system_id":"levelo_inurba_marseille","lat":43.310804,"lon":5.38359,"is_reserved":false,"is_disabled":false,"rental_uris":{"android":"levelo://app?vid=d1f2cb3e-da36-4653-ac62-98d47cd91d95","ios":"levelo://app?vid=d1f2cb3e-da36-4653-ac62-98d47cd91d95"},"vehicle_type_id":"4","last_reported":1709060742,"current_range_meters":19600,"station_id":"ce4bgv92rcd13ifvqcr0","pricing_plan_id":"cebpf4jnsgd1na2vs0mg"},{"bike_id":"d4d834cb-bfe8-4b91-b3c2-bdee23204b38","system_id":"levelo_inurba_marseille","lat":43.310804,"lon":5.38359,"is_reserved":false,"is_disabled":false,"rental_uris":{"android":"levelo://app?vid=d4d834cb-bfe8-4b91-b3c2-bdee23204b38","ios":"levelo://app?vid=d4d834cb-bfe8-4b91-b3c2-bdee23204b38"},"vehicle_type_id":"4","last_reported":1709060742,"current_range_meters":12800,"station_id":"ce4bgv92rcd13ifvqcr0","pricing_plan_id":"cebpf4jnsgd1na2vs0mg"},{"bike_id":"de28d86e-53a4-47dd-b181-f50c924ca319","system_id":"levelo_inurba_marseille","lat":43.319936,"lon":5.381492,"is_reserved":false,"is_disabled":false,"rental_uris":{"android":"levelo://app?vid=de28d86e-53a4-47dd-b181-f50c924ca319","ios":"levelo://app?vid=de28d86e-53a4-47dd-b181-f50c924ca319"},"vehicle_type_id":"4","last_reported":1709060742,"current_range_meters":3600,"station_id":"ce4bhr12rcd13ifvqhpg","pricing_plan_id":"cebpf4jnsgd1na2vs0mg"},{"bike_id":"51ab80dd-e9f4-4f9e-ba41-aaeea32bbb91","system_id":"levelo_inurba_marseille","lat":43.320003,"lon":5.381483,"is_reserved":false,"is_disabled":false,"rental_uris":{"android":"levelo://app?vid=51ab80dd-e9f4-4f9e-ba41-aaeea32bbb91","ios":"levelo://app?vid=51ab80dd-e9f4-4f9e-ba41-aaeea32bbb91"},"vehicle_type_id":"4","last_reported":1709060742,"current_range_meters":18000,"station_id":"ce4bhr12rcd13ifvqhpg","pricing_plan_id":"cebpf4jnsgd1na2vs0mg"},{"bike_id":"0070727f-ec51-40ec-a1c9-bb4ef374b799","system_id":"levelo_inurba_marseille","lat":43.31997,"lon":5.38152,"is_reserved":false,"is_disabled":false,"rental_uris":{"android":"levelo://app?vid=0070727f-ec51-40ec-a1c9-bb4ef374b799","ios":"levelo://app?vid=0070727f-ec51-40ec-a1c9-bb4ef374b799"},"vehicle_type_id":"4","last_reported":1709060742,"current_range_meters":25200,"station_id":"ce4bhr12rcd13ifvqhpg","pricing_plan_id":"cebpf4jnsgd1na2vs0mg"},{"bike_id":"0b95c681-b29f-4f51-b44b-1ab5ceb73b6c","system_id":"levelo_inurba_marseille","lat":43.319935,"lon":5.381699,"is_reserved":false,"is_disabled":false,"rental_uris":{"android":"levelo://app?vid=0b95c681-b29f-4f51-b44b-1ab5ceb73b6c","ios":"levelo://app?vid=0b95c681-b29f-4f51-b44b-1ab5ceb73b6c"},"vehicle_type_id":"4","last_reported":1709060742,"current_range_meters":18400,"station_id":"ce4bhr12rcd13ifvqhpg","pricing_plan_id":"cebpf4jnsgd1na2vs0mg"},{"bike_id":"3ac9fb44-31f5-49cd-a9f3-654ef6e7ec3b","system_id":"levelo_inurba_marseille","lat":43.319935,"lon":5.381699,"is_reserved":false,"is_disabled":false,"rental_uris":{"android":"levelo://app?vid=3ac9fb44-31f5-49cd-a9f3-654ef6e7ec3b","ios":"levelo://app?vid=3ac9fb44-31f5-49cd-a9f3-654ef6e7ec3b"},"vehicle_type_id":"4","last_reported":1709060742,"current_range_meters":15200,"station_id":"ce4bhr12rcd13ifvqhpg","pricing_plan_id":"cebpf4jnsgd1na2vs0mg"},{"bike_id":"c6a63345-95ff-4072-a6af-b9d4ca7b5db7","system_id":"levelo_inurba_marseille","lat":43.313571,"lon":5.384829,"is_reserved":false,"is_disabled":false,"rental_uris":{"android":"levelo://app?vid=c6a63345-95ff-4072-a6af-b9d4ca7b5db7","ios":"levelo://app?vid=c6a63345-95ff-4072-a6af-b9d4ca7b5db7"},"vehicle_type_id":"4","last_reported":1709060742,"current_range_meters":12000,"station_id":"ce4bgt92rcd13ifvqcf0","pricing_plan_id":"cebpf4jnsgd1na2vs0mg"},{"bike_id":"001c8c9c-1f6d-4bd7-bc62-74349d68230f","system_id":"levelo_inurba_marseille","lat":43.313571,"lon":5.384829,"is_reserved":false,"is_disabled":false,"rental_uris":{"android":"levelo://app?vid=001c8c9c-1f6d-4bd7-bc62-74349d68230f","ios":"levelo://app?vid=001c8c9c-1f6d-4bd7-bc62-74349d68230f"},"vehicle_type_id":"4","last_reported":1709060742,"current_range_meters":0,"station_id":"ce4bgt92rcd13ifvqcf0","pricing_plan_id":"cebpf4jnsgd1na2vs0mg"},{"bike_id":"b3ca3e64-c2c6-4269-88b1-3a3d3dfbc045","system_id":"levelo_inurba_marseille","lat":43.313571,"lon":5.384829,"is_reserved":false,"is_disabled":false,"rental_uris":{"android":"levelo://app?vid=b3ca3e64-c2c6-4269-88b1-3a3d3dfbc045","ios":"levelo://app?vid=b3ca3e64-c2c6-4269-88b1-3a3d3dfbc045"},"vehicle_type_id":"4","last_reported":1709060742,"current_range_meters":8000,"station_id":"ce4bgt92rcd13ifvqcf0","pricing_plan_id":"cebpf4jnsgd1na2vs0mg"},{"bike_id":"18e44201-8686-4432-b2e8-8fa77bfa64f8","system_id":"levelo_inurba_marseille","lat":43.313571,"lon":5.384829,"is_reserved":false,"is_disabled":false,"rental_uris":{"android":"levelo://app?vid=18e44201-8686-4432-b2e8-8fa77bfa64f8","ios":"levelo://app?vid=18e44201-8686-4432-b2e8-8fa77bfa64f8"},"vehicle_type_id":"4","last_reported":1709060742,"current_range_meters":22400,"station_id":"ce4bgt92rcd13ifvqcf0","pricing_plan_id":"cebpf4jnsgd1na2vs0mg"},{"bike_id":"120c7d59-212e-442a-b583-f6fcd0b9fe9f","system_id":"levelo_inurba_marseille","lat":43.313571,"lon":5.384829,"is_reserved":false,"is_disabled":false,"rental_uris":{"android":"levelo://app?vid=120c7d59-212e-442a-b583-f6fcd0b9fe9f","ios":"levelo://app?vid=120c7d59-212e-442a-b583-f6fcd0b9fe9f"},"vehicle_type_id":"4","last_reported":1709060742,"current_range_meters":13600,"station_id":"ce4bgt92rcd13ifvqcf0","pricing_plan_id":"cebpf4jnsgd1na2vs0mg"},{"bike_id":"8a18c4e5-0993-4f58-9cec-46b93d65aef6","system_id":"levelo_inurba_marseille","lat":43.299222,"lon":5.365554,"is_reserved":false,"is_disabled":false,"rental_uris":{"android":"levelo://app?vid=8a18c4e5-0993-4f58-9cec-46b93d65aef6","ios":"levelo://app?vid=8a18c4e5-0993-4f58-9cec-46b93d65aef6"},"vehicle_type_id":"4","last_reported":1709060742,"current_range_meters":23600,"station_id":"ce4bgm92rcd13ifvqbr0","pricing_plan_id":"cebpf4jnsgd1na2vs0mg"},{"bike_id":"ba08cc64-5db8-4bf7-a12f-5d75272b3d3c","system_id":"levelo_inurba_marseille","lat":43.299724,"lon":5.371829,"is_reserved":false,"is_disabled":false,"rental_uris":{"android":"levelo://app?vid=ba08cc64-5db8-4bf7-a12f-5d75272b3d3c","ios":"levelo://app?vid=ba08cc64-5db8-4bf7-a12f-5d75272b3d3c"},"vehicle_type_id":"4","last_reported":1709060742,"current_range_meters":20800,"station_id":"ce4bgr92rcd13ifvqc7g","pricing_plan_id":"cebpf4jnsgd1na2vs0mg"},{"bike_id":"55204a3c-3222-4664-ba5e-b86ccb46060c","system_id":"levelo_inurba_marseille","lat":43.298433,"lon":5.362774,"is_reserved":false,"is_disabled":false,"rental_uris":{"android":"levelo://app?vid=55204a3c-3222-4664-ba5e-b86ccb46060c","ios":"levelo://app?vid=55204a3c-3222-4664-ba5e-b86ccb46060c"},"vehicle_type_id":"4","last_reported":1709060742,"current_range_meters":4800,"station_id":"ce4bgpp2rcd13ifvqc3g","pricing_plan_id":"cebpf4jnsgd1na2vs0mg"},{"bike_id":"beca4e09-cab9-4f5e-b60b-51baea5dd329","system_id":"levelo_inurba_marseille","lat":43.305364,"lon":5.384119,"is_reserved":false,"is_disabled":false,"rental_uris":{"android":"levelo://app?vid=beca4e09-cab9-4f5e-b60b-51baea5dd329","ios":"levelo://app?vid=beca4e09-cab9-4f5e-b60b-51baea5dd329"},"vehicle_type_id":"4","last_reported":1709060742,"current_range_meters":9600,"station_id":"ce4bgg92rcd13ifvqb30","pricing_plan_id":"cebpf4jnsgd1na2vs0mg"},{"bike_id":"26695355-d626-4f49-9023-4536a1b4dbbf","system_id":"levelo_inurba_marseille","lat":43.298433,"lon":5.362774,"is_reserved":false,"is_disabled":false,"rental_uris":{"android":"levelo://app?vid=26695355-d626-4f49-9023-4536a1b4dbbf","ios":"levelo://app?vid=26695355-d626-4f49-9023-4536a1b4dbbf"},"vehicle_type_id":"4","last_reported":1709060742,"current_range_meters":29600,"station_id":"ce4bgpp2rcd13ifvqc3g","pricing_plan_id":"cebpf4jnsgd1na2vs0mg"},{"bike_id":"bce853e6-b713-4746-8f1b-a901cb3337e4","system_id":"levelo_inurba_marseille","lat":43.298433,"lon":5.362774,"is_reserved":false,"is_disabled":false,"rental_uris":{"android":"levelo://app?vid=bce853e6-b713-4746-8f1b-a901cb3337e4","ios":"levelo://app?vid=bce853e6-b713-4746-8f1b-a901cb3337e4"},"vehicle_type_id":"4","last_reported":1709060742,"current_range_meters":20000,"station_id":"ce4bgpp2rcd13ifvqc3g","pricing_plan_id":"cebpf4jnsgd1na2vs0mg"},{"bike_id":"6096b777-9ae2-4157-b91a-72d328e6e302","system_id":"levelo_inurba_marseille","lat":43.298433,"lon":5.362774,"is_reserved":false,"is_disabled":false,"rental_uris":{"android":"levelo://app?vid=6096b777-9ae2-4157-b91a-72d328e6e302","ios":"levelo://app?vid=6096b777-9ae2-4157-b91a-72d328e6e302"},"vehicle_type_id":"4","last_reported":1709060742,"current_range_meters":1200,"station_id":"ce4bgpp2rcd13ifvqc3g","pricing_plan_id":"cebpf4jnsgd1na2vs0mg"},{"bike_id":"3d5bc3e8-a445-45cd-9420-a2971c1429b0","system_id":"levelo_inurba_marseille","lat":43.298433,"lon":5.362774,"is_reserved":false,"is_disabled":false,"rental_uris":{"android":"levelo://app?vid=3d5bc3e8-a445-45cd-9420-a2971c1429b0","ios":"levelo://app?vid=3d5bc3e8-a445-45cd-9420-a2971c1429b0"},"vehicle_type_id":"4","last_reported":1709060742,"current_range_meters":22800,"station_id":"ce4bgpp2rcd13ifvqc3g","pricing_plan_id":"cebpf4jnsgd1na2vs0mg"},{"bike_id":"19c2e294-a29b-4c44-b7c8-445499cd4f19","system_id":"levelo_inurba_marseille","lat":43.298433,"lon":5.362774,"is_reserved":false,"is_disabled":false,"rental_uris":{"android":"levelo://app?vid=19c2e294-a29b-4c44-b7c8-445499cd4f19","ios":"levelo://app?vid=19c2e294-a29b-4c44-b7c8-445499cd4f19"},"vehicle_type_id":"4","last_reported":1709060742,"current_range_meters":26800,"station_id":"ce4bgpp2rcd13ifvqc3g","pricing_plan_id":"cebpf4jnsgd1na2vs0mg"},{"bike_id":"39dbd156-4091-40fd-821c-48e845a64abd","system_id":"levelo_inurba_marseille","lat":43.298433,"lon":5.362774,"is_reserved":false,"is_disabled":false,"rental_uris":{"android":"levelo://app?vid=39dbd156-4091-40fd-821c-48e845a64abd","ios":"levelo://app?vid=39dbd156-4091-40fd-821c-48e845a64abd"},"vehicle_type_id":"4","last_reported":1709060742,"current_range_meters":31200,"station_id":"ce4bgpp2rcd13ifvqc3g","pricing_plan_id":"cebpf4jnsgd1na2vs0mg"},{"bike_id":"1667978e-b040-43f2-846c-2670e102193b","system_id":"levelo_inurba_marseille","lat":43.298433,"lon":5.362774,"is_reserved":false,"is_disabled":false,"rental_uris":{"android":"levelo://app?vid=1667978e-b040-43f2-846c-2670e102193b","ios":"levelo://app?vid=1667978e-b040-43f2-846c-2670e102193b"},"vehicle_type_id":"4","last_reported":1709060742,"current_range_meters":31600,"station_id":"ce4bgpp2rcd13ifvqc3g","pricing_plan_id":"cebpf4jnsgd1na2vs0mg"},{"bike_id":"8d43916d-ac5a-4afd-bcfc-90f5da339dab","system_id":"levelo_inurba_marseille","lat":43.298433,"lon":5.362774,"is_reserved":false,"is_disabled":false,"rental_uris":{"android":"levelo://app?vid=8d43916d-ac5a-4afd-bcfc-90f5da339dab","ios":"levelo://app?vid=8d43916d-ac5a-4afd-bcfc-90f5da339dab"},"vehicle_type_id":"4","last_reported":1709060742,"current_range_meters":31200,"station_id":"ce4bgpp2rcd13ifvqc3g","pricing_plan_id":"cebpf4jnsgd1na2vs0mg"},{"bike_id":"b177320c-33ee-454e-a9da-af4ac73a0f89","system_id":"levelo_inurba_marseille","lat":43.305364,"lon":5.384119,"is_reserved":false,"is_disabled":false,"rental_uris":{"android":"levelo://app?vid=b177320c-33ee-454e-a9da-af4ac73a0f89","ios":"levelo://app?vid=b177320c-33ee-454e-a9da-af4ac73a0f89"},"vehicle_type_id":"4","last_reported":1709060742,"current_range_meters":30000,"station_id":"ce4bgg92rcd13ifvqb30","pricing_plan_id":"cebpf4jnsgd1na2vs0mg"},{"bike_id":"e0978310-9ea6-40d9-b33e-f55d6649e016","system_id":"levelo_inurba_marseille","lat":43.311722,"lon":5.387247,"is_reserved":false,"is_disabled":false,"rental_uris":{"android":"levelo://app?vid=e0978310-9ea6-40d9-b33e-f55d6649e016","ios":"levelo://app?vid=e0978310-9ea6-40d9-b33e-f55d6649e016"},"vehicle_type_id":"4","last_reported":1709060742,"current_range_meters":6400,"station_id":"ce4bgv12rcd13ifvqcp0","pricing_plan_id":"cebpf4jnsgd1na2vs0mg"},{"bike_id":"4bfee383-34b8-4c9f-9ffe-73ff07eee388","system_id":"levelo_inurba_marseille","lat":43.298433,"lon":5.362774,"is_reserved":false,"is_disabled":false,"rental_uris":{"android":"levelo://app?vid=4bfee383-34b8-4c9f-9ffe-73ff07eee388","ios":"levelo://app?vid=4bfee383-34b8-4c9f-9ffe-73ff07eee388"},"vehicle_type_id":"4","last_reported":1709060742,"current_range_meters":30800,"station_id":"ce4bgpp2rcd13ifvqc3g","pricing_plan_id":"cebpf4jnsgd1na2vs0mg"},{"bike_id":"16d52983-f8b1-43f4-ba63-255d92aa74d4","system_id":"levelo_inurba_marseille","lat":43.299243,"lon":5.37481,"is_reserved":false,"is_disabled":false,"rental_uris":{"android":"levelo://app?vid=16d52983-f8b1-43f4-ba63-255d92aa74d4","ios":"levelo://app?vid=16d52983-f8b1-43f4-ba63-255d92aa74d4"},"vehicle_type_id":"4","last_reported":1709060742,"current_range_meters":16000,"station_id":"ce4bgjh2rcd13ifvqbg0","pricing_plan_id":"cebpf4jnsgd1na2vs0mg"},{"bike_id":"1b7a7913-a752-43bd-a709-d54b799d418f","system_id":"levelo_inurba_marseille","lat":43.311722,"lon":5.387247,"is_reserved":false,"is_disabled":false,"rental_uris":{"android":"levelo://app?vid=1b7a7913-a752-43bd-a709-d54b799d418f","ios":"levelo://app?vid=1b7a7913-a752-43bd-a709-d54b799d418f"},"vehicle_type_id":"4","last_reported":1709060742,"current_range_meters":20800,"station_id":"ce4bgv12rcd13ifvqcp0","pricing_plan_id":"cebpf4jnsgd1na2vs0mg"},{"bike_id":"e60ce9a0-d50b-4409-9820-a51e6517c83b","system_id":"levelo_inurba_marseille","lat":43.311722,"lon":5.387247,"is_reserved":false,"is_disabled":false,"rental_uris":{"android":"levelo://app?vid=e60ce9a0-d50b-4409-9820-a51e6517c83b","ios":"levelo://app?vid=e60ce9a0-d50b-4409-9820-a51e6517c83b"},"vehicle_type_id":"4","last_reported":1709060742,"current_range_meters":6000,"station_id":"ce4bgv12rcd13ifvqcp0","pricing_plan_id":"cebpf4jnsgd1na2vs0mg"},{"bike_id":"30e8186d-55b7-46c4-8ebf-ea01f39cb2ac","system_id":"levelo_inurba_marseille","lat":43.297794,"lon":5.370888,"is_reserved":false,"is_disabled":false,"rental_uris":{"android":"levelo://app?vid=30e8186d-55b7-46c4-8ebf-ea01f39cb2ac","ios":"levelo://app?vid=30e8186d-55b7-46c4-8ebf-ea01f39cb2ac"},"vehicle_type_id":"4","last_reported":1709060742,"current_range_meters":11600,"station_id":"ce4bgop2rcd13ifvqc1g","pricing_plan_id":"cebpf4jnsgd1na2vs0mg"},{"bike_id":"d8938675-f49b-4ca7-93d2-9dc345b62298","system_id":"levelo_inurba_marseille","lat":43.297794,"lon":5.370888,"is_reserved":false,"is_disabled":false,"rental_uris":{"android":"levelo://app?vid=d8938675-f49b-4ca7-93d2-9dc345b62298","ios":"levelo://app?vid=d8938675-f49b-4ca7-93d2-9dc345b62298"},"vehicle_type_id":"4","last_reported":1709060742,"current_range_meters":23600,"station_id":"ce4bgop2rcd13ifvqc1g","pricing_plan_id":"cebpf4jnsgd1na2vs0mg"},{"bike_id":"90cb606e-2bcc-405a-b983-ab97e68ac212","system_id":"levelo_inurba_marseille","lat":43.322872,"lon":5.382756,"is_reserved":false,"is_disabled":false,"rental_uris":{"android":"levelo://app?vid=90cb606e-2bcc-405a-b983-ab97e68ac212","ios":"levelo://app?vid=90cb606e-2bcc-405a-b983-ab97e68ac212"},"vehicle_type_id":"4","last_reported":1709060742,"current_range_meters":28400,"station_id":"ce4bhr12rcd13ifvqhqg","pricing_plan_id":"cebpf4jnsgd1na2vs0mg"},{"bike_id":"da647477-f52e-4f0d-85a7-4f6bd99630f9","system_id":"levelo_inurba_marseille","lat":43.32287,"lon":5.38271,"is_reserved":false,"is_disabled":false,"rental_uris":{"android":"levelo://app?vid=da647477-f52e-4f0d-85a7-4f6bd99630f9","ios":"levelo://app?vid=da647477-f52e-4f0d-85a7-4f6bd99630f9"},"vehicle_type_id":"4","last_reported":1709060742,"current_range_meters":14400,"station_id":"ce4bhr12rcd13ifvqhqg","pricing_plan_id":"cebpf4jnsgd1na2vs0mg"},{"bike_id":"b3fa42bf-049a-4d4c-bc17-b3d5a017b1ec","system_id":"levelo_inurba_marseille","lat":43.322872,"lon":5.382756,"is_reserved":false,"is_disabled":false,"rental_uris":{"android":"levelo://app?vid=b3fa42bf-049a-4d4c-bc17-b3d5a017b1ec","ios":"levelo://app?vid=b3fa42bf-049a-4d4c-bc17-b3d5a017b1ec"},"vehicle_type_id":"4","last_reported":1709060742,"current_range_meters":18800,"station_id":"ce4bhr12rcd13ifvqhqg","pricing_plan_id":"cebpf4jnsgd1na2vs0mg"},{"bike_id":"49e74b8f-1b1a-4229-8d8a-ec9d0bb4dc00","system_id":"levelo_inurba_marseille","lat":43.322872,"lon":5.382756,"is_reserved":false,"is_disabled":false,"rental_uris":{"android":"levelo://app?vid=49e74b8f-1b1a-4229-8d8a-ec9d0bb4dc00","ios":"levelo://app?vid=49e74b8f-1b1a-4229-8d8a-ec9d0bb4dc00"},"vehicle_type_id":"4","last_reported":1709060742,"current_range_meters":31200,"station_id":"ce4bhr12rcd13ifvqhqg","pricing_plan_id":"cebpf4jnsgd1na2vs0mg"},{"bike_id":"5754f9ee-6068-450a-a72e-03c046263540","system_id":"levelo_inurba_marseille","lat":43.322872,"lon":5.382756,"is_reserved":false,"is_disabled":false,"rental_uris":{"android":"levelo://app?vid=5754f9ee-6068-450a-a72e-03c046263540","ios":"levelo://app?vid=5754f9ee-6068-450a-a72e-03c046263540"},"vehicle_type_id":"4","last_reported":1709060742,"current_range_meters":29600,"station_id":"ce4bhr12rcd13ifvqhqg","pricing_plan_id":"cebpf4jnsgd1na2vs0mg"},{"bike_id":"456efc1e-87c1-4573-9be0-31b60197d1d4","system_id":"levelo_inurba_marseille","lat":43.32289,"lon":5.382755,"is_reserved":false,"is_disabled":false,"rental_uris":{"android":"levelo://app?vid=456efc1e-87c1-4573-9be0-31b60197d1d4","ios":"levelo://app?vid=456efc1e-87c1-4573-9be0-31b60197d1d4"},"vehicle_type_id":"4","last_reported":1709060742,"current_range_meters":20800,"station_id":"ce4bhr12rcd13ifvqhqg","pricing_plan_id":"cebpf4jnsgd1na2vs0mg"},{"bike_id":"33601d33-20cd-4665-afaa-8b28866ba453","system_id":"levelo_inurba_marseille","lat":43.297163,"lon":5.365866,"is_reserved":false,"is_disabled":false,"rental_uris":{"android":"levelo://app?vid=33601d33-20cd-4665-afaa-8b28866ba453","ios":"levelo://app?vid=33601d33-20cd-4665-afaa-8b28866ba453"},"vehicle_type_id":"4","last_reported":1709060742,"current_range_meters":28000,"station_id":"ce4bgn12rcd13ifvqbt0","pricing_plan_id":"cebpf4jnsgd1na2vs0mg"},{"bike_id":"e202ff27-b25a-4829-94f1-25019a7ad2ab","system_id":"levelo_inurba_marseille","lat":43.29598,"lon":5.367907,"is_reserved":false,"is_disabled":false,"rental_uris":{"android":"levelo://app?vid=e202ff27-b25a-4829-94f1-25019a7ad2ab","ios":"levelo://app?vid=e202ff27-b25a-4829-94f1-25019a7ad2ab"},"vehicle_type_id":"4","last_reported":1709060742,"current_range_meters":28800,"station_id":"","pricing_plan_id":"cebpf4jnsgd1na2vs0mg"},{"bike_id":"c739fb0d-daaa-49ca-a31a-2068d2910904","system_id":"levelo_inurba_marseille","lat":43.29588,"lon":5.36745,"is_reserved":false,"is_disabled":false,"rental_uris":{"android":"levelo://app?vid=c739fb0d-daaa-49ca-a31a-2068d2910904","ios":"levelo://app?vid=c739fb0d-daaa-49ca-a31a-2068d2910904"},"vehicle_type_id":"4","last_reported":1709060742,"current_range_meters":4800,"station_id":"ce4bgph2rcd13ifvqc2g","pricing_plan_id":"cebpf4jnsgd1na2vs0mg"},{"bike_id":"c6e4e22e-78ee-4bfd-a6f6-ea33ab3cf3d9","system_id":"levelo_inurba_marseille","lat":43.29573,"lon":5.367355,"is_reserved":false,"is_disabled":false,"rental_uris":{"android":"levelo://app?vid=c6e4e22e-78ee-4bfd-a6f6-ea33ab3cf3d9","ios":"levelo://app?vid=c6e4e22e-78ee-4bfd-a6f6-ea33ab3cf3d9"},"vehicle_type_id":"4","last_reported":1709060742,"current_range_meters":22400,"station_id":"ce4bgph2rcd13ifvqc2g","pricing_plan_id":"cebpf4jnsgd1na2vs0mg"},{"bike_id":"b4a43e1a-59ba-4239-bd79-ca361410fc8a","system_id":"levelo_inurba_marseille","lat":43.29573,"lon":5.367355,"is_reserved":false,"is_disabled":false,"rental_uris":{"android":"levelo://app?vid=b4a43e1a-59ba-4239-bd79-ca361410fc8a","ios":"levelo://app?vid=b4a43e1a-59ba-4239-bd79-ca361410fc8a"},"vehicle_type_id":"4","last_reported":1709060742,"current_range_meters":20000,"station_id":"ce4bgph2rcd13ifvqc2g","pricing_plan_id":"cebpf4jnsgd1na2vs0mg"},{"bike_id":"338bf777-076f-4ced-aa71-1e38b48d1538","system_id":"levelo_inurba_marseille","lat":43.29573,"lon":5.367355,"is_reserved":false,"is_disabled":false,"rental_uris":{"android":"levelo://app?vid=338bf777-076f-4ced-aa71-1e38b48d1538","ios":"levelo://app?vid=338bf777-076f-4ced-aa71-1e38b48d1538"},"vehicle_type_id":"4","last_reported":1709060742,"current_range_meters":11200,"station_id":"ce4bgph2rcd13ifvqc2g","pricing_plan_id":"cebpf4jnsgd1na2vs0mg"},{"bike_id":"5c4878fd-cc88-4a0a-9b12-75e625813627","system_id":"levelo_inurba_marseille","lat":43.299028,"lon":5.381509,"is_reserved":false,"is_disabled":false,"rental_uris":{"android":"levelo://app?vid=5c4878fd-cc88-4a0a-9b12-75e625813627","ios":"levelo://app?vid=5c4878fd-cc88-4a0a-9b12-75e625813627"},"vehicle_type_id":"4","last_reported":1709060742,"current_range_meters":23600,"station_id":"ce4bgj12rcd13ifvqbc0","pricing_plan_id":"cebpf4jnsgd1na2vs0mg"},{"bike_id":"56f74bf2-b8d8-4485-978b-cf83da43bb0c","system_id":"levelo_inurba_marseille","lat":43.309589,"lon":5.390258,"is_reserved":false,"is_disabled":false,"rental_uris":{"android":"levelo://app?vid=56f74bf2-b8d8-4485-978b-cf83da43bb0c","ios":"levelo://app?vid=56f74bf2-b8d8-4485-978b-cf83da43bb0c"},"vehicle_type_id":"4","last_reported":1709060742,"current_range_meters":30000,"station_id":"ce4bgup2rcd13ifvqco0","pricing_plan_id":"cebpf4jnsgd1na2vs0mg"},{"bike_id":"42935545-2b42-4de2-9a63-6681eee0ff3d","system_id":"levelo_inurba_marseille","lat":43.317557,"lon":5.390173,"is_reserved":false,"is_disabled":false,"rental_uris":{"android":"levelo://app?vid=42935545-2b42-4de2-9a63-6681eee0ff3d","ios":"levelo://app?vid=42935545-2b42-4de2-9a63-6681eee0ff3d"},"vehicle_type_id":"4","last_reported":1709060742,"current_range_meters":20400,"station_id":"ce4bhqp2rcd13ifvqhng","pricing_plan_id":"cebpf4jnsgd1na2vs0mg"},{"bike_id":"9368d09c-0ef8-4bfd-b8f4-9159b92f38c9","system_id":"levelo_inurba_marseille","lat":43.317557,"lon":5.390173,"is_reserved":false,"is_disabled":false,"rental_uris":{"android":"levelo://app?vid=9368d09c-0ef8-4bfd-b8f4-9159b92f38c9","ios":"levelo://app?vid=9368d09c-0ef8-4bfd-b8f4-9159b92f38c9"},"vehicle_type_id":"4","last_reported":1709060742,"current_range_meters":15200,"station_id":"ce4bhqp2rcd13ifvqhng","pricing_plan_id":"cebpf4jnsgd1na2vs0mg"},{"bike_id":"d9f8bfdb-efcd-40a1-932e-52a13d7a5839","system_id":"levelo_inurba_marseille","lat":43.317557,"lon":5.390173,"is_reserved":false,"is_disabled":false,"rental_uris":{"android":"levelo://app?vid=d9f8bfdb-efcd-40a1-932e-52a13d7a5839","ios":"levelo://app?vid=d9f8bfdb-efcd-40a1-932e-52a13d7a5839"},"vehicle_type_id":"4","last_reported":1709060742,"current_range_meters":24800,"station_id":"ce4bhqp2rcd13ifvqhng","pricing_plan_id":"cebpf4jnsgd1na2vs0mg"},{"bike_id":"2999b4c5-9ffa-4430-8413-a6ad89cfc444","system_id":"levelo_inurba_marseille","lat":43.317557,"lon":5.390173,"is_reserved":false,"is_disabled":false,"rental_uris":{"android":"levelo://app?vid=2999b4c5-9ffa-4430-8413-a6ad89cfc444","ios":"levelo://app?vid=2999b4c5-9ffa-4430-8413-a6ad89cfc444"},"vehicle_type_id":"4","last_reported":1709060742,"current_range_meters":28400,"station_id":"ce4bhqp2rcd13ifvqhng","pricing_plan_id":"cebpf4jnsgd1na2vs0mg"},{"bike_id":"f9214f5d-50a3-4bf8-91e0-ed479fabdf37","system_id":"levelo_inurba_marseille","lat":43.296762,"lon":5.377112,"is_reserved":false,"is_disabled":false,"rental_uris":{"android":"levelo://app?vid=f9214f5d-50a3-4bf8-91e0-ed479fabdf37","ios":"levelo://app?vid=f9214f5d-50a3-4bf8-91e0-ed479fabdf37"},"vehicle_type_id":"4","last_reported":1709060742,"current_range_meters":20000,"station_id":"ce4bgkh2rcd13ifvqbl0","pricing_plan_id":"cebpf4jnsgd1na2vs0mg"},{"bike_id":"fa6f643d-4bf5-4a6f-be6e-819c8d2ee07c","system_id":"levelo_inurba_marseille","lat":43.317557,"lon":5.390173,"is_reserved":false,"is_disabled":false,"rental_uris":{"android":"levelo://app?vid=fa6f643d-4bf5-4a6f-be6e-819c8d2ee07c","ios":"levelo://app?vid=fa6f643d-4bf5-4a6f-be6e-819c8d2ee07c"},"vehicle_type_id":"4","last_reported":1709060742,"current_range_meters":20800,"station_id":"ce4bhqp2rcd13ifvqhng","pricing_plan_id":"cebpf4jnsgd1na2vs0mg"},{"bike_id":"7b163cae-eeb3-4d32-adfb-72b0dbdb5085","system_id":"levelo_inurba_marseille","lat":43.297163,"lon":5.365866,"is_reserved":false,"is_disabled":false,"rental_uris":{"android":"levelo://app?vid=7b163cae-eeb3-4d32-adfb-72b0dbdb5085","ios":"levelo://app?vid=7b163cae-eeb3-4d32-adfb-72b0dbdb5085"},"vehicle_type_id":"4","last_reported":1709060742,"current_range_meters":15200,"station_id":"ce4bgn12rcd13ifvqbt0","pricing_plan_id":"cebpf4jnsgd1na2vs0mg"},{"bike_id":"2a507b72-df2e-4991-960c-f2a95261d3f3","system_id":"levelo_inurba_marseille","lat":43.304397,"lon":5.388544,"is_reserved":false,"is_disabled":false,"rental_uris":{"android":"levelo://app?vid=2a507b72-df2e-4991-960c-f2a95261d3f3","ios":"levelo://app?vid=2a507b72-df2e-4991-960c-f2a95261d3f3"},"vehicle_type_id":"4","last_reported":1709060742,"current_range_meters":2400,"station_id":"ce4bgk12rcd13ifvqbi0","pricing_plan_id":"cebpf4jnsgd1na2vs0mg"},{"bike_id":"94ea34fd-c2fe-470b-827e-314b27bd5f9b","system_id":"levelo_inurba_marseille","lat":43.298037,"lon":5.381066,"is_reserved":false,"is_disabled":false,"rental_uris":{"android":"levelo://app?vid=94ea34fd-c2fe-470b-827e-314b27bd5f9b","ios":"levelo://app?vid=94ea34fd-c2fe-470b-827e-314b27bd5f9b"},"vehicle_type_id":"4","last_reported":1709060742,"current_range_meters":15600,"station_id":"ce4bgip2rcd13ifvqbb0","pricing_plan_id":"cebpf4jnsgd1na2vs0mg"},{"bike_id":"834dda9d-982b-44a0-afdd-e0110fd25961","system_id":"levelo_inurba_marseille","lat":43.298037,"lon":5.381066,"is_reserved":false,"is_disabled":false,"rental_uris":{"android":"levelo://app?vid=834dda9d-982b-44a0-afdd-e0110fd25961","ios":"levelo://app?vid=834dda9d-982b-44a0-afdd-e0110fd25961"},"vehicle_type_id":"4","last_reported":1709060742,"current_range_meters":26800,"station_id":"ce4bgip2rcd13ifvqbb0","pricing_plan_id":"cebpf4jnsgd1na2vs0mg"},{"bike_id":"225e6a92-ab17-4a9c-8921-5b8e71481f11","system_id":"levelo_inurba_marseille","lat":43.30467,"lon":5.38899,"is_reserved":false,"is_disabled":false,"rental_uris":{"android":"levelo://app?vid=225e6a92-ab17-4a9c-8921-5b8e71481f11","ios":"levelo://app?vid=225e6a92-ab17-4a9c-8921-5b8e71481f11"},"vehicle_type_id":"4","last_reported":1709060742,"current_range_meters":20400,"station_id":"ce4bgk12rcd13ifvqbi0","pricing_plan_id":"cebpf4jnsgd1na2vs0mg"},{"bike_id":"ffb72efa-eeb5-470e-b75a-bdc9556f6ff5","system_id":"levelo_inurba_marseille","lat":43.304278,"lon":5.388868,"is_reserved":false,"is_disabled":false,"rental_uris":{"android":"levelo://app?vid=ffb72efa-eeb5-470e-b75a-bdc9556f6ff5","ios":"levelo://app?vid=ffb72efa-eeb5-470e-b75a-bdc9556f6ff5"},"vehicle_type_id":"4","last_reported":1709060742,"current_range_meters":14400,"station_id":"ce4bgk12rcd13ifvqbi0","pricing_plan_id":"cebpf4jnsgd1na2vs0mg"},{"bike_id":"7806baa5-d0cb-4caf-9fc1-835ddcd11b61","system_id":"levelo_inurba_marseille","lat":43.29796,"lon":5.381023,"is_reserved":false,"is_disabled":false,"rental_uris":{"android":"levelo://app?vid=7806baa5-d0cb-4caf-9fc1-835ddcd11b61","ios":"levelo://app?vid=7806baa5-d0cb-4caf-9fc1-835ddcd11b61"},"vehicle_type_id":"4","last_reported":1709060742,"current_range_meters":20400,"station_id":"ce4bgip2rcd13ifvqbb0","pricing_plan_id":"cebpf4jnsgd1na2vs0mg"},{"bike_id":"efb3190b-5629-44c9-a5d2-e632b52170ea","system_id":"levelo_inurba_marseille","lat":43.298037,"lon":5.381066,"is_reserved":false,"is_disabled":false,"rental_uris":{"android":"levelo://app?vid=efb3190b-5629-44c9-a5d2-e632b52170ea","ios":"levelo://app?vid=efb3190b-5629-44c9-a5d2-e632b52170ea"},"vehicle_type_id":"4","last_reported":1709060742,"current_range_meters":14000,"station_id":"ce4bgip2rcd13ifvqbb0","pricing_plan_id":"cebpf4jnsgd1na2vs0mg"},{"bike_id":"ba85a47e-5be8-4cf7-8910-c36a40cf0d87","system_id":"levelo_inurba_marseille","lat":43.304278,"lon":5.388868,"is_reserved":false,"is_disabled":false,"rental_uris":{"android":"levelo://app?vid=ba85a47e-5be8-4cf7-8910-c36a40cf0d87","ios":"levelo://app?vid=ba85a47e-5be8-4cf7-8910-c36a40cf0d87"},"vehicle_type_id":"4","last_reported":1709060742,"current_range_meters":19600,"station_id":"ce4bgk12rcd13ifvqbi0","pricing_plan_id":"cebpf4jnsgd1na2vs0mg"},{"bike_id":"b522c086-89bd-41f5-abe6-351fb4c69071","system_id":"levelo_inurba_marseille","lat":43.295683,"lon":5.375013,"is_reserved":false,"is_disabled":false,"rental_uris":{"android":"levelo://app?vid=b522c086-89bd-41f5-abe6-351fb4c69071","ios":"levelo://app?vid=b522c086-89bd-41f5-abe6-351fb4c69071"},"vehicle_type_id":"4","last_reported":1709060742,"current_range_meters":0,"station_id":"ce4bgh92rcd13ifvqb50","pricing_plan_id":"cebpf4jnsgd1na2vs0mg"},{"bike_id":"5e731e76-b4b9-48f5-a85e-d1b1671b1e12","system_id":"levelo_inurba_marseille","lat":43.295748,"lon":5.37522,"is_reserved":false,"is_disabled":false,"rental_uris":{"android":"levelo://app?vid=5e731e76-b4b9-48f5-a85e-d1b1671b1e12","ios":"levelo://app?vid=5e731e76-b4b9-48f5-a85e-d1b1671b1e12"},"vehicle_type_id":"4","last_reported":1709060742,"current_range_meters":16000,"station_id":"ce4bgh92rcd13ifvqb50","pricing_plan_id":"cebpf4jnsgd1na2vs0mg"},{"bike_id":"3cb9f1fe-6517-41ea-b823-c05c26c5f35a","system_id":"levelo_inurba_marseille","lat":43.304274,"lon":5.388873,"is_reserved":false,"is_disabled":false,"rental_uris":{"android":"levelo://app?vid=3cb9f1fe-6517-41ea-b823-c05c26c5f35a","ios":"levelo://app?vid=3cb9f1fe-6517-41ea-b823-c05c26c5f35a"},"vehicle_type_id":"4","last_reported":1709060742,"current_range_meters":20400,"station_id":"ce4bgk12rcd13ifvqbi0","pricing_plan_id":"cebpf4jnsgd1na2vs0mg"},{"bike_id":"bd546af6-d7f8-4f0c-ac4e-fd0da8ca9356","system_id":"levelo_inurba_marseille","lat":43.296277,"lon":5.377108,"is_reserved":false,"is_disabled":false,"rental_uris":{"android":"levelo://app?vid=bd546af6-d7f8-4f0c-ac4e-fd0da8ca9356","ios":"levelo://app?vid=bd546af6-d7f8-4f0c-ac4e-fd0da8ca9356"},"vehicle_type_id":"4","last_reported":1709060742,"current_range_meters":18800,"station_id":"ce4bgi92rcd13ifvqb90","pricing_plan_id":"cebpf4jnsgd1na2vs0mg"},{"bike_id":"8f93e0b1-9526-4164-b5b5-f848e167ef18","system_id":"levelo_inurba_marseille","lat":43.295279,"lon":5.375048,"is_reserved":false,"is_disabled":false,"rental_uris":{"android":"levelo://app?vid=8f93e0b1-9526-4164-b5b5-f848e167ef18","ios":"levelo://app?vid=8f93e0b1-9526-4164-b5b5-f848e167ef18"},"vehicle_type_id":"4","last_reported":1709060742,"current_range_meters":12800,"station_id":"ce4bgkp2rcd13ifvqbmg","pricing_plan_id":"cebpf4jnsgd1na2vs0mg"},{"bike_id":"bc9aaeee-45e6-4c8c-bc06-0fdd6aff7b32","system_id":"levelo_inurba_marseille","lat":43.295279,"lon":5.375048,"is_reserved":false,"is_disabled":false,"rental_uris":{"android":"levelo://app?vid=bc9aaeee-45e6-4c8c-bc06-0fdd6aff7b32","ios":"levelo://app?vid=bc9aaeee-45e6-4c8c-bc06-0fdd6aff7b32"},"vehicle_type_id":"4","last_reported":1709060742,"current_range_meters":8800,"station_id":"ce4bgkp2rcd13ifvqbmg","pricing_plan_id":"cebpf4jnsgd1na2vs0mg"},{"bike_id":"d32fdbd8-ee5d-46f0-90c7-18896a7df673","system_id":"levelo_inurba_marseille","lat":43.295279,"lon":5.375048,"is_reserved":false,"is_disabled":false,"rental_uris":{"android":"levelo://app?vid=d32fdbd8-ee5d-46f0-90c7-18896a7df673","ios":"levelo://app?vid=d32fdbd8-ee5d-46f0-90c7-18896a7df673"},"vehicle_type_id":"4","last_reported":1709060742,"current_range_meters":24000,"station_id":"ce4bgkp2rcd13ifvqbmg","pricing_plan_id":"cebpf4jnsgd1na2vs0mg"},{"bike_id":"90213a04-4f52-4627-851e-7cc1d9139d7d","system_id":"levelo_inurba_marseille","lat":43.295279,"lon":5.375048,"is_reserved":false,"is_disabled":false,"rental_uris":{"android":"levelo://app?vid=90213a04-4f52-4627-851e-7cc1d9139d7d","ios":"levelo://app?vid=90213a04-4f52-4627-851e-7cc1d9139d7d"},"vehicle_type_id":"4","last_reported":1709060742,"current_range_meters":28400,"station_id":"ce4bgkp2rcd13ifvqbmg","pricing_plan_id":"cebpf4jnsgd1na2vs0mg"},{"bike_id":"8bf222d8-6a3e-4196-8405-38dc5c72338b","system_id":"levelo_inurba_marseille","lat":43.295279,"lon":5.375048,"is_reserved":false,"is_disabled":false,"rental_uris":{"android":"levelo://app?vid=8bf222d8-6a3e-4196-8405-38dc5c72338b","ios":"levelo://app?vid=8bf222d8-6a3e-4196-8405-38dc5c72338b"},"vehicle_type_id":"4","last_reported":1709060742,"current_range_meters":28800,"station_id":"ce4bgkp2rcd13ifvqbmg","pricing_plan_id":"cebpf4jnsgd1na2vs0mg"},{"bike_id":"4e5773d9-b11b-497f-a8a6-3160e41d3176","system_id":"levelo_inurba_marseille","lat":43.29984,"lon":5.38491,"is_reserved":false,"is_disabled":false,"rental_uris":{"android":"levelo://app?vid=4e5773d9-b11b-497f-a8a6-3160e41d3176","ios":"levelo://app?vid=4e5773d9-b11b-497f-a8a6-3160e41d3176"},"vehicle_type_id":"4","last_reported":1709060742,"current_range_meters":4800,"station_id":"ce4bgj92rcd13ifvqbd0","pricing_plan_id":"cebpf4jnsgd1na2vs0mg"},{"bike_id":"d7a9bbc4-a961-4127-a439-eda820b2c5e8","system_id":"levelo_inurba_marseille","lat":43.295279,"lon":5.375048,"is_reserved":false,"is_disabled":false,"rental_uris":{"android":"levelo://app?vid=d7a9bbc4-a961-4127-a439-eda820b2c5e8","ios":"levelo://app?vid=d7a9bbc4-a961-4127-a439-eda820b2c5e8"},"vehicle_type_id":"4","last_reported":1709060742,"current_range_meters":6400,"station_id":"ce4bgkp2rcd13ifvqbmg","pricing_plan_id":"cebpf4jnsgd1na2vs0mg"},{"bike_id":"a49accde-9759-4b2e-90d2-96318a015d79","system_id":"levelo_inurba_marseille","lat":43.299717,"lon":5.384845,"is_reserved":false,"is_disabled":false,"rental_uris":{"android":"levelo://app?vid=a49accde-9759-4b2e-90d2-96318a015d79","ios":"levelo://app?vid=a49accde-9759-4b2e-90d2-96318a015d79"},"vehicle_type_id":"4","last_reported":1709060742,"current_range_meters":6800,"station_id":"ce4bgj92rcd13ifvqbd0","pricing_plan_id":"cebpf4jnsgd1na2vs0mg"},{"bike_id":"3950fd77-2e4d-4c71-adcf-151cc0ac2290","system_id":"levelo_inurba_marseille","lat":43.299717,"lon":5.384845,"is_reserved":false,"is_disabled":false,"rental_uris":{"android":"levelo://app?vid=3950fd77-2e4d-4c71-adcf-151cc0ac2290","ios":"levelo://app?vid=3950fd77-2e4d-4c71-adcf-151cc0ac2290"},"vehicle_type_id":"4","last_reported":1709060742,"current_range_meters":19600,"station_id":"ce4bgj92rcd13ifvqbd0","pricing_plan_id":"cebpf4jnsgd1na2vs0mg"},{"bike_id":"17324dd5-3e27-4155-95ba-90916f5387c5","system_id":"levelo_inurba_marseille","lat":43.295243,"lon":5.375053,"is_reserved":false,"is_disabled":false,"rental_uris":{"android":"levelo://app?vid=17324dd5-3e27-4155-95ba-90916f5387c5","ios":"levelo://app?vid=17324dd5-3e27-4155-95ba-90916f5387c5"},"vehicle_type_id":"4","last_reported":1709060742,"current_range_meters":24800,"station_id":"ce4bgkp2rcd13ifvqbmg","pricing_plan_id":"cebpf4jnsgd1na2vs0mg"},{"bike_id":"3439dd6e-318e-444f-a3f1-d3f72a91cae5","system_id":"levelo_inurba_marseille","lat":43.29972,"lon":5.384933,"is_reserved":false,"is_disabled":false,"rental_uris":{"android":"levelo://app?vid=3439dd6e-318e-444f-a3f1-d3f72a91cae5","ios":"levelo://app?vid=3439dd6e-318e-444f-a3f1-d3f72a91cae5"},"vehicle_type_id":"4","last_reported":1709060742,"current_range_meters":8800,"station_id":"ce4bgj92rcd13ifvqbd0","pricing_plan_id":"cebpf4jnsgd1na2vs0mg"},{"bike_id":"e282838d-78e3-4f46-8ede-ae5c824ab1bc","system_id":"levelo_inurba_marseille","lat":43.299717,"lon":5.384845,"is_reserved":false,"is_disabled":false,"rental_uris":{"android":"levelo://app?vid=e282838d-78e3-4f46-8ede-ae5c824ab1bc","ios":"levelo://app?vid=e282838d-78e3-4f46-8ede-ae5c824ab1bc"},"vehicle_type_id":"4","last_reported":1709060742,"current_range_meters":9600,"station_id":"ce4bgj92rcd13ifvqbd0","pricing_plan_id":"cebpf4jnsgd1na2vs0mg"},{"bike_id":"265e01e8-9001-459d-8c37-e9a65fcff3da","system_id":"levelo_inurba_marseille","lat":43.299717,"lon":5.384845,"is_reserved":false,"is_disabled":false,"rental_uris":{"android":"levelo://app?vid=265e01e8-9001-459d-8c37-e9a65fcff3da","ios":"levelo://app?vid=265e01e8-9001-459d-8c37-e9a65fcff3da"},"vehicle_type_id":"4","last_reported":1709060742,"current_range_meters":21200,"station_id":"ce4bgj92rcd13ifvqbd0","pricing_plan_id":"cebpf4jnsgd1na2vs0mg"},{"bike_id":"9dc00840-cfc2-40e5-a21e-93515814ea53","system_id":"levelo_inurba_marseille","lat":43.299707,"lon":5.384859,"is_reserved":false,"is_disabled":false,"rental_uris":{"android":"levelo://app?vid=9dc00840-cfc2-40e5-a21e-93515814ea53","ios":"levelo://app?vid=9dc00840-cfc2-40e5-a21e-93515814ea53"},"vehicle_type_id":"4","last_reported":1709060742,"current_range_meters":21600,"station_id":"ce4bgj92rcd13ifvqbd0","pricing_plan_id":"cebpf4jnsgd1na2vs0mg"},{"bike_id":"726c176b-d224-4d6c-ab61-27aca3e606d1","system_id":"levelo_inurba_marseille","lat":43.299717,"lon":5.384845,"is_reserved":false,"is_disabled":false,"rental_uris":{"android":"levelo://app?vid=726c176b-d224-4d6c-ab61-27aca3e606d1","ios":"levelo://app?vid=726c176b-d224-4d6c-ab61-27aca3e606d1"},"vehicle_type_id":"4","last_reported":1709060742,"current_range_meters":29600,"station_id":"ce4bgj92rcd13ifvqbd0","pricing_plan_id":"cebpf4jnsgd1na2vs0mg"},{"bike_id":"cf0c3577-2b9c-4734-9334-df52e398301e","system_id":"levelo_inurba_marseille","lat":43.29974,"lon":5.38507,"is_reserved":false,"is_disabled":false,"rental_uris":{"android":"levelo://app?vid=cf0c3577-2b9c-4734-9334-df52e398301e","ios":"levelo://app?vid=cf0c3577-2b9c-4734-9334-df52e398301e"},"vehicle_type_id":"4","last_reported":1709060742,"current_range_meters":9200,"station_id":"ce4bgj92rcd13ifvqbd0","pricing_plan_id":"cebpf4jnsgd1na2vs0mg"},{"bike_id":"f9773e4c-9d81-4fce-a541-e023c8ddfa3c","system_id":"levelo_inurba_marseille","lat":43.29958,"lon":5.385,"is_reserved":false,"is_disabled":false,"rental_uris":{"android":"levelo://app?vid=f9773e4c-9d81-4fce-a541-e023c8ddfa3c","ios":"levelo://app?vid=f9773e4c-9d81-4fce-a541-e023c8ddfa3c"},"vehicle_type_id":"4","last_reported":1709060742,"current_range_meters":16000,"station_id":"ce4bgj92rcd13ifvqbd0","pricing_plan_id":"cebpf4jnsgd1na2vs0mg"},{"bike_id":"f90b09e8-928d-433a-81d2-a6c6c070b738","system_id":"levelo_inurba_marseille","lat":43.299717,"lon":5.384845,"is_reserved":false,"is_disabled":false,"rental_uris":{"android":"levelo://app?vid=f90b09e8-928d-433a-81d2-a6c6c070b738","ios":"levelo://app?vid=f90b09e8-928d-433a-81d2-a6c6c070b738"},"vehicle_type_id":"4","last_reported":1709060742,"current_range_meters":27200,"station_id":"ce4bgj92rcd13ifvqbd0","pricing_plan_id":"cebpf4jnsgd1na2vs0mg"},{"bike_id":"c3c16e1d-8192-426e-8bff-3b63d6ae8aaf","system_id":"levelo_inurba_marseille","lat":43.32366,"lon":5.38884,"is_reserved":false,"is_disabled":false,"rental_uris":{"android":"levelo://app?vid=c3c16e1d-8192-426e-8bff-3b63d6ae8aaf","ios":"levelo://app?vid=c3c16e1d-8192-426e-8bff-3b63d6ae8aaf"},"vehicle_type_id":"4","last_reported":1709060742,"current_range_meters":20400,"station_id":"ce4bhqp2rcd13ifvqhog","pricing_plan_id":"cebpf4jnsgd1na2vs0mg"},{"bike_id":"1a4eb5a2-a14e-4a87-b1cb-e9c6f06a84b7","system_id":"levelo_inurba_marseille","lat":43.29602,"lon":5.381084,"is_reserved":false,"is_disabled":false,"rental_uris":{"android":"levelo://app?vid=1a4eb5a2-a14e-4a87-b1cb-e9c6f06a84b7","ios":"levelo://app?vid=1a4eb5a2-a14e-4a87-b1cb-e9c6f06a84b7"},"vehicle_type_id":"4","last_reported":1709060742,"current_range_meters":15600,"station_id":"ce4bgl12rcd13ifvqbo0","pricing_plan_id":"cebpf4jnsgd1na2vs0mg"},{"bike_id":"3b623698-3407-4b68-a862-6ca926485520","system_id":"levelo_inurba_marseille","lat":43.29602,"lon":5.381084,"is_reserved":false,"is_disabled":false,"rental_uris":{"android":"levelo://app?vid=3b623698-3407-4b68-a862-6ca926485520","ios":"levelo://app?vid=3b623698-3407-4b68-a862-6ca926485520"},"vehicle_type_id":"4","last_reported":1709060742,"current_range_meters":4400,"station_id":"ce4bgl12rcd13ifvqbo0","pricing_plan_id":"cebpf4jnsgd1na2vs0mg"},{"bike_id":"d2116454-c4d2-4faf-937d-bb6b2767a849","system_id":"levelo_inurba_marseille","lat":43.29602,"lon":5.381084,"is_reserved":false,"is_disabled":false,"rental_uris":{"android":"levelo://app?vid=d2116454-c4d2-4faf-937d-bb6b2767a849","ios":"levelo://app?vid=d2116454-c4d2-4faf-937d-bb6b2767a849"},"vehicle_type_id":"4","last_reported":1709060742,"current_range_meters":16400,"station_id":"ce4bgl12rcd13ifvqbo0","pricing_plan_id":"cebpf4jnsgd1na2vs0mg"},{"bike_id":"3848836d-c880-4e15-9007-adeca2654823","system_id":"levelo_inurba_marseille","lat":43.29602,"lon":5.381084,"is_reserved":false,"is_disabled":false,"rental_uris":{"android":"levelo://app?vid=3848836d-c880-4e15-9007-adeca2654823","ios":"levelo://app?vid=3848836d-c880-4e15-9007-adeca2654823"},"vehicle_type_id":"4","last_reported":1709060742,"current_range_meters":11200,"station_id":"ce4bgl12rcd13ifvqbo0","pricing_plan_id":"cebpf4jnsgd1na2vs0mg"},{"bike_id":"a3b769a4-f0d1-4e13-a14f-cfa106c3a3d3","system_id":"levelo_inurba_marseille","lat":43.29602,"lon":5.381084,"is_reserved":false,"is_disabled":false,"rental_uris":{"android":"levelo://app?vid=a3b769a4-f0d1-4e13-a14f-cfa106c3a3d3","ios":"levelo://app?vid=a3b769a4-f0d1-4e13-a14f-cfa106c3a3d3"},"vehicle_type_id":"4","last_reported":1709060742,"current_range_meters":23600,"station_id":"ce4bgl12rcd13ifvqbo0","pricing_plan_id":"cebpf4jnsgd1na2vs0mg"},{"bike_id":"3ce9bd0f-a8c7-4b8e-af33-5698b1cb7899","system_id":"levelo_inurba_marseille","lat":43.29602,"lon":5.381084,"is_reserved":false,"is_disabled":false,"rental_uris":{"android":"levelo://app?vid=3ce9bd0f-a8c7-4b8e-af33-5698b1cb7899","ios":"levelo://app?vid=3ce9bd0f-a8c7-4b8e-af33-5698b1cb7899"},"vehicle_type_id":"4","last_reported":1709060742,"current_range_meters":25600,"station_id":"ce4bgl12rcd13ifvqbo0","pricing_plan_id":"cebpf4jnsgd1na2vs0mg"},{"bike_id":"38faa869-c6bf-4865-b650-5b6e220ba96b","system_id":"levelo_inurba_marseille","lat":43.29602,"lon":5.381084,"is_reserved":false,"is_disabled":false,"rental_uris":{"android":"levelo://app?vid=38faa869-c6bf-4865-b650-5b6e220ba96b","ios":"levelo://app?vid=38faa869-c6bf-4865-b650-5b6e220ba96b"},"vehicle_type_id":"4","last_reported":1709060742,"current_range_meters":8000,"station_id":"ce4bgl12rcd13ifvqbo0","pricing_plan_id":"cebpf4jnsgd1na2vs0mg"},{"bike_id":"687d9033-a15f-43ec-9031-21db707b474b","system_id":"levelo_inurba_marseille","lat":43.29602,"lon":5.381084,"is_reserved":false,"is_disabled":false,"rental_uris":{"android":"levelo://app?vid=687d9033-a15f-43ec-9031-21db707b474b","ios":"levelo://app?vid=687d9033-a15f-43ec-9031-21db707b474b"},"vehicle_type_id":"4","last_reported":1709060742,"current_range_meters":6400,"station_id":"ce4bgl12rcd13ifvqbo0","pricing_plan_id":"cebpf4jnsgd1na2vs0mg"},{"bike_id":"d657b83b-292b-4027-91d0-16fa7a903019","system_id":"levelo_inurba_marseille","lat":43.292749,"lon":5.368402,"is_reserved":false,"is_disabled":false,"rental_uris":{"android":"levelo://app?vid=d657b83b-292b-4027-91d0-16fa7a903019","ios":"levelo://app?vid=d657b83b-292b-4027-91d0-16fa7a903019"},"vehicle_type_id":"4","last_reported":1709060742,"current_range_meters":8000,"station_id":"ce4bhbp2rcd13ifvqesg","pricing_plan_id":"cebpf4jnsgd1na2vs0mg"},{"bike_id":"73401bf1-5f49-42b8-8853-5a08621c6913","system_id":"levelo_inurba_marseille","lat":43.293259,"lon":5.371586,"is_reserved":false,"is_disabled":false,"rental_uris":{"android":"levelo://app?vid=73401bf1-5f49-42b8-8853-5a08621c6913","ios":"levelo://app?vid=73401bf1-5f49-42b8-8853-5a08621c6913"},"vehicle_type_id":"4","last_reported":1709060742,"current_range_meters":17200,"station_id":"ce4bgh92rcd13ifvqb40","pricing_plan_id":"cebpf4jnsgd1na2vs0mg"},{"bike_id":"860306fe-6cb3-4d68-ba7a-b2b846cf76b3","system_id":"levelo_inurba_marseille","lat":43.293259,"lon":5.371586,"is_reserved":false,"is_disabled":false,"rental_uris":{"android":"levelo://app?vid=860306fe-6cb3-4d68-ba7a-b2b846cf76b3","ios":"levelo://app?vid=860306fe-6cb3-4d68-ba7a-b2b846cf76b3"},"vehicle_type_id":"4","last_reported":1709060742,"current_range_meters":26800,"station_id":"ce4bgh92rcd13ifvqb40","pricing_plan_id":"cebpf4jnsgd1na2vs0mg"},{"bike_id":"76aee905-55a8-4fb8-845f-3c4ec4208b13","system_id":"levelo_inurba_marseille","lat":43.293259,"lon":5.371586,"is_reserved":false,"is_disabled":false,"rental_uris":{"android":"levelo://app?vid=76aee905-55a8-4fb8-845f-3c4ec4208b13","ios":"levelo://app?vid=76aee905-55a8-4fb8-845f-3c4ec4208b13"},"vehicle_type_id":"4","last_reported":1709060742,"current_range_meters":23600,"station_id":"ce4bgh92rcd13ifvqb40","pricing_plan_id":"cebpf4jnsgd1na2vs0mg"},{"bike_id":"e669db9e-ee5f-42cf-8a4f-dcbebc2afe6b","system_id":"levelo_inurba_marseille","lat":43.293259,"lon":5.371586,"is_reserved":false,"is_disabled":false,"rental_uris":{"android":"levelo://app?vid=e669db9e-ee5f-42cf-8a4f-dcbebc2afe6b","ios":"levelo://app?vid=e669db9e-ee5f-42cf-8a4f-dcbebc2afe6b"},"vehicle_type_id":"4","last_reported":1709060742,"current_range_meters":30400,"station_id":"ce4bgh92rcd13ifvqb40","pricing_plan_id":"cebpf4jnsgd1na2vs0mg"},{"bike_id":"d12d772c-96b9-46e9-b724-dc95757ad053","system_id":"levelo_inurba_marseille","lat":43.293259,"lon":5.371586,"is_reserved":false,"is_disabled":false,"rental_uris":{"android":"levelo://app?vid=d12d772c-96b9-46e9-b724-dc95757ad053","ios":"levelo://app?vid=d12d772c-96b9-46e9-b724-dc95757ad053"},"vehicle_type_id":"4","last_reported":1709060742,"current_range_meters":27600,"station_id":"ce4bgh92rcd13ifvqb40","pricing_plan_id":"cebpf4jnsgd1na2vs0mg"},{"bike_id":"162fa201-70fa-44b2-b853-d5d74a19217a","system_id":"levelo_inurba_marseille","lat":43.293259,"lon":5.371586,"is_reserved":false,"is_disabled":false,"rental_uris":{"android":"levelo://app?vid=162fa201-70fa-44b2-b853-d5d74a19217a","ios":"levelo://app?vid=162fa201-70fa-44b2-b853-d5d74a19217a"},"vehicle_type_id":"4","last_reported":1709060742,"current_range_meters":26800,"station_id":"ce4bgh92rcd13ifvqb40","pricing_plan_id":"cebpf4jnsgd1na2vs0mg"},{"bike_id":"765f57df-63ab-4d3c-9a3b-076fb6e4c47a","system_id":"levelo_inurba_marseille","lat":43.292749,"lon":5.368398,"is_reserved":false,"is_disabled":false,"rental_uris":{"android":"levelo://app?vid=765f57df-63ab-4d3c-9a3b-076fb6e4c47a","ios":"levelo://app?vid=765f57df-63ab-4d3c-9a3b-076fb6e4c47a"},"vehicle_type_id":"4","last_reported":1709060742,"current_range_meters":4000,"station_id":"ce4bhbp2rcd13ifvqesg","pricing_plan_id":"cebpf4jnsgd1na2vs0mg"},{"bike_id":"707ea188-99d4-4abe-8b77-e01bf02c8272","system_id":"levelo_inurba_marseille","lat":43.293249,"lon":5.371578,"is_reserved":false,"is_disabled":false,"rental_uris":{"android":"levelo://app?vid=707ea188-99d4-4abe-8b77-e01bf02c8272","ios":"levelo://app?vid=707ea188-99d4-4abe-8b77-e01bf02c8272"},"vehicle_type_id":"4","last_reported":1709060742,"current_range_meters":800,"station_id":"ce4bgh92rcd13ifvqb40","pricing_plan_id":"cebpf4jnsgd1na2vs0mg"},{"bike_id":"6ad0cc6c-140b-493e-8707-b7ee7a7eeefa","system_id":"levelo_inurba_marseille","lat":43.303002,"lon":5.392142,"is_reserved":false,"is_disabled":false,"rental_uris":{"android":"levelo://app?vid=6ad0cc6c-140b-493e-8707-b7ee7a7eeefa","ios":"levelo://app?vid=6ad0cc6c-140b-493e-8707-b7ee7a7eeefa"},"vehicle_type_id":"4","last_reported":1709060742,"current_range_meters":27600,"station_id":"ce4bgkh2rcd13ifvqbk0","pricing_plan_id":"cebpf4jnsgd1na2vs0mg"},{"bike_id":"9f17fa1a-635a-44cc-bfa5-53cc84dab284","system_id":"levelo_inurba_marseille","lat":43.302992,"lon":5.392136,"is_reserved":false,"is_disabled":false,"rental_uris":{"android":"levelo://app?vid=9f17fa1a-635a-44cc-bfa5-53cc84dab284","ios":"levelo://app?vid=9f17fa1a-635a-44cc-bfa5-53cc84dab284"},"vehicle_type_id":"4","last_reported":1709060742,"current_range_meters":13200,"station_id":"ce4bgkh2rcd13ifvqbk0","pricing_plan_id":"cebpf4jnsgd1na2vs0mg"},{"bike_id":"6472862d-cd31-4c38-b7e0-c432e7c9627a","system_id":"levelo_inurba_marseille","lat":43.303002,"lon":5.392142,"is_reserved":false,"is_disabled":false,"rental_uris":{"android":"levelo://app?vid=6472862d-cd31-4c38-b7e0-c432e7c9627a","ios":"levelo://app?vid=6472862d-cd31-4c38-b7e0-c432e7c9627a"},"vehicle_type_id":"4","last_reported":1709060742,"current_range_meters":31200,"station_id":"ce4bgkh2rcd13ifvqbk0","pricing_plan_id":"cebpf4jnsgd1na2vs0mg"},{"bike_id":"5a6115c4-ed80-4dfe-9e31-22ced85683f2","system_id":"levelo_inurba_marseille","lat":43.302992,"lon":5.392136,"is_reserved":false,"is_disabled":false,"rental_uris":{"android":"levelo://app?vid=5a6115c4-ed80-4dfe-9e31-22ced85683f2","ios":"levelo://app?vid=5a6115c4-ed80-4dfe-9e31-22ced85683f2"},"vehicle_type_id":"4","last_reported":1709060742,"current_range_meters":10800,"station_id":"ce4bgkh2rcd13ifvqbk0","pricing_plan_id":"cebpf4jnsgd1na2vs0mg"},{"bike_id":"9e7803a5-9534-45fd-9431-b2a9fb93228c","system_id":"levelo_inurba_marseille","lat":43.300852,"lon":5.390859,"is_reserved":false,"is_disabled":false,"rental_uris":{"android":"levelo://app?vid=9e7803a5-9534-45fd-9431-b2a9fb93228c","ios":"levelo://app?vid=9e7803a5-9534-45fd-9431-b2a9fb93228c"},"vehicle_type_id":"4","last_reported":1709060742,"current_range_meters":23200,"station_id":"ce4bh192rcd13ifvqdb0","pricing_plan_id":"cebpf4jnsgd1na2vs0mg"},{"bike_id":"5944507b-be9e-4ab2-9dc7-0bce4d967b13","system_id":"levelo_inurba_marseille","lat":43.303002,"lon":5.392142,"is_reserved":false,"is_disabled":false,"rental_uris":{"android":"levelo://app?vid=5944507b-be9e-4ab2-9dc7-0bce4d967b13","ios":"levelo://app?vid=5944507b-be9e-4ab2-9dc7-0bce4d967b13"},"vehicle_type_id":"4","last_reported":1709060742,"current_range_meters":6400,"station_id":"ce4bgkh2rcd13ifvqbk0","pricing_plan_id":"cebpf4jnsgd1na2vs0mg"},{"bike_id":"bc0fdd78-eb72-469a-9f9d-679f15ba3135","system_id":"levelo_inurba_marseille","lat":43.2936,"lon":5.37835,"is_reserved":false,"is_disabled":false,"rental_uris":{"android":"levelo://app?vid=bc0fdd78-eb72-469a-9f9d-679f15ba3135","ios":"levelo://app?vid=bc0fdd78-eb72-469a-9f9d-679f15ba3135"},"vehicle_type_id":"4","last_reported":1709060742,"current_range_meters":30000,"station_id":"ce4bgjh2rcd13ifvqbf0","pricing_plan_id":"cebpf4jnsgd1na2vs0mg"},{"bike_id":"5742c0fd-b3d8-40a8-9319-461af4dd9793","system_id":"levelo_inurba_marseille","lat":43.292311,"lon":5.360731,"is_reserved":false,"is_disabled":false,"rental_uris":{"android":"levelo://app?vid=5742c0fd-b3d8-40a8-9319-461af4dd9793","ios":"levelo://app?vid=5742c0fd-b3d8-40a8-9319-461af4dd9793"},"vehicle_type_id":"4","last_reported":1709060742,"current_range_meters":24400,"station_id":"ce4bhbh2rcd13ifvqeqg","pricing_plan_id":"cebpf4jnsgd1na2vs0mg"},{"bike_id":"d55661d1-d456-409d-9899-239539937e5b","system_id":"levelo_inurba_marseille","lat":43.300852,"lon":5.390859,"is_reserved":false,"is_disabled":false,"rental_uris":{"android":"levelo://app?vid=d55661d1-d456-409d-9899-239539937e5b","ios":"levelo://app?vid=d55661d1-d456-409d-9899-239539937e5b"},"vehicle_type_id":"4","last_reported":1709060742,"current_range_meters":19600,"station_id":"ce4bh192rcd13ifvqdb0","pricing_plan_id":"cebpf4jnsgd1na2vs0mg"},{"bike_id":"08cbc7ff-565d-45a8-9976-485b419c8393","system_id":"levelo_inurba_marseille","lat":43.30107,"lon":5.39091,"is_reserved":false,"is_disabled":false,"rental_uris":{"android":"levelo://app?vid=08cbc7ff-565d-45a8-9976-485b419c8393","ios":"levelo://app?vid=08cbc7ff-565d-45a8-9976-485b419c8393"},"vehicle_type_id":"4","last_reported":1709060742,"current_range_meters":0,"station_id":"","pricing_plan_id":"cebpf4jnsgd1na2vs0mg"},{"bike_id":"2019e190-bc6d-4088-a881-774a960c2631","system_id":"levelo_inurba_marseille","lat":43.298764,"lon":5.388973,"is_reserved":false,"is_disabled":false,"rental_uris":{"android":"levelo://app?vid=2019e190-bc6d-4088-a881-774a960c2631","ios":"levelo://app?vid=2019e190-bc6d-4088-a881-774a960c2631"},"vehicle_type_id":"4","last_reported":1709060742,"current_range_meters":5600,"station_id":"ce4bh392rcd13ifvqdl0","pricing_plan_id":"cebpf4jnsgd1na2vs0mg"},{"bike_id":"c06c5daa-b41a-42d2-bf64-fe25bf8180f4","system_id":"levelo_inurba_marseille","lat":43.308217,"lon":5.396132,"is_reserved":false,"is_disabled":false,"rental_uris":{"android":"levelo://app?vid=c06c5daa-b41a-42d2-bf64-fe25bf8180f4","ios":"levelo://app?vid=c06c5daa-b41a-42d2-bf64-fe25bf8180f4"},"vehicle_type_id":"4","last_reported":1709060742,"current_range_meters":7600,"station_id":"ce4bh012rcd13ifvqcv0","pricing_plan_id":"cebpf4jnsgd1na2vs0mg"},{"bike_id":"85b250cb-66ff-4ccd-9f48-3e463747fdef","system_id":"levelo_inurba_marseille","lat":43.309047,"lon":5.396551,"is_reserved":false,"is_disabled":false,"rental_uris":{"android":"levelo://app?vid=85b250cb-66ff-4ccd-9f48-3e463747fdef","ios":"levelo://app?vid=85b250cb-66ff-4ccd-9f48-3e463747fdef"},"vehicle_type_id":"4","last_reported":1709060742,"current_range_meters":9200,"station_id":"ce4bh012rcd13ifvqcv0","pricing_plan_id":"cebpf4jnsgd1na2vs0mg"},{"bike_id":"68f92f45-5fd6-41c6-89bf-74948777eead","system_id":"levelo_inurba_marseille","lat":43.313291,"lon":5.396838,"is_reserved":false,"is_disabled":false,"rental_uris":{"android":"levelo://app?vid=68f92f45-5fd6-41c6-89bf-74948777eead","ios":"levelo://app?vid=68f92f45-5fd6-41c6-89bf-74948777eead"},"vehicle_type_id":"4","last_reported":1709060742,"current_range_meters":3600,"station_id":"ce4bgvp2rcd13ifvqcu0","pricing_plan_id":"cebpf4jnsgd1na2vs0mg"},{"bike_id":"09ac3cc3-5be6-49b0-a420-e3a2d1ed16f1","system_id":"levelo_inurba_marseille","lat":43.313291,"lon":5.396838,"is_reserved":false,"is_disabled":false,"rental_uris":{"android":"levelo://app?vid=09ac3cc3-5be6-49b0-a420-e3a2d1ed16f1","ios":"levelo://app?vid=09ac3cc3-5be6-49b0-a420-e3a2d1ed16f1"},"vehicle_type_id":"4","last_reported":1709060742,"current_range_meters":10000,"station_id":"ce4bgvp2rcd13ifvqcu0","pricing_plan_id":"cebpf4jnsgd1na2vs0mg"},{"bike_id":"21126781-128b-4cc3-94b7-d5b384fbccc8","system_id":"levelo_inurba_marseille","lat":43.291994,"lon":5.357886,"is_reserved":false,"is_disabled":false,"rental_uris":{"android":"levelo://app?vid=21126781-128b-4cc3-94b7-d5b384fbccc8","ios":"levelo://app?vid=21126781-128b-4cc3-94b7-d5b384fbccc8"},"vehicle_type_id":"4","last_reported":1709060742,"current_range_meters":29200,"station_id":"ce4bhb12rcd13ifvqel0","pricing_plan_id":"cebpf4jnsgd1na2vs0mg"},{"bike_id":"d83ef44d-7125-4d01-8290-61fadd044228","system_id":"levelo_inurba_marseille","lat":43.291994,"lon":5.357886,"is_reserved":false,"is_disabled":false,"rental_uris":{"android":"levelo://app?vid=d83ef44d-7125-4d01-8290-61fadd044228","ios":"levelo://app?vid=d83ef44d-7125-4d01-8290-61fadd044228"},"vehicle_type_id":"4","last_reported":1709060742,"current_range_meters":3200,"station_id":"ce4bhb12rcd13ifvqel0","pricing_plan_id":"cebpf4jnsgd1na2vs0mg"},{"bike_id":"3bcac0f9-5f00-4590-8dd8-cccfc7905a61","system_id":"levelo_inurba_marseille","lat":43.313291,"lon":5.396838,"is_reserved":false,"is_disabled":false,"rental_uris":{"android":"levelo://app?vid=3bcac0f9-5f00-4590-8dd8-cccfc7905a61","ios":"levelo://app?vid=3bcac0f9-5f00-4590-8dd8-cccfc7905a61"},"vehicle_type_id":"4","last_reported":1709060742,"current_range_meters":4400,"station_id":"ce4bgvp2rcd13ifvqcu0","pricing_plan_id":"cebpf4jnsgd1na2vs0mg"},{"bike_id":"6c1221d0-b22a-48aa-8edf-42befe18f72f","system_id":"levelo_inurba_marseille","lat":43.313291,"lon":5.396838,"is_reserved":false,"is_disabled":false,"rental_uris":{"android":"levelo://app?vid=6c1221d0-b22a-48aa-8edf-42befe18f72f","ios":"levelo://app?vid=6c1221d0-b22a-48aa-8edf-42befe18f72f"},"vehicle_type_id":"4","last_reported":1709060742,"current_range_meters":16800,"station_id":"ce4bgvp2rcd13ifvqcu0","pricing_plan_id":"cebpf4jnsgd1na2vs0mg"},{"bike_id":"0cbed003-7c68-4527-906b-bae1c797bd97","system_id":"levelo_inurba_marseille","lat":43.313291,"lon":5.396838,"is_reserved":false,"is_disabled":false,"rental_uris":{"android":"levelo://app?vid=0cbed003-7c68-4527-906b-bae1c797bd97","ios":"levelo://app?vid=0cbed003-7c68-4527-906b-bae1c797bd97"},"vehicle_type_id":"4","last_reported":1709060742,"current_range_meters":8400,"station_id":"ce4bgvp2rcd13ifvqcu0","pricing_plan_id":"cebpf4jnsgd1na2vs0mg"},{"bike_id":"b2fe5942-1149-4be4-b13e-f66de9c8a7d5","system_id":"levelo_inurba_marseille","lat":43.3088,"lon":5.39648,"is_reserved":false,"is_disabled":false,"rental_uris":{"android":"levelo://app?vid=b2fe5942-1149-4be4-b13e-f66de9c8a7d5","ios":"levelo://app?vid=b2fe5942-1149-4be4-b13e-f66de9c8a7d5"},"vehicle_type_id":"4","last_reported":1709060742,"current_range_meters":26000,"station_id":"ce4bh012rcd13ifvqcv0","pricing_plan_id":"cebpf4jnsgd1na2vs0mg"},{"bike_id":"b0b013a1-9f2a-47e4-b3ee-c4b0eee0d121","system_id":"levelo_inurba_marseille","lat":43.291994,"lon":5.357886,"is_reserved":false,"is_disabled":false,"rental_uris":{"android":"levelo://app?vid=b0b013a1-9f2a-47e4-b3ee-c4b0eee0d121","ios":"levelo://app?vid=b0b013a1-9f2a-47e4-b3ee-c4b0eee0d121"},"vehicle_type_id":"4","last_reported":1709060742,"current_range_meters":10400,"station_id":"ce4bhb12rcd13ifvqel0","pricing_plan_id":"cebpf4jnsgd1na2vs0mg"},{"bike_id":"956f5e52-c744-4567-bb38-8b45a9dfe3ad","system_id":"levelo_inurba_marseille","lat":43.3089,"lon":5.39652,"is_reserved":false,"is_disabled":false,"rental_uris":{"android":"levelo://app?vid=956f5e52-c744-4567-bb38-8b45a9dfe3ad","ios":"levelo://app?vid=956f5e52-c744-4567-bb38-8b45a9dfe3ad"},"vehicle_type_id":"4","last_reported":1709060742,"current_range_meters":3200,"station_id":"ce4bh012rcd13ifvqcv0","pricing_plan_id":"cebpf4jnsgd1na2vs0mg"},{"bike_id":"073db528-2124-46fa-8003-eb3728be1493","system_id":"levelo_inurba_marseille","lat":43.313291,"lon":5.396838,"is_reserved":false,"is_disabled":false,"rental_uris":{"android":"levelo://app?vid=073db528-2124-46fa-8003-eb3728be1493","ios":"levelo://app?vid=073db528-2124-46fa-8003-eb3728be1493"},"vehicle_type_id":"4","last_reported":1709060742,"current_range_meters":22800,"station_id":"ce4bgvp2rcd13ifvqcu0","pricing_plan_id":"cebpf4jnsgd1na2vs0mg"},{"bike_id":"65886581-a721-4cf4-a0cf-2bf86dbf6558","system_id":"levelo_inurba_marseille","lat":43.313291,"lon":5.396838,"is_reserved":false,"is_disabled":false,"rental_uris":{"android":"levelo://app?vid=65886581-a721-4cf4-a0cf-2bf86dbf6558","ios":"levelo://app?vid=65886581-a721-4cf4-a0cf-2bf86dbf6558"},"vehicle_type_id":"4","last_reported":1709060742,"current_range_meters":16800,"station_id":"ce4bgvp2rcd13ifvqcu0","pricing_plan_id":"cebpf4jnsgd1na2vs0mg"},{"bike_id":"22157055-c58d-4351-bb53-5990be074837","system_id":"levelo_inurba_marseille","lat":43.313291,"lon":5.396838,"is_reserved":false,"is_disabled":false,"rental_uris":{"android":"levelo://app?vid=22157055-c58d-4351-bb53-5990be074837","ios":"levelo://app?vid=22157055-c58d-4351-bb53-5990be074837"},"vehicle_type_id":"4","last_reported":1709060742,"current_range_meters":22000,"station_id":"ce4bgvp2rcd13ifvqcu0","pricing_plan_id":"cebpf4jnsgd1na2vs0mg"},{"bike_id":"d470490e-f068-47ef-a944-0e89769d8a19","system_id":"levelo_inurba_marseille","lat":43.309038,"lon":5.396546,"is_reserved":false,"is_disabled":false,"rental_uris":{"android":"levelo://app?vid=d470490e-f068-47ef-a944-0e89769d8a19","ios":"levelo://app?vid=d470490e-f068-47ef-a944-0e89769d8a19"},"vehicle_type_id":"4","last_reported":1709060742,"current_range_meters":12800,"station_id":"ce4bh012rcd13ifvqcv0","pricing_plan_id":"cebpf4jnsgd1na2vs0mg"},{"bike_id":"e0bc59f4-0084-4385-ad6c-c24124dc4198","system_id":"levelo_inurba_marseille","lat":43.313291,"lon":5.396838,"is_reserved":false,"is_disabled":false,"rental_uris":{"android":"levelo://app?vid=e0bc59f4-0084-4385-ad6c-c24124dc4198","ios":"levelo://app?vid=e0bc59f4-0084-4385-ad6c-c24124dc4198"},"vehicle_type_id":"4","last_reported":1709060742,"current_range_meters":18400,"station_id":"ce4bgvp2rcd13ifvqcu0","pricing_plan_id":"cebpf4jnsgd1na2vs0mg"},{"bike_id":"3d144b6f-c1ba-425c-bb5f-13dbefef98f2","system_id":"levelo_inurba_marseille","lat":43.313291,"lon":5.396838,"is_reserved":false,"is_disabled":false,"rental_uris":{"android":"levelo://app?vid=3d144b6f-c1ba-425c-bb5f-13dbefef98f2","ios":"levelo://app?vid=3d144b6f-c1ba-425c-bb5f-13dbefef98f2"},"vehicle_type_id":"4","last_reported":1709060742,"current_range_meters":3200,"station_id":"ce4bgvp2rcd13ifvqcu0","pricing_plan_id":"cebpf4jnsgd1na2vs0mg"},{"bike_id":"2c913c46-5739-46ae-8f95-77fd114de4a8","system_id":"levelo_inurba_marseille","lat":43.309047,"lon":5.396551,"is_reserved":false,"is_disabled":false,"rental_uris":{"android":"levelo://app?vid=2c913c46-5739-46ae-8f95-77fd114de4a8","ios":"levelo://app?vid=2c913c46-5739-46ae-8f95-77fd114de4a8"},"vehicle_type_id":"4","last_reported":1709060742,"current_range_meters":5600,"station_id":"ce4bh012rcd13ifvqcv0","pricing_plan_id":"cebpf4jnsgd1na2vs0mg"},{"bike_id":"d86af802-de3a-4f45-8937-b94a8827bbd9","system_id":"levelo_inurba_marseille","lat":43.313291,"lon":5.396838,"is_reserved":false,"is_disabled":false,"rental_uris":{"android":"levelo://app?vid=d86af802-de3a-4f45-8937-b94a8827bbd9","ios":"levelo://app?vid=d86af802-de3a-4f45-8937-b94a8827bbd9"},"vehicle_type_id":"4","last_reported":1709060742,"current_range_meters":21200,"station_id":"ce4bgvp2rcd13ifvqcu0","pricing_plan_id":"cebpf4jnsgd1na2vs0mg"},{"bike_id":"9a79859a-059c-4b5f-84d6-dbb757270618","system_id":"levelo_inurba_marseille","lat":43.309038,"lon":5.396546,"is_reserved":false,"is_disabled":false,"rental_uris":{"android":"levelo://app?vid=9a79859a-059c-4b5f-84d6-dbb757270618","ios":"levelo://app?vid=9a79859a-059c-4b5f-84d6-dbb757270618"},"vehicle_type_id":"4","last_reported":1709060742,"current_range_meters":2400,"station_id":"ce4bh012rcd13ifvqcv0","pricing_plan_id":"cebpf4jnsgd1na2vs0mg"},{"bike_id":"91aa22b0-ee5c-4400-995b-091d575db373","system_id":"levelo_inurba_marseille","lat":43.309047,"lon":5.396551,"is_reserved":false,"is_disabled":false,"rental_uris":{"android":"levelo://app?vid=91aa22b0-ee5c-4400-995b-091d575db373","ios":"levelo://app?vid=91aa22b0-ee5c-4400-995b-091d575db373"},"vehicle_type_id":"4","last_reported":1709060742,"current_range_meters":4800,"station_id":"ce4bh012rcd13ifvqcv0","pricing_plan_id":"cebpf4jnsgd1na2vs0mg"},{"bike_id":"cb6648a3-05ec-4e18-b65c-63a66462b20a","system_id":"levelo_inurba_marseille","lat":43.29529,"lon":5.385581,"is_reserved":false,"is_disabled":false,"rental_uris":{"android":"levelo://app?vid=cb6648a3-05ec-4e18-b65c-63a66462b20a","ios":"levelo://app?vid=cb6648a3-05ec-4e18-b65c-63a66462b20a"},"vehicle_type_id":"4","last_reported":1709060742,"current_range_meters":4000,"station_id":"ce4bgih2rcd13ifvqba0","pricing_plan_id":"cebpf4jnsgd1na2vs0mg"},{"bike_id":"5a18f78e-6676-4b97-bd6d-40923e5523b0","system_id":"levelo_inurba_marseille","lat":43.29529,"lon":5.385581,"is_reserved":false,"is_disabled":false,"rental_uris":{"android":"levelo://app?vid=5a18f78e-6676-4b97-bd6d-40923e5523b0","ios":"levelo://app?vid=5a18f78e-6676-4b97-bd6d-40923e5523b0"},"vehicle_type_id":"4","last_reported":1709060742,"current_range_meters":16400,"station_id":"ce4bgih2rcd13ifvqba0","pricing_plan_id":"cebpf4jnsgd1na2vs0mg"},{"bike_id":"9575c2f3-bcd7-4a20-a8d8-db8a2c8aece7","system_id":"levelo_inurba_marseille","lat":43.313291,"lon":5.396838,"is_reserved":false,"is_disabled":false,"rental_uris":{"android":"levelo://app?vid=9575c2f3-bcd7-4a20-a8d8-db8a2c8aece7","ios":"levelo://app?vid=9575c2f3-bcd7-4a20-a8d8-db8a2c8aece7"},"vehicle_type_id":"4","last_reported":1709060742,"current_range_meters":13200,"station_id":"ce4bgvp2rcd13ifvqcu0","pricing_plan_id":"cebpf4jnsgd1na2vs0mg"},{"bike_id":"2244637e-e855-48f8-82ab-51bf6825b6c4","system_id":"levelo_inurba_marseille","lat":43.29534,"lon":5.38541,"is_reserved":false,"is_disabled":false,"rental_uris":{"android":"levelo://app?vid=2244637e-e855-48f8-82ab-51bf6825b6c4","ios":"levelo://app?vid=2244637e-e855-48f8-82ab-51bf6825b6c4"},"vehicle_type_id":"4","last_reported":1709060742,"current_range_meters":25200,"station_id":"ce4bgih2rcd13ifvqba0","pricing_plan_id":"cebpf4jnsgd1na2vs0mg"},{"bike_id":"d09a884a-60c8-4603-bfd6-ef0ccb0ae52d","system_id":"levelo_inurba_marseille","lat":43.29529,"lon":5.385581,"is_reserved":false,"is_disabled":false,"rental_uris":{"android":"levelo://app?vid=d09a884a-60c8-4603-bfd6-ef0ccb0ae52d","ios":"levelo://app?vid=d09a884a-60c8-4603-bfd6-ef0ccb0ae52d"},"vehicle_type_id":"4","last_reported":1709060742,"current_range_meters":12000,"station_id":"ce4bgih2rcd13ifvqba0","pricing_plan_id":"cebpf4jnsgd1na2vs0mg"},{"bike_id":"df750c7d-2626-4ed3-aaad-a9685513fe8d","system_id":"levelo_inurba_marseille","lat":43.29529,"lon":5.385581,"is_reserved":false,"is_disabled":false,"rental_uris":{"android":"levelo://app?vid=df750c7d-2626-4ed3-aaad-a9685513fe8d","ios":"levelo://app?vid=df750c7d-2626-4ed3-aaad-a9685513fe8d"},"vehicle_type_id":"4","last_reported":1709060742,"current_range_meters":1200,"station_id":"ce4bgih2rcd13ifvqba0","pricing_plan_id":"cebpf4jnsgd1na2vs0mg"},{"bike_id":"764a1cf7-e6b1-499c-a392-9e3c0e2be738","system_id":"levelo_inurba_marseille","lat":43.29538,"lon":5.3855,"is_reserved":false,"is_disabled":false,"rental_uris":{"android":"levelo://app?vid=764a1cf7-e6b1-499c-a392-9e3c0e2be738","ios":"levelo://app?vid=764a1cf7-e6b1-499c-a392-9e3c0e2be738"},"vehicle_type_id":"4","last_reported":1709060742,"current_range_meters":22400,"station_id":"ce4bgih2rcd13ifvqba0","pricing_plan_id":"cebpf4jnsgd1na2vs0mg"},{"bike_id":"4121f99a-e5ce-4fa1-91e8-d796b7b4b54c","system_id":"levelo_inurba_marseille","lat":43.2953,"lon":5.38536,"is_reserved":false,"is_disabled":false,"rental_uris":{"android":"levelo://app?vid=4121f99a-e5ce-4fa1-91e8-d796b7b4b54c","ios":"levelo://app?vid=4121f99a-e5ce-4fa1-91e8-d796b7b4b54c"},"vehicle_type_id":"4","last_reported":1709060742,"current_range_meters":22000,"station_id":"ce4bgih2rcd13ifvqba0","pricing_plan_id":"cebpf4jnsgd1na2vs0mg"},{"bike_id":"98657e88-ae4d-4ed2-82c2-3de5f3e58ccb","system_id":"levelo_inurba_marseille","lat":43.29534,"lon":5.385505,"is_reserved":false,"is_disabled":false,"rental_uris":{"android":"levelo://app?vid=98657e88-ae4d-4ed2-82c2-3de5f3e58ccb","ios":"levelo://app?vid=98657e88-ae4d-4ed2-82c2-3de5f3e58ccb"},"vehicle_type_id":"4","last_reported":1709060742,"current_range_meters":21200,"station_id":"ce4bgih2rcd13ifvqba0","pricing_plan_id":"cebpf4jnsgd1na2vs0mg"},{"bike_id":"e97f41e1-e435-4178-b393-556fb3669624","system_id":"levelo_inurba_marseille","lat":43.29529,"lon":5.385581,"is_reserved":false,"is_disabled":false,"rental_uris":{"android":"levelo://app?vid=e97f41e1-e435-4178-b393-556fb3669624","ios":"levelo://app?vid=e97f41e1-e435-4178-b393-556fb3669624"},"vehicle_type_id":"4","last_reported":1709060742,"current_range_meters":22800,"station_id":"ce4bgih2rcd13ifvqba0","pricing_plan_id":"cebpf4jnsgd1na2vs0mg"},{"bike_id":"3c3b2239-b53a-41a1-8074-ca866a09d992","system_id":"levelo_inurba_marseille","lat":43.29525,"lon":5.38541,"is_reserved":false,"is_disabled":false,"rental_uris":{"android":"levelo://app?vid=3c3b2239-b53a-41a1-8074-ca866a09d992","ios":"levelo://app?vid=3c3b2239-b53a-41a1-8074-ca866a09d992"},"vehicle_type_id":"4","last_reported":1709060742,"current_range_meters":25200,"station_id":"ce4bgih2rcd13ifvqba0","pricing_plan_id":"cebpf4jnsgd1na2vs0mg"},{"bike_id":"180d5c77-fc8a-4633-9baf-91b37c6afa2e","system_id":"levelo_inurba_marseille","lat":43.290779,"lon":5.371482,"is_reserved":false,"is_disabled":false,"rental_uris":{"android":"levelo://app?vid=180d5c77-fc8a-4633-9baf-91b37c6afa2e","ios":"levelo://app?vid=180d5c77-fc8a-4633-9baf-91b37c6afa2e"},"vehicle_type_id":"4","last_reported":1709060742,"current_range_meters":0,"station_id":"ce4bh5p2rcd13ifvqe4g","pricing_plan_id":"cebpf4jnsgd1na2vs0mg"},{"bike_id":"ac524028-3fa9-4b99-8980-48a6ca8e2636","system_id":"levelo_inurba_marseille","lat":43.290779,"lon":5.371482,"is_reserved":false,"is_disabled":false,"rental_uris":{"android":"levelo://app?vid=ac524028-3fa9-4b99-8980-48a6ca8e2636","ios":"levelo://app?vid=ac524028-3fa9-4b99-8980-48a6ca8e2636"},"vehicle_type_id":"4","last_reported":1709060742,"current_range_meters":12400,"station_id":"ce4bh5p2rcd13ifvqe4g","pricing_plan_id":"cebpf4jnsgd1na2vs0mg"},{"bike_id":"4189af75-92ab-4c35-b21c-591f27d06f6f","system_id":"levelo_inurba_marseille","lat":43.290779,"lon":5.371482,"is_reserved":false,"is_disabled":false,"rental_uris":{"android":"levelo://app?vid=4189af75-92ab-4c35-b21c-591f27d06f6f","ios":"levelo://app?vid=4189af75-92ab-4c35-b21c-591f27d06f6f"},"vehicle_type_id":"4","last_reported":1709060742,"current_range_meters":31200,"station_id":"ce4bh5p2rcd13ifvqe4g","pricing_plan_id":"cebpf4jnsgd1na2vs0mg"},{"bike_id":"64ea967f-6b38-45e1-8173-6b7ec81a9874","system_id":"levelo_inurba_marseille","lat":43.302008,"lon":5.394694,"is_reserved":false,"is_disabled":false,"rental_uris":{"android":"levelo://app?vid=64ea967f-6b38-45e1-8173-6b7ec81a9874","ios":"levelo://app?vid=64ea967f-6b38-45e1-8173-6b7ec81a9874"},"vehicle_type_id":"4","last_reported":1709060742,"current_range_meters":8800,"station_id":"ce4bh0p2rcd13ifvqd70","pricing_plan_id":"cebpf4jnsgd1na2vs0mg"},{"bike_id":"2e9d7d8c-77dd-4aa9-9e1a-30e58e2846b3","system_id":"levelo_inurba_marseille","lat":43.302008,"lon":5.394694,"is_reserved":false,"is_disabled":false,"rental_uris":{"android":"levelo://app?vid=2e9d7d8c-77dd-4aa9-9e1a-30e58e2846b3","ios":"levelo://app?vid=2e9d7d8c-77dd-4aa9-9e1a-30e58e2846b3"},"vehicle_type_id":"4","last_reported":1709060742,"current_range_meters":21200,"station_id":"ce4bh0p2rcd13ifvqd70","pricing_plan_id":"cebpf4jnsgd1na2vs0mg"},{"bike_id":"acb9c49a-8a22-49a9-a6c9-94493a1b1706","system_id":"levelo_inurba_marseille","lat":43.302008,"lon":5.394694,"is_reserved":false,"is_disabled":false,"rental_uris":{"android":"levelo://app?vid=acb9c49a-8a22-49a9-a6c9-94493a1b1706","ios":"levelo://app?vid=acb9c49a-8a22-49a9-a6c9-94493a1b1706"},"vehicle_type_id":"4","last_reported":1709060742,"current_range_meters":0,"station_id":"ce4bh0p2rcd13ifvqd70","pricing_plan_id":"cebpf4jnsgd1na2vs0mg"},{"bike_id":"fcb2a5bd-b0d6-44b0-b4f5-d7a4b7eac667","system_id":"levelo_inurba_marseille","lat":43.302008,"lon":5.394694,"is_reserved":false,"is_disabled":false,"rental_uris":{"android":"levelo://app?vid=fcb2a5bd-b0d6-44b0-b4f5-d7a4b7eac667","ios":"levelo://app?vid=fcb2a5bd-b0d6-44b0-b4f5-d7a4b7eac667"},"vehicle_type_id":"4","last_reported":1709060742,"current_range_meters":15600,"station_id":"ce4bh0p2rcd13ifvqd70","pricing_plan_id":"cebpf4jnsgd1na2vs0mg"},{"bike_id":"4541a56d-45b7-480e-9412-0f4f09e2fc0f","system_id":"levelo_inurba_marseille","lat":43.302008,"lon":5.394694,"is_reserved":false,"is_disabled":false,"rental_uris":{"android":"levelo://app?vid=4541a56d-45b7-480e-9412-0f4f09e2fc0f","ios":"levelo://app?vid=4541a56d-45b7-480e-9412-0f4f09e2fc0f"},"vehicle_type_id":"4","last_reported":1709060742,"current_range_meters":3200,"station_id":"ce4bh0p2rcd13ifvqd70","pricing_plan_id":"cebpf4jnsgd1na2vs0mg"},{"bike_id":"3b8b7e60-acb6-4303-b8c0-4173a520db23","system_id":"levelo_inurba_marseille","lat":43.302008,"lon":5.394694,"is_reserved":false,"is_disabled":false,"rental_uris":{"android":"levelo://app?vid=3b8b7e60-acb6-4303-b8c0-4173a520db23","ios":"levelo://app?vid=3b8b7e60-acb6-4303-b8c0-4173a520db23"},"vehicle_type_id":"4","last_reported":1709060742,"current_range_meters":9600,"station_id":"ce4bh0p2rcd13ifvqd70","pricing_plan_id":"cebpf4jnsgd1na2vs0mg"},{"bike_id":"ea9de273-ecc0-440a-bf44-3ce65c4dd916","system_id":"levelo_inurba_marseille","lat":43.302008,"lon":5.394694,"is_reserved":false,"is_disabled":false,"rental_uris":{"android":"levelo://app?vid=ea9de273-ecc0-440a-bf44-3ce65c4dd916","ios":"levelo://app?vid=ea9de273-ecc0-440a-bf44-3ce65c4dd916"},"vehicle_type_id":"4","last_reported":1709060742,"current_range_meters":3600,"station_id":"ce4bh0p2rcd13ifvqd70","pricing_plan_id":"cebpf4jnsgd1na2vs0mg"},{"bike_id":"b695844b-cbb5-4b3d-8304-40d353e71bcb","system_id":"levelo_inurba_marseille","lat":43.290631,"lon":5.359244,"is_reserved":false,"is_disabled":false,"rental_uris":{"android":"levelo://app?vid=b695844b-cbb5-4b3d-8304-40d353e71bcb","ios":"levelo://app?vid=b695844b-cbb5-4b3d-8304-40d353e71bcb"},"vehicle_type_id":"4","last_reported":1709060742,"current_range_meters":12000,"station_id":"ce4bha92rcd13ifvqeg0","pricing_plan_id":"cebpf4jnsgd1na2vs0mg"},