{"last_updated":1702832759,"ttl":30,"version":"2.2","data":{"bikes":[{"bike_id":"e6289ad0-b501-47db-a815-8bfd14e5129d","system_id":"levelo_inurba_marseille","lat":43.313391,"lon":5.36706,"is_reserved":false,"is_disabled":false,"rental_uris":{"android":"levelo://app?vid=e6289ad0-b501-47db-a815-8bfd14e5129d","ios":"levelo://app?vid=e6289ad0-b501-47db-a815-8bfd14e5129d"},"vehicle_type_id":"4","last_reported":1702832759,"current_range_meters":27200,"station_id":"ce4bgr92rcd13ifvqc6g","pricing_plan_id":"free"},{"bike_id":"d79cc655-1b6e-4bae-9c89-85ca93082071","system_id":"levelo_inurba_marseille","lat":43.312239,"lon":5.368562,"is_reserved":false,"is_disabled":false,"rental_uris":{"android":"levelo://app?vid=d79cc655-1b6e-4bae-9c89-85ca93082071","ios":"levelo://app?vid=d79cc655-1b6e-4bae-9c89-85ca93082071"},"vehicle_type_id":"4","last_reported":1702832759,"current_range_meters":28400,"station_id":"ce4bgl92rcd13ifvqbq0","pricing_plan_id":"free"},{"bike_id":"ff1150f3-70ae-481c-aea2-ed2b7b0838b9","system_id":"levelo_inurba_marseille","lat":43.312239,"lon":5.368562,"is_reserved":false,"is_disabled":false,"rental_uris":{"android":"levelo://app?vid=ff1150f3-70ae-481c-aea2-ed2b7b0838b9","ios":"levelo://app?vid=ff1150f3-70ae-481c-aea2-ed2b7b0838b9"},"vehicle_type_id":"4","last_reported":1702832759,"current_range_meters":0,"station_id":"ce4bgl92rcd13ifvqbq0","pricing_plan_id":"free"},{"bike_id":"2f48359e-f512-4efa-a506-58780ab01f14","system_id":"levelo_inurba_marseille","lat":43.312239,"lon":5.368562,"is_reserved":false,"is_disabled":false,"rental_uris":{"android":"levelo://app?vid=2f48359e-f512-4efa-a506-58780ab01f14","ios":"levelo://app?vid=2f48359e-f512-4efa-a506-58780ab01f14"},"vehicle_type_id":"4","last_reported":1702832759,"current_range_meters":9200,"station_id":"ce4bgl92rcd13ifvqbq0","pricing_plan_id":"free"},{"bike_id":"63a29e56-fa01-40fa-a102-c285601f4faf","system_id":"levelo_inurba_marseille","lat":43.314811,"lon":5.373103,"is_reserved":false,"is_disabled":false,"rental_uris":{"android":"levelo://app?vid=63a29e56-fa01-40fa-a102-c285601f4faf","ios":"levelo://app?vid=63a29e56-fa01-40fa-a102-c285601f4faf"},"vehicle_type_id":"4","last_reported":1702832759,"current_range_meters":3600,"station_id":"ce4bgt12rcd13ifvqcd0","pricing_plan_id":"free"},{"bike_id":"0c23db43-9903-4779-b6fb-4117c544eea8","system_id":"levelo_inurba_marseille","lat":43.309039,"lon":5.371797,"is_reserved":false,"is_disabled":false,"rental_uris":{"android":"levelo://app?vid=0c23db43-9903-4779-b6fb-4117c544eea8","ios":"levelo://app?vid=0c23db43-9903-4779-b6fb-4117c544eea8"},"vehicle_type_id":"4","last_reported":1702832759,"current_range_meters":15600,"station_id":"ce4bguh2rcd13ifvqckg","pricing_plan_id":"free"},{"bike_id":"955e4ab2-16e5-44e8-a986-a2f50ff96c06","system_id":"levelo_inurba_marseille","lat":43.305382,"lon":5.365389,"is_reserved":false,"is_disabled":false,"rental_uris":{"android":"levelo://app?vid=955e4ab2-16e5-44e8-a986-a2f50ff96c06","ios":"levelo://app?vid=955e4ab2-16e5-44e8-a986-a2f50ff96c06"},"vehicle_type_id":"4","last_reported":1702832759,"current_range_meters":11200,"station_id":"","pricing_plan_id":"free"},{"bike_id":"9031659f-00df-4eb4-9881-b1137dca2a0c","system_id":"levelo_inurba_marseille","lat":43.305706,"lon":5.365654,"is_reserved":false,"is_disabled":false,"rental_uris":{"android":"levelo://app?vid=9031659f-00df-4eb4-9881-b1137dca2a0c","ios":"levelo://app?vid=9031659f-00df-4eb4-9881-b1137dca2a0c"},"vehicle_type_id":"4","last_reported":1702832759,"current_range_meters":0,"station_id":"ce4bgs12rcd13ifvqcag","pricing_plan_id":"free"},{"bike_id":"e24a2df5-d9d2-4d1b-b4f9-df9234ba369c","system_id":"levelo_inurba_marseille","lat":43.307945,"lon":5.376487,"is_reserved":false,"is_disabled":false,"rental_uris":{"android":"levelo://app?vid=e24a2df5-d9d2-4d1b-b4f9-df9234ba369c","ios":"levelo://app?vid=e24a2df5-d9d2-4d1b-b4f9-df9234ba369c"},"vehicle_type_id":"4","last_reported":1702832759,"current_range_meters":20800,"station_id":"ce4bgv92rcd13ifvqcq0","pricing_plan_id":"free"},{"bike_id":"f3d7ff2d-79cc-420c-a0a1-0f014a0b9f0e","system_id":"levelo_inurba_marseille","lat":43.308012,"lon":5.381511,"is_reserved":false,"is_disabled":false,"rental_uris":{"android":"levelo://app?vid=f3d7ff2d-79cc-420c-a0a1-0f014a0b9f0e","ios":"levelo://app?vid=f3d7ff2d-79cc-420c-a0a1-0f014a0b9f0e"},"vehicle_type_id":"4","last_reported":1702832759,"current_range_meters":10400,"station_id":"ce4bgt12rcd13ifvqce0","pricing_plan_id":"free"},{"bike_id":"641598b5-6c23-4558-8050-18d3965a25be","system_id":"levelo_inurba_marseille","lat":43.301429,"lon":5.37413,"is_reserved":false,"is_disabled":false,"rental_uris":{"android":"levelo://app?vid=641598b5-6c23-4558-8050-18d3965a25be","ios":"levelo://app?vid=641598b5-6c23-4558-8050-18d3965a25be"},"vehicle_type_id":"4","last_reported":1702832759,"current_range_meters":10400,"station_id":"ce4bgs92rcd13ifvqcc0","pricing_plan_id":"free"},{"bike_id":"812ab522-a91d-4694-a98b-1b02cadbeabc","system_id":"levelo_inurba_marseille","lat":43.30143,"lon":5.37413,"is_reserved":false,"is_disabled":false,"rental_uris":{"android":"levelo://app?vid=812ab522-a91d-4694-a98b-1b02cadbeabc","ios":"levelo://app?vid=812ab522-a91d-4694-a98b-1b02cadbeabc"},"vehicle_type_id":"4","last_reported":1702832759,"current_range_meters":24800,"station_id":"ce4bgs92rcd13ifvqcc0","pricing_plan_id":"free"},{"bike_id":"9f084666-d9c8-4104-8112-29f1dad66c8e","system_id":"levelo_inurba_marseille","lat":43.319946,"lon":5.381606,"is_reserved":false,"is_disabled":false,"rental_uris":{"android":"levelo://app?vid=9f084666-d9c8-4104-8112-29f1dad66c8e","ios":"levelo://app?vid=9f084666-d9c8-4104-8112-29f1dad66c8e"},"vehicle_type_id":"4","last_reported":1702832759,"current_range_meters":0,"station_id":"ce4bhr12rcd13ifvqhpg","pricing_plan_id":"free"},{"bike_id":"8f169a0f-7409-4214-86b7-43a0f0be02a5","system_id":"levelo_inurba_marseille","lat":43.313571,"lon":5.384829,"is_reserved":false,"is_disabled":false,"rental_uris":{"android":"levelo://app?vid=8f169a0f-7409-4214-86b7-43a0f0be02a5","ios":"levelo://app?vid=8f169a0f-7409-4214-86b7-43a0f0be02a5"},"vehicle_type_id":"4","last_reported":1702832759,"current_range_meters":2800,"station_id":"ce4bgt92rcd13ifvqcf0","pricing_plan_id":"free"},{"bike_id":"d78262ce-5ebe-4ae4-a16c-be2b0c270f2b","system_id":"levelo_inurba_marseille","lat":43.313571,"lon":5.384829,"is_reserved":false,"is_disabled":false,"rental_uris":{"android":"levelo://app?vid=d78262ce-5ebe-4ae4-a16c-be2b0c270f2b","ios":"levelo://app?vid=d78262ce-5ebe-4ae4-a16c-be2b0c270f2b"},"vehicle_type_id":"4","last_reported":1702832759,"current_range_meters":28800,"station_id":"ce4bgt92rcd13ifvqcf0","pricing_plan_id":"free"},{"bike_id":"8931d175-a41e-4c95-81c3-5e9815201361","system_id":"levelo_inurba_marseille","lat":43.299724,"lon":5.371829,"is_reserved":false,"is_disabled":false,"rental_uris":{"android":"levelo://app?vid=8931d175-a41e-4c95-81c3-5e9815201361","ios":"levelo://app?vid=8931d175-a41e-4c95-81c3-5e9815201361"},"vehicle_type_id":"4","last_reported":1702832759,"current_range_meters":26800,"station_id":"ce4bgr92rcd13ifvqc7g","pricing_plan_id":"free"},{"bike_id":"c4e77394-aef9-4077-b745-e99148625344","system_id":"levelo_inurba_marseille","lat":43.32733,"lon":5.36707,"is_reserved":false,"is_disabled":false,"rental_uris":{"android":"levelo://app?vid=c4e77394-aef9-4077-b745-e99148625344","ios":"levelo://app?vid=c4e77394-aef9-4077-b745-e99148625344"},"vehicle_type_id":"4","last_reported":1702832759,"current_range_meters":18400,"station_id":"","pricing_plan_id":"free"},{"bike_id":"819cb438-2e9c-4e0b-902b-5e19ef554d5c","system_id":"levelo_inurba_marseille","lat":43.305531,"lon":5.384374,"is_reserved":false,"is_disabled":false,"rental_uris":{"android":"levelo://app?vid=819cb438-2e9c-4e0b-902b-5e19ef554d5c","ios":"levelo://app?vid=819cb438-2e9c-4e0b-902b-5e19ef554d5c"},"vehicle_type_id":"4","last_reported":1702832759,"current_range_meters":10800,"station_id":"ce4bgg92rcd13ifvqb30","pricing_plan_id":"free"},{"bike_id":"425b1c4d-cff7-4eed-980a-28bfc45ce48d","system_id":"levelo_inurba_marseille","lat":43.305364,"lon":5.384119,"is_reserved":false,"is_disabled":false,"rental_uris":{"android":"levelo://app?vid=425b1c4d-cff7-4eed-980a-28bfc45ce48d","ios":"levelo://app?vid=425b1c4d-cff7-4eed-980a-28bfc45ce48d"},"vehicle_type_id":"4","last_reported":1702832759,"current_range_meters":18400,"station_id":"ce4bgg92rcd13ifvqb30","pricing_plan_id":"free"},{"bike_id":"e16be63c-3af9-487f-9ade-135ef79bc83b","system_id":"levelo_inurba_marseille","lat":43.311722,"lon":5.387247,"is_reserved":false,"is_disabled":false,"rental_uris":{"android":"levelo://app?vid=e16be63c-3af9-487f-9ade-135ef79bc83b","ios":"levelo://app?vid=e16be63c-3af9-487f-9ade-135ef79bc83b"},"vehicle_type_id":"4","last_reported":1702832759,"current_range_meters":23600,"station_id":"ce4bgv12rcd13ifvqcp0","pricing_plan_id":"free"},{"bike_id":"ad8327fb-988a-48b4-89ea-30bda538a44f","system_id":"levelo_inurba_marseille","lat":43.297794,"lon":5.370888,"is_reserved":false,"is_disabled":false,"rental_uris":{"android":"levelo://app?vid=ad8327fb-988a-48b4-89ea-30bda538a44f","ios":"levelo://app?vid=ad8327fb-988a-48b4-89ea-30bda538a44f"},"vehicle_type_id":"4","last_reported":1702832759,"current_range_meters":18400,"station_id":"ce4bgop2rcd13ifvqc1g","pricing_plan_id":"free"},{"bike_id":"c65101c9-bf96-452c-9315-c19e369a8baa","system_id":"levelo_inurba_marseille","lat":43.299243,"lon":5.37481,"is_reserved":false,"is_disabled":false,"rental_uris":{"android":"levelo://app?vid=c65101c9-bf96-452c-9315-c19e369a8baa","ios":"levelo://app?vid=c65101c9-bf96-452c-9315-c19e369a8baa"},"vehicle_type_id":"4","last_reported":1702832759,"current_range_meters":20000,"station_id":"ce4bgjh2rcd13ifvqbg0","pricing_plan_id":"free"},{"bike_id":"a53eb3b9-41ed-497c-99cd-8a9926c080cd","system_id":"levelo_inurba_marseille","lat":43.322872,"lon":5.382756,"is_reserved":false,"is_disabled":false,"rental_uris":{"android":"levelo://app?vid=a53eb3b9-41ed-497c-99cd-8a9926c080cd","ios":"levelo://app?vid=a53eb3b9-41ed-497c-99cd-8a9926c080cd"},"vehicle_type_id":"4","last_reported":1702832759,"current_range_meters":10400,"station_id":"ce4bhr12rcd13ifvqhqg","pricing_plan_id":"free"},{"bike_id":"554dcae1-3f06-45b1-ae42-1508926b85ac","system_id":"levelo_inurba_marseille","lat":43.2968,"lon":5.37291,"is_reserved":false,"is_disabled":false,"rental_uris":{"android":"levelo://app?vid=554dcae1-3f06-45b1-ae42-1508926b85ac","ios":"levelo://app?vid=554dcae1-3f06-45b1-ae42-1508926b85ac"},"vehicle_type_id":"4","last_reported":1702832759,"current_range_meters":6400,"station_id":"ce4bgk12rcd13ifvqbj0","pricing_plan_id":"free"},{"bike_id":"0c1ee622-6e22-468d-9c08-acd7e77112a3","system_id":"levelo_inurba_marseille","lat":43.29573,"lon":5.367355,"is_reserved":false,"is_disabled":false,"rental_uris":{"android":"levelo://app?vid=0c1ee622-6e22-468d-9c08-acd7e77112a3","ios":"levelo://app?vid=0c1ee622-6e22-468d-9c08-acd7e77112a3"},"vehicle_type_id":"4","last_reported":1702832759,"current_range_meters":8400,"station_id":"ce4bgph2rcd13ifvqc2g","pricing_plan_id":"free"},{"bike_id":"4b2615de-ecff-42b4-ac46-543e10e4fe81","system_id":"levelo_inurba_marseille","lat":43.296935,"lon":5.376544,"is_reserved":false,"is_disabled":false,"rental_uris":{"android":"levelo://app?vid=4b2615de-ecff-42b4-ac46-543e10e4fe81","ios":"levelo://app?vid=4b2615de-ecff-42b4-ac46-543e10e4fe81"},"vehicle_type_id":"4","last_reported":1702832759,"current_range_meters":17600,"station_id":"ce4bgkh2rcd13ifvqbl0","pricing_plan_id":"free"},{"bike_id":"360a4314-3695-4145-964d-47d5df65b28d","system_id":"levelo_inurba_marseille","lat":43.317557,"lon":5.390173,"is_reserved":false,"is_disabled":false,"rental_uris":{"android":"levelo://app?vid=360a4314-3695-4145-964d-47d5df65b28d","ios":"levelo://app?vid=360a4314-3695-4145-964d-47d5df65b28d"},"vehicle_type_id":"4","last_reported":1702832759,"current_range_meters":30000,"station_id":"ce4bhqp2rcd13ifvqhng","pricing_plan_id":"free"},{"bike_id":"fbd6ea71-825d-482d-9992-e720a56f3b32","system_id":"levelo_inurba_marseille","lat":43.317557,"lon":5.390173,"is_reserved":false,"is_disabled":false,"rental_uris":{"android":"levelo://app?vid=fbd6ea71-825d-482d-9992-e720a56f3b32","ios":"levelo://app?vid=fbd6ea71-825d-482d-9992-e720a56f3b32"},"vehicle_type_id":"4","last_reported":1702832759,"current_range_meters":29200,"station_id":"ce4bhqp2rcd13ifvqhng","pricing_plan_id":"free"},{"bike_id":"deb1bdc5-ec18-46a7-878e-6c9c5610557f","system_id":"levelo_inurba_marseille","lat":43.29807,"lon":5.38096,"is_reserved":false,"is_disabled":false,"rental_uris":{"android":"levelo://app?vid=deb1bdc5-ec18-46a7-878e-6c9c5610557f","ios":"levelo://app?vid=deb1bdc5-ec18-46a7-878e-6c9c5610557f"},"vehicle_type_id":"4","last_reported":1702832759,"current_range_meters":17600,"station_id":"ce4bgip2rcd13ifvqbb0","pricing_plan_id":"free"},{"bike_id":"70fed41b-62f7-462d-8761-44adca84d0b6","system_id":"levelo_inurba_marseille","lat":43.304274,"lon":5.388873,"is_reserved":false,"is_disabled":false,"rental_uris":{"android":"levelo://app?vid=70fed41b-62f7-462d-8761-44adca84d0b6","ios":"levelo://app?vid=70fed41b-62f7-462d-8761-44adca84d0b6"},"vehicle_type_id":"4","last_reported":1702832759,"current_range_meters":2800,"station_id":"ce4bgk12rcd13ifvqbi0","pricing_plan_id":"free"},{"bike_id":"63367178-583d-4cc0-a850-37a031081cac","system_id":"levelo_inurba_marseille","lat":43.295748,"lon":5.37522,"is_reserved":false,"is_disabled":false,"rental_uris":{"android":"levelo://app?vid=63367178-583d-4cc0-a850-37a031081cac","ios":"levelo://app?vid=63367178-583d-4cc0-a850-37a031081cac"},"vehicle_type_id":"4","last_reported":1702832759,"current_range_meters":0,"station_id":"ce4bgh92rcd13ifvqb50","pricing_plan_id":"free"},{"bike_id":"ca509711-27a6-453f-8fc1-26bf504eba57","system_id":"levelo_inurba_marseille","lat":43.29607,"lon":5.37717,"is_reserved":false,"is_disabled":false,"rental_uris":{"android":"levelo://app?vid=ca509711-27a6-453f-8fc1-26bf504eba57","ios":"levelo://app?vid=ca509711-27a6-453f-8fc1-26bf504eba57"},"vehicle_type_id":"4","last_reported":1702832759,"current_range_meters":0,"station_id":"ce4bgi92rcd13ifvqb90","pricing_plan_id":"free"},{"bike_id":"b6efd125-a44f-4a21-9bc0-a65e424e6187","system_id":"levelo_inurba_marseille","lat":43.299717,"lon":5.384845,"is_reserved":false,"is_disabled":false,"rental_uris":{"android":"levelo://app?vid=b6efd125-a44f-4a21-9bc0-a65e424e6187","ios":"levelo://app?vid=b6efd125-a44f-4a21-9bc0-a65e424e6187"},"vehicle_type_id":"4","last_reported":1702832759,"current_range_meters":9600,"station_id":"ce4bgj92rcd13ifvqbd0","pricing_plan_id":"free"},{"bike_id":"2e23f854-9bb2-432e-b9b2-3c3242468aeb","system_id":"levelo_inurba_marseille","lat":43.299724,"lon":5.384848,"is_reserved":false,"is_disabled":false,"rental_uris":{"android":"levelo://app?vid=2e23f854-9bb2-432e-b9b2-3c3242468aeb","ios":"levelo://app?vid=2e23f854-9bb2-432e-b9b2-3c3242468aeb"},"vehicle_type_id":"4","last_reported":1702832759,"current_range_meters":30000,"station_id":"ce4bgj92rcd13ifvqbd0","pricing_plan_id":"free"},{"bike_id":"da2bf830-8371-4987-8296-d78e324a9b5b","system_id":"levelo_inurba_marseille","lat":43.29637,"lon":5.37973,"is_reserved":false,"is_disabled":false,"rental_uris":{"android":"levelo://app?vid=da2bf830-8371-4987-8296-d78e324a9b5b","ios":"levelo://app?vid=da2bf830-8371-4987-8296-d78e324a9b5b"},"vehicle_type_id":"4","last_reported":1702832759,"current_range_meters":0,"station_id":"","pricing_plan_id":"free"},{"bike_id":"4a4346c1-5a2a-4d03-a561-701482b79d30","system_id":"levelo_inurba_marseille","lat":43.293249,"lon":5.371578,"is_reserved":false,"is_disabled":false,"rental_uris":{"android":"levelo://app?vid=4a4346c1-5a2a-4d03-a561-701482b79d30","ios":"levelo://app?vid=4a4346c1-5a2a-4d03-a561-701482b79d30"},"vehicle_type_id":"4","last_reported":1702832759,"current_range_meters":8800,"station_id":"ce4bgh92rcd13ifvqb40","pricing_plan_id":"free"},{"bike_id":"abe4b43c-0e36-4e18-98ee-128bd9ed678d","system_id":"levelo_inurba_marseille","lat":43.293249,"lon":5.371578,"is_reserved":false,"is_disabled":false,"rental_uris":{"android":"levelo://app?vid=abe4b43c-0e36-4e18-98ee-128bd9ed678d","ios":"levelo://app?vid=abe4b43c-0e36-4e18-98ee-128bd9ed678d"},"vehicle_type_id":"4","last_reported":1702832759,"current_range_meters":24000,"station_id":"ce4bgh92rcd13ifvqb40","pricing_plan_id":"free"},{"bike_id":"00be5986-43da-40b8-8cad-7f9bef62e899","system_id":"levelo_inurba_marseille","lat":43.303002,"lon":5.392142,"is_reserved":false,"is_disabled":false,"rental_uris":{"android":"levelo://app?vid=00be5986-43da-40b8-8cad-7f9bef62e899","ios":"levelo://app?vid=00be5986-43da-40b8-8cad-7f9bef62e899"},"vehicle_type_id":"4","last_reported":1702832759,"current_range_meters":9600,"station_id":"ce4bgkh2rcd13ifvqbk0","pricing_plan_id":"free"},{"bike_id":"7c9c3e5b-b831-4dfe-a88c-2b98591c2baa","system_id":"levelo_inurba_marseille","lat":43.30296,"lon":5.39207,"is_reserved":false,"is_disabled":false,"rental_uris":{"android":"levelo://app?vid=7c9c3e5b-b831-4dfe-a88c-2b98591c2baa","ios":"levelo://app?vid=7c9c3e5b-b831-4dfe-a88c-2b98591c2baa"},"vehicle_type_id":"4","last_reported":1702832759,"current_range_meters":28800,"station_id":"ce4bgkh2rcd13ifvqbk0","pricing_plan_id":"free"},{"bike_id":"7e517ae2-f985-451f-aee6-07f9ed33adb0","system_id":"levelo_inurba_marseille","lat":43.29356,"lon":5.37853,"is_reserved":false,"is_disabled":false,"rental_uris":{"android":"levelo://app?vid=7e517ae2-f985-451f-aee6-07f9ed33adb0","ios":"levelo://app?vid=7e517ae2-f985-451f-aee6-07f9ed33adb0"},"vehicle_type_id":"4","last_reported":1702832759,"current_range_meters":0,"station_id":"ce4bgjh2rcd13ifvqbf0","pricing_plan_id":"free"},{"bike_id":"ae68e902-74d4-4ce9-8dc6-9ae94f635bb8","system_id":"levelo_inurba_marseille","lat":43.292311,"lon":5.360731,"is_reserved":false,"is_disabled":false,"rental_uris":{"android":"levelo://app?vid=ae68e902-74d4-4ce9-8dc6-9ae94f635bb8","ios":"levelo://app?vid=ae68e902-74d4-4ce9-8dc6-9ae94f635bb8"},"vehicle_type_id":"4","last_reported":1702832759,"current_range_meters":0,"station_id":"ce4bhbh2rcd13ifvqeqg","pricing_plan_id":"free"},{"bike_id":"aba10e6c-b5a9-42b0-82ee-cae301c2b27c","system_id":"levelo_inurba_marseille","lat":43.300852,"lon":5.390859,"is_reserved":false,"is_disabled":false,"rental_uris":{"android":"levelo://app?vid=aba10e6c-b5a9-42b0-82ee-cae301c2b27c","ios":"levelo://app?vid=aba10e6c-b5a9-42b0-82ee-cae301c2b27c"},"vehicle_type_id":"4","last_reported":1702832759,"current_range_meters":21600,"station_id":"ce4bh192rcd13ifvqdb0","pricing_plan_id":"free"},{"bike_id":"6c548a8a-a4d2-4483-b320-562d59b0361c","system_id":"levelo_inurba_marseille","lat":43.29272,"lon":5.37638,"is_reserved":false,"is_disabled":false,"rental_uris":{"android":"levelo://app?vid=6c548a8a-a4d2-4483-b320-562d59b0361c","ios":"levelo://app?vid=6c548a8a-a4d2-4483-b320-562d59b0361c"},"vehicle_type_id":"4","last_reported":1702832759,"current_range_meters":4800,"station_id":"","pricing_plan_id":"free"},{"bike_id":"61da043f-1788-4124-9a37-63c2f8c8235f","system_id":"levelo_inurba_marseille","lat":43.291671,"lon":5.371575,"is_reserved":false,"is_disabled":false,"rental_uris":{"android":"levelo://app?vid=61da043f-1788-4124-9a37-63c2f8c8235f","ios":"levelo://app?vid=61da043f-1788-4124-9a37-63c2f8c8235f"},"vehicle_type_id":"4","last_reported":1702832759,"current_range_meters":15600,"station_id":"ce4bha92rcd13ifvqeh0","pricing_plan_id":"free"},{"bike_id":"dafb597f-c39f-4985-82a9-7fe00a734f09","system_id":"levelo_inurba_marseille","lat":43.291671,"lon":5.371575,"is_reserved":false,"is_disabled":false,"rental_uris":{"android":"levelo://app?vid=dafb597f-c39f-4985-82a9-7fe00a734f09","ios":"levelo://app?vid=dafb597f-c39f-4985-82a9-7fe00a734f09"},"vehicle_type_id":"4","last_reported":1702832759,"current_range_meters":7600,"station_id":"ce4bha92rcd13ifvqeh0","pricing_plan_id":"free"},{"bike_id":"14bcffe5-bb38-4d9e-975f-83e2ecc3578e","system_id":"levelo_inurba_marseille","lat":43.313307,"lon":5.39691,"is_reserved":false,"is_disabled":false,"rental_uris":{"android":"levelo://app?vid=14bcffe5-bb38-4d9e-975f-83e2ecc3578e","ios":"levelo://app?vid=14bcffe5-bb38-4d9e-975f-83e2ecc3578e"},"vehicle_type_id":"4","last_reported":1702832759,"current_range_meters":10000,"station_id":"ce4bgvp2rcd13ifvqcu0","pricing_plan_id":"free"},{"bike_id":"af0e3f33-33fd-4cfa-9307-5ebe4697f462","system_id":"levelo_inurba_marseille","lat":43.31331,"lon":5.39693,"is_reserved":false,"is_disabled":false,"rental_uris":{"android":"levelo://app?vid=af0e3f33-33fd-4cfa-9307-5ebe4697f462","ios":"levelo://app?vid=af0e3f33-33fd-4cfa-9307-5ebe4697f462"},"vehicle_type_id":"4","last_reported":1702832759,"current_range_meters":11600,"station_id":"ce4bgvp2rcd13ifvqcu0","pricing_plan_id":"free"},{"bike_id":"233d6dad-2293-4dd7-b307-467051e0fce4","system_id":"levelo_inurba_marseille","lat":43.31329,"lon":5.39694,"is_reserved":false,"is_disabled":false,"rental_uris":{"android":"levelo://app?vid=233d6dad-2293-4dd7-b307-467051e0fce4","ios":"levelo://app?vid=233d6dad-2293-4dd7-b307-467051e0fce4"},"vehicle_type_id":"4","last_reported":1702832759,"current_range_meters":0,"station_id":"ce4bgvp2rcd13ifvqcu0","pricing_plan_id":"free"},{"bike_id":"fbd06f64-320b-488c-8cb3-fcf6689df9d6","system_id":"levelo_inurba_marseille","lat":43.291671,"lon":5.371575,"is_reserved":false,"is_disabled":false,"rental_uris":{"android":"levelo://app?vid=fbd06f64-320b-488c-8cb3-fcf6689df9d6","ios":"levelo://app?vid=fbd06f64-320b-488c-8cb3-fcf6689df9d6"},"vehicle_type_id":"4","last_reported":1702832759,"current_range_meters":400,"station_id":"ce4bha92rcd13ifvqeh0","pricing_plan_id":"free"},{"bike_id":"895f8c67-d356-4973-bb70-c2c728b02926","system_id":"levelo_inurba_marseille","lat":43.309047,"lon":5.396551,"is_reserved":false,"is_disabled":false,"rental_uris":{"android":"levelo://app?vid=895f8c67-d356-4973-bb70-c2c728b02926","ios":"levelo://app?vid=895f8c67-d356-4973-bb70-c2c728b02926"},"vehicle_type_id":"4","last_reported":1702832759,"current_range_meters":9200,"station_id":"ce4bh012rcd13ifvqcv0","pricing_plan_id":"free"},{"bike_id":"18b16cef-2e98-4a04-be42-5c4383f52162","system_id":"levelo_inurba_marseille","lat":43.29529,"lon":5.385581,"is_reserved":false,"is_disabled":false,"rental_uris":{"android":"levelo://app?vid=18b16cef-2e98-4a04-be42-5c4383f52162","ios":"levelo://app?vid=18b16cef-2e98-4a04-be42-5c4383f52162"},"vehicle_type_id":"4","last_reported":1702832759,"current_range_meters":16400,"station_id":"ce4bgih2rcd13ifvqba0","pricing_plan_id":"free"},{"bike_id":"ceb41573-d240-439b-900d-1b1ff9392d29","system_id":"levelo_inurba_marseille","lat":43.302008,"lon":5.394694,"is_reserved":false,"is_disabled":false,"rental_uris":{"android":"levelo://app?vid=ceb41573-d240-439b-900d-1b1ff9392d29","ios":"levelo://app?vid=ceb41573-d240-439b-900d-1b1ff9392d29"},"vehicle_type_id":"4","last_reported":1702832759,"current_range_meters":2400,"station_id":"ce4bh0p2rcd13ifvqd70","pricing_plan_id":"free"},{"bike_id":"93d1c0e9-d2d7-465f-b737-6e84e5e73a0a","system_id":"levelo_inurba_marseille","lat":43.290327,"lon":5.375711,"is_reserved":false,"is_disabled":false,"rental_uris":{"android":"levelo://app?vid=93d1c0e9-d2d7-465f-b737-6e84e5e73a0a","ios":"levelo://app?vid=93d1c0e9-d2d7-465f-b737-6e84e5e73a0a"},"vehicle_type_id":"4","last_reported":1702832759,"current_range_meters":22400,"station_id":"ce4bh692rcd13ifvqe90","pricing_plan_id":"free"},{"bike_id":"e68d4688-b341-41af-80a9-176b19508232","system_id":"levelo_inurba_marseille","lat":43.294153,"lon":5.386305,"is_reserved":false,"is_disabled":false,"rental_uris":{"android":"levelo://app?vid=e68d4688-b341-41af-80a9-176b19508232","ios":"levelo://app?vid=e68d4688-b341-41af-80a9-176b19508232"},"vehicle_type_id":"4","last_reported":1702832759,"current_range_meters":16000,"station_id":"ce4bh2h2rcd13ifvqdh0","pricing_plan_id":"free"},{"bike_id":"96b3639d-2097-46de-989e-bb136687eec4","system_id":"levelo_inurba_marseille","lat":43.304296,"lon":5.397513,"is_reserved":false,"is_disabled":false,"rental_uris":{"android":"levelo://app?vid=96b3639d-2097-46de-989e-bb136687eec4","ios":"levelo://app?vid=96b3639d-2097-46de-989e-bb136687eec4"},"vehicle_type_id":"4","last_reported":1702832759,"current_range_meters":10400,"station_id":"ce4bh092rcd13ifvqd20","pricing_plan_id":"free"},{"bike_id":"72536557-7744-42ad-8f13-d6968c0c77f9","system_id":"levelo_inurba_marseille","lat":43.292642,"lon":5.384254,"is_reserved":false,"is_disabled":false,"rental_uris":{"android":"levelo://app?vid=72536557-7744-42ad-8f13-d6968c0c77f9","ios":"levelo://app?vid=72536557-7744-42ad-8f13-d6968c0c77f9"},"vehicle_type_id":"4","last_reported":1702832759,"current_range_meters":0,"station_id":"ce4bh692rcd13ifvqea0","pricing_plan_id":"free"},{"bike_id":"c9027b31-8580-462a-9e01-edb9b9c86bfd","system_id":"levelo_inurba_marseille","lat":43.292642,"lon":5.384254,"is_reserved":false,"is_disabled":false,"rental_uris":{"android":"levelo://app?vid=c9027b31-8580-462a-9e01-edb9b9c86bfd","ios":"levelo://app?vid=c9027b31-8580-462a-9e01-edb9b9c86bfd"},"vehicle_type_id":"4","last_reported":1702832759,"current_range_meters":18800,"station_id":"ce4bh692rcd13ifvqea0","pricing_plan_id":"free"},{"bike_id":"d8de9e6b-3cfc-48f0-969d-ac2d7a053e66","system_id":"levelo_inurba_marseille","lat":43.292642,"lon":5.384254,"is_reserved":false,"is_disabled":false,"rental_uris":{"android":"levelo://app?vid=d8de9e6b-3cfc-48f0-969d-ac2d7a053e66","ios":"levelo://app?vid=d8de9e6b-3cfc-48f0-969d-ac2d7a053e66"},"vehicle_type_id":"4","last_reported":1702832759,"current_range_meters":4000,"station_id":"ce4bh692rcd13ifvqea0","pricing_plan_id":"free"},{"bike_id":"bb1144f8-d89e-4d2c-b71a-212a8211b4e6","system_id":"levelo_inurba_marseille","lat":43.29255,"lon":5.38452,"is_reserved":false,"is_disabled":false,"rental_uris":{"android":"levelo://app?vid=bb1144f8-d89e-4d2c-b71a-212a8211b4e6","ios":"levelo://app?vid=bb1144f8-d89e-4d2c-b71a-212a8211b4e6"},"vehicle_type_id":"4","last_reported":1702832759,"current_range_meters":0,"station_id":"ce4bh692rcd13ifvqea0","pricing_plan_id":"free"},{"bike_id":"4307e344-f1ed-4ce2-940a-81d309d06930","system_id":"levelo_inurba_marseille","lat":43.33044,"lon":5.38921,"is_reserved":false,"is_disabled":false,"rental_uris":{"android":"levelo://app?vid=4307e344-f1ed-4ce2-940a-81d309d06930","ios":"levelo://app?vid=4307e344-f1ed-4ce2-940a-81d309d06930"},"vehicle_type_id":"4","last_reported":1702832759,"current_range_meters":18400,"station_id":"ce4bhr92rcd13ifvqhrg","pricing_plan_id":"free"},{"bike_id":"5fa34a05-5c55-4873-a568-038c0fe9a5d6","system_id":"levelo_inurba_marseille","lat":43.33044,"lon":5.38923,"is_reserved":false,"is_disabled":false,"rental_uris":{"android":"levelo://app?vid=5fa34a05-5c55-4873-a568-038c0fe9a5d6","ios":"levelo://app?vid=5fa34a05-5c55-4873-a568-038c0fe9a5d6"},"vehicle_type_id":"4","last_reported":1702832759,"current_range_meters":11200,"station_id":"ce4bhr92rcd13ifvqhrg","pricing_plan_id":"free"},{"bike_id":"5e34ed2c-bf38-40ae-a8cb-00f085f8e568","system_id":"levelo_inurba_marseille","lat":43.29158,"lon":5.382897,"is_reserved":false,"is_disabled":false,"rental_uris":{"android":"levelo://app?vid=5e34ed2c-bf38-40ae-a8cb-00f085f8e568","ios":"levelo://app?vid=5e34ed2c-bf38-40ae-a8cb-00f085f8e568"},"vehicle_type_id":"4","last_reported":1702832759,"current_range_meters":0,"station_id":"","pricing_plan_id":"free"},{"bike_id":"ebee04b5-5d6f-4289-980d-69e0698d9b10","system_id":"levelo_inurba_marseille","lat":43.297815,"lon":5.393548,"is_reserved":false,"is_disabled":false,"rental_uris":{"android":"levelo://app?vid=ebee04b5-5d6f-4289-980d-69e0698d9b10","ios":"levelo://app?vid=ebee04b5-5d6f-4289-980d-69e0698d9b10"},"vehicle_type_id":"4","last_reported":1702832759,"current_range_meters":6400,"station_id":"chh1huq6cuj3fo74tm60","pricing_plan_id":"free"},{"bike_id":"423b0908-55b8-4ed9-b9f1-a608635a3de9","system_id":"levelo_inurba_marseille","lat":43.297815,"lon":5.393548,"is_reserved":false,"is_disabled":false,"rental_uris":{"android":"levelo://app?vid=423b0908-55b8-4ed9-b9f1-a608635a3de9","ios":"levelo://app?vid=423b0908-55b8-4ed9-b9f1-a608635a3de9"},"vehicle_type_id":"4","last_reported":1702832759,"current_range_meters":1600,"station_id":"chh1huq6cuj3fo74tm60","pricing_plan_id":"free"},{"bike_id":"27371b33-fe33-4f1d-ae9d-806609b20732","system_id":"levelo_inurba_marseille","lat":43.31268,"lon":5.40168,"is_reserved":false,"is_disabled":false,"rental_uris":{"android":"levelo://app?vid=27371b33-fe33-4f1d-ae9d-806609b20732","ios":"levelo://app?vid=27371b33-fe33-4f1d-ae9d-806609b20732"},"vehicle_type_id":"4","last_reported":1702832759,"current_range_meters":5200,"station_id":"ce4bh092rcd13ifvqd30","pricing_plan_id":"free"},{"bike_id":"f0cd831c-cfb9-44c7-9487-103b6df223ca","system_id":"levelo_inurba_marseille","lat":43.337445,"lon":5.374592,"is_reserved":false,"is_disabled":false,"rental_uris":{"android":"levelo://app?vid=f0cd831c-cfb9-44c7-9487-103b6df223ca","ios":"levelo://app?vid=f0cd831c-cfb9-44c7-9487-103b6df223ca"},"vehicle_type_id":"4","last_reported":1702832759,"current_range_meters":24800,"station_id":"","pricing_plan_id":"free"},{"bike_id":"2c5a9b3a-4c51-4106-ab9e-80f7930dc88e","system_id":"levelo_inurba_marseille","lat":43.312715,"lon":5.401827,"is_reserved":false,"is_disabled":false,"rental_uris":{"android":"levelo://app?vid=2c5a9b3a-4c51-4106-ab9e-80f7930dc88e","ios":"levelo://app?vid=2c5a9b3a-4c51-4106-ab9e-80f7930dc88e"},"vehicle_type_id":"4","last_reported":1702832759,"current_range_meters":30000,"station_id":"","pricing_plan_id":"free"},{"bike_id":"ef80ceab-dc9f-4b6c-8f52-707d5177f481","system_id":"levelo_inurba_marseille","lat":43.33752,"lon":5.37466,"is_reserved":false,"is_disabled":false,"rental_uris":{"android":"levelo://app?vid=ef80ceab-dc9f-4b6c-8f52-707d5177f481","ios":"levelo://app?vid=ef80ceab-dc9f-4b6c-8f52-707d5177f481"},"vehicle_type_id":"4","last_reported":1702832759,"current_range_meters":24400,"station_id":"","pricing_plan_id":"free"},{"bike_id":"74029e47-c92e-4a09-93e2-966e816bf173","system_id":"levelo_inurba_marseille","lat":43.33763,"lon":5.37486,"is_reserved":false,"is_disabled":false,"rental_uris":{"android":"levelo://app?vid=74029e47-c92e-4a09-93e2-966e816bf173","ios":"levelo://app?vid=74029e47-c92e-4a09-93e2-966e816bf173"},"vehicle_type_id":"4","last_reported":1702832759,"current_range_meters":28000,"station_id":"","pricing_plan_id":"free"},{"bike_id":"920b2591-eec9-47f2-9170-b5d81d5c2577","system_id":"levelo_inurba_marseille","lat":43.306412,"lon":5.401035,"is_reserved":false,"is_disabled":false,"rental_uris":{"android":"levelo://app?vid=920b2591-eec9-47f2-9170-b5d81d5c2577","ios":"levelo://app?vid=920b2591-eec9-47f2-9170-b5d81d5c2577"},"vehicle_type_id":"4","last_reported":1702832759,"current_range_meters":17600,"station_id":"ce4bh112rcd13ifvqda0","pricing_plan_id":"free"},{"bike_id":"f7526b42-1813-41eb-97fb-308f8713b1e0","system_id":"levelo_inurba_marseille","lat":43.28727,"lon":5.36078,"is_reserved":false,"is_disabled":false,"rental_uris":{"android":"levelo://app?vid=f7526b42-1813-41eb-97fb-308f8713b1e0","ios":"levelo://app?vid=f7526b42-1813-41eb-97fb-308f8713b1e0"},"vehicle_type_id":"4","last_reported":1702832759,"current_range_meters":14400,"station_id":"cki0cbj6b192h4jlfktg","pricing_plan_id":"free"},{"bike_id":"1d7fba60-d017-498a-b7d6-b4667762edef","system_id":"levelo_inurba_marseille","lat":43.286591,"lon":5.363346,"is_reserved":false,"is_disabled":false,"rental_uris":{"android":"levelo://app?vid=1d7fba60-d017-498a-b7d6-b4667762edef","ios":"levelo://app?vid=1d7fba60-d017-498a-b7d6-b4667762edef"},"vehicle_type_id":"4","last_reported":1702832759,"current_range_meters":12000,"station_id":"ce4bhah2rcd13ifvqej0","pricing_plan_id":"free"},{"bike_id":"19fd10cf-d7cc-421e-9d7d-c1a952d7dda7","system_id":"levelo_inurba_marseille","lat":43.286591,"lon":5.363346,"is_reserved":false,"is_disabled":false,"rental_uris":{"android":"levelo://app?vid=19fd10cf-d7cc-421e-9d7d-c1a952d7dda7","ios":"levelo://app?vid=19fd10cf-d7cc-421e-9d7d-c1a952d7dda7"},"vehicle_type_id":"4","last_reported":1702832759,"current_range_meters":8000,"station_id":"ce4bhah2rcd13ifvqej0","pricing_plan_id":"free"},{"bike_id":"1ce842ee-8d0a-4c7f-a04b-8a8d6ff39f68","system_id":"levelo_inurba_marseille","lat":43.286591,"lon":5.363346,"is_reserved":false,"is_disabled":false,"rental_uris":{"android":"levelo://app?vid=1ce842ee-8d0a-4c7f-a04b-8a8d6ff39f68","ios":"levelo://app?vid=1ce842ee-8d0a-4c7f-a04b-8a8d6ff39f68"},"vehicle_type_id":"4","last_reported":1702832759,"current_range_meters":2400,"station_id":"ce4bhah2rcd13ifvqej0","pricing_plan_id":"free"},{"bike_id":"b794c39c-ca77-477b-88a6-6b77c0cd6ca5","system_id":"levelo_inurba_marseille","lat":43.295196,"lon":5.39397,"is_reserved":false,"is_disabled":false,"rental_uris":{"android":"levelo://app?vid=b794c39c-ca77-477b-88a6-6b77c0cd6ca5","ios":"levelo://app?vid=b794c39c-ca77-477b-88a6-6b77c0cd6ca5"},"vehicle_type_id":"4","last_reported":1702832759,"current_range_meters":25600,"station_id":"ce4bh292rcd13ifvqdf0","pricing_plan_id":"free"},{"bike_id":"deb47c49-7f59-45b1-a9ec-9a69b0f3f5c1","system_id":"levelo_inurba_marseille","lat":43.29031,"lon":5.3865,"is_reserved":false,"is_disabled":false,"rental_uris":{"android":"levelo://app?vid=deb47c49-7f59-45b1-a9ec-9a69b0f3f5c1","ios":"levelo://app?vid=deb47c49-7f59-45b1-a9ec-9a69b0f3f5c1"},"vehicle_type_id":"4","last_reported":1702832759,"current_range_meters":0,"station_id":"ce4bh4p2rcd13ifvqe0g","pricing_plan_id":"free"},{"bike_id":"abb35885-8a0b-4252-bc13-c34701014a6c","system_id":"levelo_inurba_marseille","lat":43.29028,"lon":5.38645,"is_reserved":false,"is_disabled":false,"rental_uris":{"android":"levelo://app?vid=abb35885-8a0b-4252-bc13-c34701014a6c","ios":"levelo://app?vid=abb35885-8a0b-4252-bc13-c34701014a6c"},"vehicle_type_id":"4","last_reported":1702832759,"current_range_meters":28000,"station_id":"ce4bh4p2rcd13ifvqe0g","pricing_plan_id":"free"},{"bike_id":"7137bca0-de3a-430c-9f6e-ed334d56d940","system_id":"levelo_inurba_marseille","lat":43.29026,"lon":5.38645,"is_reserved":false,"is_disabled":false,"rental_uris":{"android":"levelo://app?vid=7137bca0-de3a-430c-9f6e-ed334d56d940","ios":"levelo://app?vid=7137bca0-de3a-430c-9f6e-ed334d56d940"},"vehicle_type_id":"4","last_reported":1702832759,"current_range_meters":8800,"station_id":"ce4bh4p2rcd13ifvqe0g","pricing_plan_id":"free"},{"bike_id":"ae411ccc-e5cf-4858-949f-adb160516584","system_id":"levelo_inurba_marseille","lat":43.302759,"lon":5.400793,"is_reserved":false,"is_disabled":false,"rental_uris":{"android":"levelo://app?vid=ae411ccc-e5cf-4858-949f-adb160516584","ios":"levelo://app?vid=ae411ccc-e5cf-4858-949f-adb160516584"},"vehicle_type_id":"4","last_reported":1702832759,"current_range_meters":14800,"station_id":"ce4bgvh2rcd13ifvqcs0","pricing_plan_id":"free"},{"bike_id":"d20c8db5-9005-4cb8-93a5-d2f3516c6ae2","system_id":"levelo_inurba_marseille","lat":43.29025,"lon":5.38645,"is_reserved":false,"is_disabled":false,"rental_uris":{"android":"levelo://app?vid=d20c8db5-9005-4cb8-93a5-d2f3516c6ae2","ios":"levelo://app?vid=d20c8db5-9005-4cb8-93a5-d2f3516c6ae2"},"vehicle_type_id":"4","last_reported":1702832759,"current_range_meters":3200,"station_id":"ce4bh4p2rcd13ifvqe0g","pricing_plan_id":"free"},{"bike_id":"2d21dbdb-3b92-4413-9b0c-b164d436d69f","system_id":"levelo_inurba_marseille","lat":43.2902,"lon":5.38639,"is_reserved":false,"is_disabled":false,"rental_uris":{"android":"levelo://app?vid=2d21dbdb-3b92-4413-9b0c-b164d436d69f","ios":"levelo://app?vid=2d21dbdb-3b92-4413-9b0c-b164d436d69f"},"vehicle_type_id":"4","last_reported":1702832759,"current_range_meters":13600,"station_id":"ce4bh4p2rcd13ifvqe0g","pricing_plan_id":"free"},{"bike_id":"68e01489-7e07-41ee-b9cf-2c45e1c8b3f3","system_id":"levelo_inurba_marseille","lat":43.290345,"lon":5.38646,"is_reserved":false,"is_disabled":false,"rental_uris":{"android":"levelo://app?vid=68e01489-7e07-41ee-b9cf-2c45e1c8b3f3","ios":"levelo://app?vid=68e01489-7e07-41ee-b9cf-2c45e1c8b3f3"},"vehicle_type_id":"4","last_reported":1702832759,"current_range_meters":19600,"station_id":"ce4bh4p2rcd13ifvqe0g","pricing_plan_id":"free"},{"bike_id":"16b07af7-cfbc-4882-bf50-26545d65ad93","system_id":"levelo_inurba_marseille","lat":43.290272,"lon":5.3866,"is_reserved":false,"is_disabled":false,"rental_uris":{"android":"levelo://app?vid=16b07af7-cfbc-4882-bf50-26545d65ad93","ios":"levelo://app?vid=16b07af7-cfbc-4882-bf50-26545d65ad93"},"vehicle_type_id":"4","last_reported":1702832759,"current_range_meters":8800,"station_id":"ce4bh4p2rcd13ifvqe0g","pricing_plan_id":"free"},{"bike_id":"df99e05d-4278-4cf2-b9cd-68787470367c","system_id":"levelo_inurba_marseille","lat":43.302759,"lon":5.400793,"is_reserved":false,"is_disabled":false,"rental_uris":{"android":"levelo://app?vid=df99e05d-4278-4cf2-b9cd-68787470367c","ios":"levelo://app?vid=df99e05d-4278-4cf2-b9cd-68787470367c"},"vehicle_type_id":"4","last_reported":1702832759,"current_range_meters":14400,"station_id":"ce4bgvh2rcd13ifvqcs0","pricing_plan_id":"free"},{"bike_id":"14e8e455-c02b-421e-9d29-fa7f18189ee2","system_id":"levelo_inurba_marseille","lat":43.302759,"lon":5.400793,"is_reserved":false,"is_disabled":false,"rental_uris":{"android":"levelo://app?vid=14e8e455-c02b-421e-9d29-fa7f18189ee2","ios":"levelo://app?vid=14e8e455-c02b-421e-9d29-fa7f18189ee2"},"vehicle_type_id":"4","last_reported":1702832759,"current_range_meters":15200,"station_id":"ce4bgvh2rcd13ifvqcs0","pricing_plan_id":"free"},{"bike_id":"445f3065-44a6-427f-bde2-e724b1c5b7be","system_id":"levelo_inurba_marseille","lat":43.302759,"lon":5.400793,"is_reserved":false,"is_disabled":false,"rental_uris":{"android":"levelo://app?vid=445f3065-44a6-427f-bde2-e724b1c5b7be","ios":"levelo://app?vid=445f3065-44a6-427f-bde2-e724b1c5b7be"},"vehicle_type_id":"4","last_reported":1702832759,"current_range_meters":14000,"station_id":"ce4bgvh2rcd13ifvqcs0","pricing_plan_id":"free"},{"bike_id":"aba1496d-42e9-4e62-b74f-81d2ca27982a","system_id":"levelo_inurba_marseille","lat":43.291994,"lon":5.392907,"is_reserved":false,"is_disabled":false,"rental_uris":{"android":"levelo://app?vid=aba1496d-42e9-4e62-b74f-81d2ca27982a","ios":"levelo://app?vid=aba1496d-42e9-4e62-b74f-81d2ca27982a"},"vehicle_type_id":"4","last_reported":1702832759,"current_range_meters":9200,"station_id":"ce4bh192rcd13ifvqdd0","pricing_plan_id":"free"},{"bike_id":"2a553197-7fdc-452f-a9e1-4c9e00d5a090","system_id":"levelo_inurba_marseille","lat":43.286039,"lon":5.370679,"is_reserved":false,"is_disabled":false,"rental_uris":{"android":"levelo://app?vid=2a553197-7fdc-452f-a9e1-4c9e00d5a090","ios":"levelo://app?vid=2a553197-7fdc-452f-a9e1-4c9e00d5a090"},"vehicle_type_id":"4","last_reported":1702832759,"current_range_meters":29600,"station_id":"ce4bht12rcd13ifvqi60","pricing_plan_id":"free"},{"bike_id":"5a7e2d09-840e-47e1-b851-4a3fc46fb06e","system_id":"levelo_inurba_marseille","lat":43.284538,"lon":5.358657,"is_reserved":false,"is_disabled":false,"rental_uris":{"android":"levelo://app?vid=5a7e2d09-840e-47e1-b851-4a3fc46fb06e","ios":"levelo://app?vid=5a7e2d09-840e-47e1-b851-4a3fc46fb06e"},"vehicle_type_id":"4","last_reported":1702832759,"current_range_meters":4000,"station_id":"ce4bhah2rcd13ifvqei0","pricing_plan_id":"free"},{"bike_id":"6df6c1be-7ad0-4ee9-b8fc-cc9e8381b68c","system_id":"levelo_inurba_marseille","lat":43.294314,"lon":5.397498,"is_reserved":false,"is_disabled":false,"rental_uris":{"android":"levelo://app?vid=6df6c1be-7ad0-4ee9-b8fc-cc9e8381b68c","ios":"levelo://app?vid=6df6c1be-7ad0-4ee9-b8fc-cc9e8381b68c"},"vehicle_type_id":"4","last_reported":1702832759,"current_range_meters":16000,"station_id":"ce4bh3h2rcd13ifvqdo0","pricing_plan_id":"free"},{"bike_id":"ee851100-0a75-4ec4-81e2-b41398123288","system_id":"levelo_inurba_marseille","lat":43.283998,"lon":5.375062,"is_reserved":false,"is_disabled":false,"rental_uris":{"android":"levelo://app?vid=ee851100-0a75-4ec4-81e2-b41398123288","ios":"levelo://app?vid=ee851100-0a75-4ec4-81e2-b41398123288"},"vehicle_type_id":"4","last_reported":1702832759,"current_range_meters":400,"station_id":"ce4bh412rcd13ifvqds0","pricing_plan_id":"free"},{"bike_id":"a7e2187b-efbe-4c54-bbf2-0d9d9de30506","system_id":"levelo_inurba_marseille","lat":43.33318,"lon":5.39598,"is_reserved":false,"is_disabled":false,"rental_uris":{"android":"levelo://app?vid=a7e2187b-efbe-4c54-bbf2-0d9d9de30506","ios":"levelo://app?vid=a7e2187b-efbe-4c54-bbf2-0d9d9de30506"},"vehicle_type_id":"4","last_reported":1702832759,"current_range_meters":15600,"station_id":"","pricing_plan_id":"free"},{"bike_id":"6184ff31-b9a9-41c3-8718-48277263be70","system_id":"levelo_inurba_marseille","lat":43.286719,"lon":5.386744,"is_reserved":false,"is_disabled":false,"rental_uris":{"android":"levelo://app?vid=6184ff31-b9a9-41c3-8718-48277263be70","ios":"levelo://app?vid=6184ff31-b9a9-41c3-8718-48277263be70"},"vehicle_type_id":"4","last_reported":1702832759,"current_range_meters":20000,"station_id":"","pricing_plan_id":"free"},{"bike_id":"d6284a72-130c-4768-bc08-1087913f919c","system_id":"levelo_inurba_marseille","lat":43.28361,"lon":5.37524,"is_reserved":false,"is_disabled":false,"rental_uris":{"android":"levelo://app?vid=d6284a72-130c-4768-bc08-1087913f919c","ios":"levelo://app?vid=d6284a72-130c-4768-bc08-1087913f919c"},"vehicle_type_id":"4","last_reported":1702832759,"current_range_meters":9200,"station_id":"ce4bh412rcd13ifvqds0","pricing_plan_id":"free"},{"bike_id":"2cb701ef-f18f-47dc-b9c4-5daceb95f527","system_id":"levelo_inurba_marseille","lat":43.28655,"lon":5.38669,"is_reserved":false,"is_disabled":false,"rental_uris":{"android":"levelo://app?vid=2cb701ef-f18f-47dc-b9c4-5daceb95f527","ios":"levelo://app?vid=2cb701ef-f18f-47dc-b9c4-5daceb95f527"},"vehicle_type_id":"4","last_reported":1702832759,"current_range_meters":0,"station_id":"ce4bh492rcd13ifvqdug","pricing_plan_id":"free"},{"bike_id":"f987e058-ea9b-4827-a0cf-e9075c7a7205","system_id":"levelo_inurba_marseille","lat":43.319179,"lon":5.407725,"is_reserved":false,"is_disabled":false,"rental_uris":{"android":"levelo://app?vid=f987e058-ea9b-4827-a0cf-e9075c7a7205","ios":"levelo://app?vid=f987e058-ea9b-4827-a0cf-e9075c7a7205"},"vehicle_type_id":"4","last_reported":1702832759,"current_range_meters":31200,"station_id":"ce4bhq12rcd13ifvqhig","pricing_plan_id":"free"},{"bike_id":"f0bac6b4-697c-4401-8735-0e9aa9c27630","system_id":"levelo_inurba_marseille","lat":43.319179,"lon":5.407725,"is_reserved":false,"is_disabled":false,"rental_uris":{"android":"levelo://app?vid=f0bac6b4-697c-4401-8735-0e9aa9c27630","ios":"levelo://app?vid=f0bac6b4-697c-4401-8735-0e9aa9c27630"},"vehicle_type_id":"4","last_reported":1702832759,"current_range_meters":9600,"station_id":"ce4bhq12rcd13ifvqhig","pricing_plan_id":"free"},{"bike_id":"2dfa5049-0e1b-4839-b5c3-156910a65dbd","system_id":"levelo_inurba_marseille","lat":43.33238,"lon":5.39852,"is_reserved":false,"is_disabled":false,"rental_uris":{"android":"levelo://app?vid=2dfa5049-0e1b-4839-b5c3-156910a65dbd","ios":"levelo://app?vid=2dfa5049-0e1b-4839-b5c3-156910a65dbd"},"vehicle_type_id":"4","last_reported":1702832759,"current_range_meters":6000,"station_id":"","pricing_plan_id":"free"},{"bike_id":"7ddc40b6-3f24-4052-acd6-c17556a9a0ce","system_id":"levelo_inurba_marseille","lat":43.28476,"lon":5.38412,"is_reserved":false,"is_disabled":false,"rental_uris":{"android":"levelo://app?vid=7ddc40b6-3f24-4052-acd6-c17556a9a0ce","ios":"levelo://app?vid=7ddc40b6-3f24-4052-acd6-c17556a9a0ce"},"vehicle_type_id":"4","last_reported":1702832759,"current_range_meters":0,"station_id":"ce4bh512rcd13ifvqe3g","pricing_plan_id":"free"},{"bike_id":"5594421e-f599-4be7-8ae7-643370497ecc","system_id":"levelo_inurba_marseille","lat":43.295279,"lon":5.375048,"is_reserved":false,"is_disabled":false,"rental_uris":{"android":"levelo://app?vid=5594421e-f599-4be7-8ae7-643370497ecc","ios":"levelo://app?vid=5594421e-f599-4be7-8ae7-643370497ecc"},"vehicle_type_id":"4","last_reported":1702832759,"current_range_meters":0,"station_id":"ce4bgkp2rcd13ifvqbmg","pricing_plan_id":"free"},{"bike_id":"40a3ecc6-5c22-434d-8b5f-80acf6c190a7","system_id":"levelo_inurba_marseille","lat":43.289363,"lon":5.396322,"is_reserved":false,"is_disabled":false,"rental_uris":{"android":"levelo://app?vid=40a3ecc6-5c22-434d-8b5f-80acf6c190a7","ios":"levelo://app?vid=40a3ecc6-5c22-434d-8b5f-80acf6c190a7"},"vehicle_type_id":"4","last_reported":1702832759,"current_range_meters":1600,"station_id":"ce4bh3h2rcd13ifvqdn0","pricing_plan_id":"free"},{"bike_id":"1a5d31e6-e65c-4166-862c-73d94a72e9bd","system_id":"levelo_inurba_marseille","lat":43.289363,"lon":5.396322,"is_reserved":false,"is_disabled":false,"rental_uris":{"android":"levelo://app?vid=1a5d31e6-e65c-4166-862c-73d94a72e9bd","ios":"levelo://app?vid=1a5d31e6-e65c-4166-862c-73d94a72e9bd"},"vehicle_type_id":"4","last_reported":1702832759,"current_range_meters":9200,"station_id":"ce4bh3h2rcd13ifvqdn0","pricing_plan_id":"free"},{"bike_id":"d8c3cdf1-f725-46b6-a955-53ff7b9d33d8","system_id":"levelo_inurba_marseille","lat":43.282744,"lon":5.350533,"is_reserved":false,"is_disabled":false,"rental_uris":{"android":"levelo://app?vid=d8c3cdf1-f725-46b6-a955-53ff7b9d33d8","ios":"levelo://app?vid=d8c3cdf1-f725-46b6-a955-53ff7b9d33d8"},"vehicle_type_id":"4","last_reported":1702832759,"current_range_meters":25200,"station_id":"ce4bhbp2rcd13ifvqerg","pricing_plan_id":"free"},{"bike_id":"9ea4e32a-a9f0-42f0-b92c-b14b3700a8c2","system_id":"levelo_inurba_marseille","lat":43.296263,"lon":5.40601,"is_reserved":false,"is_disabled":false,"rental_uris":{"android":"levelo://app?vid=9ea4e32a-a9f0-42f0-b92c-b14b3700a8c2","ios":"levelo://app?vid=9ea4e32a-a9f0-42f0-b92c-b14b3700a8c2"},"vehicle_type_id":"4","last_reported":1702832759,"current_range_meters":8400,"station_id":"ce4bh0h2rcd13ifvqd60","pricing_plan_id":"free"},{"bike_id":"9f9da822-066f-4aaa-9d1a-d976c3544b17","system_id":"levelo_inurba_marseille","lat":43.281044,"lon":5.378308,"is_reserved":false,"is_disabled":false,"rental_uris":{"android":"levelo://app?vid=9f9da822-066f-4aaa-9d1a-d976c3544b17","ios":"levelo://app?vid=9f9da822-066f-4aaa-9d1a-d976c3544b17"},"vehicle_type_id":"4","last_reported":1702832759,"current_range_meters":15200,"station_id":"ce4bha12rcd13ifvqee0","pricing_plan_id":"free"},{"bike_id":"3115d407-352c-4897-be8d-ee50cb625a49","system_id":"levelo_inurba_marseille","lat":43.281044,"lon":5.378308,"is_reserved":false,"is_disabled":false,"rental_uris":{"android":"levelo://app?vid=3115d407-352c-4897-be8d-ee50cb625a49","ios":"levelo://app?vid=3115d407-352c-4897-be8d-ee50cb625a49"},"vehicle_type_id":"4","last_reported":1702832759,"current_range_meters":10800,"station_id":"ce4bha12rcd13ifvqee0","pricing_plan_id":"free"},{"bike_id":"b1bba2b6-372d-49dd-b13b-1b4d710db23d","system_id":"levelo_inurba_marseille","lat":43.32405,"lon":5.4097,"is_reserved":false,"is_disabled":false,"rental_uris":{"android":"levelo://app?vid=b1bba2b6-372d-49dd-b13b-1b4d710db23d","ios":"levelo://app?vid=b1bba2b6-372d-49dd-b13b-1b4d710db23d"},"vehicle_type_id":"4","last_reported":1702832759,"current_range_meters":31200,"station_id":"","pricing_plan_id":"free"},{"bike_id":"d4beafb5-5eff-454d-8012-a7202c1601b6","system_id":"levelo_inurba_marseille","lat":43.284462,"lon":5.392121,"is_reserved":false,"is_disabled":false,"rental_uris":{"android":"levelo://app?vid=d4beafb5-5eff-454d-8012-a7202c1601b6","ios":"levelo://app?vid=d4beafb5-5eff-454d-8012-a7202c1601b6"},"vehicle_type_id":"4","last_reported":1702832759,"current_range_meters":15600,"station_id":"ce4bhoh2rcd13ifvqh5g","pricing_plan_id":"free"},{"bike_id":"ba23a49f-f752-40f9-b881-d731ba920e07","system_id":"levelo_inurba_marseille","lat":43.326605,"lon":5.409903,"is_reserved":false,"is_disabled":false,"rental_uris":{"android":"levelo://app?vid=ba23a49f-f752-40f9-b881-d731ba920e07","ios":"levelo://app?vid=ba23a49f-f752-40f9-b881-d731ba920e07"},"vehicle_type_id":"4","last_reported":1702832759,"current_range_meters":13200,"station_id":"ce4bhpp2rcd13ifvqhgg","pricing_plan_id":"free"},{"bike_id":"da835cd2-aed8-438a-a1e4-b9361d79567b","system_id":"levelo_inurba_marseille","lat":43.27906,"lon":5.38008,"is_reserved":false,"is_disabled":false,"rental_uris":{"android":"levelo://app?vid=da835cd2-aed8-438a-a1e4-b9361d79567b","ios":"levelo://app?vid=da835cd2-aed8-438a-a1e4-b9361d79567b"},"vehicle_type_id":"4","last_reported":1702832759,"current_range_meters":18000,"station_id":"ce4bhf92rcd13ifvqf50","pricing_plan_id":"free"},{"bike_id":"af979730-4a28-410e-ac01-1fb4c3adb00b","system_id":"levelo_inurba_marseille","lat":43.279087,"lon":5.380114,"is_reserved":false,"is_disabled":false,"rental_uris":{"android":"levelo://app?vid=af979730-4a28-410e-ac01-1fb4c3adb00b","ios":"levelo://app?vid=af979730-4a28-410e-ac01-1fb4c3adb00b"},"vehicle_type_id":"4","last_reported":1702832759,"current_range_meters":14000,"station_id":"ce4bhf92rcd13ifvqf50","pricing_plan_id":"free"},{"bike_id":"7b652222-c241-4144-b048-8fe60bb3a872","system_id":"levelo_inurba_marseille","lat":43.279,"lon":5.3802,"is_reserved":false,"is_disabled":false,"rental_uris":{"android":"levelo://app?vid=7b652222-c241-4144-b048-8fe60bb3a872","ios":"levelo://app?vid=7b652222-c241-4144-b048-8fe60bb3a872"},"vehicle_type_id":"4","last_reported":1702832759,"current_range_meters":29600,"station_id":"ce4bhf92rcd13ifvqf50","pricing_plan_id":"free"},{"bike_id":"1749adfe-3426-4fb3-ac75-a7da66fe02b3","system_id":"levelo_inurba_marseille","lat":43.27897,"lon":5.3801,"is_reserved":false,"is_disabled":false,"rental_uris":{"android":"levelo://app?vid=1749adfe-3426-4fb3-ac75-a7da66fe02b3","ios":"levelo://app?vid=1749adfe-3426-4fb3-ac75-a7da66fe02b3"},"vehicle_type_id":"4","last_reported":1702832759,"current_range_meters":15600,"station_id":"ce4bhf92rcd13ifvqf50","pricing_plan_id":"free"},{"bike_id":"0885dd01-e271-4497-b363-0ea9d6555856","system_id":"levelo_inurba_marseille","lat":43.279087,"lon":5.380114,"is_reserved":false,"is_disabled":false,"rental_uris":{"android":"levelo://app?vid=0885dd01-e271-4497-b363-0ea9d6555856","ios":"levelo://app?vid=0885dd01-e271-4497-b363-0ea9d6555856"},"vehicle_type_id":"4","last_reported":1702832759,"current_range_meters":18400,"station_id":"ce4bhf92rcd13ifvqf50","pricing_plan_id":"free"},{"bike_id":"7bc570c3-bbda-46ca-82b2-24f0814de6f4","system_id":"levelo_inurba_marseille","lat":43.287154,"lon":5.399979,"is_reserved":false,"is_disabled":false,"rental_uris":{"android":"levelo://app?vid=7bc570c3-bbda-46ca-82b2-24f0814de6f4","ios":"levelo://app?vid=7bc570c3-bbda-46ca-82b2-24f0814de6f4"},"vehicle_type_id":"4","last_reported":1702832759,"current_range_meters":10000,"station_id":"ce4bho92rcd13ifvqh3g","pricing_plan_id":"free"},{"bike_id":"22108b1c-5fc7-4b97-967f-5fd8edb3c448","system_id":"levelo_inurba_marseille","lat":43.299579,"lon":5.413255,"is_reserved":false,"is_disabled":false,"rental_uris":{"android":"levelo://app?vid=22108b1c-5fc7-4b97-967f-5fd8edb3c448","ios":"levelo://app?vid=22108b1c-5fc7-4b97-967f-5fd8edb3c448"},"vehicle_type_id":"4","last_reported":1702832759,"current_range_meters":17600,"station_id":"ce4bhp12rcd13ifvqh9g","pricing_plan_id":"free"},{"bike_id":"3d739c58-c40e-4e1d-9234-c82606ab8f7d","system_id":"levelo_inurba_marseille","lat":43.292571,"lon":5.409107,"is_reserved":false,"is_disabled":false,"rental_uris":{"android":"levelo://app?vid=3d739c58-c40e-4e1d-9234-c82606ab8f7d","ios":"levelo://app?vid=3d739c58-c40e-4e1d-9234-c82606ab8f7d"},"vehicle_type_id":"4","last_reported":1702832759,"current_range_meters":22000,"station_id":"ce4bh192rcd13ifvqdc0","pricing_plan_id":"free"},{"bike_id":"fce4fb24-8a42-4ef0-8fd6-e8a980267948","system_id":"levelo_inurba_marseille","lat":43.325233,"lon":5.414318,"is_reserved":false,"is_disabled":false,"rental_uris":{"android":"levelo://app?vid=fce4fb24-8a42-4ef0-8fd6-e8a980267948","ios":"levelo://app?vid=fce4fb24-8a42-4ef0-8fd6-e8a980267948"},"vehicle_type_id":"4","last_reported":1702832759,"current_range_meters":30000,"station_id":"ce4bhq12rcd13ifvqhhg","pricing_plan_id":"free"},{"bike_id":"07e7b6f4-6f72-47c8-9de4-5f9b14d50f41","system_id":"levelo_inurba_marseille","lat":43.276179,"lon":5.361009,"is_reserved":false,"is_disabled":false,"rental_uris":{"android":"levelo://app?vid=07e7b6f4-6f72-47c8-9de4-5f9b14d50f41","ios":"levelo://app?vid=07e7b6f4-6f72-47c8-9de4-5f9b14d50f41"},"vehicle_type_id":"4","last_reported":1702832759,"current_range_meters":28000,"station_id":"ce4bgj92rcd13ifvqbe0","pricing_plan_id":"free"},{"bike_id":"aba7a3a8-a941-4098-8301-f8c53c5ecb80","system_id":"levelo_inurba_marseille","lat":43.278399,"lon":5.392139,"is_reserved":false,"is_disabled":false,"rental_uris":{"android":"levelo://app?vid=aba7a3a8-a941-4098-8301-f8c53c5ecb80","ios":"levelo://app?vid=aba7a3a8-a941-4098-8301-f8c53c5ecb80"},"vehicle_type_id":"4","last_reported":1702832759,"current_range_meters":400,"station_id":"ce4bhjp2rcd13ifvqga0","pricing_plan_id":"free"},{"bike_id":"55ca3db8-e42f-4e56-b275-c8bd47599554","system_id":"levelo_inurba_marseille","lat":43.278401,"lon":5.392152,"is_reserved":false,"is_disabled":false,"rental_uris":{"android":"levelo://app?vid=55ca3db8-e42f-4e56-b275-c8bd47599554","ios":"levelo://app?vid=55ca3db8-e42f-4e56-b275-c8bd47599554"},"vehicle_type_id":"4","last_reported":1702832759,"current_range_meters":17200,"station_id":"ce4bhjp2rcd13ifvqga0","pricing_plan_id":"free"},{"bike_id":"99978326-7b25-4e84-bb1f-4de97f84522a","system_id":"levelo_inurba_marseille","lat":43.275625,"lon":5.384392,"is_reserved":false,"is_disabled":false,"rental_uris":{"android":"levelo://app?vid=99978326-7b25-4e84-bb1f-4de97f84522a","ios":"levelo://app?vid=99978326-7b25-4e84-bb1f-4de97f84522a"},"vehicle_type_id":"4","last_reported":1702832759,"current_range_meters":13600,"station_id":"ce4bhh92rcd13ifvqfi0","pricing_plan_id":"free"},{"bike_id":"9d3d8e60-2ae9-4358-b130-aebdf57c78f4","system_id":"levelo_inurba_marseille","lat":43.275625,"lon":5.384392,"is_reserved":false,"is_disabled":false,"rental_uris":{"android":"levelo://app?vid=9d3d8e60-2ae9-4358-b130-aebdf57c78f4","ios":"levelo://app?vid=9d3d8e60-2ae9-4358-b130-aebdf57c78f4"},"vehicle_type_id":"4","last_reported":1702832759,"current_range_meters":6800,"station_id":"ce4bhh92rcd13ifvqfi0","pricing_plan_id":"free"},{"bike_id":"9039084a-0e56-40ed-b51d-da5f8e201f31","system_id":"levelo_inurba_marseille","lat":43.275625,"lon":5.384392,"is_reserved":false,"is_disabled":false,"rental_uris":{"android":"levelo://app?vid=9039084a-0e56-40ed-b51d-da5f8e201f31","ios":"levelo://app?vid=9039084a-0e56-40ed-b51d-da5f8e201f31"},"vehicle_type_id":"4","last_reported":1702832759,"current_range_meters":800,"station_id":"ce4bhh92rcd13ifvqfi0","pricing_plan_id":"free"},{"bike_id":"0096d45c-1b2b-46c9-80fd-ea3bb39c977f","system_id":"levelo_inurba_marseille","lat":43.275625,"lon":5.384392,"is_reserved":false,"is_disabled":false,"rental_uris":{"android":"levelo://app?vid=0096d45c-1b2b-46c9-80fd-ea3bb39c977f","ios":"levelo://app?vid=0096d45c-1b2b-46c9-80fd-ea3bb39c977f"},"vehicle_type_id":"4","last_reported":1702832759,"current_range_meters":12400,"station_id":"ce4bhh92rcd13ifvqfi0","pricing_plan_id":"free"},{"bike_id":"ea3d35f6-b07e-4308-ae51-5376e9d8e7cc","system_id":"levelo_inurba_marseille","lat":43.273468,"lon":5.36457,"is_reserved":false,"is_disabled":false,"rental_uris":{"android":"levelo://app?vid=ea3d35f6-b07e-4308-ae51-5376e9d8e7cc","ios":"levelo://app?vid=ea3d35f6-b07e-4308-ae51-5376e9d8e7cc"},"vehicle_type_id":"4","last_reported":1702832759,"current_range_meters":11200,"station_id":"","pricing_plan_id":"free"},{"bike_id":"4160b86b-98a8-43e9-900e-2a4b8025014a","system_id":"levelo_inurba_marseille","lat":43.276771,"lon":5.388799,"is_reserved":false,"is_disabled":false,"rental_uris":{"android":"levelo://app?vid=4160b86b-98a8-43e9-900e-2a4b8025014a","ios":"levelo://app?vid=4160b86b-98a8-43e9-900e-2a4b8025014a"},"vehicle_type_id":"4","last_reported":1702832759,"current_range_meters":7600,"station_id":"ce4bhi12rcd13ifvqfo0","pricing_plan_id":"free"},{"bike_id":"333517b8-fafa-4bfd-97da-8b76a73b10de","system_id":"levelo_inurba_marseille","lat":43.276771,"lon":5.388799,"is_reserved":false,"is_disabled":false,"rental_uris":{"android":"levelo://app?vid=333517b8-fafa-4bfd-97da-8b76a73b10de","ios":"levelo://app?vid=333517b8-fafa-4bfd-97da-8b76a73b10de"},"vehicle_type_id":"4","last_reported":1702832759,"current_range_meters":12000,"station_id":"ce4bhi12rcd13ifvqfo0","pricing_plan_id":"free"},{"bike_id":"f97f3ae3-0746-4a73-8a97-072f8aa9cb10","system_id":"levelo_inurba_marseille","lat":43.310785,"lon":5.424305,"is_reserved":false,"is_disabled":false,"rental_uris":{"android":"levelo://app?vid=f97f3ae3-0746-4a73-8a97-072f8aa9cb10","ios":"levelo://app?vid=f97f3ae3-0746-4a73-8a97-072f8aa9cb10"},"vehicle_type_id":"4","last_reported":1702832759,"current_range_meters":31200,"station_id":"ce4bhp92rcd13ifvqhag","pricing_plan_id":"free"},{"bike_id":"51ecc99a-bdca-479f-9073-e74c62c75aec","system_id":"levelo_inurba_marseille","lat":43.340804,"lon":5.410219,"is_reserved":false,"is_disabled":false,"rental_uris":{"android":"levelo://app?vid=51ecc99a-bdca-479f-9073-e74c62c75aec","ios":"levelo://app?vid=51ecc99a-bdca-479f-9073-e74c62c75aec"},"vehicle_type_id":"4","last_reported":1702832759,"current_range_meters":0,"station_id":"ce4bhqh2rcd13ifvqhlg","pricing_plan_id":"free"},{"bike_id":"3ca2c2d2-99b0-4aa6-a05d-e30f02e6a7fb","system_id":"levelo_inurba_marseille","lat":43.276092,"lon":5.395289,"is_reserved":false,"is_disabled":false,"rental_uris":{"android":"levelo://app?vid=3ca2c2d2-99b0-4aa6-a05d-e30f02e6a7fb","ios":"levelo://app?vid=3ca2c2d2-99b0-4aa6-a05d-e30f02e6a7fb"},"vehicle_type_id":"4","last_reported":1702832759,"current_range_meters":18000,"station_id":"","pricing_plan_id":"free"},{"bike_id":"590e3d98-7632-4763-a96a-84c3d76fd723","system_id":"levelo_inurba_marseille","lat":43.273125,"lon":5.390731,"is_reserved":false,"is_disabled":false,"rental_uris":{"android":"levelo://app?vid=590e3d98-7632-4763-a96a-84c3d76fd723","ios":"levelo://app?vid=590e3d98-7632-4763-a96a-84c3d76fd723"},"vehicle_type_id":"4","last_reported":1702832759,"current_range_meters":3200,"station_id":"ce4bhgp2rcd13ifvqfe0","pricing_plan_id":"free"},{"bike_id":"881fd1b3-f3bf-47a7-be80-cf1b5b94c0b8","system_id":"levelo_inurba_marseille","lat":43.273125,"lon":5.390731,"is_reserved":false,"is_disabled":false,"rental_uris":{"android":"levelo://app?vid=881fd1b3-f3bf-47a7-be80-cf1b5b94c0b8","ios":"levelo://app?vid=881fd1b3-f3bf-47a7-be80-cf1b5b94c0b8"},"vehicle_type_id":"4","last_reported":1702832759,"current_range_meters":28400,"station_id":"ce4bhgp2rcd13ifvqfe0","pricing_plan_id":"free"},{"bike_id":"219fa93e-0ec4-416c-96bb-ee06abb7da1a","system_id":"levelo_inurba_marseille","lat":43.273129,"lon":5.390725,"is_reserved":false,"is_disabled":false,"rental_uris":{"android":"levelo://app?vid=219fa93e-0ec4-416c-96bb-ee06abb7da1a","ios":"levelo://app?vid=219fa93e-0ec4-416c-96bb-ee06abb7da1a"},"vehicle_type_id":"4","last_reported":1702832759,"current_range_meters":16800,"station_id":"ce4bhgp2rcd13ifvqfe0","pricing_plan_id":"free"},{"bike_id":"7fec3823-220e-4c68-821a-680b26ef3cb4","system_id":"levelo_inurba_marseille","lat":43.273125,"lon":5.390731,"is_reserved":false,"is_disabled":false,"rental_uris":{"android":"levelo://app?vid=7fec3823-220e-4c68-821a-680b26ef3cb4","ios":"levelo://app?vid=7fec3823-220e-4c68-821a-680b26ef3cb4"},"vehicle_type_id":"4","last_reported":1702832759,"current_range_meters":23600,"station_id":"ce4bhgp2rcd13ifvqfe0","pricing_plan_id":"free"},{"bike_id":"5e2ca4b2-e9bf-40db-9b08-fb4c54cd7a74","system_id":"levelo_inurba_marseille","lat":43.273129,"lon":5.390725,"is_reserved":false,"is_disabled":false,"rental_uris":{"android":"levelo://app?vid=5e2ca4b2-e9bf-40db-9b08-fb4c54cd7a74","ios":"levelo://app?vid=5e2ca4b2-e9bf-40db-9b08-fb4c54cd7a74"},"vehicle_type_id":"4","last_reported":1702832759,"current_range_meters":4800,"station_id":"ce4bhgp2rcd13ifvqfe0","pricing_plan_id":"free"},{"bike_id":"837fa1b1-4d62-4105-9c7c-a2617fab7820","system_id":"levelo_inurba_marseille","lat":43.274099,"lon":5.394019,"is_reserved":false,"is_disabled":false,"rental_uris":{"android":"levelo://app?vid=837fa1b1-4d62-4105-9c7c-a2617fab7820","ios":"levelo://app?vid=837fa1b1-4d62-4105-9c7c-a2617fab7820"},"vehicle_type_id":"4","last_reported":1702832759,"current_range_meters":27600,"station_id":"ce4bhdp2rcd13ifvqf20","pricing_plan_id":"free"},{"bike_id":"06cf06d9-8272-4dd1-8a27-b80f29960e40","system_id":"levelo_inurba_marseille","lat":43.273129,"lon":5.390725,"is_reserved":false,"is_disabled":false,"rental_uris":{"android":"levelo://app?vid=06cf06d9-8272-4dd1-8a27-b80f29960e40","ios":"levelo://app?vid=06cf06d9-8272-4dd1-8a27-b80f29960e40"},"vehicle_type_id":"4","last_reported":1702832759,"current_range_meters":4000,"station_id":"ce4bhgp2rcd13ifvqfe0","pricing_plan_id":"free"},{"bike_id":"e0422bf0-2089-4091-885e-2221d758f653","system_id":"levelo_inurba_marseille","lat":43.274099,"lon":5.394019,"is_reserved":false,"is_disabled":false,"rental_uris":{"android":"levelo://app?vid=e0422bf0-2089-4091-885e-2221d758f653","ios":"levelo://app?vid=e0422bf0-2089-4091-885e-2221d758f653"},"vehicle_type_id":"4","last_reported":1702832759,"current_range_meters":28000,"station_id":"ce4bhdp2rcd13ifvqf20","pricing_plan_id":"free"},{"bike_id":"b31cc55d-94ec-47c4-a18b-caaf3ff0a629","system_id":"levelo_inurba_marseille","lat":43.30415,"lon":5.42541,"is_reserved":false,"is_disabled":false,"rental_uris":{"android":"levelo://app?vid=b31cc55d-94ec-47c4-a18b-caaf3ff0a629","ios":"levelo://app?vid=b31cc55d-94ec-47c4-a18b-caaf3ff0a629"},"vehicle_type_id":"4","last_reported":1702832759,"current_range_meters":18000,"station_id":"ce4bhoh2rcd13ifvqh6g","pricing_plan_id":"free"},{"bike_id":"1ba6c0c8-7261-4a5b-900c-f968efc714e9","system_id":"levelo_inurba_marseille","lat":43.272116,"lon":5.391763,"is_reserved":false,"is_disabled":false,"rental_uris":{"android":"levelo://app?vid=1ba6c0c8-7261-4a5b-900c-f968efc714e9","ios":"levelo://app?vid=1ba6c0c8-7261-4a5b-900c-f968efc714e9"},"vehicle_type_id":"4","last_reported":1702832759,"current_range_meters":0,"station_id":"ce4bhhp2rcd13ifvqfm0","pricing_plan_id":"free"},{"bike_id":"7c5e5a9a-9f39-4a14-9573-d5b8ab599dd5","system_id":"levelo_inurba_marseille","lat":43.27188,"lon":5.39224,"is_reserved":false,"is_disabled":false,"rental_uris":{"android":"levelo://app?vid=7c5e5a9a-9f39-4a14-9573-d5b8ab599dd5","ios":"levelo://app?vid=7c5e5a9a-9f39-4a14-9573-d5b8ab599dd5"},"vehicle_type_id":"4","last_reported":1702832759,"current_range_meters":17600,"station_id":"ce4bhhp2rcd13ifvqfm0","pricing_plan_id":"free"},{"bike_id":"e476a5c4-aa54-4681-9b18-452c5f5d0575","system_id":"levelo_inurba_marseille","lat":43.269467,"lon":5.386439,"is_reserved":false,"is_disabled":false,"rental_uris":{"android":"levelo://app?vid=e476a5c4-aa54-4681-9b18-452c5f5d0575","ios":"levelo://app?vid=e476a5c4-aa54-4681-9b18-452c5f5d0575"},"vehicle_type_id":"4","last_reported":1702832759,"current_range_meters":12400,"station_id":"ce4bhh92rcd13ifvqfh0","pricing_plan_id":"free"},{"bike_id":"c0d4131f-8d8d-4750-bf09-aa224f883954","system_id":"levelo_inurba_marseille","lat":43.27949,"lon":5.41043,"is_reserved":false,"is_disabled":false,"rental_uris":{"android":"levelo://app?vid=c0d4131f-8d8d-4750-bf09-aa224f883954","ios":"levelo://app?vid=c0d4131f-8d8d-4750-bf09-aa224f883954"},"vehicle_type_id":"4","last_reported":1702832759,"current_range_meters":0,"station_id":"ce4bhnp2rcd13ifvqh0g","pricing_plan_id":"free"},{"bike_id":"d8a9494d-fcc0-4ea3-9ac8-ff0b6ca913e0","system_id":"levelo_inurba_marseille","lat":43.269319,"lon":5.389397,"is_reserved":false,"is_disabled":false,"rental_uris":{"android":"levelo://app?vid=d8a9494d-fcc0-4ea3-9ac8-ff0b6ca913e0","ios":"levelo://app?vid=d8a9494d-fcc0-4ea3-9ac8-ff0b6ca913e0"},"vehicle_type_id":"4","last_reported":1702832759,"current_range_meters":24000,"station_id":"ce4bhhh2rcd13ifvqfl0","pricing_plan_id":"free"},{"bike_id":"b43b298e-af8e-49e7-bcbf-261e5501f1ff","system_id":"levelo_inurba_marseille","lat":43.269319,"lon":5.389397,"is_reserved":false,"is_disabled":false,"rental_uris":{"android":"levelo://app?vid=b43b298e-af8e-49e7-bcbf-261e5501f1ff","ios":"levelo://app?vid=b43b298e-af8e-49e7-bcbf-261e5501f1ff"},"vehicle_type_id":"4","last_reported":1702832759,"current_range_meters":31200,"station_id":"ce4bhhh2rcd13ifvqfl0","pricing_plan_id":"free"},{"bike_id":"b65d376d-65bf-4afe-a491-07eed8c1f984","system_id":"levelo_inurba_marseille","lat":43.269319,"lon":5.389397,"is_reserved":false,"is_disabled":false,"rental_uris":{"android":"levelo://app?vid=b65d376d-65bf-4afe-a491-07eed8c1f984","ios":"levelo://app?vid=b65d376d-65bf-4afe-a491-07eed8c1f984"},"vehicle_type_id":"4","last_reported":1702832759,"current_range_meters":28000,"station_id":"ce4bhhh2rcd13ifvqfl0","pricing_plan_id":"free"},{"bike_id":"db774753-4382-453e-a138-c32d538f9839","system_id":"levelo_inurba_marseille","lat":43.358673,"lon":5.356739,"is_reserved":false,"is_disabled":false,"rental_uris":{"android":"levelo://app?vid=db774753-4382-453e-a138-c32d538f9839","ios":"levelo://app?vid=db774753-4382-453e-a138-c32d538f9839"},"vehicle_type_id":"4","last_reported":1702832759,"current_range_meters":10800,"station_id":"","pricing_plan_id":"free"},{"bike_id":"3883f3a4-f62e-4cc6-a32d-4f777bf04fd4","system_id":"levelo_inurba_marseille","lat":43.26681,"lon":5.382694,"is_reserved":false,"is_disabled":false,"rental_uris":{"android":"levelo://app?vid=3883f3a4-f62e-4cc6-a32d-4f777bf04fd4","ios":"levelo://app?vid=3883f3a4-f62e-4cc6-a32d-4f777bf04fd4"},"vehicle_type_id":"4","last_reported":1702832759,"current_range_meters":9600,"station_id":"ce4bhg92rcd13ifvqf90","pricing_plan_id":"free"},{"bike_id":"3ec397f0-b8da-4e84-be43-f4abb20ebecf","system_id":"levelo_inurba_marseille","lat":43.27661,"lon":5.41173,"is_reserved":false,"is_disabled":false,"rental_uris":{"android":"levelo://app?vid=3ec397f0-b8da-4e84-be43-f4abb20ebecf","ios":"levelo://app?vid=3ec397f0-b8da-4e84-be43-f4abb20ebecf"},"vehicle_type_id":"4","last_reported":1702832759,"current_range_meters":26800,"station_id":"","pricing_plan_id":"free"},{"bike_id":"ab3633df-c67c-499f-bd1b-4f00431dc4d6","system_id":"levelo_inurba_marseille","lat":43.265571,"lon":5.390032,"is_reserved":false,"is_disabled":false,"rental_uris":{"android":"levelo://app?vid=ab3633df-c67c-499f-bd1b-4f00431dc4d6","ios":"levelo://app?vid=ab3633df-c67c-499f-bd1b-4f00431dc4d6"},"vehicle_type_id":"4","last_reported":1702832759,"current_range_meters":1200,"station_id":"ce4bhe12rcd13ifvqf30","pricing_plan_id":"free"},{"bike_id":"49e96936-60c6-4e94-8e2f-5832d32d14a9","system_id":"levelo_inurba_marseille","lat":43.26564,"lon":5.39011,"is_reserved":false,"is_disabled":false,"rental_uris":{"android":"levelo://app?vid=49e96936-60c6-4e94-8e2f-5832d32d14a9","ios":"levelo://app?vid=49e96936-60c6-4e94-8e2f-5832d32d14a9"},"vehicle_type_id":"4","last_reported":1702832759,"current_range_meters":400,"station_id":"ce4bhe12rcd13ifvqf30","pricing_plan_id":"free"},{"bike_id":"93902faa-2e5e-40a5-af73-6f196ae47cf8","system_id":"levelo_inurba_marseille","lat":43.26944,"lon":5.4025,"is_reserved":false,"is_disabled":false,"rental_uris":{"android":"levelo://app?vid=93902faa-2e5e-40a5-af73-6f196ae47cf8","ios":"levelo://app?vid=93902faa-2e5e-40a5-af73-6f196ae47cf8"},"vehicle_type_id":"4","last_reported":1702832759,"current_range_meters":23200,"station_id":"cjm6bp8fraef2m0cb0m0","pricing_plan_id":"free"},{"bike_id":"ca5e6e4e-54d6-4792-a912-a1bd591d741a","system_id":"levelo_inurba_marseille","lat":43.292749,"lon":5.368402,"is_reserved":false,"is_disabled":false,"rental_uris":{"android":"levelo://app?vid=ca5e6e4e-54d6-4792-a912-a1bd591d741a","ios":"levelo://app?vid=ca5e6e4e-54d6-4792-a912-a1bd591d741a"},"vehicle_type_id":"4","last_reported":1702832759,"current_range_meters":19600,"station_id":"ce4bhbp2rcd13ifvqesg","pricing_plan_id":"free"},{"bike_id":"88ea7517-ea62-4f59-90db-1bda595661a9","system_id":"levelo_inurba_marseille","lat":43.2694,"lon":5.40253,"is_reserved":false,"is_disabled":false,"rental_uris":{"android":"levelo://app?vid=88ea7517-ea62-4f59-90db-1bda595661a9","ios":"levelo://app?vid=88ea7517-ea62-4f59-90db-1bda595661a9"},"vehicle_type_id":"4","last_reported":1702832759,"current_range_meters":20000,"station_id":"cjm6bp8fraef2m0cb0m0","pricing_plan_id":"free"},{"bike_id":"8eacc825-5cce-4ee1-a3f5-66b3496c181c","system_id":"levelo_inurba_marseille","lat":43.26943,"lon":5.4026,"is_reserved":false,"is_disabled":false,"rental_uris":{"android":"levelo://app?vid=8eacc825-5cce-4ee1-a3f5-66b3496c181c","ios":"levelo://app?vid=8eacc825-5cce-4ee1-a3f5-66b3496c181c"},"vehicle_type_id":"4","last_reported":1702832759,"current_range_meters":27200,"station_id":"cjm6bp8fraef2m0cb0m0","pricing_plan_id":"free"},{"bike_id":"a5f2853f-d833-4921-9839-7ffcfadabfa6","system_id":"levelo_inurba_marseille","lat":43.269393,"lon":5.402543,"is_reserved":false,"is_disabled":false,"rental_uris":{"android":"levelo://app?vid=a5f2853f-d833-4921-9839-7ffcfadabfa6","ios":"levelo://app?vid=a5f2853f-d833-4921-9839-7ffcfadabfa6"},"vehicle_type_id":"4","last_reported":1702832759,"current_range_meters":23600,"station_id":"cjm6bp8fraef2m0cb0m0","pricing_plan_id":"free"},{"bike_id":"a773cd1e-626a-43c1-8e0c-ea59be088cbb","system_id":"levelo_inurba_marseille","lat":43.26939,"lon":5.40255,"is_reserved":false,"is_disabled":false,"rental_uris":{"android":"levelo://app?vid=a773cd1e-626a-43c1-8e0c-ea59be088cbb","ios":"levelo://app?vid=a773cd1e-626a-43c1-8e0c-ea59be088cbb"},"vehicle_type_id":"4","last_reported":1702832759,"current_range_meters":1200,"station_id":"cjm6bp8fraef2m0cb0m0","pricing_plan_id":"free"},{"bike_id":"8a89967b-a5ba-4c98-9fe4-fc037e82266e","system_id":"levelo_inurba_marseille","lat":43.26949,"lon":5.40262,"is_reserved":false,"is_disabled":false,"rental_uris":{"android":"levelo://app?vid=8a89967b-a5ba-4c98-9fe4-fc037e82266e","ios":"levelo://app?vid=8a89967b-a5ba-4c98-9fe4-fc037e82266e"},"vehicle_type_id":"4","last_reported":1702832759,"current_range_meters":21200,"station_id":"cjm6bp8fraef2m0cb0m0","pricing_plan_id":"free"},{"bike_id":"d9145888-dc11-4dd2-92e7-94c65d3fd2df","system_id":"levelo_inurba_marseille","lat":43.26939,"lon":5.40257,"is_reserved":false,"is_disabled":false,"rental_uris":{"android":"levelo://app?vid=d9145888-dc11-4dd2-92e7-94c65d3fd2df","ios":"levelo://app?vid=d9145888-dc11-4dd2-92e7-94c65d3fd2df"},"vehicle_type_id":"4","last_reported":1702832759,"current_range_meters":22400,"station_id":"cjm6bp8fraef2m0cb0m0","pricing_plan_id":"free"},{"bike_id":"203029aa-b894-498b-a282-dab96fdff6c3","system_id":"levelo_inurba_marseille","lat":43.26938,"lon":5.40258,"is_reserved":false,"is_disabled":false,"rental_uris":{"android":"levelo://app?vid=203029aa-b894-498b-a282-dab96fdff6c3","ios":"levelo://app?vid=203029aa-b894-498b-a282-dab96fdff6c3"},"vehicle_type_id":"4","last_reported":1702832759,"current_range_meters":20000,"station_id":"cjm6bp8fraef2m0cb0m0","pricing_plan_id":"free"},{"bike_id":"346d5af5-c620-478d-a330-d3d4a036bcbb","system_id":"levelo_inurba_marseille","lat":43.26937,"lon":5.40256,"is_reserved":false,"is_disabled":false,"rental_uris":{"android":"levelo://app?vid=346d5af5-c620-478d-a330-d3d4a036bcbb","ios":"levelo://app?vid=346d5af5-c620-478d-a330-d3d4a036bcbb"},"vehicle_type_id":"4","last_reported":1702832759,"current_range_meters":27200,"station_id":"cjm6bp8fraef2m0cb0m0","pricing_plan_id":"free"},{"bike_id":"2ddaa260-3dde-415e-85e9-e03f5b2dd164","system_id":"levelo_inurba_marseille","lat":43.26936,"lon":5.40261,"is_reserved":false,"is_disabled":false,"rental_uris":{"android":"levelo://app?vid=2ddaa260-3dde-415e-85e9-e03f5b2dd164","ios":"levelo://app?vid=2ddaa260-3dde-415e-85e9-e03f5b2dd164"},"vehicle_type_id":"4","last_reported":1702832759,"current_range_meters":400,"station_id":"cjm6bp8fraef2m0cb0m0","pricing_plan_id":"free"},{"bike_id":"b02aefd3-0a20-400b-a328-f898885c3a6c","system_id":"levelo_inurba_marseille","lat":43.26202,"lon":5.379299,"is_reserved":false,"is_disabled":false,"rental_uris":{"android":"levelo://app?vid=b02aefd3-0a20-400b-a328-f898885c3a6c","ios":"levelo://app?vid=b02aefd3-0a20-400b-a328-f898885c3a6c"},"vehicle_type_id":"4","last_reported":1702832759,"current_range_meters":11200,"station_id":"ce4bhjp2rcd13ifvqg90","pricing_plan_id":"free"},{"bike_id":"536dad1d-ac10-4603-b7ee-677a3761187a","system_id":"levelo_inurba_marseille","lat":43.271368,"lon":5.40928,"is_reserved":false,"is_disabled":false,"rental_uris":{"android":"levelo://app?vid=536dad1d-ac10-4603-b7ee-677a3761187a","ios":"levelo://app?vid=536dad1d-ac10-4603-b7ee-677a3761187a"},"vehicle_type_id":"4","last_reported":1702832759,"current_range_meters":26000,"station_id":"ce4bhl12rcd13ifvqgf0","pricing_plan_id":"free"},{"bike_id":"f68468a8-64bf-419c-837b-04b385605a8e","system_id":"levelo_inurba_marseille","lat":43.267959,"lon":5.402685,"is_reserved":false,"is_disabled":false,"rental_uris":{"android":"levelo://app?vid=f68468a8-64bf-419c-837b-04b385605a8e","ios":"levelo://app?vid=f68468a8-64bf-419c-837b-04b385605a8e"},"vehicle_type_id":"4","last_reported":1702832759,"current_range_meters":29200,"station_id":"ce501612rcd8frsf0b60","pricing_plan_id":"free"},{"bike_id":"fb4a922a-4b87-4e6c-83ea-2cf94c278b6d","system_id":"levelo_inurba_marseille","lat":43.267959,"lon":5.402687,"is_reserved":false,"is_disabled":false,"rental_uris":{"android":"levelo://app?vid=fb4a922a-4b87-4e6c-83ea-2cf94c278b6d","ios":"levelo://app?vid=fb4a922a-4b87-4e6c-83ea-2cf94c278b6d"},"vehicle_type_id":"4","last_reported":1702832759,"current_range_meters":12000,"station_id":"ce501612rcd8frsf0b60","pricing_plan_id":"free"},{"bike_id":"6faae48d-912a-4f9e-8c7d-e798459a3a95","system_id":"levelo_inurba_marseille","lat":43.267959,"lon":5.402687,"is_reserved":false,"is_disabled":false,"rental_uris":{"android":"levelo://app?vid=6faae48d-912a-4f9e-8c7d-e798459a3a95","ios":"levelo://app?vid=6faae48d-912a-4f9e-8c7d-e798459a3a95"},"vehicle_type_id":"4","last_reported":1702832759,"current_range_meters":14800,"station_id":"ce501612rcd8frsf0b60","pricing_plan_id":"free"},{"bike_id":"38f9b33e-7b6c-4c27-be0e-fc968ebfecaf","system_id":"levelo_inurba_marseille","lat":43.267959,"lon":5.402687,"is_reserved":false,"is_disabled":false,"rental_uris":{"android":"levelo://app?vid=38f9b33e-7b6c-4c27-be0e-fc968ebfecaf","ios":"levelo://app?vid=38f9b33e-7b6c-4c27-be0e-fc968ebfecaf"},"vehicle_type_id":"4","last_reported":1702832759,"current_range_meters":12400,"station_id":"ce501612rcd8frsf0b60","pricing_plan_id":"free"},{"bike_id":"5cc87c5f-03c3-4c7f-bcd8-e11e665d9b9a","system_id":"levelo_inurba_marseille","lat":43.267959,"lon":5.402687,"is_reserved":false,"is_disabled":false,"rental_uris":{"android":"levelo://app?vid=5cc87c5f-03c3-4c7f-bcd8-e11e665d9b9a","ios":"levelo://app?vid=5cc87c5f-03c3-4c7f-bcd8-e11e665d9b9a"},"vehicle_type_id":"4","last_reported":1702832759,"current_range_meters":27600,"station_id":"ce501612rcd8frsf0b60","pricing_plan_id":"free"},{"bike_id":"6c0377bb-a76e-4969-939b-7403664e0b8c","system_id":"levelo_inurba_marseille","lat":43.267959,"lon":5.402687,"is_reserved":false,"is_disabled":false,"rental_uris":{"android":"levelo://app?vid=6c0377bb-a76e-4969-939b-7403664e0b8c","ios":"levelo://app?vid=6c0377bb-a76e-4969-939b-7403664e0b8c"},"vehicle_type_id":"4","last_reported":1702832759,"current_range_meters":31200,"station_id":"ce501612rcd8frsf0b60","pricing_plan_id":"free"},{"bike_id":"0d18db20-19d5-4f47-aeb3-a1b49319ce96","system_id":"levelo_inurba_marseille","lat":43.267959,"lon":5.402687,"is_reserved":false,"is_disabled":false,"rental_uris":{"android":"levelo://app?vid=0d18db20-19d5-4f47-aeb3-a1b49319ce96","ios":"levelo://app?vid=0d18db20-19d5-4f47-aeb3-a1b49319ce96"},"vehicle_type_id":"4","last_reported":1702832759,"current_range_meters":0,"station_id":"ce501612rcd8frsf0b60","pricing_plan_id":"free"},{"bike_id":"7743d713-d033-44f0-9919-d35e21ec4494","system_id":"levelo_inurba_marseille","lat":43.26501,"lon":5.39549,"is_reserved":false,"is_disabled":false,"rental_uris":{"android":"levelo://app?vid=7743d713-d033-44f0-9919-d35e21ec4494","ios":"levelo://app?vid=7743d713-d033-44f0-9919-d35e21ec4494"},"vehicle_type_id":"4","last_reported":1702832759,"current_range_meters":16800,"station_id":"","pricing_plan_id":"free"},{"bike_id":"789899a7-63a0-46b3-843c-64ff0b8e294b","system_id":"levelo_inurba_marseille","lat":43.28152,"lon":5.42639,"is_reserved":false,"is_disabled":false,"rental_uris":{"android":"levelo://app?vid=789899a7-63a0-46b3-843c-64ff0b8e294b","ios":"levelo://app?vid=789899a7-63a0-46b3-843c-64ff0b8e294b"},"vehicle_type_id":"4","last_reported":1702832759,"current_range_meters":2400,"station_id":"ce4bhnh2rcd13ifvqgug","pricing_plan_id":"free"},{"bike_id":"ddbf5051-c90b-46f5-bffe-7b7e7bcd726d","system_id":"levelo_inurba_marseille","lat":43.281548,"lon":5.42643,"is_reserved":false,"is_disabled":false,"rental_uris":{"android":"levelo://app?vid=ddbf5051-c90b-46f5-bffe-7b7e7bcd726d","ios":"levelo://app?vid=ddbf5051-c90b-46f5-bffe-7b7e7bcd726d"},"vehicle_type_id":"4","last_reported":1702832759,"current_range_meters":10400,"station_id":"ce4bhnh2rcd13ifvqgug","pricing_plan_id":"free"},{"bike_id":"82baed80-82a8-4a1a-ac7d-eb2a2bef5bc7","system_id":"levelo_inurba_marseille","lat":43.281548,"lon":5.42643,"is_reserved":false,"is_disabled":false,"rental_uris":{"android":"levelo://app?vid=82baed80-82a8-4a1a-ac7d-eb2a2bef5bc7","ios":"levelo://app?vid=82baed80-82a8-4a1a-ac7d-eb2a2bef5bc7"},"vehicle_type_id":"4","last_reported":1702832759,"current_range_meters":6000,"station_id":"ce4bhnh2rcd13ifvqgug","pricing_plan_id":"free"},{"bike_id":"d2007443-4338-42cb-923c-147041d30edf","system_id":"levelo_inurba_marseille","lat":43.275028,"lon":5.424534,"is_reserved":false,"is_disabled":false,"rental_uris":{"android":"levelo://app?vid=d2007443-4338-42cb-923c-147041d30edf","ios":"levelo://app?vid=d2007443-4338-42cb-923c-147041d30edf"},"vehicle_type_id":"4","last_reported":1702832759,"current_range_meters":14000,"station_id":"ce4bhn92rcd13ifvqgrg","pricing_plan_id":"free"},{"bike_id":"b6836b5c-bf87-43d1-afcb-477e491235ab","system_id":"levelo_inurba_marseille","lat":43.260883,"lon":5.39766,"is_reserved":false,"is_disabled":false,"rental_uris":{"android":"levelo://app?vid=b6836b5c-bf87-43d1-afcb-477e491235ab","ios":"levelo://app?vid=b6836b5c-bf87-43d1-afcb-477e491235ab"},"vehicle_type_id":"4","last_reported":1702832759,"current_range_meters":0,"station_id":"","pricing_plan_id":"free"},{"bike_id":"c389d107-e6f2-478d-bd6a-ba0085ee0286","system_id":"levelo_inurba_marseille","lat":43.25827,"lon":5.3943,"is_reserved":false,"is_disabled":false,"rental_uris":{"android":"levelo://app?vid=c389d107-e6f2-478d-bd6a-ba0085ee0286","ios":"levelo://app?vid=c389d107-e6f2-478d-bd6a-ba0085ee0286"},"vehicle_type_id":"4","last_reported":1702832759,"current_range_meters":23600,"station_id":"ce4bhip2rcd13ifvqft0","pricing_plan_id":"free"},{"bike_id":"788cfa92-1356-4e76-9e3f-54d84b82b1ce","system_id":"levelo_inurba_marseille","lat":43.258224,"lon":5.394369,"is_reserved":false,"is_disabled":false,"rental_uris":{"android":"levelo://app?vid=788cfa92-1356-4e76-9e3f-54d84b82b1ce","ios":"levelo://app?vid=788cfa92-1356-4e76-9e3f-54d84b82b1ce"},"vehicle_type_id":"4","last_reported":1702832759,"current_range_meters":30400,"station_id":"ce4bhip2rcd13ifvqft0","pricing_plan_id":"free"},{"bike_id":"2e6c47c9-ebb3-4092-a21e-69e8726e6fc0","system_id":"levelo_inurba_marseille","lat":43.258658,"lon":5.398935,"is_reserved":false,"is_disabled":false,"rental_uris":{"android":"levelo://app?vid=2e6c47c9-ebb3-4092-a21e-69e8726e6fc0","ios":"levelo://app?vid=2e6c47c9-ebb3-4092-a21e-69e8726e6fc0"},"vehicle_type_id":"4","last_reported":1702832759,"current_range_meters":25200,"station_id":"ce4bhl92rcd13ifvqghg","pricing_plan_id":"free"},{"bike_id":"e9007e3a-6ad3-4c41-87b6-521622a6fe45","system_id":"levelo_inurba_marseille","lat":43.25862,"lon":5.39902,"is_reserved":false,"is_disabled":false,"rental_uris":{"android":"levelo://app?vid=e9007e3a-6ad3-4c41-87b6-521622a6fe45","ios":"levelo://app?vid=e9007e3a-6ad3-4c41-87b6-521622a6fe45"},"vehicle_type_id":"4","last_reported":1702832759,"current_range_meters":8800,"station_id":"ce4bhl92rcd13ifvqghg","pricing_plan_id":"free"},{"bike_id":"2d57c9a4-fa6f-4edf-857b-107297fcf971","system_id":"levelo_inurba_marseille","lat":43.2586,"lon":5.39904,"is_reserved":false,"is_disabled":false,"rental_uris":{"android":"levelo://app?vid=2d57c9a4-fa6f-4edf-857b-107297fcf971","ios":"levelo://app?vid=2d57c9a4-fa6f-4edf-857b-107297fcf971"},"vehicle_type_id":"4","last_reported":1702832759,"current_range_meters":0,"station_id":"ce4bhl92rcd13ifvqghg","pricing_plan_id":"free"},{"bike_id":"0332194c-0821-4286-8253-2493c6784870","system_id":"levelo_inurba_marseille","lat":43.250009,"lon":5.389195,"is_reserved":false,"is_disabled":false,"rental_uris":{"android":"levelo://app?vid=0332194c-0821-4286-8253-2493c6784870","ios":"levelo://app?vid=0332194c-0821-4286-8253-2493c6784870"},"vehicle_type_id":"4","last_reported":1702832759,"current_range_meters":31200,"station_id":"ce4bhgp2rcd13ifvqfd0","pricing_plan_id":"free"},{"bike_id":"486de631-4303-438d-8a28-45c67f8e2772","system_id":"levelo_inurba_marseille","lat":43.2593,"lon":5.40907,"is_reserved":false,"is_disabled":false,"rental_uris":{"android":"levelo://app?vid=486de631-4303-438d-8a28-45c67f8e2772","ios":"levelo://app?vid=486de631-4303-438d-8a28-45c67f8e2772"},"vehicle_type_id":"4","last_reported":1702832759,"current_range_meters":17600,"station_id":"ce4bhm92rcd13ifvqglg","pricing_plan_id":"free"},{"bike_id":"61a4c449-70c1-4d31-941e-a3fe596474dd","system_id":"levelo_inurba_marseille","lat":43.259278,"lon":5.409126,"is_reserved":false,"is_disabled":false,"rental_uris":{"android":"levelo://app?vid=61a4c449-70c1-4d31-941e-a3fe596474dd","ios":"levelo://app?vid=61a4c449-70c1-4d31-941e-a3fe596474dd"},"vehicle_type_id":"4","last_reported":1702832759,"current_range_meters":31200,"station_id":"ce4bhm92rcd13ifvqglg","pricing_plan_id":"free"},{"bike_id":"118d6971-ccf8-413b-a5f3-5bcb58db73da","system_id":"levelo_inurba_marseille","lat":43.257079,"lon":5.411051,"is_reserved":false,"is_disabled":false,"rental_uris":{"android":"levelo://app?vid=118d6971-ccf8-413b-a5f3-5bcb58db73da","ios":"levelo://app?vid=118d6971-ccf8-413b-a5f3-5bcb58db73da"},"vehicle_type_id":"4","last_reported":1702832759,"current_range_meters":18800,"station_id":"ce4bhkp2rcd13ifvqgd0","pricing_plan_id":"free"},{"bike_id":"67d4480c-ec71-4499-9e4f-01cd61597d70","system_id":"levelo_inurba_marseille","lat":43.257079,"lon":5.411051,"is_reserved":false,"is_disabled":false,"rental_uris":{"android":"levelo://app?vid=67d4480c-ec71-4499-9e4f-01cd61597d70","ios":"levelo://app?vid=67d4480c-ec71-4499-9e4f-01cd61597d70"},"vehicle_type_id":"4","last_reported":1702832759,"current_range_meters":11600,"station_id":"ce4bhkp2rcd13ifvqgd0","pricing_plan_id":"free"},{"bike_id":"5bbe1498-c0dd-4069-8d57-d3c8efda16ba","system_id":"levelo_inurba_marseille","lat":43.250009,"lon":5.389195,"is_reserved":false,"is_disabled":false,"rental_uris":{"android":"levelo://app?vid=5bbe1498-c0dd-4069-8d57-d3c8efda16ba","ios":"levelo://app?vid=5bbe1498-c0dd-4069-8d57-d3c8efda16ba"},"vehicle_type_id":"4","last_reported":1702832759,"current_range_meters":23600,"station_id":"ce4bhgp2rcd13ifvqfd0","pricing_plan_id":"free"},{"bike_id":"e9c01792-41cc-46b0-85ad-32e6182e5620","system_id":"levelo_inurba_marseille","lat":43.2479,"lon":5.374457,"is_reserved":false,"is_disabled":false,"rental_uris":{"android":"levelo://app?vid=e9c01792-41cc-46b0-85ad-32e6182e5620","ios":"levelo://app?vid=e9c01792-41cc-46b0-85ad-32e6182e5620"},"vehicle_type_id":"4","last_reported":1702832759,"current_range_meters":11600,"station_id":"ce4bhgh2rcd13ifvqfb0","pricing_plan_id":"free"},{"bike_id":"5e40675e-073f-40e8-8b46-cac49158f778","system_id":"levelo_inurba_marseille","lat":43.2479,"lon":5.374457,"is_reserved":false,"is_disabled":false,"rental_uris":{"android":"levelo://app?vid=5e40675e-073f-40e8-8b46-cac49158f778","ios":"levelo://app?vid=5e40675e-073f-40e8-8b46-cac49158f778"},"vehicle_type_id":"4","last_reported":1702832759,"current_range_meters":7200,"station_id":"ce4bhgh2rcd13ifvqfb0","pricing_plan_id":"free"},{"bike_id":"17ec82a7-a075-4c53-84c1-a60158f8545d","system_id":"levelo_inurba_marseille","lat":43.250966,"lon":5.395186,"is_reserved":false,"is_disabled":false,"rental_uris":{"android":"levelo://app?vid=17ec82a7-a075-4c53-84c1-a60158f8545d","ios":"levelo://app?vid=17ec82a7-a075-4c53-84c1-a60158f8545d"},"vehicle_type_id":"4","last_reported":1702832759,"current_range_meters":31200,"station_id":"ce4bhm12rcd13ifvqgkg","pricing_plan_id":"free"},{"bike_id":"c1990bdb-4017-4dd6-b9ba-79a531ab0cee","system_id":"levelo_inurba_marseille","lat":43.250966,"lon":5.395186,"is_reserved":false,"is_disabled":false,"rental_uris":{"android":"levelo://app?vid=c1990bdb-4017-4dd6-b9ba-79a531ab0cee","ios":"levelo://app?vid=c1990bdb-4017-4dd6-b9ba-79a531ab0cee"},"vehicle_type_id":"4","last_reported":1702832759,"current_range_meters":17600,"station_id":"ce4bhm12rcd13ifvqgkg","pricing_plan_id":"free"},{"bike_id":"5065f1c1-0d9e-438b-a54c-a6bd79eab63b","system_id":"levelo_inurba_marseille","lat":43.25088,"lon":5.39525,"is_reserved":false,"is_disabled":false,"rental_uris":{"android":"levelo://app?vid=5065f1c1-0d9e-438b-a54c-a6bd79eab63b","ios":"levelo://app?vid=5065f1c1-0d9e-438b-a54c-a6bd79eab63b"},"vehicle_type_id":"4","last_reported":1702832759,"current_range_meters":16400,"station_id":"ce4bhm12rcd13ifvqgkg","pricing_plan_id":"free"},{"bike_id":"1e3f0e65-d4f8-4a80-9ec3-0d49c53493b9","system_id":"levelo_inurba_marseille","lat":43.250966,"lon":5.395186,"is_reserved":false,"is_disabled":false,"rental_uris":{"android":"levelo://app?vid=1e3f0e65-d4f8-4a80-9ec3-0d49c53493b9","ios":"levelo://app?vid=1e3f0e65-d4f8-4a80-9ec3-0d49c53493b9"},"vehicle_type_id":"4","last_reported":1702832759,"current_range_meters":10400,"station_id":"ce4bhm12rcd13ifvqgkg","pricing_plan_id":"free"},{"bike_id":"ad81fac2-bddc-4e91-a01a-42b9cfcc94a0","system_id":"levelo_inurba_marseille","lat":43.24662,"lon":5.38162,"is_reserved":false,"is_disabled":false,"rental_uris":{"android":"levelo://app?vid=ad81fac2-bddc-4e91-a01a-42b9cfcc94a0","ios":"levelo://app?vid=ad81fac2-bddc-4e91-a01a-42b9cfcc94a0"},"vehicle_type_id":"4","last_reported":1702832759,"current_range_meters":0,"station_id":"ce4bhih2rcd13ifvqfr0","pricing_plan_id":"free"},{"bike_id":"ca777156-7ad4-4d23-8ab0-18cea2cff913","system_id":"levelo_inurba_marseille","lat":43.2466,"lon":5.38165,"is_reserved":false,"is_disabled":false,"rental_uris":{"android":"levelo://app?vid=ca777156-7ad4-4d23-8ab0-18cea2cff913","ios":"levelo://app?vid=ca777156-7ad4-4d23-8ab0-18cea2cff913"},"vehicle_type_id":"4","last_reported":1702832759,"current_range_meters":6000,"station_id":"ce4bhih2rcd13ifvqfr0","pricing_plan_id":"free"},{"bike_id":"cda151f2-9ad2-46c9-9115-b73ba9a06619","system_id":"levelo_inurba_marseille","lat":43.25218,"lon":5.40642,"is_reserved":false,"is_disabled":false,"rental_uris":{"android":"levelo://app?vid=cda151f2-9ad2-46c9-9115-b73ba9a06619","ios":"levelo://app?vid=cda151f2-9ad2-46c9-9115-b73ba9a06619"},"vehicle_type_id":"4","last_reported":1702832759,"current_range_meters":0,"station_id":"","pricing_plan_id":"free"},{"bike_id":"838b05d7-6a52-4938-98ab-8b37001989d5","system_id":"levelo_inurba_marseille","lat":43.246467,"lon":5.388984,"is_reserved":false,"is_disabled":false,"rental_uris":{"android":"levelo://app?vid=838b05d7-6a52-4938-98ab-8b37001989d5","ios":"levelo://app?vid=838b05d7-6a52-4938-98ab-8b37001989d5"},"vehicle_type_id":"4","last_reported":1702832759,"current_range_meters":23200,"station_id":"ce4bhg12rcd13ifvqf60","pricing_plan_id":"free"},{"bike_id":"c26d6df2-50c5-4e14-9967-4ccd466285c9","system_id":"levelo_inurba_marseille","lat":43.243884,"lon":5.370736,"is_reserved":false,"is_disabled":false,"rental_uris":{"android":"levelo://app?vid=c26d6df2-50c5-4e14-9967-4ccd466285c9","ios":"levelo://app?vid=c26d6df2-50c5-4e14-9967-4ccd466285c9"},"vehicle_type_id":"4","last_reported":1702832759,"current_range_meters":19600,"station_id":"ce4bhhh2rcd13ifvqfk0","pricing_plan_id":"free"},{"bike_id":"bfc09dd1-ee9f-467a-8fd9-017443a3e28a","system_id":"levelo_inurba_marseille","lat":43.24549,"lon":5.39524,"is_reserved":false,"is_disabled":false,"rental_uris":{"android":"levelo://app?vid=bfc09dd1-ee9f-467a-8fd9-017443a3e28a","ios":"levelo://app?vid=bfc09dd1-ee9f-467a-8fd9-017443a3e28a"},"vehicle_type_id":"4","last_reported":1702832759,"current_range_meters":0,"station_id":"ce4bhlp2rcd13ifvqgjg","pricing_plan_id":"free"},{"bike_id":"06bea5c1-932e-4686-a69e-73c3a94a649c","system_id":"levelo_inurba_marseille","lat":43.24076,"lon":5.37766,"is_reserved":false,"is_disabled":false,"rental_uris":{"android":"levelo://app?vid=06bea5c1-932e-4686-a69e-73c3a94a649c","ios":"levelo://app?vid=06bea5c1-932e-4686-a69e-73c3a94a649c"},"vehicle_type_id":"4","last_reported":1702832759,"current_range_meters":30000,"station_id":"ce4bhnp2rcd13ifvqgvg","pricing_plan_id":"free"},{"bike_id":"348c8008-eb97-45e9-b5a7-a3bb3c3d64df","system_id":"levelo_inurba_marseille","lat":43.240623,"lon":5.377642,"is_reserved":false,"is_disabled":false,"rental_uris":{"android":"levelo://app?vid=348c8008-eb97-45e9-b5a7-a3bb3c3d64df","ios":"levelo://app?vid=348c8008-eb97-45e9-b5a7-a3bb3c3d64df"},"vehicle_type_id":"4","last_reported":1702832759,"current_range_meters":19600,"station_id":"ce4bhnp2rcd13ifvqgvg","pricing_plan_id":"free"},{"bike_id":"06b4f2b0-f274-474c-a1c2-df6e6c70ba20","system_id":"levelo_inurba_marseille","lat":43.240623,"lon":5.377642,"is_reserved":false,"is_disabled":false,"rental_uris":{"android":"levelo://app?vid=06b4f2b0-f274-474c-a1c2-df6e6c70ba20","ios":"levelo://app?vid=06b4f2b0-f274-474c-a1c2-df6e6c70ba20"},"vehicle_type_id":"4","last_reported":1702832759,"current_range_meters":31200,"station_id":"ce4bhnp2rcd13ifvqgvg","pricing_plan_id":"free"},{"bike_id":"1a0aaa3c-7b25-4d9a-9a1b-04aaf2445cf4","system_id":"levelo_inurba_marseille","lat":43.239588,"lon":5.366238,"is_reserved":false,"is_disabled":false,"rental_uris":{"android":"levelo://app?vid=1a0aaa3c-7b25-4d9a-9a1b-04aaf2445cf4","ios":"levelo://app?vid=1a0aaa3c-7b25-4d9a-9a1b-04aaf2445cf4"},"vehicle_type_id":"4","last_reported":1702832759,"current_range_meters":16400,"station_id":"ce4bhi12rcd13ifvqfp0","pricing_plan_id":"free"},{"bike_id":"1efeb250-6655-4abe-b8d0-886b19ed5cff","system_id":"levelo_inurba_marseille","lat":43.239588,"lon":5.366238,"is_reserved":false,"is_disabled":false,"rental_uris":{"android":"levelo://app?vid=1efeb250-6655-4abe-b8d0-886b19ed5cff","ios":"levelo://app?vid=1efeb250-6655-4abe-b8d0-886b19ed5cff"},"vehicle_type_id":"4","last_reported":1702832759,"current_range_meters":7200,"station_id":"ce4bhi12rcd13ifvqfp0","pricing_plan_id":"free"},{"bike_id":"9342a91e-9fef-433b-8fbf-420f63619a68","system_id":"levelo_inurba_marseille","lat":43.23964,"lon":5.36629,"is_reserved":false,"is_disabled":false,"rental_uris":{"android":"levelo://app?vid=9342a91e-9fef-433b-8fbf-420f63619a68","ios":"levelo://app?vid=9342a91e-9fef-433b-8fbf-420f63619a68"},"vehicle_type_id":"4","last_reported":1702832759,"current_range_meters":22800,"station_id":"ce4bhi12rcd13ifvqfp0","pricing_plan_id":"free"},{"bike_id":"ab53bb42-61c7-49e6-9264-16f1931406aa","system_id":"levelo_inurba_marseille","lat":43.23961,"lon":5.36633,"is_reserved":false,"is_disabled":false,"rental_uris":{"android":"levelo://app?vid=ab53bb42-61c7-49e6-9264-16f1931406aa","ios":"levelo://app?vid=ab53bb42-61c7-49e6-9264-16f1931406aa"},"vehicle_type_id":"4","last_reported":1702832759,"current_range_meters":20800,"station_id":"ce4bhi12rcd13ifvqfp0","pricing_plan_id":"free"},{"bike_id":"630cf2f9-baf1-4860-be47-7a66ce2ac839","system_id":"levelo_inurba_marseille","lat":43.23959,"lon":5.3663,"is_reserved":false,"is_disabled":false,"rental_uris":{"android":"levelo://app?vid=630cf2f9-baf1-4860-be47-7a66ce2ac839","ios":"levelo://app?vid=630cf2f9-baf1-4860-be47-7a66ce2ac839"},"vehicle_type_id":"4","last_reported":1702832759,"current_range_meters":24000,"station_id":"ce4bhi12rcd13ifvqfp0","pricing_plan_id":"free"},{"bike_id":"391d21ee-50f4-4ad5-9205-d2446648b03a","system_id":"levelo_inurba_marseille","lat":43.239588,"lon":5.366238,"is_reserved":false,"is_disabled":false,"rental_uris":{"android":"levelo://app?vid=391d21ee-50f4-4ad5-9205-d2446648b03a","ios":"levelo://app?vid=391d21ee-50f4-4ad5-9205-d2446648b03a"},"vehicle_type_id":"4","last_reported":1702832759,"current_range_meters":28800,"station_id":"ce4bhi12rcd13ifvqfp0","pricing_plan_id":"free"},{"bike_id":"7544b8c0-a29f-44c5-8842-21760cbddff8","system_id":"levelo_inurba_marseille","lat":43.241782,"lon":5.397261,"is_reserved":false,"is_disabled":false,"rental_uris":{"android":"levelo://app?vid=7544b8c0-a29f-44c5-8842-21760cbddff8","ios":"levelo://app?vid=7544b8c0-a29f-44c5-8842-21760cbddff8"},"vehicle_type_id":"4","last_reported":1702832759,"current_range_meters":4000,"station_id":"ce4bhn12rcd13ifvqgpg","pricing_plan_id":"free"},{"bike_id":"c11946bc-5a68-405a-9f78-a12d45a7c0a6","system_id":"levelo_inurba_marseille","lat":43.2418,"lon":5.39729,"is_reserved":false,"is_disabled":false,"rental_uris":{"android":"levelo://app?vid=c11946bc-5a68-405a-9f78-a12d45a7c0a6","ios":"levelo://app?vid=c11946bc-5a68-405a-9f78-a12d45a7c0a6"},"vehicle_type_id":"4","last_reported":1702832759,"current_range_meters":25200,"station_id":"ce4bhn12rcd13ifvqgpg","pricing_plan_id":"free"},{"bike_id":"83e81e69-db0f-47f9-a374-f01b664427a3","system_id":"levelo_inurba_marseille","lat":43.241782,"lon":5.397261,"is_reserved":false,"is_disabled":false,"rental_uris":{"android":"levelo://app?vid=83e81e69-db0f-47f9-a374-f01b664427a3","ios":"levelo://app?vid=83e81e69-db0f-47f9-a374-f01b664427a3"},"vehicle_type_id":"4","last_reported":1702832759,"current_range_meters":17200,"station_id":"ce4bhn12rcd13ifvqgpg","pricing_plan_id":"free"},{"bike_id":"8fa8dcad-9213-4682-9e78-bced4d248910","system_id":"levelo_inurba_marseille","lat":43.23206,"lon":5.35552,"is_reserved":false,"is_disabled":false,"rental_uris":{"android":"levelo://app?vid=8fa8dcad-9213-4682-9e78-bced4d248910","ios":"levelo://app?vid=8fa8dcad-9213-4682-9e78-bced4d248910"},"vehicle_type_id":"4","last_reported":1702832759,"current_range_meters":11600,"station_id":"ce4bhu92rcd13ifvqi70","pricing_plan_id":"free"},{"bike_id":"6407938b-389d-4533-9ecb-2228594d1ac0","system_id":"levelo_inurba_marseille","lat":43.23202,"lon":5.35548,"is_reserved":false,"is_disabled":false,"rental_uris":{"android":"levelo://app?vid=6407938b-389d-4533-9ecb-2228594d1ac0","ios":"levelo://app?vid=6407938b-389d-4533-9ecb-2228594d1ac0"},"vehicle_type_id":"4","last_reported":1702832759,"current_range_meters":15600,"station_id":"ce4bhu92rcd13ifvqi70","pricing_plan_id":"free"},{"bike_id":"3dd05bbe-7d4d-4d5f-b9a9-4266846c777b","system_id":"levelo_inurba_marseille","lat":43.23196,"lon":5.35555,"is_reserved":false,"is_disabled":false,"rental_uris":{"android":"levelo://app?vid=3dd05bbe-7d4d-4d5f-b9a9-4266846c777b","ios":"levelo://app?vid=3dd05bbe-7d4d-4d5f-b9a9-4266846c777b"},"vehicle_type_id":"4","last_reported":1702832759,"current_range_meters":30000,"station_id":"ce4bhu92rcd13ifvqi70","pricing_plan_id":"free"},{"bike_id":"e84f6252-dfd2-4688-b914-9eca8c7cdb93","system_id":"levelo_inurba_marseille","lat":43.23195,"lon":5.35543,"is_reserved":false,"is_disabled":false,"rental_uris":{"android":"levelo://app?vid=e84f6252-dfd2-4688-b914-9eca8c7cdb93","ios":"levelo://app?vid=e84f6252-dfd2-4688-b914-9eca8c7cdb93"},"vehicle_type_id":"4","last_reported":1702832759,"current_range_meters":20400,"station_id":"ce4bhu92rcd13ifvqi70","pricing_plan_id":"free"},{"bike_id":"deb8549c-895f-4c6d-b68c-130ea343f1e6","system_id":"levelo_inurba_marseille","lat":43.23194,"lon":5.35555,"is_reserved":false,"is_disabled":false,"rental_uris":{"android":"levelo://app?vid=deb8549c-895f-4c6d-b68c-130ea343f1e6","ios":"levelo://app?vid=deb8549c-895f-4c6d-b68c-130ea343f1e6"},"vehicle_type_id":"4","last_reported":1702832759,"current_range_meters":19600,"station_id":"ce4bhu92rcd13ifvqi70","pricing_plan_id":"free"},{"bike_id":"d5206a6c-92a9-4a75-8859-313a2b40fcd2","system_id":"levelo_inurba_marseille","lat":43.231793,"lon":5.400044,"is_reserved":false,"is_disabled":false,"rental_uris":{"android":"levelo://app?vid=d5206a6c-92a9-4a75-8859-313a2b40fcd2","ios":"levelo://app?vid=d5206a6c-92a9-4a75-8859-313a2b40fcd2"},"vehicle_type_id":"4","last_reported":1702832759,"current_range_meters":31200,"station_id":"ce4bhn12rcd13ifvqgqg","pricing_plan_id":"free"},{"bike_id":"82b0b121-d2e6-4f04-8530-97cda8a0fbcd","system_id":"levelo_inurba_marseille","lat":43.231794,"lon":5.400052,"is_reserved":false,"is_disabled":false,"rental_uris":{"android":"levelo://app?vid=82b0b121-d2e6-4f04-8530-97cda8a0fbcd","ios":"levelo://app?vid=82b0b121-d2e6-4f04-8530-97cda8a0fbcd"},"vehicle_type_id":"4","last_reported":1702832759,"current_range_meters":31200,"station_id":"ce4bhn12rcd13ifvqgqg","pricing_plan_id":"free"},{"bike_id":"3ee0ea00-8e05-48c0-a38d-caf8a81146cd","system_id":"levelo_inurba_marseille","lat":43.231794,"lon":5.400052,"is_reserved":false,"is_disabled":false,"rental_uris":{"android":"levelo://app?vid=3ee0ea00-8e05-48c0-a38d-caf8a81146cd","ios":"levelo://app?vid=3ee0ea00-8e05-48c0-a38d-caf8a81146cd"},"vehicle_type_id":"4","last_reported":1702832759,"current_range_meters":30800,"station_id":"ce4bhn12rcd13ifvqgqg","pricing_plan_id":"free"},{"bike_id":"56e5134b-2d66-4511-b569-3c4bfa4ce73d","system_id":"levelo_inurba_marseille","lat":43.231817,"lon":5.399903,"is_reserved":false,"is_disabled":false,"rental_uris":{"android":"levelo://app?vid=56e5134b-2d66-4511-b569-3c4bfa4ce73d","ios":"levelo://app?vid=56e5134b-2d66-4511-b569-3c4bfa4ce73d"},"vehicle_type_id":"4","last_reported":1702832759,"current_range_meters":2000,"station_id":"ce4bhn12rcd13ifvqgqg","pricing_plan_id":"free"},{"bike_id":"f24eb76b-d777-4231-a0c9-e86572250025","system_id":"levelo_inurba_marseille","lat":43.231793,"lon":5.400044,"is_reserved":false,"is_disabled":false,"rental_uris":{"android":"levelo://app?vid=f24eb76b-d777-4231-a0c9-e86572250025","ios":"levelo://app?vid=f24eb76b-d777-4231-a0c9-e86572250025"},"vehicle_type_id":"4","last_reported":1702832759,"current_range_meters":16000,"station_id":"ce4bhn12rcd13ifvqgqg","pricing_plan_id":"free"},{"bike_id":"1a9f340c-e51f-4203-955a-ec15fcead8aa","system_id":"levelo_inurba_marseille","lat":43.231794,"lon":5.400052,"is_reserved":false,"is_disabled":false,"rental_uris":{"android":"levelo://app?vid=1a9f340c-e51f-4203-955a-ec15fcead8aa","ios":"levelo://app?vid=1a9f340c-e51f-4203-955a-ec15fcead8aa"},"vehicle_type_id":"4","last_reported":1702832759,"current_range_meters":24800,"station_id":"ce4bhn12rcd13ifvqgqg","pricing_plan_id":"free"},{"bike_id":"a0a25d8d-07fa-47e8-a43b-30fb24b3ce53","system_id":"levelo_inurba_marseille","lat":43.231794,"lon":5.400052,"is_reserved":false,"is_disabled":false,"rental_uris":{"android":"levelo://app?vid=a0a25d8d-07fa-47e8-a43b-30fb24b3ce53","ios":"levelo://app?vid=a0a25d8d-07fa-47e8-a43b-30fb24b3ce53"},"vehicle_type_id":"4","last_reported":1702832759,"current_range_meters":14800,"station_id":"ce4bhn12rcd13ifvqgqg","pricing_plan_id":"free"},{"bike_id":"8fc3d730-5b0f-4365-bffe-3f7b838e64f7","system_id":"levelo_inurba_marseille","lat":43.231793,"lon":5.400044,"is_reserved":false,"is_disabled":false,"rental_uris":{"android":"levelo://app?vid=8fc3d730-5b0f-4365-bffe-3f7b838e64f7","ios":"levelo://app?vid=8fc3d730-5b0f-4365-bffe-3f7b838e64f7"},"vehicle_type_id":"4","last_reported":1702832759,"current_range_meters":16800,"station_id":"ce4bhn12rcd13ifvqgqg","pricing_plan_id":"free"},{"bike_id":"9eda3020-71fa-42b3-86ef-c71f0f5d8c14","system_id":"levelo_inurba_marseille","lat":43.231794,"lon":5.400052,"is_reserved":false,"is_disabled":false,"rental_uris":{"android":"levelo://app?vid=9eda3020-71fa-42b3-86ef-c71f0f5d8c14","ios":"levelo://app?vid=9eda3020-71fa-42b3-86ef-c71f0f5d8c14"},"vehicle_type_id":"4","last_reported":1702832759,"current_range_meters":11600,"station_id":"ce4bhn12rcd13ifvqgqg","pricing_plan_id":"free"},