{"last_updated":1721326250,"ttl":30,"version":"2.2","data":{"bikes":[{"bike_id":"d1d81e54-fed9-443c-944a-6820c8a62e66","system_id":"levelo_inurba_marseille","lat":43.31251,"lon":5.36793,"is_reserved":false,"is_disabled":false,"rental_uris":{"android":"levelo://app?vid=d1d81e54-fed9-443c-944a-6820c8a62e66","ios":"levelo://app?vid=d1d81e54-fed9-443c-944a-6820c8a62e66"},"vehicle_type_id":"4","last_reported":1721326250,"current_range_meters":7600,"station_id":"","pricing_plan_id":"cebpf4jnsgd1na2vs0mg"},{"bike_id":"eddc845d-9bf9-4aed-a89b-771c348d8204","system_id":"levelo_inurba_marseille","lat":43.314811,"lon":5.373103,"is_reserved":false,"is_disabled":false,"rental_uris":{"android":"levelo://app?vid=eddc845d-9bf9-4aed-a89b-771c348d8204","ios":"levelo://app?vid=eddc845d-9bf9-4aed-a89b-771c348d8204"},"vehicle_type_id":"4","last_reported":1721326250,"current_range_meters":29200,"station_id":"ce4bgt12rcd13ifvqcd0","pricing_plan_id":"cebpf4jnsgd1na2vs0mg"},{"bike_id":"9277f54a-1db4-470c-9fa6-33c9f732c864","system_id":"levelo_inurba_marseille","lat":43.314811,"lon":5.373103,"is_reserved":false,"is_disabled":false,"rental_uris":{"android":"levelo://app?vid=9277f54a-1db4-470c-9fa6-33c9f732c864","ios":"levelo://app?vid=9277f54a-1db4-470c-9fa6-33c9f732c864"},"vehicle_type_id":"4","last_reported":1721326250,"current_range_meters":11200,"station_id":"ce4bgt12rcd13ifvqcd0","pricing_plan_id":"cebpf4jnsgd1na2vs0mg"},{"bike_id":"b379400d-9e82-42ab-9b10-c5ac69ffef59","system_id":"levelo_inurba_marseille","lat":43.314811,"lon":5.373104,"is_reserved":false,"is_disabled":false,"rental_uris":{"android":"levelo://app?vid=b379400d-9e82-42ab-9b10-c5ac69ffef59","ios":"levelo://app?vid=b379400d-9e82-42ab-9b10-c5ac69ffef59"},"vehicle_type_id":"4","last_reported":1721326250,"current_range_meters":400,"station_id":"ce4bgt12rcd13ifvqcd0","pricing_plan_id":"cebpf4jnsgd1na2vs0mg"},{"bike_id":"7df8dd4a-c865-4f29-b768-21740d0daaaa","system_id":"levelo_inurba_marseille","lat":43.31459,"lon":5.37363,"is_reserved":false,"is_disabled":false,"rental_uris":{"android":"levelo://app?vid=7df8dd4a-c865-4f29-b768-21740d0daaaa","ios":"levelo://app?vid=7df8dd4a-c865-4f29-b768-21740d0daaaa"},"vehicle_type_id":"4","last_reported":1721326250,"current_range_meters":27200,"station_id":"","pricing_plan_id":"cebpf4jnsgd1na2vs0mg"},{"bike_id":"32b15b39-0afe-42df-a1c7-442a67c766e0","system_id":"levelo_inurba_marseille","lat":43.309034,"lon":5.371783,"is_reserved":false,"is_disabled":false,"rental_uris":{"android":"levelo://app?vid=32b15b39-0afe-42df-a1c7-442a67c766e0","ios":"levelo://app?vid=32b15b39-0afe-42df-a1c7-442a67c766e0"},"vehicle_type_id":"4","last_reported":1721326250,"current_range_meters":13600,"station_id":"ce4bguh2rcd13ifvqckg","pricing_plan_id":"cebpf4jnsgd1na2vs0mg"},{"bike_id":"01decb6f-dd76-4fe1-925f-be455f5a0bfb","system_id":"levelo_inurba_marseille","lat":43.309034,"lon":5.371783,"is_reserved":false,"is_disabled":false,"rental_uris":{"android":"levelo://app?vid=01decb6f-dd76-4fe1-925f-be455f5a0bfb","ios":"levelo://app?vid=01decb6f-dd76-4fe1-925f-be455f5a0bfb"},"vehicle_type_id":"4","last_reported":1721326250,"current_range_meters":0,"station_id":"ce4bguh2rcd13ifvqckg","pricing_plan_id":"cebpf4jnsgd1na2vs0mg"},{"bike_id":"70465c97-b6ce-4cce-97b8-8a7b5d6bd44e","system_id":"levelo_inurba_marseille","lat":43.3053,"lon":5.36652,"is_reserved":false,"is_disabled":false,"rental_uris":{"android":"levelo://app?vid=70465c97-b6ce-4cce-97b8-8a7b5d6bd44e","ios":"levelo://app?vid=70465c97-b6ce-4cce-97b8-8a7b5d6bd44e"},"vehicle_type_id":"4","last_reported":1721326250,"current_range_meters":4800,"station_id":"","pricing_plan_id":"cebpf4jnsgd1na2vs0mg"},{"bike_id":"436a1ad7-56c1-4ede-be4c-3dd9e310de52","system_id":"levelo_inurba_marseille","lat":43.305989,"lon":5.37225,"is_reserved":false,"is_disabled":false,"rental_uris":{"android":"levelo://app?vid=436a1ad7-56c1-4ede-be4c-3dd9e310de52","ios":"levelo://app?vid=436a1ad7-56c1-4ede-be4c-3dd9e310de52"},"vehicle_type_id":"4","last_reported":1721326250,"current_range_meters":0,"station_id":"ce4bgqh2rcd13ifvqc4g","pricing_plan_id":"cebpf4jnsgd1na2vs0mg"},{"bike_id":"769c1331-2d25-45f3-98fd-c23311c6a49d","system_id":"levelo_inurba_marseille","lat":43.311125,"lon":5.377624,"is_reserved":false,"is_disabled":false,"rental_uris":{"android":"levelo://app?vid=769c1331-2d25-45f3-98fd-c23311c6a49d","ios":"levelo://app?vid=769c1331-2d25-45f3-98fd-c23311c6a49d"},"vehicle_type_id":"4","last_reported":1721326250,"current_range_meters":0,"station_id":"ce4bgt92rcd13ifvqcg0","pricing_plan_id":"cebpf4jnsgd1na2vs0mg"},{"bike_id":"cba9a4a3-a9a3-4436-9de8-30df9517dc46","system_id":"levelo_inurba_marseille","lat":43.311125,"lon":5.377624,"is_reserved":false,"is_disabled":false,"rental_uris":{"android":"levelo://app?vid=cba9a4a3-a9a3-4436-9de8-30df9517dc46","ios":"levelo://app?vid=cba9a4a3-a9a3-4436-9de8-30df9517dc46"},"vehicle_type_id":"4","last_reported":1721326250,"current_range_meters":0,"station_id":"ce4bgt92rcd13ifvqcg0","pricing_plan_id":"cebpf4jnsgd1na2vs0mg"},{"bike_id":"dd36d5bc-af1b-4892-8fb8-a6d20f8509e9","system_id":"levelo_inurba_marseille","lat":43.307945,"lon":5.376487,"is_reserved":false,"is_disabled":false,"rental_uris":{"android":"levelo://app?vid=dd36d5bc-af1b-4892-8fb8-a6d20f8509e9","ios":"levelo://app?vid=dd36d5bc-af1b-4892-8fb8-a6d20f8509e9"},"vehicle_type_id":"4","last_reported":1721326250,"current_range_meters":9600,"station_id":"ce4bgv92rcd13ifvqcq0","pricing_plan_id":"cebpf4jnsgd1na2vs0mg"},{"bike_id":"8394bcba-1f64-4ba9-9ade-fae8008d642d","system_id":"levelo_inurba_marseille","lat":43.315289,"lon":5.380349,"is_reserved":false,"is_disabled":false,"rental_uris":{"android":"levelo://app?vid=8394bcba-1f64-4ba9-9ade-fae8008d642d","ios":"levelo://app?vid=8394bcba-1f64-4ba9-9ade-fae8008d642d"},"vehicle_type_id":"4","last_reported":1721326250,"current_range_meters":2800,"station_id":"ce4bhsp2rcd13ifvqi50","pricing_plan_id":"cebpf4jnsgd1na2vs0mg"},{"bike_id":"daec042f-15b9-44b9-995e-a0297a9775e0","system_id":"levelo_inurba_marseille","lat":43.301939,"lon":5.366286,"is_reserved":false,"is_disabled":false,"rental_uris":{"android":"levelo://app?vid=daec042f-15b9-44b9-995e-a0297a9775e0","ios":"levelo://app?vid=daec042f-15b9-44b9-995e-a0297a9775e0"},"vehicle_type_id":"4","last_reported":1721326250,"current_range_meters":17600,"station_id":"ce4bgrh2rcd13ifvqc8g","pricing_plan_id":"cebpf4jnsgd1na2vs0mg"},{"bike_id":"e848da6a-018d-415a-b337-8e6b890bd7fc","system_id":"levelo_inurba_marseille","lat":43.324771,"lon":5.36557,"is_reserved":false,"is_disabled":false,"rental_uris":{"android":"levelo://app?vid=e848da6a-018d-415a-b337-8e6b890bd7fc","ios":"levelo://app?vid=e848da6a-018d-415a-b337-8e6b890bd7fc"},"vehicle_type_id":"4","last_reported":1721326250,"current_range_meters":4000,"station_id":"ce4bhs12rcd13ifvqhvg","pricing_plan_id":"cebpf4jnsgd1na2vs0mg"},{"bike_id":"9c7570c9-731e-4f12-b6bf-8c9238f47450","system_id":"levelo_inurba_marseille","lat":43.302784,"lon":5.377158,"is_reserved":false,"is_disabled":false,"rental_uris":{"android":"levelo://app?vid=9c7570c9-731e-4f12-b6bf-8c9238f47450","ios":"levelo://app?vid=9c7570c9-731e-4f12-b6bf-8c9238f47450"},"vehicle_type_id":"4","last_reported":1721326250,"current_range_meters":13600,"station_id":"ce4bguh2rcd13ifvqcj0","pricing_plan_id":"cebpf4jnsgd1na2vs0mg"},{"bike_id":"1cf56526-2d44-47c1-974d-e166d44b6c60","system_id":"levelo_inurba_marseille","lat":43.324771,"lon":5.36557,"is_reserved":false,"is_disabled":false,"rental_uris":{"android":"levelo://app?vid=1cf56526-2d44-47c1-974d-e166d44b6c60","ios":"levelo://app?vid=1cf56526-2d44-47c1-974d-e166d44b6c60"},"vehicle_type_id":"4","last_reported":1721326250,"current_range_meters":800,"station_id":"ce4bhs12rcd13ifvqhvg","pricing_plan_id":"cebpf4jnsgd1na2vs0mg"},{"bike_id":"9d3ad9e9-768f-4d74-9053-c832934ce231","system_id":"levelo_inurba_marseille","lat":43.310804,"lon":5.38359,"is_reserved":false,"is_disabled":false,"rental_uris":{"android":"levelo://app?vid=9d3ad9e9-768f-4d74-9053-c832934ce231","ios":"levelo://app?vid=9d3ad9e9-768f-4d74-9053-c832934ce231"},"vehicle_type_id":"4","last_reported":1721326250,"current_range_meters":31200,"station_id":"ce4bgv92rcd13ifvqcr0","pricing_plan_id":"cebpf4jnsgd1na2vs0mg"},{"bike_id":"c9da4a91-a978-40dd-acbf-a58f321e7b5f","system_id":"levelo_inurba_marseille","lat":43.31078,"lon":5.3835,"is_reserved":false,"is_disabled":false,"rental_uris":{"android":"levelo://app?vid=c9da4a91-a978-40dd-acbf-a58f321e7b5f","ios":"levelo://app?vid=c9da4a91-a978-40dd-acbf-a58f321e7b5f"},"vehicle_type_id":"4","last_reported":1721326250,"current_range_meters":31200,"station_id":"ce4bgv92rcd13ifvqcr0","pricing_plan_id":"cebpf4jnsgd1na2vs0mg"},{"bike_id":"bc2e62ec-971f-4ced-bb67-39c0b9ea1a79","system_id":"levelo_inurba_marseille","lat":43.310804,"lon":5.38359,"is_reserved":false,"is_disabled":false,"rental_uris":{"android":"levelo://app?vid=bc2e62ec-971f-4ced-bb67-39c0b9ea1a79","ios":"levelo://app?vid=bc2e62ec-971f-4ced-bb67-39c0b9ea1a79"},"vehicle_type_id":"4","last_reported":1721326250,"current_range_meters":24800,"station_id":"ce4bgv92rcd13ifvqcr0","pricing_plan_id":"cebpf4jnsgd1na2vs0mg"},{"bike_id":"1bffd251-6f35-4b0c-abfb-01f2abbfa733","system_id":"levelo_inurba_marseille","lat":43.31082,"lon":5.38355,"is_reserved":false,"is_disabled":false,"rental_uris":{"android":"levelo://app?vid=1bffd251-6f35-4b0c-abfb-01f2abbfa733","ios":"levelo://app?vid=1bffd251-6f35-4b0c-abfb-01f2abbfa733"},"vehicle_type_id":"4","last_reported":1721326250,"current_range_meters":8400,"station_id":"ce4bgv92rcd13ifvqcr0","pricing_plan_id":"cebpf4jnsgd1na2vs0mg"},{"bike_id":"fd732cac-b01b-4ff2-aa62-877448aad935","system_id":"levelo_inurba_marseille","lat":43.310804,"lon":5.38359,"is_reserved":false,"is_disabled":false,"rental_uris":{"android":"levelo://app?vid=fd732cac-b01b-4ff2-aa62-877448aad935","ios":"levelo://app?vid=fd732cac-b01b-4ff2-aa62-877448aad935"},"vehicle_type_id":"4","last_reported":1721326250,"current_range_meters":9200,"station_id":"ce4bgv92rcd13ifvqcr0","pricing_plan_id":"cebpf4jnsgd1na2vs0mg"},{"bike_id":"1d864a1d-603e-4482-b4ea-ab6e88c1a3db","system_id":"levelo_inurba_marseille","lat":43.310804,"lon":5.38359,"is_reserved":false,"is_disabled":false,"rental_uris":{"android":"levelo://app?vid=1d864a1d-603e-4482-b4ea-ab6e88c1a3db","ios":"levelo://app?vid=1d864a1d-603e-4482-b4ea-ab6e88c1a3db"},"vehicle_type_id":"4","last_reported":1721326250,"current_range_meters":30000,"station_id":"ce4bgv92rcd13ifvqcr0","pricing_plan_id":"cebpf4jnsgd1na2vs0mg"},{"bike_id":"cbd8f6be-f1f1-4c46-91ea-c96ab22fa706","system_id":"levelo_inurba_marseille","lat":43.31076,"lon":5.38363,"is_reserved":false,"is_disabled":false,"rental_uris":{"android":"levelo://app?vid=cbd8f6be-f1f1-4c46-91ea-c96ab22fa706","ios":"levelo://app?vid=cbd8f6be-f1f1-4c46-91ea-c96ab22fa706"},"vehicle_type_id":"4","last_reported":1721326250,"current_range_meters":6400,"station_id":"ce4bgv92rcd13ifvqcr0","pricing_plan_id":"cebpf4jnsgd1na2vs0mg"},{"bike_id":"b515ff71-48f4-4ec3-9d8b-6fd6181565f4","system_id":"levelo_inurba_marseille","lat":43.3108,"lon":5.38365,"is_reserved":false,"is_disabled":false,"rental_uris":{"android":"levelo://app?vid=b515ff71-48f4-4ec3-9d8b-6fd6181565f4","ios":"levelo://app?vid=b515ff71-48f4-4ec3-9d8b-6fd6181565f4"},"vehicle_type_id":"4","last_reported":1721326250,"current_range_meters":8000,"station_id":"ce4bgv92rcd13ifvqcr0","pricing_plan_id":"cebpf4jnsgd1na2vs0mg"},{"bike_id":"475c50d9-d46f-470e-a0d1-4d4db7ff957c","system_id":"levelo_inurba_marseille","lat":43.301429,"lon":5.37413,"is_reserved":false,"is_disabled":false,"rental_uris":{"android":"levelo://app?vid=475c50d9-d46f-470e-a0d1-4d4db7ff957c","ios":"levelo://app?vid=475c50d9-d46f-470e-a0d1-4d4db7ff957c"},"vehicle_type_id":"4","last_reported":1721326250,"current_range_meters":27600,"station_id":"ce4bgs92rcd13ifvqcc0","pricing_plan_id":"cebpf4jnsgd1na2vs0mg"},{"bike_id":"1c711427-e748-4375-93ed-84a508f285d9","system_id":"levelo_inurba_marseille","lat":43.317557,"lon":5.390173,"is_reserved":false,"is_disabled":false,"rental_uris":{"android":"levelo://app?vid=1c711427-e748-4375-93ed-84a508f285d9","ios":"levelo://app?vid=1c711427-e748-4375-93ed-84a508f285d9"},"vehicle_type_id":"4","last_reported":1721326250,"current_range_meters":31200,"station_id":"ce4bhqp2rcd13ifvqhng","pricing_plan_id":"cebpf4jnsgd1na2vs0mg"},{"bike_id":"e483cdfb-e9c2-4866-a061-4f23a8b42738","system_id":"levelo_inurba_marseille","lat":43.319935,"lon":5.381699,"is_reserved":false,"is_disabled":false,"rental_uris":{"android":"levelo://app?vid=e483cdfb-e9c2-4866-a061-4f23a8b42738","ios":"levelo://app?vid=e483cdfb-e9c2-4866-a061-4f23a8b42738"},"vehicle_type_id":"4","last_reported":1721326250,"current_range_meters":10400,"station_id":"ce4bhr12rcd13ifvqhpg","pricing_plan_id":"cebpf4jnsgd1na2vs0mg"},{"bike_id":"a1d8e790-649d-496f-9048-e53ffea4c30b","system_id":"levelo_inurba_marseille","lat":43.2993,"lon":5.36364,"is_reserved":false,"is_disabled":false,"rental_uris":{"android":"levelo://app?vid=a1d8e790-649d-496f-9048-e53ffea4c30b","ios":"levelo://app?vid=a1d8e790-649d-496f-9048-e53ffea4c30b"},"vehicle_type_id":"4","last_reported":1721326250,"current_range_meters":19600,"station_id":"","pricing_plan_id":"cebpf4jnsgd1na2vs0mg"},{"bike_id":"776a4eef-0bf0-4cbb-82f3-2e1d4d6bfe72","system_id":"levelo_inurba_marseille","lat":43.305364,"lon":5.384119,"is_reserved":false,"is_disabled":false,"rental_uris":{"android":"levelo://app?vid=776a4eef-0bf0-4cbb-82f3-2e1d4d6bfe72","ios":"levelo://app?vid=776a4eef-0bf0-4cbb-82f3-2e1d4d6bfe72"},"vehicle_type_id":"4","last_reported":1721326250,"current_range_meters":18800,"station_id":"ce4bgg92rcd13ifvqb30","pricing_plan_id":"cebpf4jnsgd1na2vs0mg"},{"bike_id":"664c5861-9ea4-410d-a2d2-cce86ba35887","system_id":"levelo_inurba_marseille","lat":43.311722,"lon":5.387247,"is_reserved":false,"is_disabled":false,"rental_uris":{"android":"levelo://app?vid=664c5861-9ea4-410d-a2d2-cce86ba35887","ios":"levelo://app?vid=664c5861-9ea4-410d-a2d2-cce86ba35887"},"vehicle_type_id":"4","last_reported":1721326250,"current_range_meters":2000,"station_id":"ce4bgv12rcd13ifvqcp0","pricing_plan_id":"cebpf4jnsgd1na2vs0mg"},{"bike_id":"760dbf3a-bd56-4052-ab9c-f968d06ea1db","system_id":"levelo_inurba_marseille","lat":43.311722,"lon":5.387247,"is_reserved":false,"is_disabled":false,"rental_uris":{"android":"levelo://app?vid=760dbf3a-bd56-4052-ab9c-f968d06ea1db","ios":"levelo://app?vid=760dbf3a-bd56-4052-ab9c-f968d06ea1db"},"vehicle_type_id":"4","last_reported":1721326250,"current_range_meters":0,"station_id":"ce4bgv12rcd13ifvqcp0","pricing_plan_id":"cebpf4jnsgd1na2vs0mg"},{"bike_id":"90a232be-c50f-4417-a98a-db596d190923","system_id":"levelo_inurba_marseille","lat":43.305364,"lon":5.384119,"is_reserved":false,"is_disabled":false,"rental_uris":{"android":"levelo://app?vid=90a232be-c50f-4417-a98a-db596d190923","ios":"levelo://app?vid=90a232be-c50f-4417-a98a-db596d190923"},"vehicle_type_id":"4","last_reported":1721326250,"current_range_meters":400,"station_id":"ce4bgg92rcd13ifvqb30","pricing_plan_id":"cebpf4jnsgd1na2vs0mg"},{"bike_id":"47af5039-5e09-404e-8434-fb66ac27c507","system_id":"levelo_inurba_marseille","lat":43.311722,"lon":5.387247,"is_reserved":false,"is_disabled":false,"rental_uris":{"android":"levelo://app?vid=47af5039-5e09-404e-8434-fb66ac27c507","ios":"levelo://app?vid=47af5039-5e09-404e-8434-fb66ac27c507"},"vehicle_type_id":"4","last_reported":1721326250,"current_range_meters":800,"station_id":"ce4bgv12rcd13ifvqcp0","pricing_plan_id":"cebpf4jnsgd1na2vs0mg"},{"bike_id":"2ba1cd19-4d4f-45ac-aae7-9679f5682841","system_id":"levelo_inurba_marseille","lat":43.32292,"lon":5.38259,"is_reserved":false,"is_disabled":false,"rental_uris":{"android":"levelo://app?vid=2ba1cd19-4d4f-45ac-aae7-9679f5682841","ios":"levelo://app?vid=2ba1cd19-4d4f-45ac-aae7-9679f5682841"},"vehicle_type_id":"4","last_reported":1721326250,"current_range_meters":30400,"station_id":"ce4bhr12rcd13ifvqhqg","pricing_plan_id":"cebpf4jnsgd1na2vs0mg"},{"bike_id":"5d09c540-3302-4731-9cc7-8cea9203cf4a","system_id":"levelo_inurba_marseille","lat":43.322872,"lon":5.382756,"is_reserved":false,"is_disabled":false,"rental_uris":{"android":"levelo://app?vid=5d09c540-3302-4731-9cc7-8cea9203cf4a","ios":"levelo://app?vid=5d09c540-3302-4731-9cc7-8cea9203cf4a"},"vehicle_type_id":"4","last_reported":1721326250,"current_range_meters":28000,"station_id":"ce4bhr12rcd13ifvqhqg","pricing_plan_id":"cebpf4jnsgd1na2vs0mg"},{"bike_id":"261ac284-86b9-489c-9202-fab809c2aa69","system_id":"levelo_inurba_marseille","lat":43.297163,"lon":5.365866,"is_reserved":false,"is_disabled":false,"rental_uris":{"android":"levelo://app?vid=261ac284-86b9-489c-9202-fab809c2aa69","ios":"levelo://app?vid=261ac284-86b9-489c-9202-fab809c2aa69"},"vehicle_type_id":"4","last_reported":1721326250,"current_range_meters":0,"station_id":"ce4bgn12rcd13ifvqbt0","pricing_plan_id":"cebpf4jnsgd1na2vs0mg"},{"bike_id":"cef5d9dd-77ae-4887-adaa-538bf679c9c3","system_id":"levelo_inurba_marseille","lat":43.2968,"lon":5.37291,"is_reserved":false,"is_disabled":false,"rental_uris":{"android":"levelo://app?vid=cef5d9dd-77ae-4887-adaa-538bf679c9c3","ios":"levelo://app?vid=cef5d9dd-77ae-4887-adaa-538bf679c9c3"},"vehicle_type_id":"4","last_reported":1721326250,"current_range_meters":10000,"station_id":"ce4bgk12rcd13ifvqbj0","pricing_plan_id":"cebpf4jnsgd1na2vs0mg"},{"bike_id":"8db57188-6d8a-452d-a0be-5940d0d3ae97","system_id":"levelo_inurba_marseille","lat":43.296131,"lon":5.370791,"is_reserved":false,"is_disabled":false,"rental_uris":{"android":"levelo://app?vid=8db57188-6d8a-452d-a0be-5940d0d3ae97","ios":"levelo://app?vid=8db57188-6d8a-452d-a0be-5940d0d3ae97"},"vehicle_type_id":"4","last_reported":1721326250,"current_range_meters":0,"station_id":"ce4bgnh2rcd13ifvqc0g","pricing_plan_id":"cebpf4jnsgd1na2vs0mg"},{"bike_id":"0e9d9ff9-9d04-4f79-b2a9-a586abf647cd","system_id":"levelo_inurba_marseille","lat":43.29587,"lon":5.36743,"is_reserved":false,"is_disabled":false,"rental_uris":{"android":"levelo://app?vid=0e9d9ff9-9d04-4f79-b2a9-a586abf647cd","ios":"levelo://app?vid=0e9d9ff9-9d04-4f79-b2a9-a586abf647cd"},"vehicle_type_id":"4","last_reported":1721326250,"current_range_meters":0,"station_id":"ce4bgph2rcd13ifvqc2g","pricing_plan_id":"cebpf4jnsgd1na2vs0mg"},{"bike_id":"57908f65-0eea-489e-a277-2dbcc032cb7c","system_id":"levelo_inurba_marseille","lat":43.30953,"lon":5.39015,"is_reserved":false,"is_disabled":false,"rental_uris":{"android":"levelo://app?vid=57908f65-0eea-489e-a277-2dbcc032cb7c","ios":"levelo://app?vid=57908f65-0eea-489e-a277-2dbcc032cb7c"},"vehicle_type_id":"4","last_reported":1721326250,"current_range_meters":14800,"station_id":"ce4bgup2rcd13ifvqco0","pricing_plan_id":"cebpf4jnsgd1na2vs0mg"},{"bike_id":"3d02e524-475a-4ab6-9643-cb1acad4bd5e","system_id":"levelo_inurba_marseille","lat":43.30959,"lon":5.39031,"is_reserved":false,"is_disabled":false,"rental_uris":{"android":"levelo://app?vid=3d02e524-475a-4ab6-9643-cb1acad4bd5e","ios":"levelo://app?vid=3d02e524-475a-4ab6-9643-cb1acad4bd5e"},"vehicle_type_id":"4","last_reported":1721326250,"current_range_meters":16800,"station_id":"ce4bgup2rcd13ifvqco0","pricing_plan_id":"cebpf4jnsgd1na2vs0mg"},{"bike_id":"7c423f61-88c9-48bf-b86d-328915a70041","system_id":"levelo_inurba_marseille","lat":43.309589,"lon":5.390258,"is_reserved":false,"is_disabled":false,"rental_uris":{"android":"levelo://app?vid=7c423f61-88c9-48bf-b86d-328915a70041","ios":"levelo://app?vid=7c423f61-88c9-48bf-b86d-328915a70041"},"vehicle_type_id":"4","last_reported":1721326250,"current_range_meters":6400,"station_id":"ce4bgup2rcd13ifvqco0","pricing_plan_id":"cebpf4jnsgd1na2vs0mg"},{"bike_id":"e8636a22-b39e-4356-ac73-bb147793d1a7","system_id":"levelo_inurba_marseille","lat":43.297005,"lon":5.377239,"is_reserved":false,"is_disabled":false,"rental_uris":{"android":"levelo://app?vid=e8636a22-b39e-4356-ac73-bb147793d1a7","ios":"levelo://app?vid=e8636a22-b39e-4356-ac73-bb147793d1a7"},"vehicle_type_id":"4","last_reported":1721326250,"current_range_meters":2000,"station_id":"","pricing_plan_id":"cebpf4jnsgd1na2vs0mg"},{"bike_id":"ec32fbb8-6cd9-4ccb-adb6-126a4b41897f","system_id":"levelo_inurba_marseille","lat":43.317557,"lon":5.390173,"is_reserved":false,"is_disabled":false,"rental_uris":{"android":"levelo://app?vid=ec32fbb8-6cd9-4ccb-adb6-126a4b41897f","ios":"levelo://app?vid=ec32fbb8-6cd9-4ccb-adb6-126a4b41897f"},"vehicle_type_id":"4","last_reported":1721326250,"current_range_meters":0,"station_id":"ce4bhqp2rcd13ifvqhng","pricing_plan_id":"cebpf4jnsgd1na2vs0mg"},{"bike_id":"e98fec9c-4c1d-4f8a-98d3-b2619fe60c0f","system_id":"levelo_inurba_marseille","lat":43.295748,"lon":5.37522,"is_reserved":false,"is_disabled":false,"rental_uris":{"android":"levelo://app?vid=e98fec9c-4c1d-4f8a-98d3-b2619fe60c0f","ios":"levelo://app?vid=e98fec9c-4c1d-4f8a-98d3-b2619fe60c0f"},"vehicle_type_id":"4","last_reported":1721326250,"current_range_meters":0,"station_id":"ce4bgh92rcd13ifvqb50","pricing_plan_id":"cebpf4jnsgd1na2vs0mg"},{"bike_id":"c8d62d96-550a-4205-9aa2-caea61411de0","system_id":"levelo_inurba_marseille","lat":43.309589,"lon":5.390258,"is_reserved":false,"is_disabled":false,"rental_uris":{"android":"levelo://app?vid=c8d62d96-550a-4205-9aa2-caea61411de0","ios":"levelo://app?vid=c8d62d96-550a-4205-9aa2-caea61411de0"},"vehicle_type_id":"4","last_reported":1721326250,"current_range_meters":18000,"station_id":"ce4bgup2rcd13ifvqco0","pricing_plan_id":"cebpf4jnsgd1na2vs0mg"},{"bike_id":"f76e231e-a50e-43de-bf1e-238f365263f7","system_id":"levelo_inurba_marseille","lat":43.2952,"lon":5.37433,"is_reserved":false,"is_disabled":false,"rental_uris":{"android":"levelo://app?vid=f76e231e-a50e-43de-bf1e-238f365263f7","ios":"levelo://app?vid=f76e231e-a50e-43de-bf1e-238f365263f7"},"vehicle_type_id":"4","last_reported":1721326250,"current_range_meters":0,"station_id":"","pricing_plan_id":"cebpf4jnsgd1na2vs0mg"},{"bike_id":"c168ba08-a068-426c-b23a-17694fb5dcd0","system_id":"levelo_inurba_marseille","lat":43.299724,"lon":5.384848,"is_reserved":false,"is_disabled":false,"rental_uris":{"android":"levelo://app?vid=c168ba08-a068-426c-b23a-17694fb5dcd0","ios":"levelo://app?vid=c168ba08-a068-426c-b23a-17694fb5dcd0"},"vehicle_type_id":"4","last_reported":1721326250,"current_range_meters":0,"station_id":"ce4bgj92rcd13ifvqbd0","pricing_plan_id":"cebpf4jnsgd1na2vs0mg"},{"bike_id":"18491e9b-089a-423d-92a6-2224fb4ac1cb","system_id":"levelo_inurba_marseille","lat":43.30473,"lon":5.39011,"is_reserved":false,"is_disabled":false,"rental_uris":{"android":"levelo://app?vid=18491e9b-089a-423d-92a6-2224fb4ac1cb","ios":"levelo://app?vid=18491e9b-089a-423d-92a6-2224fb4ac1cb"},"vehicle_type_id":"4","last_reported":1721326250,"current_range_meters":10400,"station_id":"","pricing_plan_id":"cebpf4jnsgd1na2vs0mg"},{"bike_id":"60bb2e82-3b84-4954-b775-633ec06eae06","system_id":"levelo_inurba_marseille","lat":43.301381,"lon":5.387691,"is_reserved":false,"is_disabled":false,"rental_uris":{"android":"levelo://app?vid=60bb2e82-3b84-4954-b775-633ec06eae06","ios":"levelo://app?vid=60bb2e82-3b84-4954-b775-633ec06eae06"},"vehicle_type_id":"4","last_reported":1721326250,"current_range_meters":19200,"station_id":"ce4bghh2rcd13ifvqb60","pricing_plan_id":"cebpf4jnsgd1na2vs0mg"},{"bike_id":"ef86d59f-81a1-4f27-b466-fa504724136e","system_id":"levelo_inurba_marseille","lat":43.30136,"lon":5.38779,"is_reserved":false,"is_disabled":false,"rental_uris":{"android":"levelo://app?vid=ef86d59f-81a1-4f27-b466-fa504724136e","ios":"levelo://app?vid=ef86d59f-81a1-4f27-b466-fa504724136e"},"vehicle_type_id":"4","last_reported":1721326250,"current_range_meters":4800,"station_id":"ce4bghh2rcd13ifvqb60","pricing_plan_id":"cebpf4jnsgd1na2vs0mg"},{"bike_id":"ba514446-4531-4ecf-9c09-350be85521cf","system_id":"levelo_inurba_marseille","lat":43.32367,"lon":5.388836,"is_reserved":false,"is_disabled":false,"rental_uris":{"android":"levelo://app?vid=ba514446-4531-4ecf-9c09-350be85521cf","ios":"levelo://app?vid=ba514446-4531-4ecf-9c09-350be85521cf"},"vehicle_type_id":"4","last_reported":1721326250,"current_range_meters":0,"station_id":"ce4bhqp2rcd13ifvqhog","pricing_plan_id":"cebpf4jnsgd1na2vs0mg"},{"bike_id":"2aeaaab9-ad82-417d-8e44-8375dffaf90a","system_id":"levelo_inurba_marseille","lat":43.30747,"lon":5.39261,"is_reserved":false,"is_disabled":false,"rental_uris":{"android":"levelo://app?vid=2aeaaab9-ad82-417d-8e44-8375dffaf90a","ios":"levelo://app?vid=2aeaaab9-ad82-417d-8e44-8375dffaf90a"},"vehicle_type_id":"4","last_reported":1721326250,"current_range_meters":17200,"station_id":"","pricing_plan_id":"cebpf4jnsgd1na2vs0mg"},{"bike_id":"2d9481c8-5f3c-4412-94eb-470b6fe9fb7b","system_id":"levelo_inurba_marseille","lat":43.29602,"lon":5.381084,"is_reserved":false,"is_disabled":false,"rental_uris":{"android":"levelo://app?vid=2d9481c8-5f3c-4412-94eb-470b6fe9fb7b","ios":"levelo://app?vid=2d9481c8-5f3c-4412-94eb-470b6fe9fb7b"},"vehicle_type_id":"4","last_reported":1721326250,"current_range_meters":800,"station_id":"ce4bgl12rcd13ifvqbo0","pricing_plan_id":"cebpf4jnsgd1na2vs0mg"},{"bike_id":"7a52eb6e-da9e-4f7d-8fd4-b023ddc369d0","system_id":"levelo_inurba_marseille","lat":43.29358,"lon":5.37434,"is_reserved":false,"is_disabled":false,"rental_uris":{"android":"levelo://app?vid=7a52eb6e-da9e-4f7d-8fd4-b023ddc369d0","ios":"levelo://app?vid=7a52eb6e-da9e-4f7d-8fd4-b023ddc369d0"},"vehicle_type_id":"4","last_reported":1721326250,"current_range_meters":0,"station_id":"","pricing_plan_id":"cebpf4jnsgd1na2vs0mg"},{"bike_id":"0851778d-f217-440e-b22b-aaaf7e72b31d","system_id":"levelo_inurba_marseille","lat":43.292749,"lon":5.368402,"is_reserved":false,"is_disabled":false,"rental_uris":{"android":"levelo://app?vid=0851778d-f217-440e-b22b-aaaf7e72b31d","ios":"levelo://app?vid=0851778d-f217-440e-b22b-aaaf7e72b31d"},"vehicle_type_id":"4","last_reported":1721326250,"current_range_meters":0,"station_id":"ce4bhbp2rcd13ifvqesg","pricing_plan_id":"cebpf4jnsgd1na2vs0mg"},{"bike_id":"438bc241-d99f-4cfe-909b-c390857897c3","system_id":"levelo_inurba_marseille","lat":43.29275,"lon":5.36836,"is_reserved":false,"is_disabled":false,"rental_uris":{"android":"levelo://app?vid=438bc241-d99f-4cfe-909b-c390857897c3","ios":"levelo://app?vid=438bc241-d99f-4cfe-909b-c390857897c3"},"vehicle_type_id":"4","last_reported":1721326250,"current_range_meters":0,"station_id":"ce4bhbp2rcd13ifvqesg","pricing_plan_id":"cebpf4jnsgd1na2vs0mg"},{"bike_id":"8f3de14b-bf11-44a4-a722-3a352b97920a","system_id":"levelo_inurba_marseille","lat":43.292749,"lon":5.368398,"is_reserved":false,"is_disabled":false,"rental_uris":{"android":"levelo://app?vid=8f3de14b-bf11-44a4-a722-3a352b97920a","ios":"levelo://app?vid=8f3de14b-bf11-44a4-a722-3a352b97920a"},"vehicle_type_id":"4","last_reported":1721326250,"current_range_meters":0,"station_id":"ce4bhbp2rcd13ifvqesg","pricing_plan_id":"cebpf4jnsgd1na2vs0mg"},{"bike_id":"75ce2870-3c65-41b4-be40-1c6a0cd7b669","system_id":"levelo_inurba_marseille","lat":43.292749,"lon":5.368398,"is_reserved":false,"is_disabled":false,"rental_uris":{"android":"levelo://app?vid=75ce2870-3c65-41b4-be40-1c6a0cd7b669","ios":"levelo://app?vid=75ce2870-3c65-41b4-be40-1c6a0cd7b669"},"vehicle_type_id":"4","last_reported":1721326250,"current_range_meters":0,"station_id":"ce4bhbp2rcd13ifvqesg","pricing_plan_id":"cebpf4jnsgd1na2vs0mg"},{"bike_id":"9a6d600d-a9dd-4ffe-95b3-13f5b3366a19","system_id":"levelo_inurba_marseille","lat":43.29272,"lon":5.3684,"is_reserved":false,"is_disabled":false,"rental_uris":{"android":"levelo://app?vid=9a6d600d-a9dd-4ffe-95b3-13f5b3366a19","ios":"levelo://app?vid=9a6d600d-a9dd-4ffe-95b3-13f5b3366a19"},"vehicle_type_id":"4","last_reported":1721326250,"current_range_meters":0,"station_id":"ce4bhbp2rcd13ifvqesg","pricing_plan_id":"cebpf4jnsgd1na2vs0mg"},{"bike_id":"5ea2707d-ffe5-4cef-84a8-05f229dcc51d","system_id":"levelo_inurba_marseille","lat":43.29235,"lon":5.36533,"is_reserved":false,"is_disabled":false,"rental_uris":{"android":"levelo://app?vid=5ea2707d-ffe5-4cef-84a8-05f229dcc51d","ios":"levelo://app?vid=5ea2707d-ffe5-4cef-84a8-05f229dcc51d"},"vehicle_type_id":"4","last_reported":1721326250,"current_range_meters":3200,"station_id":"","pricing_plan_id":"cebpf4jnsgd1na2vs0mg"},{"bike_id":"8f8262de-ba63-4860-81d1-69219abc2c49","system_id":"levelo_inurba_marseille","lat":43.293009,"lon":5.374584,"is_reserved":false,"is_disabled":false,"rental_uris":{"android":"levelo://app?vid=8f8262de-ba63-4860-81d1-69219abc2c49","ios":"levelo://app?vid=8f8262de-ba63-4860-81d1-69219abc2c49"},"vehicle_type_id":"4","last_reported":1721326250,"current_range_meters":31600,"station_id":"ce4bgi12rcd13ifvqb70","pricing_plan_id":"cebpf4jnsgd1na2vs0mg"},{"bike_id":"12b8459a-6a87-4648-bb13-5fdd4422523f","system_id":"levelo_inurba_marseille","lat":43.293009,"lon":5.374584,"is_reserved":false,"is_disabled":false,"rental_uris":{"android":"levelo://app?vid=12b8459a-6a87-4648-bb13-5fdd4422523f","ios":"levelo://app?vid=12b8459a-6a87-4648-bb13-5fdd4422523f"},"vehicle_type_id":"4","last_reported":1721326250,"current_range_meters":20400,"station_id":"ce4bgi12rcd13ifvqb70","pricing_plan_id":"cebpf4jnsgd1na2vs0mg"},{"bike_id":"8d089653-3cc0-4fc7-99e5-18b4ac7e4a12","system_id":"levelo_inurba_marseille","lat":43.305994,"lon":5.393687,"is_reserved":false,"is_disabled":false,"rental_uris":{"android":"levelo://app?vid=8d089653-3cc0-4fc7-99e5-18b4ac7e4a12","ios":"levelo://app?vid=8d089653-3cc0-4fc7-99e5-18b4ac7e4a12"},"vehicle_type_id":"4","last_reported":1721326250,"current_range_meters":1600,"station_id":"ce4bh0p2rcd13ifvqd80","pricing_plan_id":"cebpf4jnsgd1na2vs0mg"},{"bike_id":"beaedba7-7776-4297-98c8-6ac11bb8a37b","system_id":"levelo_inurba_marseille","lat":43.2936,"lon":5.37835,"is_reserved":false,"is_disabled":false,"rental_uris":{"android":"levelo://app?vid=beaedba7-7776-4297-98c8-6ac11bb8a37b","ios":"levelo://app?vid=beaedba7-7776-4297-98c8-6ac11bb8a37b"},"vehicle_type_id":"4","last_reported":1721326250,"current_range_meters":0,"station_id":"ce4bgjh2rcd13ifvqbf0","pricing_plan_id":"cebpf4jnsgd1na2vs0mg"},{"bike_id":"35801818-be4c-4e74-94a4-666d150b6708","system_id":"levelo_inurba_marseille","lat":43.2936,"lon":5.37835,"is_reserved":false,"is_disabled":false,"rental_uris":{"android":"levelo://app?vid=35801818-be4c-4e74-94a4-666d150b6708","ios":"levelo://app?vid=35801818-be4c-4e74-94a4-666d150b6708"},"vehicle_type_id":"4","last_reported":1721326250,"current_range_meters":3200,"station_id":"ce4bgjh2rcd13ifvqbf0","pricing_plan_id":"cebpf4jnsgd1na2vs0mg"},{"bike_id":"1594921e-8456-4b7d-a27e-3ff8722e5fbf","system_id":"levelo_inurba_marseille","lat":43.2936,"lon":5.37835,"is_reserved":false,"is_disabled":false,"rental_uris":{"android":"levelo://app?vid=1594921e-8456-4b7d-a27e-3ff8722e5fbf","ios":"levelo://app?vid=1594921e-8456-4b7d-a27e-3ff8722e5fbf"},"vehicle_type_id":"4","last_reported":1721326250,"current_range_meters":26000,"station_id":"ce4bgjh2rcd13ifvqbf0","pricing_plan_id":"cebpf4jnsgd1na2vs0mg"},{"bike_id":"57183085-d82a-4a41-ab64-44fda4be616f","system_id":"levelo_inurba_marseille","lat":43.2936,"lon":5.37835,"is_reserved":false,"is_disabled":false,"rental_uris":{"android":"levelo://app?vid=57183085-d82a-4a41-ab64-44fda4be616f","ios":"levelo://app?vid=57183085-d82a-4a41-ab64-44fda4be616f"},"vehicle_type_id":"4","last_reported":1721326250,"current_range_meters":0,"station_id":"ce4bgjh2rcd13ifvqbf0","pricing_plan_id":"cebpf4jnsgd1na2vs0mg"},{"bike_id":"8f330f34-d689-488d-b018-4308ad3b6612","system_id":"levelo_inurba_marseille","lat":43.302992,"lon":5.392136,"is_reserved":false,"is_disabled":false,"rental_uris":{"android":"levelo://app?vid=8f330f34-d689-488d-b018-4308ad3b6612","ios":"levelo://app?vid=8f330f34-d689-488d-b018-4308ad3b6612"},"vehicle_type_id":"4","last_reported":1721326250,"current_range_meters":0,"station_id":"ce4bgkh2rcd13ifvqbk0","pricing_plan_id":"cebpf4jnsgd1na2vs0mg"},{"bike_id":"35fa1137-7bbb-4c68-8b28-0a2d3d1d940e","system_id":"levelo_inurba_marseille","lat":43.292311,"lon":5.360731,"is_reserved":false,"is_disabled":false,"rental_uris":{"android":"levelo://app?vid=35fa1137-7bbb-4c68-8b28-0a2d3d1d940e","ios":"levelo://app?vid=35fa1137-7bbb-4c68-8b28-0a2d3d1d940e"},"vehicle_type_id":"4","last_reported":1721326250,"current_range_meters":0,"station_id":"ce4bhbh2rcd13ifvqeqg","pricing_plan_id":"cebpf4jnsgd1na2vs0mg"},{"bike_id":"9f63e360-1533-48e2-8786-5b550de83ae9","system_id":"levelo_inurba_marseille","lat":43.326567,"lon":5.388517,"is_reserved":false,"is_disabled":false,"rental_uris":{"android":"levelo://app?vid=9f63e360-1533-48e2-8786-5b550de83ae9","ios":"levelo://app?vid=9f63e360-1533-48e2-8786-5b550de83ae9"},"vehicle_type_id":"4","last_reported":1721326250,"current_range_meters":3600,"station_id":"","pricing_plan_id":"cebpf4jnsgd1na2vs0mg"},{"bike_id":"6a164981-d4c9-4f05-af60-482057fabec8","system_id":"levelo_inurba_marseille","lat":43.292311,"lon":5.360731,"is_reserved":false,"is_disabled":false,"rental_uris":{"android":"levelo://app?vid=6a164981-d4c9-4f05-af60-482057fabec8","ios":"levelo://app?vid=6a164981-d4c9-4f05-af60-482057fabec8"},"vehicle_type_id":"4","last_reported":1721326250,"current_range_meters":0,"station_id":"ce4bhbh2rcd13ifvqeqg","pricing_plan_id":"cebpf4jnsgd1na2vs0mg"},{"bike_id":"904c6d40-34ca-46e7-a501-5163190c926b","system_id":"levelo_inurba_marseille","lat":43.298764,"lon":5.388973,"is_reserved":false,"is_disabled":false,"rental_uris":{"android":"levelo://app?vid=904c6d40-34ca-46e7-a501-5163190c926b","ios":"levelo://app?vid=904c6d40-34ca-46e7-a501-5163190c926b"},"vehicle_type_id":"4","last_reported":1721326250,"current_range_meters":4800,"station_id":"ce4bh392rcd13ifvqdl0","pricing_plan_id":"cebpf4jnsgd1na2vs0mg"},{"bike_id":"cc08a93a-cdc6-42d4-bcdd-1f516156a885","system_id":"levelo_inurba_marseille","lat":43.298764,"lon":5.388973,"is_reserved":false,"is_disabled":false,"rental_uris":{"android":"levelo://app?vid=cc08a93a-cdc6-42d4-bcdd-1f516156a885","ios":"levelo://app?vid=cc08a93a-cdc6-42d4-bcdd-1f516156a885"},"vehicle_type_id":"4","last_reported":1721326250,"current_range_meters":29600,"station_id":"ce4bh392rcd13ifvqdl0","pricing_plan_id":"cebpf4jnsgd1na2vs0mg"},{"bike_id":"6e1a140e-e318-4d11-9158-e3a60c3550c4","system_id":"levelo_inurba_marseille","lat":43.2989,"lon":5.389069,"is_reserved":false,"is_disabled":false,"rental_uris":{"android":"levelo://app?vid=6e1a140e-e318-4d11-9158-e3a60c3550c4","ios":"levelo://app?vid=6e1a140e-e318-4d11-9158-e3a60c3550c4"},"vehicle_type_id":"4","last_reported":1721326250,"current_range_meters":22000,"station_id":"ce4bh392rcd13ifvqdl0","pricing_plan_id":"cebpf4jnsgd1na2vs0mg"},{"bike_id":"d34487f0-31cd-4057-8287-3e5aacc31800","system_id":"levelo_inurba_marseille","lat":43.291671,"lon":5.371575,"is_reserved":false,"is_disabled":false,"rental_uris":{"android":"levelo://app?vid=d34487f0-31cd-4057-8287-3e5aacc31800","ios":"levelo://app?vid=d34487f0-31cd-4057-8287-3e5aacc31800"},"vehicle_type_id":"4","last_reported":1721326250,"current_range_meters":0,"station_id":"ce4bha92rcd13ifvqeh0","pricing_plan_id":"cebpf4jnsgd1na2vs0mg"},{"bike_id":"e25f2446-555d-44ed-9c72-e46b8509491b","system_id":"levelo_inurba_marseille","lat":43.298764,"lon":5.388973,"is_reserved":false,"is_disabled":false,"rental_uris":{"android":"levelo://app?vid=e25f2446-555d-44ed-9c72-e46b8509491b","ios":"levelo://app?vid=e25f2446-555d-44ed-9c72-e46b8509491b"},"vehicle_type_id":"4","last_reported":1721326250,"current_range_meters":18000,"station_id":"ce4bh392rcd13ifvqdl0","pricing_plan_id":"cebpf4jnsgd1na2vs0mg"},{"bike_id":"6e5d1503-29df-42ce-b4c1-6359507d8de6","system_id":"levelo_inurba_marseille","lat":43.291994,"lon":5.357886,"is_reserved":false,"is_disabled":false,"rental_uris":{"android":"levelo://app?vid=6e5d1503-29df-42ce-b4c1-6359507d8de6","ios":"levelo://app?vid=6e5d1503-29df-42ce-b4c1-6359507d8de6"},"vehicle_type_id":"4","last_reported":1721326250,"current_range_meters":13600,"station_id":"ce4bhb12rcd13ifvqel0","pricing_plan_id":"cebpf4jnsgd1na2vs0mg"},{"bike_id":"4ce7c490-6508-4d0e-ae26-37a44832fa8d","system_id":"levelo_inurba_marseille","lat":43.309038,"lon":5.396546,"is_reserved":false,"is_disabled":false,"rental_uris":{"android":"levelo://app?vid=4ce7c490-6508-4d0e-ae26-37a44832fa8d","ios":"levelo://app?vid=4ce7c490-6508-4d0e-ae26-37a44832fa8d"},"vehicle_type_id":"4","last_reported":1721326250,"current_range_meters":4800,"station_id":"ce4bh012rcd13ifvqcv0","pricing_plan_id":"cebpf4jnsgd1na2vs0mg"},{"bike_id":"141baf80-caa7-43e5-845e-88d1f4ef3436","system_id":"levelo_inurba_marseille","lat":43.313291,"lon":5.396838,"is_reserved":false,"is_disabled":false,"rental_uris":{"android":"levelo://app?vid=141baf80-caa7-43e5-845e-88d1f4ef3436","ios":"levelo://app?vid=141baf80-caa7-43e5-845e-88d1f4ef3436"},"vehicle_type_id":"4","last_reported":1721326250,"current_range_meters":20400,"station_id":"ce4bgvp2rcd13ifvqcu0","pricing_plan_id":"cebpf4jnsgd1na2vs0mg"},{"bike_id":"b4554ab1-1e80-4a3a-8307-25cd59b5fdf3","system_id":"levelo_inurba_marseille","lat":43.313291,"lon":5.396838,"is_reserved":false,"is_disabled":false,"rental_uris":{"android":"levelo://app?vid=b4554ab1-1e80-4a3a-8307-25cd59b5fdf3","ios":"levelo://app?vid=b4554ab1-1e80-4a3a-8307-25cd59b5fdf3"},"vehicle_type_id":"4","last_reported":1721326250,"current_range_meters":0,"station_id":"ce4bgvp2rcd13ifvqcu0","pricing_plan_id":"cebpf4jnsgd1na2vs0mg"},{"bike_id":"941d2e8d-d229-4c67-a20d-2329b5f1af61","system_id":"levelo_inurba_marseille","lat":43.313291,"lon":5.396838,"is_reserved":false,"is_disabled":false,"rental_uris":{"android":"levelo://app?vid=941d2e8d-d229-4c67-a20d-2329b5f1af61","ios":"levelo://app?vid=941d2e8d-d229-4c67-a20d-2329b5f1af61"},"vehicle_type_id":"4","last_reported":1721326250,"current_range_meters":3200,"station_id":"ce4bgvp2rcd13ifvqcu0","pricing_plan_id":"cebpf4jnsgd1na2vs0mg"},{"bike_id":"aee7f5eb-6f46-4e77-9d5f-cd4b67fc8012","system_id":"levelo_inurba_marseille","lat":43.313291,"lon":5.396838,"is_reserved":false,"is_disabled":false,"rental_uris":{"android":"levelo://app?vid=aee7f5eb-6f46-4e77-9d5f-cd4b67fc8012","ios":"levelo://app?vid=aee7f5eb-6f46-4e77-9d5f-cd4b67fc8012"},"vehicle_type_id":"4","last_reported":1721326250,"current_range_meters":4400,"station_id":"ce4bgvp2rcd13ifvqcu0","pricing_plan_id":"cebpf4jnsgd1na2vs0mg"},{"bike_id":"a8428cfe-b365-4bda-a83a-a5972cb3baac","system_id":"levelo_inurba_marseille","lat":43.309038,"lon":5.396546,"is_reserved":false,"is_disabled":false,"rental_uris":{"android":"levelo://app?vid=a8428cfe-b365-4bda-a83a-a5972cb3baac","ios":"levelo://app?vid=a8428cfe-b365-4bda-a83a-a5972cb3baac"},"vehicle_type_id":"4","last_reported":1721326250,"current_range_meters":800,"station_id":"ce4bh012rcd13ifvqcv0","pricing_plan_id":"cebpf4jnsgd1na2vs0mg"},{"bike_id":"cfe14ba1-6e35-4ba7-a576-238c27ce271c","system_id":"levelo_inurba_marseille","lat":43.295367,"lon":5.385443,"is_reserved":false,"is_disabled":false,"rental_uris":{"android":"levelo://app?vid=cfe14ba1-6e35-4ba7-a576-238c27ce271c","ios":"levelo://app?vid=cfe14ba1-6e35-4ba7-a576-238c27ce271c"},"vehicle_type_id":"4","last_reported":1721326250,"current_range_meters":20400,"station_id":"ce4bgih2rcd13ifvqba0","pricing_plan_id":"cebpf4jnsgd1na2vs0mg"},{"bike_id":"cc226ea1-8599-4edf-b37d-1b8f7fae1b6b","system_id":"levelo_inurba_marseille","lat":43.29529,"lon":5.385581,"is_reserved":false,"is_disabled":false,"rental_uris":{"android":"levelo://app?vid=cc226ea1-8599-4edf-b37d-1b8f7fae1b6b","ios":"levelo://app?vid=cc226ea1-8599-4edf-b37d-1b8f7fae1b6b"},"vehicle_type_id":"4","last_reported":1721326250,"current_range_meters":4400,"station_id":"ce4bgih2rcd13ifvqba0","pricing_plan_id":"cebpf4jnsgd1na2vs0mg"},{"bike_id":"96842850-f1ed-43d1-a395-c22809ace484","system_id":"levelo_inurba_marseille","lat":43.290779,"lon":5.371482,"is_reserved":false,"is_disabled":false,"rental_uris":{"android":"levelo://app?vid=96842850-f1ed-43d1-a395-c22809ace484","ios":"levelo://app?vid=96842850-f1ed-43d1-a395-c22809ace484"},"vehicle_type_id":"4","last_reported":1721326250,"current_range_meters":12000,"station_id":"ce4bh5p2rcd13ifvqe4g","pricing_plan_id":"cebpf4jnsgd1na2vs0mg"},{"bike_id":"6ebc1441-e9e8-430c-9404-995e98e83d7c","system_id":"levelo_inurba_marseille","lat":43.290779,"lon":5.371482,"is_reserved":false,"is_disabled":false,"rental_uris":{"android":"levelo://app?vid=6ebc1441-e9e8-430c-9404-995e98e83d7c","ios":"levelo://app?vid=6ebc1441-e9e8-430c-9404-995e98e83d7c"},"vehicle_type_id":"4","last_reported":1721326250,"current_range_meters":27200,"station_id":"ce4bh5p2rcd13ifvqe4g","pricing_plan_id":"cebpf4jnsgd1na2vs0mg"},{"bike_id":"f0ed8566-719e-415d-8501-27e5791bb311","system_id":"levelo_inurba_marseille","lat":43.302008,"lon":5.394694,"is_reserved":false,"is_disabled":false,"rental_uris":{"android":"levelo://app?vid=f0ed8566-719e-415d-8501-27e5791bb311","ios":"levelo://app?vid=f0ed8566-719e-415d-8501-27e5791bb311"},"vehicle_type_id":"4","last_reported":1721326250,"current_range_meters":14800,"station_id":"ce4bh0p2rcd13ifvqd70","pricing_plan_id":"cebpf4jnsgd1na2vs0mg"},{"bike_id":"731e8c1b-3320-4985-8b09-a98f061fa495","system_id":"levelo_inurba_marseille","lat":43.302008,"lon":5.394694,"is_reserved":false,"is_disabled":false,"rental_uris":{"android":"levelo://app?vid=731e8c1b-3320-4985-8b09-a98f061fa495","ios":"levelo://app?vid=731e8c1b-3320-4985-8b09-a98f061fa495"},"vehicle_type_id":"4","last_reported":1721326250,"current_range_meters":0,"station_id":"ce4bh0p2rcd13ifvqd70","pricing_plan_id":"cebpf4jnsgd1na2vs0mg"},{"bike_id":"249c9d6c-2e0a-4f65-b6aa-6a5ef3f772bd","system_id":"levelo_inurba_marseille","lat":43.302008,"lon":5.394694,"is_reserved":false,"is_disabled":false,"rental_uris":{"android":"levelo://app?vid=249c9d6c-2e0a-4f65-b6aa-6a5ef3f772bd","ios":"levelo://app?vid=249c9d6c-2e0a-4f65-b6aa-6a5ef3f772bd"},"vehicle_type_id":"4","last_reported":1721326250,"current_range_meters":0,"station_id":"ce4bh0p2rcd13ifvqd70","pricing_plan_id":"cebpf4jnsgd1na2vs0mg"},{"bike_id":"d0a86325-0011-4622-abfc-5a06a0cdddb8","system_id":"levelo_inurba_marseille","lat":43.294162,"lon":5.386292,"is_reserved":false,"is_disabled":false,"rental_uris":{"android":"levelo://app?vid=d0a86325-0011-4622-abfc-5a06a0cdddb8","ios":"levelo://app?vid=d0a86325-0011-4622-abfc-5a06a0cdddb8"},"vehicle_type_id":"4","last_reported":1721326250,"current_range_meters":0,"station_id":"ce4bh2h2rcd13ifvqdh0","pricing_plan_id":"cebpf4jnsgd1na2vs0mg"},{"bike_id":"52eeee40-1ad2-4c19-9237-f39184c6d30a","system_id":"levelo_inurba_marseille","lat":43.294162,"lon":5.386292,"is_reserved":false,"is_disabled":false,"rental_uris":{"android":"levelo://app?vid=52eeee40-1ad2-4c19-9237-f39184c6d30a","ios":"levelo://app?vid=52eeee40-1ad2-4c19-9237-f39184c6d30a"},"vehicle_type_id":"4","last_reported":1721326250,"current_range_meters":0,"station_id":"ce4bh2h2rcd13ifvqdh0","pricing_plan_id":"cebpf4jnsgd1na2vs0mg"},{"bike_id":"4ff51c20-2d21-49c2-bf59-1911bcd43402","system_id":"levelo_inurba_marseille","lat":43.289468,"lon":5.363719,"is_reserved":false,"is_disabled":false,"rental_uris":{"android":"levelo://app?vid=4ff51c20-2d21-49c2-bf59-1911bcd43402","ios":"levelo://app?vid=4ff51c20-2d21-49c2-bf59-1911bcd43402"},"vehicle_type_id":"4","last_reported":1721326250,"current_range_meters":9600,"station_id":"ce4bhc92rcd13ifvqetg","pricing_plan_id":"cebpf4jnsgd1na2vs0mg"},{"bike_id":"80c46933-866b-4c86-b22b-a1a0ca0d6200","system_id":"levelo_inurba_marseille","lat":43.294153,"lon":5.386305,"is_reserved":false,"is_disabled":false,"rental_uris":{"android":"levelo://app?vid=80c46933-866b-4c86-b22b-a1a0ca0d6200","ios":"levelo://app?vid=80c46933-866b-4c86-b22b-a1a0ca0d6200"},"vehicle_type_id":"4","last_reported":1721326250,"current_range_meters":5200,"station_id":"ce4bh2h2rcd13ifvqdh0","pricing_plan_id":"cebpf4jnsgd1na2vs0mg"},{"bike_id":"09d5ca9f-78a0-4c0a-b17b-58598bbacb0e","system_id":"levelo_inurba_marseille","lat":43.29416,"lon":5.3862,"is_reserved":false,"is_disabled":false,"rental_uris":{"android":"levelo://app?vid=09d5ca9f-78a0-4c0a-b17b-58598bbacb0e","ios":"levelo://app?vid=09d5ca9f-78a0-4c0a-b17b-58598bbacb0e"},"vehicle_type_id":"4","last_reported":1721326250,"current_range_meters":0,"station_id":"ce4bh2h2rcd13ifvqdh0","pricing_plan_id":"cebpf4jnsgd1na2vs0mg"},{"bike_id":"24e01250-abb1-4519-bfc4-38246b7b1185","system_id":"levelo_inurba_marseille","lat":43.294162,"lon":5.386292,"is_reserved":false,"is_disabled":false,"rental_uris":{"android":"levelo://app?vid=24e01250-abb1-4519-bfc4-38246b7b1185","ios":"levelo://app?vid=24e01250-abb1-4519-bfc4-38246b7b1185"},"vehicle_type_id":"4","last_reported":1721326250,"current_range_meters":8000,"station_id":"ce4bh2h2rcd13ifvqdh0","pricing_plan_id":"cebpf4jnsgd1na2vs0mg"},{"bike_id":"c47b72c9-91a8-4e08-a247-5b50e1b90994","system_id":"levelo_inurba_marseille","lat":43.28942,"lon":5.36642,"is_reserved":false,"is_disabled":false,"rental_uris":{"android":"levelo://app?vid=c47b72c9-91a8-4e08-a247-5b50e1b90994","ios":"levelo://app?vid=c47b72c9-91a8-4e08-a247-5b50e1b90994"},"vehicle_type_id":"4","last_reported":1721326250,"current_range_meters":0,"station_id":"ce4bhap2rcd13ifvqek0","pricing_plan_id":"cebpf4jnsgd1na2vs0mg"},{"bike_id":"7781129f-74ca-42c1-9486-50fb63c4fe69","system_id":"levelo_inurba_marseille","lat":43.289184,"lon":5.366408,"is_reserved":false,"is_disabled":false,"rental_uris":{"android":"levelo://app?vid=7781129f-74ca-42c1-9486-50fb63c4fe69","ios":"levelo://app?vid=7781129f-74ca-42c1-9486-50fb63c4fe69"},"vehicle_type_id":"4","last_reported":1721326250,"current_range_meters":0,"station_id":"ce4bhap2rcd13ifvqek0","pricing_plan_id":"cebpf4jnsgd1na2vs0mg"},{"bike_id":"2f080459-2b9b-4ee9-9488-408cd27f7507","system_id":"levelo_inurba_marseille","lat":43.28945,"lon":5.36407,"is_reserved":false,"is_disabled":false,"rental_uris":{"android":"levelo://app?vid=2f080459-2b9b-4ee9-9488-408cd27f7507","ios":"levelo://app?vid=2f080459-2b9b-4ee9-9488-408cd27f7507"},"vehicle_type_id":"4","last_reported":1721326250,"current_range_meters":0,"station_id":"ce4bhc92rcd13ifvqetg","pricing_plan_id":"cebpf4jnsgd1na2vs0mg"},{"bike_id":"d81bbaa3-1ecf-47d7-984c-09e267fd4874","system_id":"levelo_inurba_marseille","lat":43.289184,"lon":5.366408,"is_reserved":false,"is_disabled":false,"rental_uris":{"android":"levelo://app?vid=d81bbaa3-1ecf-47d7-984c-09e267fd4874","ios":"levelo://app?vid=d81bbaa3-1ecf-47d7-984c-09e267fd4874"},"vehicle_type_id":"4","last_reported":1721326250,"current_range_meters":0,"station_id":"ce4bhap2rcd13ifvqek0","pricing_plan_id":"cebpf4jnsgd1na2vs0mg"},{"bike_id":"869b0930-ad54-43fb-81f2-9c0845965c1d","system_id":"levelo_inurba_marseille","lat":43.289184,"lon":5.366408,"is_reserved":false,"is_disabled":false,"rental_uris":{"android":"levelo://app?vid=869b0930-ad54-43fb-81f2-9c0845965c1d","ios":"levelo://app?vid=869b0930-ad54-43fb-81f2-9c0845965c1d"},"vehicle_type_id":"4","last_reported":1721326250,"current_range_meters":1200,"station_id":"ce4bhap2rcd13ifvqek0","pricing_plan_id":"cebpf4jnsgd1na2vs0mg"},{"bike_id":"6cec6f91-de3c-4a8b-880c-570d9a72053b","system_id":"levelo_inurba_marseille","lat":43.29273,"lon":5.38435,"is_reserved":false,"is_disabled":false,"rental_uris":{"android":"levelo://app?vid=6cec6f91-de3c-4a8b-880c-570d9a72053b","ios":"levelo://app?vid=6cec6f91-de3c-4a8b-880c-570d9a72053b"},"vehicle_type_id":"4","last_reported":1721326250,"current_range_meters":14400,"station_id":"ce4bh692rcd13ifvqea0","pricing_plan_id":"cebpf4jnsgd1na2vs0mg"},{"bike_id":"2b9d18f7-8cfd-41d8-b3ce-c2b68ff86991","system_id":"levelo_inurba_marseille","lat":43.304296,"lon":5.397513,"is_reserved":false,"is_disabled":false,"rental_uris":{"android":"levelo://app?vid=2b9d18f7-8cfd-41d8-b3ce-c2b68ff86991","ios":"levelo://app?vid=2b9d18f7-8cfd-41d8-b3ce-c2b68ff86991"},"vehicle_type_id":"4","last_reported":1721326250,"current_range_meters":0,"station_id":"ce4bh092rcd13ifvqd20","pricing_plan_id":"cebpf4jnsgd1na2vs0mg"},{"bike_id":"6410555a-93bf-4a78-87e4-f884192b1eb0","system_id":"levelo_inurba_marseille","lat":43.290104,"lon":5.356111,"is_reserved":false,"is_disabled":false,"rental_uris":{"android":"levelo://app?vid=6410555a-93bf-4a78-87e4-f884192b1eb0","ios":"levelo://app?vid=6410555a-93bf-4a78-87e4-f884192b1eb0"},"vehicle_type_id":"4","last_reported":1721326250,"current_range_meters":2400,"station_id":"ce4bhb92rcd13ifvqen0","pricing_plan_id":"cebpf4jnsgd1na2vs0mg"},{"bike_id":"1d5f9691-44f4-45be-bdd7-c96f8530cbd2","system_id":"levelo_inurba_marseille","lat":43.290103,"lon":5.356114,"is_reserved":false,"is_disabled":false,"rental_uris":{"android":"levelo://app?vid=1d5f9691-44f4-45be-bdd7-c96f8530cbd2","ios":"levelo://app?vid=1d5f9691-44f4-45be-bdd7-c96f8530cbd2"},"vehicle_type_id":"4","last_reported":1721326250,"current_range_meters":400,"station_id":"ce4bhb92rcd13ifvqen0","pricing_plan_id":"cebpf4jnsgd1na2vs0mg"},{"bike_id":"f6aef7de-f6da-40ca-bace-ea6813e98807","system_id":"levelo_inurba_marseille","lat":43.290103,"lon":5.356114,"is_reserved":false,"is_disabled":false,"rental_uris":{"android":"levelo://app?vid=f6aef7de-f6da-40ca-bace-ea6813e98807","ios":"levelo://app?vid=f6aef7de-f6da-40ca-bace-ea6813e98807"},"vehicle_type_id":"4","last_reported":1721326250,"current_range_meters":0,"station_id":"ce4bhb92rcd13ifvqen0","pricing_plan_id":"cebpf4jnsgd1na2vs0mg"},{"bike_id":"c8ca9181-80e8-4e30-a221-b63f1ec28c6f","system_id":"levelo_inurba_marseille","lat":43.290104,"lon":5.356111,"is_reserved":false,"is_disabled":false,"rental_uris":{"android":"levelo://app?vid=c8ca9181-80e8-4e30-a221-b63f1ec28c6f","ios":"levelo://app?vid=c8ca9181-80e8-4e30-a221-b63f1ec28c6f"},"vehicle_type_id":"4","last_reported":1721326250,"current_range_meters":0,"station_id":"ce4bhb92rcd13ifvqen0","pricing_plan_id":"cebpf4jnsgd1na2vs0mg"},{"bike_id":"6e4f2190-5ae3-4fdb-8db1-3b26373275c8","system_id":"levelo_inurba_marseille","lat":43.290104,"lon":5.356111,"is_reserved":false,"is_disabled":false,"rental_uris":{"android":"levelo://app?vid=6e4f2190-5ae3-4fdb-8db1-3b26373275c8","ios":"levelo://app?vid=6e4f2190-5ae3-4fdb-8db1-3b26373275c8"},"vehicle_type_id":"4","last_reported":1721326250,"current_range_meters":19200,"station_id":"ce4bhb92rcd13ifvqen0","pricing_plan_id":"cebpf4jnsgd1na2vs0mg"},{"bike_id":"5dd6c576-7054-43d9-9b60-72e4bb744e2e","system_id":"levelo_inurba_marseille","lat":43.295169,"lon":5.390426,"is_reserved":false,"is_disabled":false,"rental_uris":{"android":"levelo://app?vid=5dd6c576-7054-43d9-9b60-72e4bb744e2e","ios":"levelo://app?vid=5dd6c576-7054-43d9-9b60-72e4bb744e2e"},"vehicle_type_id":"4","last_reported":1721326250,"current_range_meters":23200,"station_id":"ce4bh3p2rcd13ifvqdp0","pricing_plan_id":"cebpf4jnsgd1na2vs0mg"},{"bike_id":"b8fdd449-9e50-448a-8418-9f5b0a3aad1f","system_id":"levelo_inurba_marseille","lat":43.29796,"lon":5.39344,"is_reserved":false,"is_disabled":false,"rental_uris":{"android":"levelo://app?vid=b8fdd449-9e50-448a-8418-9f5b0a3aad1f","ios":"levelo://app?vid=b8fdd449-9e50-448a-8418-9f5b0a3aad1f"},"vehicle_type_id":"4","last_reported":1721326250,"current_range_meters":23600,"station_id":"chh1huq6cuj3fo74tm60","pricing_plan_id":"cebpf4jnsgd1na2vs0mg"},{"bike_id":"059ebbc1-a62d-43b3-8608-137f9455da27","system_id":"levelo_inurba_marseille","lat":43.297807,"lon":5.393533,"is_reserved":false,"is_disabled":false,"rental_uris":{"android":"levelo://app?vid=059ebbc1-a62d-43b3-8608-137f9455da27","ios":"levelo://app?vid=059ebbc1-a62d-43b3-8608-137f9455da27"},"vehicle_type_id":"4","last_reported":1721326250,"current_range_meters":11200,"station_id":"chh1huq6cuj3fo74tm60","pricing_plan_id":"cebpf4jnsgd1na2vs0mg"},{"bike_id":"3e534811-3a02-495f-8d29-1c9deed142d7","system_id":"levelo_inurba_marseille","lat":43.330442,"lon":5.389148,"is_reserved":false,"is_disabled":false,"rental_uris":{"android":"levelo://app?vid=3e534811-3a02-495f-8d29-1c9deed142d7","ios":"levelo://app?vid=3e534811-3a02-495f-8d29-1c9deed142d7"},"vehicle_type_id":"4","last_reported":1721326250,"current_range_meters":25200,"station_id":"ce4bhr92rcd13ifvqhrg","pricing_plan_id":"cebpf4jnsgd1na2vs0mg"},{"bike_id":"88594f8b-d435-4f0f-a7f4-449ae581634e","system_id":"levelo_inurba_marseille","lat":43.33021,"lon":5.39037,"is_reserved":false,"is_disabled":false,"rental_uris":{"android":"levelo://app?vid=88594f8b-d435-4f0f-a7f4-449ae581634e","ios":"levelo://app?vid=88594f8b-d435-4f0f-a7f4-449ae581634e"},"vehicle_type_id":"4","last_reported":1721326250,"current_range_meters":0,"station_id":"ce4bhr92rcd13ifvqhrg","pricing_plan_id":"cebpf4jnsgd1na2vs0mg"},{"bike_id":"fb2ee4f0-a946-4fb2-b7f8-3b5ffc83e1f1","system_id":"levelo_inurba_marseille","lat":43.295169,"lon":5.390426,"is_reserved":false,"is_disabled":false,"rental_uris":{"android":"levelo://app?vid=fb2ee4f0-a946-4fb2-b7f8-3b5ffc83e1f1","ios":"levelo://app?vid=fb2ee4f0-a946-4fb2-b7f8-3b5ffc83e1f1"},"vehicle_type_id":"4","last_reported":1721326250,"current_range_meters":26400,"station_id":"ce4bh3p2rcd13ifvqdp0","pricing_plan_id":"cebpf4jnsgd1na2vs0mg"},{"bike_id":"2502e321-51ac-42b6-9a4b-9f7a744ade1c","system_id":"levelo_inurba_marseille","lat":43.330442,"lon":5.389148,"is_reserved":false,"is_disabled":false,"rental_uris":{"android":"levelo://app?vid=2502e321-51ac-42b6-9a4b-9f7a744ade1c","ios":"levelo://app?vid=2502e321-51ac-42b6-9a4b-9f7a744ade1c"},"vehicle_type_id":"4","last_reported":1721326250,"current_range_meters":31600,"station_id":"ce4bhr92rcd13ifvqhrg","pricing_plan_id":"cebpf4jnsgd1na2vs0mg"},{"bike_id":"a4b0bcbd-309f-40d7-b498-9624221c7cd8","system_id":"levelo_inurba_marseille","lat":43.295169,"lon":5.390426,"is_reserved":false,"is_disabled":false,"rental_uris":{"android":"levelo://app?vid=a4b0bcbd-309f-40d7-b498-9624221c7cd8","ios":"levelo://app?vid=a4b0bcbd-309f-40d7-b498-9624221c7cd8"},"vehicle_type_id":"4","last_reported":1721326250,"current_range_meters":800,"station_id":"ce4bh3p2rcd13ifvqdp0","pricing_plan_id":"cebpf4jnsgd1na2vs0mg"},{"bike_id":"2f2dd33d-1de6-46ae-bc90-5a5ad622b6ae","system_id":"levelo_inurba_marseille","lat":43.330442,"lon":5.389148,"is_reserved":false,"is_disabled":false,"rental_uris":{"android":"levelo://app?vid=2f2dd33d-1de6-46ae-bc90-5a5ad622b6ae","ios":"levelo://app?vid=2f2dd33d-1de6-46ae-bc90-5a5ad622b6ae"},"vehicle_type_id":"4","last_reported":1721326250,"current_range_meters":16400,"station_id":"ce4bhr92rcd13ifvqhrg","pricing_plan_id":"cebpf4jnsgd1na2vs0mg"},{"bike_id":"25e3f1c0-4992-4380-b070-a5c25ba7c9ca","system_id":"levelo_inurba_marseille","lat":43.330442,"lon":5.389148,"is_reserved":false,"is_disabled":false,"rental_uris":{"android":"levelo://app?vid=25e3f1c0-4992-4380-b070-a5c25ba7c9ca","ios":"levelo://app?vid=25e3f1c0-4992-4380-b070-a5c25ba7c9ca"},"vehicle_type_id":"4","last_reported":1721326250,"current_range_meters":16000,"station_id":"ce4bhr92rcd13ifvqhrg","pricing_plan_id":"cebpf4jnsgd1na2vs0mg"},{"bike_id":"a6ea0dd8-5b11-4174-b911-6e7b90107b09","system_id":"levelo_inurba_marseille","lat":43.330442,"lon":5.389148,"is_reserved":false,"is_disabled":false,"rental_uris":{"android":"levelo://app?vid=a6ea0dd8-5b11-4174-b911-6e7b90107b09","ios":"levelo://app?vid=a6ea0dd8-5b11-4174-b911-6e7b90107b09"},"vehicle_type_id":"4","last_reported":1721326250,"current_range_meters":16800,"station_id":"ce4bhr92rcd13ifvqhrg","pricing_plan_id":"cebpf4jnsgd1na2vs0mg"},{"bike_id":"3ffc5911-e471-41cb-b440-f297f94ed9e4","system_id":"levelo_inurba_marseille","lat":43.2901,"lon":5.381269,"is_reserved":false,"is_disabled":false,"rental_uris":{"android":"levelo://app?vid=3ffc5911-e471-41cb-b440-f297f94ed9e4","ios":"levelo://app?vid=3ffc5911-e471-41cb-b440-f297f94ed9e4"},"vehicle_type_id":"4","last_reported":1721326250,"current_range_meters":400,"station_id":"ce4bh4p2rcd13ifvqe1g","pricing_plan_id":"cebpf4jnsgd1na2vs0mg"},{"bike_id":"8894b11d-8549-4402-95b2-b8fd7d12018c","system_id":"levelo_inurba_marseille","lat":43.29029,"lon":5.38146,"is_reserved":false,"is_disabled":false,"rental_uris":{"android":"levelo://app?vid=8894b11d-8549-4402-95b2-b8fd7d12018c","ios":"levelo://app?vid=8894b11d-8549-4402-95b2-b8fd7d12018c"},"vehicle_type_id":"4","last_reported":1721326250,"current_range_meters":0,"station_id":"ce4bh4p2rcd13ifvqe1g","pricing_plan_id":"cebpf4jnsgd1na2vs0mg"},{"bike_id":"d1e646b2-b98d-431e-9752-565560dd221c","system_id":"levelo_inurba_marseille","lat":43.312609,"lon":5.401662,"is_reserved":false,"is_disabled":false,"rental_uris":{"android":"levelo://app?vid=d1e646b2-b98d-431e-9752-565560dd221c","ios":"levelo://app?vid=d1e646b2-b98d-431e-9752-565560dd221c"},"vehicle_type_id":"4","last_reported":1721326250,"current_range_meters":28000,"station_id":"ce4bh092rcd13ifvqd30","pricing_plan_id":"cebpf4jnsgd1na2vs0mg"},{"bike_id":"162df890-0936-467b-a32e-ddcbd05e1100","system_id":"levelo_inurba_marseille","lat":43.28856,"lon":5.358371,"is_reserved":false,"is_disabled":false,"rental_uris":{"android":"levelo://app?vid=162df890-0936-467b-a32e-ddcbd05e1100","ios":"levelo://app?vid=162df890-0936-467b-a32e-ddcbd05e1100"},"vehicle_type_id":"4","last_reported":1721326250,"current_range_meters":30400,"station_id":"ce4bhb12rcd13ifvqem0","pricing_plan_id":"cebpf4jnsgd1na2vs0mg"},{"bike_id":"2d0c5144-5c6d-4245-8850-ff99a9ac9346","system_id":"levelo_inurba_marseille","lat":43.312716,"lon":5.4016,"is_reserved":false,"is_disabled":false,"rental_uris":{"android":"levelo://app?vid=2d0c5144-5c6d-4245-8850-ff99a9ac9346","ios":"levelo://app?vid=2d0c5144-5c6d-4245-8850-ff99a9ac9346"},"vehicle_type_id":"4","last_reported":1721326250,"current_range_meters":400,"station_id":"","pricing_plan_id":"cebpf4jnsgd1na2vs0mg"},{"bike_id":"0a6ca2ac-bdc9-4233-acb1-34feecd65b90","system_id":"levelo_inurba_marseille","lat":43.309371,"lon":5.401449,"is_reserved":false,"is_disabled":false,"rental_uris":{"android":"levelo://app?vid=0a6ca2ac-bdc9-4233-acb1-34feecd65b90","ios":"levelo://app?vid=0a6ca2ac-bdc9-4233-acb1-34feecd65b90"},"vehicle_type_id":"4","last_reported":1721326250,"current_range_meters":4800,"station_id":"ce4bgvp2rcd13ifvqct0","pricing_plan_id":"cebpf4jnsgd1na2vs0mg"},{"bike_id":"380360a6-234c-4adf-910b-dba5ee676764","system_id":"levelo_inurba_marseille","lat":43.312609,"lon":5.401662,"is_reserved":false,"is_disabled":false,"rental_uris":{"android":"levelo://app?vid=380360a6-234c-4adf-910b-dba5ee676764","ios":"levelo://app?vid=380360a6-234c-4adf-910b-dba5ee676764"},"vehicle_type_id":"4","last_reported":1721326250,"current_range_meters":2800,"station_id":"ce4bh092rcd13ifvqd30","pricing_plan_id":"cebpf4jnsgd1na2vs0mg"},{"bike_id":"fc1985b8-5314-41fe-8e24-abd61fd01251","system_id":"levelo_inurba_marseille","lat":43.337466,"lon":5.374604,"is_reserved":false,"is_disabled":false,"rental_uris":{"android":"levelo://app?vid=fc1985b8-5314-41fe-8e24-abd61fd01251","ios":"levelo://app?vid=fc1985b8-5314-41fe-8e24-abd61fd01251"},"vehicle_type_id":"4","last_reported":1721326250,"current_range_meters":27600,"station_id":"","pricing_plan_id":"cebpf4jnsgd1na2vs0mg"},{"bike_id":"241d666c-dfd7-4426-8dfc-fba405eb68f7","system_id":"levelo_inurba_marseille","lat":43.337525,"lon":5.374453,"is_reserved":false,"is_disabled":false,"rental_uris":{"android":"levelo://app?vid=241d666c-dfd7-4426-8dfc-fba405eb68f7","ios":"levelo://app?vid=241d666c-dfd7-4426-8dfc-fba405eb68f7"},"vehicle_type_id":"4","last_reported":1721326250,"current_range_meters":30800,"station_id":"","pricing_plan_id":"cebpf4jnsgd1na2vs0mg"},{"bike_id":"a2d312e1-bb21-40f5-b2f0-9bb1026966cd","system_id":"levelo_inurba_marseille","lat":43.306412,"lon":5.401035,"is_reserved":false,"is_disabled":false,"rental_uris":{"android":"levelo://app?vid=a2d312e1-bb21-40f5-b2f0-9bb1026966cd","ios":"levelo://app?vid=a2d312e1-bb21-40f5-b2f0-9bb1026966cd"},"vehicle_type_id":"4","last_reported":1721326250,"current_range_meters":0,"station_id":"ce4bh112rcd13ifvqda0","pricing_plan_id":"cebpf4jnsgd1na2vs0mg"},{"bike_id":"5343b1b4-a07b-464b-86da-2fe715259531","system_id":"levelo_inurba_marseille","lat":43.309266,"lon":5.401609,"is_reserved":false,"is_disabled":false,"rental_uris":{"android":"levelo://app?vid=5343b1b4-a07b-464b-86da-2fe715259531","ios":"levelo://app?vid=5343b1b4-a07b-464b-86da-2fe715259531"},"vehicle_type_id":"4","last_reported":1721326250,"current_range_meters":1200,"station_id":"","pricing_plan_id":"cebpf4jnsgd1na2vs0mg"},{"bike_id":"ac377a63-6a02-42fa-8a70-d5bb9b7546c9","system_id":"levelo_inurba_marseille","lat":43.337645,"lon":5.374323,"is_reserved":false,"is_disabled":false,"rental_uris":{"android":"levelo://app?vid=ac377a63-6a02-42fa-8a70-d5bb9b7546c9","ios":"levelo://app?vid=ac377a63-6a02-42fa-8a70-d5bb9b7546c9"},"vehicle_type_id":"4","last_reported":1721326250,"current_range_meters":28800,"station_id":"","pricing_plan_id":"cebpf4jnsgd1na2vs0mg"},{"bike_id":"b5f84fb0-09bb-4914-b36d-004ae4988198","system_id":"levelo_inurba_marseille","lat":43.33769,"lon":5.374615,"is_reserved":false,"is_disabled":false,"rental_uris":{"android":"levelo://app?vid=b5f84fb0-09bb-4914-b36d-004ae4988198","ios":"levelo://app?vid=b5f84fb0-09bb-4914-b36d-004ae4988198"},"vehicle_type_id":"4","last_reported":1721326250,"current_range_meters":3600,"station_id":"","pricing_plan_id":"cebpf4jnsgd1na2vs0mg"},{"bike_id":"f55e91aa-ebf4-458b-a117-e13233208d1a","system_id":"levelo_inurba_marseille","lat":43.33041,"lon":5.39233,"is_reserved":false,"is_disabled":false,"rental_uris":{"android":"levelo://app?vid=f55e91aa-ebf4-458b-a117-e13233208d1a","ios":"levelo://app?vid=f55e91aa-ebf4-458b-a117-e13233208d1a"},"vehicle_type_id":"4","last_reported":1721326250,"current_range_meters":6400,"station_id":"","pricing_plan_id":"cebpf4jnsgd1na2vs0mg"},{"bike_id":"3c78c10d-ecde-4a76-8ff0-05cdc4e90368","system_id":"levelo_inurba_marseille","lat":43.33775,"lon":5.37469,"is_reserved":false,"is_disabled":false,"rental_uris":{"android":"levelo://app?vid=3c78c10d-ecde-4a76-8ff0-05cdc4e90368","ios":"levelo://app?vid=3c78c10d-ecde-4a76-8ff0-05cdc4e90368"},"vehicle_type_id":"4","last_reported":1721326250,"current_range_meters":16000,"station_id":"","pricing_plan_id":"cebpf4jnsgd1na2vs0mg"},{"bike_id":"7752890e-9d76-48b6-8962-ad3d660da541","system_id":"levelo_inurba_marseille","lat":43.301117,"lon":5.398795,"is_reserved":false,"is_disabled":false,"rental_uris":{"android":"levelo://app?vid=7752890e-9d76-48b6-8962-ad3d660da541","ios":"levelo://app?vid=7752890e-9d76-48b6-8962-ad3d660da541"},"vehicle_type_id":"4","last_reported":1721326250,"current_range_meters":400,"station_id":"ce4bh0h2rcd13ifvqd40","pricing_plan_id":"cebpf4jnsgd1na2vs0mg"},{"bike_id":"6a8de973-5eec-46f0-8c48-a844d1abb593","system_id":"levelo_inurba_marseille","lat":43.286961,"lon":5.373785,"is_reserved":false,"is_disabled":false,"rental_uris":{"android":"levelo://app?vid=6a8de973-5eec-46f0-8c48-a844d1abb593","ios":"levelo://app?vid=6a8de973-5eec-46f0-8c48-a844d1abb593"},"vehicle_type_id":"4","last_reported":1721326250,"current_range_meters":5200,"station_id":"ce4bh3p2rcd13ifvqdq0","pricing_plan_id":"cebpf4jnsgd1na2vs0mg"},{"bike_id":"53097fc0-d609-4821-8cc0-c5c0b0c5b690","system_id":"levelo_inurba_marseille","lat":43.286961,"lon":5.373785,"is_reserved":false,"is_disabled":false,"rental_uris":{"android":"levelo://app?vid=53097fc0-d609-4821-8cc0-c5c0b0c5b690","ios":"levelo://app?vid=53097fc0-d609-4821-8cc0-c5c0b0c5b690"},"vehicle_type_id":"4","last_reported":1721326250,"current_range_meters":0,"station_id":"ce4bh3p2rcd13ifvqdq0","pricing_plan_id":"cebpf4jnsgd1na2vs0mg"},{"bike_id":"43ddb7f2-ac12-4755-a899-84ec9320638f","system_id":"levelo_inurba_marseille","lat":43.286593,"lon":5.363346,"is_reserved":false,"is_disabled":false,"rental_uris":{"android":"levelo://app?vid=43ddb7f2-ac12-4755-a899-84ec9320638f","ios":"levelo://app?vid=43ddb7f2-ac12-4755-a899-84ec9320638f"},"vehicle_type_id":"4","last_reported":1721326250,"current_range_meters":0,"station_id":"ce4bhah2rcd13ifvqej0","pricing_plan_id":"cebpf4jnsgd1na2vs0mg"},{"bike_id":"6445a6bf-63fc-4e4c-8de2-ed3a28d4e4a1","system_id":"levelo_inurba_marseille","lat":43.298681,"lon":5.397225,"is_reserved":false,"is_disabled":false,"rental_uris":{"android":"levelo://app?vid=6445a6bf-63fc-4e4c-8de2-ed3a28d4e4a1","ios":"levelo://app?vid=6445a6bf-63fc-4e4c-8de2-ed3a28d4e4a1"},"vehicle_type_id":"4","last_reported":1721326250,"current_range_meters":26800,"station_id":"ce4bh0h2rcd13ifvqd50","pricing_plan_id":"cebpf4jnsgd1na2vs0mg"},{"bike_id":"7d7eab53-7e04-4391-bcee-d5f76bff0d00","system_id":"levelo_inurba_marseille","lat":43.298681,"lon":5.397225,"is_reserved":false,"is_disabled":false,"rental_uris":{"android":"levelo://app?vid=7d7eab53-7e04-4391-bcee-d5f76bff0d00","ios":"levelo://app?vid=7d7eab53-7e04-4391-bcee-d5f76bff0d00"},"vehicle_type_id":"4","last_reported":1721326250,"current_range_meters":4400,"station_id":"ce4bh0h2rcd13ifvqd50","pricing_plan_id":"cebpf4jnsgd1na2vs0mg"},{"bike_id":"42bcba3a-54b4-4251-8a83-e015d8e231fd","system_id":"levelo_inurba_marseille","lat":43.286607,"lon":5.363452,"is_reserved":false,"is_disabled":false,"rental_uris":{"android":"levelo://app?vid=42bcba3a-54b4-4251-8a83-e015d8e231fd","ios":"levelo://app?vid=42bcba3a-54b4-4251-8a83-e015d8e231fd"},"vehicle_type_id":"4","last_reported":1721326250,"current_range_meters":0,"station_id":"ce4bhah2rcd13ifvqej0","pricing_plan_id":"cebpf4jnsgd1na2vs0mg"},{"bike_id":"2a5ccd00-41e2-4c3a-a521-aa3deb22d02a","system_id":"levelo_inurba_marseille","lat":43.286591,"lon":5.363346,"is_reserved":false,"is_disabled":false,"rental_uris":{"android":"levelo://app?vid=2a5ccd00-41e2-4c3a-a521-aa3deb22d02a","ios":"levelo://app?vid=2a5ccd00-41e2-4c3a-a521-aa3deb22d02a"},"vehicle_type_id":"4","last_reported":1721326250,"current_range_meters":13200,"station_id":"ce4bhah2rcd13ifvqej0","pricing_plan_id":"cebpf4jnsgd1na2vs0mg"},{"bike_id":"0d1c69c4-73a9-46d4-bfa2-69dd5f49430f","system_id":"levelo_inurba_marseille","lat":43.286961,"lon":5.373785,"is_reserved":false,"is_disabled":false,"rental_uris":{"android":"levelo://app?vid=0d1c69c4-73a9-46d4-bfa2-69dd5f49430f","ios":"levelo://app?vid=0d1c69c4-73a9-46d4-bfa2-69dd5f49430f"},"vehicle_type_id":"4","last_reported":1721326250,"current_range_meters":15600,"station_id":"ce4bh3p2rcd13ifvqdq0","pricing_plan_id":"cebpf4jnsgd1na2vs0mg"},{"bike_id":"156e6812-7c91-46e9-a02e-cdc8a49d275a","system_id":"levelo_inurba_marseille","lat":43.286961,"lon":5.373785,"is_reserved":false,"is_disabled":false,"rental_uris":{"android":"levelo://app?vid=156e6812-7c91-46e9-a02e-cdc8a49d275a","ios":"levelo://app?vid=156e6812-7c91-46e9-a02e-cdc8a49d275a"},"vehicle_type_id":"4","last_reported":1721326250,"current_range_meters":800,"station_id":"ce4bh3p2rcd13ifvqdq0","pricing_plan_id":"cebpf4jnsgd1na2vs0mg"},{"bike_id":"969d1f42-2ed2-4920-88be-74e6543822a1","system_id":"levelo_inurba_marseille","lat":43.298681,"lon":5.397225,"is_reserved":false,"is_disabled":false,"rental_uris":{"android":"levelo://app?vid=969d1f42-2ed2-4920-88be-74e6543822a1","ios":"levelo://app?vid=969d1f42-2ed2-4920-88be-74e6543822a1"},"vehicle_type_id":"4","last_reported":1721326250,"current_range_meters":28800,"station_id":"ce4bh0h2rcd13ifvqd50","pricing_plan_id":"cebpf4jnsgd1na2vs0mg"},{"bike_id":"3e3bcf15-b0b7-437e-9d13-2d008b9ed72b","system_id":"levelo_inurba_marseille","lat":43.290259,"lon":5.386417,"is_reserved":false,"is_disabled":false,"rental_uris":{"android":"levelo://app?vid=3e3bcf15-b0b7-437e-9d13-2d008b9ed72b","ios":"levelo://app?vid=3e3bcf15-b0b7-437e-9d13-2d008b9ed72b"},"vehicle_type_id":"4","last_reported":1721326250,"current_range_meters":0,"station_id":"ce4bh4p2rcd13ifvqe0g","pricing_plan_id":"cebpf4jnsgd1na2vs0mg"},{"bike_id":"bdb41a02-40d6-4bc9-82f2-fa4933662a8d","system_id":"levelo_inurba_marseille","lat":43.302759,"lon":5.400793,"is_reserved":false,"is_disabled":false,"rental_uris":{"android":"levelo://app?vid=bdb41a02-40d6-4bc9-82f2-fa4933662a8d","ios":"levelo://app?vid=bdb41a02-40d6-4bc9-82f2-fa4933662a8d"},"vehicle_type_id":"4","last_reported":1721326250,"current_range_meters":0,"station_id":"ce4bgvh2rcd13ifvqcs0","pricing_plan_id":"cebpf4jnsgd1na2vs0mg"},{"bike_id":"b01f23aa-c3a9-4a99-9277-47aa24776cea","system_id":"levelo_inurba_marseille","lat":43.302759,"lon":5.400793,"is_reserved":false,"is_disabled":false,"rental_uris":{"android":"levelo://app?vid=b01f23aa-c3a9-4a99-9277-47aa24776cea","ios":"levelo://app?vid=b01f23aa-c3a9-4a99-9277-47aa24776cea"},"vehicle_type_id":"4","last_reported":1721326250,"current_range_meters":13200,"station_id":"ce4bgvh2rcd13ifvqcs0","pricing_plan_id":"cebpf4jnsgd1na2vs0mg"},{"bike_id":"252220fd-9a84-4d9d-8ae5-e2ee5558bb76","system_id":"levelo_inurba_marseille","lat":43.30246,"lon":5.40073,"is_reserved":false,"is_disabled":false,"rental_uris":{"android":"levelo://app?vid=252220fd-9a84-4d9d-8ae5-e2ee5558bb76","ios":"levelo://app?vid=252220fd-9a84-4d9d-8ae5-e2ee5558bb76"},"vehicle_type_id":"4","last_reported":1721326250,"current_range_meters":0,"station_id":"ce4bgvh2rcd13ifvqcs0","pricing_plan_id":"cebpf4jnsgd1na2vs0mg"},{"bike_id":"1bbd15ef-c64f-4fde-a92a-94b2769c0f27","system_id":"levelo_inurba_marseille","lat":43.286039,"lon":5.370679,"is_reserved":false,"is_disabled":false,"rental_uris":{"android":"levelo://app?vid=1bbd15ef-c64f-4fde-a92a-94b2769c0f27","ios":"levelo://app?vid=1bbd15ef-c64f-4fde-a92a-94b2769c0f27"},"vehicle_type_id":"4","last_reported":1721326250,"current_range_meters":2800,"station_id":"ce4bht12rcd13ifvqi60","pricing_plan_id":"cebpf4jnsgd1na2vs0mg"},{"bike_id":"2453c674-07ef-4e11-ba85-63d88ee976c4","system_id":"levelo_inurba_marseille","lat":43.286039,"lon":5.370679,"is_reserved":false,"is_disabled":false,"rental_uris":{"android":"levelo://app?vid=2453c674-07ef-4e11-ba85-63d88ee976c4","ios":"levelo://app?vid=2453c674-07ef-4e11-ba85-63d88ee976c4"},"vehicle_type_id":"4","last_reported":1721326250,"current_range_meters":16400,"station_id":"ce4bht12rcd13ifvqi60","pricing_plan_id":"cebpf4jnsgd1na2vs0mg"},{"bike_id":"4195e054-699f-4d16-b455-d7985d15ebbc","system_id":"levelo_inurba_marseille","lat":43.287184,"lon":5.37937,"is_reserved":false,"is_disabled":false,"rental_uris":{"android":"levelo://app?vid=4195e054-699f-4d16-b455-d7985d15ebbc","ios":"levelo://app?vid=4195e054-699f-4d16-b455-d7985d15ebbc"},"vehicle_type_id":"4","last_reported":1721326250,"current_range_meters":2400,"station_id":"ce4bh9p2rcd13ifvqec0","pricing_plan_id":"cebpf4jnsgd1na2vs0mg"},{"bike_id":"a972c390-505b-4c87-a8f4-33c039e9c84d","system_id":"levelo_inurba_marseille","lat":43.287197,"lon":5.379313,"is_reserved":false,"is_disabled":false,"rental_uris":{"android":"levelo://app?vid=a972c390-505b-4c87-a8f4-33c039e9c84d","ios":"levelo://app?vid=a972c390-505b-4c87-a8f4-33c039e9c84d"},"vehicle_type_id":"4","last_reported":1721326250,"current_range_meters":0,"station_id":"ce4bh9p2rcd13ifvqec0","pricing_plan_id":"cebpf4jnsgd1na2vs0mg"},{"bike_id":"8e38065a-cd29-4287-b9fb-77480603af1d","system_id":"levelo_inurba_marseille","lat":43.315809,"lon":5.403919,"is_reserved":false,"is_disabled":false,"rental_uris":{"android":"levelo://app?vid=8e38065a-cd29-4287-b9fb-77480603af1d","ios":"levelo://app?vid=8e38065a-cd29-4287-b9fb-77480603af1d"},"vehicle_type_id":"4","last_reported":1721326250,"current_range_meters":0,"station_id":"","pricing_plan_id":"cebpf4jnsgd1na2vs0mg"},{"bike_id":"f58945c4-6d90-4e7b-a63c-f710ddb534b7","system_id":"levelo_inurba_marseille","lat":43.287184,"lon":5.37937,"is_reserved":false,"is_disabled":false,"rental_uris":{"android":"levelo://app?vid=f58945c4-6d90-4e7b-a63c-f710ddb534b7","ios":"levelo://app?vid=f58945c4-6d90-4e7b-a63c-f710ddb534b7"},"vehicle_type_id":"4","last_reported":1721326250,"current_range_meters":12400,"station_id":"ce4bh9p2rcd13ifvqec0","pricing_plan_id":"cebpf4jnsgd1na2vs0mg"},{"bike_id":"90e15002-1f49-4e07-ad57-011c955e4105","system_id":"levelo_inurba_marseille","lat":43.287184,"lon":5.37937,"is_reserved":false,"is_disabled":false,"rental_uris":{"android":"levelo://app?vid=90e15002-1f49-4e07-ad57-011c955e4105","ios":"levelo://app?vid=90e15002-1f49-4e07-ad57-011c955e4105"},"vehicle_type_id":"4","last_reported":1721326250,"current_range_meters":0,"station_id":"ce4bh9p2rcd13ifvqec0","pricing_plan_id":"cebpf4jnsgd1na2vs0mg"},{"bike_id":"a01a12ed-e567-41ff-a63f-5fdd3efcf33f","system_id":"levelo_inurba_marseille","lat":43.316821,"lon":5.404737,"is_reserved":false,"is_disabled":false,"rental_uris":{"android":"levelo://app?vid=a01a12ed-e567-41ff-a63f-5fdd3efcf33f","ios":"levelo://app?vid=a01a12ed-e567-41ff-a63f-5fdd3efcf33f"},"vehicle_type_id":"4","last_reported":1721326250,"current_range_meters":2400,"station_id":"ce4bh012rcd13ifvqd00","pricing_plan_id":"cebpf4jnsgd1na2vs0mg"},{"bike_id":"e102db0b-9742-4367-9e9c-c399c52ce6c8","system_id":"levelo_inurba_marseille","lat":43.291994,"lon":5.392907,"is_reserved":false,"is_disabled":false,"rental_uris":{"android":"levelo://app?vid=e102db0b-9742-4367-9e9c-c399c52ce6c8","ios":"levelo://app?vid=e102db0b-9742-4367-9e9c-c399c52ce6c8"},"vehicle_type_id":"4","last_reported":1721326250,"current_range_meters":4800,"station_id":"ce4bh192rcd13ifvqdd0","pricing_plan_id":"cebpf4jnsgd1na2vs0mg"},{"bike_id":"2bb3a5e9-c217-4c9d-8637-098a19a86bdd","system_id":"levelo_inurba_marseille","lat":43.291985,"lon":5.39315,"is_reserved":false,"is_disabled":false,"rental_uris":{"android":"levelo://app?vid=2bb3a5e9-c217-4c9d-8637-098a19a86bdd","ios":"levelo://app?vid=2bb3a5e9-c217-4c9d-8637-098a19a86bdd"},"vehicle_type_id":"4","last_reported":1721326250,"current_range_meters":0,"station_id":"ce4bh192rcd13ifvqdd0","pricing_plan_id":"cebpf4jnsgd1na2vs0mg"},{"bike_id":"9f3eb802-60d2-4b4f-9d46-8259e6c777a8","system_id":"levelo_inurba_marseille","lat":43.29198,"lon":5.39319,"is_reserved":false,"is_disabled":false,"rental_uris":{"android":"levelo://app?vid=9f3eb802-60d2-4b4f-9d46-8259e6c777a8","ios":"levelo://app?vid=9f3eb802-60d2-4b4f-9d46-8259e6c777a8"},"vehicle_type_id":"4","last_reported":1721326250,"current_range_meters":0,"station_id":"ce4bh192rcd13ifvqdd0","pricing_plan_id":"cebpf4jnsgd1na2vs0mg"},{"bike_id":"98cbec8e-ce77-4615-8854-ea4da6f4c134","system_id":"levelo_inurba_marseille","lat":43.294314,"lon":5.397498,"is_reserved":false,"is_disabled":false,"rental_uris":{"android":"levelo://app?vid=98cbec8e-ce77-4615-8854-ea4da6f4c134","ios":"levelo://app?vid=98cbec8e-ce77-4615-8854-ea4da6f4c134"},"vehicle_type_id":"4","last_reported":1721326250,"current_range_meters":14400,"station_id":"ce4bh3h2rcd13ifvqdo0","pricing_plan_id":"cebpf4jnsgd1na2vs0mg"},{"bike_id":"3d2fb31d-5fb7-4eed-b2b5-7ceaf67333f2","system_id":"levelo_inurba_marseille","lat":43.28462,"lon":5.35882,"is_reserved":false,"is_disabled":false,"rental_uris":{"android":"levelo://app?vid=3d2fb31d-5fb7-4eed-b2b5-7ceaf67333f2","ios":"levelo://app?vid=3d2fb31d-5fb7-4eed-b2b5-7ceaf67333f2"},"vehicle_type_id":"4","last_reported":1721326250,"current_range_meters":0,"station_id":"ce4bhah2rcd13ifvqei0","pricing_plan_id":"cebpf4jnsgd1na2vs0mg"},{"bike_id":"fd69dc17-18bb-47e8-aded-ac521ba2ca89","system_id":"levelo_inurba_marseille","lat":43.294314,"lon":5.397498,"is_reserved":false,"is_disabled":false,"rental_uris":{"android":"levelo://app?vid=fd69dc17-18bb-47e8-aded-ac521ba2ca89","ios":"levelo://app?vid=fd69dc17-18bb-47e8-aded-ac521ba2ca89"},"vehicle_type_id":"4","last_reported":1721326250,"current_range_meters":14400,"station_id":"ce4bh3h2rcd13ifvqdo0","pricing_plan_id":"cebpf4jnsgd1na2vs0mg"},{"bike_id":"e5daa60f-8525-4f99-bb48-fae7df89e62b","system_id":"levelo_inurba_marseille","lat":43.319179,"lon":5.407725,"is_reserved":false,"is_disabled":false,"rental_uris":{"android":"levelo://app?vid=e5daa60f-8525-4f99-bb48-fae7df89e62b","ios":"levelo://app?vid=e5daa60f-8525-4f99-bb48-fae7df89e62b"},"vehicle_type_id":"4","last_reported":1721326250,"current_range_meters":0,"station_id":"ce4bhq12rcd13ifvqhig","pricing_plan_id":"cebpf4jnsgd1na2vs0mg"},{"bike_id":"bf5fed90-794e-4727-bc3e-c5bafb33b85c","system_id":"levelo_inurba_marseille","lat":43.28458,"lon":5.35886,"is_reserved":false,"is_disabled":false,"rental_uris":{"android":"levelo://app?vid=bf5fed90-794e-4727-bc3e-c5bafb33b85c","ios":"levelo://app?vid=bf5fed90-794e-4727-bc3e-c5bafb33b85c"},"vehicle_type_id":"4","last_reported":1721326250,"current_range_meters":0,"station_id":"ce4bhah2rcd13ifvqei0","pricing_plan_id":"cebpf4jnsgd1na2vs0mg"},{"bike_id":"875b9e81-24c9-4a90-b85a-00fd06755cd2","system_id":"levelo_inurba_marseille","lat":43.2862,"lon":5.35108,"is_reserved":false,"is_disabled":false,"rental_uris":{"android":"levelo://app?vid=875b9e81-24c9-4a90-b85a-00fd06755cd2","ios":"levelo://app?vid=875b9e81-24c9-4a90-b85a-00fd06755cd2"},"vehicle_type_id":"4","last_reported":1721326250,"current_range_meters":3600,"station_id":"ce4bhch2rcd13ifvqeug","pricing_plan_id":"cebpf4jnsgd1na2vs0mg"},{"bike_id":"4d58fc1c-364f-403f-9b8b-679b0a6bd1d5","system_id":"levelo_inurba_marseille","lat":43.28619,"lon":5.35107,"is_reserved":false,"is_disabled":false,"rental_uris":{"android":"levelo://app?vid=4d58fc1c-364f-403f-9b8b-679b0a6bd1d5","ios":"levelo://app?vid=4d58fc1c-364f-403f-9b8b-679b0a6bd1d5"},"vehicle_type_id":"4","last_reported":1721326250,"current_range_meters":17600,"station_id":"ce4bhch2rcd13ifvqeug","pricing_plan_id":"cebpf4jnsgd1na2vs0mg"},{"bike_id":"a3630e79-55d4-4eb3-a3cb-3c28d3ed4ce9","system_id":"levelo_inurba_marseille","lat":43.28619,"lon":5.35105,"is_reserved":false,"is_disabled":false,"rental_uris":{"android":"levelo://app?vid=a3630e79-55d4-4eb3-a3cb-3c28d3ed4ce9","ios":"levelo://app?vid=a3630e79-55d4-4eb3-a3cb-3c28d3ed4ce9"},"vehicle_type_id":"4","last_reported":1721326250,"current_range_meters":12800,"station_id":"ce4bhch2rcd13ifvqeug","pricing_plan_id":"cebpf4jnsgd1na2vs0mg"},{"bike_id":"b1922a13-bb1b-459d-b952-088d3074d058","system_id":"levelo_inurba_marseille","lat":43.28618,"lon":5.35108,"is_reserved":false,"is_disabled":false,"rental_uris":{"android":"levelo://app?vid=b1922a13-bb1b-459d-b952-088d3074d058","ios":"levelo://app?vid=b1922a13-bb1b-459d-b952-088d3074d058"},"vehicle_type_id":"4","last_reported":1721326250,"current_range_meters":20000,"station_id":"ce4bhch2rcd13ifvqeug","pricing_plan_id":"cebpf4jnsgd1na2vs0mg"},{"bike_id":"70a09adb-9338-456f-9562-00aff33a3367","system_id":"levelo_inurba_marseille","lat":43.28619,"lon":5.35101,"is_reserved":false,"is_disabled":false,"rental_uris":{"android":"levelo://app?vid=70a09adb-9338-456f-9562-00aff33a3367","ios":"levelo://app?vid=70a09adb-9338-456f-9562-00aff33a3367"},"vehicle_type_id":"4","last_reported":1721326250,"current_range_meters":24400,"station_id":"ce4bhch2rcd13ifvqeug","pricing_plan_id":"cebpf4jnsgd1na2vs0mg"},{"bike_id":"31adee5a-ff43-4706-b9b5-6ec2db9ecc9f","system_id":"levelo_inurba_marseille","lat":43.28617,"lon":5.35107,"is_reserved":false,"is_disabled":false,"rental_uris":{"android":"levelo://app?vid=31adee5a-ff43-4706-b9b5-6ec2db9ecc9f","ios":"levelo://app?vid=31adee5a-ff43-4706-b9b5-6ec2db9ecc9f"},"vehicle_type_id":"4","last_reported":1721326250,"current_range_meters":23200,"station_id":"ce4bhch2rcd13ifvqeug","pricing_plan_id":"cebpf4jnsgd1na2vs0mg"},{"bike_id":"26dd1c49-1444-4881-aa72-a074489c4ac9","system_id":"levelo_inurba_marseille","lat":43.28616,"lon":5.3511,"is_reserved":false,"is_disabled":false,"rental_uris":{"android":"levelo://app?vid=26dd1c49-1444-4881-aa72-a074489c4ac9","ios":"levelo://app?vid=26dd1c49-1444-4881-aa72-a074489c4ac9"},"vehicle_type_id":"4","last_reported":1721326250,"current_range_meters":31200,"station_id":"ce4bhch2rcd13ifvqeug","pricing_plan_id":"cebpf4jnsgd1na2vs0mg"},{"bike_id":"d92725b6-84ae-4971-a45e-df6949773f70","system_id":"levelo_inurba_marseille","lat":43.28616,"lon":5.35108,"is_reserved":false,"is_disabled":false,"rental_uris":{"android":"levelo://app?vid=d92725b6-84ae-4971-a45e-df6949773f70","ios":"levelo://app?vid=d92725b6-84ae-4971-a45e-df6949773f70"},"vehicle_type_id":"4","last_reported":1721326250,"current_range_meters":9600,"station_id":"ce4bhch2rcd13ifvqeug","pricing_plan_id":"cebpf4jnsgd1na2vs0mg"},{"bike_id":"51cf49ea-1151-49ba-b2e3-5e3f13d0c40d","system_id":"levelo_inurba_marseille","lat":43.28618,"lon":5.35101,"is_reserved":false,"is_disabled":false,"rental_uris":{"android":"levelo://app?vid=51cf49ea-1151-49ba-b2e3-5e3f13d0c40d","ios":"levelo://app?vid=51cf49ea-1151-49ba-b2e3-5e3f13d0c40d"},"vehicle_type_id":"4","last_reported":1721326250,"current_range_meters":31200,"station_id":"ce4bhch2rcd13ifvqeug","pricing_plan_id":"cebpf4jnsgd1na2vs0mg"},{"bike_id":"0def47cd-f445-4c28-9217-845210829efe","system_id":"levelo_inurba_marseille","lat":43.28618,"lon":5.35101,"is_reserved":false,"is_disabled":false,"rental_uris":{"android":"levelo://app?vid=0def47cd-f445-4c28-9217-845210829efe","ios":"levelo://app?vid=0def47cd-f445-4c28-9217-845210829efe"},"vehicle_type_id":"4","last_reported":1721326250,"current_range_meters":10000,"station_id":"ce4bhch2rcd13ifvqeug","pricing_plan_id":"cebpf4jnsgd1na2vs0mg"},{"bike_id":"f5c83dec-9ed9-4ae1-a51e-4c985b9ca530","system_id":"levelo_inurba_marseille","lat":43.28617,"lon":5.35102,"is_reserved":false,"is_disabled":false,"rental_uris":{"android":"levelo://app?vid=f5c83dec-9ed9-4ae1-a51e-4c985b9ca530","ios":"levelo://app?vid=f5c83dec-9ed9-4ae1-a51e-4c985b9ca530"},"vehicle_type_id":"4","last_reported":1721326250,"current_range_meters":22800,"station_id":"ce4bhch2rcd13ifvqeug","pricing_plan_id":"cebpf4jnsgd1na2vs0mg"},{"bike_id":"04c5f6ca-10a5-485c-b33d-49319d281786","system_id":"levelo_inurba_marseille","lat":43.28617,"lon":5.35101,"is_reserved":false,"is_disabled":false,"rental_uris":{"android":"levelo://app?vid=04c5f6ca-10a5-485c-b33d-49319d281786","ios":"levelo://app?vid=04c5f6ca-10a5-485c-b33d-49319d281786"},"vehicle_type_id":"4","last_reported":1721326250,"current_range_meters":26400,"station_id":"ce4bhch2rcd13ifvqeug","pricing_plan_id":"cebpf4jnsgd1na2vs0mg"},{"bike_id":"e5508f60-0ab7-4cb4-b568-fd64850fd515","system_id":"levelo_inurba_marseille","lat":43.28617,"lon":5.351,"is_reserved":false,"is_disabled":false,"rental_uris":{"android":"levelo://app?vid=e5508f60-0ab7-4cb4-b568-fd64850fd515","ios":"levelo://app?vid=e5508f60-0ab7-4cb4-b568-fd64850fd515"},"vehicle_type_id":"4","last_reported":1721326250,"current_range_meters":0,"station_id":"ce4bhch2rcd13ifvqeug","pricing_plan_id":"cebpf4jnsgd1na2vs0mg"},{"bike_id":"dc2b9348-3751-4900-8b63-282cb738d553","system_id":"levelo_inurba_marseille","lat":43.285856,"lon":5.350771,"is_reserved":false,"is_disabled":false,"rental_uris":{"android":"levelo://app?vid=dc2b9348-3751-4900-8b63-282cb738d553","ios":"levelo://app?vid=dc2b9348-3751-4900-8b63-282cb738d553"},"vehicle_type_id":"4","last_reported":1721326250,"current_range_meters":28800,"station_id":"ce4bhch2rcd13ifvqeug","pricing_plan_id":"cebpf4jnsgd1na2vs0mg"},{"bike_id":"fbc74263-9210-45cd-94ab-c30968181cb5","system_id":"levelo_inurba_marseille","lat":43.28616,"lon":5.35103,"is_reserved":false,"is_disabled":false,"rental_uris":{"android":"levelo://app?vid=fbc74263-9210-45cd-94ab-c30968181cb5","ios":"levelo://app?vid=fbc74263-9210-45cd-94ab-c30968181cb5"},"vehicle_type_id":"4","last_reported":1721326250,"current_range_meters":30400,"station_id":"ce4bhch2rcd13ifvqeug","pricing_plan_id":"cebpf4jnsgd1na2vs0mg"},{"bike_id":"f4c2fe82-37be-4b8a-97fb-43647e8da0a9","system_id":"levelo_inurba_marseille","lat":43.285856,"lon":5.350771,"is_reserved":false,"is_disabled":false,"rental_uris":{"android":"levelo://app?vid=f4c2fe82-37be-4b8a-97fb-43647e8da0a9","ios":"levelo://app?vid=f4c2fe82-37be-4b8a-97fb-43647e8da0a9"},"vehicle_type_id":"4","last_reported":1721326250,"current_range_meters":8800,"station_id":"ce4bhch2rcd13ifvqeug","pricing_plan_id":"cebpf4jnsgd1na2vs0mg"},{"bike_id":"27393c35-1eef-4777-8e87-b8bb8e87308f","system_id":"levelo_inurba_marseille","lat":43.28616,"lon":5.35101,"is_reserved":false,"is_disabled":false,"rental_uris":{"android":"levelo://app?vid=27393c35-1eef-4777-8e87-b8bb8e87308f","ios":"levelo://app?vid=27393c35-1eef-4777-8e87-b8bb8e87308f"},"vehicle_type_id":"4","last_reported":1721326250,"current_range_meters":31200,"station_id":"ce4bhch2rcd13ifvqeug","pricing_plan_id":"cebpf4jnsgd1na2vs0mg"},{"bike_id":"f477ebe2-1aff-42ec-a9f0-ed9d22f39133","system_id":"levelo_inurba_marseille","lat":43.28615,"lon":5.35102,"is_reserved":false,"is_disabled":false,"rental_uris":{"android":"levelo://app?vid=f477ebe2-1aff-42ec-a9f0-ed9d22f39133","ios":"levelo://app?vid=f477ebe2-1aff-42ec-a9f0-ed9d22f39133"},"vehicle_type_id":"4","last_reported":1721326250,"current_range_meters":15600,"station_id":"ce4bhch2rcd13ifvqeug","pricing_plan_id":"cebpf4jnsgd1na2vs0mg"},{"bike_id":"bde9eac1-96dc-43e8-b8fb-5167d1aacfcc","system_id":"levelo_inurba_marseille","lat":43.28613,"lon":5.35107,"is_reserved":false,"is_disabled":false,"rental_uris":{"android":"levelo://app?vid=bde9eac1-96dc-43e8-b8fb-5167d1aacfcc","ios":"levelo://app?vid=bde9eac1-96dc-43e8-b8fb-5167d1aacfcc"},"vehicle_type_id":"4","last_reported":1721326250,"current_range_meters":19600,"station_id":"ce4bhch2rcd13ifvqeug","pricing_plan_id":"cebpf4jnsgd1na2vs0mg"},{"bike_id":"0f3385e8-cfa6-41d8-99d0-b2c7bf87e221","system_id":"levelo_inurba_marseille","lat":43.285856,"lon":5.350771,"is_reserved":false,"is_disabled":false,"rental_uris":{"android":"levelo://app?vid=0f3385e8-cfa6-41d8-99d0-b2c7bf87e221","ios":"levelo://app?vid=0f3385e8-cfa6-41d8-99d0-b2c7bf87e221"},"vehicle_type_id":"4","last_reported":1721326250,"current_range_meters":800,"station_id":"ce4bhch2rcd13ifvqeug","pricing_plan_id":"cebpf4jnsgd1na2vs0mg"},{"bike_id":"4f1788e4-ff7c-46a0-b9ef-ebedf1cb35c5","system_id":"levelo_inurba_marseille","lat":43.28613,"lon":5.35104,"is_reserved":false,"is_disabled":false,"rental_uris":{"android":"levelo://app?vid=4f1788e4-ff7c-46a0-b9ef-ebedf1cb35c5","ios":"levelo://app?vid=4f1788e4-ff7c-46a0-b9ef-ebedf1cb35c5"},"vehicle_type_id":"4","last_reported":1721326250,"current_range_meters":28400,"station_id":"ce4bhch2rcd13ifvqeug","pricing_plan_id":"cebpf4jnsgd1na2vs0mg"},{"bike_id":"94852403-906d-4810-a5fe-c67de6eab2fa","system_id":"levelo_inurba_marseille","lat":43.285856,"lon":5.350771,"is_reserved":false,"is_disabled":false,"rental_uris":{"android":"levelo://app?vid=94852403-906d-4810-a5fe-c67de6eab2fa","ios":"levelo://app?vid=94852403-906d-4810-a5fe-c67de6eab2fa"},"vehicle_type_id":"4","last_reported":1721326250,"current_range_meters":31200,"station_id":"ce4bhch2rcd13ifvqeug","pricing_plan_id":"cebpf4jnsgd1na2vs0mg"},{"bike_id":"3e630b39-a46c-421e-b0f8-a9bfe1f589a4","system_id":"levelo_inurba_marseille","lat":43.285856,"lon":5.350771,"is_reserved":false,"is_disabled":false,"rental_uris":{"android":"levelo://app?vid=3e630b39-a46c-421e-b0f8-a9bfe1f589a4","ios":"levelo://app?vid=3e630b39-a46c-421e-b0f8-a9bfe1f589a4"},"vehicle_type_id":"4","last_reported":1721326250,"current_range_meters":30400,"station_id":"ce4bhch2rcd13ifvqeug","pricing_plan_id":"cebpf4jnsgd1na2vs0mg"},{"bike_id":"529199b2-0820-4258-96b7-0669c32b3b2b","system_id":"levelo_inurba_marseille","lat":43.28423,"lon":5.37513,"is_reserved":false,"is_disabled":false,"rental_uris":{"android":"levelo://app?vid=529199b2-0820-4258-96b7-0669c32b3b2b","ios":"levelo://app?vid=529199b2-0820-4258-96b7-0669c32b3b2b"},"vehicle_type_id":"4","last_reported":1721326250,"current_range_meters":0,"station_id":"ce4bh412rcd13ifvqds0","pricing_plan_id":"cebpf4jnsgd1na2vs0mg"},{"bike_id":"a9db66b9-ee34-41a2-8cb9-a7daf6dfeb2e","system_id":"levelo_inurba_marseille","lat":43.283998,"lon":5.375062,"is_reserved":false,"is_disabled":false,"rental_uris":{"android":"levelo://app?vid=a9db66b9-ee34-41a2-8cb9-a7daf6dfeb2e","ios":"levelo://app?vid=a9db66b9-ee34-41a2-8cb9-a7daf6dfeb2e"},"vehicle_type_id":"4","last_reported":1721326250,"current_range_meters":13200,"station_id":"ce4bh412rcd13ifvqds0","pricing_plan_id":"cebpf4jnsgd1na2vs0mg"},{"bike_id":"cb6ee69e-fa1c-41d7-912c-a3c289e490ec","system_id":"levelo_inurba_marseille","lat":43.28417,"lon":5.37517,"is_reserved":false,"is_disabled":false,"rental_uris":{"android":"levelo://app?vid=cb6ee69e-fa1c-41d7-912c-a3c289e490ec","ios":"levelo://app?vid=cb6ee69e-fa1c-41d7-912c-a3c289e490ec"},"vehicle_type_id":"4","last_reported":1721326250,"current_range_meters":0,"station_id":"ce4bh412rcd13ifvqds0","pricing_plan_id":"cebpf4jnsgd1na2vs0mg"},{"bike_id":"238d7b75-5d81-4200-aa63-209c7c2e7ad2","system_id":"levelo_inurba_marseille","lat":43.299675,"lon":5.402805,"is_reserved":false,"is_disabled":false,"rental_uris":{"android":"levelo://app?vid=238d7b75-5d81-4200-aa63-209c7c2e7ad2","ios":"levelo://app?vid=238d7b75-5d81-4200-aa63-209c7c2e7ad2"},"vehicle_type_id":"4","last_reported":1721326250,"current_range_meters":27200,"station_id":"","pricing_plan_id":"cebpf4jnsgd1na2vs0mg"},{"bike_id":"208ac061-07f5-478f-bd5e-9631c510e394","system_id":"levelo_inurba_marseille","lat":43.283998,"lon":5.375062,"is_reserved":false,"is_disabled":false,"rental_uris":{"android":"levelo://app?vid=208ac061-07f5-478f-bd5e-9631c510e394","ios":"levelo://app?vid=208ac061-07f5-478f-bd5e-9631c510e394"},"vehicle_type_id":"4","last_reported":1721326250,"current_range_meters":19200,"station_id":"ce4bh412rcd13ifvqds0","pricing_plan_id":"cebpf4jnsgd1na2vs0mg"},{"bike_id":"5f20b530-a0cd-464e-93d5-c73ea350b6ce","system_id":"levelo_inurba_marseille","lat":43.283998,"lon":5.375062,"is_reserved":false,"is_disabled":false,"rental_uris":{"android":"levelo://app?vid=5f20b530-a0cd-464e-93d5-c73ea350b6ce","ios":"levelo://app?vid=5f20b530-a0cd-464e-93d5-c73ea350b6ce"},"vehicle_type_id":"4","last_reported":1721326250,"current_range_meters":8800,"station_id":"ce4bh412rcd13ifvqds0","pricing_plan_id":"cebpf4jnsgd1na2vs0mg"},{"bike_id":"1a3b678b-2bf4-498b-9da8-ce7c3804dbe3","system_id":"levelo_inurba_marseille","lat":43.295713,"lon":5.399639,"is_reserved":false,"is_disabled":false,"rental_uris":{"android":"levelo://app?vid=1a3b678b-2bf4-498b-9da8-ce7c3804dbe3","ios":"levelo://app?vid=1a3b678b-2bf4-498b-9da8-ce7c3804dbe3"},"vehicle_type_id":"4","last_reported":1721326250,"current_range_meters":6400,"station_id":"ce4bh312rcd13ifvqdj0","pricing_plan_id":"cebpf4jnsgd1na2vs0mg"},{"bike_id":"e5aef19c-86c1-4099-b423-8f989138a3c6","system_id":"levelo_inurba_marseille","lat":43.283998,"lon":5.375062,"is_reserved":false,"is_disabled":false,"rental_uris":{"android":"levelo://app?vid=e5aef19c-86c1-4099-b423-8f989138a3c6","ios":"levelo://app?vid=e5aef19c-86c1-4099-b423-8f989138a3c6"},"vehicle_type_id":"4","last_reported":1721326250,"current_range_meters":12400,"station_id":"ce4bh412rcd13ifvqds0","pricing_plan_id":"cebpf4jnsgd1na2vs0mg"},{"bike_id":"c031cfcc-c688-4921-922c-db71a8673f88","system_id":"levelo_inurba_marseille","lat":43.2996,"lon":5.40316,"is_reserved":false,"is_disabled":false,"rental_uris":{"android":"levelo://app?vid=c031cfcc-c688-4921-922c-db71a8673f88","ios":"levelo://app?vid=c031cfcc-c688-4921-922c-db71a8673f88"},"vehicle_type_id":"4","last_reported":1721326250,"current_range_meters":20400,"station_id":"","pricing_plan_id":"cebpf4jnsgd1na2vs0mg"},{"bike_id":"bf2896eb-aa36-4837-ba7e-1eb786b03e00","system_id":"levelo_inurba_marseille","lat":43.298037,"lon":5.381066,"is_reserved":false,"is_disabled":false,"rental_uris":{"android":"levelo://app?vid=bf2896eb-aa36-4837-ba7e-1eb786b03e00","ios":"levelo://app?vid=bf2896eb-aa36-4837-ba7e-1eb786b03e00"},"vehicle_type_id":"4","last_reported":1721326250,"current_range_meters":6400,"station_id":"ce4bgip2rcd13ifvqbb0","pricing_plan_id":"cebpf4jnsgd1na2vs0mg"},{"bike_id":"499eb4c1-17d2-41fd-88d6-a06b7dabfaff","system_id":"levelo_inurba_marseille","lat":43.28834,"lon":5.39193,"is_reserved":false,"is_disabled":false,"rental_uris":{"android":"levelo://app?vid=499eb4c1-17d2-41fd-88d6-a06b7dabfaff","ios":"levelo://app?vid=499eb4c1-17d2-41fd-88d6-a06b7dabfaff"},"vehicle_type_id":"4","last_reported":1721326250,"current_range_meters":4000,"station_id":"","pricing_plan_id":"cebpf4jnsgd1na2vs0mg"},{"bike_id":"fe43b48e-ca72-40cd-99c7-df0d2866f974","system_id":"levelo_inurba_marseille","lat":43.323464,"lon":5.406297,"is_reserved":false,"is_disabled":false,"rental_uris":{"android":"levelo://app?vid=fe43b48e-ca72-40cd-99c7-df0d2866f974","ios":"levelo://app?vid=fe43b48e-ca72-40cd-99c7-df0d2866f974"},"vehicle_type_id":"4","last_reported":1721326250,"current_range_meters":29200,"station_id":"ce4bhq92rcd13ifvqhjg","pricing_plan_id":"cebpf4jnsgd1na2vs0mg"},{"bike_id":"b18d5841-30ba-4deb-b76b-d189a64e47af","system_id":"levelo_inurba_marseille","lat":43.337168,"lon":5.391825,"is_reserved":false,"is_disabled":false,"rental_uris":{"android":"levelo://app?vid=b18d5841-30ba-4deb-b76b-d189a64e47af","ios":"levelo://app?vid=b18d5841-30ba-4deb-b76b-d189a64e47af"},"vehicle_type_id":"4","last_reported":1721326250,"current_range_meters":16400,"station_id":"ce4bhr92rcd13ifvqhsg","pricing_plan_id":"cebpf4jnsgd1na2vs0mg"},{"bike_id":"7f662d7d-3300-4d0e-b906-ef0ed1b39b03","system_id":"levelo_inurba_marseille","lat":43.323464,"lon":5.406297,"is_reserved":false,"is_disabled":false,"rental_uris":{"android":"levelo://app?vid=7f662d7d-3300-4d0e-b906-ef0ed1b39b03","ios":"levelo://app?vid=7f662d7d-3300-4d0e-b906-ef0ed1b39b03"},"vehicle_type_id":"4","last_reported":1721326250,"current_range_meters":25200,"station_id":"ce4bhq92rcd13ifvqhjg","pricing_plan_id":"cebpf4jnsgd1na2vs0mg"},{"bike_id":"4c737145-9cc2-431c-a1eb-dec9887a898d","system_id":"levelo_inurba_marseille","lat":43.323433,"lon":5.406248,"is_reserved":false,"is_disabled":false,"rental_uris":{"android":"levelo://app?vid=4c737145-9cc2-431c-a1eb-dec9887a898d","ios":"levelo://app?vid=4c737145-9cc2-431c-a1eb-dec9887a898d"},"vehicle_type_id":"4","last_reported":1721326250,"current_range_meters":28400,"station_id":"ce4bhq92rcd13ifvqhjg","pricing_plan_id":"cebpf4jnsgd1na2vs0mg"},{"bike_id":"5a4b3657-93c1-45f2-963f-ef59ecff9544","system_id":"levelo_inurba_marseille","lat":43.288497,"lon":5.393089,"is_reserved":false,"is_disabled":false,"rental_uris":{"android":"levelo://app?vid=5a4b3657-93c1-45f2-963f-ef59ecff9544","ios":"levelo://app?vid=5a4b3657-93c1-45f2-963f-ef59ecff9544"},"vehicle_type_id":"4","last_reported":1721326250,"current_range_meters":0,"station_id":"ce4bh2p2rcd13ifvqdi0","pricing_plan_id":"cebpf4jnsgd1na2vs0mg"},{"bike_id":"b6e1235c-14f1-414d-ab27-2ec02c19b4e8","system_id":"levelo_inurba_marseille","lat":43.288497,"lon":5.393089,"is_reserved":false,"is_disabled":false,"rental_uris":{"android":"levelo://app?vid=b6e1235c-14f1-414d-ab27-2ec02c19b4e8","ios":"levelo://app?vid=b6e1235c-14f1-414d-ab27-2ec02c19b4e8"},"vehicle_type_id":"4","last_reported":1721326250,"current_range_meters":0,"station_id":"ce4bh2p2rcd13ifvqdi0","pricing_plan_id":"cebpf4jnsgd1na2vs0mg"},{"bike_id":"8691ebf8-a050-428c-8716-a51de125054f","system_id":"levelo_inurba_marseille","lat":43.283494,"lon":5.380945,"is_reserved":false,"is_disabled":false,"rental_uris":{"android":"levelo://app?vid=8691ebf8-a050-428c-8716-a51de125054f","ios":"levelo://app?vid=8691ebf8-a050-428c-8716-a51de125054f"},"vehicle_type_id":"4","last_reported":1721326250,"current_range_meters":26800,"station_id":"ce4bh412rcd13ifvqdr0","pricing_plan_id":"cebpf4jnsgd1na2vs0mg"},{"bike_id":"83e25c8a-cb21-4675-8fc8-595759f32786","system_id":"levelo_inurba_marseille","lat":43.284776,"lon":5.385603,"is_reserved":false,"is_disabled":false,"rental_uris":{"android":"levelo://app?vid=83e25c8a-cb21-4675-8fc8-595759f32786","ios":"levelo://app?vid=83e25c8a-cb21-4675-8fc8-595759f32786"},"vehicle_type_id":"4","last_reported":1721326250,"current_range_meters":0,"station_id":"ce4bh8p2rcd13ifvqeb0","pricing_plan_id":"cebpf4jnsgd1na2vs0mg"},{"bike_id":"00e1cea9-e345-4048-9e3e-d946c119f372","system_id":"levelo_inurba_marseille","lat":43.283498,"lon":5.380948,"is_reserved":false,"is_disabled":false,"rental_uris":{"android":"levelo://app?vid=00e1cea9-e345-4048-9e3e-d946c119f372","ios":"levelo://app?vid=00e1cea9-e345-4048-9e3e-d946c119f372"},"vehicle_type_id":"4","last_reported":1721326250,"current_range_meters":0,"station_id":"ce4bh412rcd13ifvqdr0","pricing_plan_id":"cebpf4jnsgd1na2vs0mg"},{"bike_id":"d0e1c9da-b6e6-4bc3-8cb2-ec0c86d6bc39","system_id":"levelo_inurba_marseille","lat":43.283494,"lon":5.380945,"is_reserved":false,"is_disabled":false,"rental_uris":{"android":"levelo://app?vid=d0e1c9da-b6e6-4bc3-8cb2-ec0c86d6bc39","ios":"levelo://app?vid=d0e1c9da-b6e6-4bc3-8cb2-ec0c86d6bc39"},"vehicle_type_id":"4","last_reported":1721326250,"current_range_meters":14000,"station_id":"ce4bh412rcd13ifvqdr0","pricing_plan_id":"cebpf4jnsgd1na2vs0mg"},{"bike_id":"5165a73f-bea0-4924-a46d-1427a7cdf018","system_id":"levelo_inurba_marseille","lat":43.28426,"lon":5.34988,"is_reserved":false,"is_disabled":false,"rental_uris":{"android":"levelo://app?vid=5165a73f-bea0-4924-a46d-1427a7cdf018","ios":"levelo://app?vid=5165a73f-bea0-4924-a46d-1427a7cdf018"},"vehicle_type_id":"4","last_reported":1721326250,"current_range_meters":0,"station_id":"ce4bhbh2rcd13ifvqepg","pricing_plan_id":"cebpf4jnsgd1na2vs0mg"},{"bike_id":"44ab605a-12c2-4178-a79b-cc48191ead05","system_id":"levelo_inurba_marseille","lat":43.28427,"lon":5.34984,"is_reserved":false,"is_disabled":false,"rental_uris":{"android":"levelo://app?vid=44ab605a-12c2-4178-a79b-cc48191ead05","ios":"levelo://app?vid=44ab605a-12c2-4178-a79b-cc48191ead05"},"vehicle_type_id":"4","last_reported":1721326250,"current_range_meters":10000,"station_id":"ce4bhbh2rcd13ifvqepg","pricing_plan_id":"cebpf4jnsgd1na2vs0mg"},{"bike_id":"722aa620-7c0f-4276-abfb-370b5a620db6","system_id":"levelo_inurba_marseille","lat":43.284219,"lon":5.3497,"is_reserved":false,"is_disabled":false,"rental_uris":{"android":"levelo://app?vid=722aa620-7c0f-4276-abfb-370b5a620db6","ios":"levelo://app?vid=722aa620-7c0f-4276-abfb-370b5a620db6"},"vehicle_type_id":"4","last_reported":1721326250,"current_range_meters":31600,"station_id":"ce4bhbh2rcd13ifvqepg","pricing_plan_id":"cebpf4jnsgd1na2vs0mg"},{"bike_id":"92de1830-9021-425e-8b24-5088cd7f09b0","system_id":"levelo_inurba_marseille","lat":43.284219,"lon":5.3497,"is_reserved":false,"is_disabled":false,"rental_uris":{"android":"levelo://app?vid=92de1830-9021-425e-8b24-5088cd7f09b0","ios":"levelo://app?vid=92de1830-9021-425e-8b24-5088cd7f09b0"},"vehicle_type_id":"4","last_reported":1721326250,"current_range_meters":27200,"station_id":"ce4bhbh2rcd13ifvqepg","pricing_plan_id":"cebpf4jnsgd1na2vs0mg"},{"bike_id":"af98fdaa-7688-428a-9f77-5c308db3ff36","system_id":"levelo_inurba_marseille","lat":43.28421,"lon":5.35,"is_reserved":false,"is_disabled":false,"rental_uris":{"android":"levelo://app?vid=af98fdaa-7688-428a-9f77-5c308db3ff36","ios":"levelo://app?vid=af98fdaa-7688-428a-9f77-5c308db3ff36"},"vehicle_type_id":"4","last_reported":1721326250,"current_range_meters":8400,"station_id":"ce4bhbh2rcd13ifvqepg","pricing_plan_id":"cebpf4jnsgd1na2vs0mg"},{"bike_id":"1e00f4ad-b3ef-4166-b3fd-9a0f933058b7","system_id":"levelo_inurba_marseille","lat":43.28425,"lon":5.34986,"is_reserved":false,"is_disabled":false,"rental_uris":{"android":"levelo://app?vid=1e00f4ad-b3ef-4166-b3fd-9a0f933058b7","ios":"levelo://app?vid=1e00f4ad-b3ef-4166-b3fd-9a0f933058b7"},"vehicle_type_id":"4","last_reported":1721326250,"current_range_meters":0,"station_id":"ce4bhbh2rcd13ifvqepg","pricing_plan_id":"cebpf4jnsgd1na2vs0mg"},{"bike_id":"0c355a92-f0e5-4ae3-9c91-5f3d29fb1d27","system_id":"levelo_inurba_marseille","lat":43.284228,"lon":5.349928,"is_reserved":false,"is_disabled":false,"rental_uris":{"android":"levelo://app?vid=0c355a92-f0e5-4ae3-9c91-5f3d29fb1d27","ios":"levelo://app?vid=0c355a92-f0e5-4ae3-9c91-5f3d29fb1d27"},"vehicle_type_id":"4","last_reported":1721326250,"current_range_meters":9200,"station_id":"ce4bhbh2rcd13ifvqepg","pricing_plan_id":"cebpf4jnsgd1na2vs0mg"},{"bike_id":"a3e1882e-d860-4507-aff6-f8a561113eb7","system_id":"levelo_inurba_marseille","lat":43.284219,"lon":5.3497,"is_reserved":false,"is_disabled":false,"rental_uris":{"android":"levelo://app?vid=a3e1882e-d860-4507-aff6-f8a561113eb7","ios":"levelo://app?vid=a3e1882e-d860-4507-aff6-f8a561113eb7"},"vehicle_type_id":"4","last_reported":1721326250,"current_range_meters":30400,"station_id":"ce4bhbh2rcd13ifvqepg","pricing_plan_id":"cebpf4jnsgd1na2vs0mg"},{"bike_id":"7c10f830-9624-4228-a012-6beafe0a9b37","system_id":"levelo_inurba_marseille","lat":43.284219,"lon":5.3497,"is_reserved":false,"is_disabled":false,"rental_uris":{"android":"levelo://app?vid=7c10f830-9624-4228-a012-6beafe0a9b37","ios":"levelo://app?vid=7c10f830-9624-4228-a012-6beafe0a9b37"},