{"last_updated":1683493561,"ttl":30,"version":"2.2","data":{"bikes":[{"bike_id":"ef445b58-6933-49ec-9ab2-3a555d9b2f6c","system_id":"levelo_inurba_marseille","lat":43.31501,"lon":5.37306,"is_reserved":false,"is_disabled":false,"rental_uris":{"android":"levelo://app?vid=ef445b58-6933-49ec-9ab2-3a555d9b2f6c","ios":"levelo://app?vid=ef445b58-6933-49ec-9ab2-3a555d9b2f6c"},"vehicle_type_id":"4","last_reported":1683493561,"current_range_meters":5200,"station_id":"ce4bgt12rcd13ifvqcd0","pricing_plan_id":"free"},{"bike_id":"87d8dbe1-6224-41a4-9c2b-fdce80e96d72","system_id":"levelo_inurba_marseille","lat":43.30537,"lon":5.367345,"is_reserved":false,"is_disabled":false,"rental_uris":{"android":"levelo://app?vid=87d8dbe1-6224-41a4-9c2b-fdce80e96d72","ios":"levelo://app?vid=87d8dbe1-6224-41a4-9c2b-fdce80e96d72"},"vehicle_type_id":"4","last_reported":1683493561,"current_range_meters":6000,"station_id":"ce4bgrp2rcd13ifvqc9g","pricing_plan_id":"free"},{"bike_id":"79b8f863-6af1-4fe7-b2d1-ae5a37eccf7e","system_id":"levelo_inurba_marseille","lat":43.30537,"lon":5.367345,"is_reserved":false,"is_disabled":false,"rental_uris":{"android":"levelo://app?vid=79b8f863-6af1-4fe7-b2d1-ae5a37eccf7e","ios":"levelo://app?vid=79b8f863-6af1-4fe7-b2d1-ae5a37eccf7e"},"vehicle_type_id":"4","last_reported":1683493561,"current_range_meters":1600,"station_id":"ce4bgrp2rcd13ifvqc9g","pricing_plan_id":"free"},{"bike_id":"c7ffa18b-1640-4d99-b545-9932a9510648","system_id":"levelo_inurba_marseille","lat":43.30537,"lon":5.367345,"is_reserved":false,"is_disabled":false,"rental_uris":{"android":"levelo://app?vid=c7ffa18b-1640-4d99-b545-9932a9510648","ios":"levelo://app?vid=c7ffa18b-1640-4d99-b545-9932a9510648"},"vehicle_type_id":"4","last_reported":1683493561,"current_range_meters":31200,"station_id":"ce4bgrp2rcd13ifvqc9g","pricing_plan_id":"free"},{"bike_id":"2e07c44f-90c7-4fbe-9896-6d966648de50","system_id":"levelo_inurba_marseille","lat":43.305396,"lon":5.367301,"is_reserved":false,"is_disabled":false,"rental_uris":{"android":"levelo://app?vid=2e07c44f-90c7-4fbe-9896-6d966648de50","ios":"levelo://app?vid=2e07c44f-90c7-4fbe-9896-6d966648de50"},"vehicle_type_id":"4","last_reported":1683493561,"current_range_meters":13600,"station_id":"ce4bgrp2rcd13ifvqc9g","pricing_plan_id":"free"},{"bike_id":"3b3919e5-e159-43be-a874-80c30c38d3b0","system_id":"levelo_inurba_marseille","lat":43.30536,"lon":5.36703,"is_reserved":false,"is_disabled":false,"rental_uris":{"android":"levelo://app?vid=3b3919e5-e159-43be-a874-80c30c38d3b0","ios":"levelo://app?vid=3b3919e5-e159-43be-a874-80c30c38d3b0"},"vehicle_type_id":"4","last_reported":1683493561,"current_range_meters":1600,"station_id":"ce4bgrp2rcd13ifvqc9g","pricing_plan_id":"free"},{"bike_id":"c857b612-1f9a-4918-b18e-fd262508858a","system_id":"levelo_inurba_marseille","lat":43.30528,"lon":5.36708,"is_reserved":false,"is_disabled":false,"rental_uris":{"android":"levelo://app?vid=c857b612-1f9a-4918-b18e-fd262508858a","ios":"levelo://app?vid=c857b612-1f9a-4918-b18e-fd262508858a"},"vehicle_type_id":"4","last_reported":1683493561,"current_range_meters":22800,"station_id":"","pricing_plan_id":"free"},{"bike_id":"34670160-e186-43be-9095-539899e89d70","system_id":"levelo_inurba_marseille","lat":43.311125,"lon":5.377624,"is_reserved":false,"is_disabled":false,"rental_uris":{"android":"levelo://app?vid=34670160-e186-43be-9095-539899e89d70","ios":"levelo://app?vid=34670160-e186-43be-9095-539899e89d70"},"vehicle_type_id":"4","last_reported":1683493561,"current_range_meters":0,"station_id":"ce4bgt92rcd13ifvqcg0","pricing_plan_id":"free"},{"bike_id":"ea82b86a-cb03-4ed9-b6ac-77ee8ebb8a81","system_id":"levelo_inurba_marseille","lat":43.311131,"lon":5.377651,"is_reserved":false,"is_disabled":false,"rental_uris":{"android":"levelo://app?vid=ea82b86a-cb03-4ed9-b6ac-77ee8ebb8a81","ios":"levelo://app?vid=ea82b86a-cb03-4ed9-b6ac-77ee8ebb8a81"},"vehicle_type_id":"4","last_reported":1683493561,"current_range_meters":2400,"station_id":"ce4bgt92rcd13ifvqcg0","pricing_plan_id":"free"},{"bike_id":"243d58c6-677a-4ef5-ac10-1ca5621449fc","system_id":"levelo_inurba_marseille","lat":43.3031,"lon":5.36445,"is_reserved":false,"is_disabled":false,"rental_uris":{"android":"levelo://app?vid=243d58c6-677a-4ef5-ac10-1ca5621449fc","ios":"levelo://app?vid=243d58c6-677a-4ef5-ac10-1ca5621449fc"},"vehicle_type_id":"4","last_reported":1683493561,"current_range_meters":12800,"station_id":"","pricing_plan_id":"free"},{"bike_id":"6fdf30ad-6858-41a6-9832-cb6abbb902f2","system_id":"levelo_inurba_marseille","lat":43.303046,"lon":5.368981,"is_reserved":false,"is_disabled":false,"rental_uris":{"android":"levelo://app?vid=6fdf30ad-6858-41a6-9832-cb6abbb902f2","ios":"levelo://app?vid=6fdf30ad-6858-41a6-9832-cb6abbb902f2"},"vehicle_type_id":"4","last_reported":1683493561,"current_range_meters":18800,"station_id":"ce4bgqh2rcd13ifvqc5g","pricing_plan_id":"free"},{"bike_id":"d1454e37-3bb5-4c4e-939d-c0394966b794","system_id":"levelo_inurba_marseille","lat":43.315289,"lon":5.380349,"is_reserved":false,"is_disabled":false,"rental_uris":{"android":"levelo://app?vid=d1454e37-3bb5-4c4e-939d-c0394966b794","ios":"levelo://app?vid=d1454e37-3bb5-4c4e-939d-c0394966b794"},"vehicle_type_id":"4","last_reported":1683493561,"current_range_meters":22800,"station_id":"ce4bhsp2rcd13ifvqi50","pricing_plan_id":"free"},{"bike_id":"239cbb49-3cb1-4a38-a972-cc1c53760fa7","system_id":"levelo_inurba_marseille","lat":43.301939,"lon":5.366286,"is_reserved":false,"is_disabled":false,"rental_uris":{"android":"levelo://app?vid=239cbb49-3cb1-4a38-a972-cc1c53760fa7","ios":"levelo://app?vid=239cbb49-3cb1-4a38-a972-cc1c53760fa7"},"vehicle_type_id":"4","last_reported":1683493561,"current_range_meters":14000,"station_id":"ce4bgrh2rcd13ifvqc8g","pricing_plan_id":"free"},{"bike_id":"6f00d109-ad0a-420d-90c4-ded7517dc241","system_id":"levelo_inurba_marseille","lat":43.301939,"lon":5.366286,"is_reserved":false,"is_disabled":false,"rental_uris":{"android":"levelo://app?vid=6f00d109-ad0a-420d-90c4-ded7517dc241","ios":"levelo://app?vid=6f00d109-ad0a-420d-90c4-ded7517dc241"},"vehicle_type_id":"4","last_reported":1683493561,"current_range_meters":19600,"station_id":"ce4bgrh2rcd13ifvqc8g","pricing_plan_id":"free"},{"bike_id":"035a2b0a-a8a2-4479-8d2e-5d9516213b51","system_id":"levelo_inurba_marseille","lat":43.31602,"lon":5.3817,"is_reserved":false,"is_disabled":false,"rental_uris":{"android":"levelo://app?vid=035a2b0a-a8a2-4479-8d2e-5d9516213b51","ios":"levelo://app?vid=035a2b0a-a8a2-4479-8d2e-5d9516213b51"},"vehicle_type_id":"4","last_reported":1683493561,"current_range_meters":8400,"station_id":"","pricing_plan_id":"free"},{"bike_id":"8ad23aa3-12e1-46a8-8f24-6ad2b2468472","system_id":"levelo_inurba_marseille","lat":43.307962,"lon":5.381442,"is_reserved":false,"is_disabled":false,"rental_uris":{"android":"levelo://app?vid=8ad23aa3-12e1-46a8-8f24-6ad2b2468472","ios":"levelo://app?vid=8ad23aa3-12e1-46a8-8f24-6ad2b2468472"},"vehicle_type_id":"4","last_reported":1683493561,"current_range_meters":16400,"station_id":"ce4bgt12rcd13ifvqce0","pricing_plan_id":"free"},{"bike_id":"fb843919-1d1b-4fdb-ac73-9adbec85b835","system_id":"levelo_inurba_marseille","lat":43.308012,"lon":5.381511,"is_reserved":false,"is_disabled":false,"rental_uris":{"android":"levelo://app?vid=fb843919-1d1b-4fdb-ac73-9adbec85b835","ios":"levelo://app?vid=fb843919-1d1b-4fdb-ac73-9adbec85b835"},"vehicle_type_id":"4","last_reported":1683493561,"current_range_meters":29200,"station_id":"ce4bgt12rcd13ifvqce0","pricing_plan_id":"free"},{"bike_id":"fe1dd320-2e3f-46ba-93a4-fa480cb1d410","system_id":"levelo_inurba_marseille","lat":43.308012,"lon":5.381511,"is_reserved":false,"is_disabled":false,"rental_uris":{"android":"levelo://app?vid=fe1dd320-2e3f-46ba-93a4-fa480cb1d410","ios":"levelo://app?vid=fe1dd320-2e3f-46ba-93a4-fa480cb1d410"},"vehicle_type_id":"4","last_reported":1683493561,"current_range_meters":11600,"station_id":"ce4bgt12rcd13ifvqce0","pricing_plan_id":"free"},{"bike_id":"39f93e5d-c871-4a40-b789-d6448cb27898","system_id":"levelo_inurba_marseille","lat":43.3014,"lon":5.37412,"is_reserved":false,"is_disabled":false,"rental_uris":{"android":"levelo://app?vid=39f93e5d-c871-4a40-b789-d6448cb27898","ios":"levelo://app?vid=39f93e5d-c871-4a40-b789-d6448cb27898"},"vehicle_type_id":"4","last_reported":1683493561,"current_range_meters":31200,"station_id":"ce4bgs92rcd13ifvqcc0","pricing_plan_id":"free"},{"bike_id":"5fc57ee1-1fca-4810-9c65-d5397bc22fb7","system_id":"levelo_inurba_marseille","lat":43.301395,"lon":5.374168,"is_reserved":false,"is_disabled":false,"rental_uris":{"android":"levelo://app?vid=5fc57ee1-1fca-4810-9c65-d5397bc22fb7","ios":"levelo://app?vid=5fc57ee1-1fca-4810-9c65-d5397bc22fb7"},"vehicle_type_id":"4","last_reported":1683493561,"current_range_meters":31200,"station_id":"ce4bgs92rcd13ifvqcc0","pricing_plan_id":"free"},{"bike_id":"6c1abc22-29cb-415f-9e5d-a4fd6883b6d0","system_id":"levelo_inurba_marseille","lat":43.30134,"lon":5.37415,"is_reserved":false,"is_disabled":false,"rental_uris":{"android":"levelo://app?vid=6c1abc22-29cb-415f-9e5d-a4fd6883b6d0","ios":"levelo://app?vid=6c1abc22-29cb-415f-9e5d-a4fd6883b6d0"},"vehicle_type_id":"4","last_reported":1683493561,"current_range_meters":18800,"station_id":"ce4bgs92rcd13ifvqcc0","pricing_plan_id":"free"},{"bike_id":"4e480703-f800-420d-a30b-ed6d070f2acc","system_id":"levelo_inurba_marseille","lat":43.30132,"lon":5.37419,"is_reserved":false,"is_disabled":false,"rental_uris":{"android":"levelo://app?vid=4e480703-f800-420d-a30b-ed6d070f2acc","ios":"levelo://app?vid=4e480703-f800-420d-a30b-ed6d070f2acc"},"vehicle_type_id":"4","last_reported":1683493561,"current_range_meters":31200,"station_id":"ce4bgs92rcd13ifvqcc0","pricing_plan_id":"free"},{"bike_id":"e8514c87-81e6-415a-bc73-8300852c137d","system_id":"levelo_inurba_marseille","lat":43.313571,"lon":5.384829,"is_reserved":false,"is_disabled":false,"rental_uris":{"android":"levelo://app?vid=e8514c87-81e6-415a-bc73-8300852c137d","ios":"levelo://app?vid=e8514c87-81e6-415a-bc73-8300852c137d"},"vehicle_type_id":"4","last_reported":1683493561,"current_range_meters":7600,"station_id":"ce4bgt92rcd13ifvqcf0","pricing_plan_id":"free"},{"bike_id":"b402d588-690c-4395-b51d-0506faad4b0d","system_id":"levelo_inurba_marseille","lat":43.29939,"lon":5.36536,"is_reserved":false,"is_disabled":false,"rental_uris":{"android":"levelo://app?vid=b402d588-690c-4395-b51d-0506faad4b0d","ios":"levelo://app?vid=b402d588-690c-4395-b51d-0506faad4b0d"},"vehicle_type_id":"4","last_reported":1683493561,"current_range_meters":7200,"station_id":"ce4bgm92rcd13ifvqbr0","pricing_plan_id":"free"},{"bike_id":"274adced-8962-4e60-b3b5-ca9001d8c715","system_id":"levelo_inurba_marseille","lat":43.29935,"lon":5.36541,"is_reserved":false,"is_disabled":false,"rental_uris":{"android":"levelo://app?vid=274adced-8962-4e60-b3b5-ca9001d8c715","ios":"levelo://app?vid=274adced-8962-4e60-b3b5-ca9001d8c715"},"vehicle_type_id":"4","last_reported":1683493561,"current_range_meters":4000,"station_id":"ce4bgm92rcd13ifvqbr0","pricing_plan_id":"free"},{"bike_id":"54fa2f48-d5ea-4428-aacf-d56b8b6e7ec5","system_id":"levelo_inurba_marseille","lat":43.299222,"lon":5.365554,"is_reserved":false,"is_disabled":false,"rental_uris":{"android":"levelo://app?vid=54fa2f48-d5ea-4428-aacf-d56b8b6e7ec5","ios":"levelo://app?vid=54fa2f48-d5ea-4428-aacf-d56b8b6e7ec5"},"vehicle_type_id":"4","last_reported":1683493561,"current_range_meters":12000,"station_id":"ce4bgm92rcd13ifvqbr0","pricing_plan_id":"free"},{"bike_id":"6f88a1d8-9f44-4802-b70e-ae60589b82fe","system_id":"levelo_inurba_marseille","lat":43.29931,"lon":5.36537,"is_reserved":false,"is_disabled":false,"rental_uris":{"android":"levelo://app?vid=6f88a1d8-9f44-4802-b70e-ae60589b82fe","ios":"levelo://app?vid=6f88a1d8-9f44-4802-b70e-ae60589b82fe"},"vehicle_type_id":"4","last_reported":1683493561,"current_range_meters":12000,"station_id":"ce4bgm92rcd13ifvqbr0","pricing_plan_id":"free"},{"bike_id":"e67e733c-6b53-4c7c-8dea-0693ac61a34c","system_id":"levelo_inurba_marseille","lat":43.32634,"lon":5.3611,"is_reserved":false,"is_disabled":false,"rental_uris":{"android":"levelo://app?vid=e67e733c-6b53-4c7c-8dea-0693ac61a34c","ios":"levelo://app?vid=e67e733c-6b53-4c7c-8dea-0693ac61a34c"},"vehicle_type_id":"4","last_reported":1683493561,"current_range_meters":12800,"station_id":"","pricing_plan_id":"free"},{"bike_id":"aeb489d1-0e0a-4225-a92e-ee270865ae75","system_id":"levelo_inurba_marseille","lat":43.298433,"lon":5.362774,"is_reserved":false,"is_disabled":false,"rental_uris":{"android":"levelo://app?vid=aeb489d1-0e0a-4225-a92e-ee270865ae75","ios":"levelo://app?vid=aeb489d1-0e0a-4225-a92e-ee270865ae75"},"vehicle_type_id":"4","last_reported":1683493561,"current_range_meters":4000,"station_id":"ce4bgpp2rcd13ifvqc3g","pricing_plan_id":"free"},{"bike_id":"0f04956e-b1a3-4939-9d2a-0a724708359f","system_id":"levelo_inurba_marseille","lat":43.298433,"lon":5.362774,"is_reserved":false,"is_disabled":false,"rental_uris":{"android":"levelo://app?vid=0f04956e-b1a3-4939-9d2a-0a724708359f","ios":"levelo://app?vid=0f04956e-b1a3-4939-9d2a-0a724708359f"},"vehicle_type_id":"4","last_reported":1683493561,"current_range_meters":5600,"station_id":"ce4bgpp2rcd13ifvqc3g","pricing_plan_id":"free"},{"bike_id":"d6d4d800-3d01-471b-8b37-49ac398b3d6a","system_id":"levelo_inurba_marseille","lat":43.29849,"lon":5.36282,"is_reserved":false,"is_disabled":false,"rental_uris":{"android":"levelo://app?vid=d6d4d800-3d01-471b-8b37-49ac398b3d6a","ios":"levelo://app?vid=d6d4d800-3d01-471b-8b37-49ac398b3d6a"},"vehicle_type_id":"4","last_reported":1683493561,"current_range_meters":22400,"station_id":"ce4bgpp2rcd13ifvqc3g","pricing_plan_id":"free"},{"bike_id":"91afb78a-6ed0-42be-bfc2-f129d09d3710","system_id":"levelo_inurba_marseille","lat":43.299243,"lon":5.374807,"is_reserved":false,"is_disabled":false,"rental_uris":{"android":"levelo://app?vid=91afb78a-6ed0-42be-bfc2-f129d09d3710","ios":"levelo://app?vid=91afb78a-6ed0-42be-bfc2-f129d09d3710"},"vehicle_type_id":"4","last_reported":1683493561,"current_range_meters":12400,"station_id":"ce4bgjh2rcd13ifvqbg0","pricing_plan_id":"free"},{"bike_id":"49aca467-2616-4b66-b034-026efba85fa0","system_id":"levelo_inurba_marseille","lat":43.29924,"lon":5.37468,"is_reserved":false,"is_disabled":false,"rental_uris":{"android":"levelo://app?vid=49aca467-2616-4b66-b034-026efba85fa0","ios":"levelo://app?vid=49aca467-2616-4b66-b034-026efba85fa0"},"vehicle_type_id":"4","last_reported":1683493561,"current_range_meters":0,"station_id":"ce4bgjh2rcd13ifvqbg0","pricing_plan_id":"free"},{"bike_id":"0f25d1ce-0962-402c-9705-9786d8788ea2","system_id":"levelo_inurba_marseille","lat":43.299243,"lon":5.374807,"is_reserved":false,"is_disabled":false,"rental_uris":{"android":"levelo://app?vid=0f25d1ce-0962-402c-9705-9786d8788ea2","ios":"levelo://app?vid=0f25d1ce-0962-402c-9705-9786d8788ea2"},"vehicle_type_id":"4","last_reported":1683493561,"current_range_meters":20400,"station_id":"ce4bgjh2rcd13ifvqbg0","pricing_plan_id":"free"},{"bike_id":"3196d0ef-9df5-4748-a095-8f4d13f5e2f7","system_id":"levelo_inurba_marseille","lat":43.298433,"lon":5.362774,"is_reserved":false,"is_disabled":false,"rental_uris":{"android":"levelo://app?vid=3196d0ef-9df5-4748-a095-8f4d13f5e2f7","ios":"levelo://app?vid=3196d0ef-9df5-4748-a095-8f4d13f5e2f7"},"vehicle_type_id":"4","last_reported":1683493561,"current_range_meters":10000,"station_id":"ce4bgpp2rcd13ifvqc3g","pricing_plan_id":"free"},{"bike_id":"261ce159-d792-499a-9f2f-ca3d20eab15f","system_id":"levelo_inurba_marseille","lat":43.311722,"lon":5.387247,"is_reserved":false,"is_disabled":false,"rental_uris":{"android":"levelo://app?vid=261ce159-d792-499a-9f2f-ca3d20eab15f","ios":"levelo://app?vid=261ce159-d792-499a-9f2f-ca3d20eab15f"},"vehicle_type_id":"4","last_reported":1683493561,"current_range_meters":8800,"station_id":"ce4bgv12rcd13ifvqcp0","pricing_plan_id":"free"},{"bike_id":"5547b48c-8b33-4b9e-8968-40fdcfa10104","system_id":"levelo_inurba_marseille","lat":43.299243,"lon":5.37481,"is_reserved":false,"is_disabled":false,"rental_uris":{"android":"levelo://app?vid=5547b48c-8b33-4b9e-8968-40fdcfa10104","ios":"levelo://app?vid=5547b48c-8b33-4b9e-8968-40fdcfa10104"},"vehicle_type_id":"4","last_reported":1683493561,"current_range_meters":14000,"station_id":"ce4bgjh2rcd13ifvqbg0","pricing_plan_id":"free"},{"bike_id":"9dd29322-53f5-47b5-a0f7-86a405210d90","system_id":"levelo_inurba_marseille","lat":43.297774,"lon":5.370875,"is_reserved":false,"is_disabled":false,"rental_uris":{"android":"levelo://app?vid=9dd29322-53f5-47b5-a0f7-86a405210d90","ios":"levelo://app?vid=9dd29322-53f5-47b5-a0f7-86a405210d90"},"vehicle_type_id":"4","last_reported":1683493561,"current_range_meters":1200,"station_id":"ce4bgop2rcd13ifvqc1g","pricing_plan_id":"free"},{"bike_id":"e55fe45e-5ee3-4aea-ab4d-dcdef2519403","system_id":"levelo_inurba_marseille","lat":43.29781,"lon":5.371,"is_reserved":false,"is_disabled":false,"rental_uris":{"android":"levelo://app?vid=e55fe45e-5ee3-4aea-ab4d-dcdef2519403","ios":"levelo://app?vid=e55fe45e-5ee3-4aea-ab4d-dcdef2519403"},"vehicle_type_id":"4","last_reported":1683493561,"current_range_meters":4000,"station_id":"ce4bgop2rcd13ifvqc1g","pricing_plan_id":"free"},{"bike_id":"667028b2-ffb8-4581-9bf2-6e155a39123a","system_id":"levelo_inurba_marseille","lat":43.297774,"lon":5.370875,"is_reserved":false,"is_disabled":false,"rental_uris":{"android":"levelo://app?vid=667028b2-ffb8-4581-9bf2-6e155a39123a","ios":"levelo://app?vid=667028b2-ffb8-4581-9bf2-6e155a39123a"},"vehicle_type_id":"4","last_reported":1683493561,"current_range_meters":0,"station_id":"ce4bgop2rcd13ifvqc1g","pricing_plan_id":"free"},{"bike_id":"c63d5618-8d5d-4c73-96ee-8eeeec71884c","system_id":"levelo_inurba_marseille","lat":43.297794,"lon":5.370888,"is_reserved":false,"is_disabled":false,"rental_uris":{"android":"levelo://app?vid=c63d5618-8d5d-4c73-96ee-8eeeec71884c","ios":"levelo://app?vid=c63d5618-8d5d-4c73-96ee-8eeeec71884c"},"vehicle_type_id":"4","last_reported":1683493561,"current_range_meters":29600,"station_id":"ce4bgop2rcd13ifvqc1g","pricing_plan_id":"free"},{"bike_id":"f91de8b4-023e-4799-a0a1-2e86398c6909","system_id":"levelo_inurba_marseille","lat":43.32829,"lon":5.36677,"is_reserved":false,"is_disabled":false,"rental_uris":{"android":"levelo://app?vid=f91de8b4-023e-4799-a0a1-2e86398c6909","ios":"levelo://app?vid=f91de8b4-023e-4799-a0a1-2e86398c6909"},"vehicle_type_id":"4","last_reported":1683493561,"current_range_meters":1600,"station_id":"ce4bhs92rcd13ifvqi0g","pricing_plan_id":"free"},{"bike_id":"5b2c8a65-cae3-4c90-bc08-3827bc3d8dfd","system_id":"levelo_inurba_marseille","lat":43.311722,"lon":5.387247,"is_reserved":false,"is_disabled":false,"rental_uris":{"android":"levelo://app?vid=5b2c8a65-cae3-4c90-bc08-3827bc3d8dfd","ios":"levelo://app?vid=5b2c8a65-cae3-4c90-bc08-3827bc3d8dfd"},"vehicle_type_id":"4","last_reported":1683493561,"current_range_meters":0,"station_id":"ce4bgv12rcd13ifvqcp0","pricing_plan_id":"free"},{"bike_id":"a1930e09-6239-48ca-ae6e-97d5a211469d","system_id":"levelo_inurba_marseille","lat":43.2968,"lon":5.37291,"is_reserved":false,"is_disabled":false,"rental_uris":{"android":"levelo://app?vid=a1930e09-6239-48ca-ae6e-97d5a211469d","ios":"levelo://app?vid=a1930e09-6239-48ca-ae6e-97d5a211469d"},"vehicle_type_id":"4","last_reported":1683493561,"current_range_meters":11600,"station_id":"ce4bgk12rcd13ifvqbj0","pricing_plan_id":"free"},{"bike_id":"a953bf6f-4ace-4a14-bd16-99968f988c3d","system_id":"levelo_inurba_marseille","lat":43.2962,"lon":5.37146,"is_reserved":false,"is_disabled":false,"rental_uris":{"android":"levelo://app?vid=a953bf6f-4ace-4a14-bd16-99968f988c3d","ios":"levelo://app?vid=a953bf6f-4ace-4a14-bd16-99968f988c3d"},"vehicle_type_id":"4","last_reported":1683493561,"current_range_meters":6800,"station_id":"","pricing_plan_id":"free"},{"bike_id":"5889c325-f508-424c-8ef8-97820d140c67","system_id":"levelo_inurba_marseille","lat":43.29625,"lon":5.3721,"is_reserved":false,"is_disabled":false,"rental_uris":{"android":"levelo://app?vid=5889c325-f508-424c-8ef8-97820d140c67","ios":"levelo://app?vid=5889c325-f508-424c-8ef8-97820d140c67"},"vehicle_type_id":"4","last_reported":1683493561,"current_range_meters":3600,"station_id":"ce4bhbp2rcd13ifvqesg","pricing_plan_id":"free"},{"bike_id":"80a6c0fa-06bc-4af5-b948-6a85de3f6393","system_id":"levelo_inurba_marseille","lat":43.29573,"lon":5.367355,"is_reserved":false,"is_disabled":false,"rental_uris":{"android":"levelo://app?vid=80a6c0fa-06bc-4af5-b948-6a85de3f6393","ios":"levelo://app?vid=80a6c0fa-06bc-4af5-b948-6a85de3f6393"},"vehicle_type_id":"4","last_reported":1683493561,"current_range_meters":22800,"station_id":"ce4bgph2rcd13ifvqc2g","pricing_plan_id":"free"},{"bike_id":"0f63ccf0-af00-4af3-a24c-eac5599ad901","system_id":"levelo_inurba_marseille","lat":43.29573,"lon":5.367355,"is_reserved":false,"is_disabled":false,"rental_uris":{"android":"levelo://app?vid=0f63ccf0-af00-4af3-a24c-eac5599ad901","ios":"levelo://app?vid=0f63ccf0-af00-4af3-a24c-eac5599ad901"},"vehicle_type_id":"4","last_reported":1683493561,"current_range_meters":0,"station_id":"ce4bgph2rcd13ifvqc2g","pricing_plan_id":"free"},{"bike_id":"65869f23-5272-42a4-93c7-c31b00b497a6","system_id":"levelo_inurba_marseille","lat":43.296935,"lon":5.376544,"is_reserved":false,"is_disabled":false,"rental_uris":{"android":"levelo://app?vid=65869f23-5272-42a4-93c7-c31b00b497a6","ios":"levelo://app?vid=65869f23-5272-42a4-93c7-c31b00b497a6"},"vehicle_type_id":"4","last_reported":1683493561,"current_range_meters":8000,"station_id":"ce4bgkh2rcd13ifvqbl0","pricing_plan_id":"free"},{"bike_id":"ebe38a65-0d6e-4a8c-a185-514d3b2a5b64","system_id":"levelo_inurba_marseille","lat":43.309589,"lon":5.390258,"is_reserved":false,"is_disabled":false,"rental_uris":{"android":"levelo://app?vid=ebe38a65-0d6e-4a8c-a185-514d3b2a5b64","ios":"levelo://app?vid=ebe38a65-0d6e-4a8c-a185-514d3b2a5b64"},"vehicle_type_id":"4","last_reported":1683493561,"current_range_meters":26400,"station_id":"ce4bgup2rcd13ifvqco0","pricing_plan_id":"free"},{"bike_id":"57d43c73-2caf-4672-995c-eba6309c0021","system_id":"levelo_inurba_marseille","lat":43.309589,"lon":5.390258,"is_reserved":false,"is_disabled":false,"rental_uris":{"android":"levelo://app?vid=57d43c73-2caf-4672-995c-eba6309c0021","ios":"levelo://app?vid=57d43c73-2caf-4672-995c-eba6309c0021"},"vehicle_type_id":"4","last_reported":1683493561,"current_range_meters":23600,"station_id":"ce4bgup2rcd13ifvqco0","pricing_plan_id":"free"},{"bike_id":"0f1db50d-952d-4acf-bf81-4b7a3a746be2","system_id":"levelo_inurba_marseille","lat":43.309589,"lon":5.390258,"is_reserved":false,"is_disabled":false,"rental_uris":{"android":"levelo://app?vid=0f1db50d-952d-4acf-bf81-4b7a3a746be2","ios":"levelo://app?vid=0f1db50d-952d-4acf-bf81-4b7a3a746be2"},"vehicle_type_id":"4","last_reported":1683493561,"current_range_meters":16800,"station_id":"ce4bgup2rcd13ifvqco0","pricing_plan_id":"free"},{"bike_id":"2ee15fbb-0300-4ae6-a263-ceaca8635c90","system_id":"levelo_inurba_marseille","lat":43.30087,"lon":5.38538,"is_reserved":false,"is_disabled":false,"rental_uris":{"android":"levelo://app?vid=2ee15fbb-0300-4ae6-a263-ceaca8635c90","ios":"levelo://app?vid=2ee15fbb-0300-4ae6-a263-ceaca8635c90"},"vehicle_type_id":"4","last_reported":1683493561,"current_range_meters":5600,"station_id":"","pricing_plan_id":"free"},{"bike_id":"2d3d48ea-ead2-45ef-a57c-b85160b9995b","system_id":"levelo_inurba_marseille","lat":43.29581,"lon":5.37502,"is_reserved":false,"is_disabled":false,"rental_uris":{"android":"levelo://app?vid=2d3d48ea-ead2-45ef-a57c-b85160b9995b","ios":"levelo://app?vid=2d3d48ea-ead2-45ef-a57c-b85160b9995b"},"vehicle_type_id":"4","last_reported":1683493561,"current_range_meters":17200,"station_id":"ce4bgh92rcd13ifvqb50","pricing_plan_id":"free"},{"bike_id":"3439ae33-7e0f-44bd-978f-1d7fefad6f00","system_id":"levelo_inurba_marseille","lat":43.29582,"lon":5.37509,"is_reserved":false,"is_disabled":false,"rental_uris":{"android":"levelo://app?vid=3439ae33-7e0f-44bd-978f-1d7fefad6f00","ios":"levelo://app?vid=3439ae33-7e0f-44bd-978f-1d7fefad6f00"},"vehicle_type_id":"4","last_reported":1683493561,"current_range_meters":14000,"station_id":"ce4bgh92rcd13ifvqb50","pricing_plan_id":"free"},{"bike_id":"e6b630ad-b28e-4db7-8ee7-e2a63179d68d","system_id":"levelo_inurba_marseille","lat":43.298037,"lon":5.381066,"is_reserved":false,"is_disabled":false,"rental_uris":{"android":"levelo://app?vid=e6b630ad-b28e-4db7-8ee7-e2a63179d68d","ios":"levelo://app?vid=e6b630ad-b28e-4db7-8ee7-e2a63179d68d"},"vehicle_type_id":"4","last_reported":1683493561,"current_range_meters":5600,"station_id":"ce4bgip2rcd13ifvqbb0","pricing_plan_id":"free"},{"bike_id":"78bf6636-47fb-4125-8e53-13ae2176dc9c","system_id":"levelo_inurba_marseille","lat":43.295748,"lon":5.37522,"is_reserved":false,"is_disabled":false,"rental_uris":{"android":"levelo://app?vid=78bf6636-47fb-4125-8e53-13ae2176dc9c","ios":"levelo://app?vid=78bf6636-47fb-4125-8e53-13ae2176dc9c"},"vehicle_type_id":"4","last_reported":1683493561,"current_range_meters":3200,"station_id":"ce4bgh92rcd13ifvqb50","pricing_plan_id":"free"},{"bike_id":"62958c7b-fe64-40f6-b0a4-53a9431fe594","system_id":"levelo_inurba_marseille","lat":43.304278,"lon":5.388868,"is_reserved":false,"is_disabled":false,"rental_uris":{"android":"levelo://app?vid=62958c7b-fe64-40f6-b0a4-53a9431fe594","ios":"levelo://app?vid=62958c7b-fe64-40f6-b0a4-53a9431fe594"},"vehicle_type_id":"4","last_reported":1683493561,"current_range_meters":13200,"station_id":"ce4bgk12rcd13ifvqbi0","pricing_plan_id":"free"},{"bike_id":"77c8840a-f1db-4dd8-bcc4-8b7bff6e47aa","system_id":"levelo_inurba_marseille","lat":43.295748,"lon":5.37522,"is_reserved":false,"is_disabled":false,"rental_uris":{"android":"levelo://app?vid=77c8840a-f1db-4dd8-bcc4-8b7bff6e47aa","ios":"levelo://app?vid=77c8840a-f1db-4dd8-bcc4-8b7bff6e47aa"},"vehicle_type_id":"4","last_reported":1683493561,"current_range_meters":6400,"station_id":"ce4bgh92rcd13ifvqb50","pricing_plan_id":"free"},{"bike_id":"ee1bcf6c-2f96-4a87-af6b-ce4127c815ff","system_id":"levelo_inurba_marseille","lat":43.304278,"lon":5.388868,"is_reserved":false,"is_disabled":false,"rental_uris":{"android":"levelo://app?vid=ee1bcf6c-2f96-4a87-af6b-ce4127c815ff","ios":"levelo://app?vid=ee1bcf6c-2f96-4a87-af6b-ce4127c815ff"},"vehicle_type_id":"4","last_reported":1683493561,"current_range_meters":5200,"station_id":"ce4bgk12rcd13ifvqbi0","pricing_plan_id":"free"},{"bike_id":"29578e00-27f9-4b59-a7a6-80ee24afabc2","system_id":"levelo_inurba_marseille","lat":43.304278,"lon":5.388868,"is_reserved":false,"is_disabled":false,"rental_uris":{"android":"levelo://app?vid=29578e00-27f9-4b59-a7a6-80ee24afabc2","ios":"levelo://app?vid=29578e00-27f9-4b59-a7a6-80ee24afabc2"},"vehicle_type_id":"4","last_reported":1683493561,"current_range_meters":3600,"station_id":"ce4bgk12rcd13ifvqbi0","pricing_plan_id":"free"},{"bike_id":"670dacbe-be9e-48b8-923f-8aa858910b29","system_id":"levelo_inurba_marseille","lat":43.304278,"lon":5.388868,"is_reserved":false,"is_disabled":false,"rental_uris":{"android":"levelo://app?vid=670dacbe-be9e-48b8-923f-8aa858910b29","ios":"levelo://app?vid=670dacbe-be9e-48b8-923f-8aa858910b29"},"vehicle_type_id":"4","last_reported":1683493561,"current_range_meters":17200,"station_id":"ce4bgk12rcd13ifvqbi0","pricing_plan_id":"free"},{"bike_id":"e382faad-9213-40c0-a903-b25e74e07e9c","system_id":"levelo_inurba_marseille","lat":43.29599,"lon":5.37636,"is_reserved":false,"is_disabled":false,"rental_uris":{"android":"levelo://app?vid=e382faad-9213-40c0-a903-b25e74e07e9c","ios":"levelo://app?vid=e382faad-9213-40c0-a903-b25e74e07e9c"},"vehicle_type_id":"4","last_reported":1683493561,"current_range_meters":1600,"station_id":"","pricing_plan_id":"free"},{"bike_id":"16be4e33-b738-4b77-959f-b96f4f4be931","system_id":"levelo_inurba_marseille","lat":43.304278,"lon":5.388868,"is_reserved":false,"is_disabled":false,"rental_uris":{"android":"levelo://app?vid=16be4e33-b738-4b77-959f-b96f4f4be931","ios":"levelo://app?vid=16be4e33-b738-4b77-959f-b96f4f4be931"},"vehicle_type_id":"4","last_reported":1683493561,"current_range_meters":18800,"station_id":"ce4bgk12rcd13ifvqbi0","pricing_plan_id":"free"},{"bike_id":"0f3f23b7-adac-4dda-b989-8dae0db5c0a0","system_id":"levelo_inurba_marseille","lat":43.30428,"lon":5.38893,"is_reserved":false,"is_disabled":false,"rental_uris":{"android":"levelo://app?vid=0f3f23b7-adac-4dda-b989-8dae0db5c0a0","ios":"levelo://app?vid=0f3f23b7-adac-4dda-b989-8dae0db5c0a0"},"vehicle_type_id":"4","last_reported":1683493561,"current_range_meters":15600,"station_id":"ce4bgk12rcd13ifvqbi0","pricing_plan_id":"free"},{"bike_id":"abd19a79-48e6-4840-9bf5-2130763f1946","system_id":"levelo_inurba_marseille","lat":43.298037,"lon":5.381066,"is_reserved":false,"is_disabled":false,"rental_uris":{"android":"levelo://app?vid=abd19a79-48e6-4840-9bf5-2130763f1946","ios":"levelo://app?vid=abd19a79-48e6-4840-9bf5-2130763f1946"},"vehicle_type_id":"4","last_reported":1683493561,"current_range_meters":10400,"station_id":"ce4bgip2rcd13ifvqbb0","pricing_plan_id":"free"},{"bike_id":"3e8d73da-708f-454e-a022-e6a7c65bf217","system_id":"levelo_inurba_marseille","lat":43.298037,"lon":5.381066,"is_reserved":false,"is_disabled":false,"rental_uris":{"android":"levelo://app?vid=3e8d73da-708f-454e-a022-e6a7c65bf217","ios":"levelo://app?vid=3e8d73da-708f-454e-a022-e6a7c65bf217"},"vehicle_type_id":"4","last_reported":1683493561,"current_range_meters":14400,"station_id":"ce4bgip2rcd13ifvqbb0","pricing_plan_id":"free"},{"bike_id":"b7c3546a-ffe7-40af-958c-d58cc586eff6","system_id":"levelo_inurba_marseille","lat":43.296263,"lon":5.377094,"is_reserved":false,"is_disabled":false,"rental_uris":{"android":"levelo://app?vid=b7c3546a-ffe7-40af-958c-d58cc586eff6","ios":"levelo://app?vid=b7c3546a-ffe7-40af-958c-d58cc586eff6"},"vehicle_type_id":"4","last_reported":1683493561,"current_range_meters":0,"station_id":"ce4bgi92rcd13ifvqb90","pricing_plan_id":"free"},{"bike_id":"b358b022-46fe-4d8f-b594-418b07536d32","system_id":"levelo_inurba_marseille","lat":43.299707,"lon":5.384859,"is_reserved":false,"is_disabled":false,"rental_uris":{"android":"levelo://app?vid=b358b022-46fe-4d8f-b594-418b07536d32","ios":"levelo://app?vid=b358b022-46fe-4d8f-b594-418b07536d32"},"vehicle_type_id":"4","last_reported":1683493561,"current_range_meters":28400,"station_id":"ce4bgj92rcd13ifvqbd0","pricing_plan_id":"free"},{"bike_id":"8990df88-8624-4d2a-89e7-661bbf999bea","system_id":"levelo_inurba_marseille","lat":43.299707,"lon":5.384859,"is_reserved":false,"is_disabled":false,"rental_uris":{"android":"levelo://app?vid=8990df88-8624-4d2a-89e7-661bbf999bea","ios":"levelo://app?vid=8990df88-8624-4d2a-89e7-661bbf999bea"},"vehicle_type_id":"4","last_reported":1683493561,"current_range_meters":31200,"station_id":"ce4bgj92rcd13ifvqbd0","pricing_plan_id":"free"},{"bike_id":"12704096-c3ca-4684-b45b-4ee51e5de61a","system_id":"levelo_inurba_marseille","lat":43.295279,"lon":5.375048,"is_reserved":false,"is_disabled":false,"rental_uris":{"android":"levelo://app?vid=12704096-c3ca-4684-b45b-4ee51e5de61a","ios":"levelo://app?vid=12704096-c3ca-4684-b45b-4ee51e5de61a"},"vehicle_type_id":"4","last_reported":1683493561,"current_range_meters":9200,"station_id":"ce4bgkp2rcd13ifvqbmg","pricing_plan_id":"free"},{"bike_id":"31163c2f-891a-4058-b53c-cfc4d8ea929b","system_id":"levelo_inurba_marseille","lat":43.299707,"lon":5.384859,"is_reserved":false,"is_disabled":false,"rental_uris":{"android":"levelo://app?vid=31163c2f-891a-4058-b53c-cfc4d8ea929b","ios":"levelo://app?vid=31163c2f-891a-4058-b53c-cfc4d8ea929b"},"vehicle_type_id":"4","last_reported":1683493561,"current_range_meters":31200,"station_id":"ce4bgj92rcd13ifvqbd0","pricing_plan_id":"free"},{"bike_id":"7c7c58e9-f6cb-48c4-864c-ead714cae5d8","system_id":"levelo_inurba_marseille","lat":43.295279,"lon":5.375048,"is_reserved":false,"is_disabled":false,"rental_uris":{"android":"levelo://app?vid=7c7c58e9-f6cb-48c4-864c-ead714cae5d8","ios":"levelo://app?vid=7c7c58e9-f6cb-48c4-864c-ead714cae5d8"},"vehicle_type_id":"4","last_reported":1683493561,"current_range_meters":11600,"station_id":"ce4bgkp2rcd13ifvqbmg","pricing_plan_id":"free"},{"bike_id":"7283f5a0-e968-4f50-a0de-7c719f45d444","system_id":"levelo_inurba_marseille","lat":43.299707,"lon":5.384859,"is_reserved":false,"is_disabled":false,"rental_uris":{"android":"levelo://app?vid=7283f5a0-e968-4f50-a0de-7c719f45d444","ios":"levelo://app?vid=7283f5a0-e968-4f50-a0de-7c719f45d444"},"vehicle_type_id":"4","last_reported":1683493561,"current_range_meters":30800,"station_id":"ce4bgj92rcd13ifvqbd0","pricing_plan_id":"free"},{"bike_id":"8cb35e39-5968-414e-baf7-621e9818e214","system_id":"levelo_inurba_marseille","lat":43.299695,"lon":5.384893,"is_reserved":false,"is_disabled":false,"rental_uris":{"android":"levelo://app?vid=8cb35e39-5968-414e-baf7-621e9818e214","ios":"levelo://app?vid=8cb35e39-5968-414e-baf7-621e9818e214"},"vehicle_type_id":"4","last_reported":1683493561,"current_range_meters":0,"station_id":"","pricing_plan_id":"free"},{"bike_id":"830fe2c3-d549-4026-b7eb-5050f8080789","system_id":"levelo_inurba_marseille","lat":43.299707,"lon":5.384859,"is_reserved":false,"is_disabled":false,"rental_uris":{"android":"levelo://app?vid=830fe2c3-d549-4026-b7eb-5050f8080789","ios":"levelo://app?vid=830fe2c3-d549-4026-b7eb-5050f8080789"},"vehicle_type_id":"4","last_reported":1683493561,"current_range_meters":31200,"station_id":"ce4bgj92rcd13ifvqbd0","pricing_plan_id":"free"},{"bike_id":"9bcac684-3525-45e0-965a-37b32677f5e1","system_id":"levelo_inurba_marseille","lat":43.299707,"lon":5.384859,"is_reserved":false,"is_disabled":false,"rental_uris":{"android":"levelo://app?vid=9bcac684-3525-45e0-965a-37b32677f5e1","ios":"levelo://app?vid=9bcac684-3525-45e0-965a-37b32677f5e1"},"vehicle_type_id":"4","last_reported":1683493561,"current_range_meters":31200,"station_id":"ce4bgj92rcd13ifvqbd0","pricing_plan_id":"free"},{"bike_id":"550790f6-b497-4232-8d54-10f1c8136b4f","system_id":"levelo_inurba_marseille","lat":43.299652,"lon":5.384902,"is_reserved":false,"is_disabled":false,"rental_uris":{"android":"levelo://app?vid=550790f6-b497-4232-8d54-10f1c8136b4f","ios":"levelo://app?vid=550790f6-b497-4232-8d54-10f1c8136b4f"},"vehicle_type_id":"4","last_reported":1683493561,"current_range_meters":24000,"station_id":"","pricing_plan_id":"free"},{"bike_id":"6f5472b7-5b03-4ac8-bdcc-8b1b8ca0af74","system_id":"levelo_inurba_marseille","lat":43.29861,"lon":5.38364,"is_reserved":false,"is_disabled":false,"rental_uris":{"android":"levelo://app?vid=6f5472b7-5b03-4ac8-bdcc-8b1b8ca0af74","ios":"levelo://app?vid=6f5472b7-5b03-4ac8-bdcc-8b1b8ca0af74"},"vehicle_type_id":"4","last_reported":1683493561,"current_range_meters":3200,"station_id":"","pricing_plan_id":"free"},{"bike_id":"f0dcfd84-4222-444a-b26d-9f99a892695b","system_id":"levelo_inurba_marseille","lat":43.31451,"lon":5.39266,"is_reserved":false,"is_disabled":false,"rental_uris":{"android":"levelo://app?vid=f0dcfd84-4222-444a-b26d-9f99a892695b","ios":"levelo://app?vid=f0dcfd84-4222-444a-b26d-9f99a892695b"},"vehicle_type_id":"4","last_reported":1683493561,"current_range_meters":800,"station_id":"","pricing_plan_id":"free"},{"bike_id":"300d3cd8-7edf-44a4-93c6-13cb2cf6e3aa","system_id":"levelo_inurba_marseille","lat":43.29602,"lon":5.381084,"is_reserved":false,"is_disabled":false,"rental_uris":{"android":"levelo://app?vid=300d3cd8-7edf-44a4-93c6-13cb2cf6e3aa","ios":"levelo://app?vid=300d3cd8-7edf-44a4-93c6-13cb2cf6e3aa"},"vehicle_type_id":"4","last_reported":1683493561,"current_range_meters":1200,"station_id":"ce4bgl12rcd13ifvqbo0","pricing_plan_id":"free"},{"bike_id":"b049d4b2-6621-4bca-8adf-00896f3a1f72","system_id":"levelo_inurba_marseille","lat":43.29601,"lon":5.381084,"is_reserved":false,"is_disabled":false,"rental_uris":{"android":"levelo://app?vid=b049d4b2-6621-4bca-8adf-00896f3a1f72","ios":"levelo://app?vid=b049d4b2-6621-4bca-8adf-00896f3a1f72"},"vehicle_type_id":"4","last_reported":1683493561,"current_range_meters":14000,"station_id":"ce4bgl12rcd13ifvqbo0","pricing_plan_id":"free"},{"bike_id":"55eb6b74-1612-414c-8c4d-c9e61e6da8d4","system_id":"levelo_inurba_marseille","lat":43.29602,"lon":5.381084,"is_reserved":false,"is_disabled":false,"rental_uris":{"android":"levelo://app?vid=55eb6b74-1612-414c-8c4d-c9e61e6da8d4","ios":"levelo://app?vid=55eb6b74-1612-414c-8c4d-c9e61e6da8d4"},"vehicle_type_id":"4","last_reported":1683493561,"current_range_meters":18400,"station_id":"ce4bgl12rcd13ifvqbo0","pricing_plan_id":"free"},{"bike_id":"eea4bfc2-e332-4753-8558-a0135d12b14d","system_id":"levelo_inurba_marseille","lat":43.29602,"lon":5.381084,"is_reserved":false,"is_disabled":false,"rental_uris":{"android":"levelo://app?vid=eea4bfc2-e332-4753-8558-a0135d12b14d","ios":"levelo://app?vid=eea4bfc2-e332-4753-8558-a0135d12b14d"},"vehicle_type_id":"4","last_reported":1683493561,"current_range_meters":10400,"station_id":"ce4bgl12rcd13ifvqbo0","pricing_plan_id":"free"},{"bike_id":"d75e6ec8-452e-4cf9-831f-42b6b1de7805","system_id":"levelo_inurba_marseille","lat":43.302992,"lon":5.392136,"is_reserved":false,"is_disabled":false,"rental_uris":{"android":"levelo://app?vid=d75e6ec8-452e-4cf9-831f-42b6b1de7805","ios":"levelo://app?vid=d75e6ec8-452e-4cf9-831f-42b6b1de7805"},"vehicle_type_id":"4","last_reported":1683493561,"current_range_meters":2000,"station_id":"ce4bgkh2rcd13ifvqbk0","pricing_plan_id":"free"},{"bike_id":"17a9ceab-0c1d-42fd-9519-29356e430341","system_id":"levelo_inurba_marseille","lat":43.302992,"lon":5.392136,"is_reserved":false,"is_disabled":false,"rental_uris":{"android":"levelo://app?vid=17a9ceab-0c1d-42fd-9519-29356e430341","ios":"levelo://app?vid=17a9ceab-0c1d-42fd-9519-29356e430341"},"vehicle_type_id":"4","last_reported":1683493561,"current_range_meters":2800,"station_id":"ce4bgkh2rcd13ifvqbk0","pricing_plan_id":"free"},{"bike_id":"8deafd03-ae78-4188-8c38-2b867af82ae6","system_id":"levelo_inurba_marseille","lat":43.303002,"lon":5.392142,"is_reserved":false,"is_disabled":false,"rental_uris":{"android":"levelo://app?vid=8deafd03-ae78-4188-8c38-2b867af82ae6","ios":"levelo://app?vid=8deafd03-ae78-4188-8c38-2b867af82ae6"},"vehicle_type_id":"4","last_reported":1683493561,"current_range_meters":1600,"station_id":"ce4bgkh2rcd13ifvqbk0","pricing_plan_id":"free"},{"bike_id":"d539ea16-4189-4d60-8665-37b74bbf8d95","system_id":"levelo_inurba_marseille","lat":43.302992,"lon":5.392136,"is_reserved":false,"is_disabled":false,"rental_uris":{"android":"levelo://app?vid=d539ea16-4189-4d60-8665-37b74bbf8d95","ios":"levelo://app?vid=d539ea16-4189-4d60-8665-37b74bbf8d95"},"vehicle_type_id":"4","last_reported":1683493561,"current_range_meters":10400,"station_id":"ce4bgkh2rcd13ifvqbk0","pricing_plan_id":"free"},{"bike_id":"2ddcfd7e-328c-4f4d-81cd-80c5115812a1","system_id":"levelo_inurba_marseille","lat":43.302992,"lon":5.392136,"is_reserved":false,"is_disabled":false,"rental_uris":{"android":"levelo://app?vid=2ddcfd7e-328c-4f4d-81cd-80c5115812a1","ios":"levelo://app?vid=2ddcfd7e-328c-4f4d-81cd-80c5115812a1"},"vehicle_type_id":"4","last_reported":1683493561,"current_range_meters":4800,"station_id":"ce4bgkh2rcd13ifvqbk0","pricing_plan_id":"free"},{"bike_id":"5b3538c1-bd60-4826-8e4a-c51b07aacd02","system_id":"levelo_inurba_marseille","lat":43.302992,"lon":5.392136,"is_reserved":false,"is_disabled":false,"rental_uris":{"android":"levelo://app?vid=5b3538c1-bd60-4826-8e4a-c51b07aacd02","ios":"levelo://app?vid=5b3538c1-bd60-4826-8e4a-c51b07aacd02"},"vehicle_type_id":"4","last_reported":1683493561,"current_range_meters":21200,"station_id":"ce4bgkh2rcd13ifvqbk0","pricing_plan_id":"free"},{"bike_id":"9bdcfe47-2ebe-4232-b3c5-9a9d04b0dbfa","system_id":"levelo_inurba_marseille","lat":43.2936,"lon":5.37835,"is_reserved":false,"is_disabled":false,"rental_uris":{"android":"levelo://app?vid=9bdcfe47-2ebe-4232-b3c5-9a9d04b0dbfa","ios":"levelo://app?vid=9bdcfe47-2ebe-4232-b3c5-9a9d04b0dbfa"},"vehicle_type_id":"4","last_reported":1683493561,"current_range_meters":400,"station_id":"ce4bgjh2rcd13ifvqbf0","pricing_plan_id":"free"},{"bike_id":"428a9507-0c56-447f-bad6-c7385522fede","system_id":"levelo_inurba_marseille","lat":43.2936,"lon":5.37835,"is_reserved":false,"is_disabled":false,"rental_uris":{"android":"levelo://app?vid=428a9507-0c56-447f-bad6-c7385522fede","ios":"levelo://app?vid=428a9507-0c56-447f-bad6-c7385522fede"},"vehicle_type_id":"4","last_reported":1683493561,"current_range_meters":0,"station_id":"ce4bgjh2rcd13ifvqbf0","pricing_plan_id":"free"},{"bike_id":"b029adf4-5274-4378-b8e1-8e12e126153a","system_id":"levelo_inurba_marseille","lat":43.29884,"lon":5.38895,"is_reserved":false,"is_disabled":false,"rental_uris":{"android":"levelo://app?vid=b029adf4-5274-4378-b8e1-8e12e126153a","ios":"levelo://app?vid=b029adf4-5274-4378-b8e1-8e12e126153a"},"vehicle_type_id":"4","last_reported":1683493561,"current_range_meters":0,"station_id":"ce4bh392rcd13ifvqdl0","pricing_plan_id":"free"},{"bike_id":"abf39a82-2e56-47f0-9eb7-8354d2eda03c","system_id":"levelo_inurba_marseille","lat":43.298764,"lon":5.388973,"is_reserved":false,"is_disabled":false,"rental_uris":{"android":"levelo://app?vid=abf39a82-2e56-47f0-9eb7-8354d2eda03c","ios":"levelo://app?vid=abf39a82-2e56-47f0-9eb7-8354d2eda03c"},"vehicle_type_id":"4","last_reported":1683493561,"current_range_meters":20400,"station_id":"ce4bh392rcd13ifvqdl0","pricing_plan_id":"free"},{"bike_id":"3526163a-f344-42a1-9867-702fe2a00d6d","system_id":"levelo_inurba_marseille","lat":43.298764,"lon":5.388973,"is_reserved":false,"is_disabled":false,"rental_uris":{"android":"levelo://app?vid=3526163a-f344-42a1-9867-702fe2a00d6d","ios":"levelo://app?vid=3526163a-f344-42a1-9867-702fe2a00d6d"},"vehicle_type_id":"4","last_reported":1683493561,"current_range_meters":12400,"station_id":"ce4bh392rcd13ifvqdl0","pricing_plan_id":"free"},{"bike_id":"95c82a43-95da-4827-8fc8-aca9bbc23885","system_id":"levelo_inurba_marseille","lat":43.298764,"lon":5.388973,"is_reserved":false,"is_disabled":false,"rental_uris":{"android":"levelo://app?vid=95c82a43-95da-4827-8fc8-aca9bbc23885","ios":"levelo://app?vid=95c82a43-95da-4827-8fc8-aca9bbc23885"},"vehicle_type_id":"4","last_reported":1683493561,"current_range_meters":28800,"station_id":"ce4bh392rcd13ifvqdl0","pricing_plan_id":"free"},{"bike_id":"f86cf75e-45b5-4890-932c-5a4db4fedcbc","system_id":"levelo_inurba_marseille","lat":43.291675,"lon":5.371583,"is_reserved":false,"is_disabled":false,"rental_uris":{"android":"levelo://app?vid=f86cf75e-45b5-4890-932c-5a4db4fedcbc","ios":"levelo://app?vid=f86cf75e-45b5-4890-932c-5a4db4fedcbc"},"vehicle_type_id":"4","last_reported":1683493561,"current_range_meters":4800,"station_id":"ce4bha92rcd13ifvqeh0","pricing_plan_id":"free"},{"bike_id":"004f23a6-58f5-4938-a69f-13c338770c6d","system_id":"levelo_inurba_marseille","lat":43.298764,"lon":5.388973,"is_reserved":false,"is_disabled":false,"rental_uris":{"android":"levelo://app?vid=004f23a6-58f5-4938-a69f-13c338770c6d","ios":"levelo://app?vid=004f23a6-58f5-4938-a69f-13c338770c6d"},"vehicle_type_id":"4","last_reported":1683493561,"current_range_meters":11600,"station_id":"ce4bh392rcd13ifvqdl0","pricing_plan_id":"free"},{"bike_id":"4b2945b7-1ed7-4d90-8347-72dad0bb762f","system_id":"levelo_inurba_marseille","lat":43.298764,"lon":5.388973,"is_reserved":false,"is_disabled":false,"rental_uris":{"android":"levelo://app?vid=4b2945b7-1ed7-4d90-8347-72dad0bb762f","ios":"levelo://app?vid=4b2945b7-1ed7-4d90-8347-72dad0bb762f"},"vehicle_type_id":"4","last_reported":1683493561,"current_range_meters":11600,"station_id":"ce4bh392rcd13ifvqdl0","pricing_plan_id":"free"},{"bike_id":"4437aa2f-a91e-40ce-a692-898d1b134aa2","system_id":"levelo_inurba_marseille","lat":43.29504,"lon":5.38401,"is_reserved":false,"is_disabled":false,"rental_uris":{"android":"levelo://app?vid=4437aa2f-a91e-40ce-a692-898d1b134aa2","ios":"levelo://app?vid=4437aa2f-a91e-40ce-a692-898d1b134aa2"},"vehicle_type_id":"4","last_reported":1683493561,"current_range_meters":16000,"station_id":"","pricing_plan_id":"free"},{"bike_id":"6f44ac3b-58fb-4883-9246-f5b172b699d1","system_id":"levelo_inurba_marseille","lat":43.313291,"lon":5.396838,"is_reserved":false,"is_disabled":false,"rental_uris":{"android":"levelo://app?vid=6f44ac3b-58fb-4883-9246-f5b172b699d1","ios":"levelo://app?vid=6f44ac3b-58fb-4883-9246-f5b172b699d1"},"vehicle_type_id":"4","last_reported":1683493561,"current_range_meters":16000,"station_id":"ce4bgvp2rcd13ifvqcu0","pricing_plan_id":"free"},{"bike_id":"7dc23458-8bed-4dc1-a92c-02f0e66e7ef0","system_id":"levelo_inurba_marseille","lat":43.309038,"lon":5.396546,"is_reserved":false,"is_disabled":false,"rental_uris":{"android":"levelo://app?vid=7dc23458-8bed-4dc1-a92c-02f0e66e7ef0","ios":"levelo://app?vid=7dc23458-8bed-4dc1-a92c-02f0e66e7ef0"},"vehicle_type_id":"4","last_reported":1683493561,"current_range_meters":2400,"station_id":"ce4bh012rcd13ifvqcv0","pricing_plan_id":"free"},{"bike_id":"650680f7-43b1-421f-ade9-42f1e5d8a09a","system_id":"levelo_inurba_marseille","lat":43.309038,"lon":5.396546,"is_reserved":false,"is_disabled":false,"rental_uris":{"android":"levelo://app?vid=650680f7-43b1-421f-ade9-42f1e5d8a09a","ios":"levelo://app?vid=650680f7-43b1-421f-ade9-42f1e5d8a09a"},"vehicle_type_id":"4","last_reported":1683493561,"current_range_meters":10000,"station_id":"ce4bh012rcd13ifvqcv0","pricing_plan_id":"free"},{"bike_id":"edec821f-e5fc-4601-95a2-5dfef862c30a","system_id":"levelo_inurba_marseille","lat":43.295326,"lon":5.385375,"is_reserved":false,"is_disabled":false,"rental_uris":{"android":"levelo://app?vid=edec821f-e5fc-4601-95a2-5dfef862c30a","ios":"levelo://app?vid=edec821f-e5fc-4601-95a2-5dfef862c30a"},"vehicle_type_id":"4","last_reported":1683493561,"current_range_meters":16000,"station_id":"ce4bgih2rcd13ifvqba0","pricing_plan_id":"free"},{"bike_id":"4233cb58-dfbe-4b82-90b5-951aa8b725d0","system_id":"levelo_inurba_marseille","lat":43.295303,"lon":5.385371,"is_reserved":false,"is_disabled":false,"rental_uris":{"android":"levelo://app?vid=4233cb58-dfbe-4b82-90b5-951aa8b725d0","ios":"levelo://app?vid=4233cb58-dfbe-4b82-90b5-951aa8b725d0"},"vehicle_type_id":"4","last_reported":1683493561,"current_range_meters":12800,"station_id":"ce4bgih2rcd13ifvqba0","pricing_plan_id":"free"},{"bike_id":"98d5c704-6635-4e44-b41c-15e50d16fca6","system_id":"levelo_inurba_marseille","lat":43.295324,"lon":5.385441,"is_reserved":false,"is_disabled":false,"rental_uris":{"android":"levelo://app?vid=98d5c704-6635-4e44-b41c-15e50d16fca6","ios":"levelo://app?vid=98d5c704-6635-4e44-b41c-15e50d16fca6"},"vehicle_type_id":"4","last_reported":1683493561,"current_range_meters":0,"station_id":"ce4bgih2rcd13ifvqba0","pricing_plan_id":"free"},{"bike_id":"e895bab5-8b01-4f66-a78f-e1fe3daa04c0","system_id":"levelo_inurba_marseille","lat":43.29531,"lon":5.385417,"is_reserved":false,"is_disabled":false,"rental_uris":{"android":"levelo://app?vid=e895bab5-8b01-4f66-a78f-e1fe3daa04c0","ios":"levelo://app?vid=e895bab5-8b01-4f66-a78f-e1fe3daa04c0"},"vehicle_type_id":"4","last_reported":1683493561,"current_range_meters":4800,"station_id":"ce4bgih2rcd13ifvqba0","pricing_plan_id":"free"},{"bike_id":"1c008006-089f-4afd-8122-aad5242761f4","system_id":"levelo_inurba_marseille","lat":43.295299,"lon":5.38542,"is_reserved":false,"is_disabled":false,"rental_uris":{"android":"levelo://app?vid=1c008006-089f-4afd-8122-aad5242761f4","ios":"levelo://app?vid=1c008006-089f-4afd-8122-aad5242761f4"},"vehicle_type_id":"4","last_reported":1683493561,"current_range_meters":0,"station_id":"ce4bgih2rcd13ifvqba0","pricing_plan_id":"free"},{"bike_id":"cb1588eb-8b20-4581-bd88-35ebcbb0c8de","system_id":"levelo_inurba_marseille","lat":43.29529,"lon":5.385581,"is_reserved":false,"is_disabled":false,"rental_uris":{"android":"levelo://app?vid=cb1588eb-8b20-4581-bd88-35ebcbb0c8de","ios":"levelo://app?vid=cb1588eb-8b20-4581-bd88-35ebcbb0c8de"},"vehicle_type_id":"4","last_reported":1683493561,"current_range_meters":14800,"station_id":"ce4bgih2rcd13ifvqba0","pricing_plan_id":"free"},{"bike_id":"a56e8fd1-97b6-4978-a7a6-4dd9990a059d","system_id":"levelo_inurba_marseille","lat":43.29529,"lon":5.385581,"is_reserved":false,"is_disabled":false,"rental_uris":{"android":"levelo://app?vid=a56e8fd1-97b6-4978-a7a6-4dd9990a059d","ios":"levelo://app?vid=a56e8fd1-97b6-4978-a7a6-4dd9990a059d"},"vehicle_type_id":"4","last_reported":1683493561,"current_range_meters":5200,"station_id":"ce4bgih2rcd13ifvqba0","pricing_plan_id":"free"},{"bike_id":"3c6af48a-cdf3-4740-9584-9b42c9bb17d9","system_id":"levelo_inurba_marseille","lat":43.29525,"lon":5.3855,"is_reserved":false,"is_disabled":false,"rental_uris":{"android":"levelo://app?vid=3c6af48a-cdf3-4740-9584-9b42c9bb17d9","ios":"levelo://app?vid=3c6af48a-cdf3-4740-9584-9b42c9bb17d9"},"vehicle_type_id":"4","last_reported":1683493561,"current_range_meters":0,"station_id":"ce4bgih2rcd13ifvqba0","pricing_plan_id":"free"},{"bike_id":"0f0ad4c7-1205-4c12-822a-2959fb3db265","system_id":"levelo_inurba_marseille","lat":43.290779,"lon":5.371482,"is_reserved":false,"is_disabled":false,"rental_uris":{"android":"levelo://app?vid=0f0ad4c7-1205-4c12-822a-2959fb3db265","ios":"levelo://app?vid=0f0ad4c7-1205-4c12-822a-2959fb3db265"},"vehicle_type_id":"4","last_reported":1683493561,"current_range_meters":0,"station_id":"ce4bh5p2rcd13ifvqe4g","pricing_plan_id":"free"},{"bike_id":"7bfcf801-97d3-4f64-ac45-7259199483fc","system_id":"levelo_inurba_marseille","lat":43.302008,"lon":5.394694,"is_reserved":false,"is_disabled":false,"rental_uris":{"android":"levelo://app?vid=7bfcf801-97d3-4f64-ac45-7259199483fc","ios":"levelo://app?vid=7bfcf801-97d3-4f64-ac45-7259199483fc"},"vehicle_type_id":"4","last_reported":1683493561,"current_range_meters":6800,"station_id":"ce4bh0p2rcd13ifvqd70","pricing_plan_id":"free"},{"bike_id":"9ac277ba-9b64-4ef5-86f0-c4db641b91ee","system_id":"levelo_inurba_marseille","lat":43.302008,"lon":5.394694,"is_reserved":false,"is_disabled":false,"rental_uris":{"android":"levelo://app?vid=9ac277ba-9b64-4ef5-86f0-c4db641b91ee","ios":"levelo://app?vid=9ac277ba-9b64-4ef5-86f0-c4db641b91ee"},"vehicle_type_id":"4","last_reported":1683493561,"current_range_meters":11200,"station_id":"ce4bh0p2rcd13ifvqd70","pricing_plan_id":"free"},{"bike_id":"554039bd-99fa-487c-bf9c-152adfcfb2d8","system_id":"levelo_inurba_marseille","lat":43.29418,"lon":5.38617,"is_reserved":false,"is_disabled":false,"rental_uris":{"android":"levelo://app?vid=554039bd-99fa-487c-bf9c-152adfcfb2d8","ios":"levelo://app?vid=554039bd-99fa-487c-bf9c-152adfcfb2d8"},"vehicle_type_id":"4","last_reported":1683493561,"current_range_meters":19200,"station_id":"ce4bh2h2rcd13ifvqdh0","pricing_plan_id":"free"},{"bike_id":"a017eaa5-b552-4020-b04d-007abbe653ac","system_id":"levelo_inurba_marseille","lat":43.294153,"lon":5.386305,"is_reserved":false,"is_disabled":false,"rental_uris":{"android":"levelo://app?vid=a017eaa5-b552-4020-b04d-007abbe653ac","ios":"levelo://app?vid=a017eaa5-b552-4020-b04d-007abbe653ac"},"vehicle_type_id":"4","last_reported":1683493561,"current_range_meters":7600,"station_id":"ce4bh2h2rcd13ifvqdh0","pricing_plan_id":"free"},{"bike_id":"4ab6d067-1f11-41ab-8920-6476783f034a","system_id":"levelo_inurba_marseille","lat":43.294162,"lon":5.386292,"is_reserved":false,"is_disabled":false,"rental_uris":{"android":"levelo://app?vid=4ab6d067-1f11-41ab-8920-6476783f034a","ios":"levelo://app?vid=4ab6d067-1f11-41ab-8920-6476783f034a"},"vehicle_type_id":"4","last_reported":1683493561,"current_range_meters":3200,"station_id":"ce4bh2h2rcd13ifvqdh0","pricing_plan_id":"free"},{"bike_id":"f89736b2-761d-4371-854a-3ae3ce1d3918","system_id":"levelo_inurba_marseille","lat":43.294153,"lon":5.386305,"is_reserved":false,"is_disabled":false,"rental_uris":{"android":"levelo://app?vid=f89736b2-761d-4371-854a-3ae3ce1d3918","ios":"levelo://app?vid=f89736b2-761d-4371-854a-3ae3ce1d3918"},"vehicle_type_id":"4","last_reported":1683493561,"current_range_meters":400,"station_id":"ce4bh2h2rcd13ifvqdh0","pricing_plan_id":"free"},{"bike_id":"c816cc45-95a2-4477-a651-a9cd4ea047f8","system_id":"levelo_inurba_marseille","lat":43.294153,"lon":5.386305,"is_reserved":false,"is_disabled":false,"rental_uris":{"android":"levelo://app?vid=c816cc45-95a2-4477-a651-a9cd4ea047f8","ios":"levelo://app?vid=c816cc45-95a2-4477-a651-a9cd4ea047f8"},"vehicle_type_id":"4","last_reported":1683493561,"current_range_meters":13600,"station_id":"ce4bh2h2rcd13ifvqdh0","pricing_plan_id":"free"},{"bike_id":"aedf17c0-3be0-4c27-b126-2aeb9a145fbc","system_id":"levelo_inurba_marseille","lat":43.294153,"lon":5.386305,"is_reserved":false,"is_disabled":false,"rental_uris":{"android":"levelo://app?vid=aedf17c0-3be0-4c27-b126-2aeb9a145fbc","ios":"levelo://app?vid=aedf17c0-3be0-4c27-b126-2aeb9a145fbc"},"vehicle_type_id":"4","last_reported":1683493561,"current_range_meters":10400,"station_id":"ce4bh2h2rcd13ifvqdh0","pricing_plan_id":"free"},{"bike_id":"d669d5de-0e7d-4503-88a8-650d583e10dd","system_id":"levelo_inurba_marseille","lat":43.294162,"lon":5.386292,"is_reserved":false,"is_disabled":false,"rental_uris":{"android":"levelo://app?vid=d669d5de-0e7d-4503-88a8-650d583e10dd","ios":"levelo://app?vid=d669d5de-0e7d-4503-88a8-650d583e10dd"},"vehicle_type_id":"4","last_reported":1683493561,"current_range_meters":10000,"station_id":"ce4bh2h2rcd13ifvqdh0","pricing_plan_id":"free"},{"bike_id":"7bf5af76-2492-4451-8a0a-043607ebee07","system_id":"levelo_inurba_marseille","lat":43.294162,"lon":5.386292,"is_reserved":false,"is_disabled":false,"rental_uris":{"android":"levelo://app?vid=7bf5af76-2492-4451-8a0a-043607ebee07","ios":"levelo://app?vid=7bf5af76-2492-4451-8a0a-043607ebee07"},"vehicle_type_id":"4","last_reported":1683493561,"current_range_meters":8800,"station_id":"ce4bh2h2rcd13ifvqdh0","pricing_plan_id":"free"},{"bike_id":"f144ed15-507a-4ffe-924d-07b4f929f748","system_id":"levelo_inurba_marseille","lat":43.294153,"lon":5.386305,"is_reserved":false,"is_disabled":false,"rental_uris":{"android":"levelo://app?vid=f144ed15-507a-4ffe-924d-07b4f929f748","ios":"levelo://app?vid=f144ed15-507a-4ffe-924d-07b4f929f748"},"vehicle_type_id":"4","last_reported":1683493561,"current_range_meters":5200,"station_id":"ce4bh2h2rcd13ifvqdh0","pricing_plan_id":"free"},{"bike_id":"4b58572d-f561-469b-a68b-b4b77988085e","system_id":"levelo_inurba_marseille","lat":43.290319,"lon":5.375732,"is_reserved":false,"is_disabled":false,"rental_uris":{"android":"levelo://app?vid=4b58572d-f561-469b-a68b-b4b77988085e","ios":"levelo://app?vid=4b58572d-f561-469b-a68b-b4b77988085e"},"vehicle_type_id":"4","last_reported":1683493561,"current_range_meters":5200,"station_id":"ce4bh692rcd13ifvqe90","pricing_plan_id":"free"},{"bike_id":"d280045e-7854-4d80-9e17-5804646ecde0","system_id":"levelo_inurba_marseille","lat":43.294162,"lon":5.386292,"is_reserved":false,"is_disabled":false,"rental_uris":{"android":"levelo://app?vid=d280045e-7854-4d80-9e17-5804646ecde0","ios":"levelo://app?vid=d280045e-7854-4d80-9e17-5804646ecde0"},"vehicle_type_id":"4","last_reported":1683493561,"current_range_meters":8000,"station_id":"ce4bh2h2rcd13ifvqdh0","pricing_plan_id":"free"},{"bike_id":"2b2cb47a-b8f4-406b-856e-117a0aead252","system_id":"levelo_inurba_marseille","lat":43.294162,"lon":5.386292,"is_reserved":false,"is_disabled":false,"rental_uris":{"android":"levelo://app?vid=2b2cb47a-b8f4-406b-856e-117a0aead252","ios":"levelo://app?vid=2b2cb47a-b8f4-406b-856e-117a0aead252"},"vehicle_type_id":"4","last_reported":1683493561,"current_range_meters":13600,"station_id":"ce4bh2h2rcd13ifvqdh0","pricing_plan_id":"free"},{"bike_id":"ed60c2fe-c315-4dcc-b8e2-4201b2874258","system_id":"levelo_inurba_marseille","lat":43.294153,"lon":5.386305,"is_reserved":false,"is_disabled":false,"rental_uris":{"android":"levelo://app?vid=ed60c2fe-c315-4dcc-b8e2-4201b2874258","ios":"levelo://app?vid=ed60c2fe-c315-4dcc-b8e2-4201b2874258"},"vehicle_type_id":"4","last_reported":1683493561,"current_range_meters":0,"station_id":"ce4bh2h2rcd13ifvqdh0","pricing_plan_id":"free"},{"bike_id":"b4f09dbf-a66b-4787-b570-e60b2b7e91d9","system_id":"levelo_inurba_marseille","lat":43.289468,"lon":5.363719,"is_reserved":false,"is_disabled":false,"rental_uris":{"android":"levelo://app?vid=b4f09dbf-a66b-4787-b570-e60b2b7e91d9","ios":"levelo://app?vid=b4f09dbf-a66b-4787-b570-e60b2b7e91d9"},"vehicle_type_id":"4","last_reported":1683493561,"current_range_meters":400,"station_id":"ce4bhc92rcd13ifvqetg","pricing_plan_id":"free"},{"bike_id":"e22951cb-e237-49f4-b58a-2f19176284b4","system_id":"levelo_inurba_marseille","lat":43.289468,"lon":5.363719,"is_reserved":false,"is_disabled":false,"rental_uris":{"android":"levelo://app?vid=e22951cb-e237-49f4-b58a-2f19176284b4","ios":"levelo://app?vid=e22951cb-e237-49f4-b58a-2f19176284b4"},"vehicle_type_id":"4","last_reported":1683493561,"current_range_meters":13200,"station_id":"ce4bhc92rcd13ifvqetg","pricing_plan_id":"free"},{"bike_id":"734e0f84-b46a-409c-9ec5-f629be2994b4","system_id":"levelo_inurba_marseille","lat":43.292642,"lon":5.384254,"is_reserved":false,"is_disabled":false,"rental_uris":{"android":"levelo://app?vid=734e0f84-b46a-409c-9ec5-f629be2994b4","ios":"levelo://app?vid=734e0f84-b46a-409c-9ec5-f629be2994b4"},"vehicle_type_id":"4","last_reported":1683493561,"current_range_meters":17600,"station_id":"ce4bh692rcd13ifvqea0","pricing_plan_id":"free"},{"bike_id":"d143b776-f721-48f1-9136-33bb1a02ef46","system_id":"levelo_inurba_marseille","lat":43.2927,"lon":5.38435,"is_reserved":false,"is_disabled":false,"rental_uris":{"android":"levelo://app?vid=d143b776-f721-48f1-9136-33bb1a02ef46","ios":"levelo://app?vid=d143b776-f721-48f1-9136-33bb1a02ef46"},"vehicle_type_id":"4","last_reported":1683493561,"current_range_meters":22400,"station_id":"ce4bh692rcd13ifvqea0","pricing_plan_id":"free"},{"bike_id":"0698cc90-a666-4b70-a092-a08c8cb44379","system_id":"levelo_inurba_marseille","lat":43.292642,"lon":5.384254,"is_reserved":false,"is_disabled":false,"rental_uris":{"android":"levelo://app?vid=0698cc90-a666-4b70-a092-a08c8cb44379","ios":"levelo://app?vid=0698cc90-a666-4b70-a092-a08c8cb44379"},"vehicle_type_id":"4","last_reported":1683493561,"current_range_meters":14400,"station_id":"ce4bh692rcd13ifvqea0","pricing_plan_id":"free"},{"bike_id":"0ec6f3b8-d560-47dc-b3e5-b42ba654447d","system_id":"levelo_inurba_marseille","lat":43.292642,"lon":5.384254,"is_reserved":false,"is_disabled":false,"rental_uris":{"android":"levelo://app?vid=0ec6f3b8-d560-47dc-b3e5-b42ba654447d","ios":"levelo://app?vid=0ec6f3b8-d560-47dc-b3e5-b42ba654447d"},"vehicle_type_id":"4","last_reported":1683493561,"current_range_meters":14000,"station_id":"ce4bh692rcd13ifvqea0","pricing_plan_id":"free"},{"bike_id":"2044a6ad-9c4b-4eea-9659-30421f03531c","system_id":"levelo_inurba_marseille","lat":43.29258,"lon":5.38432,"is_reserved":false,"is_disabled":false,"rental_uris":{"android":"levelo://app?vid=2044a6ad-9c4b-4eea-9659-30421f03531c","ios":"levelo://app?vid=2044a6ad-9c4b-4eea-9659-30421f03531c"},"vehicle_type_id":"4","last_reported":1683493561,"current_range_meters":0,"station_id":"ce4bh692rcd13ifvqea0","pricing_plan_id":"free"},{"bike_id":"52c83e2d-3988-405d-9290-3db2c78f5c5e","system_id":"levelo_inurba_marseille","lat":43.292642,"lon":5.384254,"is_reserved":false,"is_disabled":false,"rental_uris":{"android":"levelo://app?vid=52c83e2d-3988-405d-9290-3db2c78f5c5e","ios":"levelo://app?vid=52c83e2d-3988-405d-9290-3db2c78f5c5e"},"vehicle_type_id":"4","last_reported":1683493561,"current_range_meters":13600,"station_id":"ce4bh692rcd13ifvqea0","pricing_plan_id":"free"},{"bike_id":"b89bfaf4-683d-431e-bd2d-13fb6cf788cd","system_id":"levelo_inurba_marseille","lat":43.292642,"lon":5.384254,"is_reserved":false,"is_disabled":false,"rental_uris":{"android":"levelo://app?vid=b89bfaf4-683d-431e-bd2d-13fb6cf788cd","ios":"levelo://app?vid=b89bfaf4-683d-431e-bd2d-13fb6cf788cd"},"vehicle_type_id":"4","last_reported":1683493561,"current_range_meters":17600,"station_id":"ce4bh692rcd13ifvqea0","pricing_plan_id":"free"},{"bike_id":"ddfcff18-f487-433f-8d99-a64a49f9f865","system_id":"levelo_inurba_marseille","lat":43.292642,"lon":5.384254,"is_reserved":false,"is_disabled":false,"rental_uris":{"android":"levelo://app?vid=ddfcff18-f487-433f-8d99-a64a49f9f865","ios":"levelo://app?vid=ddfcff18-f487-433f-8d99-a64a49f9f865"},"vehicle_type_id":"4","last_reported":1683493561,"current_range_meters":9600,"station_id":"ce4bh692rcd13ifvqea0","pricing_plan_id":"free"},{"bike_id":"147618b0-291e-42bb-9ae8-7bc960e38157","system_id":"levelo_inurba_marseille","lat":43.29252,"lon":5.38439,"is_reserved":false,"is_disabled":false,"rental_uris":{"android":"levelo://app?vid=147618b0-291e-42bb-9ae8-7bc960e38157","ios":"levelo://app?vid=147618b0-291e-42bb-9ae8-7bc960e38157"},"vehicle_type_id":"4","last_reported":1683493561,"current_range_meters":21200,"station_id":"","pricing_plan_id":"free"},{"bike_id":"27b01f2c-7980-42a7-84bc-173c4d8b0c75","system_id":"levelo_inurba_marseille","lat":43.292642,"lon":5.384254,"is_reserved":false,"is_disabled":false,"rental_uris":{"android":"levelo://app?vid=27b01f2c-7980-42a7-84bc-173c4d8b0c75","ios":"levelo://app?vid=27b01f2c-7980-42a7-84bc-173c4d8b0c75"},"vehicle_type_id":"4","last_reported":1683493561,"current_range_meters":21200,"station_id":"ce4bh692rcd13ifvqea0","pricing_plan_id":"free"},{"bike_id":"3a2dac40-3fcf-46c2-9bb9-c1344fae9f2a","system_id":"levelo_inurba_marseille","lat":43.2925,"lon":5.38441,"is_reserved":false,"is_disabled":false,"rental_uris":{"android":"levelo://app?vid=3a2dac40-3fcf-46c2-9bb9-c1344fae9f2a","ios":"levelo://app?vid=3a2dac40-3fcf-46c2-9bb9-c1344fae9f2a"},"vehicle_type_id":"4","last_reported":1683493561,"current_range_meters":0,"station_id":"ce4bh692rcd13ifvqea0","pricing_plan_id":"free"},{"bike_id":"2b874944-f368-495c-9f9f-4ea6a1fabe29","system_id":"levelo_inurba_marseille","lat":43.29247,"lon":5.38435,"is_reserved":false,"is_disabled":false,"rental_uris":{"android":"levelo://app?vid=2b874944-f368-495c-9f9f-4ea6a1fabe29","ios":"levelo://app?vid=2b874944-f368-495c-9f9f-4ea6a1fabe29"},"vehicle_type_id":"4","last_reported":1683493561,"current_range_meters":6000,"station_id":"ce4bh692rcd13ifvqea0","pricing_plan_id":"free"},{"bike_id":"97b18993-18c4-4b2d-ad3d-6adb3a0ede8a","system_id":"levelo_inurba_marseille","lat":43.33038,"lon":5.38919,"is_reserved":false,"is_disabled":false,"rental_uris":{"android":"levelo://app?vid=97b18993-18c4-4b2d-ad3d-6adb3a0ede8a","ios":"levelo://app?vid=97b18993-18c4-4b2d-ad3d-6adb3a0ede8a"},"vehicle_type_id":"4","last_reported":1683493561,"current_range_meters":30400,"station_id":"ce4bhr92rcd13ifvqhrg","pricing_plan_id":"free"},{"bike_id":"972bd449-5ef3-438e-a356-889e22be2f2a","system_id":"levelo_inurba_marseille","lat":43.330442,"lon":5.389148,"is_reserved":false,"is_disabled":false,"rental_uris":{"android":"levelo://app?vid=972bd449-5ef3-438e-a356-889e22be2f2a","ios":"levelo://app?vid=972bd449-5ef3-438e-a356-889e22be2f2a"},"vehicle_type_id":"4","last_reported":1683493561,"current_range_meters":0,"station_id":"ce4bhr92rcd13ifvqhrg","pricing_plan_id":"free"},{"bike_id":"66fbc1f8-e46b-4c0b-bfbd-c9672b377265","system_id":"levelo_inurba_marseille","lat":43.330442,"lon":5.389148,"is_reserved":false,"is_disabled":false,"rental_uris":{"android":"levelo://app?vid=66fbc1f8-e46b-4c0b-bfbd-c9672b377265","ios":"levelo://app?vid=66fbc1f8-e46b-4c0b-bfbd-c9672b377265"},"vehicle_type_id":"4","last_reported":1683493561,"current_range_meters":10800,"station_id":"ce4bhr92rcd13ifvqhrg","pricing_plan_id":"free"},{"bike_id":"9f2fe6bb-3fda-44dc-b9cc-6952e7acc71a","system_id":"levelo_inurba_marseille","lat":43.290103,"lon":5.356114,"is_reserved":false,"is_disabled":false,"rental_uris":{"android":"levelo://app?vid=9f2fe6bb-3fda-44dc-b9cc-6952e7acc71a","ios":"levelo://app?vid=9f2fe6bb-3fda-44dc-b9cc-6952e7acc71a"},"vehicle_type_id":"4","last_reported":1683493561,"current_range_meters":400,"station_id":"ce4bhb92rcd13ifvqen0","pricing_plan_id":"free"},{"bike_id":"dddb6c00-5a0a-45a2-8610-4df2236e7108","system_id":"levelo_inurba_marseille","lat":43.290995,"lon":5.381361,"is_reserved":false,"is_disabled":false,"rental_uris":{"android":"levelo://app?vid=dddb6c00-5a0a-45a2-8610-4df2236e7108","ios":"levelo://app?vid=dddb6c00-5a0a-45a2-8610-4df2236e7108"},"vehicle_type_id":"4","last_reported":1683493561,"current_range_meters":4800,"station_id":"ce4bh512rcd13ifvqe2g","pricing_plan_id":"free"},{"bike_id":"9fda5839-b6dc-4f7b-9163-4bd0fd66a1d5","system_id":"levelo_inurba_marseille","lat":43.295169,"lon":5.390426,"is_reserved":false,"is_disabled":false,"rental_uris":{"android":"levelo://app?vid=9fda5839-b6dc-4f7b-9163-4bd0fd66a1d5","ios":"levelo://app?vid=9fda5839-b6dc-4f7b-9163-4bd0fd66a1d5"},"vehicle_type_id":"4","last_reported":1683493561,"current_range_meters":7200,"station_id":"ce4bh3p2rcd13ifvqdp0","pricing_plan_id":"free"},{"bike_id":"24758306-ea92-4b19-9f34-10e7ba9875e9","system_id":"levelo_inurba_marseille","lat":43.295169,"lon":5.390426,"is_reserved":false,"is_disabled":false,"rental_uris":{"android":"levelo://app?vid=24758306-ea92-4b19-9f34-10e7ba9875e9","ios":"levelo://app?vid=24758306-ea92-4b19-9f34-10e7ba9875e9"},"vehicle_type_id":"4","last_reported":1683493561,"current_range_meters":2400,"station_id":"ce4bh3p2rcd13ifvqdp0","pricing_plan_id":"free"},{"bike_id":"0cf0e8a5-0cc6-4d17-80c2-83514200da05","system_id":"levelo_inurba_marseille","lat":43.295169,"lon":5.390426,"is_reserved":false,"is_disabled":false,"rental_uris":{"android":"levelo://app?vid=0cf0e8a5-0cc6-4d17-80c2-83514200da05","ios":"levelo://app?vid=0cf0e8a5-0cc6-4d17-80c2-83514200da05"},"vehicle_type_id":"4","last_reported":1683493561,"current_range_meters":0,"station_id":"ce4bh3p2rcd13ifvqdp0","pricing_plan_id":"free"},{"bike_id":"beec34c4-60bb-4c78-aa1c-92ad930f8e99","system_id":"levelo_inurba_marseille","lat":43.295169,"lon":5.390426,"is_reserved":false,"is_disabled":false,"rental_uris":{"android":"levelo://app?vid=beec34c4-60bb-4c78-aa1c-92ad930f8e99","ios":"levelo://app?vid=beec34c4-60bb-4c78-aa1c-92ad930f8e99"},"vehicle_type_id":"4","last_reported":1683493561,"current_range_meters":5200,"station_id":"ce4bh3p2rcd13ifvqdp0","pricing_plan_id":"free"},{"bike_id":"848cd737-e760-4d0b-8496-56643e76844b","system_id":"levelo_inurba_marseille","lat":43.295169,"lon":5.390426,"is_reserved":false,"is_disabled":false,"rental_uris":{"android":"levelo://app?vid=848cd737-e760-4d0b-8496-56643e76844b","ios":"levelo://app?vid=848cd737-e760-4d0b-8496-56643e76844b"},"vehicle_type_id":"4","last_reported":1683493561,"current_range_meters":10800,"station_id":"ce4bh3p2rcd13ifvqdp0","pricing_plan_id":"free"},{"bike_id":"c35e9a20-ae48-4a5d-b7e8-9ea0460ead13","system_id":"levelo_inurba_marseille","lat":43.295169,"lon":5.390426,"is_reserved":false,"is_disabled":false,"rental_uris":{"android":"levelo://app?vid=c35e9a20-ae48-4a5d-b7e8-9ea0460ead13","ios":"levelo://app?vid=c35e9a20-ae48-4a5d-b7e8-9ea0460ead13"},"vehicle_type_id":"4","last_reported":1683493561,"current_range_meters":22800,"station_id":"ce4bh3p2rcd13ifvqdp0","pricing_plan_id":"free"},{"bike_id":"3dc0d519-b537-44b3-bc1e-1c3201ebd386","system_id":"levelo_inurba_marseille","lat":43.295169,"lon":5.390426,"is_reserved":false,"is_disabled":false,"rental_uris":{"android":"levelo://app?vid=3dc0d519-b537-44b3-bc1e-1c3201ebd386","ios":"levelo://app?vid=3dc0d519-b537-44b3-bc1e-1c3201ebd386"},"vehicle_type_id":"4","last_reported":1683493561,"current_range_meters":3600,"station_id":"ce4bh3p2rcd13ifvqdp0","pricing_plan_id":"free"},{"bike_id":"6a178aa4-3084-4230-aab8-24c7a2d1641f","system_id":"levelo_inurba_marseille","lat":43.33137,"lon":5.38949,"is_reserved":false,"is_disabled":false,"rental_uris":{"android":"levelo://app?vid=6a178aa4-3084-4230-aab8-24c7a2d1641f","ios":"levelo://app?vid=6a178aa4-3084-4230-aab8-24c7a2d1641f"},"vehicle_type_id":"4","last_reported":1683493561,"current_range_meters":11600,"station_id":"","pricing_plan_id":"free"},{"bike_id":"b8c93750-07d4-4ca4-9f45-7ac39db4e0b3","system_id":"levelo_inurba_marseille","lat":43.28856,"lon":5.358371,"is_reserved":false,"is_disabled":false,"rental_uris":{"android":"levelo://app?vid=b8c93750-07d4-4ca4-9f45-7ac39db4e0b3","ios":"levelo://app?vid=b8c93750-07d4-4ca4-9f45-7ac39db4e0b3"},"vehicle_type_id":"4","last_reported":1683493561,"current_range_meters":10000,"station_id":"ce4bhb12rcd13ifvqem0","pricing_plan_id":"free"},{"bike_id":"afdcd18b-991f-43a5-a27c-efb1a51bb3c6","system_id":"levelo_inurba_marseille","lat":43.28856,"lon":5.358371,"is_reserved":false,"is_disabled":false,"rental_uris":{"android":"levelo://app?vid=afdcd18b-991f-43a5-a27c-efb1a51bb3c6","ios":"levelo://app?vid=afdcd18b-991f-43a5-a27c-efb1a51bb3c6"},"vehicle_type_id":"4","last_reported":1683493561,"current_range_meters":8800,"station_id":"ce4bhb12rcd13ifvqem0","pricing_plan_id":"free"},{"bike_id":"bad5b2af-92d2-45e4-9475-3e4126102d45","system_id":"levelo_inurba_marseille","lat":43.28856,"lon":5.358371,"is_reserved":false,"is_disabled":false,"rental_uris":{"android":"levelo://app?vid=bad5b2af-92d2-45e4-9475-3e4126102d45","ios":"levelo://app?vid=bad5b2af-92d2-45e4-9475-3e4126102d45"},"vehicle_type_id":"4","last_reported":1683493561,"current_range_meters":13600,"station_id":"ce4bhb12rcd13ifvqem0","pricing_plan_id":"free"},{"bike_id":"3169368b-f420-41f1-801f-666807aea89f","system_id":"levelo_inurba_marseille","lat":43.28856,"lon":5.358371,"is_reserved":false,"is_disabled":false,"rental_uris":{"android":"levelo://app?vid=3169368b-f420-41f1-801f-666807aea89f","ios":"levelo://app?vid=3169368b-f420-41f1-801f-666807aea89f"},"vehicle_type_id":"4","last_reported":1683493561,"current_range_meters":2400,"station_id":"ce4bhb12rcd13ifvqem0","pricing_plan_id":"free"},{"bike_id":"20083ae5-f09f-4d10-9758-3cdd331d6a45","system_id":"levelo_inurba_marseille","lat":43.33738,"lon":5.37461,"is_reserved":false,"is_disabled":false,"rental_uris":{"android":"levelo://app?vid=20083ae5-f09f-4d10-9758-3cdd331d6a45","ios":"levelo://app?vid=20083ae5-f09f-4d10-9758-3cdd331d6a45"},"vehicle_type_id":"4","last_reported":1683493561,"current_range_meters":9600,"station_id":"","pricing_plan_id":"free"},{"bike_id":"86b28340-532d-4ab8-ac19-19ffd45b0568","system_id":"levelo_inurba_marseille","lat":43.33736,"lon":5.37477,"is_reserved":false,"is_disabled":false,"rental_uris":{"android":"levelo://app?vid=86b28340-532d-4ab8-ac19-19ffd45b0568","ios":"levelo://app?vid=86b28340-532d-4ab8-ac19-19ffd45b0568"},"vehicle_type_id":"4","last_reported":1683493561,"current_range_meters":29600,"station_id":"","pricing_plan_id":"free"},{"bike_id":"78725f08-8d42-4f1a-9002-0d0b35dc7efd","system_id":"levelo_inurba_marseille","lat":43.33748,"lon":5.37439,"is_reserved":false,"is_disabled":false,"rental_uris":{"android":"levelo://app?vid=78725f08-8d42-4f1a-9002-0d0b35dc7efd","ios":"levelo://app?vid=78725f08-8d42-4f1a-9002-0d0b35dc7efd"},"vehicle_type_id":"4","last_reported":1683493561,"current_range_meters":18000,"station_id":"ce4rr2p2rcd13i802rgg","pricing_plan_id":"free"},{"bike_id":"610f4cf2-2ffb-4136-95ed-3579f336a8ea","system_id":"levelo_inurba_marseille","lat":43.3375,"lon":5.3743,"is_reserved":false,"is_disabled":false,"rental_uris":{"android":"levelo://app?vid=610f4cf2-2ffb-4136-95ed-3579f336a8ea","ios":"levelo://app?vid=610f4cf2-2ffb-4136-95ed-3579f336a8ea"},"vehicle_type_id":"4","last_reported":1683493561,"current_range_meters":22000,"station_id":"","pricing_plan_id":"free"},{"bike_id":"9070207c-ce23-4a97-b89f-da673252f922","system_id":"levelo_inurba_marseille","lat":43.33752,"lon":5.37486,"is_reserved":false,"is_disabled":false,"rental_uris":{"android":"levelo://app?vid=9070207c-ce23-4a97-b89f-da673252f922","ios":"levelo://app?vid=9070207c-ce23-4a97-b89f-da673252f922"},"vehicle_type_id":"4","last_reported":1683493561,"current_range_meters":21200,"station_id":"","pricing_plan_id":"free"},{"bike_id":"db84b57a-c242-4d31-93f3-e9f12005c4b3","system_id":"levelo_inurba_marseille","lat":43.33762,"lon":5.37494,"is_reserved":false,"is_disabled":false,"rental_uris":{"android":"levelo://app?vid=db84b57a-c242-4d31-93f3-e9f12005c4b3","ios":"levelo://app?vid=db84b57a-c242-4d31-93f3-e9f12005c4b3"},"vehicle_type_id":"4","last_reported":1683493561,"current_range_meters":22000,"station_id":"","pricing_plan_id":"free"},{"bike_id":"7ef563e8-8762-4f92-8e9a-b85daf8370a3","system_id":"levelo_inurba_marseille","lat":43.30642,"lon":5.401031,"is_reserved":false,"is_disabled":false,"rental_uris":{"android":"levelo://app?vid=7ef563e8-8762-4f92-8e9a-b85daf8370a3","ios":"levelo://app?vid=7ef563e8-8762-4f92-8e9a-b85daf8370a3"},"vehicle_type_id":"4","last_reported":1683493561,"current_range_meters":4800,"station_id":"ce4bh112rcd13ifvqda0","pricing_plan_id":"free"},{"bike_id":"9ed4305a-ea3d-4a3a-a43e-3ee639154279","system_id":"levelo_inurba_marseille","lat":43.301117,"lon":5.398795,"is_reserved":false,"is_disabled":false,"rental_uris":{"android":"levelo://app?vid=9ed4305a-ea3d-4a3a-a43e-3ee639154279","ios":"levelo://app?vid=9ed4305a-ea3d-4a3a-a43e-3ee639154279"},"vehicle_type_id":"4","last_reported":1683493561,"current_range_meters":22000,"station_id":"ce4bh0h2rcd13ifvqd40","pricing_plan_id":"free"},{"bike_id":"e30fffe7-6743-46ee-8549-f6d4e4c4d8fd","system_id":"levelo_inurba_marseille","lat":43.30139,"lon":5.39871,"is_reserved":false,"is_disabled":false,"rental_uris":{"android":"levelo://app?vid=e30fffe7-6743-46ee-8549-f6d4e4c4d8fd","ios":"levelo://app?vid=e30fffe7-6743-46ee-8549-f6d4e4c4d8fd"},"vehicle_type_id":"4","last_reported":1683493561,"current_range_meters":12400,"station_id":"","pricing_plan_id":"free"},{"bike_id":"8ea9abbe-edce-4dac-a6b0-c542f15c5b6c","system_id":"levelo_inurba_marseille","lat":43.301117,"lon":5.398795,"is_reserved":false,"is_disabled":false,"rental_uris":{"android":"levelo://app?vid=8ea9abbe-edce-4dac-a6b0-c542f15c5b6c","ios":"levelo://app?vid=8ea9abbe-edce-4dac-a6b0-c542f15c5b6c"},"vehicle_type_id":"4","last_reported":1683493561,"current_range_meters":800,"station_id":"ce4bh0h2rcd13ifvqd40","pricing_plan_id":"free"},{"bike_id":"2f12b970-d550-405a-977b-841b1fd1e632","system_id":"levelo_inurba_marseille","lat":43.301117,"lon":5.398795,"is_reserved":false,"is_disabled":false,"rental_uris":{"android":"levelo://app?vid=2f12b970-d550-405a-977b-841b1fd1e632","ios":"levelo://app?vid=2f12b970-d550-405a-977b-841b1fd1e632"},"vehicle_type_id":"4","last_reported":1683493561,"current_range_meters":0,"station_id":"ce4bh0h2rcd13ifvqd40","pricing_plan_id":"free"},{"bike_id":"afdb5aac-2d43-4920-9c3d-7ba5427ddb6a","system_id":"levelo_inurba_marseille","lat":43.286591,"lon":5.363346,"is_reserved":false,"is_disabled":false,"rental_uris":{"android":"levelo://app?vid=afdb5aac-2d43-4920-9c3d-7ba5427ddb6a","ios":"levelo://app?vid=afdb5aac-2d43-4920-9c3d-7ba5427ddb6a"},"vehicle_type_id":"4","last_reported":1683493561,"current_range_meters":10000,"station_id":"ce4bhah2rcd13ifvqej0","pricing_plan_id":"free"},{"bike_id":"320908dc-7ebc-4bbe-b460-c2abcc05beb2","system_id":"levelo_inurba_marseille","lat":43.29876,"lon":5.39728,"is_reserved":false,"is_disabled":false,"rental_uris":{"android":"levelo://app?vid=320908dc-7ebc-4bbe-b460-c2abcc05beb2","ios":"levelo://app?vid=320908dc-7ebc-4bbe-b460-c2abcc05beb2"},"vehicle_type_id":"4","last_reported":1683493561,"current_range_meters":6400,"station_id":"ce4bh0h2rcd13ifvqd50","pricing_plan_id":"free"},{"bike_id":"cc2591e8-b28c-4cc7-aead-429b944b4cd4","system_id":"levelo_inurba_marseille","lat":43.286593,"lon":5.363346,"is_reserved":false,"is_disabled":false,"rental_uris":{"android":"levelo://app?vid=cc2591e8-b28c-4cc7-aead-429b944b4cd4","ios":"levelo://app?vid=cc2591e8-b28c-4cc7-aead-429b944b4cd4"},"vehicle_type_id":"4","last_reported":1683493561,"current_range_meters":11600,"station_id":"ce4bhah2rcd13ifvqej0","pricing_plan_id":"free"},{"bike_id":"7f28d873-1e1d-4f83-87fd-703bd863eb2e","system_id":"levelo_inurba_marseille","lat":43.29518,"lon":5.39395,"is_reserved":false,"is_disabled":false,"rental_uris":{"android":"levelo://app?vid=7f28d873-1e1d-4f83-87fd-703bd863eb2e","ios":"levelo://app?vid=7f28d873-1e1d-4f83-87fd-703bd863eb2e"},"vehicle_type_id":"4","last_reported":1683493561,"current_range_meters":6400,"station_id":"ce4bh292rcd13ifvqdf0","pricing_plan_id":"free"},{"bike_id":"4de16860-cc20-44c0-94ec-14246024911a","system_id":"levelo_inurba_marseille","lat":43.295196,"lon":5.39397,"is_reserved":false,"is_disabled":false,"rental_uris":{"android":"levelo://app?vid=4de16860-cc20-44c0-94ec-14246024911a","ios":"levelo://app?vid=4de16860-cc20-44c0-94ec-14246024911a"},"vehicle_type_id":"4","last_reported":1683493561,"current_range_meters":6000,"station_id":"ce4bh292rcd13ifvqdf0","pricing_plan_id":"free"},{"bike_id":"9e9cd239-d61b-483d-b625-63727b985813","system_id":"levelo_inurba_marseille","lat":43.30248,"lon":5.40051,"is_reserved":false,"is_disabled":false,"rental_uris":{"android":"levelo://app?vid=9e9cd239-d61b-483d-b625-63727b985813","ios":"levelo://app?vid=9e9cd239-d61b-483d-b625-63727b985813"},"vehicle_type_id":"4","last_reported":1683493561,"current_range_meters":15600,"station_id":"ce4bgvh2rcd13ifvqcs0","pricing_plan_id":"free"},{"bike_id":"c85278b3-1740-403e-a3fb-78bbea3a0ef6","system_id":"levelo_inurba_marseille","lat":43.290345,"lon":5.38646,"is_reserved":false,"is_disabled":false,"rental_uris":{"android":"levelo://app?vid=c85278b3-1740-403e-a3fb-78bbea3a0ef6","ios":"levelo://app?vid=c85278b3-1740-403e-a3fb-78bbea3a0ef6"},"vehicle_type_id":"4","last_reported":1683493561,"current_range_meters":28800,"station_id":"ce4bh4p2rcd13ifvqe0g","pricing_plan_id":"free"},{"bike_id":"61e77b5b-1cb3-4b16-9357-2fe1e64d5fc5","system_id":"levelo_inurba_marseille","lat":43.302759,"lon":5.400793,"is_reserved":false,"is_disabled":false,"rental_uris":{"android":"levelo://app?vid=61e77b5b-1cb3-4b16-9357-2fe1e64d5fc5","ios":"levelo://app?vid=61e77b5b-1cb3-4b16-9357-2fe1e64d5fc5"},"vehicle_type_id":"4","last_reported":1683493561,"current_range_meters":10400,"station_id":"ce4bgvh2rcd13ifvqcs0","pricing_plan_id":"free"},{"bike_id":"084457d2-c7bf-4287-b4f6-549cb96f16d3","system_id":"levelo_inurba_marseille","lat":43.29028,"lon":5.38646,"is_reserved":false,"is_disabled":false,"rental_uris":{"android":"levelo://app?vid=084457d2-c7bf-4287-b4f6-549cb96f16d3","ios":"levelo://app?vid=084457d2-c7bf-4287-b4f6-549cb96f16d3"},"vehicle_type_id":"4","last_reported":1683493561,"current_range_meters":6000,"station_id":"ce4bh4p2rcd13ifvqe0g","pricing_plan_id":"free"},{"bike_id":"31432234-5fd0-41c8-b570-1cf7e4763e80","system_id":"levelo_inurba_marseille","lat":43.302759,"lon":5.400793,"is_reserved":false,"is_disabled":false,"rental_uris":{"android":"levelo://app?vid=31432234-5fd0-41c8-b570-1cf7e4763e80","ios":"levelo://app?vid=31432234-5fd0-41c8-b570-1cf7e4763e80"},"vehicle_type_id":"4","last_reported":1683493561,"current_range_meters":3600,"station_id":"ce4bgvh2rcd13ifvqcs0","pricing_plan_id":"free"},{"bike_id":"34027285-58ea-426c-818b-76aef9a904ae","system_id":"levelo_inurba_marseille","lat":43.302759,"lon":5.400793,"is_reserved":false,"is_disabled":false,"rental_uris":{"android":"levelo://app?vid=34027285-58ea-426c-818b-76aef9a904ae","ios":"levelo://app?vid=34027285-58ea-426c-818b-76aef9a904ae"},"vehicle_type_id":"4","last_reported":1683493561,"current_range_meters":10000,"station_id":"ce4bgvh2rcd13ifvqcs0","pricing_plan_id":"free"},{"bike_id":"89c3041c-d2a1-44fa-85fb-e6449050e531","system_id":"levelo_inurba_marseille","lat":43.30247,"lon":5.40066,"is_reserved":false,"is_disabled":false,"rental_uris":{"android":"levelo://app?vid=89c3041c-d2a1-44fa-85fb-e6449050e531","ios":"levelo://app?vid=89c3041c-d2a1-44fa-85fb-e6449050e531"},"vehicle_type_id":"4","last_reported":1683493561,"current_range_meters":6800,"station_id":"","pricing_plan_id":"free"},{"bike_id":"b0795b3f-431d-439d-87d5-b0ee961e7d4c","system_id":"levelo_inurba_marseille","lat":43.302759,"lon":5.400793,"is_reserved":false,"is_disabled":false,"rental_uris":{"android":"levelo://app?vid=b0795b3f-431d-439d-87d5-b0ee961e7d4c","ios":"levelo://app?vid=b0795b3f-431d-439d-87d5-b0ee961e7d4c"},"vehicle_type_id":"4","last_reported":1683493561,"current_range_meters":14400,"station_id":"ce4bgvh2rcd13ifvqcs0","pricing_plan_id":"free"},{"bike_id":"3e4a0f25-1f81-412e-ac41-2c7b2a0afe51","system_id":"levelo_inurba_marseille","lat":43.302759,"lon":5.400793,"is_reserved":false,"is_disabled":false,"rental_uris":{"android":"levelo://app?vid=3e4a0f25-1f81-412e-ac41-2c7b2a0afe51","ios":"levelo://app?vid=3e4a0f25-1f81-412e-ac41-2c7b2a0afe51"},"vehicle_type_id":"4","last_reported":1683493561,"current_range_meters":8000,"station_id":"ce4bgvh2rcd13ifvqcs0","pricing_plan_id":"free"},{"bike_id":"60178df6-e4cf-4e12-8172-69fecd186260","system_id":"levelo_inurba_marseille","lat":43.290336,"lon":5.386425,"is_reserved":false,"is_disabled":false,"rental_uris":{"android":"levelo://app?vid=60178df6-e4cf-4e12-8172-69fecd186260","ios":"levelo://app?vid=60178df6-e4cf-4e12-8172-69fecd186260"},"vehicle_type_id":"4","last_reported":1683493561,"current_range_meters":31200,"station_id":"ce4bh4p2rcd13ifvqe0g","pricing_plan_id":"free"},{"bike_id":"4cbe580a-1e1b-497d-aac3-d2d442a7093b","system_id":"levelo_inurba_marseille","lat":43.287184,"lon":5.37937,"is_reserved":false,"is_disabled":false,"rental_uris":{"android":"levelo://app?vid=4cbe580a-1e1b-497d-aac3-d2d442a7093b","ios":"levelo://app?vid=4cbe580a-1e1b-497d-aac3-d2d442a7093b"},"vehicle_type_id":"4","last_reported":1683493561,"current_range_meters":21200,"station_id":"ce4bh9p2rcd13ifvqec0","pricing_plan_id":"free"},{"bike_id":"bad185c7-a8b9-46c8-9360-88a1cc3f3629","system_id":"levelo_inurba_marseille","lat":43.316517,"lon":5.404375,"is_reserved":false,"is_disabled":false,"rental_uris":{"android":"levelo://app?vid=bad185c7-a8b9-46c8-9360-88a1cc3f3629","ios":"levelo://app?vid=bad185c7-a8b9-46c8-9360-88a1cc3f3629"},"vehicle_type_id":"4","last_reported":1683493561,"current_range_meters":0,"station_id":"ce4bh012rcd13ifvqd00","pricing_plan_id":"free"},{"bike_id":"e5124d01-2f46-4e17-a751-f9eb07ae19ea","system_id":"levelo_inurba_marseille","lat":43.316517,"lon":5.404375,"is_reserved":false,"is_disabled":false,"rental_uris":{"android":"levelo://app?vid=e5124d01-2f46-4e17-a751-f9eb07ae19ea","ios":"levelo://app?vid=e5124d01-2f46-4e17-a751-f9eb07ae19ea"},"vehicle_type_id":"4","last_reported":1683493561,"current_range_meters":0,"station_id":"ce4bh012rcd13ifvqd00","pricing_plan_id":"free"},{"bike_id":"b619ecf9-a59b-44aa-aabb-492fb87f735d","system_id":"levelo_inurba_marseille","lat":43.31645,"lon":5.40437,"is_reserved":false,"is_disabled":false,"rental_uris":{"android":"levelo://app?vid=b619ecf9-a59b-44aa-aabb-492fb87f735d","ios":"levelo://app?vid=b619ecf9-a59b-44aa-aabb-492fb87f735d"},"vehicle_type_id":"4","last_reported":1683493561,"current_range_meters":2000,"station_id":"ce4bh012rcd13ifvqd00","pricing_plan_id":"free"},{"bike_id":"9b58c03a-e056-4d5d-9897-00689f1be5e2","system_id":"levelo_inurba_marseille","lat":43.33473,"lon":5.38999,"is_reserved":false,"is_disabled":false,"rental_uris":{"android":"levelo://app?vid=9b58c03a-e056-4d5d-9897-00689f1be5e2","ios":"levelo://app?vid=9b58c03a-e056-4d5d-9897-00689f1be5e2"},"vehicle_type_id":"4","last_reported":1683493561,"current_range_meters":2400,"station_id":"","pricing_plan_id":"free"},{"bike_id":"27865f6e-c046-4416-9233-48156b6bae2c","system_id":"levelo_inurba_marseille","lat":43.33482,"lon":5.38984,"is_reserved":false,"is_disabled":false,"rental_uris":{"android":"levelo://app?vid=27865f6e-c046-4416-9233-48156b6bae2c","ios":"levelo://app?vid=27865f6e-c046-4416-9233-48156b6bae2c"},"vehicle_type_id":"4","last_reported":1683493561,"current_range_meters":24400,"station_id":"","pricing_plan_id":"free"},{"bike_id":"ba7c2c80-fd45-4d6a-a14f-736c82a8c426","system_id":"levelo_inurba_marseille","lat":43.284534,"lon":5.358662,"is_reserved":false,"is_disabled":false,"rental_uris":{"android":"levelo://app?vid=ba7c2c80-fd45-4d6a-a14f-736c82a8c426","ios":"levelo://app?vid=ba7c2c80-fd45-4d6a-a14f-736c82a8c426"},"vehicle_type_id":"4","last_reported":1683493561,"current_range_meters":19200,"station_id":"ce4bhah2rcd13ifvqei0","pricing_plan_id":"free"},{"bike_id":"085b5152-f2bb-47dd-a92f-91f01291f04d","system_id":"levelo_inurba_marseille","lat":43.284534,"lon":5.358662,"is_reserved":false,"is_disabled":false,"rental_uris":{"android":"levelo://app?vid=085b5152-f2bb-47dd-a92f-91f01291f04d","ios":"levelo://app?vid=085b5152-f2bb-47dd-a92f-91f01291f04d"},"vehicle_type_id":"4","last_reported":1683493561,"current_range_meters":25200,"station_id":"ce4bhah2rcd13ifvqei0","pricing_plan_id":"free"},{"bike_id":"7d5cf767-2090-41f6-bac1-ff4a893f2c49","system_id":"levelo_inurba_marseille","lat":43.284534,"lon":5.358662,"is_reserved":false,"is_disabled":false,"rental_uris":{"android":"levelo://app?vid=7d5cf767-2090-41f6-bac1-ff4a893f2c49","ios":"levelo://app?vid=7d5cf767-2090-41f6-bac1-ff4a893f2c49"},"vehicle_type_id":"4","last_reported":1683493561,"current_range_meters":7200,"station_id":"ce4bhah2rcd13ifvqei0","pricing_plan_id":"free"},{"bike_id":"cb26f6fa-eba0-48e5-b41e-d8ff74143aac","system_id":"levelo_inurba_marseille","lat":43.284534,"lon":5.358662,"is_reserved":false,"is_disabled":false,"rental_uris":{"android":"levelo://app?vid=cb26f6fa-eba0-48e5-b41e-d8ff74143aac","ios":"levelo://app?vid=cb26f6fa-eba0-48e5-b41e-d8ff74143aac"},"vehicle_type_id":"4","last_reported":1683493561,"current_range_meters":17600,"station_id":"ce4bhah2rcd13ifvqei0","pricing_plan_id":"free"},{"bike_id":"2d2e9b66-2988-462a-b5eb-d2a0a9616f50","system_id":"levelo_inurba_marseille","lat":43.284534,"lon":5.358662,"is_reserved":false,"is_disabled":false,"rental_uris":{"android":"levelo://app?vid=2d2e9b66-2988-462a-b5eb-d2a0a9616f50","ios":"levelo://app?vid=2d2e9b66-2988-462a-b5eb-d2a0a9616f50"},"vehicle_type_id":"4","last_reported":1683493561,"current_range_meters":10000,"station_id":"ce4bhah2rcd13ifvqei0","pricing_plan_id":"free"},{"bike_id":"85f700ea-80c4-435d-9983-2d1fa3777cbd","system_id":"levelo_inurba_marseille","lat":43.28619,"lon":5.35098,"is_reserved":false,"is_disabled":false,"rental_uris":{"android":"levelo://app?vid=85f700ea-80c4-435d-9983-2d1fa3777cbd","ios":"levelo://app?vid=85f700ea-80c4-435d-9983-2d1fa3777cbd"},"vehicle_type_id":"4","last_reported":1683493561,"current_range_meters":21200,"station_id":"","pricing_plan_id":"free"},{"bike_id":"30bcb7ce-68ed-44bc-a0d5-2355bad0bf71","system_id":"levelo_inurba_marseille","lat":43.28612,"lon":5.35102,"is_reserved":false,"is_disabled":false,"rental_uris":{"android":"levelo://app?vid=30bcb7ce-68ed-44bc-a0d5-2355bad0bf71","ios":"levelo://app?vid=30bcb7ce-68ed-44bc-a0d5-2355bad0bf71"},"vehicle_type_id":"4","last_reported":1683493561,"current_range_meters":0,"station_id":"","pricing_plan_id":"free"},{"bike_id":"bf436a1d-0f0e-4018-8f80-42b342405d5c","system_id":"levelo_inurba_marseille","lat":43.295713,"lon":5.399639,"is_reserved":false,"is_disabled":false,"rental_uris":{"android":"levelo://app?vid=bf436a1d-0f0e-4018-8f80-42b342405d5c","ios":"levelo://app?vid=bf436a1d-0f0e-4018-8f80-42b342405d5c"},"vehicle_type_id":"4","last_reported":1683493561,"current_range_meters":8400,"station_id":"ce4bh312rcd13ifvqdj0","pricing_plan_id":"free"},{"bike_id":"7a16dee3-d730-4344-bbfc-1e3841f5b228","system_id":"levelo_inurba_marseille","lat":43.295713,"lon":5.399639,"is_reserved":false,"is_disabled":false,"rental_uris":{"android":"levelo://app?vid=7a16dee3-d730-4344-bbfc-1e3841f5b228","ios":"levelo://app?vid=7a16dee3-d730-4344-bbfc-1e3841f5b228"},"vehicle_type_id":"4","last_reported":1683493561,"current_range_meters":22800,"station_id":"ce4bh312rcd13ifvqdj0","pricing_plan_id":"free"},{"bike_id":"62185f89-1d55-44b2-bfe2-0ceec3972c68","system_id":"levelo_inurba_marseille","lat":43.286595,"lon":5.386795,"is_reserved":false,"is_disabled":false,"rental_uris":{"android":"levelo://app?vid=62185f89-1d55-44b2-bfe2-0ceec3972c68","ios":"levelo://app?vid=62185f89-1d55-44b2-bfe2-0ceec3972c68"},"vehicle_type_id":"4","last_reported":1683493561,"current_range_meters":17200,"station_id":"ce4bh492rcd13ifvqdug","pricing_plan_id":"free"},{"bike_id":"7cdb1143-1df3-41fc-a179-c2f32ca67ebe","system_id":"levelo_inurba_marseille","lat":43.28495,"lon":5.35138,"is_reserved":false,"is_disabled":false,"rental_uris":{"android":"levelo://app?vid=7cdb1143-1df3-41fc-a179-c2f32ca67ebe","ios":"levelo://app?vid=7cdb1143-1df3-41fc-a179-c2f32ca67ebe"},"vehicle_type_id":"4","last_reported":1683493561,"current_range_meters":2800,"station_id":"","pricing_plan_id":"free"},{"bike_id":"90fefa4d-bf6c-4e62-8594-ec1e43ae7025","system_id":"levelo_inurba_marseille","lat":43.337168,"lon":5.391825,"is_reserved":false,"is_disabled":false,"rental_uris":{"android":"levelo://app?vid=90fefa4d-bf6c-4e62-8594-ec1e43ae7025","ios":"levelo://app?vid=90fefa4d-bf6c-4e62-8594-ec1e43ae7025"},"vehicle_type_id":"4","last_reported":1683493561,"current_range_meters":26000,"station_id":"ce4bhr92rcd13ifvqhsg","pricing_plan_id":"free"},{"bike_id":"eeed33b8-4405-4fee-8d96-fecd07572891","system_id":"levelo_inurba_marseille","lat":43.323464,"lon":5.406297,"is_reserved":false,"is_disabled":false,"rental_uris":{"android":"levelo://app?vid=eeed33b8-4405-4fee-8d96-fecd07572891","ios":"levelo://app?vid=eeed33b8-4405-4fee-8d96-fecd07572891"},"vehicle_type_id":"4","last_reported":1683493561,"current_range_meters":9600,"station_id":"ce4bhq92rcd13ifvqhjg","pricing_plan_id":"free"},{"bike_id":"7df44294-8889-4c17-be72-c4b8ea5ba4fe","system_id":"levelo_inurba_marseille","lat":43.33718,"lon":5.39186,"is_reserved":false,"is_disabled":false,"rental_uris":{"android":"levelo://app?vid=7df44294-8889-4c17-be72-c4b8ea5ba4fe","ios":"levelo://app?vid=7df44294-8889-4c17-be72-c4b8ea5ba4fe"},"vehicle_type_id":"4","last_reported":1683493561,"current_range_meters":10400,"station_id":"ce4bhr92rcd13ifvqhsg","pricing_plan_id":"free"},{"bike_id":"a4fae2d6-7097-4fee-8c63-ba0f28da36cb","system_id":"levelo_inurba_marseille","lat":43.33717,"lon":5.391857,"is_reserved":false,"is_disabled":false,"rental_uris":{"android":"levelo://app?vid=a4fae2d6-7097-4fee-8c63-ba0f28da36cb","ios":"levelo://app?vid=a4fae2d6-7097-4fee-8c63-ba0f28da36cb"},"vehicle_type_id":"4","last_reported":1683493561,"current_range_meters":4800,"station_id":"ce4bhr92rcd13ifvqhsg","pricing_plan_id":"free"},{"bike_id":"f0e64e2e-7b84-48d5-841a-99c6134ce8e4","system_id":"levelo_inurba_marseille","lat":43.323464,"lon":5.406297,"is_reserved":false,"is_disabled":false,"rental_uris":{"android":"levelo://app?vid=f0e64e2e-7b84-48d5-841a-99c6134ce8e4","ios":"levelo://app?vid=f0e64e2e-7b84-48d5-841a-99c6134ce8e4"},"vehicle_type_id":"4","last_reported":1683493561,"current_range_meters":22400,"station_id":"ce4bhq92rcd13ifvqhjg","pricing_plan_id":"free"},{"bike_id":"ad3cdfdb-0864-4cce-8a5d-05a05de94244","system_id":"levelo_inurba_marseille","lat":43.30099,"lon":5.40574,"is_reserved":false,"is_disabled":false,"rental_uris":{"android":"levelo://app?vid=ad3cdfdb-0864-4cce-8a5d-05a05de94244","ios":"levelo://app?vid=ad3cdfdb-0864-4cce-8a5d-05a05de94244"},"vehicle_type_id":"4","last_reported":1683493561,"current_range_meters":14000,"station_id":"","pricing_plan_id":"free"},{"bike_id":"220a10ec-0f43-4958-9e65-f304690f9b3f","system_id":"levelo_inurba_marseille","lat":43.288501,"lon":5.393087,"is_reserved":false,"is_disabled":false,"rental_uris":{"android":"levelo://app?vid=220a10ec-0f43-4958-9e65-f304690f9b3f","ios":"levelo://app?vid=220a10ec-0f43-4958-9e65-f304690f9b3f"},"vehicle_type_id":"4","last_reported":1683493561,"current_range_meters":3200,"station_id":"ce4bh2p2rcd13ifvqdi0","pricing_plan_id":"free"},{"bike_id":"08ed372a-67a1-427b-8319-33100828c48b","system_id":"levelo_inurba_marseille","lat":43.28857,"lon":5.39319,"is_reserved":false,"is_disabled":false,"rental_uris":{"android":"levelo://app?vid=08ed372a-67a1-427b-8319-33100828c48b","ios":"levelo://app?vid=08ed372a-67a1-427b-8319-33100828c48b"},"vehicle_type_id":"4","last_reported":1683493561,"current_range_meters":2400,"station_id":"ce4bh2p2rcd13ifvqdi0","pricing_plan_id":"free"},{"bike_id":"fb17a5a1-e025-4ec1-86d8-8ecd7ed7a95d","system_id":"levelo_inurba_marseille","lat":43.288501,"lon":5.393087,"is_reserved":false,"is_disabled":false,"rental_uris":{"android":"levelo://app?vid=fb17a5a1-e025-4ec1-86d8-8ecd7ed7a95d","ios":"levelo://app?vid=fb17a5a1-e025-4ec1-86d8-8ecd7ed7a95d"},"vehicle_type_id":"4","last_reported":1683493561,"current_range_meters":11600,"station_id":"ce4bh2p2rcd13ifvqdi0","pricing_plan_id":"free"},{"bike_id":"5d907570-bd05-40f0-ae18-b350c0f17f74","system_id":"levelo_inurba_marseille","lat":43.28837,"lon":5.39321,"is_reserved":false,"is_disabled":false,"rental_uris":{"android":"levelo://app?vid=5d907570-bd05-40f0-ae18-b350c0f17f74","ios":"levelo://app?vid=5d907570-bd05-40f0-ae18-b350c0f17f74"},"vehicle_type_id":"4","last_reported":1683493561,"current_range_meters":0,"station_id":"ce4bh2p2rcd13ifvqdi0","pricing_plan_id":"free"},{"bike_id":"a7d16136-c341-4e74-8c04-2e673b7ae374","system_id":"levelo_inurba_marseille","lat":43.28348,"lon":5.38103,"is_reserved":false,"is_disabled":false,"rental_uris":{"android":"levelo://app?vid=a7d16136-c341-4e74-8c04-2e673b7ae374","ios":"levelo://app?vid=a7d16136-c341-4e74-8c04-2e673b7ae374"},"vehicle_type_id":"4","last_reported":1683493561,"current_range_meters":0,"station_id":"ce4bh412rcd13ifvqdr0","pricing_plan_id":"free"},{"bike_id":"3c081c32-1a6b-44ae-a08c-b38766253b35","system_id":"levelo_inurba_marseille","lat":43.283498,"lon":5.380948,"is_reserved":false,"is_disabled":false,"rental_uris":{"android":"levelo://app?vid=3c081c32-1a6b-44ae-a08c-b38766253b35","ios":"levelo://app?vid=3c081c32-1a6b-44ae-a08c-b38766253b35"},"vehicle_type_id":"4","last_reported":1683493561,"current_range_meters":23600,"station_id":"ce4bh412rcd13ifvqdr0","pricing_plan_id":"free"},{"bike_id":"98b6d054-3ed6-4462-a75c-b36f2f2cc167","system_id":"levelo_inurba_marseille","lat":43.283498,"lon":5.380948,"is_reserved":false,"is_disabled":false,"rental_uris":{"android":"levelo://app?vid=98b6d054-3ed6-4462-a75c-b36f2f2cc167","ios":"levelo://app?vid=98b6d054-3ed6-4462-a75c-b36f2f2cc167"},"vehicle_type_id":"4","last_reported":1683493561,"current_range_meters":1200,"station_id":"ce4bh412rcd13ifvqdr0","pricing_plan_id":"free"},{"bike_id":"aaa538ff-e314-4b5f-81fb-34d132333bf6","system_id":"levelo_inurba_marseille","lat":43.28416,"lon":5.349653,"is_reserved":false,"is_disabled":false,"rental_uris":{"android":"levelo://app?vid=aaa538ff-e314-4b5f-81fb-34d132333bf6","ios":"levelo://app?vid=aaa538ff-e314-4b5f-81fb-34d132333bf6"},"vehicle_type_id":"4","last_reported":1683493561,"current_range_meters":2400,"station_id":"","pricing_plan_id":"free"},{"bike_id":"4ed83f42-e828-4eef-8af9-0b95cf4e6056","system_id":"levelo_inurba_marseille","lat":43.283502,"lon":5.386471,"is_reserved":false,"is_disabled":false,"rental_uris":{"android":"levelo://app?vid=4ed83f42-e828-4eef-8af9-0b95cf4e6056","ios":"levelo://app?vid=4ed83f42-e828-4eef-8af9-0b95cf4e6056"},"vehicle_type_id":"4","last_reported":1683493561,"current_range_meters":3200,"station_id":"ce4bh492rcd13ifvqdvg","pricing_plan_id":"free"},{"bike_id":"76242f32-c407-44d4-84d7-fa1d50b0f9dc","system_id":"levelo_inurba_marseille","lat":43.32444,"lon":5.40831,"is_reserved":false,"is_disabled":false,"rental_uris":{"android":"levelo://app?vid=76242f32-c407-44d4-84d7-fa1d50b0f9dc","ios":"levelo://app?vid=76242f32-c407-44d4-84d7-fa1d50b0f9dc"},"vehicle_type_id":"4","last_reported":1683493561,"current_range_meters":0,"station_id":"","pricing_plan_id":"free"},{"bike_id":"760d5255-da7b-4dfe-86fd-be76817057b2","system_id":"levelo_inurba_marseille","lat":43.283502,"lon":5.386471,"is_reserved":false,"is_disabled":false,"rental_uris":{"android":"levelo://app?vid=760d5255-da7b-4dfe-86fd-be76817057b2","ios":"levelo://app?vid=760d5255-da7b-4dfe-86fd-be76817057b2"},"vehicle_type_id":"4","last_reported":1683493561,"current_range_meters":2800,"station_id":"ce4bh492rcd13ifvqdvg","pricing_plan_id":"free"},{"bike_id":"3dbff5c2-d5b1-4b1a-8b55-0e27c45f2dc3","system_id":"levelo_inurba_marseille","lat":43.28035,"lon":5.36955,"is_reserved":false,"is_disabled":false,"rental_uris":{"android":"levelo://app?vid=3dbff5c2-d5b1-4b1a-8b55-0e27c45f2dc3","ios":"levelo://app?vid=3dbff5c2-d5b1-4b1a-8b55-0e27c45f2dc3"},"vehicle_type_id":"4","last_reported":1683493561,"current_range_meters":12800,"station_id":"ce4bha12rcd13ifvqef0","pricing_plan_id":"free"},{"bike_id":"b84972b2-7ac9-48ce-af3e-a1caa7a69dee","system_id":"levelo_inurba_marseille","lat":43.28353,"lon":5.38635,"is_reserved":false,"is_disabled":false,"rental_uris":{"android":"levelo://app?vid=b84972b2-7ac9-48ce-af3e-a1caa7a69dee","ios":"levelo://app?vid=b84972b2-7ac9-48ce-af3e-a1caa7a69dee"},"vehicle_type_id":"4","last_reported":1683493561,"current_range_meters":3200,"station_id":"","pricing_plan_id":"free"},{"bike_id":"10ec67f1-5e5e-4088-a824-f9a1faa29737","system_id":"levelo_inurba_marseille","lat":43.280382,"lon":5.369291,"is_reserved":false,"is_disabled":false,"rental_uris":{"android":"levelo://app?vid=10ec67f1-5e5e-4088-a824-f9a1faa29737","ios":"levelo://app?vid=10ec67f1-5e5e-4088-a824-f9a1faa29737"},"vehicle_type_id":"4","last_reported":1683493561,"current_range_meters":0,"station_id":"ce4bha12rcd13ifvqef0","pricing_plan_id":"free"},{"bike_id":"f3416562-4188-49ba-8bc1-a04091adb065","system_id":"levelo_inurba_marseille","lat":43.28104,"lon":5.37842,"is_reserved":false,"is_disabled":false,"rental_uris":{"android":"levelo://app?vid=f3416562-4188-49ba-8bc1-a04091adb065","ios":"levelo://app?vid=f3416562-4188-49ba-8bc1-a04091adb065"},"vehicle_type_id":"4","last_reported":1683493561,"current_range_meters":0,"station_id":"ce4bha12rcd13ifvqee0","pricing_plan_id":"free"},{"bike_id":"0f891f45-0312-4eeb-9a03-b11c9dee4779","system_id":"levelo_inurba_marseille","lat":43.296263,"lon":5.40601,"is_reserved":false,"is_disabled":false,"rental_uris":{"android":"levelo://app?vid=0f891f45-0312-4eeb-9a03-b11c9dee4779","ios":"levelo://app?vid=0f891f45-0312-4eeb-9a03-b11c9dee4779"},"vehicle_type_id":"4","last_reported":1683493561,"current_range_meters":2800,"station_id":"ce4bh0h2rcd13ifvqd60","pricing_plan_id":"free"},{"bike_id":"04ed7b83-1f77-4cec-847f-6d4bd9ccf03b","system_id":"levelo_inurba_marseille","lat":43.281044,"lon":5.378308,"is_reserved":false,"is_disabled":false,"rental_uris":{"android":"levelo://app?vid=04ed7b83-1f77-4cec-847f-6d4bd9ccf03b","ios":"levelo://app?vid=04ed7b83-1f77-4cec-847f-6d4bd9ccf03b"},"vehicle_type_id":"4","last_reported":1683493561,"current_range_meters":1200,"station_id":"ce4bha12rcd13ifvqee0","pricing_plan_id":"free"},{"bike_id":"764f54a3-4c37-447e-b95a-b3d502582bf2","system_id":"levelo_inurba_marseille","lat":43.296263,"lon":5.40601,"is_reserved":false,"is_disabled":false,"rental_uris":{"android":"levelo://app?vid=764f54a3-4c37-447e-b95a-b3d502582bf2","ios":"levelo://app?vid=764f54a3-4c37-447e-b95a-b3d502582bf2"},"vehicle_type_id":"4","last_reported":1683493561,"current_range_meters":9600,"station_id":"ce4bh0h2rcd13ifvqd60","pricing_plan_id":"free"},{"bike_id":"9fdc54a6-9be0-4bc3-86e3-9878b24faf11","system_id":"levelo_inurba_marseille","lat":43.296263,"lon":5.40601,"is_reserved":false,"is_disabled":false,"rental_uris":{"android":"levelo://app?vid=9fdc54a6-9be0-4bc3-86e3-9878b24faf11","ios":"levelo://app?vid=9fdc54a6-9be0-4bc3-86e3-9878b24faf11"},"vehicle_type_id":"4","last_reported":1683493561,"current_range_meters":17600,"station_id":"ce4bh0h2rcd13ifvqd60","pricing_plan_id":"free"},{"bike_id":"574f4082-fbde-4cb9-87da-c5f8e40c11b1","system_id":"levelo_inurba_marseille","lat":43.28089,"lon":5.37833,"is_reserved":false,"is_disabled":false,"rental_uris":{"android":"levelo://app?vid=574f4082-fbde-4cb9-87da-c5f8e40c11b1","ios":"levelo://app?vid=574f4082-fbde-4cb9-87da-c5f8e40c11b1"},"vehicle_type_id":"4","last_reported":1683493561,"current_range_meters":2400,"station_id":"ce4bha12rcd13ifvqee0","pricing_plan_id":"free"},{"bike_id":"6b54b293-8eed-4038-bb4a-91c6704d19d2","system_id":"levelo_inurba_marseille","lat":43.28089,"lon":5.37846,"is_reserved":false,"is_disabled":false,"rental_uris":{"android":"levelo://app?vid=6b54b293-8eed-4038-bb4a-91c6704d19d2","ios":"levelo://app?vid=6b54b293-8eed-4038-bb4a-91c6704d19d2"},