{"last_updated":1704953412,"ttl":30,"version":"2.2","data":{"bikes":[{"bike_id":"ea833814-08a4-46f3-9734-1ebaa4bfd0cd","system_id":"levelo_inurba_marseille","lat":43.313391,"lon":5.36706,"is_reserved":false,"is_disabled":false,"rental_uris":{"android":"levelo://app?vid=ea833814-08a4-46f3-9734-1ebaa4bfd0cd","ios":"levelo://app?vid=ea833814-08a4-46f3-9734-1ebaa4bfd0cd"},"vehicle_type_id":"4","last_reported":1704953413,"current_range_meters":28800,"station_id":"ce4bgr92rcd13ifvqc6g","pricing_plan_id":"free"},{"bike_id":"a4582dc0-d8ee-4d1b-a4ba-f9d2a95e8afa","system_id":"levelo_inurba_marseille","lat":43.31341,"lon":5.367098,"is_reserved":false,"is_disabled":false,"rental_uris":{"android":"levelo://app?vid=a4582dc0-d8ee-4d1b-a4ba-f9d2a95e8afa","ios":"levelo://app?vid=a4582dc0-d8ee-4d1b-a4ba-f9d2a95e8afa"},"vehicle_type_id":"4","last_reported":1704953413,"current_range_meters":30000,"station_id":"ce4bgr92rcd13ifvqc6g","pricing_plan_id":"free"},{"bike_id":"b3de1fc5-7cbf-4826-96a5-b1d4643dcc36","system_id":"levelo_inurba_marseille","lat":43.312239,"lon":5.368562,"is_reserved":false,"is_disabled":false,"rental_uris":{"android":"levelo://app?vid=b3de1fc5-7cbf-4826-96a5-b1d4643dcc36","ios":"levelo://app?vid=b3de1fc5-7cbf-4826-96a5-b1d4643dcc36"},"vehicle_type_id":"4","last_reported":1704953413,"current_range_meters":29600,"station_id":"ce4bgl92rcd13ifvqbq0","pricing_plan_id":"free"},{"bike_id":"b144e96c-9376-4249-b30a-ac75c1ab783b","system_id":"levelo_inurba_marseille","lat":43.309076,"lon":5.368465,"is_reserved":false,"is_disabled":false,"rental_uris":{"android":"levelo://app?vid=b144e96c-9376-4249-b30a-ac75c1ab783b","ios":"levelo://app?vid=b144e96c-9376-4249-b30a-ac75c1ab783b"},"vehicle_type_id":"4","last_reported":1704953413,"current_range_meters":30400,"station_id":"ce4bgn92rcd13ifvqbvg","pricing_plan_id":"free"},{"bike_id":"a18c9f18-dd23-4fa3-ae4c-750a813ec2dd","system_id":"levelo_inurba_marseille","lat":43.313671,"lon":5.373407,"is_reserved":false,"is_disabled":false,"rental_uris":{"android":"levelo://app?vid=a18c9f18-dd23-4fa3-ae4c-750a813ec2dd","ios":"levelo://app?vid=a18c9f18-dd23-4fa3-ae4c-750a813ec2dd"},"vehicle_type_id":"4","last_reported":1704953413,"current_range_meters":0,"station_id":"","pricing_plan_id":"free"},{"bike_id":"c95dc28e-5086-475c-b07e-8f5a2cfb01f3","system_id":"levelo_inurba_marseille","lat":43.314811,"lon":5.373104,"is_reserved":false,"is_disabled":false,"rental_uris":{"android":"levelo://app?vid=c95dc28e-5086-475c-b07e-8f5a2cfb01f3","ios":"levelo://app?vid=c95dc28e-5086-475c-b07e-8f5a2cfb01f3"},"vehicle_type_id":"4","last_reported":1704953413,"current_range_meters":28800,"station_id":"ce4bgt12rcd13ifvqcd0","pricing_plan_id":"free"},{"bike_id":"436c442e-ff76-4474-8f52-9a44458c32d0","system_id":"levelo_inurba_marseille","lat":43.314811,"lon":5.373103,"is_reserved":false,"is_disabled":false,"rental_uris":{"android":"levelo://app?vid=436c442e-ff76-4474-8f52-9a44458c32d0","ios":"levelo://app?vid=436c442e-ff76-4474-8f52-9a44458c32d0"},"vehicle_type_id":"4","last_reported":1704953413,"current_range_meters":27200,"station_id":"ce4bgt12rcd13ifvqcd0","pricing_plan_id":"free"},{"bike_id":"35237119-e23c-40e7-b051-ed055c93e41a","system_id":"levelo_inurba_marseille","lat":43.314816,"lon":5.373128,"is_reserved":false,"is_disabled":false,"rental_uris":{"android":"levelo://app?vid=35237119-e23c-40e7-b051-ed055c93e41a","ios":"levelo://app?vid=35237119-e23c-40e7-b051-ed055c93e41a"},"vehicle_type_id":"4","last_reported":1704953413,"current_range_meters":23200,"station_id":"ce4bgt12rcd13ifvqcd0","pricing_plan_id":"free"},{"bike_id":"7580c04c-b1a8-4fb3-a01e-aa277d36f351","system_id":"levelo_inurba_marseille","lat":43.314811,"lon":5.373104,"is_reserved":false,"is_disabled":false,"rental_uris":{"android":"levelo://app?vid=7580c04c-b1a8-4fb3-a01e-aa277d36f351","ios":"levelo://app?vid=7580c04c-b1a8-4fb3-a01e-aa277d36f351"},"vehicle_type_id":"4","last_reported":1704953413,"current_range_meters":30400,"station_id":"ce4bgt12rcd13ifvqcd0","pricing_plan_id":"free"},{"bike_id":"7b3b699f-3f99-4e35-89af-d56ef1f73cc7","system_id":"levelo_inurba_marseille","lat":43.31531,"lon":5.37284,"is_reserved":false,"is_disabled":false,"rental_uris":{"android":"levelo://app?vid=7b3b699f-3f99-4e35-89af-d56ef1f73cc7","ios":"levelo://app?vid=7b3b699f-3f99-4e35-89af-d56ef1f73cc7"},"vehicle_type_id":"4","last_reported":1704953413,"current_range_meters":16800,"station_id":"","pricing_plan_id":"free"},{"bike_id":"8c27bdc6-b4c1-4493-80aa-24139a394060","system_id":"levelo_inurba_marseille","lat":43.308839,"lon":5.371995,"is_reserved":false,"is_disabled":false,"rental_uris":{"android":"levelo://app?vid=8c27bdc6-b4c1-4493-80aa-24139a394060","ios":"levelo://app?vid=8c27bdc6-b4c1-4493-80aa-24139a394060"},"vehicle_type_id":"4","last_reported":1704953413,"current_range_meters":20400,"station_id":"ce4bguh2rcd13ifvqckg","pricing_plan_id":"free"},{"bike_id":"8366c239-9e60-4638-9ecf-a6134a18faf2","system_id":"levelo_inurba_marseille","lat":43.30537,"lon":5.367345,"is_reserved":false,"is_disabled":false,"rental_uris":{"android":"levelo://app?vid=8366c239-9e60-4638-9ecf-a6134a18faf2","ios":"levelo://app?vid=8366c239-9e60-4638-9ecf-a6134a18faf2"},"vehicle_type_id":"4","last_reported":1704953413,"current_range_meters":23600,"station_id":"ce4bgrp2rcd13ifvqc9g","pricing_plan_id":"free"},{"bike_id":"1c8b6cf4-dd0f-4949-b970-90fc3cac3ac9","system_id":"levelo_inurba_marseille","lat":43.305714,"lon":5.365633,"is_reserved":false,"is_disabled":false,"rental_uris":{"android":"levelo://app?vid=1c8b6cf4-dd0f-4949-b970-90fc3cac3ac9","ios":"levelo://app?vid=1c8b6cf4-dd0f-4949-b970-90fc3cac3ac9"},"vehicle_type_id":"4","last_reported":1704953413,"current_range_meters":29200,"station_id":"ce4bgs12rcd13ifvqcag","pricing_plan_id":"free"},{"bike_id":"fe619ca6-b7fd-4459-8997-1980627a97fa","system_id":"levelo_inurba_marseille","lat":43.305989,"lon":5.37225,"is_reserved":false,"is_disabled":false,"rental_uris":{"android":"levelo://app?vid=fe619ca6-b7fd-4459-8997-1980627a97fa","ios":"levelo://app?vid=fe619ca6-b7fd-4459-8997-1980627a97fa"},"vehicle_type_id":"4","last_reported":1704953413,"current_range_meters":29600,"station_id":"ce4bgqh2rcd13ifvqc4g","pricing_plan_id":"free"},{"bike_id":"ca26e421-bd09-40c9-96d0-4494b7c405fd","system_id":"levelo_inurba_marseille","lat":43.305989,"lon":5.37225,"is_reserved":false,"is_disabled":false,"rental_uris":{"android":"levelo://app?vid=ca26e421-bd09-40c9-96d0-4494b7c405fd","ios":"levelo://app?vid=ca26e421-bd09-40c9-96d0-4494b7c405fd"},"vehicle_type_id":"4","last_reported":1704953413,"current_range_meters":30400,"station_id":"ce4bgqh2rcd13ifvqc4g","pricing_plan_id":"free"},{"bike_id":"8c32bfec-d7dc-4f6c-85f5-47b2fca0ddb4","system_id":"levelo_inurba_marseille","lat":43.311125,"lon":5.377624,"is_reserved":false,"is_disabled":false,"rental_uris":{"android":"levelo://app?vid=8c32bfec-d7dc-4f6c-85f5-47b2fca0ddb4","ios":"levelo://app?vid=8c32bfec-d7dc-4f6c-85f5-47b2fca0ddb4"},"vehicle_type_id":"4","last_reported":1704953413,"current_range_meters":4400,"station_id":"ce4bgt92rcd13ifvqcg0","pricing_plan_id":"free"},{"bike_id":"b2ef9d98-ec37-4a8b-8c5e-b8b09150d9ea","system_id":"levelo_inurba_marseille","lat":43.311125,"lon":5.377624,"is_reserved":false,"is_disabled":false,"rental_uris":{"android":"levelo://app?vid=b2ef9d98-ec37-4a8b-8c5e-b8b09150d9ea","ios":"levelo://app?vid=b2ef9d98-ec37-4a8b-8c5e-b8b09150d9ea"},"vehicle_type_id":"4","last_reported":1704953413,"current_range_meters":17600,"station_id":"ce4bgt92rcd13ifvqcg0","pricing_plan_id":"free"},{"bike_id":"4eb43975-f9cf-44f5-956e-777524fb934a","system_id":"levelo_inurba_marseille","lat":43.311125,"lon":5.377624,"is_reserved":false,"is_disabled":false,"rental_uris":{"android":"levelo://app?vid=4eb43975-f9cf-44f5-956e-777524fb934a","ios":"levelo://app?vid=4eb43975-f9cf-44f5-956e-777524fb934a"},"vehicle_type_id":"4","last_reported":1704953413,"current_range_meters":13200,"station_id":"ce4bgt92rcd13ifvqcg0","pricing_plan_id":"free"},{"bike_id":"2654c37c-6ead-4825-8220-ae4b346b9a9b","system_id":"levelo_inurba_marseille","lat":43.311125,"lon":5.377624,"is_reserved":false,"is_disabled":false,"rental_uris":{"android":"levelo://app?vid=2654c37c-6ead-4825-8220-ae4b346b9a9b","ios":"levelo://app?vid=2654c37c-6ead-4825-8220-ae4b346b9a9b"},"vehicle_type_id":"4","last_reported":1704953413,"current_range_meters":24000,"station_id":"ce4bgt92rcd13ifvqcg0","pricing_plan_id":"free"},{"bike_id":"e4f5d136-07af-4aa5-a170-c9e5cd65df30","system_id":"levelo_inurba_marseille","lat":43.31118,"lon":5.37778,"is_reserved":false,"is_disabled":false,"rental_uris":{"android":"levelo://app?vid=e4f5d136-07af-4aa5-a170-c9e5cd65df30","ios":"levelo://app?vid=e4f5d136-07af-4aa5-a170-c9e5cd65df30"},"vehicle_type_id":"4","last_reported":1704953413,"current_range_meters":9600,"station_id":"ce4bgt92rcd13ifvqcg0","pricing_plan_id":"free"},{"bike_id":"44aee156-e007-4d1c-a22b-9f1658fbc41c","system_id":"levelo_inurba_marseille","lat":43.311125,"lon":5.377624,"is_reserved":false,"is_disabled":false,"rental_uris":{"android":"levelo://app?vid=44aee156-e007-4d1c-a22b-9f1658fbc41c","ios":"levelo://app?vid=44aee156-e007-4d1c-a22b-9f1658fbc41c"},"vehicle_type_id":"4","last_reported":1704953413,"current_range_meters":28000,"station_id":"ce4bgt92rcd13ifvqcg0","pricing_plan_id":"free"},{"bike_id":"ce08549d-fa28-4656-85c3-fde50760d348","system_id":"levelo_inurba_marseille","lat":43.307945,"lon":5.376487,"is_reserved":false,"is_disabled":false,"rental_uris":{"android":"levelo://app?vid=ce08549d-fa28-4656-85c3-fde50760d348","ios":"levelo://app?vid=ce08549d-fa28-4656-85c3-fde50760d348"},"vehicle_type_id":"4","last_reported":1704953413,"current_range_meters":31600,"station_id":"ce4bgv92rcd13ifvqcq0","pricing_plan_id":"free"},{"bike_id":"19a40430-5f41-4a88-88f9-9a2a0e56538b","system_id":"levelo_inurba_marseille","lat":43.307945,"lon":5.376487,"is_reserved":false,"is_disabled":false,"rental_uris":{"android":"levelo://app?vid=19a40430-5f41-4a88-88f9-9a2a0e56538b","ios":"levelo://app?vid=19a40430-5f41-4a88-88f9-9a2a0e56538b"},"vehicle_type_id":"4","last_reported":1704953413,"current_range_meters":19200,"station_id":"ce4bgv92rcd13ifvqcq0","pricing_plan_id":"free"},{"bike_id":"396c2fcd-c037-48e7-817e-626ab624579c","system_id":"levelo_inurba_marseille","lat":43.307945,"lon":5.376487,"is_reserved":false,"is_disabled":false,"rental_uris":{"android":"levelo://app?vid=396c2fcd-c037-48e7-817e-626ab624579c","ios":"levelo://app?vid=396c2fcd-c037-48e7-817e-626ab624579c"},"vehicle_type_id":"4","last_reported":1704953413,"current_range_meters":30800,"station_id":"ce4bgv92rcd13ifvqcq0","pricing_plan_id":"free"},{"bike_id":"76214b38-9e6e-4bad-96c1-613e7fe752be","system_id":"levelo_inurba_marseille","lat":43.316979,"lon":5.377399,"is_reserved":false,"is_disabled":false,"rental_uris":{"android":"levelo://app?vid=76214b38-9e6e-4bad-96c1-613e7fe752be","ios":"levelo://app?vid=76214b38-9e6e-4bad-96c1-613e7fe752be"},"vehicle_type_id":"4","last_reported":1704953413,"current_range_meters":0,"station_id":"ce4bgth2rcd13ifvqch0","pricing_plan_id":"free"},{"bike_id":"6037dcd5-149c-4903-b2fd-d261e491b3b8","system_id":"levelo_inurba_marseille","lat":43.317075,"lon":5.377367,"is_reserved":false,"is_disabled":false,"rental_uris":{"android":"levelo://app?vid=6037dcd5-149c-4903-b2fd-d261e491b3b8","ios":"levelo://app?vid=6037dcd5-149c-4903-b2fd-d261e491b3b8"},"vehicle_type_id":"4","last_reported":1704953413,"current_range_meters":13600,"station_id":"ce4bgth2rcd13ifvqch0","pricing_plan_id":"free"},{"bike_id":"283ebd00-f78e-4917-a4db-af5780b5052f","system_id":"levelo_inurba_marseille","lat":43.317075,"lon":5.377367,"is_reserved":false,"is_disabled":false,"rental_uris":{"android":"levelo://app?vid=283ebd00-f78e-4917-a4db-af5780b5052f","ios":"levelo://app?vid=283ebd00-f78e-4917-a4db-af5780b5052f"},"vehicle_type_id":"4","last_reported":1704953413,"current_range_meters":0,"station_id":"ce4bgth2rcd13ifvqch0","pricing_plan_id":"free"},{"bike_id":"4fb6c33f-6a2d-4cb9-b5f5-71a4f8b0b1b3","system_id":"levelo_inurba_marseille","lat":43.317075,"lon":5.377367,"is_reserved":false,"is_disabled":false,"rental_uris":{"android":"levelo://app?vid=4fb6c33f-6a2d-4cb9-b5f5-71a4f8b0b1b3","ios":"levelo://app?vid=4fb6c33f-6a2d-4cb9-b5f5-71a4f8b0b1b3"},"vehicle_type_id":"4","last_reported":1704953413,"current_range_meters":26400,"station_id":"ce4bgth2rcd13ifvqch0","pricing_plan_id":"free"},{"bike_id":"b4da2091-f4a7-4f37-85f0-8632431b8674","system_id":"levelo_inurba_marseille","lat":43.317075,"lon":5.377367,"is_reserved":false,"is_disabled":false,"rental_uris":{"android":"levelo://app?vid=b4da2091-f4a7-4f37-85f0-8632431b8674","ios":"levelo://app?vid=b4da2091-f4a7-4f37-85f0-8632431b8674"},"vehicle_type_id":"4","last_reported":1704953413,"current_range_meters":29600,"station_id":"ce4bgth2rcd13ifvqch0","pricing_plan_id":"free"},{"bike_id":"4d461b85-1a0e-4623-8399-e9448b273b12","system_id":"levelo_inurba_marseille","lat":43.317075,"lon":5.377367,"is_reserved":false,"is_disabled":false,"rental_uris":{"android":"levelo://app?vid=4d461b85-1a0e-4623-8399-e9448b273b12","ios":"levelo://app?vid=4d461b85-1a0e-4623-8399-e9448b273b12"},"vehicle_type_id":"4","last_reported":1704953413,"current_range_meters":31600,"station_id":"ce4bgth2rcd13ifvqch0","pricing_plan_id":"free"},{"bike_id":"4703778a-a799-41e5-b078-4160f07f1fec","system_id":"levelo_inurba_marseille","lat":43.317075,"lon":5.377367,"is_reserved":false,"is_disabled":false,"rental_uris":{"android":"levelo://app?vid=4703778a-a799-41e5-b078-4160f07f1fec","ios":"levelo://app?vid=4703778a-a799-41e5-b078-4160f07f1fec"},"vehicle_type_id":"4","last_reported":1704953413,"current_range_meters":24000,"station_id":"ce4bgth2rcd13ifvqch0","pricing_plan_id":"free"},{"bike_id":"8a1bf153-6f2d-4c4d-9a8e-2406e061f134","system_id":"levelo_inurba_marseille","lat":43.303046,"lon":5.368981,"is_reserved":false,"is_disabled":false,"rental_uris":{"android":"levelo://app?vid=8a1bf153-6f2d-4c4d-9a8e-2406e061f134","ios":"levelo://app?vid=8a1bf153-6f2d-4c4d-9a8e-2406e061f134"},"vehicle_type_id":"4","last_reported":1704953413,"current_range_meters":29200,"station_id":"ce4bgqh2rcd13ifvqc5g","pricing_plan_id":"free"},{"bike_id":"472e919b-3e22-406a-8126-940f113c395c","system_id":"levelo_inurba_marseille","lat":43.31542,"lon":5.38036,"is_reserved":false,"is_disabled":false,"rental_uris":{"android":"levelo://app?vid=472e919b-3e22-406a-8126-940f113c395c","ios":"levelo://app?vid=472e919b-3e22-406a-8126-940f113c395c"},"vehicle_type_id":"4","last_reported":1704953413,"current_range_meters":23200,"station_id":"ce4bhsp2rcd13ifvqi50","pricing_plan_id":"free"},{"bike_id":"0615184a-5edd-44ee-a1ce-4a27309bfb26","system_id":"levelo_inurba_marseille","lat":43.301939,"lon":5.366286,"is_reserved":false,"is_disabled":false,"rental_uris":{"android":"levelo://app?vid=0615184a-5edd-44ee-a1ce-4a27309bfb26","ios":"levelo://app?vid=0615184a-5edd-44ee-a1ce-4a27309bfb26"},"vehicle_type_id":"4","last_reported":1704953413,"current_range_meters":28000,"station_id":"ce4bgrh2rcd13ifvqc8g","pricing_plan_id":"free"},{"bike_id":"3ca11ef6-ace5-42cb-8574-03936f2f7968","system_id":"levelo_inurba_marseille","lat":43.301939,"lon":5.366286,"is_reserved":false,"is_disabled":false,"rental_uris":{"android":"levelo://app?vid=3ca11ef6-ace5-42cb-8574-03936f2f7968","ios":"levelo://app?vid=3ca11ef6-ace5-42cb-8574-03936f2f7968"},"vehicle_type_id":"4","last_reported":1704953413,"current_range_meters":30000,"station_id":"ce4bgrh2rcd13ifvqc8g","pricing_plan_id":"free"},{"bike_id":"543f9614-5fcf-4181-8d3b-6fbb45200373","system_id":"levelo_inurba_marseille","lat":43.308012,"lon":5.381511,"is_reserved":false,"is_disabled":false,"rental_uris":{"android":"levelo://app?vid=543f9614-5fcf-4181-8d3b-6fbb45200373","ios":"levelo://app?vid=543f9614-5fcf-4181-8d3b-6fbb45200373"},"vehicle_type_id":"4","last_reported":1704953413,"current_range_meters":28400,"station_id":"ce4bgt12rcd13ifvqce0","pricing_plan_id":"free"},{"bike_id":"5272b0fb-c460-455e-8cb5-3bb167cfd5ec","system_id":"levelo_inurba_marseille","lat":43.304606,"lon":5.379026,"is_reserved":false,"is_disabled":false,"rental_uris":{"android":"levelo://app?vid=5272b0fb-c460-455e-8cb5-3bb167cfd5ec","ios":"levelo://app?vid=5272b0fb-c460-455e-8cb5-3bb167cfd5ec"},"vehicle_type_id":"4","last_reported":1704953413,"current_range_meters":19600,"station_id":"ce4bgup2rcd13ifvqcn0","pricing_plan_id":"free"},{"bike_id":"1f870116-b2d4-4ef6-91b7-023cb8587099","system_id":"levelo_inurba_marseille","lat":43.300827,"lon":5.365856,"is_reserved":false,"is_disabled":false,"rental_uris":{"android":"levelo://app?vid=1f870116-b2d4-4ef6-91b7-023cb8587099","ios":"levelo://app?vid=1f870116-b2d4-4ef6-91b7-023cb8587099"},"vehicle_type_id":"4","last_reported":1704953413,"current_range_meters":10000,"station_id":"","pricing_plan_id":"free"},{"bike_id":"cfcb89df-1d17-45c5-a886-47a458658d94","system_id":"levelo_inurba_marseille","lat":43.304606,"lon":5.379026,"is_reserved":false,"is_disabled":false,"rental_uris":{"android":"levelo://app?vid=cfcb89df-1d17-45c5-a886-47a458658d94","ios":"levelo://app?vid=cfcb89df-1d17-45c5-a886-47a458658d94"},"vehicle_type_id":"4","last_reported":1704953413,"current_range_meters":5200,"station_id":"ce4bgup2rcd13ifvqcn0","pricing_plan_id":"free"},{"bike_id":"e6db7613-eaae-4afb-bf75-3df7acfce76e","system_id":"levelo_inurba_marseille","lat":43.304606,"lon":5.379026,"is_reserved":false,"is_disabled":false,"rental_uris":{"android":"levelo://app?vid=e6db7613-eaae-4afb-bf75-3df7acfce76e","ios":"levelo://app?vid=e6db7613-eaae-4afb-bf75-3df7acfce76e"},"vehicle_type_id":"4","last_reported":1704953413,"current_range_meters":27600,"station_id":"ce4bgup2rcd13ifvqcn0","pricing_plan_id":"free"},{"bike_id":"9536c39c-8669-46b9-8936-81a5da4de3cc","system_id":"levelo_inurba_marseille","lat":43.304606,"lon":5.379026,"is_reserved":false,"is_disabled":false,"rental_uris":{"android":"levelo://app?vid=9536c39c-8669-46b9-8936-81a5da4de3cc","ios":"levelo://app?vid=9536c39c-8669-46b9-8936-81a5da4de3cc"},"vehicle_type_id":"4","last_reported":1704953413,"current_range_meters":29200,"station_id":"ce4bgup2rcd13ifvqcn0","pricing_plan_id":"free"},{"bike_id":"111055fb-7c6d-45fa-9eaa-35fe9f6a1c04","system_id":"levelo_inurba_marseille","lat":43.304606,"lon":5.379026,"is_reserved":false,"is_disabled":false,"rental_uris":{"android":"levelo://app?vid=111055fb-7c6d-45fa-9eaa-35fe9f6a1c04","ios":"levelo://app?vid=111055fb-7c6d-45fa-9eaa-35fe9f6a1c04"},"vehicle_type_id":"4","last_reported":1704953413,"current_range_meters":17600,"station_id":"ce4bgup2rcd13ifvqcn0","pricing_plan_id":"free"},{"bike_id":"2ddb835c-2e8c-45c4-a453-96db3859a699","system_id":"levelo_inurba_marseille","lat":43.304606,"lon":5.379026,"is_reserved":false,"is_disabled":false,"rental_uris":{"android":"levelo://app?vid=2ddb835c-2e8c-45c4-a453-96db3859a699","ios":"levelo://app?vid=2ddb835c-2e8c-45c4-a453-96db3859a699"},"vehicle_type_id":"4","last_reported":1704953413,"current_range_meters":22000,"station_id":"ce4bgup2rcd13ifvqcn0","pricing_plan_id":"free"},{"bike_id":"d70eb329-5c09-4083-bf2c-cd779dc29c0f","system_id":"levelo_inurba_marseille","lat":43.304606,"lon":5.379026,"is_reserved":false,"is_disabled":false,"rental_uris":{"android":"levelo://app?vid=d70eb329-5c09-4083-bf2c-cd779dc29c0f","ios":"levelo://app?vid=d70eb329-5c09-4083-bf2c-cd779dc29c0f"},"vehicle_type_id":"4","last_reported":1704953413,"current_range_meters":6400,"station_id":"ce4bgup2rcd13ifvqcn0","pricing_plan_id":"free"},{"bike_id":"0eefff6e-1191-4a63-b300-59ef764b0a0d","system_id":"levelo_inurba_marseille","lat":43.304606,"lon":5.379026,"is_reserved":false,"is_disabled":false,"rental_uris":{"android":"levelo://app?vid=0eefff6e-1191-4a63-b300-59ef764b0a0d","ios":"levelo://app?vid=0eefff6e-1191-4a63-b300-59ef764b0a0d"},"vehicle_type_id":"4","last_reported":1704953413,"current_range_meters":22000,"station_id":"ce4bgup2rcd13ifvqcn0","pricing_plan_id":"free"},{"bike_id":"8e9f7d45-4c91-4a9f-889d-998e83827cca","system_id":"levelo_inurba_marseille","lat":43.304606,"lon":5.379026,"is_reserved":false,"is_disabled":false,"rental_uris":{"android":"levelo://app?vid=8e9f7d45-4c91-4a9f-889d-998e83827cca","ios":"levelo://app?vid=8e9f7d45-4c91-4a9f-889d-998e83827cca"},"vehicle_type_id":"4","last_reported":1704953413,"current_range_meters":1600,"station_id":"ce4bgup2rcd13ifvqcn0","pricing_plan_id":"free"},{"bike_id":"592186ea-9749-4077-a128-39abeba103d1","system_id":"levelo_inurba_marseille","lat":43.32476,"lon":5.365634,"is_reserved":false,"is_disabled":false,"rental_uris":{"android":"levelo://app?vid=592186ea-9749-4077-a128-39abeba103d1","ios":"levelo://app?vid=592186ea-9749-4077-a128-39abeba103d1"},"vehicle_type_id":"4","last_reported":1704953413,"current_range_meters":30000,"station_id":"ce4bhs12rcd13ifvqhvg","pricing_plan_id":"free"},{"bike_id":"f9af1cff-dfbf-4c8d-a304-21db09a5c3eb","system_id":"levelo_inurba_marseille","lat":43.304606,"lon":5.379026,"is_reserved":false,"is_disabled":false,"rental_uris":{"android":"levelo://app?vid=f9af1cff-dfbf-4c8d-a304-21db09a5c3eb","ios":"levelo://app?vid=f9af1cff-dfbf-4c8d-a304-21db09a5c3eb"},"vehicle_type_id":"4","last_reported":1704953413,"current_range_meters":28400,"station_id":"ce4bgup2rcd13ifvqcn0","pricing_plan_id":"free"},{"bike_id":"5e2c9d6a-6f8a-49b5-bc98-a2690a4ce8d4","system_id":"levelo_inurba_marseille","lat":43.302849,"lon":5.376924,"is_reserved":false,"is_disabled":false,"rental_uris":{"android":"levelo://app?vid=5e2c9d6a-6f8a-49b5-bc98-a2690a4ce8d4","ios":"levelo://app?vid=5e2c9d6a-6f8a-49b5-bc98-a2690a4ce8d4"},"vehicle_type_id":"4","last_reported":1704953413,"current_range_meters":30800,"station_id":"","pricing_plan_id":"free"},{"bike_id":"00e3bdca-d528-41a5-a675-0e304c1e98df","system_id":"levelo_inurba_marseille","lat":43.30279,"lon":5.37719,"is_reserved":false,"is_disabled":false,"rental_uris":{"android":"levelo://app?vid=00e3bdca-d528-41a5-a675-0e304c1e98df","ios":"levelo://app?vid=00e3bdca-d528-41a5-a675-0e304c1e98df"},"vehicle_type_id":"4","last_reported":1704953413,"current_range_meters":22800,"station_id":"","pricing_plan_id":"free"},{"bike_id":"9c147b05-afe2-4eec-a1c3-4085cf638936","system_id":"levelo_inurba_marseille","lat":43.319958,"lon":5.381474,"is_reserved":false,"is_disabled":false,"rental_uris":{"android":"levelo://app?vid=9c147b05-afe2-4eec-a1c3-4085cf638936","ios":"levelo://app?vid=9c147b05-afe2-4eec-a1c3-4085cf638936"},"vehicle_type_id":"4","last_reported":1704953413,"current_range_meters":14400,"station_id":"ce4bhr12rcd13ifvqhpg","pricing_plan_id":"free"},{"bike_id":"f8610476-36bf-463a-848b-e94b63a4af72","system_id":"levelo_inurba_marseille","lat":43.319961,"lon":5.38148,"is_reserved":false,"is_disabled":false,"rental_uris":{"android":"levelo://app?vid=f8610476-36bf-463a-848b-e94b63a4af72","ios":"levelo://app?vid=f8610476-36bf-463a-848b-e94b63a4af72"},"vehicle_type_id":"4","last_reported":1704953413,"current_range_meters":18400,"station_id":"ce4bhr12rcd13ifvqhpg","pricing_plan_id":"free"},{"bike_id":"99d3f481-c70e-4d1c-9ab8-aac121e1bbd9","system_id":"levelo_inurba_marseille","lat":43.319975,"lon":5.381499,"is_reserved":false,"is_disabled":false,"rental_uris":{"android":"levelo://app?vid=99d3f481-c70e-4d1c-9ab8-aac121e1bbd9","ios":"levelo://app?vid=99d3f481-c70e-4d1c-9ab8-aac121e1bbd9"},"vehicle_type_id":"4","last_reported":1704953413,"current_range_meters":15200,"station_id":"ce4bhr12rcd13ifvqhpg","pricing_plan_id":"free"},{"bike_id":"3a16ab57-e2ba-4f1f-867c-5fc1ab3030c0","system_id":"levelo_inurba_marseille","lat":43.319954,"lon":5.381531,"is_reserved":false,"is_disabled":false,"rental_uris":{"android":"levelo://app?vid=3a16ab57-e2ba-4f1f-867c-5fc1ab3030c0","ios":"levelo://app?vid=3a16ab57-e2ba-4f1f-867c-5fc1ab3030c0"},"vehicle_type_id":"4","last_reported":1704953413,"current_range_meters":23200,"station_id":"ce4bhr12rcd13ifvqhpg","pricing_plan_id":"free"},{"bike_id":"61b6e789-e42a-49ea-8476-56c4fc9f3a54","system_id":"levelo_inurba_marseille","lat":43.313571,"lon":5.384829,"is_reserved":false,"is_disabled":false,"rental_uris":{"android":"levelo://app?vid=61b6e789-e42a-49ea-8476-56c4fc9f3a54","ios":"levelo://app?vid=61b6e789-e42a-49ea-8476-56c4fc9f3a54"},"vehicle_type_id":"4","last_reported":1704953413,"current_range_meters":16000,"station_id":"ce4bgt92rcd13ifvqcf0","pricing_plan_id":"free"},{"bike_id":"8a979d46-7528-481b-9aca-ac22f65d3b4f","system_id":"levelo_inurba_marseille","lat":43.313571,"lon":5.384829,"is_reserved":false,"is_disabled":false,"rental_uris":{"android":"levelo://app?vid=8a979d46-7528-481b-9aca-ac22f65d3b4f","ios":"levelo://app?vid=8a979d46-7528-481b-9aca-ac22f65d3b4f"},"vehicle_type_id":"4","last_reported":1704953413,"current_range_meters":31600,"station_id":"ce4bgt92rcd13ifvqcf0","pricing_plan_id":"free"},{"bike_id":"0416c4ed-9645-4bcd-a30b-948e8762d814","system_id":"levelo_inurba_marseille","lat":43.313571,"lon":5.384829,"is_reserved":false,"is_disabled":false,"rental_uris":{"android":"levelo://app?vid=0416c4ed-9645-4bcd-a30b-948e8762d814","ios":"levelo://app?vid=0416c4ed-9645-4bcd-a30b-948e8762d814"},"vehicle_type_id":"4","last_reported":1704953413,"current_range_meters":28800,"station_id":"ce4bgt92rcd13ifvqcf0","pricing_plan_id":"free"},{"bike_id":"ded53ec8-a354-467f-85cb-285b2579f623","system_id":"levelo_inurba_marseille","lat":43.299222,"lon":5.365554,"is_reserved":false,"is_disabled":false,"rental_uris":{"android":"levelo://app?vid=ded53ec8-a354-467f-85cb-285b2579f623","ios":"levelo://app?vid=ded53ec8-a354-467f-85cb-285b2579f623"},"vehicle_type_id":"4","last_reported":1704953413,"current_range_meters":19200,"station_id":"ce4bgm92rcd13ifvqbr0","pricing_plan_id":"free"},{"bike_id":"ec662df7-7155-4c75-8556-d22ff97d93d4","system_id":"levelo_inurba_marseille","lat":43.299727,"lon":5.37178,"is_reserved":false,"is_disabled":false,"rental_uris":{"android":"levelo://app?vid=ec662df7-7155-4c75-8556-d22ff97d93d4","ios":"levelo://app?vid=ec662df7-7155-4c75-8556-d22ff97d93d4"},"vehicle_type_id":"4","last_reported":1704953413,"current_range_meters":28000,"station_id":"ce4bgr92rcd13ifvqc7g","pricing_plan_id":"free"},{"bike_id":"5e3ae350-92fc-4f1a-91e5-fca6c6157e9c","system_id":"levelo_inurba_marseille","lat":43.314305,"lon":5.385497,"is_reserved":false,"is_disabled":false,"rental_uris":{"android":"levelo://app?vid=5e3ae350-92fc-4f1a-91e5-fca6c6157e9c","ios":"levelo://app?vid=5e3ae350-92fc-4f1a-91e5-fca6c6157e9c"},"vehicle_type_id":"4","last_reported":1704953413,"current_range_meters":6000,"station_id":"","pricing_plan_id":"free"},{"bike_id":"ec4a1ccd-83a8-4651-aacc-fb581fb50f6c","system_id":"levelo_inurba_marseille","lat":43.299243,"lon":5.374807,"is_reserved":false,"is_disabled":false,"rental_uris":{"android":"levelo://app?vid=ec4a1ccd-83a8-4651-aacc-fb581fb50f6c","ios":"levelo://app?vid=ec4a1ccd-83a8-4651-aacc-fb581fb50f6c"},"vehicle_type_id":"4","last_reported":1704953413,"current_range_meters":28800,"station_id":"ce4bgjh2rcd13ifvqbg0","pricing_plan_id":"free"},{"bike_id":"1ec81e1e-62ac-49f7-ac43-3da20e8496bf","system_id":"levelo_inurba_marseille","lat":43.299243,"lon":5.37481,"is_reserved":false,"is_disabled":false,"rental_uris":{"android":"levelo://app?vid=1ec81e1e-62ac-49f7-ac43-3da20e8496bf","ios":"levelo://app?vid=1ec81e1e-62ac-49f7-ac43-3da20e8496bf"},"vehicle_type_id":"4","last_reported":1704953413,"current_range_meters":30400,"station_id":"ce4bgjh2rcd13ifvqbg0","pricing_plan_id":"free"},{"bike_id":"7da8fe3c-1a0b-4128-9586-dc532e83f94f","system_id":"levelo_inurba_marseille","lat":43.297794,"lon":5.370888,"is_reserved":false,"is_disabled":false,"rental_uris":{"android":"levelo://app?vid=7da8fe3c-1a0b-4128-9586-dc532e83f94f","ios":"levelo://app?vid=7da8fe3c-1a0b-4128-9586-dc532e83f94f"},"vehicle_type_id":"4","last_reported":1704953413,"current_range_meters":10000,"station_id":"ce4bgop2rcd13ifvqc1g","pricing_plan_id":"free"},{"bike_id":"d68ce626-ef98-4d52-b3b3-f34d703a806b","system_id":"levelo_inurba_marseille","lat":43.328243,"lon":5.366953,"is_reserved":false,"is_disabled":false,"rental_uris":{"android":"levelo://app?vid=d68ce626-ef98-4d52-b3b3-f34d703a806b","ios":"levelo://app?vid=d68ce626-ef98-4d52-b3b3-f34d703a806b"},"vehicle_type_id":"4","last_reported":1704953413,"current_range_meters":22400,"station_id":"ce4bhs92rcd13ifvqi0g","pricing_plan_id":"free"},{"bike_id":"387c1dff-fb7e-4547-838e-1af3f69c4219","system_id":"levelo_inurba_marseille","lat":43.32826,"lon":5.36679,"is_reserved":false,"is_disabled":false,"rental_uris":{"android":"levelo://app?vid=387c1dff-fb7e-4547-838e-1af3f69c4219","ios":"levelo://app?vid=387c1dff-fb7e-4547-838e-1af3f69c4219"},"vehicle_type_id":"4","last_reported":1704953413,"current_range_meters":30000,"station_id":"ce4bhs92rcd13ifvqi0g","pricing_plan_id":"free"},{"bike_id":"331410e4-8362-40e5-8b58-6a53f46a25bd","system_id":"levelo_inurba_marseille","lat":43.328279,"lon":5.366742,"is_reserved":false,"is_disabled":false,"rental_uris":{"android":"levelo://app?vid=331410e4-8362-40e5-8b58-6a53f46a25bd","ios":"levelo://app?vid=331410e4-8362-40e5-8b58-6a53f46a25bd"},"vehicle_type_id":"4","last_reported":1704953413,"current_range_meters":29200,"station_id":"ce4bhs92rcd13ifvqi0g","pricing_plan_id":"free"},{"bike_id":"a70069dc-f773-452d-9d3a-320d0014d11e","system_id":"levelo_inurba_marseille","lat":43.328285,"lon":5.36681,"is_reserved":false,"is_disabled":false,"rental_uris":{"android":"levelo://app?vid=a70069dc-f773-452d-9d3a-320d0014d11e","ios":"levelo://app?vid=a70069dc-f773-452d-9d3a-320d0014d11e"},"vehicle_type_id":"4","last_reported":1704953413,"current_range_meters":15200,"station_id":"ce4bhs92rcd13ifvqi0g","pricing_plan_id":"free"},{"bike_id":"66addf4b-70b7-4ac4-8e17-37956e9ecfbb","system_id":"levelo_inurba_marseille","lat":43.328285,"lon":5.366721,"is_reserved":false,"is_disabled":false,"rental_uris":{"android":"levelo://app?vid=66addf4b-70b7-4ac4-8e17-37956e9ecfbb","ios":"levelo://app?vid=66addf4b-70b7-4ac4-8e17-37956e9ecfbb"},"vehicle_type_id":"4","last_reported":1704953413,"current_range_meters":22000,"station_id":"ce4bhs92rcd13ifvqi0g","pricing_plan_id":"free"},{"bike_id":"b417e045-2acd-45ab-8543-5d87cc32d878","system_id":"levelo_inurba_marseille","lat":43.328299,"lon":5.366755,"is_reserved":false,"is_disabled":false,"rental_uris":{"android":"levelo://app?vid=b417e045-2acd-45ab-8543-5d87cc32d878","ios":"levelo://app?vid=b417e045-2acd-45ab-8543-5d87cc32d878"},"vehicle_type_id":"4","last_reported":1704953413,"current_range_meters":26400,"station_id":"ce4bhs92rcd13ifvqi0g","pricing_plan_id":"free"},{"bike_id":"7b9958fe-cb69-4b86-8077-c6eefd22d5f1","system_id":"levelo_inurba_marseille","lat":43.328306,"lon":5.366753,"is_reserved":false,"is_disabled":false,"rental_uris":{"android":"levelo://app?vid=7b9958fe-cb69-4b86-8077-c6eefd22d5f1","ios":"levelo://app?vid=7b9958fe-cb69-4b86-8077-c6eefd22d5f1"},"vehicle_type_id":"4","last_reported":1704953413,"current_range_meters":27600,"station_id":"ce4bhs92rcd13ifvqi0g","pricing_plan_id":"free"},{"bike_id":"d5f29070-6449-49ad-9492-09212d675041","system_id":"levelo_inurba_marseille","lat":43.32831,"lon":5.36691,"is_reserved":false,"is_disabled":false,"rental_uris":{"android":"levelo://app?vid=d5f29070-6449-49ad-9492-09212d675041","ios":"levelo://app?vid=d5f29070-6449-49ad-9492-09212d675041"},"vehicle_type_id":"4","last_reported":1704953413,"current_range_meters":26000,"station_id":"ce4bhs92rcd13ifvqi0g","pricing_plan_id":"free"},{"bike_id":"fb45f142-a2e6-4b54-b6fd-5660ca2c1fe5","system_id":"levelo_inurba_marseille","lat":43.32831,"lon":5.366733,"is_reserved":false,"is_disabled":false,"rental_uris":{"android":"levelo://app?vid=fb45f142-a2e6-4b54-b6fd-5660ca2c1fe5","ios":"levelo://app?vid=fb45f142-a2e6-4b54-b6fd-5660ca2c1fe5"},"vehicle_type_id":"4","last_reported":1704953413,"current_range_meters":19600,"station_id":"ce4bhs92rcd13ifvqi0g","pricing_plan_id":"free"},{"bike_id":"463c4960-7621-4c91-bfec-63ae99f04d79","system_id":"levelo_inurba_marseille","lat":43.297163,"lon":5.365866,"is_reserved":false,"is_disabled":false,"rental_uris":{"android":"levelo://app?vid=463c4960-7621-4c91-bfec-63ae99f04d79","ios":"levelo://app?vid=463c4960-7621-4c91-bfec-63ae99f04d79"},"vehicle_type_id":"4","last_reported":1704953413,"current_range_meters":30400,"station_id":"ce4bgn12rcd13ifvqbt0","pricing_plan_id":"free"},{"bike_id":"e1e3a1c2-ded9-4b32-80b4-852bd4467a76","system_id":"levelo_inurba_marseille","lat":43.328322,"lon":5.366846,"is_reserved":false,"is_disabled":false,"rental_uris":{"android":"levelo://app?vid=e1e3a1c2-ded9-4b32-80b4-852bd4467a76","ios":"levelo://app?vid=e1e3a1c2-ded9-4b32-80b4-852bd4467a76"},"vehicle_type_id":"4","last_reported":1704953413,"current_range_meters":18400,"station_id":"ce4bhs92rcd13ifvqi0g","pricing_plan_id":"free"},{"bike_id":"1f1a5220-6426-49f4-89de-c9c79ed6428d","system_id":"levelo_inurba_marseille","lat":43.328339,"lon":5.366834,"is_reserved":false,"is_disabled":false,"rental_uris":{"android":"levelo://app?vid=1f1a5220-6426-49f4-89de-c9c79ed6428d","ios":"levelo://app?vid=1f1a5220-6426-49f4-89de-c9c79ed6428d"},"vehicle_type_id":"4","last_reported":1704953413,"current_range_meters":28400,"station_id":"ce4bhs92rcd13ifvqi0g","pricing_plan_id":"free"},{"bike_id":"468fb52e-8015-4911-9ee7-fb97a172526a","system_id":"levelo_inurba_marseille","lat":43.32835,"lon":5.36673,"is_reserved":false,"is_disabled":false,"rental_uris":{"android":"levelo://app?vid=468fb52e-8015-4911-9ee7-fb97a172526a","ios":"levelo://app?vid=468fb52e-8015-4911-9ee7-fb97a172526a"},"vehicle_type_id":"4","last_reported":1704953413,"current_range_meters":0,"station_id":"ce4bhs92rcd13ifvqi0g","pricing_plan_id":"free"},{"bike_id":"c621bda9-1e46-40f7-b295-6efbfbc0b8fe","system_id":"levelo_inurba_marseille","lat":43.297163,"lon":5.365866,"is_reserved":false,"is_disabled":false,"rental_uris":{"android":"levelo://app?vid=c621bda9-1e46-40f7-b295-6efbfbc0b8fe","ios":"levelo://app?vid=c621bda9-1e46-40f7-b295-6efbfbc0b8fe"},"vehicle_type_id":"4","last_reported":1704953413,"current_range_meters":21600,"station_id":"ce4bgn12rcd13ifvqbt0","pricing_plan_id":"free"},{"bike_id":"0e21c0e1-cd91-41f5-a668-23429ce9066e","system_id":"levelo_inurba_marseille","lat":43.296801,"lon":5.372822,"is_reserved":false,"is_disabled":false,"rental_uris":{"android":"levelo://app?vid=0e21c0e1-cd91-41f5-a668-23429ce9066e","ios":"levelo://app?vid=0e21c0e1-cd91-41f5-a668-23429ce9066e"},"vehicle_type_id":"4","last_reported":1704953413,"current_range_meters":8800,"station_id":"","pricing_plan_id":"free"},{"bike_id":"63fcb21e-c98b-485f-87d0-a5a4f09790ba","system_id":"levelo_inurba_marseille","lat":43.303491,"lon":5.385968,"is_reserved":false,"is_disabled":false,"rental_uris":{"android":"levelo://app?vid=63fcb21e-c98b-485f-87d0-a5a4f09790ba","ios":"levelo://app?vid=63fcb21e-c98b-485f-87d0-a5a4f09790ba"},"vehicle_type_id":"4","last_reported":1704953413,"current_range_meters":15600,"station_id":"","pricing_plan_id":"free"},{"bike_id":"84770a5e-ac7e-4637-a2b0-64e5b0ae1a65","system_id":"levelo_inurba_marseille","lat":43.29573,"lon":5.367355,"is_reserved":false,"is_disabled":false,"rental_uris":{"android":"levelo://app?vid=84770a5e-ac7e-4637-a2b0-64e5b0ae1a65","ios":"levelo://app?vid=84770a5e-ac7e-4637-a2b0-64e5b0ae1a65"},"vehicle_type_id":"4","last_reported":1704953413,"current_range_meters":31200,"station_id":"ce4bgph2rcd13ifvqc2g","pricing_plan_id":"free"},{"bike_id":"616f464b-8a2d-4a3b-9044-eb674f0fcd1d","system_id":"levelo_inurba_marseille","lat":43.29573,"lon":5.367355,"is_reserved":false,"is_disabled":false,"rental_uris":{"android":"levelo://app?vid=616f464b-8a2d-4a3b-9044-eb674f0fcd1d","ios":"levelo://app?vid=616f464b-8a2d-4a3b-9044-eb674f0fcd1d"},"vehicle_type_id":"4","last_reported":1704953413,"current_range_meters":29600,"station_id":"ce4bgph2rcd13ifvqc2g","pricing_plan_id":"free"},{"bike_id":"f03e1886-cd6d-4eb3-a056-12bf96c1b527","system_id":"levelo_inurba_marseille","lat":43.29573,"lon":5.367355,"is_reserved":false,"is_disabled":false,"rental_uris":{"android":"levelo://app?vid=f03e1886-cd6d-4eb3-a056-12bf96c1b527","ios":"levelo://app?vid=f03e1886-cd6d-4eb3-a056-12bf96c1b527"},"vehicle_type_id":"4","last_reported":1704953413,"current_range_meters":30800,"station_id":"ce4bgph2rcd13ifvqc2g","pricing_plan_id":"free"},{"bike_id":"57825c4d-cd79-43a7-8e77-0e42b4be9fc8","system_id":"levelo_inurba_marseille","lat":43.29573,"lon":5.367355,"is_reserved":false,"is_disabled":false,"rental_uris":{"android":"levelo://app?vid=57825c4d-cd79-43a7-8e77-0e42b4be9fc8","ios":"levelo://app?vid=57825c4d-cd79-43a7-8e77-0e42b4be9fc8"},"vehicle_type_id":"4","last_reported":1704953413,"current_range_meters":5200,"station_id":"ce4bgph2rcd13ifvqc2g","pricing_plan_id":"free"},{"bike_id":"be52c8b6-6477-4cd5-a16f-4c244f1998e6","system_id":"levelo_inurba_marseille","lat":43.29573,"lon":5.367355,"is_reserved":false,"is_disabled":false,"rental_uris":{"android":"levelo://app?vid=be52c8b6-6477-4cd5-a16f-4c244f1998e6","ios":"levelo://app?vid=be52c8b6-6477-4cd5-a16f-4c244f1998e6"},"vehicle_type_id":"4","last_reported":1704953413,"current_range_meters":27200,"station_id":"ce4bgph2rcd13ifvqc2g","pricing_plan_id":"free"},{"bike_id":"76ea8f03-5d0a-4b6e-ac38-7657c3fc79ea","system_id":"levelo_inurba_marseille","lat":43.299028,"lon":5.381509,"is_reserved":false,"is_disabled":false,"rental_uris":{"android":"levelo://app?vid=76ea8f03-5d0a-4b6e-ac38-7657c3fc79ea","ios":"levelo://app?vid=76ea8f03-5d0a-4b6e-ac38-7657c3fc79ea"},"vehicle_type_id":"4","last_reported":1704953413,"current_range_meters":25200,"station_id":"ce4bgj12rcd13ifvqbc0","pricing_plan_id":"free"},{"bike_id":"dd59db4a-25af-4e7a-a78c-f794889be98a","system_id":"levelo_inurba_marseille","lat":43.299028,"lon":5.381509,"is_reserved":false,"is_disabled":false,"rental_uris":{"android":"levelo://app?vid=dd59db4a-25af-4e7a-a78c-f794889be98a","ios":"levelo://app?vid=dd59db4a-25af-4e7a-a78c-f794889be98a"},"vehicle_type_id":"4","last_reported":1704953413,"current_range_meters":28800,"station_id":"ce4bgj12rcd13ifvqbc0","pricing_plan_id":"free"},{"bike_id":"dd1dd24b-bb8b-4334-88cf-892c2e622f67","system_id":"levelo_inurba_marseille","lat":43.317557,"lon":5.390173,"is_reserved":false,"is_disabled":false,"rental_uris":{"android":"levelo://app?vid=dd1dd24b-bb8b-4334-88cf-892c2e622f67","ios":"levelo://app?vid=dd1dd24b-bb8b-4334-88cf-892c2e622f67"},"vehicle_type_id":"4","last_reported":1704953413,"current_range_meters":6800,"station_id":"ce4bhqp2rcd13ifvqhng","pricing_plan_id":"free"},{"bike_id":"036c0b45-c635-4300-8d30-209c5136829b","system_id":"levelo_inurba_marseille","lat":43.317557,"lon":5.390173,"is_reserved":false,"is_disabled":false,"rental_uris":{"android":"levelo://app?vid=036c0b45-c635-4300-8d30-209c5136829b","ios":"levelo://app?vid=036c0b45-c635-4300-8d30-209c5136829b"},"vehicle_type_id":"4","last_reported":1704953413,"current_range_meters":31200,"station_id":"ce4bhqp2rcd13ifvqhng","pricing_plan_id":"free"},{"bike_id":"56c0e1b0-011a-4ba4-b6d0-a126b1585ce5","system_id":"levelo_inurba_marseille","lat":43.317557,"lon":5.390173,"is_reserved":false,"is_disabled":false,"rental_uris":{"android":"levelo://app?vid=56c0e1b0-011a-4ba4-b6d0-a126b1585ce5","ios":"levelo://app?vid=56c0e1b0-011a-4ba4-b6d0-a126b1585ce5"},"vehicle_type_id":"4","last_reported":1704953413,"current_range_meters":29600,"station_id":"ce4bhqp2rcd13ifvqhng","pricing_plan_id":"free"},{"bike_id":"b9b49e54-5ddd-41c9-b5db-34eb850d88dc","system_id":"levelo_inurba_marseille","lat":43.317557,"lon":5.390173,"is_reserved":false,"is_disabled":false,"rental_uris":{"android":"levelo://app?vid=b9b49e54-5ddd-41c9-b5db-34eb850d88dc","ios":"levelo://app?vid=b9b49e54-5ddd-41c9-b5db-34eb850d88dc"},"vehicle_type_id":"4","last_reported":1704953413,"current_range_meters":16800,"station_id":"ce4bhqp2rcd13ifvqhng","pricing_plan_id":"free"},{"bike_id":"e5fe3264-2519-4d05-acee-04964fbbcb57","system_id":"levelo_inurba_marseille","lat":43.317557,"lon":5.390173,"is_reserved":false,"is_disabled":false,"rental_uris":{"android":"levelo://app?vid=e5fe3264-2519-4d05-acee-04964fbbcb57","ios":"levelo://app?vid=e5fe3264-2519-4d05-acee-04964fbbcb57"},"vehicle_type_id":"4","last_reported":1704953413,"current_range_meters":16000,"station_id":"ce4bhqp2rcd13ifvqhng","pricing_plan_id":"free"},{"bike_id":"3135b844-73f8-4633-81fc-89c4cac203c3","system_id":"levelo_inurba_marseille","lat":43.298037,"lon":5.381066,"is_reserved":false,"is_disabled":false,"rental_uris":{"android":"levelo://app?vid=3135b844-73f8-4633-81fc-89c4cac203c3","ios":"levelo://app?vid=3135b844-73f8-4633-81fc-89c4cac203c3"},"vehicle_type_id":"4","last_reported":1704953413,"current_range_meters":26400,"station_id":"ce4bgip2rcd13ifvqbb0","pricing_plan_id":"free"},{"bike_id":"11a476b2-850c-4662-a9f9-fa9a25a3096e","system_id":"levelo_inurba_marseille","lat":43.29581,"lon":5.37519,"is_reserved":false,"is_disabled":false,"rental_uris":{"android":"levelo://app?vid=11a476b2-850c-4662-a9f9-fa9a25a3096e","ios":"levelo://app?vid=11a476b2-850c-4662-a9f9-fa9a25a3096e"},"vehicle_type_id":"4","last_reported":1704953413,"current_range_meters":9600,"station_id":"ce4bgh92rcd13ifvqb50","pricing_plan_id":"free"},{"bike_id":"8143c221-f9bc-4893-a85d-f25ddc597e1e","system_id":"levelo_inurba_marseille","lat":43.298037,"lon":5.381066,"is_reserved":false,"is_disabled":false,"rental_uris":{"android":"levelo://app?vid=8143c221-f9bc-4893-a85d-f25ddc597e1e","ios":"levelo://app?vid=8143c221-f9bc-4893-a85d-f25ddc597e1e"},"vehicle_type_id":"4","last_reported":1704953413,"current_range_meters":19200,"station_id":"ce4bgip2rcd13ifvqbb0","pricing_plan_id":"free"},{"bike_id":"8a7771ec-7ff3-498e-ad0d-116a7f7a88ca","system_id":"levelo_inurba_marseille","lat":43.304278,"lon":5.388868,"is_reserved":false,"is_disabled":false,"rental_uris":{"android":"levelo://app?vid=8a7771ec-7ff3-498e-ad0d-116a7f7a88ca","ios":"levelo://app?vid=8a7771ec-7ff3-498e-ad0d-116a7f7a88ca"},"vehicle_type_id":"4","last_reported":1704953413,"current_range_meters":26400,"station_id":"ce4bgk12rcd13ifvqbi0","pricing_plan_id":"free"},{"bike_id":"930fccdb-7285-401a-9fcb-8edc65c5971e","system_id":"levelo_inurba_marseille","lat":43.296263,"lon":5.377094,"is_reserved":false,"is_disabled":false,"rental_uris":{"android":"levelo://app?vid=930fccdb-7285-401a-9fcb-8edc65c5971e","ios":"levelo://app?vid=930fccdb-7285-401a-9fcb-8edc65c5971e"},"vehicle_type_id":"4","last_reported":1704953413,"current_range_meters":24400,"station_id":"ce4bgi92rcd13ifvqb90","pricing_plan_id":"free"},{"bike_id":"c81b0880-1ee7-447d-a260-f9292139009b","system_id":"levelo_inurba_marseille","lat":43.295279,"lon":5.375048,"is_reserved":false,"is_disabled":false,"rental_uris":{"android":"levelo://app?vid=c81b0880-1ee7-447d-a260-f9292139009b","ios":"levelo://app?vid=c81b0880-1ee7-447d-a260-f9292139009b"},"vehicle_type_id":"4","last_reported":1704953413,"current_range_meters":31200,"station_id":"ce4bgkp2rcd13ifvqbmg","pricing_plan_id":"free"},{"bike_id":"c1d15e3f-dbef-4d5d-b089-acd9e6473040","system_id":"levelo_inurba_marseille","lat":43.299724,"lon":5.384848,"is_reserved":false,"is_disabled":false,"rental_uris":{"android":"levelo://app?vid=c1d15e3f-dbef-4d5d-b089-acd9e6473040","ios":"levelo://app?vid=c1d15e3f-dbef-4d5d-b089-acd9e6473040"},"vehicle_type_id":"4","last_reported":1704953413,"current_range_meters":14400,"station_id":"ce4bgj92rcd13ifvqbd0","pricing_plan_id":"free"},{"bike_id":"b553f938-0c90-42c0-818c-ed6fee16dfe9","system_id":"levelo_inurba_marseille","lat":43.32367,"lon":5.388836,"is_reserved":false,"is_disabled":false,"rental_uris":{"android":"levelo://app?vid=b553f938-0c90-42c0-818c-ed6fee16dfe9","ios":"levelo://app?vid=b553f938-0c90-42c0-818c-ed6fee16dfe9"},"vehicle_type_id":"4","last_reported":1704953413,"current_range_meters":4800,"station_id":"ce4bhqp2rcd13ifvqhog","pricing_plan_id":"free"},{"bike_id":"ae74013b-ca92-46de-a444-0a4f51933a85","system_id":"levelo_inurba_marseille","lat":43.323611,"lon":5.388856,"is_reserved":false,"is_disabled":false,"rental_uris":{"android":"levelo://app?vid=ae74013b-ca92-46de-a444-0a4f51933a85","ios":"levelo://app?vid=ae74013b-ca92-46de-a444-0a4f51933a85"},"vehicle_type_id":"4","last_reported":1704953413,"current_range_meters":1200,"station_id":"ce4bhqp2rcd13ifvqhog","pricing_plan_id":"free"},{"bike_id":"1eec63a5-d851-4bb3-9e9e-79960d82514b","system_id":"levelo_inurba_marseille","lat":43.32367,"lon":5.388836,"is_reserved":false,"is_disabled":false,"rental_uris":{"android":"levelo://app?vid=1eec63a5-d851-4bb3-9e9e-79960d82514b","ios":"levelo://app?vid=1eec63a5-d851-4bb3-9e9e-79960d82514b"},"vehicle_type_id":"4","last_reported":1704953413,"current_range_meters":14400,"station_id":"ce4bhqp2rcd13ifvqhog","pricing_plan_id":"free"},{"bike_id":"be7361aa-80f1-438b-9ce8-d142d1e331c4","system_id":"levelo_inurba_marseille","lat":43.32367,"lon":5.388836,"is_reserved":false,"is_disabled":false,"rental_uris":{"android":"levelo://app?vid=be7361aa-80f1-438b-9ce8-d142d1e331c4","ios":"levelo://app?vid=be7361aa-80f1-438b-9ce8-d142d1e331c4"},"vehicle_type_id":"4","last_reported":1704953413,"current_range_meters":24800,"station_id":"ce4bhqp2rcd13ifvqhog","pricing_plan_id":"free"},{"bike_id":"5993d0df-f463-4287-b631-fdbb8dce9e50","system_id":"levelo_inurba_marseille","lat":43.29602,"lon":5.381084,"is_reserved":false,"is_disabled":false,"rental_uris":{"android":"levelo://app?vid=5993d0df-f463-4287-b631-fdbb8dce9e50","ios":"levelo://app?vid=5993d0df-f463-4287-b631-fdbb8dce9e50"},"vehicle_type_id":"4","last_reported":1704953413,"current_range_meters":26000,"station_id":"ce4bgl12rcd13ifvqbo0","pricing_plan_id":"free"},{"bike_id":"3da2b232-1e3d-45df-9cda-334d09d5ffe5","system_id":"levelo_inurba_marseille","lat":43.292749,"lon":5.368402,"is_reserved":false,"is_disabled":false,"rental_uris":{"android":"levelo://app?vid=3da2b232-1e3d-45df-9cda-334d09d5ffe5","ios":"levelo://app?vid=3da2b232-1e3d-45df-9cda-334d09d5ffe5"},"vehicle_type_id":"4","last_reported":1704953413,"current_range_meters":4400,"station_id":"ce4bhbp2rcd13ifvqesg","pricing_plan_id":"free"},{"bike_id":"0f74b932-db37-4091-a572-17adfca71768","system_id":"levelo_inurba_marseille","lat":43.29309,"lon":5.37178,"is_reserved":false,"is_disabled":false,"rental_uris":{"android":"levelo://app?vid=0f74b932-db37-4091-a572-17adfca71768","ios":"levelo://app?vid=0f74b932-db37-4091-a572-17adfca71768"},"vehicle_type_id":"4","last_reported":1704953413,"current_range_meters":26000,"station_id":"ce4bgh92rcd13ifvqb40","pricing_plan_id":"free"},{"bike_id":"ec6f1a0a-b541-4511-b743-a3ef541c5110","system_id":"levelo_inurba_marseille","lat":43.293009,"lon":5.374584,"is_reserved":false,"is_disabled":false,"rental_uris":{"android":"levelo://app?vid=ec6f1a0a-b541-4511-b743-a3ef541c5110","ios":"levelo://app?vid=ec6f1a0a-b541-4511-b743-a3ef541c5110"},"vehicle_type_id":"4","last_reported":1704953413,"current_range_meters":18800,"station_id":"ce4bgi12rcd13ifvqb70","pricing_plan_id":"free"},{"bike_id":"030ec3b1-939e-431e-b1a6-823310f93fda","system_id":"levelo_inurba_marseille","lat":43.293009,"lon":5.374584,"is_reserved":false,"is_disabled":false,"rental_uris":{"android":"levelo://app?vid=030ec3b1-939e-431e-b1a6-823310f93fda","ios":"levelo://app?vid=030ec3b1-939e-431e-b1a6-823310f93fda"},"vehicle_type_id":"4","last_reported":1704953413,"current_range_meters":28000,"station_id":"ce4bgi12rcd13ifvqb70","pricing_plan_id":"free"},{"bike_id":"8b5ac0d2-2276-485e-8e92-7ccaef464fc6","system_id":"levelo_inurba_marseille","lat":43.293009,"lon":5.374584,"is_reserved":false,"is_disabled":false,"rental_uris":{"android":"levelo://app?vid=8b5ac0d2-2276-485e-8e92-7ccaef464fc6","ios":"levelo://app?vid=8b5ac0d2-2276-485e-8e92-7ccaef464fc6"},"vehicle_type_id":"4","last_reported":1704953413,"current_range_meters":20800,"station_id":"ce4bgi12rcd13ifvqb70","pricing_plan_id":"free"},{"bike_id":"c33dbbbf-515d-4c30-85e6-6de069a542a2","system_id":"levelo_inurba_marseille","lat":43.293009,"lon":5.374584,"is_reserved":false,"is_disabled":false,"rental_uris":{"android":"levelo://app?vid=c33dbbbf-515d-4c30-85e6-6de069a542a2","ios":"levelo://app?vid=c33dbbbf-515d-4c30-85e6-6de069a542a2"},"vehicle_type_id":"4","last_reported":1704953413,"current_range_meters":19200,"station_id":"ce4bgi12rcd13ifvqb70","pricing_plan_id":"free"},{"bike_id":"58afafe8-6c0b-4dce-ba15-e23025847b3e","system_id":"levelo_inurba_marseille","lat":43.293009,"lon":5.374584,"is_reserved":false,"is_disabled":false,"rental_uris":{"android":"levelo://app?vid=58afafe8-6c0b-4dce-ba15-e23025847b3e","ios":"levelo://app?vid=58afafe8-6c0b-4dce-ba15-e23025847b3e"},"vehicle_type_id":"4","last_reported":1704953413,"current_range_meters":22400,"station_id":"ce4bgi12rcd13ifvqb70","pricing_plan_id":"free"},{"bike_id":"dcfef5ea-89f4-4525-a9df-c632de168669","system_id":"levelo_inurba_marseille","lat":43.305936,"lon":5.393548,"is_reserved":false,"is_disabled":false,"rental_uris":{"android":"levelo://app?vid=dcfef5ea-89f4-4525-a9df-c632de168669","ios":"levelo://app?vid=dcfef5ea-89f4-4525-a9df-c632de168669"},"vehicle_type_id":"4","last_reported":1704953413,"current_range_meters":21600,"station_id":"ce4bh0p2rcd13ifvqd80","pricing_plan_id":"free"},{"bike_id":"ce7f7c4a-5e98-42f0-8d72-14e3fc2ec21f","system_id":"levelo_inurba_marseille","lat":43.30591,"lon":5.39355,"is_reserved":false,"is_disabled":false,"rental_uris":{"android":"levelo://app?vid=ce7f7c4a-5e98-42f0-8d72-14e3fc2ec21f","ios":"levelo://app?vid=ce7f7c4a-5e98-42f0-8d72-14e3fc2ec21f"},"vehicle_type_id":"4","last_reported":1704953413,"current_range_meters":23600,"station_id":"ce4bh0p2rcd13ifvqd80","pricing_plan_id":"free"},{"bike_id":"951114c2-ece2-4dee-9707-e5fba1ef7593","system_id":"levelo_inurba_marseille","lat":43.293009,"lon":5.374584,"is_reserved":false,"is_disabled":false,"rental_uris":{"android":"levelo://app?vid=951114c2-ece2-4dee-9707-e5fba1ef7593","ios":"levelo://app?vid=951114c2-ece2-4dee-9707-e5fba1ef7593"},"vehicle_type_id":"4","last_reported":1704953413,"current_range_meters":31200,"station_id":"ce4bgi12rcd13ifvqb70","pricing_plan_id":"free"},{"bike_id":"f9ec6d2e-ec51-4b69-9d0f-250eb2da4936","system_id":"levelo_inurba_marseille","lat":43.292311,"lon":5.360731,"is_reserved":false,"is_disabled":false,"rental_uris":{"android":"levelo://app?vid=f9ec6d2e-ec51-4b69-9d0f-250eb2da4936","ios":"levelo://app?vid=f9ec6d2e-ec51-4b69-9d0f-250eb2da4936"},"vehicle_type_id":"4","last_reported":1704953413,"current_range_meters":17200,"station_id":"ce4bhbh2rcd13ifvqeqg","pricing_plan_id":"free"},{"bike_id":"8cc36b35-38dd-413c-9877-02318219e9c8","system_id":"levelo_inurba_marseille","lat":43.300852,"lon":5.390859,"is_reserved":false,"is_disabled":false,"rental_uris":{"android":"levelo://app?vid=8cc36b35-38dd-413c-9877-02318219e9c8","ios":"levelo://app?vid=8cc36b35-38dd-413c-9877-02318219e9c8"},"vehicle_type_id":"4","last_reported":1704953413,"current_range_meters":20800,"station_id":"ce4bh192rcd13ifvqdb0","pricing_plan_id":"free"},{"bike_id":"1292d4e5-4d19-4d48-b377-e979521b1dee","system_id":"levelo_inurba_marseille","lat":43.300852,"lon":5.390859,"is_reserved":false,"is_disabled":false,"rental_uris":{"android":"levelo://app?vid=1292d4e5-4d19-4d48-b377-e979521b1dee","ios":"levelo://app?vid=1292d4e5-4d19-4d48-b377-e979521b1dee"},"vehicle_type_id":"4","last_reported":1704953413,"current_range_meters":16800,"station_id":"ce4bh192rcd13ifvqdb0","pricing_plan_id":"free"},{"bike_id":"f0060b7e-61a0-4273-8fca-e18a057637ce","system_id":"levelo_inurba_marseille","lat":43.298719,"lon":5.389009,"is_reserved":false,"is_disabled":false,"rental_uris":{"android":"levelo://app?vid=f0060b7e-61a0-4273-8fca-e18a057637ce","ios":"levelo://app?vid=f0060b7e-61a0-4273-8fca-e18a057637ce"},"vehicle_type_id":"4","last_reported":1704953413,"current_range_meters":23200,"station_id":"","pricing_plan_id":"free"},{"bike_id":"50c8b788-6776-454f-aac7-ebb850b9c846","system_id":"levelo_inurba_marseille","lat":43.298736,"lon":5.389058,"is_reserved":false,"is_disabled":false,"rental_uris":{"android":"levelo://app?vid=50c8b788-6776-454f-aac7-ebb850b9c846","ios":"levelo://app?vid=50c8b788-6776-454f-aac7-ebb850b9c846"},"vehicle_type_id":"4","last_reported":1704953413,"current_range_meters":10000,"station_id":"","pricing_plan_id":"free"},{"bike_id":"281d1413-69fa-46e0-b68a-f11447c4f4cd","system_id":"levelo_inurba_marseille","lat":43.298695,"lon":5.389054,"is_reserved":false,"is_disabled":false,"rental_uris":{"android":"levelo://app?vid=281d1413-69fa-46e0-b68a-f11447c4f4cd","ios":"levelo://app?vid=281d1413-69fa-46e0-b68a-f11447c4f4cd"},"vehicle_type_id":"4","last_reported":1704953413,"current_range_meters":4800,"station_id":"","pricing_plan_id":"free"},{"bike_id":"98c9ec4f-323d-4133-a467-6930e127b274","system_id":"levelo_inurba_marseille","lat":43.29875,"lon":5.38913,"is_reserved":false,"is_disabled":false,"rental_uris":{"android":"levelo://app?vid=98c9ec4f-323d-4133-a467-6930e127b274","ios":"levelo://app?vid=98c9ec4f-323d-4133-a467-6930e127b274"},"vehicle_type_id":"4","last_reported":1704953413,"current_range_meters":8000,"station_id":"","pricing_plan_id":"free"},{"bike_id":"ea1ff90b-efdd-4568-ad7b-74e39079f478","system_id":"levelo_inurba_marseille","lat":43.29167,"lon":5.37195,"is_reserved":false,"is_disabled":false,"rental_uris":{"android":"levelo://app?vid=ea1ff90b-efdd-4568-ad7b-74e39079f478","ios":"levelo://app?vid=ea1ff90b-efdd-4568-ad7b-74e39079f478"},"vehicle_type_id":"4","last_reported":1704953413,"current_range_meters":23200,"station_id":"ce4bha92rcd13ifvqeh0","pricing_plan_id":"free"},{"bike_id":"55c7817d-0705-42d7-86d9-0d560a4d3e35","system_id":"levelo_inurba_marseille","lat":43.309038,"lon":5.396546,"is_reserved":false,"is_disabled":false,"rental_uris":{"android":"levelo://app?vid=55c7817d-0705-42d7-86d9-0d560a4d3e35","ios":"levelo://app?vid=55c7817d-0705-42d7-86d9-0d560a4d3e35"},"vehicle_type_id":"4","last_reported":1704953413,"current_range_meters":29200,"station_id":"ce4bh012rcd13ifvqcv0","pricing_plan_id":"free"},{"bike_id":"3fcec442-138f-49fe-8520-2cba3c47ef57","system_id":"levelo_inurba_marseille","lat":43.308858,"lon":5.396319,"is_reserved":false,"is_disabled":false,"rental_uris":{"android":"levelo://app?vid=3fcec442-138f-49fe-8520-2cba3c47ef57","ios":"levelo://app?vid=3fcec442-138f-49fe-8520-2cba3c47ef57"},"vehicle_type_id":"4","last_reported":1704953413,"current_range_meters":10800,"station_id":"ce4bh012rcd13ifvqcv0","pricing_plan_id":"free"},{"bike_id":"2139cada-9f8c-4b86-ae8a-9f8ea4ff9e0a","system_id":"levelo_inurba_marseille","lat":43.30888,"lon":5.39636,"is_reserved":false,"is_disabled":false,"rental_uris":{"android":"levelo://app?vid=2139cada-9f8c-4b86-ae8a-9f8ea4ff9e0a","ios":"levelo://app?vid=2139cada-9f8c-4b86-ae8a-9f8ea4ff9e0a"},"vehicle_type_id":"4","last_reported":1704953413,"current_range_meters":29600,"station_id":"ce4bh012rcd13ifvqcv0","pricing_plan_id":"free"},{"bike_id":"116f3180-e5ff-47bf-90ba-215c7d2f125c","system_id":"levelo_inurba_marseille","lat":43.309047,"lon":5.396551,"is_reserved":false,"is_disabled":false,"rental_uris":{"android":"levelo://app?vid=116f3180-e5ff-47bf-90ba-215c7d2f125c","ios":"levelo://app?vid=116f3180-e5ff-47bf-90ba-215c7d2f125c"},"vehicle_type_id":"4","last_reported":1704953413,"current_range_meters":29200,"station_id":"ce4bh012rcd13ifvqcv0","pricing_plan_id":"free"},{"bike_id":"af4660e3-c3e0-45c8-ae0f-8fcee40cc35d","system_id":"levelo_inurba_marseille","lat":43.291994,"lon":5.357886,"is_reserved":false,"is_disabled":false,"rental_uris":{"android":"levelo://app?vid=af4660e3-c3e0-45c8-ae0f-8fcee40cc35d","ios":"levelo://app?vid=af4660e3-c3e0-45c8-ae0f-8fcee40cc35d"},"vehicle_type_id":"4","last_reported":1704953413,"current_range_meters":10000,"station_id":"ce4bhb12rcd13ifvqel0","pricing_plan_id":"free"},{"bike_id":"497c5b35-2e58-481e-8d56-8babc9650ac6","system_id":"levelo_inurba_marseille","lat":43.308813,"lon":5.396375,"is_reserved":false,"is_disabled":false,"rental_uris":{"android":"levelo://app?vid=497c5b35-2e58-481e-8d56-8babc9650ac6","ios":"levelo://app?vid=497c5b35-2e58-481e-8d56-8babc9650ac6"},"vehicle_type_id":"4","last_reported":1704953413,"current_range_meters":20800,"station_id":"ce4bh012rcd13ifvqcv0","pricing_plan_id":"free"},{"bike_id":"0655e12d-44f5-43a9-b577-d77959e059e7","system_id":"levelo_inurba_marseille","lat":43.309038,"lon":5.396546,"is_reserved":false,"is_disabled":false,"rental_uris":{"android":"levelo://app?vid=0655e12d-44f5-43a9-b577-d77959e059e7","ios":"levelo://app?vid=0655e12d-44f5-43a9-b577-d77959e059e7"},"vehicle_type_id":"4","last_reported":1704953413,"current_range_meters":30000,"station_id":"ce4bh012rcd13ifvqcv0","pricing_plan_id":"free"},{"bike_id":"e854744a-28bc-46dd-b963-bbb5d9bb93d9","system_id":"levelo_inurba_marseille","lat":43.308804,"lon":5.396394,"is_reserved":false,"is_disabled":false,"rental_uris":{"android":"levelo://app?vid=e854744a-28bc-46dd-b963-bbb5d9bb93d9","ios":"levelo://app?vid=e854744a-28bc-46dd-b963-bbb5d9bb93d9"},"vehicle_type_id":"4","last_reported":1704953413,"current_range_meters":9200,"station_id":"ce4bh012rcd13ifvqcv0","pricing_plan_id":"free"},{"bike_id":"2e3979c6-1bf3-4a88-9d6d-06ad79ab4bbf","system_id":"levelo_inurba_marseille","lat":43.308811,"lon":5.396399,"is_reserved":false,"is_disabled":false,"rental_uris":{"android":"levelo://app?vid=2e3979c6-1bf3-4a88-9d6d-06ad79ab4bbf","ios":"levelo://app?vid=2e3979c6-1bf3-4a88-9d6d-06ad79ab4bbf"},"vehicle_type_id":"4","last_reported":1704953413,"current_range_meters":15600,"station_id":"ce4bh012rcd13ifvqcv0","pricing_plan_id":"free"},{"bike_id":"7337244e-b4ae-4c5a-891d-314224ecb29b","system_id":"levelo_inurba_marseille","lat":43.309038,"lon":5.396546,"is_reserved":false,"is_disabled":false,"rental_uris":{"android":"levelo://app?vid=7337244e-b4ae-4c5a-891d-314224ecb29b","ios":"levelo://app?vid=7337244e-b4ae-4c5a-891d-314224ecb29b"},"vehicle_type_id":"4","last_reported":1704953413,"current_range_meters":30000,"station_id":"ce4bh012rcd13ifvqcv0","pricing_plan_id":"free"},{"bike_id":"794f45ba-c0f1-4f82-a7be-8313673d80fc","system_id":"levelo_inurba_marseille","lat":43.309047,"lon":5.396551,"is_reserved":false,"is_disabled":false,"rental_uris":{"android":"levelo://app?vid=794f45ba-c0f1-4f82-a7be-8313673d80fc","ios":"levelo://app?vid=794f45ba-c0f1-4f82-a7be-8313673d80fc"},"vehicle_type_id":"4","last_reported":1704953413,"current_range_meters":30400,"station_id":"ce4bh012rcd13ifvqcv0","pricing_plan_id":"free"},{"bike_id":"1bbd4d5d-86c2-416f-bce5-2c9eac178b99","system_id":"levelo_inurba_marseille","lat":43.313291,"lon":5.396838,"is_reserved":false,"is_disabled":false,"rental_uris":{"android":"levelo://app?vid=1bbd4d5d-86c2-416f-bce5-2c9eac178b99","ios":"levelo://app?vid=1bbd4d5d-86c2-416f-bce5-2c9eac178b99"},"vehicle_type_id":"4","last_reported":1704953413,"current_range_meters":30800,"station_id":"ce4bgvp2rcd13ifvqcu0","pricing_plan_id":"free"},{"bike_id":"7e774733-9be3-463c-8b8a-18427807ec58","system_id":"levelo_inurba_marseille","lat":43.313291,"lon":5.396838,"is_reserved":false,"is_disabled":false,"rental_uris":{"android":"levelo://app?vid=7e774733-9be3-463c-8b8a-18427807ec58","ios":"levelo://app?vid=7e774733-9be3-463c-8b8a-18427807ec58"},"vehicle_type_id":"4","last_reported":1704953413,"current_range_meters":22000,"station_id":"ce4bgvp2rcd13ifvqcu0","pricing_plan_id":"free"},{"bike_id":"e5a5e215-cef9-4aea-8c86-c9fe9afba16c","system_id":"levelo_inurba_marseille","lat":43.291994,"lon":5.357886,"is_reserved":false,"is_disabled":false,"rental_uris":{"android":"levelo://app?vid=e5a5e215-cef9-4aea-8c86-c9fe9afba16c","ios":"levelo://app?vid=e5a5e215-cef9-4aea-8c86-c9fe9afba16c"},"vehicle_type_id":"4","last_reported":1704953413,"current_range_meters":8400,"station_id":"ce4bhb12rcd13ifvqel0","pricing_plan_id":"free"},{"bike_id":"5357271f-7a6a-4e56-a8a0-1d8c9f4be8e1","system_id":"levelo_inurba_marseille","lat":43.291994,"lon":5.357886,"is_reserved":false,"is_disabled":false,"rental_uris":{"android":"levelo://app?vid=5357271f-7a6a-4e56-a8a0-1d8c9f4be8e1","ios":"levelo://app?vid=5357271f-7a6a-4e56-a8a0-1d8c9f4be8e1"},"vehicle_type_id":"4","last_reported":1704953413,"current_range_meters":2800,"station_id":"ce4bhb12rcd13ifvqel0","pricing_plan_id":"free"},{"bike_id":"af3e68fa-ba48-417b-b9e4-b932b4485e3c","system_id":"levelo_inurba_marseille","lat":43.313291,"lon":5.396838,"is_reserved":false,"is_disabled":false,"rental_uris":{"android":"levelo://app?vid=af3e68fa-ba48-417b-b9e4-b932b4485e3c","ios":"levelo://app?vid=af3e68fa-ba48-417b-b9e4-b932b4485e3c"},"vehicle_type_id":"4","last_reported":1704953413,"current_range_meters":14400,"station_id":"ce4bgvp2rcd13ifvqcu0","pricing_plan_id":"free"},{"bike_id":"d19baa6f-cbd7-43c2-b847-7307ec4273d0","system_id":"levelo_inurba_marseille","lat":43.313291,"lon":5.396838,"is_reserved":false,"is_disabled":false,"rental_uris":{"android":"levelo://app?vid=d19baa6f-cbd7-43c2-b847-7307ec4273d0","ios":"levelo://app?vid=d19baa6f-cbd7-43c2-b847-7307ec4273d0"},"vehicle_type_id":"4","last_reported":1704953413,"current_range_meters":22800,"station_id":"ce4bgvp2rcd13ifvqcu0","pricing_plan_id":"free"},{"bike_id":"ef907e89-cfbd-4e05-a279-e29b6e82d87d","system_id":"levelo_inurba_marseille","lat":43.313291,"lon":5.396838,"is_reserved":false,"is_disabled":false,"rental_uris":{"android":"levelo://app?vid=ef907e89-cfbd-4e05-a279-e29b6e82d87d","ios":"levelo://app?vid=ef907e89-cfbd-4e05-a279-e29b6e82d87d"},"vehicle_type_id":"4","last_reported":1704953413,"current_range_meters":16400,"station_id":"ce4bgvp2rcd13ifvqcu0","pricing_plan_id":"free"},{"bike_id":"a6a77216-2068-46e9-9b82-2c18b8a617e8","system_id":"levelo_inurba_marseille","lat":43.313291,"lon":5.396838,"is_reserved":false,"is_disabled":false,"rental_uris":{"android":"levelo://app?vid=a6a77216-2068-46e9-9b82-2c18b8a617e8","ios":"levelo://app?vid=a6a77216-2068-46e9-9b82-2c18b8a617e8"},"vehicle_type_id":"4","last_reported":1704953413,"current_range_meters":31600,"station_id":"ce4bgvp2rcd13ifvqcu0","pricing_plan_id":"free"},{"bike_id":"12be2c49-877c-45fb-b5bd-9ebccee12d7b","system_id":"levelo_inurba_marseille","lat":43.313291,"lon":5.396838,"is_reserved":false,"is_disabled":false,"rental_uris":{"android":"levelo://app?vid=12be2c49-877c-45fb-b5bd-9ebccee12d7b","ios":"levelo://app?vid=12be2c49-877c-45fb-b5bd-9ebccee12d7b"},"vehicle_type_id":"4","last_reported":1704953413,"current_range_meters":30400,"station_id":"ce4bgvp2rcd13ifvqcu0","pricing_plan_id":"free"},{"bike_id":"47037ecb-a0de-43c4-9504-1074482d39e5","system_id":"levelo_inurba_marseille","lat":43.30883,"lon":5.39647,"is_reserved":false,"is_disabled":false,"rental_uris":{"android":"levelo://app?vid=47037ecb-a0de-43c4-9504-1074482d39e5","ios":"levelo://app?vid=47037ecb-a0de-43c4-9504-1074482d39e5"},"vehicle_type_id":"4","last_reported":1704953413,"current_range_meters":21200,"station_id":"ce4bh012rcd13ifvqcv0","pricing_plan_id":"free"},{"bike_id":"1bcdf7ec-bc7d-4df2-9018-37c6d07f5be8","system_id":"levelo_inurba_marseille","lat":43.313291,"lon":5.396838,"is_reserved":false,"is_disabled":false,"rental_uris":{"android":"levelo://app?vid=1bcdf7ec-bc7d-4df2-9018-37c6d07f5be8","ios":"levelo://app?vid=1bcdf7ec-bc7d-4df2-9018-37c6d07f5be8"},"vehicle_type_id":"4","last_reported":1704953413,"current_range_meters":28400,"station_id":"ce4bgvp2rcd13ifvqcu0","pricing_plan_id":"free"},{"bike_id":"ce6af3a4-0a7a-4ccb-9e78-784b5a23ca21","system_id":"levelo_inurba_marseille","lat":43.313291,"lon":5.396838,"is_reserved":false,"is_disabled":false,"rental_uris":{"android":"levelo://app?vid=ce6af3a4-0a7a-4ccb-9e78-784b5a23ca21","ios":"levelo://app?vid=ce6af3a4-0a7a-4ccb-9e78-784b5a23ca21"},"vehicle_type_id":"4","last_reported":1704953413,"current_range_meters":10800,"station_id":"ce4bgvp2rcd13ifvqcu0","pricing_plan_id":"free"},{"bike_id":"43e3c829-2deb-43ef-8b69-a848c378c386","system_id":"levelo_inurba_marseille","lat":43.313291,"lon":5.396838,"is_reserved":false,"is_disabled":false,"rental_uris":{"android":"levelo://app?vid=43e3c829-2deb-43ef-8b69-a848c378c386","ios":"levelo://app?vid=43e3c829-2deb-43ef-8b69-a848c378c386"},"vehicle_type_id":"4","last_reported":1704953413,"current_range_meters":24000,"station_id":"ce4bgvp2rcd13ifvqcu0","pricing_plan_id":"free"},{"bike_id":"e6af2501-5678-42a3-b7a3-4f28fe4886c7","system_id":"levelo_inurba_marseille","lat":43.309047,"lon":5.396551,"is_reserved":false,"is_disabled":false,"rental_uris":{"android":"levelo://app?vid=e6af2501-5678-42a3-b7a3-4f28fe4886c7","ios":"levelo://app?vid=e6af2501-5678-42a3-b7a3-4f28fe4886c7"},"vehicle_type_id":"4","last_reported":1704953413,"current_range_meters":16400,"station_id":"ce4bh012rcd13ifvqcv0","pricing_plan_id":"free"},{"bike_id":"0dee0b75-d1f0-45ec-9dbc-14cf2ecd02e3","system_id":"levelo_inurba_marseille","lat":43.313291,"lon":5.396838,"is_reserved":false,"is_disabled":false,"rental_uris":{"android":"levelo://app?vid=0dee0b75-d1f0-45ec-9dbc-14cf2ecd02e3","ios":"levelo://app?vid=0dee0b75-d1f0-45ec-9dbc-14cf2ecd02e3"},"vehicle_type_id":"4","last_reported":1704953413,"current_range_meters":31600,"station_id":"ce4bgvp2rcd13ifvqcu0","pricing_plan_id":"free"},{"bike_id":"b9470094-4555-4f89-9bb3-8b648ab442a3","system_id":"levelo_inurba_marseille","lat":43.295376,"lon":5.385495,"is_reserved":false,"is_disabled":false,"rental_uris":{"android":"levelo://app?vid=b9470094-4555-4f89-9bb3-8b648ab442a3","ios":"levelo://app?vid=b9470094-4555-4f89-9bb3-8b648ab442a3"},"vehicle_type_id":"4","last_reported":1704953413,"current_range_meters":11200,"station_id":"","pricing_plan_id":"free"},{"bike_id":"6a00b293-4f12-4ce8-9e93-b6bde95ae43b","system_id":"levelo_inurba_marseille","lat":43.2916,"lon":5.37911,"is_reserved":false,"is_disabled":false,"rental_uris":{"android":"levelo://app?vid=6a00b293-4f12-4ce8-9e93-b6bde95ae43b","ios":"levelo://app?vid=6a00b293-4f12-4ce8-9e93-b6bde95ae43b"},"vehicle_type_id":"4","last_reported":1704953413,"current_range_meters":0,"station_id":"","pricing_plan_id":"free"},{"bike_id":"82d82821-194b-496b-bca3-082ab7a22523","system_id":"levelo_inurba_marseille","lat":43.290624,"lon":5.359245,"is_reserved":false,"is_disabled":false,"rental_uris":{"android":"levelo://app?vid=82d82821-194b-496b-bca3-082ab7a22523","ios":"levelo://app?vid=82d82821-194b-496b-bca3-082ab7a22523"},"vehicle_type_id":"4","last_reported":1704953413,"current_range_meters":24800,"station_id":"ce4bha92rcd13ifvqeg0","pricing_plan_id":"free"},{"bike_id":"0b25f09b-48ae-439d-9224-ffcfc2c304a7","system_id":"levelo_inurba_marseille","lat":43.290631,"lon":5.359244,"is_reserved":false,"is_disabled":false,"rental_uris":{"android":"levelo://app?vid=0b25f09b-48ae-439d-9224-ffcfc2c304a7","ios":"levelo://app?vid=0b25f09b-48ae-439d-9224-ffcfc2c304a7"},"vehicle_type_id":"4","last_reported":1704953413,"current_range_meters":24800,"station_id":"ce4bha92rcd13ifvqeg0","pricing_plan_id":"free"},{"bike_id":"98d0b4ce-5c17-4245-a1d7-8623ed85fe7a","system_id":"levelo_inurba_marseille","lat":43.294153,"lon":5.386305,"is_reserved":false,"is_disabled":false,"rental_uris":{"android":"levelo://app?vid=98d0b4ce-5c17-4245-a1d7-8623ed85fe7a","ios":"levelo://app?vid=98d0b4ce-5c17-4245-a1d7-8623ed85fe7a"},"vehicle_type_id":"4","last_reported":1704953413,"current_range_meters":27600,"station_id":"ce4bh2h2rcd13ifvqdh0","pricing_plan_id":"free"},{"bike_id":"a16392dc-263d-4480-803e-5147c4462d2c","system_id":"levelo_inurba_marseille","lat":43.294153,"lon":5.386305,"is_reserved":false,"is_disabled":false,"rental_uris":{"android":"levelo://app?vid=a16392dc-263d-4480-803e-5147c4462d2c","ios":"levelo://app?vid=a16392dc-263d-4480-803e-5147c4462d2c"},"vehicle_type_id":"4","last_reported":1704953413,"current_range_meters":18000,"station_id":"ce4bh2h2rcd13ifvqdh0","pricing_plan_id":"free"},{"bike_id":"eca8f862-586f-4b24-a793-bae73faee903","system_id":"levelo_inurba_marseille","lat":43.290327,"lon":5.375711,"is_reserved":false,"is_disabled":false,"rental_uris":{"android":"levelo://app?vid=eca8f862-586f-4b24-a793-bae73faee903","ios":"levelo://app?vid=eca8f862-586f-4b24-a793-bae73faee903"},"vehicle_type_id":"4","last_reported":1704953413,"current_range_meters":27200,"station_id":"ce4bh692rcd13ifvqe90","pricing_plan_id":"free"},{"bike_id":"3408c737-c7ab-4a9d-adaa-cb7af5909d78","system_id":"levelo_inurba_marseille","lat":43.29027,"lon":5.37556,"is_reserved":false,"is_disabled":false,"rental_uris":{"android":"levelo://app?vid=3408c737-c7ab-4a9d-adaa-cb7af5909d78","ios":"levelo://app?vid=3408c737-c7ab-4a9d-adaa-cb7af5909d78"},"vehicle_type_id":"4","last_reported":1704953413,"current_range_meters":5200,"station_id":"ce4bh692rcd13ifvqe90","pricing_plan_id":"free"},{"bike_id":"1d079680-8ec8-4e2b-8b89-460018e8fbff","system_id":"levelo_inurba_marseille","lat":43.294162,"lon":5.386292,"is_reserved":false,"is_disabled":false,"rental_uris":{"android":"levelo://app?vid=1d079680-8ec8-4e2b-8b89-460018e8fbff","ios":"levelo://app?vid=1d079680-8ec8-4e2b-8b89-460018e8fbff"},"vehicle_type_id":"4","last_reported":1704953413,"current_range_meters":31600,"station_id":"ce4bh2h2rcd13ifvqdh0","pricing_plan_id":"free"},{"bike_id":"96b70491-eb84-458c-9286-f7afd92fb056","system_id":"levelo_inurba_marseille","lat":43.294162,"lon":5.386292,"is_reserved":false,"is_disabled":false,"rental_uris":{"android":"levelo://app?vid=96b70491-eb84-458c-9286-f7afd92fb056","ios":"levelo://app?vid=96b70491-eb84-458c-9286-f7afd92fb056"},"vehicle_type_id":"4","last_reported":1704953413,"current_range_meters":24000,"station_id":"ce4bh2h2rcd13ifvqdh0","pricing_plan_id":"free"},{"bike_id":"29ac27e7-2ddc-42ce-ade3-89ffddcd30df","system_id":"levelo_inurba_marseille","lat":43.289358,"lon":5.366248,"is_reserved":false,"is_disabled":false,"rental_uris":{"android":"levelo://app?vid=29ac27e7-2ddc-42ce-ade3-89ffddcd30df","ios":"levelo://app?vid=29ac27e7-2ddc-42ce-ade3-89ffddcd30df"},"vehicle_type_id":"4","last_reported":1704953413,"current_range_meters":24000,"station_id":"ce4bhap2rcd13ifvqek0","pricing_plan_id":"free"},{"bike_id":"003412dd-4670-4351-8635-82c931e24b69","system_id":"levelo_inurba_marseille","lat":43.289468,"lon":5.363719,"is_reserved":false,"is_disabled":false,"rental_uris":{"android":"levelo://app?vid=003412dd-4670-4351-8635-82c931e24b69","ios":"levelo://app?vid=003412dd-4670-4351-8635-82c931e24b69"},"vehicle_type_id":"4","last_reported":1704953413,"current_range_meters":30000,"station_id":"ce4bhc92rcd13ifvqetg","pricing_plan_id":"free"},{"bike_id":"c4de190e-d1bd-43d6-8bbf-600a036403cb","system_id":"levelo_inurba_marseille","lat":43.304274,"lon":5.397513,"is_reserved":false,"is_disabled":false,"rental_uris":{"android":"levelo://app?vid=c4de190e-d1bd-43d6-8bbf-600a036403cb","ios":"levelo://app?vid=c4de190e-d1bd-43d6-8bbf-600a036403cb"},"vehicle_type_id":"4","last_reported":1704953413,"current_range_meters":27600,"station_id":"ce4bh092rcd13ifvqd20","pricing_plan_id":"free"},{"bike_id":"664d3d37-0dd0-44b7-ac83-16e21741452a","system_id":"levelo_inurba_marseille","lat":43.304296,"lon":5.397513,"is_reserved":false,"is_disabled":false,"rental_uris":{"android":"levelo://app?vid=664d3d37-0dd0-44b7-ac83-16e21741452a","ios":"levelo://app?vid=664d3d37-0dd0-44b7-ac83-16e21741452a"},"vehicle_type_id":"4","last_reported":1704953413,"current_range_meters":26800,"station_id":"ce4bh092rcd13ifvqd20","pricing_plan_id":"free"},{"bike_id":"2e0c91b2-4ee9-4894-b498-6b008f54e304","system_id":"levelo_inurba_marseille","lat":43.304296,"lon":5.397513,"is_reserved":false,"is_disabled":false,"rental_uris":{"android":"levelo://app?vid=2e0c91b2-4ee9-4894-b498-6b008f54e304","ios":"levelo://app?vid=2e0c91b2-4ee9-4894-b498-6b008f54e304"},"vehicle_type_id":"4","last_reported":1704953413,"current_range_meters":30000,"station_id":"ce4bh092rcd13ifvqd20","pricing_plan_id":"free"},{"bike_id":"52e71cd0-bdc8-47fe-b393-19112aeacf6a","system_id":"levelo_inurba_marseille","lat":43.290104,"lon":5.356111,"is_reserved":false,"is_disabled":false,"rental_uris":{"android":"levelo://app?vid=52e71cd0-bdc8-47fe-b393-19112aeacf6a","ios":"levelo://app?vid=52e71cd0-bdc8-47fe-b393-19112aeacf6a"},"vehicle_type_id":"4","last_reported":1704953413,"current_range_meters":27200,"station_id":"ce4bhb92rcd13ifvqen0","pricing_plan_id":"free"},{"bike_id":"e1776b02-648b-47e3-a80a-7a53453bad73","system_id":"levelo_inurba_marseille","lat":43.297901,"lon":5.393432,"is_reserved":false,"is_disabled":false,"rental_uris":{"android":"levelo://app?vid=e1776b02-648b-47e3-a80a-7a53453bad73","ios":"levelo://app?vid=e1776b02-648b-47e3-a80a-7a53453bad73"},"vehicle_type_id":"4","last_reported":1704953413,"current_range_meters":14400,"station_id":"chh1huq6cuj3fo74tm60","pricing_plan_id":"free"},{"bike_id":"9f322b7c-3ef7-4412-849d-bcdde0b8cf4c","system_id":"levelo_inurba_marseille","lat":43.297864,"lon":5.39341,"is_reserved":false,"is_disabled":false,"rental_uris":{"android":"levelo://app?vid=9f322b7c-3ef7-4412-849d-bcdde0b8cf4c","ios":"levelo://app?vid=9f322b7c-3ef7-4412-849d-bcdde0b8cf4c"},"vehicle_type_id":"4","last_reported":1704953413,"current_range_meters":31600,"station_id":"chh1huq6cuj3fo74tm60","pricing_plan_id":"free"},{"bike_id":"bea0c0f3-6a90-4f80-9dc9-5d1cc25bdb93","system_id":"levelo_inurba_marseille","lat":43.33022,"lon":5.39031,"is_reserved":false,"is_disabled":false,"rental_uris":{"android":"levelo://app?vid=bea0c0f3-6a90-4f80-9dc9-5d1cc25bdb93","ios":"levelo://app?vid=bea0c0f3-6a90-4f80-9dc9-5d1cc25bdb93"},"vehicle_type_id":"4","last_reported":1704953413,"current_range_meters":17200,"station_id":"","pricing_plan_id":"free"},{"bike_id":"0904bcbe-6b2e-4fb4-84b3-9666a350d09e","system_id":"levelo_inurba_marseille","lat":43.33021,"lon":5.3904,"is_reserved":false,"is_disabled":false,"rental_uris":{"android":"levelo://app?vid=0904bcbe-6b2e-4fb4-84b3-9666a350d09e","ios":"levelo://app?vid=0904bcbe-6b2e-4fb4-84b3-9666a350d09e"},"vehicle_type_id":"4","last_reported":1704953413,"current_range_meters":13600,"station_id":"","pricing_plan_id":"free"},{"bike_id":"c8dfd4e1-b8a2-4a47-81f8-65e2d2497f1d","system_id":"levelo_inurba_marseille","lat":43.33023,"lon":5.39041,"is_reserved":false,"is_disabled":false,"rental_uris":{"android":"levelo://app?vid=c8dfd4e1-b8a2-4a47-81f8-65e2d2497f1d","ios":"levelo://app?vid=c8dfd4e1-b8a2-4a47-81f8-65e2d2497f1d"},"vehicle_type_id":"4","last_reported":1704953413,"current_range_meters":30400,"station_id":"","pricing_plan_id":"free"},{"bike_id":"e7dcaaa9-cc06-45af-bfbd-9ecd35e01aae","system_id":"levelo_inurba_marseille","lat":43.33024,"lon":5.39043,"is_reserved":false,"is_disabled":false,"rental_uris":{"android":"levelo://app?vid=e7dcaaa9-cc06-45af-bfbd-9ecd35e01aae","ios":"levelo://app?vid=e7dcaaa9-cc06-45af-bfbd-9ecd35e01aae"},"vehicle_type_id":"4","last_reported":1704953413,"current_range_meters":19600,"station_id":"","pricing_plan_id":"free"},{"bike_id":"29877edf-f914-4818-a395-be7aee9e9d72","system_id":"levelo_inurba_marseille","lat":43.33029,"lon":5.39041,"is_reserved":false,"is_disabled":false,"rental_uris":{"android":"levelo://app?vid=29877edf-f914-4818-a395-be7aee9e9d72","ios":"levelo://app?vid=29877edf-f914-4818-a395-be7aee9e9d72"},"vehicle_type_id":"4","last_reported":1704953413,"current_range_meters":22000,"station_id":"","pricing_plan_id":"free"},{"bike_id":"8fe359a3-7109-4a83-a4f9-b0904a0a2302","system_id":"levelo_inurba_marseille","lat":43.330483,"lon":5.390424,"is_reserved":false,"is_disabled":false,"rental_uris":{"android":"levelo://app?vid=8fe359a3-7109-4a83-a4f9-b0904a0a2302","ios":"levelo://app?vid=8fe359a3-7109-4a83-a4f9-b0904a0a2302"},"vehicle_type_id":"4","last_reported":1704953413,"current_range_meters":20800,"station_id":"","pricing_plan_id":"free"},{"bike_id":"25379db7-74dc-46fe-b973-8aab15e22315","system_id":"levelo_inurba_marseille","lat":43.288554,"lon":5.358618,"is_reserved":false,"is_disabled":false,"rental_uris":{"android":"levelo://app?vid=25379db7-74dc-46fe-b973-8aab15e22315","ios":"levelo://app?vid=25379db7-74dc-46fe-b973-8aab15e22315"},"vehicle_type_id":"4","last_reported":1704953413,"current_range_meters":2000,"station_id":"ce4bhb12rcd13ifvqem0","pricing_plan_id":"free"},{"bike_id":"3f61d87f-8923-492d-b3e3-658a1b2fb4e8","system_id":"levelo_inurba_marseille","lat":43.28856,"lon":5.358371,"is_reserved":false,"is_disabled":false,"rental_uris":{"android":"levelo://app?vid=3f61d87f-8923-492d-b3e3-658a1b2fb4e8","ios":"levelo://app?vid=3f61d87f-8923-492d-b3e3-658a1b2fb4e8"},"vehicle_type_id":"4","last_reported":1704953413,"current_range_meters":17200,"station_id":"ce4bhb12rcd13ifvqem0","pricing_plan_id":"free"},{"bike_id":"bd0cc50c-23e8-4e40-a13b-5ef3e5376519","system_id":"levelo_inurba_marseille","lat":43.28856,"lon":5.358371,"is_reserved":false,"is_disabled":false,"rental_uris":{"android":"levelo://app?vid=bd0cc50c-23e8-4e40-a13b-5ef3e5376519","ios":"levelo://app?vid=bd0cc50c-23e8-4e40-a13b-5ef3e5376519"},"vehicle_type_id":"4","last_reported":1704953413,"current_range_meters":9600,"station_id":"ce4bhb12rcd13ifvqem0","pricing_plan_id":"free"},{"bike_id":"a0aab242-2a48-4f5c-87f1-109140aad74f","system_id":"levelo_inurba_marseille","lat":43.28856,"lon":5.358371,"is_reserved":false,"is_disabled":false,"rental_uris":{"android":"levelo://app?vid=a0aab242-2a48-4f5c-87f1-109140aad74f","ios":"levelo://app?vid=a0aab242-2a48-4f5c-87f1-109140aad74f"},"vehicle_type_id":"4","last_reported":1704953413,"current_range_meters":29200,"station_id":"ce4bhb12rcd13ifvqem0","pricing_plan_id":"free"},{"bike_id":"7dbbd0d0-0fe0-4a7e-bce3-6765ff51695c","system_id":"levelo_inurba_marseille","lat":43.31276,"lon":5.40161,"is_reserved":false,"is_disabled":false,"rental_uris":{"android":"levelo://app?vid=7dbbd0d0-0fe0-4a7e-bce3-6765ff51695c","ios":"levelo://app?vid=7dbbd0d0-0fe0-4a7e-bce3-6765ff51695c"},"vehicle_type_id":"4","last_reported":1704953413,"current_range_meters":31200,"station_id":"ce4bh092rcd13ifvqd30","pricing_plan_id":"free"},{"bike_id":"15ea7858-b2ed-4d73-b95a-779a48b45d34","system_id":"levelo_inurba_marseille","lat":43.31277,"lon":5.401625,"is_reserved":false,"is_disabled":false,"rental_uris":{"android":"levelo://app?vid=15ea7858-b2ed-4d73-b95a-779a48b45d34","ios":"levelo://app?vid=15ea7858-b2ed-4d73-b95a-779a48b45d34"},"vehicle_type_id":"4","last_reported":1704953413,"current_range_meters":19200,"station_id":"ce4bh092rcd13ifvqd30","pricing_plan_id":"free"},{"bike_id":"9d418d29-254f-4faa-9412-cc45ca0ba2d7","system_id":"levelo_inurba_marseille","lat":43.312735,"lon":5.401654,"is_reserved":false,"is_disabled":false,"rental_uris":{"android":"levelo://app?vid=9d418d29-254f-4faa-9412-cc45ca0ba2d7","ios":"levelo://app?vid=9d418d29-254f-4faa-9412-cc45ca0ba2d7"},"vehicle_type_id":"4","last_reported":1704953413,"current_range_meters":30400,"station_id":"ce4bh092rcd13ifvqd30","pricing_plan_id":"free"},{"bike_id":"d4632afc-35e3-4069-86f7-ff142e5cadb3","system_id":"levelo_inurba_marseille","lat":43.31274,"lon":5.401684,"is_reserved":false,"is_disabled":false,"rental_uris":{"android":"levelo://app?vid=d4632afc-35e3-4069-86f7-ff142e5cadb3","ios":"levelo://app?vid=d4632afc-35e3-4069-86f7-ff142e5cadb3"},"vehicle_type_id":"4","last_reported":1704953413,"current_range_meters":15200,"station_id":"ce4bh092rcd13ifvqd30","pricing_plan_id":"free"},{"bike_id":"3b293500-0b95-4d16-a6d5-3b4d827f0b5d","system_id":"levelo_inurba_marseille","lat":43.31279,"lon":5.40169,"is_reserved":false,"is_disabled":false,"rental_uris":{"android":"levelo://app?vid=3b293500-0b95-4d16-a6d5-3b4d827f0b5d","ios":"levelo://app?vid=3b293500-0b95-4d16-a6d5-3b4d827f0b5d"},"vehicle_type_id":"4","last_reported":1704953413,"current_range_meters":8400,"station_id":"ce4bh092rcd13ifvqd30","pricing_plan_id":"free"},{"bike_id":"7c6ce06a-bb81-4f4d-b50a-877e4199e400","system_id":"levelo_inurba_marseille","lat":43.31281,"lon":5.40169,"is_reserved":false,"is_disabled":false,"rental_uris":{"android":"levelo://app?vid=7c6ce06a-bb81-4f4d-b50a-877e4199e400","ios":"levelo://app?vid=7c6ce06a-bb81-4f4d-b50a-877e4199e400"},"vehicle_type_id":"4","last_reported":1704953413,"current_range_meters":20800,"station_id":"ce4bh092rcd13ifvqd30","pricing_plan_id":"free"},{"bike_id":"5044b568-d936-4113-ba33-70f704d45924","system_id":"levelo_inurba_marseille","lat":43.31275,"lon":5.401698,"is_reserved":false,"is_disabled":false,"rental_uris":{"android":"levelo://app?vid=5044b568-d936-4113-ba33-70f704d45924","ios":"levelo://app?vid=5044b568-d936-4113-ba33-70f704d45924"},"vehicle_type_id":"4","last_reported":1704953413,"current_range_meters":21600,"station_id":"ce4bh092rcd13ifvqd30","pricing_plan_id":"free"},{"bike_id":"7892a6b6-f6d5-4b0b-b8b6-468cf15cabc6","system_id":"levelo_inurba_marseille","lat":43.3128,"lon":5.4017,"is_reserved":false,"is_disabled":false,"rental_uris":{"android":"levelo://app?vid=7892a6b6-f6d5-4b0b-b8b6-468cf15cabc6","ios":"levelo://app?vid=7892a6b6-f6d5-4b0b-b8b6-468cf15cabc6"},"vehicle_type_id":"4","last_reported":1704953413,"current_range_meters":31200,"station_id":"ce4bh092rcd13ifvqd30","pricing_plan_id":"free"},{"bike_id":"2d31d90c-18cc-493a-ad93-91a966057af0","system_id":"levelo_inurba_marseille","lat":43.337449,"lon":5.374443,"is_reserved":false,"is_disabled":false,"rental_uris":{"android":"levelo://app?vid=2d31d90c-18cc-493a-ad93-91a966057af0","ios":"levelo://app?vid=2d31d90c-18cc-493a-ad93-91a966057af0"},"vehicle_type_id":"4","last_reported":1704953413,"current_range_meters":13600,"station_id":"","pricing_plan_id":"free"},{"bike_id":"e5d360b7-defc-4e73-8313-b93be0c9e9e8","system_id":"levelo_inurba_marseille","lat":43.309371,"lon":5.401449,"is_reserved":false,"is_disabled":false,"rental_uris":{"android":"levelo://app?vid=e5d360b7-defc-4e73-8313-b93be0c9e9e8","ios":"levelo://app?vid=e5d360b7-defc-4e73-8313-b93be0c9e9e8"},"vehicle_type_id":"4","last_reported":1704953413,"current_range_meters":30800,"station_id":"ce4bgvp2rcd13ifvqct0","pricing_plan_id":"free"},{"bike_id":"e5d86310-94e1-4694-89fc-8b914f78ebf7","system_id":"levelo_inurba_marseille","lat":43.309371,"lon":5.401449,"is_reserved":false,"is_disabled":false,"rental_uris":{"android":"levelo://app?vid=e5d86310-94e1-4694-89fc-8b914f78ebf7","ios":"levelo://app?vid=e5d86310-94e1-4694-89fc-8b914f78ebf7"},"vehicle_type_id":"4","last_reported":1704953413,"current_range_meters":6400,"station_id":"ce4bgvp2rcd13ifvqct0","pricing_plan_id":"free"},{"bike_id":"15c01c23-3c22-46c9-bb23-24928aec6336","system_id":"levelo_inurba_marseille","lat":43.309371,"lon":5.401449,"is_reserved":false,"is_disabled":false,"rental_uris":{"android":"levelo://app?vid=15c01c23-3c22-46c9-bb23-24928aec6336","ios":"levelo://app?vid=15c01c23-3c22-46c9-bb23-24928aec6336"},"vehicle_type_id":"4","last_reported":1704953413,"current_range_meters":27600,"station_id":"ce4bgvp2rcd13ifvqct0","pricing_plan_id":"free"},{"bike_id":"73380dda-ab5b-4762-9729-4cef79ab181f","system_id":"levelo_inurba_marseille","lat":43.309371,"lon":5.401449,"is_reserved":false,"is_disabled":false,"rental_uris":{"android":"levelo://app?vid=73380dda-ab5b-4762-9729-4cef79ab181f","ios":"levelo://app?vid=73380dda-ab5b-4762-9729-4cef79ab181f"},"vehicle_type_id":"4","last_reported":1704953413,"current_range_meters":31200,"station_id":"ce4bgvp2rcd13ifvqct0","pricing_plan_id":"free"},{"bike_id":"23930c17-a299-4c13-824b-4921c060fd4f","system_id":"levelo_inurba_marseille","lat":43.312795,"lon":5.401756,"is_reserved":false,"is_disabled":false,"rental_uris":{"android":"levelo://app?vid=23930c17-a299-4c13-824b-4921c060fd4f","ios":"levelo://app?vid=23930c17-a299-4c13-824b-4921c060fd4f"},"vehicle_type_id":"4","last_reported":1704953413,"current_range_meters":24800,"station_id":"ce4bh092rcd13ifvqd30","pricing_plan_id":"free"},{"bike_id":"83fa2593-580f-4b25-806d-f1a860a91b3f","system_id":"levelo_inurba_marseille","lat":43.31274,"lon":5.401773,"is_reserved":false,"is_disabled":false,"rental_uris":{"android":"levelo://app?vid=83fa2593-580f-4b25-806d-f1a860a91b3f","ios":"levelo://app?vid=83fa2593-580f-4b25-806d-f1a860a91b3f"},"vehicle_type_id":"4","last_reported":1704953413,"current_range_meters":23200,"station_id":"ce4bh092rcd13ifvqd30","pricing_plan_id":"free"},{"bike_id":"d977fa02-4383-45bb-b005-e18c525e392a","system_id":"levelo_inurba_marseille","lat":43.337481,"lon":5.374557,"is_reserved":false,"is_disabled":false,"rental_uris":{"android":"levelo://app?vid=d977fa02-4383-45bb-b005-e18c525e392a","ios":"levelo://app?vid=d977fa02-4383-45bb-b005-e18c525e392a"},"vehicle_type_id":"4","last_reported":1704953413,"current_range_meters":22800,"station_id":"","pricing_plan_id":"free"},{"bike_id":"e6b414c9-54ac-4a4b-905d-e8b009155f7d","system_id":"levelo_inurba_marseille","lat":43.3375,"lon":5.374504,"is_reserved":false,"is_disabled":false,"rental_uris":{"android":"levelo://app?vid=e6b414c9-54ac-4a4b-905d-e8b009155f7d","ios":"levelo://app?vid=e6b414c9-54ac-4a4b-905d-e8b009155f7d"},"vehicle_type_id":"4","last_reported":1704953413,"current_range_meters":28000,"station_id":"","pricing_plan_id":"free"},{"bike_id":"28a23850-0f88-44d4-b901-cc8490ece79c","system_id":"levelo_inurba_marseille","lat":43.309371,"lon":5.401449,"is_reserved":false,"is_disabled":false,"rental_uris":{"android":"levelo://app?vid=28a23850-0f88-44d4-b901-cc8490ece79c","ios":"levelo://app?vid=28a23850-0f88-44d4-b901-cc8490ece79c"},"vehicle_type_id":"4","last_reported":1704953413,"current_range_meters":26400,"station_id":"ce4bgvp2rcd13ifvqct0","pricing_plan_id":"free"},{"bike_id":"b1dce9ac-2c5e-4597-97a0-51d5f9206ca8","system_id":"levelo_inurba_marseille","lat":43.33752,"lon":5.37444,"is_reserved":false,"is_disabled":false,"rental_uris":{"android":"levelo://app?vid=b1dce9ac-2c5e-4597-97a0-51d5f9206ca8","ios":"levelo://app?vid=b1dce9ac-2c5e-4597-97a0-51d5f9206ca8"},"vehicle_type_id":"4","last_reported":1704953413,"current_range_meters":30800,"station_id":"ce4rr2p2rcd13i802rgg","pricing_plan_id":"free"},{"bike_id":"86ad5ca9-e213-4988-ba5b-ad7a8fb3f0be","system_id":"levelo_inurba_marseille","lat":43.306412,"lon":5.401035,"is_reserved":false,"is_disabled":false,"rental_uris":{"android":"levelo://app?vid=86ad5ca9-e213-4988-ba5b-ad7a8fb3f0be","ios":"levelo://app?vid=86ad5ca9-e213-4988-ba5b-ad7a8fb3f0be"},"vehicle_type_id":"4","last_reported":1704953413,"current_range_meters":27200,"station_id":"ce4bh112rcd13ifvqda0","pricing_plan_id":"free"},{"bike_id":"36ac928c-a61c-4bc7-a19b-dd3e5260ec0c","system_id":"levelo_inurba_marseille","lat":43.309371,"lon":5.401449,"is_reserved":false,"is_disabled":false,"rental_uris":{"android":"levelo://app?vid=36ac928c-a61c-4bc7-a19b-dd3e5260ec0c","ios":"levelo://app?vid=36ac928c-a61c-4bc7-a19b-dd3e5260ec0c"},"vehicle_type_id":"4","last_reported":1704953413,"current_range_meters":31200,"station_id":"ce4bgvp2rcd13ifvqct0","pricing_plan_id":"free"},{"bike_id":"6a393e0a-65c9-4472-a6d5-84c2e19a68e3","system_id":"levelo_inurba_marseille","lat":43.309371,"lon":5.401449,"is_reserved":false,"is_disabled":false,"rental_uris":{"android":"levelo://app?vid=6a393e0a-65c9-4472-a6d5-84c2e19a68e3","ios":"levelo://app?vid=6a393e0a-65c9-4472-a6d5-84c2e19a68e3"},"vehicle_type_id":"4","last_reported":1704953413,"current_range_meters":25600,"station_id":"ce4bgvp2rcd13ifvqct0","pricing_plan_id":"free"},{"bike_id":"f481ef2c-f442-421b-be8c-fb1c4d039a61","system_id":"levelo_inurba_marseille","lat":43.309371,"lon":5.401449,"is_reserved":false,"is_disabled":false,"rental_uris":{"android":"levelo://app?vid=f481ef2c-f442-421b-be8c-fb1c4d039a61","ios":"levelo://app?vid=f481ef2c-f442-421b-be8c-fb1c4d039a61"},"vehicle_type_id":"4","last_reported":1704953413,"current_range_meters":18400,"station_id":"ce4bgvp2rcd13ifvqct0","pricing_plan_id":"free"},{"bike_id":"83e0efcd-f957-415e-a69c-bd3765259415","system_id":"levelo_inurba_marseille","lat":43.306412,"lon":5.401035,"is_reserved":false,"is_disabled":false,"rental_uris":{"android":"levelo://app?vid=83e0efcd-f957-415e-a69c-bd3765259415","ios":"levelo://app?vid=83e0efcd-f957-415e-a69c-bd3765259415"},"vehicle_type_id":"4","last_reported":1704953413,"current_range_meters":32000,"station_id":"ce4bh112rcd13ifvqda0","pricing_plan_id":"free"},{"bike_id":"5d2f0d60-b4a4-484a-bcea-3857beba47f8","system_id":"levelo_inurba_marseille","lat":43.306412,"lon":5.401035,"is_reserved":false,"is_disabled":false,"rental_uris":{"android":"levelo://app?vid=5d2f0d60-b4a4-484a-bcea-3857beba47f8","ios":"levelo://app?vid=5d2f0d60-b4a4-484a-bcea-3857beba47f8"},"vehicle_type_id":"4","last_reported":1704953413,"current_range_meters":14800,"station_id":"ce4bh112rcd13ifvqda0","pricing_plan_id":"free"},{"bike_id":"e405d3aa-e8b3-45f9-91bf-97af6f9d079b","system_id":"levelo_inurba_marseille","lat":43.306412,"lon":5.401035,"is_reserved":false,"is_disabled":false,"rental_uris":{"android":"levelo://app?vid=e405d3aa-e8b3-45f9-91bf-97af6f9d079b","ios":"levelo://app?vid=e405d3aa-e8b3-45f9-91bf-97af6f9d079b"},"vehicle_type_id":"4","last_reported":1704953413,"current_range_meters":20000,"station_id":"ce4bh112rcd13ifvqda0","pricing_plan_id":"free"},{"bike_id":"907f925c-39dc-4125-9986-f876bfff0cc2","system_id":"levelo_inurba_marseille","lat":43.309371,"lon":5.401449,"is_reserved":false,"is_disabled":false,"rental_uris":{"android":"levelo://app?vid=907f925c-39dc-4125-9986-f876bfff0cc2","ios":"levelo://app?vid=907f925c-39dc-4125-9986-f876bfff0cc2"},"vehicle_type_id":"4","last_reported":1704953413,"current_range_meters":30000,"station_id":"ce4bgvp2rcd13ifvqct0","pricing_plan_id":"free"},{"bike_id":"83045763-4933-4682-b0a1-3567ee625228","system_id":"levelo_inurba_marseille","lat":43.301117,"lon":5.398795,"is_reserved":false,"is_disabled":false,"rental_uris":{"android":"levelo://app?vid=83045763-4933-4682-b0a1-3567ee625228","ios":"levelo://app?vid=83045763-4933-4682-b0a1-3567ee625228"},"vehicle_type_id":"4","last_reported":1704953413,"current_range_meters":20800,"station_id":"ce4bh0h2rcd13ifvqd40","pricing_plan_id":"free"},{"bike_id":"39254627-18f6-4a13-95ee-7d8cf9dba0d7","system_id":"levelo_inurba_marseille","lat":43.301117,"lon":5.398795,"is_reserved":false,"is_disabled":false,"rental_uris":{"android":"levelo://app?vid=39254627-18f6-4a13-95ee-7d8cf9dba0d7","ios":"levelo://app?vid=39254627-18f6-4a13-95ee-7d8cf9dba0d7"},"vehicle_type_id":"4","last_reported":1704953413,"current_range_meters":29600,"station_id":"ce4bh0h2rcd13ifvqd40","pricing_plan_id":"free"},{"bike_id":"f3df22c0-f7f9-4c9b-bd6e-68fc6567c634","system_id":"levelo_inurba_marseille","lat":43.287306,"lon":5.360884,"is_reserved":false,"is_disabled":false,"rental_uris":{"android":"levelo://app?vid=f3df22c0-f7f9-4c9b-bd6e-68fc6567c634","ios":"levelo://app?vid=f3df22c0-f7f9-4c9b-bd6e-68fc6567c634"},"vehicle_type_id":"4","last_reported":1704953413,"current_range_meters":26000,"station_id":"cki0cbj6b192h4jlfktg","pricing_plan_id":"free"},{"bike_id":"4e3860ac-d7b1-4a8b-8f92-32d06808f7f0","system_id":"levelo_inurba_marseille","lat":43.28727,"lon":5.36078,"is_reserved":false,"is_disabled":false,"rental_uris":{"android":"levelo://app?vid=4e3860ac-d7b1-4a8b-8f92-32d06808f7f0","ios":"levelo://app?vid=4e3860ac-d7b1-4a8b-8f92-32d06808f7f0"},"vehicle_type_id":"4","last_reported":1704953413,"current_range_meters":29200,"station_id":"cki0cbj6b192h4jlfktg","pricing_plan_id":"free"},{"bike_id":"df30a918-8aa7-45c7-a826-cfb8719c77b7","system_id":"levelo_inurba_marseille","lat":43.287299,"lon":5.360819,"is_reserved":false,"is_disabled":false,"rental_uris":{"android":"levelo://app?vid=df30a918-8aa7-45c7-a826-cfb8719c77b7","ios":"levelo://app?vid=df30a918-8aa7-45c7-a826-cfb8719c77b7"},"vehicle_type_id":"4","last_reported":1704953413,"current_range_meters":31200,"station_id":"cki0cbj6b192h4jlfktg","pricing_plan_id":"free"},{"bike_id":"66091811-4769-4929-889a-9c0c6c3f22cd","system_id":"levelo_inurba_marseille","lat":43.28727,"lon":5.36078,"is_reserved":false,"is_disabled":false,"rental_uris":{"android":"levelo://app?vid=66091811-4769-4929-889a-9c0c6c3f22cd","ios":"levelo://app?vid=66091811-4769-4929-889a-9c0c6c3f22cd"},"vehicle_type_id":"4","last_reported":1704953413,"current_range_meters":22800,"station_id":"cki0cbj6b192h4jlfktg","pricing_plan_id":"free"},{"bike_id":"314e6389-13f9-4b9f-96ae-8aaebd48cc90","system_id":"levelo_inurba_marseille","lat":43.28727,"lon":5.36078,"is_reserved":false,"is_disabled":false,"rental_uris":{"android":"levelo://app?vid=314e6389-13f9-4b9f-96ae-8aaebd48cc90","ios":"levelo://app?vid=314e6389-13f9-4b9f-96ae-8aaebd48cc90"},"vehicle_type_id":"4","last_reported":1704953413,"current_range_meters":28400,"station_id":"cki0cbj6b192h4jlfktg","pricing_plan_id":"free"},{"bike_id":"9a073bc4-b367-4e43-bb76-115086445da8","system_id":"levelo_inurba_marseille","lat":43.28727,"lon":5.36078,"is_reserved":false,"is_disabled":false,"rental_uris":{"android":"levelo://app?vid=9a073bc4-b367-4e43-bb76-115086445da8","ios":"levelo://app?vid=9a073bc4-b367-4e43-bb76-115086445da8"},"vehicle_type_id":"4","last_reported":1704953413,"current_range_meters":31200,"station_id":"cki0cbj6b192h4jlfktg","pricing_plan_id":"free"},{"bike_id":"f816511f-4333-47e0-96cd-49d5ae266af3","system_id":"levelo_inurba_marseille","lat":43.28727,"lon":5.36078,"is_reserved":false,"is_disabled":false,"rental_uris":{"android":"levelo://app?vid=f816511f-4333-47e0-96cd-49d5ae266af3","ios":"levelo://app?vid=f816511f-4333-47e0-96cd-49d5ae266af3"},"vehicle_type_id":"4","last_reported":1704953413,"current_range_meters":22400,"station_id":"cki0cbj6b192h4jlfktg","pricing_plan_id":"free"},{"bike_id":"35eb154e-405a-463c-a995-6b2d3a03aba5","system_id":"levelo_inurba_marseille","lat":43.287277,"lon":5.36079,"is_reserved":false,"is_disabled":false,"rental_uris":{"android":"levelo://app?vid=35eb154e-405a-463c-a995-6b2d3a03aba5","ios":"levelo://app?vid=35eb154e-405a-463c-a995-6b2d3a03aba5"},"vehicle_type_id":"4","last_reported":1704953413,"current_range_meters":31200,"station_id":"cki0cbj6b192h4jlfktg","pricing_plan_id":"free"},{"bike_id":"9251ba89-8469-4e7d-9d25-c5c7d4e68fb0","system_id":"levelo_inurba_marseille","lat":43.28726,"lon":5.36086,"is_reserved":false,"is_disabled":false,"rental_uris":{"android":"levelo://app?vid=9251ba89-8469-4e7d-9d25-c5c7d4e68fb0","ios":"levelo://app?vid=9251ba89-8469-4e7d-9d25-c5c7d4e68fb0"},"vehicle_type_id":"4","last_reported":1704953413,"current_range_meters":12000,"station_id":"cki0cbj6b192h4jlfktg","pricing_plan_id":"free"},{"bike_id":"18caa38f-7d8d-4df0-8bfb-6d2ffbffdff6","system_id":"levelo_inurba_marseille","lat":43.28727,"lon":5.36078,"is_reserved":false,"is_disabled":false,"rental_uris":{"android":"levelo://app?vid=18caa38f-7d8d-4df0-8bfb-6d2ffbffdff6","ios":"levelo://app?vid=18caa38f-7d8d-4df0-8bfb-6d2ffbffdff6"},"vehicle_type_id":"4","last_reported":1704953413,"current_range_meters":29200,"station_id":"cki0cbj6b192h4jlfktg","pricing_plan_id":"free"},{"bike_id":"30788206-b931-4dc3-99ab-9953653bbfe0","system_id":"levelo_inurba_marseille","lat":43.28727,"lon":5.36078,"is_reserved":false,"is_disabled":false,"rental_uris":{"android":"levelo://app?vid=30788206-b931-4dc3-99ab-9953653bbfe0","ios":"levelo://app?vid=30788206-b931-4dc3-99ab-9953653bbfe0"},"vehicle_type_id":"4","last_reported":1704953413,"current_range_meters":30400,"station_id":"cki0cbj6b192h4jlfktg","pricing_plan_id":"free"},{"bike_id":"74d2a66f-1ded-4c9c-b1e1-d99db067f11f","system_id":"levelo_inurba_marseille","lat":43.28726,"lon":5.3608,"is_reserved":false,"is_disabled":false,"rental_uris":{"android":"levelo://app?vid=74d2a66f-1ded-4c9c-b1e1-d99db067f11f","ios":"levelo://app?vid=74d2a66f-1ded-4c9c-b1e1-d99db067f11f"},"vehicle_type_id":"4","last_reported":1704953413,"current_range_meters":8400,"station_id":"cki0cbj6b192h4jlfktg","pricing_plan_id":"free"},{"bike_id":"97aa5d33-eeb6-4f75-b83a-e2daa704d124","system_id":"levelo_inurba_marseille","lat":43.287259,"lon":5.3608,"is_reserved":false,"is_disabled":false,"rental_uris":{"android":"levelo://app?vid=97aa5d33-eeb6-4f75-b83a-e2daa704d124","ios":"levelo://app?vid=97aa5d33-eeb6-4f75-b83a-e2daa704d124"},"vehicle_type_id":"4","last_reported":1704953413,"current_range_meters":31200,"station_id":"cki0cbj6b192h4jlfktg","pricing_plan_id":"free"},{"bike_id":"d27a414d-f5a3-488e-8d7e-5e98e0a26301","system_id":"levelo_inurba_marseille","lat":43.28724,"lon":5.36085,"is_reserved":false,"is_disabled":false,"rental_uris":{"android":"levelo://app?vid=d27a414d-f5a3-488e-8d7e-5e98e0a26301","ios":"levelo://app?vid=d27a414d-f5a3-488e-8d7e-5e98e0a26301"},"vehicle_type_id":"4","last_reported":1704953413,"current_range_meters":20800,"station_id":"cki0cbj6b192h4jlfktg","pricing_plan_id":"free"},{"bike_id":"f3682688-b079-4f02-8c11-8db7ac98b34e","system_id":"levelo_inurba_marseille","lat":43.287246,"lon":5.360782,"is_reserved":false,"is_disabled":false,"rental_uris":{"android":"levelo://app?vid=f3682688-b079-4f02-8c11-8db7ac98b34e","ios":"levelo://app?vid=f3682688-b079-4f02-8c11-8db7ac98b34e"},"vehicle_type_id":"4","last_reported":1704953413,"current_range_meters":26000,"station_id":"cki0cbj6b192h4jlfktg","pricing_plan_id":"free"},{"bike_id":"c5c48f76-9372-4c4c-8a8a-3549f1214b17","system_id":"levelo_inurba_marseille","lat":43.28723,"lon":5.36077,"is_reserved":false,"is_disabled":false,"rental_uris":{"android":"levelo://app?vid=c5c48f76-9372-4c4c-8a8a-3549f1214b17","ios":"levelo://app?vid=c5c48f76-9372-4c4c-8a8a-3549f1214b17"},"vehicle_type_id":"4","last_reported":1704953413,"current_range_meters":26000,"station_id":"cki0cbj6b192h4jlfktg","pricing_plan_id":"free"},{"bike_id":"910d6325-690e-4b09-9ef6-097324e3fc2a","system_id":"levelo_inurba_marseille","lat":43.286591,"lon":5.363346,"is_reserved":false,"is_disabled":false,"rental_uris":{"android":"levelo://app?vid=910d6325-690e-4b09-9ef6-097324e3fc2a","ios":"levelo://app?vid=910d6325-690e-4b09-9ef6-097324e3fc2a"},"vehicle_type_id":"4","last_reported":1704953413,"current_range_meters":31600,"station_id":"ce4bhah2rcd13ifvqej0","pricing_plan_id":"free"},{"bike_id":"e17c5123-72f8-4493-aa61-93d632d6f07b","system_id":"levelo_inurba_marseille","lat":43.286591,"lon":5.363346,"is_reserved":false,"is_disabled":false,"rental_uris":{"android":"levelo://app?vid=e17c5123-72f8-4493-aa61-93d632d6f07b","ios":"levelo://app?vid=e17c5123-72f8-4493-aa61-93d632d6f07b"},"vehicle_type_id":"4","last_reported":1704953413,"current_range_meters":23200,"station_id":"ce4bhah2rcd13ifvqej0","pricing_plan_id":"free"},{"bike_id":"5fc43356-9438-4817-b85b-7e0e6722a064","system_id":"levelo_inurba_marseille","lat":43.298681,"lon":5.397225,"is_reserved":false,"is_disabled":false,"rental_uris":{"android":"levelo://app?vid=5fc43356-9438-4817-b85b-7e0e6722a064","ios":"levelo://app?vid=5fc43356-9438-4817-b85b-7e0e6722a064"},"vehicle_type_id":"4","last_reported":1704953413,"current_range_meters":25200,"station_id":"ce4bh0h2rcd13ifvqd50","pricing_plan_id":"free"},{"bike_id":"84222df7-be33-46ac-b1ed-3ffad3e6df28","system_id":"levelo_inurba_marseille","lat":43.286591,"lon":5.363346,"is_reserved":false,"is_disabled":false,"rental_uris":{"android":"levelo://app?vid=84222df7-be33-46ac-b1ed-3ffad3e6df28","ios":"levelo://app?vid=84222df7-be33-46ac-b1ed-3ffad3e6df28"},"vehicle_type_id":"4","last_reported":1704953413,"current_range_meters":19600,"station_id":"ce4bhah2rcd13ifvqej0","pricing_plan_id":"free"},{"bike_id":"7411f063-2761-47ac-819c-68df21e213f2","system_id":"levelo_inurba_marseille","lat":43.286671,"lon":5.36349,"is_reserved":false,"is_disabled":false,"rental_uris":{"android":"levelo://app?vid=7411f063-2761-47ac-819c-68df21e213f2","ios":"levelo://app?vid=7411f063-2761-47ac-819c-68df21e213f2"},"vehicle_type_id":"4","last_reported":1704953413,"current_range_meters":24000,"station_id":"ce4bhah2rcd13ifvqej0","pricing_plan_id":"free"},{"bike_id":"8b3e4e5d-0241-4bb8-843c-d426acedd06b","system_id":"levelo_inurba_marseille","lat":43.286591,"lon":5.363346,"is_reserved":false,"is_disabled":false,"rental_uris":{"android":"levelo://app?vid=8b3e4e5d-0241-4bb8-843c-d426acedd06b","ios":"levelo://app?vid=8b3e4e5d-0241-4bb8-843c-d426acedd06b"},"vehicle_type_id":"4","last_reported":1704953413,"current_range_meters":22400,"station_id":"ce4bhah2rcd13ifvqej0","pricing_plan_id":"free"},{"bike_id":"af59561f-eb01-4622-b77b-ca6ef478e851","system_id":"levelo_inurba_marseille","lat":43.286961,"lon":5.373785,"is_reserved":false,"is_disabled":false,"rental_uris":{"android":"levelo://app?vid=af59561f-eb01-4622-b77b-ca6ef478e851","ios":"levelo://app?vid=af59561f-eb01-4622-b77b-ca6ef478e851"},