{"last_updated":1716829586,"ttl":30,"version":"2.2","data":{"bikes":[{"bike_id":"9bfcb911-4cc7-4fd9-844e-d2aedae91409","system_id":"levelo_inurba_marseille","lat":43.31178,"lon":5.36713,"is_reserved":false,"is_disabled":false,"rental_uris":{"android":"levelo://app?vid=9bfcb911-4cc7-4fd9-844e-d2aedae91409","ios":"levelo://app?vid=9bfcb911-4cc7-4fd9-844e-d2aedae91409"},"vehicle_type_id":"4","last_reported":1716829586,"current_range_meters":4800,"station_id":"","pricing_plan_id":"cebpf4jnsgd1na2vs0mg"},{"bike_id":"7cb49e2f-038d-424d-a423-3df7590217eb","system_id":"levelo_inurba_marseille","lat":43.312291,"lon":5.368439,"is_reserved":false,"is_disabled":false,"rental_uris":{"android":"levelo://app?vid=7cb49e2f-038d-424d-a423-3df7590217eb","ios":"levelo://app?vid=7cb49e2f-038d-424d-a423-3df7590217eb"},"vehicle_type_id":"4","last_reported":1716829586,"current_range_meters":0,"station_id":"ce4bgs12rcd13ifvqcag","pricing_plan_id":"cebpf4jnsgd1na2vs0mg"},{"bike_id":"1bf6b79d-f254-4b65-85bf-88ca84cc924d","system_id":"levelo_inurba_marseille","lat":43.312239,"lon":5.368562,"is_reserved":false,"is_disabled":false,"rental_uris":{"android":"levelo://app?vid=1bf6b79d-f254-4b65-85bf-88ca84cc924d","ios":"levelo://app?vid=1bf6b79d-f254-4b65-85bf-88ca84cc924d"},"vehicle_type_id":"4","last_reported":1716829586,"current_range_meters":2400,"station_id":"ce4bgl92rcd13ifvqbq0","pricing_plan_id":"cebpf4jnsgd1na2vs0mg"},{"bike_id":"2a1607a4-113e-4cf4-a43b-0a62079ddba3","system_id":"levelo_inurba_marseille","lat":43.312239,"lon":5.368562,"is_reserved":false,"is_disabled":false,"rental_uris":{"android":"levelo://app?vid=2a1607a4-113e-4cf4-a43b-0a62079ddba3","ios":"levelo://app?vid=2a1607a4-113e-4cf4-a43b-0a62079ddba3"},"vehicle_type_id":"4","last_reported":1716829586,"current_range_meters":22800,"station_id":"ce4bgl92rcd13ifvqbq0","pricing_plan_id":"cebpf4jnsgd1na2vs0mg"},{"bike_id":"829a4f98-d099-464d-8acc-0716e1abe2d8","system_id":"levelo_inurba_marseille","lat":43.309076,"lon":5.368465,"is_reserved":false,"is_disabled":false,"rental_uris":{"android":"levelo://app?vid=829a4f98-d099-464d-8acc-0716e1abe2d8","ios":"levelo://app?vid=829a4f98-d099-464d-8acc-0716e1abe2d8"},"vehicle_type_id":"4","last_reported":1716829586,"current_range_meters":0,"station_id":"ce4bgn92rcd13ifvqbvg","pricing_plan_id":"cebpf4jnsgd1na2vs0mg"},{"bike_id":"3cd302e8-fd02-4deb-ace6-cff41f947cfd","system_id":"levelo_inurba_marseille","lat":43.315045,"lon":5.373027,"is_reserved":false,"is_disabled":false,"rental_uris":{"android":"levelo://app?vid=3cd302e8-fd02-4deb-ace6-cff41f947cfd","ios":"levelo://app?vid=3cd302e8-fd02-4deb-ace6-cff41f947cfd"},"vehicle_type_id":"4","last_reported":1716829586,"current_range_meters":25600,"station_id":"ce4bgt12rcd13ifvqcd0","pricing_plan_id":"cebpf4jnsgd1na2vs0mg"},{"bike_id":"6725d166-3891-45b8-942a-055a6d69bed9","system_id":"levelo_inurba_marseille","lat":43.309039,"lon":5.371797,"is_reserved":false,"is_disabled":false,"rental_uris":{"android":"levelo://app?vid=6725d166-3891-45b8-942a-055a6d69bed9","ios":"levelo://app?vid=6725d166-3891-45b8-942a-055a6d69bed9"},"vehicle_type_id":"4","last_reported":1716829586,"current_range_meters":6000,"station_id":"ce4bguh2rcd13ifvqckg","pricing_plan_id":"cebpf4jnsgd1na2vs0mg"},{"bike_id":"ec160594-d3df-47e0-b7e6-83396516ae96","system_id":"levelo_inurba_marseille","lat":43.30879,"lon":5.37198,"is_reserved":false,"is_disabled":false,"rental_uris":{"android":"levelo://app?vid=ec160594-d3df-47e0-b7e6-83396516ae96","ios":"levelo://app?vid=ec160594-d3df-47e0-b7e6-83396516ae96"},"vehicle_type_id":"4","last_reported":1716829586,"current_range_meters":0,"station_id":"ce4bguh2rcd13ifvqckg","pricing_plan_id":"cebpf4jnsgd1na2vs0mg"},{"bike_id":"5d442954-652b-41d4-81b4-ebba30bd3c83","system_id":"levelo_inurba_marseille","lat":43.30537,"lon":5.367345,"is_reserved":false,"is_disabled":false,"rental_uris":{"android":"levelo://app?vid=5d442954-652b-41d4-81b4-ebba30bd3c83","ios":"levelo://app?vid=5d442954-652b-41d4-81b4-ebba30bd3c83"},"vehicle_type_id":"4","last_reported":1716829586,"current_range_meters":0,"station_id":"ce4bgrp2rcd13ifvqc9g","pricing_plan_id":"cebpf4jnsgd1na2vs0mg"},{"bike_id":"b52b4b91-bfe5-4475-a8f0-b61c9dd294a5","system_id":"levelo_inurba_marseille","lat":43.30537,"lon":5.367345,"is_reserved":false,"is_disabled":false,"rental_uris":{"android":"levelo://app?vid=b52b4b91-bfe5-4475-a8f0-b61c9dd294a5","ios":"levelo://app?vid=b52b4b91-bfe5-4475-a8f0-b61c9dd294a5"},"vehicle_type_id":"4","last_reported":1716829586,"current_range_meters":5600,"station_id":"ce4bgrp2rcd13ifvqc9g","pricing_plan_id":"cebpf4jnsgd1na2vs0mg"},{"bike_id":"76a49275-ef70-496c-973b-c4eab54a9ae5","system_id":"levelo_inurba_marseille","lat":43.305368,"lon":5.367343,"is_reserved":false,"is_disabled":false,"rental_uris":{"android":"levelo://app?vid=76a49275-ef70-496c-973b-c4eab54a9ae5","ios":"levelo://app?vid=76a49275-ef70-496c-973b-c4eab54a9ae5"},"vehicle_type_id":"4","last_reported":1716829586,"current_range_meters":6000,"station_id":"ce4bgrp2rcd13ifvqc9g","pricing_plan_id":"cebpf4jnsgd1na2vs0mg"},{"bike_id":"2896b12d-f22c-448a-a659-808a61241b7c","system_id":"levelo_inurba_marseille","lat":43.317075,"lon":5.377367,"is_reserved":false,"is_disabled":false,"rental_uris":{"android":"levelo://app?vid=2896b12d-f22c-448a-a659-808a61241b7c","ios":"levelo://app?vid=2896b12d-f22c-448a-a659-808a61241b7c"},"vehicle_type_id":"4","last_reported":1716829586,"current_range_meters":28800,"station_id":"ce4bgth2rcd13ifvqch0","pricing_plan_id":"cebpf4jnsgd1na2vs0mg"},{"bike_id":"d59c7abf-f168-4750-a9c6-a1fa2653c498","system_id":"levelo_inurba_marseille","lat":43.31116,"lon":5.37765,"is_reserved":false,"is_disabled":false,"rental_uris":{"android":"levelo://app?vid=d59c7abf-f168-4750-a9c6-a1fa2653c498","ios":"levelo://app?vid=d59c7abf-f168-4750-a9c6-a1fa2653c498"},"vehicle_type_id":"4","last_reported":1716829586,"current_range_meters":0,"station_id":"ce4bgt92rcd13ifvqcg0","pricing_plan_id":"cebpf4jnsgd1na2vs0mg"},{"bike_id":"273092a1-2257-43fa-8930-f180b1d08378","system_id":"levelo_inurba_marseille","lat":43.311125,"lon":5.377624,"is_reserved":false,"is_disabled":false,"rental_uris":{"android":"levelo://app?vid=273092a1-2257-43fa-8930-f180b1d08378","ios":"levelo://app?vid=273092a1-2257-43fa-8930-f180b1d08378"},"vehicle_type_id":"4","last_reported":1716829586,"current_range_meters":4800,"station_id":"ce4bgt92rcd13ifvqcg0","pricing_plan_id":"cebpf4jnsgd1na2vs0mg"},{"bike_id":"bdc99289-c05c-4d21-a69e-5ed5302ac825","system_id":"levelo_inurba_marseille","lat":43.311243,"lon":5.377686,"is_reserved":false,"is_disabled":false,"rental_uris":{"android":"levelo://app?vid=bdc99289-c05c-4d21-a69e-5ed5302ac825","ios":"levelo://app?vid=bdc99289-c05c-4d21-a69e-5ed5302ac825"},"vehicle_type_id":"4","last_reported":1716829586,"current_range_meters":23200,"station_id":"ce4bgt92rcd13ifvqcg0","pricing_plan_id":"cebpf4jnsgd1na2vs0mg"},{"bike_id":"6b58b3a5-7f1b-4b1d-a54f-fe78b0f60b5e","system_id":"levelo_inurba_marseille","lat":43.311125,"lon":5.377624,"is_reserved":false,"is_disabled":false,"rental_uris":{"android":"levelo://app?vid=6b58b3a5-7f1b-4b1d-a54f-fe78b0f60b5e","ios":"levelo://app?vid=6b58b3a5-7f1b-4b1d-a54f-fe78b0f60b5e"},"vehicle_type_id":"4","last_reported":1716829586,"current_range_meters":16000,"station_id":"ce4bgt92rcd13ifvqcg0","pricing_plan_id":"cebpf4jnsgd1na2vs0mg"},{"bike_id":"e867ac35-c065-4396-9a73-b1ae37078236","system_id":"levelo_inurba_marseille","lat":43.292311,"lon":5.360731,"is_reserved":false,"is_disabled":false,"rental_uris":{"android":"levelo://app?vid=e867ac35-c065-4396-9a73-b1ae37078236","ios":"levelo://app?vid=e867ac35-c065-4396-9a73-b1ae37078236"},"vehicle_type_id":"4","last_reported":1716829586,"current_range_meters":20800,"station_id":"ce4bhbh2rcd13ifvqeqg","pricing_plan_id":"cebpf4jnsgd1na2vs0mg"},{"bike_id":"ba4e6745-a677-41c8-af0f-59202801fdc7","system_id":"levelo_inurba_marseille","lat":43.307945,"lon":5.376487,"is_reserved":false,"is_disabled":false,"rental_uris":{"android":"levelo://app?vid=ba4e6745-a677-41c8-af0f-59202801fdc7","ios":"levelo://app?vid=ba4e6745-a677-41c8-af0f-59202801fdc7"},"vehicle_type_id":"4","last_reported":1716829586,"current_range_meters":14400,"station_id":"ce4bgv92rcd13ifvqcq0","pricing_plan_id":"cebpf4jnsgd1na2vs0mg"},{"bike_id":"df67a68e-8ea0-436a-ab21-a58dedccc674","system_id":"levelo_inurba_marseille","lat":43.307945,"lon":5.376487,"is_reserved":false,"is_disabled":false,"rental_uris":{"android":"levelo://app?vid=df67a68e-8ea0-436a-ab21-a58dedccc674","ios":"levelo://app?vid=df67a68e-8ea0-436a-ab21-a58dedccc674"},"vehicle_type_id":"4","last_reported":1716829586,"current_range_meters":11600,"station_id":"ce4bgv92rcd13ifvqcq0","pricing_plan_id":"cebpf4jnsgd1na2vs0mg"},{"bike_id":"c693d53b-dc66-4a64-bbb8-1e3a3abf3333","system_id":"levelo_inurba_marseille","lat":43.307945,"lon":5.376487,"is_reserved":false,"is_disabled":false,"rental_uris":{"android":"levelo://app?vid=c693d53b-dc66-4a64-bbb8-1e3a3abf3333","ios":"levelo://app?vid=c693d53b-dc66-4a64-bbb8-1e3a3abf3333"},"vehicle_type_id":"4","last_reported":1716829586,"current_range_meters":6000,"station_id":"ce4bgv92rcd13ifvqcq0","pricing_plan_id":"cebpf4jnsgd1na2vs0mg"},{"bike_id":"a2f26c5b-b3ec-4ed2-829a-83e314a5dbda","system_id":"levelo_inurba_marseille","lat":43.307945,"lon":5.376487,"is_reserved":false,"is_disabled":false,"rental_uris":{"android":"levelo://app?vid=a2f26c5b-b3ec-4ed2-829a-83e314a5dbda","ios":"levelo://app?vid=a2f26c5b-b3ec-4ed2-829a-83e314a5dbda"},"vehicle_type_id":"4","last_reported":1716829586,"current_range_meters":14800,"station_id":"ce4bgv92rcd13ifvqcq0","pricing_plan_id":"cebpf4jnsgd1na2vs0mg"},{"bike_id":"6cbe664e-142b-40ac-bd88-c03526a14cfd","system_id":"levelo_inurba_marseille","lat":43.307945,"lon":5.376487,"is_reserved":false,"is_disabled":false,"rental_uris":{"android":"levelo://app?vid=6cbe664e-142b-40ac-bd88-c03526a14cfd","ios":"levelo://app?vid=6cbe664e-142b-40ac-bd88-c03526a14cfd"},"vehicle_type_id":"4","last_reported":1716829586,"current_range_meters":31200,"station_id":"ce4bgv92rcd13ifvqcq0","pricing_plan_id":"cebpf4jnsgd1na2vs0mg"},{"bike_id":"c29e7ade-9e93-46f8-935d-bb10397271a8","system_id":"levelo_inurba_marseille","lat":43.307945,"lon":5.376487,"is_reserved":false,"is_disabled":false,"rental_uris":{"android":"levelo://app?vid=c29e7ade-9e93-46f8-935d-bb10397271a8","ios":"levelo://app?vid=c29e7ade-9e93-46f8-935d-bb10397271a8"},"vehicle_type_id":"4","last_reported":1716829586,"current_range_meters":13600,"station_id":"ce4bgv92rcd13ifvqcq0","pricing_plan_id":"cebpf4jnsgd1na2vs0mg"},{"bike_id":"c1b71334-1ff7-4123-ba63-9133d3bfe4da","system_id":"levelo_inurba_marseille","lat":43.317024,"lon":5.37728,"is_reserved":false,"is_disabled":false,"rental_uris":{"android":"levelo://app?vid=c1b71334-1ff7-4123-ba63-9133d3bfe4da","ios":"levelo://app?vid=c1b71334-1ff7-4123-ba63-9133d3bfe4da"},"vehicle_type_id":"4","last_reported":1716829586,"current_range_meters":6400,"station_id":"ce4bgth2rcd13ifvqch0","pricing_plan_id":"cebpf4jnsgd1na2vs0mg"},{"bike_id":"25c1c162-8014-4c8e-b061-74c26a8d05c7","system_id":"levelo_inurba_marseille","lat":43.31707,"lon":5.377338,"is_reserved":false,"is_disabled":false,"rental_uris":{"android":"levelo://app?vid=25c1c162-8014-4c8e-b061-74c26a8d05c7","ios":"levelo://app?vid=25c1c162-8014-4c8e-b061-74c26a8d05c7"},"vehicle_type_id":"4","last_reported":1716829586,"current_range_meters":3200,"station_id":"","pricing_plan_id":"cebpf4jnsgd1na2vs0mg"},{"bike_id":"5f6b848d-e45a-42f4-b8ef-077208617ce9","system_id":"levelo_inurba_marseille","lat":43.317075,"lon":5.377367,"is_reserved":false,"is_disabled":false,"rental_uris":{"android":"levelo://app?vid=5f6b848d-e45a-42f4-b8ef-077208617ce9","ios":"levelo://app?vid=5f6b848d-e45a-42f4-b8ef-077208617ce9"},"vehicle_type_id":"4","last_reported":1716829586,"current_range_meters":19600,"station_id":"ce4bgth2rcd13ifvqch0","pricing_plan_id":"cebpf4jnsgd1na2vs0mg"},{"bike_id":"a51a8070-1136-457a-99a8-34af55a45ec8","system_id":"levelo_inurba_marseille","lat":43.317075,"lon":5.377367,"is_reserved":false,"is_disabled":false,"rental_uris":{"android":"levelo://app?vid=a51a8070-1136-457a-99a8-34af55a45ec8","ios":"levelo://app?vid=a51a8070-1136-457a-99a8-34af55a45ec8"},"vehicle_type_id":"4","last_reported":1716829586,"current_range_meters":0,"station_id":"ce4bgth2rcd13ifvqch0","pricing_plan_id":"cebpf4jnsgd1na2vs0mg"},{"bike_id":"19b2226a-e155-45c4-9b23-be6055325510","system_id":"levelo_inurba_marseille","lat":43.317027,"lon":5.377715,"is_reserved":false,"is_disabled":false,"rental_uris":{"android":"levelo://app?vid=19b2226a-e155-45c4-9b23-be6055325510","ios":"levelo://app?vid=19b2226a-e155-45c4-9b23-be6055325510"},"vehicle_type_id":"4","last_reported":1716829586,"current_range_meters":4000,"station_id":"ce4bgth2rcd13ifvqch0","pricing_plan_id":"cebpf4jnsgd1na2vs0mg"},{"bike_id":"aedb334f-c9fa-41a6-aa00-7ed624f0c407","system_id":"levelo_inurba_marseille","lat":43.317075,"lon":5.377367,"is_reserved":false,"is_disabled":false,"rental_uris":{"android":"levelo://app?vid=aedb334f-c9fa-41a6-aa00-7ed624f0c407","ios":"levelo://app?vid=aedb334f-c9fa-41a6-aa00-7ed624f0c407"},"vehicle_type_id":"4","last_reported":1716829586,"current_range_meters":11600,"station_id":"ce4bgth2rcd13ifvqch0","pricing_plan_id":"cebpf4jnsgd1na2vs0mg"},{"bike_id":"fe34f510-0fb6-4792-8f15-ef23a5232ba8","system_id":"levelo_inurba_marseille","lat":43.301939,"lon":5.366286,"is_reserved":false,"is_disabled":false,"rental_uris":{"android":"levelo://app?vid=fe34f510-0fb6-4792-8f15-ef23a5232ba8","ios":"levelo://app?vid=fe34f510-0fb6-4792-8f15-ef23a5232ba8"},"vehicle_type_id":"4","last_reported":1716829586,"current_range_meters":12400,"station_id":"ce4bgrh2rcd13ifvqc8g","pricing_plan_id":"cebpf4jnsgd1na2vs0mg"},{"bike_id":"f17f5acd-0c6c-47c9-b8de-a6104427ca9f","system_id":"levelo_inurba_marseille","lat":43.301939,"lon":5.366286,"is_reserved":false,"is_disabled":false,"rental_uris":{"android":"levelo://app?vid=f17f5acd-0c6c-47c9-b8de-a6104427ca9f","ios":"levelo://app?vid=f17f5acd-0c6c-47c9-b8de-a6104427ca9f"},"vehicle_type_id":"4","last_reported":1716829586,"current_range_meters":800,"station_id":"ce4bgrh2rcd13ifvqc8g","pricing_plan_id":"cebpf4jnsgd1na2vs0mg"},{"bike_id":"b74a57f3-1f99-4f64-bfb7-5ab3022ad29a","system_id":"levelo_inurba_marseille","lat":43.301939,"lon":5.366286,"is_reserved":false,"is_disabled":false,"rental_uris":{"android":"levelo://app?vid=b74a57f3-1f99-4f64-bfb7-5ab3022ad29a","ios":"levelo://app?vid=b74a57f3-1f99-4f64-bfb7-5ab3022ad29a"},"vehicle_type_id":"4","last_reported":1716829586,"current_range_meters":800,"station_id":"ce4bgrh2rcd13ifvqc8g","pricing_plan_id":"cebpf4jnsgd1na2vs0mg"},{"bike_id":"eaf69acf-6731-44d0-a7ea-cfa038dad288","system_id":"levelo_inurba_marseille","lat":43.301939,"lon":5.366286,"is_reserved":false,"is_disabled":false,"rental_uris":{"android":"levelo://app?vid=eaf69acf-6731-44d0-a7ea-cfa038dad288","ios":"levelo://app?vid=eaf69acf-6731-44d0-a7ea-cfa038dad288"},"vehicle_type_id":"4","last_reported":1716829586,"current_range_meters":7200,"station_id":"ce4bgrh2rcd13ifvqc8g","pricing_plan_id":"cebpf4jnsgd1na2vs0mg"},{"bike_id":"b06483e5-14c5-4d7d-952d-58fa139dddf6","system_id":"levelo_inurba_marseille","lat":43.30817,"lon":5.3815,"is_reserved":false,"is_disabled":false,"rental_uris":{"android":"levelo://app?vid=b06483e5-14c5-4d7d-952d-58fa139dddf6","ios":"levelo://app?vid=b06483e5-14c5-4d7d-952d-58fa139dddf6"},"vehicle_type_id":"4","last_reported":1716829586,"current_range_meters":20000,"station_id":"ce4bgt12rcd13ifvqce0","pricing_plan_id":"cebpf4jnsgd1na2vs0mg"},{"bike_id":"5d4e7c50-c7de-4ca2-9a9d-807c3d0e8ef2","system_id":"levelo_inurba_marseille","lat":43.324771,"lon":5.36557,"is_reserved":false,"is_disabled":false,"rental_uris":{"android":"levelo://app?vid=5d4e7c50-c7de-4ca2-9a9d-807c3d0e8ef2","ios":"levelo://app?vid=5d4e7c50-c7de-4ca2-9a9d-807c3d0e8ef2"},"vehicle_type_id":"4","last_reported":1716829586,"current_range_meters":31200,"station_id":"ce4bhs12rcd13ifvqhvg","pricing_plan_id":"cebpf4jnsgd1na2vs0mg"},{"bike_id":"69132c19-b175-4e9d-9215-6e7a4ce85aa4","system_id":"levelo_inurba_marseille","lat":43.324771,"lon":5.36557,"is_reserved":false,"is_disabled":false,"rental_uris":{"android":"levelo://app?vid=69132c19-b175-4e9d-9215-6e7a4ce85aa4","ios":"levelo://app?vid=69132c19-b175-4e9d-9215-6e7a4ce85aa4"},"vehicle_type_id":"4","last_reported":1716829586,"current_range_meters":8800,"station_id":"ce4bhs12rcd13ifvqhvg","pricing_plan_id":"cebpf4jnsgd1na2vs0mg"},{"bike_id":"60f3219d-802a-450f-9f1e-de21cd9f722a","system_id":"levelo_inurba_marseille","lat":43.324771,"lon":5.36557,"is_reserved":false,"is_disabled":false,"rental_uris":{"android":"levelo://app?vid=60f3219d-802a-450f-9f1e-de21cd9f722a","ios":"levelo://app?vid=60f3219d-802a-450f-9f1e-de21cd9f722a"},"vehicle_type_id":"4","last_reported":1716829586,"current_range_meters":14000,"station_id":"ce4bhs12rcd13ifvqhvg","pricing_plan_id":"cebpf4jnsgd1na2vs0mg"},{"bike_id":"5c69a74d-6766-47dc-92d4-edf0f298aedd","system_id":"levelo_inurba_marseille","lat":43.324771,"lon":5.36557,"is_reserved":false,"is_disabled":false,"rental_uris":{"android":"levelo://app?vid=5c69a74d-6766-47dc-92d4-edf0f298aedd","ios":"levelo://app?vid=5c69a74d-6766-47dc-92d4-edf0f298aedd"},"vehicle_type_id":"4","last_reported":1716829586,"current_range_meters":11200,"station_id":"ce4bhs12rcd13ifvqhvg","pricing_plan_id":"cebpf4jnsgd1na2vs0mg"},{"bike_id":"99590859-1f2d-4cd8-9b6c-8cc68d82b22d","system_id":"levelo_inurba_marseille","lat":43.324771,"lon":5.36557,"is_reserved":false,"is_disabled":false,"rental_uris":{"android":"levelo://app?vid=99590859-1f2d-4cd8-9b6c-8cc68d82b22d","ios":"levelo://app?vid=99590859-1f2d-4cd8-9b6c-8cc68d82b22d"},"vehicle_type_id":"4","last_reported":1716829586,"current_range_meters":21200,"station_id":"ce4bhs12rcd13ifvqhvg","pricing_plan_id":"cebpf4jnsgd1na2vs0mg"},{"bike_id":"e271339d-14f1-4222-b05c-411d92373f49","system_id":"levelo_inurba_marseille","lat":43.324771,"lon":5.36557,"is_reserved":false,"is_disabled":false,"rental_uris":{"android":"levelo://app?vid=e271339d-14f1-4222-b05c-411d92373f49","ios":"levelo://app?vid=e271339d-14f1-4222-b05c-411d92373f49"},"vehicle_type_id":"4","last_reported":1716829586,"current_range_meters":10000,"station_id":"ce4bhs12rcd13ifvqhvg","pricing_plan_id":"cebpf4jnsgd1na2vs0mg"},{"bike_id":"1df6314b-5e84-416a-b4af-79fed21f2844","system_id":"levelo_inurba_marseille","lat":43.324771,"lon":5.36557,"is_reserved":false,"is_disabled":false,"rental_uris":{"android":"levelo://app?vid=1df6314b-5e84-416a-b4af-79fed21f2844","ios":"levelo://app?vid=1df6314b-5e84-416a-b4af-79fed21f2844"},"vehicle_type_id":"4","last_reported":1716829586,"current_range_meters":15600,"station_id":"ce4bhs12rcd13ifvqhvg","pricing_plan_id":"cebpf4jnsgd1na2vs0mg"},{"bike_id":"a110de59-f87f-45ba-9be8-73cef6eac67a","system_id":"levelo_inurba_marseille","lat":43.324771,"lon":5.36557,"is_reserved":false,"is_disabled":false,"rental_uris":{"android":"levelo://app?vid=a110de59-f87f-45ba-9be8-73cef6eac67a","ios":"levelo://app?vid=a110de59-f87f-45ba-9be8-73cef6eac67a"},"vehicle_type_id":"4","last_reported":1716829586,"current_range_meters":26400,"station_id":"ce4bhs12rcd13ifvqhvg","pricing_plan_id":"cebpf4jnsgd1na2vs0mg"},{"bike_id":"1471b1b5-21bc-494f-b075-d176c20778a3","system_id":"levelo_inurba_marseille","lat":43.310804,"lon":5.38359,"is_reserved":false,"is_disabled":false,"rental_uris":{"android":"levelo://app?vid=1471b1b5-21bc-494f-b075-d176c20778a3","ios":"levelo://app?vid=1471b1b5-21bc-494f-b075-d176c20778a3"},"vehicle_type_id":"4","last_reported":1716829586,"current_range_meters":8000,"station_id":"ce4bgv92rcd13ifvqcr0","pricing_plan_id":"cebpf4jnsgd1na2vs0mg"},{"bike_id":"e77a354a-da12-4126-99b7-e7cef2b91094","system_id":"levelo_inurba_marseille","lat":43.324771,"lon":5.36557,"is_reserved":false,"is_disabled":false,"rental_uris":{"android":"levelo://app?vid=e77a354a-da12-4126-99b7-e7cef2b91094","ios":"levelo://app?vid=e77a354a-da12-4126-99b7-e7cef2b91094"},"vehicle_type_id":"4","last_reported":1716829586,"current_range_meters":31200,"station_id":"ce4bhs12rcd13ifvqhvg","pricing_plan_id":"cebpf4jnsgd1na2vs0mg"},{"bike_id":"d665b799-83ae-4487-8057-2674d86640d1","system_id":"levelo_inurba_marseille","lat":43.31078,"lon":5.38353,"is_reserved":false,"is_disabled":false,"rental_uris":{"android":"levelo://app?vid=d665b799-83ae-4487-8057-2674d86640d1","ios":"levelo://app?vid=d665b799-83ae-4487-8057-2674d86640d1"},"vehicle_type_id":"4","last_reported":1716829586,"current_range_meters":4000,"station_id":"ce4bgv92rcd13ifvqcr0","pricing_plan_id":"cebpf4jnsgd1na2vs0mg"},{"bike_id":"c001d6c8-45ce-4241-a940-821f62965994","system_id":"levelo_inurba_marseille","lat":43.31075,"lon":5.38357,"is_reserved":false,"is_disabled":false,"rental_uris":{"android":"levelo://app?vid=c001d6c8-45ce-4241-a940-821f62965994","ios":"levelo://app?vid=c001d6c8-45ce-4241-a940-821f62965994"},"vehicle_type_id":"4","last_reported":1716829586,"current_range_meters":10400,"station_id":"ce4bgv92rcd13ifvqcr0","pricing_plan_id":"cebpf4jnsgd1na2vs0mg"},{"bike_id":"03cf8753-69b5-46ff-9a60-21358d97bb66","system_id":"levelo_inurba_marseille","lat":43.310734,"lon":5.383607,"is_reserved":false,"is_disabled":false,"rental_uris":{"android":"levelo://app?vid=03cf8753-69b5-46ff-9a60-21358d97bb66","ios":"levelo://app?vid=03cf8753-69b5-46ff-9a60-21358d97bb66"},"vehicle_type_id":"4","last_reported":1716829586,"current_range_meters":0,"station_id":"ce4bgv92rcd13ifvqcr0","pricing_plan_id":"cebpf4jnsgd1na2vs0mg"},{"bike_id":"b1653c13-8be9-4e37-9352-e801f3cf348f","system_id":"levelo_inurba_marseille","lat":43.302784,"lon":5.377158,"is_reserved":false,"is_disabled":false,"rental_uris":{"android":"levelo://app?vid=b1653c13-8be9-4e37-9352-e801f3cf348f","ios":"levelo://app?vid=b1653c13-8be9-4e37-9352-e801f3cf348f"},"vehicle_type_id":"4","last_reported":1716829586,"current_range_meters":15600,"station_id":"ce4bguh2rcd13ifvqcj0","pricing_plan_id":"cebpf4jnsgd1na2vs0mg"},{"bike_id":"520e4902-5e7f-4203-a57f-1357cc705903","system_id":"levelo_inurba_marseille","lat":43.310804,"lon":5.38359,"is_reserved":false,"is_disabled":false,"rental_uris":{"android":"levelo://app?vid=520e4902-5e7f-4203-a57f-1357cc705903","ios":"levelo://app?vid=520e4902-5e7f-4203-a57f-1357cc705903"},"vehicle_type_id":"4","last_reported":1716829586,"current_range_meters":800,"station_id":"ce4bgv92rcd13ifvqcr0","pricing_plan_id":"cebpf4jnsgd1na2vs0mg"},{"bike_id":"a9a758ab-b524-4762-ad7d-7c6971854215","system_id":"levelo_inurba_marseille","lat":43.310804,"lon":5.38359,"is_reserved":false,"is_disabled":false,"rental_uris":{"android":"levelo://app?vid=a9a758ab-b524-4762-ad7d-7c6971854215","ios":"levelo://app?vid=a9a758ab-b524-4762-ad7d-7c6971854215"},"vehicle_type_id":"4","last_reported":1716829586,"current_range_meters":400,"station_id":"ce4bgv92rcd13ifvqcr0","pricing_plan_id":"cebpf4jnsgd1na2vs0mg"},{"bike_id":"a41f7279-a74a-4e49-a508-2c2959c906ed","system_id":"levelo_inurba_marseille","lat":43.306381,"lon":5.381444,"is_reserved":false,"is_disabled":false,"rental_uris":{"android":"levelo://app?vid=a41f7279-a74a-4e49-a508-2c2959c906ed","ios":"levelo://app?vid=a41f7279-a74a-4e49-a508-2c2959c906ed"},"vehicle_type_id":"4","last_reported":1716829586,"current_range_meters":2000,"station_id":"","pricing_plan_id":"cebpf4jnsgd1na2vs0mg"},{"bike_id":"34b7787c-3dd1-4b86-bc86-e4fa43232572","system_id":"levelo_inurba_marseille","lat":43.310804,"lon":5.38359,"is_reserved":false,"is_disabled":false,"rental_uris":{"android":"levelo://app?vid=34b7787c-3dd1-4b86-bc86-e4fa43232572","ios":"levelo://app?vid=34b7787c-3dd1-4b86-bc86-e4fa43232572"},"vehicle_type_id":"4","last_reported":1716829586,"current_range_meters":22000,"station_id":"ce4bgv92rcd13ifvqcr0","pricing_plan_id":"cebpf4jnsgd1na2vs0mg"},{"bike_id":"313bad82-9d5e-4200-a26c-1fe69f6b18e1","system_id":"levelo_inurba_marseille","lat":43.30143,"lon":5.37413,"is_reserved":false,"is_disabled":false,"rental_uris":{"android":"levelo://app?vid=313bad82-9d5e-4200-a26c-1fe69f6b18e1","ios":"levelo://app?vid=313bad82-9d5e-4200-a26c-1fe69f6b18e1"},"vehicle_type_id":"4","last_reported":1716829586,"current_range_meters":800,"station_id":"ce4bgs92rcd13ifvqcc0","pricing_plan_id":"cebpf4jnsgd1na2vs0mg"},{"bike_id":"6628a652-e239-4fa1-9b67-f073e08b26e9","system_id":"levelo_inurba_marseille","lat":43.301429,"lon":5.37413,"is_reserved":false,"is_disabled":false,"rental_uris":{"android":"levelo://app?vid=6628a652-e239-4fa1-9b67-f073e08b26e9","ios":"levelo://app?vid=6628a652-e239-4fa1-9b67-f073e08b26e9"},"vehicle_type_id":"4","last_reported":1716829586,"current_range_meters":8800,"station_id":"ce4bgs92rcd13ifvqcc0","pricing_plan_id":"cebpf4jnsgd1na2vs0mg"},{"bike_id":"a10e0e34-044b-487b-aeaf-6bcca97d75ec","system_id":"levelo_inurba_marseille","lat":43.302784,"lon":5.377158,"is_reserved":false,"is_disabled":false,"rental_uris":{"android":"levelo://app?vid=a10e0e34-044b-487b-aeaf-6bcca97d75ec","ios":"levelo://app?vid=a10e0e34-044b-487b-aeaf-6bcca97d75ec"},"vehicle_type_id":"4","last_reported":1716829586,"current_range_meters":0,"station_id":"ce4bguh2rcd13ifvqcj0","pricing_plan_id":"cebpf4jnsgd1na2vs0mg"},{"bike_id":"52100d97-a3fe-4b47-90ce-5ced8647f4a7","system_id":"levelo_inurba_marseille","lat":43.301429,"lon":5.37413,"is_reserved":false,"is_disabled":false,"rental_uris":{"android":"levelo://app?vid=52100d97-a3fe-4b47-90ce-5ced8647f4a7","ios":"levelo://app?vid=52100d97-a3fe-4b47-90ce-5ced8647f4a7"},"vehicle_type_id":"4","last_reported":1716829586,"current_range_meters":6800,"station_id":"ce4bgs92rcd13ifvqcc0","pricing_plan_id":"cebpf4jnsgd1na2vs0mg"},{"bike_id":"93d22fc2-a3fa-4827-877e-01fc381275a3","system_id":"levelo_inurba_marseille","lat":43.319963,"lon":5.381025,"is_reserved":false,"is_disabled":false,"rental_uris":{"android":"levelo://app?vid=93d22fc2-a3fa-4827-877e-01fc381275a3","ios":"levelo://app?vid=93d22fc2-a3fa-4827-877e-01fc381275a3"},"vehicle_type_id":"4","last_reported":1716829586,"current_range_meters":0,"station_id":"","pricing_plan_id":"cebpf4jnsgd1na2vs0mg"},{"bike_id":"2e27f0ea-2374-4a41-a431-d4a659e1a4c8","system_id":"levelo_inurba_marseille","lat":43.319935,"lon":5.381699,"is_reserved":false,"is_disabled":false,"rental_uris":{"android":"levelo://app?vid=2e27f0ea-2374-4a41-a431-d4a659e1a4c8","ios":"levelo://app?vid=2e27f0ea-2374-4a41-a431-d4a659e1a4c8"},"vehicle_type_id":"4","last_reported":1716829586,"current_range_meters":1600,"station_id":"ce4bhr12rcd13ifvqhpg","pricing_plan_id":"cebpf4jnsgd1na2vs0mg"},{"bike_id":"a1badf69-f4a4-4cc2-9200-293783b5b76a","system_id":"levelo_inurba_marseille","lat":43.319935,"lon":5.381699,"is_reserved":false,"is_disabled":false,"rental_uris":{"android":"levelo://app?vid=a1badf69-f4a4-4cc2-9200-293783b5b76a","ios":"levelo://app?vid=a1badf69-f4a4-4cc2-9200-293783b5b76a"},"vehicle_type_id":"4","last_reported":1716829586,"current_range_meters":0,"station_id":"ce4bhr12rcd13ifvqhpg","pricing_plan_id":"cebpf4jnsgd1na2vs0mg"},{"bike_id":"785f4dd3-303a-45e0-81c1-c186fe0ca071","system_id":"levelo_inurba_marseille","lat":43.32,"lon":5.38151,"is_reserved":false,"is_disabled":false,"rental_uris":{"android":"levelo://app?vid=785f4dd3-303a-45e0-81c1-c186fe0ca071","ios":"levelo://app?vid=785f4dd3-303a-45e0-81c1-c186fe0ca071"},"vehicle_type_id":"4","last_reported":1716829586,"current_range_meters":6800,"station_id":"ce4bhr12rcd13ifvqhpg","pricing_plan_id":"cebpf4jnsgd1na2vs0mg"},{"bike_id":"1b9c952d-f1ec-4409-bfb2-bc50a3c1ae94","system_id":"levelo_inurba_marseille","lat":43.31363,"lon":5.38491,"is_reserved":false,"is_disabled":false,"rental_uris":{"android":"levelo://app?vid=1b9c952d-f1ec-4409-bfb2-bc50a3c1ae94","ios":"levelo://app?vid=1b9c952d-f1ec-4409-bfb2-bc50a3c1ae94"},"vehicle_type_id":"4","last_reported":1716829586,"current_range_meters":7200,"station_id":"ce4bgt92rcd13ifvqcf0","pricing_plan_id":"cebpf4jnsgd1na2vs0mg"},{"bike_id":"bb3f2e57-633e-4cc9-802e-2b9f68f2bbb0","system_id":"levelo_inurba_marseille","lat":43.313571,"lon":5.384829,"is_reserved":false,"is_disabled":false,"rental_uris":{"android":"levelo://app?vid=bb3f2e57-633e-4cc9-802e-2b9f68f2bbb0","ios":"levelo://app?vid=bb3f2e57-633e-4cc9-802e-2b9f68f2bbb0"},"vehicle_type_id":"4","last_reported":1716829586,"current_range_meters":8800,"station_id":"ce4bgt92rcd13ifvqcf0","pricing_plan_id":"cebpf4jnsgd1na2vs0mg"},{"bike_id":"ea0c2635-d5a5-4f2c-979f-d4b46122a2e0","system_id":"levelo_inurba_marseille","lat":43.313571,"lon":5.384829,"is_reserved":false,"is_disabled":false,"rental_uris":{"android":"levelo://app?vid=ea0c2635-d5a5-4f2c-979f-d4b46122a2e0","ios":"levelo://app?vid=ea0c2635-d5a5-4f2c-979f-d4b46122a2e0"},"vehicle_type_id":"4","last_reported":1716829586,"current_range_meters":17200,"station_id":"ce4bgt92rcd13ifvqcf0","pricing_plan_id":"cebpf4jnsgd1na2vs0mg"},{"bike_id":"a88881af-60ac-42e8-9e40-bf35da8dee26","system_id":"levelo_inurba_marseille","lat":43.313571,"lon":5.384829,"is_reserved":false,"is_disabled":false,"rental_uris":{"android":"levelo://app?vid=a88881af-60ac-42e8-9e40-bf35da8dee26","ios":"levelo://app?vid=a88881af-60ac-42e8-9e40-bf35da8dee26"},"vehicle_type_id":"4","last_reported":1716829586,"current_range_meters":6800,"station_id":"ce4bgt92rcd13ifvqcf0","pricing_plan_id":"cebpf4jnsgd1na2vs0mg"},{"bike_id":"c3294013-2a10-4344-b741-a13091772ccd","system_id":"levelo_inurba_marseille","lat":43.313571,"lon":5.384829,"is_reserved":false,"is_disabled":false,"rental_uris":{"android":"levelo://app?vid=c3294013-2a10-4344-b741-a13091772ccd","ios":"levelo://app?vid=c3294013-2a10-4344-b741-a13091772ccd"},"vehicle_type_id":"4","last_reported":1716829586,"current_range_meters":4000,"station_id":"ce4bgt92rcd13ifvqcf0","pricing_plan_id":"cebpf4jnsgd1na2vs0mg"},{"bike_id":"0429e140-d0b0-425e-839e-6efc5d280187","system_id":"levelo_inurba_marseille","lat":43.313659,"lon":5.384959,"is_reserved":false,"is_disabled":false,"rental_uris":{"android":"levelo://app?vid=0429e140-d0b0-425e-839e-6efc5d280187","ios":"levelo://app?vid=0429e140-d0b0-425e-839e-6efc5d280187"},"vehicle_type_id":"4","last_reported":1716829586,"current_range_meters":4000,"station_id":"ce4bgt92rcd13ifvqcf0","pricing_plan_id":"cebpf4jnsgd1na2vs0mg"},{"bike_id":"ff0ab7cb-ce68-4f8a-a7df-2b3990d6a42c","system_id":"levelo_inurba_marseille","lat":43.29972,"lon":5.37181,"is_reserved":false,"is_disabled":false,"rental_uris":{"android":"levelo://app?vid=ff0ab7cb-ce68-4f8a-a7df-2b3990d6a42c","ios":"levelo://app?vid=ff0ab7cb-ce68-4f8a-a7df-2b3990d6a42c"},"vehicle_type_id":"4","last_reported":1716829586,"current_range_meters":17600,"station_id":"ce4bgr92rcd13ifvqc7g","pricing_plan_id":"cebpf4jnsgd1na2vs0mg"},{"bike_id":"5c50ef68-460b-489d-96e1-3bf8c73ce58a","system_id":"levelo_inurba_marseille","lat":43.313571,"lon":5.384829,"is_reserved":false,"is_disabled":false,"rental_uris":{"android":"levelo://app?vid=5c50ef68-460b-489d-96e1-3bf8c73ce58a","ios":"levelo://app?vid=5c50ef68-460b-489d-96e1-3bf8c73ce58a"},"vehicle_type_id":"4","last_reported":1716829586,"current_range_meters":23600,"station_id":"ce4bgt92rcd13ifvqcf0","pricing_plan_id":"cebpf4jnsgd1na2vs0mg"},{"bike_id":"e102970e-75fe-43ec-8628-d8567e4267f2","system_id":"levelo_inurba_marseille","lat":43.324771,"lon":5.36557,"is_reserved":false,"is_disabled":false,"rental_uris":{"android":"levelo://app?vid=e102970e-75fe-43ec-8628-d8567e4267f2","ios":"levelo://app?vid=e102970e-75fe-43ec-8628-d8567e4267f2"},"vehicle_type_id":"4","last_reported":1716829586,"current_range_meters":9600,"station_id":"ce4bhs12rcd13ifvqhvg","pricing_plan_id":"cebpf4jnsgd1na2vs0mg"},{"bike_id":"7c0279c4-785e-41cc-9875-11b1aa5697b0","system_id":"levelo_inurba_marseille","lat":43.298433,"lon":5.362774,"is_reserved":false,"is_disabled":false,"rental_uris":{"android":"levelo://app?vid=7c0279c4-785e-41cc-9875-11b1aa5697b0","ios":"levelo://app?vid=7c0279c4-785e-41cc-9875-11b1aa5697b0"},"vehicle_type_id":"4","last_reported":1716829586,"current_range_meters":30400,"station_id":"ce4bgpp2rcd13ifvqc3g","pricing_plan_id":"cebpf4jnsgd1na2vs0mg"},{"bike_id":"44d359f7-757d-4c32-92cc-61e1e2caa055","system_id":"levelo_inurba_marseille","lat":43.298433,"lon":5.362774,"is_reserved":false,"is_disabled":false,"rental_uris":{"android":"levelo://app?vid=44d359f7-757d-4c32-92cc-61e1e2caa055","ios":"levelo://app?vid=44d359f7-757d-4c32-92cc-61e1e2caa055"},"vehicle_type_id":"4","last_reported":1716829586,"current_range_meters":8800,"station_id":"ce4bgpp2rcd13ifvqc3g","pricing_plan_id":"cebpf4jnsgd1na2vs0mg"},{"bike_id":"198d3fa6-1bd8-4ff7-8cd9-5b6028c0e35c","system_id":"levelo_inurba_marseille","lat":43.299243,"lon":5.374807,"is_reserved":false,"is_disabled":false,"rental_uris":{"android":"levelo://app?vid=198d3fa6-1bd8-4ff7-8cd9-5b6028c0e35c","ios":"levelo://app?vid=198d3fa6-1bd8-4ff7-8cd9-5b6028c0e35c"},"vehicle_type_id":"4","last_reported":1716829586,"current_range_meters":17200,"station_id":"ce4bgjh2rcd13ifvqbg0","pricing_plan_id":"cebpf4jnsgd1na2vs0mg"},{"bike_id":"a733e7c6-8ebc-430e-88af-0f9b6a7f1a44","system_id":"levelo_inurba_marseille","lat":43.311784,"lon":5.387116,"is_reserved":false,"is_disabled":false,"rental_uris":{"android":"levelo://app?vid=a733e7c6-8ebc-430e-88af-0f9b6a7f1a44","ios":"levelo://app?vid=a733e7c6-8ebc-430e-88af-0f9b6a7f1a44"},"vehicle_type_id":"4","last_reported":1716829586,"current_range_meters":0,"station_id":"ce4bgv12rcd13ifvqcp0","pricing_plan_id":"cebpf4jnsgd1na2vs0mg"},{"bike_id":"57c62937-e245-41c9-a3e0-1f2bd6052741","system_id":"levelo_inurba_marseille","lat":43.311722,"lon":5.387247,"is_reserved":false,"is_disabled":false,"rental_uris":{"android":"levelo://app?vid=57c62937-e245-41c9-a3e0-1f2bd6052741","ios":"levelo://app?vid=57c62937-e245-41c9-a3e0-1f2bd6052741"},"vehicle_type_id":"4","last_reported":1716829586,"current_range_meters":400,"station_id":"ce4bgv12rcd13ifvqcp0","pricing_plan_id":"cebpf4jnsgd1na2vs0mg"},{"bike_id":"ed492a4e-944e-43b3-bd26-4581a8e6f7a8","system_id":"levelo_inurba_marseille","lat":43.297774,"lon":5.370875,"is_reserved":false,"is_disabled":false,"rental_uris":{"android":"levelo://app?vid=ed492a4e-944e-43b3-bd26-4581a8e6f7a8","ios":"levelo://app?vid=ed492a4e-944e-43b3-bd26-4581a8e6f7a8"},"vehicle_type_id":"4","last_reported":1716829586,"current_range_meters":29600,"station_id":"ce4bgop2rcd13ifvqc1g","pricing_plan_id":"cebpf4jnsgd1na2vs0mg"},{"bike_id":"cc426d27-2544-434f-899d-2da928eb6523","system_id":"levelo_inurba_marseille","lat":43.297774,"lon":5.370875,"is_reserved":false,"is_disabled":false,"rental_uris":{"android":"levelo://app?vid=cc426d27-2544-434f-899d-2da928eb6523","ios":"levelo://app?vid=cc426d27-2544-434f-899d-2da928eb6523"},"vehicle_type_id":"4","last_reported":1716829586,"current_range_meters":4400,"station_id":"ce4bgop2rcd13ifvqc1g","pricing_plan_id":"cebpf4jnsgd1na2vs0mg"},{"bike_id":"07234d80-77a0-4b8d-a557-4cf7874cf76c","system_id":"levelo_inurba_marseille","lat":43.297774,"lon":5.370875,"is_reserved":false,"is_disabled":false,"rental_uris":{"android":"levelo://app?vid=07234d80-77a0-4b8d-a557-4cf7874cf76c","ios":"levelo://app?vid=07234d80-77a0-4b8d-a557-4cf7874cf76c"},"vehicle_type_id":"4","last_reported":1716829586,"current_range_meters":17600,"station_id":"ce4bgop2rcd13ifvqc1g","pricing_plan_id":"cebpf4jnsgd1na2vs0mg"},{"bike_id":"99af79de-3e72-4223-904b-796880684ca3","system_id":"levelo_inurba_marseille","lat":43.322872,"lon":5.382756,"is_reserved":false,"is_disabled":false,"rental_uris":{"android":"levelo://app?vid=99af79de-3e72-4223-904b-796880684ca3","ios":"levelo://app?vid=99af79de-3e72-4223-904b-796880684ca3"},"vehicle_type_id":"4","last_reported":1716829586,"current_range_meters":6000,"station_id":"ce4bhr12rcd13ifvqhqg","pricing_plan_id":"cebpf4jnsgd1na2vs0mg"},{"bike_id":"f7ca7673-efdc-40fb-8d55-183ce37ea974","system_id":"levelo_inurba_marseille","lat":43.297794,"lon":5.370888,"is_reserved":false,"is_disabled":false,"rental_uris":{"android":"levelo://app?vid=f7ca7673-efdc-40fb-8d55-183ce37ea974","ios":"levelo://app?vid=f7ca7673-efdc-40fb-8d55-183ce37ea974"},"vehicle_type_id":"4","last_reported":1716829586,"current_range_meters":25200,"station_id":"ce4bgop2rcd13ifvqc1g","pricing_plan_id":"cebpf4jnsgd1na2vs0mg"},{"bike_id":"f645e5e7-f450-486f-bce3-1ac9433d5e15","system_id":"levelo_inurba_marseille","lat":43.322872,"lon":5.382756,"is_reserved":false,"is_disabled":false,"rental_uris":{"android":"levelo://app?vid=f645e5e7-f450-486f-bce3-1ac9433d5e15","ios":"levelo://app?vid=f645e5e7-f450-486f-bce3-1ac9433d5e15"},"vehicle_type_id":"4","last_reported":1716829586,"current_range_meters":8400,"station_id":"ce4bhr12rcd13ifvqhqg","pricing_plan_id":"cebpf4jnsgd1na2vs0mg"},{"bike_id":"d10c334a-60bb-4e55-84b8-1b684b39e26e","system_id":"levelo_inurba_marseille","lat":43.322872,"lon":5.382756,"is_reserved":false,"is_disabled":false,"rental_uris":{"android":"levelo://app?vid=d10c334a-60bb-4e55-84b8-1b684b39e26e","ios":"levelo://app?vid=d10c334a-60bb-4e55-84b8-1b684b39e26e"},"vehicle_type_id":"4","last_reported":1716829586,"current_range_meters":14000,"station_id":"ce4bhr12rcd13ifvqhqg","pricing_plan_id":"cebpf4jnsgd1na2vs0mg"},{"bike_id":"b464207f-51d3-4374-860e-4a219be20940","system_id":"levelo_inurba_marseille","lat":43.322872,"lon":5.382756,"is_reserved":false,"is_disabled":false,"rental_uris":{"android":"levelo://app?vid=b464207f-51d3-4374-860e-4a219be20940","ios":"levelo://app?vid=b464207f-51d3-4374-860e-4a219be20940"},"vehicle_type_id":"4","last_reported":1716829586,"current_range_meters":27200,"station_id":"ce4bhr12rcd13ifvqhqg","pricing_plan_id":"cebpf4jnsgd1na2vs0mg"},{"bike_id":"ea0aa6cd-74f3-4053-a212-05642e95cd9c","system_id":"levelo_inurba_marseille","lat":43.32289,"lon":5.38278,"is_reserved":false,"is_disabled":false,"rental_uris":{"android":"levelo://app?vid=ea0aa6cd-74f3-4053-a212-05642e95cd9c","ios":"levelo://app?vid=ea0aa6cd-74f3-4053-a212-05642e95cd9c"},"vehicle_type_id":"4","last_reported":1716829586,"current_range_meters":8400,"station_id":"ce4bhr12rcd13ifvqhqg","pricing_plan_id":"cebpf4jnsgd1na2vs0mg"},{"bike_id":"e031fb8d-c209-4e77-8213-86cdb1e75355","system_id":"levelo_inurba_marseille","lat":43.322872,"lon":5.382756,"is_reserved":false,"is_disabled":false,"rental_uris":{"android":"levelo://app?vid=e031fb8d-c209-4e77-8213-86cdb1e75355","ios":"levelo://app?vid=e031fb8d-c209-4e77-8213-86cdb1e75355"},"vehicle_type_id":"4","last_reported":1716829586,"current_range_meters":5600,"station_id":"ce4bhr12rcd13ifvqhqg","pricing_plan_id":"cebpf4jnsgd1na2vs0mg"},{"bike_id":"a2ed0a57-945a-416c-a663-39d9b3420c3e","system_id":"levelo_inurba_marseille","lat":43.322872,"lon":5.382756,"is_reserved":false,"is_disabled":false,"rental_uris":{"android":"levelo://app?vid=a2ed0a57-945a-416c-a663-39d9b3420c3e","ios":"levelo://app?vid=a2ed0a57-945a-416c-a663-39d9b3420c3e"},"vehicle_type_id":"4","last_reported":1716829586,"current_range_meters":2400,"station_id":"ce4bhr12rcd13ifvqhqg","pricing_plan_id":"cebpf4jnsgd1na2vs0mg"},{"bike_id":"9f5fc843-4d63-4200-b164-fd69ca8a887d","system_id":"levelo_inurba_marseille","lat":43.32291,"lon":5.38278,"is_reserved":false,"is_disabled":false,"rental_uris":{"android":"levelo://app?vid=9f5fc843-4d63-4200-b164-fd69ca8a887d","ios":"levelo://app?vid=9f5fc843-4d63-4200-b164-fd69ca8a887d"},"vehicle_type_id":"4","last_reported":1716829586,"current_range_meters":12000,"station_id":"ce4bhr12rcd13ifvqhqg","pricing_plan_id":"cebpf4jnsgd1na2vs0mg"},{"bike_id":"5d706551-d271-46d8-8a85-531fbecaa894","system_id":"levelo_inurba_marseille","lat":43.322872,"lon":5.382756,"is_reserved":false,"is_disabled":false,"rental_uris":{"android":"levelo://app?vid=5d706551-d271-46d8-8a85-531fbecaa894","ios":"levelo://app?vid=5d706551-d271-46d8-8a85-531fbecaa894"},"vehicle_type_id":"4","last_reported":1716829586,"current_range_meters":0,"station_id":"ce4bhr12rcd13ifvqhqg","pricing_plan_id":"cebpf4jnsgd1na2vs0mg"},{"bike_id":"52d09dd4-5151-430f-9b5f-2767b9b8fb68","system_id":"levelo_inurba_marseille","lat":43.322862,"lon":5.382849,"is_reserved":false,"is_disabled":false,"rental_uris":{"android":"levelo://app?vid=52d09dd4-5151-430f-9b5f-2767b9b8fb68","ios":"levelo://app?vid=52d09dd4-5151-430f-9b5f-2767b9b8fb68"},"vehicle_type_id":"4","last_reported":1716829586,"current_range_meters":22000,"station_id":"ce4bhr12rcd13ifvqhqg","pricing_plan_id":"cebpf4jnsgd1na2vs0mg"},{"bike_id":"eb36f279-e269-4809-8ae0-a388eefeb02f","system_id":"levelo_inurba_marseille","lat":43.322872,"lon":5.382756,"is_reserved":false,"is_disabled":false,"rental_uris":{"android":"levelo://app?vid=eb36f279-e269-4809-8ae0-a388eefeb02f","ios":"levelo://app?vid=eb36f279-e269-4809-8ae0-a388eefeb02f"},"vehicle_type_id":"4","last_reported":1716829586,"current_range_meters":25600,"station_id":"ce4bhr12rcd13ifvqhqg","pricing_plan_id":"cebpf4jnsgd1na2vs0mg"},{"bike_id":"aeb1718d-3113-4a0b-995a-121fc40f6cc3","system_id":"levelo_inurba_marseille","lat":43.322872,"lon":5.382756,"is_reserved":false,"is_disabled":false,"rental_uris":{"android":"levelo://app?vid=aeb1718d-3113-4a0b-995a-121fc40f6cc3","ios":"levelo://app?vid=aeb1718d-3113-4a0b-995a-121fc40f6cc3"},"vehicle_type_id":"4","last_reported":1716829586,"current_range_meters":31600,"station_id":"ce4bhr12rcd13ifvqhqg","pricing_plan_id":"cebpf4jnsgd1na2vs0mg"},{"bike_id":"619aea18-c165-4474-9f0e-fbdc0260731e","system_id":"levelo_inurba_marseille","lat":43.297163,"lon":5.365866,"is_reserved":false,"is_disabled":false,"rental_uris":{"android":"levelo://app?vid=619aea18-c165-4474-9f0e-fbdc0260731e","ios":"levelo://app?vid=619aea18-c165-4474-9f0e-fbdc0260731e"},"vehicle_type_id":"4","last_reported":1716829586,"current_range_meters":11200,"station_id":"ce4bgn12rcd13ifvqbt0","pricing_plan_id":"cebpf4jnsgd1na2vs0mg"},{"bike_id":"21e2bb6b-6a31-4156-b041-645a39120f09","system_id":"levelo_inurba_marseille","lat":43.297163,"lon":5.365866,"is_reserved":false,"is_disabled":false,"rental_uris":{"android":"levelo://app?vid=21e2bb6b-6a31-4156-b041-645a39120f09","ios":"levelo://app?vid=21e2bb6b-6a31-4156-b041-645a39120f09"},"vehicle_type_id":"4","last_reported":1716829586,"current_range_meters":16800,"station_id":"ce4bgn12rcd13ifvqbt0","pricing_plan_id":"cebpf4jnsgd1na2vs0mg"},{"bike_id":"061c38ad-e80e-4425-a1f0-fc4dead301a6","system_id":"levelo_inurba_marseille","lat":43.297163,"lon":5.365866,"is_reserved":false,"is_disabled":false,"rental_uris":{"android":"levelo://app?vid=061c38ad-e80e-4425-a1f0-fc4dead301a6","ios":"levelo://app?vid=061c38ad-e80e-4425-a1f0-fc4dead301a6"},"vehicle_type_id":"4","last_reported":1716829586,"current_range_meters":24000,"station_id":"ce4bgn12rcd13ifvqbt0","pricing_plan_id":"cebpf4jnsgd1na2vs0mg"},{"bike_id":"720602b0-7bd2-4fc6-8174-f916937ffec2","system_id":"levelo_inurba_marseille","lat":43.2968,"lon":5.37291,"is_reserved":false,"is_disabled":false,"rental_uris":{"android":"levelo://app?vid=720602b0-7bd2-4fc6-8174-f916937ffec2","ios":"levelo://app?vid=720602b0-7bd2-4fc6-8174-f916937ffec2"},"vehicle_type_id":"4","last_reported":1716829586,"current_range_meters":7200,"station_id":"ce4bgk12rcd13ifvqbj0","pricing_plan_id":"cebpf4jnsgd1na2vs0mg"},{"bike_id":"4b046c52-9a99-4f8b-91a2-72c750cb86e5","system_id":"levelo_inurba_marseille","lat":43.30323,"lon":5.38531,"is_reserved":false,"is_disabled":false,"rental_uris":{"android":"levelo://app?vid=4b046c52-9a99-4f8b-91a2-72c750cb86e5","ios":"levelo://app?vid=4b046c52-9a99-4f8b-91a2-72c750cb86e5"},"vehicle_type_id":"4","last_reported":1716829586,"current_range_meters":0,"station_id":"","pricing_plan_id":"cebpf4jnsgd1na2vs0mg"},{"bike_id":"06eab709-f0af-448f-b518-574234abf1b4","system_id":"levelo_inurba_marseille","lat":43.2968,"lon":5.37291,"is_reserved":false,"is_disabled":false,"rental_uris":{"android":"levelo://app?vid=06eab709-f0af-448f-b518-574234abf1b4","ios":"levelo://app?vid=06eab709-f0af-448f-b518-574234abf1b4"},"vehicle_type_id":"4","last_reported":1716829586,"current_range_meters":22000,"station_id":"ce4bgk12rcd13ifvqbj0","pricing_plan_id":"cebpf4jnsgd1na2vs0mg"},{"bike_id":"22326cdf-0886-4b40-addd-d537aac187f0","system_id":"levelo_inurba_marseille","lat":43.300075,"lon":5.381418,"is_reserved":false,"is_disabled":false,"rental_uris":{"android":"levelo://app?vid=22326cdf-0886-4b40-addd-d537aac187f0","ios":"levelo://app?vid=22326cdf-0886-4b40-addd-d537aac187f0"},"vehicle_type_id":"4","last_reported":1716829586,"current_range_meters":27200,"station_id":"","pricing_plan_id":"cebpf4jnsgd1na2vs0mg"},{"bike_id":"be15eb59-cdf9-4aaa-9213-ecfe270d5773","system_id":"levelo_inurba_marseille","lat":43.2968,"lon":5.37291,"is_reserved":false,"is_disabled":false,"rental_uris":{"android":"levelo://app?vid=be15eb59-cdf9-4aaa-9213-ecfe270d5773","ios":"levelo://app?vid=be15eb59-cdf9-4aaa-9213-ecfe270d5773"},"vehicle_type_id":"4","last_reported":1716829586,"current_range_meters":1200,"station_id":"ce4bgk12rcd13ifvqbj0","pricing_plan_id":"cebpf4jnsgd1na2vs0mg"},{"bike_id":"365b3418-9264-43a6-a9ae-c5eef867791a","system_id":"levelo_inurba_marseille","lat":43.29692,"lon":5.3737,"is_reserved":false,"is_disabled":false,"rental_uris":{"android":"levelo://app?vid=365b3418-9264-43a6-a9ae-c5eef867791a","ios":"levelo://app?vid=365b3418-9264-43a6-a9ae-c5eef867791a"},"vehicle_type_id":"4","last_reported":1716829586,"current_range_meters":14000,"station_id":"","pricing_plan_id":"cebpf4jnsgd1na2vs0mg"},{"bike_id":"b0181dbd-d16d-4347-9382-b450da867146","system_id":"levelo_inurba_marseille","lat":43.29657,"lon":5.36162,"is_reserved":false,"is_disabled":false,"rental_uris":{"android":"levelo://app?vid=b0181dbd-d16d-4347-9382-b450da867146","ios":"levelo://app?vid=b0181dbd-d16d-4347-9382-b450da867146"},"vehicle_type_id":"4","last_reported":1716829586,"current_range_meters":400,"station_id":"","pricing_plan_id":"cebpf4jnsgd1na2vs0mg"},{"bike_id":"854253c6-c999-4932-a0bd-b2ed7b456406","system_id":"levelo_inurba_marseille","lat":43.29624,"lon":5.37176,"is_reserved":false,"is_disabled":false,"rental_uris":{"android":"levelo://app?vid=854253c6-c999-4932-a0bd-b2ed7b456406","ios":"levelo://app?vid=854253c6-c999-4932-a0bd-b2ed7b456406"},"vehicle_type_id":"4","last_reported":1716829586,"current_range_meters":18400,"station_id":"","pricing_plan_id":"cebpf4jnsgd1na2vs0mg"},{"bike_id":"48c54981-b671-4464-800e-5ffaf28c758e","system_id":"levelo_inurba_marseille","lat":43.309589,"lon":5.390258,"is_reserved":false,"is_disabled":false,"rental_uris":{"android":"levelo://app?vid=48c54981-b671-4464-800e-5ffaf28c758e","ios":"levelo://app?vid=48c54981-b671-4464-800e-5ffaf28c758e"},"vehicle_type_id":"4","last_reported":1716829586,"current_range_meters":8000,"station_id":"ce4bgup2rcd13ifvqco0","pricing_plan_id":"cebpf4jnsgd1na2vs0mg"},{"bike_id":"798d43ec-3f4e-4e66-bd73-1e112c465b95","system_id":"levelo_inurba_marseille","lat":43.309047,"lon":5.396551,"is_reserved":false,"is_disabled":false,"rental_uris":{"android":"levelo://app?vid=798d43ec-3f4e-4e66-bd73-1e112c465b95","ios":"levelo://app?vid=798d43ec-3f4e-4e66-bd73-1e112c465b95"},"vehicle_type_id":"4","last_reported":1716829586,"current_range_meters":7200,"station_id":"ce4bh012rcd13ifvqcv0","pricing_plan_id":"cebpf4jnsgd1na2vs0mg"},{"bike_id":"10b459eb-0632-4448-8889-0bafb9cf04c4","system_id":"levelo_inurba_marseille","lat":43.296935,"lon":5.376544,"is_reserved":false,"is_disabled":false,"rental_uris":{"android":"levelo://app?vid=10b459eb-0632-4448-8889-0bafb9cf04c4","ios":"levelo://app?vid=10b459eb-0632-4448-8889-0bafb9cf04c4"},"vehicle_type_id":"4","last_reported":1716829586,"current_range_meters":3600,"station_id":"ce4bgkh2rcd13ifvqbl0","pricing_plan_id":"cebpf4jnsgd1na2vs0mg"},{"bike_id":"cb9c6dc6-8ee5-41de-8f51-3b54b14ccb3b","system_id":"levelo_inurba_marseille","lat":43.296935,"lon":5.376544,"is_reserved":false,"is_disabled":false,"rental_uris":{"android":"levelo://app?vid=cb9c6dc6-8ee5-41de-8f51-3b54b14ccb3b","ios":"levelo://app?vid=cb9c6dc6-8ee5-41de-8f51-3b54b14ccb3b"},"vehicle_type_id":"4","last_reported":1716829586,"current_range_meters":17600,"station_id":"ce4bgkh2rcd13ifvqbl0","pricing_plan_id":"cebpf4jnsgd1na2vs0mg"},{"bike_id":"ace517e2-3f15-40b7-a87b-a46710faf565","system_id":"levelo_inurba_marseille","lat":43.296935,"lon":5.376544,"is_reserved":false,"is_disabled":false,"rental_uris":{"android":"levelo://app?vid=ace517e2-3f15-40b7-a87b-a46710faf565","ios":"levelo://app?vid=ace517e2-3f15-40b7-a87b-a46710faf565"},"vehicle_type_id":"4","last_reported":1716829586,"current_range_meters":0,"station_id":"ce4bgkh2rcd13ifvqbl0","pricing_plan_id":"cebpf4jnsgd1na2vs0mg"},{"bike_id":"aa024c6f-c982-4a88-88c2-c369db94134c","system_id":"levelo_inurba_marseille","lat":43.296921,"lon":5.376579,"is_reserved":false,"is_disabled":false,"rental_uris":{"android":"levelo://app?vid=aa024c6f-c982-4a88-88c2-c369db94134c","ios":"levelo://app?vid=aa024c6f-c982-4a88-88c2-c369db94134c"},"vehicle_type_id":"4","last_reported":1716829586,"current_range_meters":24000,"station_id":"ce4bgkh2rcd13ifvqbl0","pricing_plan_id":"cebpf4jnsgd1na2vs0mg"},{"bike_id":"fe9f3e4a-060b-49b2-ad35-84bcf45fba2c","system_id":"levelo_inurba_marseille","lat":43.317557,"lon":5.390173,"is_reserved":false,"is_disabled":false,"rental_uris":{"android":"levelo://app?vid=fe9f3e4a-060b-49b2-ad35-84bcf45fba2c","ios":"levelo://app?vid=fe9f3e4a-060b-49b2-ad35-84bcf45fba2c"},"vehicle_type_id":"4","last_reported":1716829586,"current_range_meters":30400,"station_id":"ce4bhqp2rcd13ifvqhng","pricing_plan_id":"cebpf4jnsgd1na2vs0mg"},{"bike_id":"5f7f4af4-c820-4867-89af-44130f83b35f","system_id":"levelo_inurba_marseille","lat":43.317557,"lon":5.390173,"is_reserved":false,"is_disabled":false,"rental_uris":{"android":"levelo://app?vid=5f7f4af4-c820-4867-89af-44130f83b35f","ios":"levelo://app?vid=5f7f4af4-c820-4867-89af-44130f83b35f"},"vehicle_type_id":"4","last_reported":1716829586,"current_range_meters":26400,"station_id":"ce4bhqp2rcd13ifvqhng","pricing_plan_id":"cebpf4jnsgd1na2vs0mg"},{"bike_id":"dfe80851-370b-43d6-9654-bade78148f57","system_id":"levelo_inurba_marseille","lat":43.317557,"lon":5.390173,"is_reserved":false,"is_disabled":false,"rental_uris":{"android":"levelo://app?vid=dfe80851-370b-43d6-9654-bade78148f57","ios":"levelo://app?vid=dfe80851-370b-43d6-9654-bade78148f57"},"vehicle_type_id":"4","last_reported":1716829586,"current_range_meters":7200,"station_id":"ce4bhqp2rcd13ifvqhng","pricing_plan_id":"cebpf4jnsgd1na2vs0mg"},{"bike_id":"6950e146-2cca-4d2d-9fa6-51c1ffa282f5","system_id":"levelo_inurba_marseille","lat":43.3176,"lon":5.390199,"is_reserved":false,"is_disabled":false,"rental_uris":{"android":"levelo://app?vid=6950e146-2cca-4d2d-9fa6-51c1ffa282f5","ios":"levelo://app?vid=6950e146-2cca-4d2d-9fa6-51c1ffa282f5"},"vehicle_type_id":"4","last_reported":1716829586,"current_range_meters":400,"station_id":"ce4bhqp2rcd13ifvqhng","pricing_plan_id":"cebpf4jnsgd1na2vs0mg"},{"bike_id":"50edb496-6526-413f-997a-282b5226de08","system_id":"levelo_inurba_marseille","lat":43.317557,"lon":5.390173,"is_reserved":false,"is_disabled":false,"rental_uris":{"android":"levelo://app?vid=50edb496-6526-413f-997a-282b5226de08","ios":"levelo://app?vid=50edb496-6526-413f-997a-282b5226de08"},"vehicle_type_id":"4","last_reported":1716829586,"current_range_meters":29200,"station_id":"ce4bhqp2rcd13ifvqhng","pricing_plan_id":"cebpf4jnsgd1na2vs0mg"},{"bike_id":"dfa106c8-6c01-4b55-a5e5-d7a53568b137","system_id":"levelo_inurba_marseille","lat":43.298037,"lon":5.381066,"is_reserved":false,"is_disabled":false,"rental_uris":{"android":"levelo://app?vid=dfa106c8-6c01-4b55-a5e5-d7a53568b137","ios":"levelo://app?vid=dfa106c8-6c01-4b55-a5e5-d7a53568b137"},"vehicle_type_id":"4","last_reported":1716829586,"current_range_meters":12800,"station_id":"ce4bgip2rcd13ifvqbb0","pricing_plan_id":"cebpf4jnsgd1na2vs0mg"},{"bike_id":"fa10a8a3-7163-42fc-94ab-e8b11ebbcc8a","system_id":"levelo_inurba_marseille","lat":43.317557,"lon":5.390173,"is_reserved":false,"is_disabled":false,"rental_uris":{"android":"levelo://app?vid=fa10a8a3-7163-42fc-94ab-e8b11ebbcc8a","ios":"levelo://app?vid=fa10a8a3-7163-42fc-94ab-e8b11ebbcc8a"},"vehicle_type_id":"4","last_reported":1716829586,"current_range_meters":16000,"station_id":"ce4bhqp2rcd13ifvqhng","pricing_plan_id":"cebpf4jnsgd1na2vs0mg"},{"bike_id":"085f8808-1d82-4a31-a42a-8e58df7e3717","system_id":"levelo_inurba_marseille","lat":43.29712,"lon":5.37876,"is_reserved":false,"is_disabled":false,"rental_uris":{"android":"levelo://app?vid=085f8808-1d82-4a31-a42a-8e58df7e3717","ios":"levelo://app?vid=085f8808-1d82-4a31-a42a-8e58df7e3717"},"vehicle_type_id":"4","last_reported":1716829586,"current_range_meters":22000,"station_id":"","pricing_plan_id":"cebpf4jnsgd1na2vs0mg"},{"bike_id":"56ac838a-cd3f-4dde-9852-0f71e5a04405","system_id":"levelo_inurba_marseille","lat":43.298037,"lon":5.381066,"is_reserved":false,"is_disabled":false,"rental_uris":{"android":"levelo://app?vid=56ac838a-cd3f-4dde-9852-0f71e5a04405","ios":"levelo://app?vid=56ac838a-cd3f-4dde-9852-0f71e5a04405"},"vehicle_type_id":"4","last_reported":1716829586,"current_range_meters":0,"station_id":"ce4bgip2rcd13ifvqbb0","pricing_plan_id":"cebpf4jnsgd1na2vs0mg"},{"bike_id":"6f4ab738-ac2a-4687-a51c-7c15475bde6b","system_id":"levelo_inurba_marseille","lat":43.298037,"lon":5.381066,"is_reserved":false,"is_disabled":false,"rental_uris":{"android":"levelo://app?vid=6f4ab738-ac2a-4687-a51c-7c15475bde6b","ios":"levelo://app?vid=6f4ab738-ac2a-4687-a51c-7c15475bde6b"},"vehicle_type_id":"4","last_reported":1716829586,"current_range_meters":13200,"station_id":"ce4bgip2rcd13ifvqbb0","pricing_plan_id":"cebpf4jnsgd1na2vs0mg"},{"bike_id":"3df907dd-d751-4d95-8deb-74db8e9a3fd7","system_id":"levelo_inurba_marseille","lat":43.298037,"lon":5.381066,"is_reserved":false,"is_disabled":false,"rental_uris":{"android":"levelo://app?vid=3df907dd-d751-4d95-8deb-74db8e9a3fd7","ios":"levelo://app?vid=3df907dd-d751-4d95-8deb-74db8e9a3fd7"},"vehicle_type_id":"4","last_reported":1716829586,"current_range_meters":16400,"station_id":"ce4bgip2rcd13ifvqbb0","pricing_plan_id":"cebpf4jnsgd1na2vs0mg"},{"bike_id":"73c3bcef-518d-4c25-92cb-e45b8a701f2c","system_id":"levelo_inurba_marseille","lat":43.304274,"lon":5.388873,"is_reserved":false,"is_disabled":false,"rental_uris":{"android":"levelo://app?vid=73c3bcef-518d-4c25-92cb-e45b8a701f2c","ios":"levelo://app?vid=73c3bcef-518d-4c25-92cb-e45b8a701f2c"},"vehicle_type_id":"4","last_reported":1716829586,"current_range_meters":800,"station_id":"ce4bgk12rcd13ifvqbi0","pricing_plan_id":"cebpf4jnsgd1na2vs0mg"},{"bike_id":"a556eac7-185a-487a-bf44-a2bdb6bce0b1","system_id":"levelo_inurba_marseille","lat":43.295748,"lon":5.37522,"is_reserved":false,"is_disabled":false,"rental_uris":{"android":"levelo://app?vid=a556eac7-185a-487a-bf44-a2bdb6bce0b1","ios":"levelo://app?vid=a556eac7-185a-487a-bf44-a2bdb6bce0b1"},"vehicle_type_id":"4","last_reported":1716829586,"current_range_meters":30400,"station_id":"ce4bgh92rcd13ifvqb50","pricing_plan_id":"cebpf4jnsgd1na2vs0mg"},{"bike_id":"9c01c4d2-59d4-46ed-9fae-bfd0105074be","system_id":"levelo_inurba_marseille","lat":43.298037,"lon":5.381066,"is_reserved":false,"is_disabled":false,"rental_uris":{"android":"levelo://app?vid=9c01c4d2-59d4-46ed-9fae-bfd0105074be","ios":"levelo://app?vid=9c01c4d2-59d4-46ed-9fae-bfd0105074be"},"vehicle_type_id":"4","last_reported":1716829586,"current_range_meters":7600,"station_id":"ce4bgip2rcd13ifvqbb0","pricing_plan_id":"cebpf4jnsgd1na2vs0mg"},{"bike_id":"0f422e27-517e-4feb-b660-d6579b662c36","system_id":"levelo_inurba_marseille","lat":43.296277,"lon":5.377108,"is_reserved":false,"is_disabled":false,"rental_uris":{"android":"levelo://app?vid=0f422e27-517e-4feb-b660-d6579b662c36","ios":"levelo://app?vid=0f422e27-517e-4feb-b660-d6579b662c36"},"vehicle_type_id":"4","last_reported":1716829586,"current_range_meters":9600,"station_id":"ce4bgi92rcd13ifvqb90","pricing_plan_id":"cebpf4jnsgd1na2vs0mg"},{"bike_id":"730ee486-30fb-4097-b103-dcaff1f3ff93","system_id":"levelo_inurba_marseille","lat":43.296263,"lon":5.377094,"is_reserved":false,"is_disabled":false,"rental_uris":{"android":"levelo://app?vid=730ee486-30fb-4097-b103-dcaff1f3ff93","ios":"levelo://app?vid=730ee486-30fb-4097-b103-dcaff1f3ff93"},"vehicle_type_id":"4","last_reported":1716829586,"current_range_meters":27600,"station_id":"ce4bgi92rcd13ifvqb90","pricing_plan_id":"cebpf4jnsgd1na2vs0mg"},{"bike_id":"27384079-6da4-4046-85b8-93b52f3f70c1","system_id":"levelo_inurba_marseille","lat":43.29788,"lon":5.38125,"is_reserved":false,"is_disabled":false,"rental_uris":{"android":"levelo://app?vid=27384079-6da4-4046-85b8-93b52f3f70c1","ios":"levelo://app?vid=27384079-6da4-4046-85b8-93b52f3f70c1"},"vehicle_type_id":"4","last_reported":1716829586,"current_range_meters":1200,"station_id":"ce4bgip2rcd13ifvqbb0","pricing_plan_id":"cebpf4jnsgd1na2vs0mg"},{"bike_id":"727ac38a-cf79-47ad-894f-622661f91d51","system_id":"levelo_inurba_marseille","lat":43.304046,"lon":5.389026,"is_reserved":false,"is_disabled":false,"rental_uris":{"android":"levelo://app?vid=727ac38a-cf79-47ad-894f-622661f91d51","ios":"levelo://app?vid=727ac38a-cf79-47ad-894f-622661f91d51"},"vehicle_type_id":"4","last_reported":1716829586,"current_range_meters":0,"station_id":"ce4bgk12rcd13ifvqbi0","pricing_plan_id":"cebpf4jnsgd1na2vs0mg"},{"bike_id":"4ebc6ac2-8604-40a8-948e-76556db87078","system_id":"levelo_inurba_marseille","lat":43.299707,"lon":5.384859,"is_reserved":false,"is_disabled":false,"rental_uris":{"android":"levelo://app?vid=4ebc6ac2-8604-40a8-948e-76556db87078","ios":"levelo://app?vid=4ebc6ac2-8604-40a8-948e-76556db87078"},"vehicle_type_id":"4","last_reported":1716829586,"current_range_meters":0,"station_id":"ce4bgj92rcd13ifvqbd0","pricing_plan_id":"cebpf4jnsgd1na2vs0mg"},{"bike_id":"9beb87c4-5bb7-4d1c-931e-790171764e4d","system_id":"levelo_inurba_marseille","lat":43.299707,"lon":5.384859,"is_reserved":false,"is_disabled":false,"rental_uris":{"android":"levelo://app?vid=9beb87c4-5bb7-4d1c-931e-790171764e4d","ios":"levelo://app?vid=9beb87c4-5bb7-4d1c-931e-790171764e4d"},"vehicle_type_id":"4","last_reported":1716829586,"current_range_meters":14800,"station_id":"ce4bgj92rcd13ifvqbd0","pricing_plan_id":"cebpf4jnsgd1na2vs0mg"},{"bike_id":"8c0246d3-7dfa-43f0-9869-bcb7994d155d","system_id":"levelo_inurba_marseille","lat":43.299724,"lon":5.384848,"is_reserved":false,"is_disabled":false,"rental_uris":{"android":"levelo://app?vid=8c0246d3-7dfa-43f0-9869-bcb7994d155d","ios":"levelo://app?vid=8c0246d3-7dfa-43f0-9869-bcb7994d155d"},"vehicle_type_id":"4","last_reported":1716829586,"current_range_meters":1200,"station_id":"ce4bgj92rcd13ifvqbd0","pricing_plan_id":"cebpf4jnsgd1na2vs0mg"},{"bike_id":"9db420bf-0c48-4998-99d1-6035ec5c40f9","system_id":"levelo_inurba_marseille","lat":43.296277,"lon":5.377108,"is_reserved":false,"is_disabled":false,"rental_uris":{"android":"levelo://app?vid=9db420bf-0c48-4998-99d1-6035ec5c40f9","ios":"levelo://app?vid=9db420bf-0c48-4998-99d1-6035ec5c40f9"},"vehicle_type_id":"4","last_reported":1716829586,"current_range_meters":14800,"station_id":"ce4bgi92rcd13ifvqb90","pricing_plan_id":"cebpf4jnsgd1na2vs0mg"},{"bike_id":"b6db0fd6-7885-46f5-a5bd-fd6d17961e95","system_id":"levelo_inurba_marseille","lat":43.299724,"lon":5.384848,"is_reserved":false,"is_disabled":false,"rental_uris":{"android":"levelo://app?vid=b6db0fd6-7885-46f5-a5bd-fd6d17961e95","ios":"levelo://app?vid=b6db0fd6-7885-46f5-a5bd-fd6d17961e95"},"vehicle_type_id":"4","last_reported":1716829586,"current_range_meters":0,"station_id":"ce4bgj92rcd13ifvqbd0","pricing_plan_id":"cebpf4jnsgd1na2vs0mg"},{"bike_id":"f8be2c7b-eac4-4303-8687-99694b706884","system_id":"levelo_inurba_marseille","lat":43.32362,"lon":5.38882,"is_reserved":false,"is_disabled":false,"rental_uris":{"android":"levelo://app?vid=f8be2c7b-eac4-4303-8687-99694b706884","ios":"levelo://app?vid=f8be2c7b-eac4-4303-8687-99694b706884"},"vehicle_type_id":"4","last_reported":1716829586,"current_range_meters":11600,"station_id":"ce4bhqp2rcd13ifvqhog","pricing_plan_id":"cebpf4jnsgd1na2vs0mg"},{"bike_id":"6b5efc99-0449-49da-b8f1-63ebbfe36115","system_id":"levelo_inurba_marseille","lat":43.323623,"lon":5.388888,"is_reserved":false,"is_disabled":false,"rental_uris":{"android":"levelo://app?vid=6b5efc99-0449-49da-b8f1-63ebbfe36115","ios":"levelo://app?vid=6b5efc99-0449-49da-b8f1-63ebbfe36115"},"vehicle_type_id":"4","last_reported":1716829586,"current_range_meters":14400,"station_id":"ce4bhqp2rcd13ifvqhog","pricing_plan_id":"cebpf4jnsgd1na2vs0mg"},{"bike_id":"0fb12b2c-92d6-45af-a80e-7c3f5a821171","system_id":"levelo_inurba_marseille","lat":43.32367,"lon":5.388836,"is_reserved":false,"is_disabled":false,"rental_uris":{"android":"levelo://app?vid=0fb12b2c-92d6-45af-a80e-7c3f5a821171","ios":"levelo://app?vid=0fb12b2c-92d6-45af-a80e-7c3f5a821171"},"vehicle_type_id":"4","last_reported":1716829586,"current_range_meters":800,"station_id":"ce4bhqp2rcd13ifvqhog","pricing_plan_id":"cebpf4jnsgd1na2vs0mg"},{"bike_id":"882f352e-a843-41d0-8e73-a063af5a5f8b","system_id":"levelo_inurba_marseille","lat":43.32366,"lon":5.38887,"is_reserved":false,"is_disabled":false,"rental_uris":{"android":"levelo://app?vid=882f352e-a843-41d0-8e73-a063af5a5f8b","ios":"levelo://app?vid=882f352e-a843-41d0-8e73-a063af5a5f8b"},"vehicle_type_id":"4","last_reported":1716829586,"current_range_meters":14000,"station_id":"ce4bhqp2rcd13ifvqhog","pricing_plan_id":"cebpf4jnsgd1na2vs0mg"},{"bike_id":"d301658a-e8b7-402e-937e-27c79cf21968","system_id":"levelo_inurba_marseille","lat":43.296416,"lon":5.381189,"is_reserved":false,"is_disabled":false,"rental_uris":{"android":"levelo://app?vid=d301658a-e8b7-402e-937e-27c79cf21968","ios":"levelo://app?vid=d301658a-e8b7-402e-937e-27c79cf21968"},"vehicle_type_id":"4","last_reported":1716829586,"current_range_meters":20800,"station_id":"ce4bgl12rcd13ifvqbo0","pricing_plan_id":"cebpf4jnsgd1na2vs0mg"},{"bike_id":"36030b36-43b0-4150-8186-c80ec092c05b","system_id":"levelo_inurba_marseille","lat":43.32367,"lon":5.388836,"is_reserved":false,"is_disabled":false,"rental_uris":{"android":"levelo://app?vid=36030b36-43b0-4150-8186-c80ec092c05b","ios":"levelo://app?vid=36030b36-43b0-4150-8186-c80ec092c05b"},"vehicle_type_id":"4","last_reported":1716829586,"current_range_meters":18800,"station_id":"ce4bhqp2rcd13ifvqhog","pricing_plan_id":"cebpf4jnsgd1na2vs0mg"},{"bike_id":"be1bbeaf-a250-4917-a248-d10ad3e61942","system_id":"levelo_inurba_marseille","lat":43.32364,"lon":5.38893,"is_reserved":false,"is_disabled":false,"rental_uris":{"android":"levelo://app?vid=be1bbeaf-a250-4917-a248-d10ad3e61942","ios":"levelo://app?vid=be1bbeaf-a250-4917-a248-d10ad3e61942"},"vehicle_type_id":"4","last_reported":1716829586,"current_range_meters":13600,"station_id":"ce4bhqp2rcd13ifvqhog","pricing_plan_id":"cebpf4jnsgd1na2vs0mg"},{"bike_id":"ac132b29-549c-4bc4-a57c-944611eb4628","system_id":"levelo_inurba_marseille","lat":43.29605,"lon":5.38099,"is_reserved":false,"is_disabled":false,"rental_uris":{"android":"levelo://app?vid=ac132b29-549c-4bc4-a57c-944611eb4628","ios":"levelo://app?vid=ac132b29-549c-4bc4-a57c-944611eb4628"},"vehicle_type_id":"4","last_reported":1716829586,"current_range_meters":16800,"station_id":"ce4bgl12rcd13ifvqbo0","pricing_plan_id":"cebpf4jnsgd1na2vs0mg"},{"bike_id":"07e7d431-4208-4f27-b604-3badbc4695c5","system_id":"levelo_inurba_marseille","lat":43.29604,"lon":5.381,"is_reserved":false,"is_disabled":false,"rental_uris":{"android":"levelo://app?vid=07e7d431-4208-4f27-b604-3badbc4695c5","ios":"levelo://app?vid=07e7d431-4208-4f27-b604-3badbc4695c5"},"vehicle_type_id":"4","last_reported":1716829586,"current_range_meters":24800,"station_id":"ce4bgl12rcd13ifvqbo0","pricing_plan_id":"cebpf4jnsgd1na2vs0mg"},{"bike_id":"1e3b63fc-8584-4683-865a-d78f8d068051","system_id":"levelo_inurba_marseille","lat":43.29602,"lon":5.381084,"is_reserved":false,"is_disabled":false,"rental_uris":{"android":"levelo://app?vid=1e3b63fc-8584-4683-865a-d78f8d068051","ios":"levelo://app?vid=1e3b63fc-8584-4683-865a-d78f8d068051"},"vehicle_type_id":"4","last_reported":1716829586,"current_range_meters":18000,"station_id":"ce4bgl12rcd13ifvqbo0","pricing_plan_id":"cebpf4jnsgd1na2vs0mg"},{"bike_id":"d0962943-04f2-4ef4-bf7a-6b6a9c119de7","system_id":"levelo_inurba_marseille","lat":43.296,"lon":5.38093,"is_reserved":false,"is_disabled":false,"rental_uris":{"android":"levelo://app?vid=d0962943-04f2-4ef4-bf7a-6b6a9c119de7","ios":"levelo://app?vid=d0962943-04f2-4ef4-bf7a-6b6a9c119de7"},"vehicle_type_id":"4","last_reported":1716829586,"current_range_meters":25600,"station_id":"ce4bgl12rcd13ifvqbo0","pricing_plan_id":"cebpf4jnsgd1na2vs0mg"},{"bike_id":"45f9ed28-7e96-436d-9743-9b545e70f817","system_id":"levelo_inurba_marseille","lat":43.29602,"lon":5.381084,"is_reserved":false,"is_disabled":false,"rental_uris":{"android":"levelo://app?vid=45f9ed28-7e96-436d-9743-9b545e70f817","ios":"levelo://app?vid=45f9ed28-7e96-436d-9743-9b545e70f817"},"vehicle_type_id":"4","last_reported":1716829586,"current_range_meters":30800,"station_id":"ce4bgl12rcd13ifvqbo0","pricing_plan_id":"cebpf4jnsgd1na2vs0mg"},{"bike_id":"6afb1a4c-1ce0-4dfe-822d-bca7c164abaa","system_id":"levelo_inurba_marseille","lat":43.296,"lon":5.38104,"is_reserved":false,"is_disabled":false,"rental_uris":{"android":"levelo://app?vid=6afb1a4c-1ce0-4dfe-822d-bca7c164abaa","ios":"levelo://app?vid=6afb1a4c-1ce0-4dfe-822d-bca7c164abaa"},"vehicle_type_id":"4","last_reported":1716829586,"current_range_meters":9600,"station_id":"ce4bgl12rcd13ifvqbo0","pricing_plan_id":"cebpf4jnsgd1na2vs0mg"},{"bike_id":"db514de2-2548-4621-bc63-af7a8f8ea8f8","system_id":"levelo_inurba_marseille","lat":43.29602,"lon":5.381084,"is_reserved":false,"is_disabled":false,"rental_uris":{"android":"levelo://app?vid=db514de2-2548-4621-bc63-af7a8f8ea8f8","ios":"levelo://app?vid=db514de2-2548-4621-bc63-af7a8f8ea8f8"},"vehicle_type_id":"4","last_reported":1716829586,"current_range_meters":10000,"station_id":"ce4bgl12rcd13ifvqbo0","pricing_plan_id":"cebpf4jnsgd1na2vs0mg"},{"bike_id":"19e6c0ac-b88c-4ac4-a5e6-5fdae6052a13","system_id":"levelo_inurba_marseille","lat":43.29602,"lon":5.381084,"is_reserved":false,"is_disabled":false,"rental_uris":{"android":"levelo://app?vid=19e6c0ac-b88c-4ac4-a5e6-5fdae6052a13","ios":"levelo://app?vid=19e6c0ac-b88c-4ac4-a5e6-5fdae6052a13"},"vehicle_type_id":"4","last_reported":1716829586,"current_range_meters":5600,"station_id":"ce4bgl12rcd13ifvqbo0","pricing_plan_id":"cebpf4jnsgd1na2vs0mg"},{"bike_id":"a69ad237-e46b-4bf9-9ab8-0f33911d3646","system_id":"levelo_inurba_marseille","lat":43.292749,"lon":5.368402,"is_reserved":false,"is_disabled":false,"rental_uris":{"android":"levelo://app?vid=a69ad237-e46b-4bf9-9ab8-0f33911d3646","ios":"levelo://app?vid=a69ad237-e46b-4bf9-9ab8-0f33911d3646"},"vehicle_type_id":"4","last_reported":1716829586,"current_range_meters":10800,"station_id":"ce4bhbp2rcd13ifvqesg","pricing_plan_id":"cebpf4jnsgd1na2vs0mg"},{"bike_id":"d01f796a-34a4-4584-a0c9-02c8f1957ccc","system_id":"levelo_inurba_marseille","lat":43.292749,"lon":5.368402,"is_reserved":false,"is_disabled":false,"rental_uris":{"android":"levelo://app?vid=d01f796a-34a4-4584-a0c9-02c8f1957ccc","ios":"levelo://app?vid=d01f796a-34a4-4584-a0c9-02c8f1957ccc"},"vehicle_type_id":"4","last_reported":1716829586,"current_range_meters":4000,"station_id":"ce4bhbp2rcd13ifvqesg","pricing_plan_id":"cebpf4jnsgd1na2vs0mg"},{"bike_id":"58269119-3ff1-4c85-a3dc-50ba7a375335","system_id":"levelo_inurba_marseille","lat":43.292749,"lon":5.368402,"is_reserved":false,"is_disabled":false,"rental_uris":{"android":"levelo://app?vid=58269119-3ff1-4c85-a3dc-50ba7a375335","ios":"levelo://app?vid=58269119-3ff1-4c85-a3dc-50ba7a375335"},"vehicle_type_id":"4","last_reported":1716829586,"current_range_meters":30400,"station_id":"ce4bhbp2rcd13ifvqesg","pricing_plan_id":"cebpf4jnsgd1na2vs0mg"},{"bike_id":"46745575-1e93-42f0-9474-6506e5c588d7","system_id":"levelo_inurba_marseille","lat":43.292749,"lon":5.368402,"is_reserved":false,"is_disabled":false,"rental_uris":{"android":"levelo://app?vid=46745575-1e93-42f0-9474-6506e5c588d7","ios":"levelo://app?vid=46745575-1e93-42f0-9474-6506e5c588d7"},"vehicle_type_id":"4","last_reported":1716829586,"current_range_meters":22800,"station_id":"ce4bhbp2rcd13ifvqesg","pricing_plan_id":"cebpf4jnsgd1na2vs0mg"},{"bike_id":"da97c0bd-49d3-4a63-93d0-35a79b7249fe","system_id":"levelo_inurba_marseille","lat":43.30611,"lon":5.39351,"is_reserved":false,"is_disabled":false,"rental_uris":{"android":"levelo://app?vid=da97c0bd-49d3-4a63-93d0-35a79b7249fe","ios":"levelo://app?vid=da97c0bd-49d3-4a63-93d0-35a79b7249fe"},"vehicle_type_id":"4","last_reported":1716829586,"current_range_meters":0,"station_id":"ce4bh0p2rcd13ifvqd80","pricing_plan_id":"cebpf4jnsgd1na2vs0mg"},{"bike_id":"55499566-d819-48c6-87be-0265175f28dc","system_id":"levelo_inurba_marseille","lat":43.293009,"lon":5.374584,"is_reserved":false,"is_disabled":false,"rental_uris":{"android":"levelo://app?vid=55499566-d819-48c6-87be-0265175f28dc","ios":"levelo://app?vid=55499566-d819-48c6-87be-0265175f28dc"},"vehicle_type_id":"4","last_reported":1716829586,"current_range_meters":4000,"station_id":"ce4bgi12rcd13ifvqb70","pricing_plan_id":"cebpf4jnsgd1na2vs0mg"},{"bike_id":"ee06150c-d02f-46ce-acf6-c22786fe0835","system_id":"levelo_inurba_marseille","lat":43.305994,"lon":5.393687,"is_reserved":false,"is_disabled":false,"rental_uris":{"android":"levelo://app?vid=ee06150c-d02f-46ce-acf6-c22786fe0835","ios":"levelo://app?vid=ee06150c-d02f-46ce-acf6-c22786fe0835"},"vehicle_type_id":"4","last_reported":1716829586,"current_range_meters":20400,"station_id":"ce4bh0p2rcd13ifvqd80","pricing_plan_id":"cebpf4jnsgd1na2vs0mg"},{"bike_id":"77bbca85-6f92-487a-be30-ce1500f76f17","system_id":"levelo_inurba_marseille","lat":43.293009,"lon":5.374584,"is_reserved":false,"is_disabled":false,"rental_uris":{"android":"levelo://app?vid=77bbca85-6f92-487a-be30-ce1500f76f17","ios":"levelo://app?vid=77bbca85-6f92-487a-be30-ce1500f76f17"},"vehicle_type_id":"4","last_reported":1716829586,"current_range_meters":15600,"station_id":"ce4bgi12rcd13ifvqb70","pricing_plan_id":"cebpf4jnsgd1na2vs0mg"},{"bike_id":"c8f42bd9-b613-4a9a-8ca5-7b211cc15429","system_id":"levelo_inurba_marseille","lat":43.293009,"lon":5.374584,"is_reserved":false,"is_disabled":false,"rental_uris":{"android":"levelo://app?vid=c8f42bd9-b613-4a9a-8ca5-7b211cc15429","ios":"levelo://app?vid=c8f42bd9-b613-4a9a-8ca5-7b211cc15429"},"vehicle_type_id":"4","last_reported":1716829586,"current_range_meters":0,"station_id":"ce4bgi12rcd13ifvqb70","pricing_plan_id":"cebpf4jnsgd1na2vs0mg"},{"bike_id":"1ff78635-ffd1-45a8-8b5f-ec7e6fe9e317","system_id":"levelo_inurba_marseille","lat":43.303002,"lon":5.392142,"is_reserved":false,"is_disabled":false,"rental_uris":{"android":"levelo://app?vid=1ff78635-ffd1-45a8-8b5f-ec7e6fe9e317","ios":"levelo://app?vid=1ff78635-ffd1-45a8-8b5f-ec7e6fe9e317"},"vehicle_type_id":"4","last_reported":1716829586,"current_range_meters":4000,"station_id":"ce4bgkh2rcd13ifvqbk0","pricing_plan_id":"cebpf4jnsgd1na2vs0mg"},{"bike_id":"72195211-5822-4c69-a5ec-8898542e5f27","system_id":"levelo_inurba_marseille","lat":43.290631,"lon":5.359244,"is_reserved":false,"is_disabled":false,"rental_uris":{"android":"levelo://app?vid=72195211-5822-4c69-a5ec-8898542e5f27","ios":"levelo://app?vid=72195211-5822-4c69-a5ec-8898542e5f27"},"vehicle_type_id":"4","last_reported":1716829586,"current_range_meters":10000,"station_id":"ce4bha92rcd13ifvqeg0","pricing_plan_id":"cebpf4jnsgd1na2vs0mg"},{"bike_id":"b4b31b99-87d1-4b54-a6fd-7c5c08aa8b51","system_id":"levelo_inurba_marseille","lat":43.302992,"lon":5.392136,"is_reserved":false,"is_disabled":false,"rental_uris":{"android":"levelo://app?vid=b4b31b99-87d1-4b54-a6fd-7c5c08aa8b51","ios":"levelo://app?vid=b4b31b99-87d1-4b54-a6fd-7c5c08aa8b51"},"vehicle_type_id":"4","last_reported":1716829586,"current_range_meters":16800,"station_id":"ce4bgkh2rcd13ifvqbk0","pricing_plan_id":"cebpf4jnsgd1na2vs0mg"},{"bike_id":"3de1a538-131e-469a-9cb7-d388f773fcdf","system_id":"levelo_inurba_marseille","lat":43.298764,"lon":5.388973,"is_reserved":false,"is_disabled":false,"rental_uris":{"android":"levelo://app?vid=3de1a538-131e-469a-9cb7-d388f773fcdf","ios":"levelo://app?vid=3de1a538-131e-469a-9cb7-d388f773fcdf"},"vehicle_type_id":"4","last_reported":1716829586,"current_range_meters":12000,"station_id":"ce4bh392rcd13ifvqdl0","pricing_plan_id":"cebpf4jnsgd1na2vs0mg"},{"bike_id":"0975d9cc-30da-4c0d-af42-bdf5ace8061d","system_id":"levelo_inurba_marseille","lat":43.298764,"lon":5.388973,"is_reserved":false,"is_disabled":false,"rental_uris":{"android":"levelo://app?vid=0975d9cc-30da-4c0d-af42-bdf5ace8061d","ios":"levelo://app?vid=0975d9cc-30da-4c0d-af42-bdf5ace8061d"},"vehicle_type_id":"4","last_reported":1716829586,"current_range_meters":0,"station_id":"ce4bh392rcd13ifvqdl0","pricing_plan_id":"cebpf4jnsgd1na2vs0mg"},{"bike_id":"299c763c-7fc2-4419-a4b3-9ea23fe62183","system_id":"levelo_inurba_marseille","lat":43.298764,"lon":5.388973,"is_reserved":false,"is_disabled":false,"rental_uris":{"android":"levelo://app?vid=299c763c-7fc2-4419-a4b3-9ea23fe62183","ios":"levelo://app?vid=299c763c-7fc2-4419-a4b3-9ea23fe62183"},"vehicle_type_id":"4","last_reported":1716829586,"current_range_meters":16800,"station_id":"ce4bh392rcd13ifvqdl0","pricing_plan_id":"cebpf4jnsgd1na2vs0mg"},{"bike_id":"285a5343-26b4-4477-8d3d-69d7d0dcefd3","system_id":"levelo_inurba_marseille","lat":43.291675,"lon":5.371583,"is_reserved":false,"is_disabled":false,"rental_uris":{"android":"levelo://app?vid=285a5343-26b4-4477-8d3d-69d7d0dcefd3","ios":"levelo://app?vid=285a5343-26b4-4477-8d3d-69d7d0dcefd3"},"vehicle_type_id":"4","last_reported":1716829586,"current_range_meters":6400,"station_id":"ce4bha92rcd13ifvqeh0","pricing_plan_id":"cebpf4jnsgd1na2vs0mg"},{"bike_id":"373fb7ea-3102-4d07-b98a-bae79dbb2504","system_id":"levelo_inurba_marseille","lat":43.281548,"lon":5.42643,"is_reserved":false,"is_disabled":false,"rental_uris":{"android":"levelo://app?vid=373fb7ea-3102-4d07-b98a-bae79dbb2504","ios":"levelo://app?vid=373fb7ea-3102-4d07-b98a-bae79dbb2504"},"vehicle_type_id":"4","last_reported":1716829586,"current_range_meters":14800,"station_id":"ce4bhnh2rcd13ifvqgug","pricing_plan_id":"cebpf4jnsgd1na2vs0mg"},{"bike_id":"4cb0031f-cc11-4aa6-8d58-63f196589903","system_id":"levelo_inurba_marseille","lat":43.313291,"lon":5.396838,"is_reserved":false,"is_disabled":false,"rental_uris":{"android":"levelo://app?vid=4cb0031f-cc11-4aa6-8d58-63f196589903","ios":"levelo://app?vid=4cb0031f-cc11-4aa6-8d58-63f196589903"},"vehicle_type_id":"4","last_reported":1716829586,"current_range_meters":0,"station_id":"ce4bgvp2rcd13ifvqcu0","pricing_plan_id":"cebpf4jnsgd1na2vs0mg"},{"bike_id":"a0343d82-4c10-47ff-9972-6c21ff737b96","system_id":"levelo_inurba_marseille","lat":43.313291,"lon":5.396838,"is_reserved":false,"is_disabled":false,"rental_uris":{"android":"levelo://app?vid=a0343d82-4c10-47ff-9972-6c21ff737b96","ios":"levelo://app?vid=a0343d82-4c10-47ff-9972-6c21ff737b96"},"vehicle_type_id":"4","last_reported":1716829586,"current_range_meters":12400,"station_id":"ce4bgvp2rcd13ifvqcu0","pricing_plan_id":"cebpf4jnsgd1na2vs0mg"},{"bike_id":"0dff5eec-16b5-47a7-a57d-687b0d3622ba","system_id":"levelo_inurba_marseille","lat":43.313291,"lon":5.396838,"is_reserved":false,"is_disabled":false,"rental_uris":{"android":"levelo://app?vid=0dff5eec-16b5-47a7-a57d-687b0d3622ba","ios":"levelo://app?vid=0dff5eec-16b5-47a7-a57d-687b0d3622ba"},"vehicle_type_id":"4","last_reported":1716829586,"current_range_meters":3600,"station_id":"ce4bgvp2rcd13ifvqcu0","pricing_plan_id":"cebpf4jnsgd1na2vs0mg"},{"bike_id":"bc4a1b68-aba3-4712-adea-66641b5f3237","system_id":"levelo_inurba_marseille","lat":43.313291,"lon":5.396838,"is_reserved":false,"is_disabled":false,"rental_uris":{"android":"levelo://app?vid=bc4a1b68-aba3-4712-adea-66641b5f3237","ios":"levelo://app?vid=bc4a1b68-aba3-4712-adea-66641b5f3237"},"vehicle_type_id":"4","last_reported":1716829586,"current_range_meters":15600,"station_id":"ce4bgvp2rcd13ifvqcu0","pricing_plan_id":"cebpf4jnsgd1na2vs0mg"},{"bike_id":"33df3ac5-9afe-4c0d-a1d4-5c0827dcba4e","system_id":"levelo_inurba_marseille","lat":43.291994,"lon":5.357886,"is_reserved":false,"is_disabled":false,"rental_uris":{"android":"levelo://app?vid=33df3ac5-9afe-4c0d-a1d4-5c0827dcba4e","ios":"levelo://app?vid=33df3ac5-9afe-4c0d-a1d4-5c0827dcba4e"},"vehicle_type_id":"4","last_reported":1716829586,"current_range_meters":7600,"station_id":"ce4bhb12rcd13ifvqel0","pricing_plan_id":"cebpf4jnsgd1na2vs0mg"},{"bike_id":"65760105-0ef8-43d8-b491-b14aed27373f","system_id":"levelo_inurba_marseille","lat":43.313291,"lon":5.396838,"is_reserved":false,"is_disabled":false,"rental_uris":{"android":"levelo://app?vid=65760105-0ef8-43d8-b491-b14aed27373f","ios":"levelo://app?vid=65760105-0ef8-43d8-b491-b14aed27373f"},"vehicle_type_id":"4","last_reported":1716829586,"current_range_meters":30400,"station_id":"ce4bgvp2rcd13ifvqcu0","pricing_plan_id":"cebpf4jnsgd1na2vs0mg"},{"bike_id":"d8fdb116-6437-42d5-a985-870592bffe44","system_id":"levelo_inurba_marseille","lat":43.313291,"lon":5.396838,"is_reserved":false,"is_disabled":false,"rental_uris":{"android":"levelo://app?vid=d8fdb116-6437-42d5-a985-870592bffe44","ios":"levelo://app?vid=d8fdb116-6437-42d5-a985-870592bffe44"},"vehicle_type_id":"4","last_reported":1716829586,"current_range_meters":16400,"station_id":"ce4bgvp2rcd13ifvqcu0","pricing_plan_id":"cebpf4jnsgd1na2vs0mg"},{"bike_id":"08ad1fc3-17e1-4208-946d-ddef699ddc2e","system_id":"levelo_inurba_marseille","lat":43.313291,"lon":5.396838,"is_reserved":false,"is_disabled":false,"rental_uris":{"android":"levelo://app?vid=08ad1fc3-17e1-4208-946d-ddef699ddc2e","ios":"levelo://app?vid=08ad1fc3-17e1-4208-946d-ddef699ddc2e"},"vehicle_type_id":"4","last_reported":1716829586,"current_range_meters":8000,"station_id":"ce4bgvp2rcd13ifvqcu0","pricing_plan_id":"cebpf4jnsgd1na2vs0mg"},{"bike_id":"0cf3cd56-4874-434f-b5c6-fb988175037a","system_id":"levelo_inurba_marseille","lat":43.313291,"lon":5.396838,"is_reserved":false,"is_disabled":false,"rental_uris":{"android":"levelo://app?vid=0cf3cd56-4874-434f-b5c6-fb988175037a","ios":"levelo://app?vid=0cf3cd56-4874-434f-b5c6-fb988175037a"},"vehicle_type_id":"4","last_reported":1716829586,"current_range_meters":18800,"station_id":"ce4bgvp2rcd13ifvqcu0","pricing_plan_id":"cebpf4jnsgd1na2vs0mg"},{"bike_id":"8864bb29-426e-4137-b4c4-23ef7c448e7d","system_id":"levelo_inurba_marseille","lat":43.313291,"lon":5.396838,"is_reserved":false,"is_disabled":false,"rental_uris":{"android":"levelo://app?vid=8864bb29-426e-4137-b4c4-23ef7c448e7d","ios":"levelo://app?vid=8864bb29-426e-4137-b4c4-23ef7c448e7d"},"vehicle_type_id":"4","last_reported":1716829586,"current_range_meters":2800,"station_id":"ce4bgvp2rcd13ifvqcu0","pricing_plan_id":"cebpf4jnsgd1na2vs0mg"},{"bike_id":"8c63a824-85fe-456f-91a0-aba3b9a1778d","system_id":"levelo_inurba_marseille","lat":43.313291,"lon":5.396838,"is_reserved":false,"is_disabled":false,"rental_uris":{"android":"levelo://app?vid=8c63a824-85fe-456f-91a0-aba3b9a1778d","ios":"levelo://app?vid=8c63a824-85fe-456f-91a0-aba3b9a1778d"},"vehicle_type_id":"4","last_reported":1716829586,"current_range_meters":9200,"station_id":"ce4bgvp2rcd13ifvqcu0","pricing_plan_id":"cebpf4jnsgd1na2vs0mg"},{"bike_id":"d5a9cfca-8f22-4d5e-89c4-f151dc1a4ae3","system_id":"levelo_inurba_marseille","lat":43.308901,"lon":5.396536,"is_reserved":false,"is_disabled":false,"rental_uris":{"android":"levelo://app?vid=d5a9cfca-8f22-4d5e-89c4-f151dc1a4ae3","ios":"levelo://app?vid=d5a9cfca-8f22-4d5e-89c4-f151dc1a4ae3"},"vehicle_type_id":"4","last_reported":1716829586,"current_range_meters":0,"station_id":"ce4bh012rcd13ifvqcv0","pricing_plan_id":"cebpf4jnsgd1na2vs0mg"},{"bike_id":"8d0b7f10-0e6b-427d-a926-42fc70004054","system_id":"levelo_inurba_marseille","lat":43.290779,"lon":5.371482,"is_reserved":false,"is_disabled":false,"rental_uris":{"android":"levelo://app?vid=8d0b7f10-0e6b-427d-a926-42fc70004054","ios":"levelo://app?vid=8d0b7f10-0e6b-427d-a926-42fc70004054"},"vehicle_type_id":"4","last_reported":1716829586,"current_range_meters":19600,"station_id":"ce4bh5p2rcd13ifvqe4g","pricing_plan_id":"cebpf4jnsgd1na2vs0mg"},{"bike_id":"df228d96-b0de-42f8-a918-2f345a540296","system_id":"levelo_inurba_marseille","lat":43.290779,"lon":5.371482,"is_reserved":false,"is_disabled":false,"rental_uris":{"android":"levelo://app?vid=df228d96-b0de-42f8-a918-2f345a540296","ios":"levelo://app?vid=df228d96-b0de-42f8-a918-2f345a540296"},"vehicle_type_id":"4","last_reported":1716829586,"current_range_meters":16800,"station_id":"ce4bh5p2rcd13ifvqe4g","pricing_plan_id":"cebpf4jnsgd1na2vs0mg"},{"bike_id":"352122ef-76dd-461f-a6d4-0633398352ca","system_id":"levelo_inurba_marseille","lat":43.290779,"lon":5.371482,"is_reserved":false,"is_disabled":false,"rental_uris":{"android":"levelo://app?vid=352122ef-76dd-461f-a6d4-0633398352ca","ios":"levelo://app?vid=352122ef-76dd-461f-a6d4-0633398352ca"},"vehicle_type_id":"4","last_reported":1716829586,"current_range_meters":19600,"station_id":"ce4bh5p2rcd13ifvqe4g","pricing_plan_id":"cebpf4jnsgd1na2vs0mg"},{"bike_id":"d2bd88fc-39f5-4602-b58d-53be143f13ca","system_id":"levelo_inurba_marseille","lat":43.289468,"lon":5.363719,"is_reserved":false,"is_disabled":false,"rental_uris":{"android":"levelo://app?vid=d2bd88fc-39f5-4602-b58d-53be143f13ca","ios":"levelo://app?vid=d2bd88fc-39f5-4602-b58d-53be143f13ca"},"vehicle_type_id":"4","last_reported":1716829586,"current_range_meters":6400,"station_id":"ce4bhc92rcd13ifvqetg","pricing_plan_id":"cebpf4jnsgd1na2vs0mg"},{"bike_id":"6d6e1f5b-a054-4545-859a-f05d64cc54c8","system_id":"levelo_inurba_marseille","lat":43.29421,"lon":5.38626,"is_reserved":false,"is_disabled":false,"rental_uris":{"android":"levelo://app?vid=6d6e1f5b-a054-4545-859a-f05d64cc54c8","ios":"levelo://app?vid=6d6e1f5b-a054-4545-859a-f05d64cc54c8"},"vehicle_type_id":"4","last_reported":1716829586,"current_range_meters":0,"station_id":"ce4bh2h2rcd13ifvqdh0","pricing_plan_id":"cebpf4jnsgd1na2vs0mg"},{"bike_id":"2feb9409-e439-4fad-ad92-3d4083b3ccc6","system_id":"levelo_inurba_marseille","lat":43.29419,"lon":5.38623,"is_reserved":false,"is_disabled":false,"rental_uris":{"android":"levelo://app?vid=2feb9409-e439-4fad-ad92-3d4083b3ccc6","ios":"levelo://app?vid=2feb9409-e439-4fad-ad92-3d4083b3ccc6"},"vehicle_type_id":"4","last_reported":1716829586,"current_range_meters":0,"station_id":"ce4bh2h2rcd13ifvqdh0","pricing_plan_id":"cebpf4jnsgd1na2vs0mg"},{"bike_id":"b5336b81-ece5-4aa5-ba4d-377cf8c61b47","system_id":"levelo_inurba_marseille","lat":43.2942,"lon":5.38632,"is_reserved":false,"is_disabled":false,"rental_uris":{"android":"levelo://app?vid=b5336b81-ece5-4aa5-ba4d-377cf8c61b47","ios":"levelo://app?vid=b5336b81-ece5-4aa5-ba4d-377cf8c61b47"},"vehicle_type_id":"4","last_reported":1716829586,"current_range_meters":20800,"station_id":"ce4bh2h2rcd13ifvqdh0","pricing_plan_id":"cebpf4jnsgd1na2vs0mg"},{"bike_id":"64fe7013-f8c7-4faf-8bcc-9773d54c67d3","system_id":"levelo_inurba_marseille","lat":43.29031,"lon":5.37563,"is_reserved":false,"is_disabled":false,"rental_uris":{"android":"levelo://app?vid=64fe7013-f8c7-4faf-8bcc-9773d54c67d3","ios":"levelo://app?vid=64fe7013-f8c7-4faf-8bcc-9773d54c67d3"},"vehicle_type_id":"4","last_reported":1716829586,"current_range_meters":10800,"station_id":"ce4bh692rcd13ifvqe90","pricing_plan_id":"cebpf4jnsgd1na2vs0mg"},{"bike_id":"c2c82148-2009-4640-9d5d-6a56180e3be4","system_id":"levelo_inurba_marseille","lat":43.29416,"lon":5.38627,"is_reserved":false,"is_disabled":false,"rental_uris":{"android":"levelo://app?vid=c2c82148-2009-4640-9d5d-6a56180e3be4","ios":"levelo://app?vid=c2c82148-2009-4640-9d5d-6a56180e3be4"},"vehicle_type_id":"4","last_reported":1716829586,"current_range_meters":0,"station_id":"ce4bh2h2rcd13ifvqdh0","pricing_plan_id":"cebpf4jnsgd1na2vs0mg"},{"bike_id":"a2dad5af-1d08-4f90-8731-4569ae4c241e","system_id":"levelo_inurba_marseille","lat":43.29418,"lon":5.38631,"is_reserved":false,"is_disabled":false,"rental_uris":{"android":"levelo://app?vid=a2dad5af-1d08-4f90-8731-4569ae4c241e","ios":"levelo://app?vid=a2dad5af-1d08-4f90-8731-4569ae4c241e"},"vehicle_type_id":"4","last_reported":1716829586,"current_range_meters":0,"station_id":"ce4bh2h2rcd13ifvqdh0","pricing_plan_id":"cebpf4jnsgd1na2vs0mg"},{"bike_id":"1c9ffa8c-e617-47b0-a725-f954fda80ac6","system_id":"levelo_inurba_marseille","lat":43.29029,"lon":5.37565,"is_reserved":false,"is_disabled":false,"rental_uris":{"android":"levelo://app?vid=1c9ffa8c-e617-47b0-a725-f954fda80ac6","ios":"levelo://app?vid=1c9ffa8c-e617-47b0-a725-f954fda80ac6"},"vehicle_type_id":"4","last_reported":1716829586,"current_range_meters":0,"station_id":"ce4bh692rcd13ifvqe90","pricing_plan_id":"cebpf4jnsgd1na2vs0mg"},{"bike_id":"25100eaf-9fb3-4a9a-a972-ecf3a3e13e50","system_id":"levelo_inurba_marseille","lat":43.294096,"lon":5.386226,"is_reserved":false,"is_disabled":false,"rental_uris":{"android":"levelo://app?vid=25100eaf-9fb3-4a9a-a972-ecf3a3e13e50","ios":"levelo://app?vid=25100eaf-9fb3-4a9a-a972-ecf3a3e13e50"},"vehicle_type_id":"4","last_reported":1716829586,"current_range_meters":2400,"station_id":"ce4bh2h2rcd13ifvqdh0","pricing_plan_id":"cebpf4jnsgd1na2vs0mg"},{"bike_id":"a5675d13-0492-46a3-ab02-938cdf5f112f","system_id":"levelo_inurba_marseille","lat":43.289184,"lon":5.366408,"is_reserved":false,"is_disabled":false,"rental_uris":{"android":"levelo://app?vid=a5675d13-0492-46a3-ab02-938cdf5f112f","ios":"levelo://app?vid=a5675d13-0492-46a3-ab02-938cdf5f112f"},"vehicle_type_id":"4","last_reported":1716829586,"current_range_meters":4000,"station_id":"ce4bhap2rcd13ifvqek0","pricing_plan_id":"cebpf4jnsgd1na2vs0mg"},{"bike_id":"2114b396-782a-4492-bfda-61b346d556a8","system_id":"levelo_inurba_marseille","lat":43.289184,"lon":5.366408,"is_reserved":false,"is_disabled":false,"rental_uris":{"android":"levelo://app?vid=2114b396-782a-4492-bfda-61b346d556a8","ios":"levelo://app?vid=2114b396-782a-4492-bfda-61b346d556a8"},"vehicle_type_id":"4","last_reported":1716829586,"current_range_meters":0,"station_id":"ce4bhap2rcd13ifvqek0","pricing_plan_id":"cebpf4jnsgd1na2vs0mg"},{"bike_id":"e7bd3550-6401-4702-b8b9-9d352ca0dacd","system_id":"levelo_inurba_marseille","lat":43.289468,"lon":5.363719,"is_reserved":false,"is_disabled":false,"rental_uris":{"android":"levelo://app?vid=e7bd3550-6401-4702-b8b9-9d352ca0dacd","ios":"levelo://app?vid=e7bd3550-6401-4702-b8b9-9d352ca0dacd"},"vehicle_type_id":"4","last_reported":1716829586,"current_range_meters":15200,"station_id":"ce4bhc92rcd13ifvqetg","pricing_plan_id":"cebpf4jnsgd1na2vs0mg"},{"bike_id":"c1d0a9e6-3f59-422d-ad5c-42d15be54cf2","system_id":"levelo_inurba_marseille","lat":43.289184,"lon":5.366408,"is_reserved":false,"is_disabled":false,"rental_uris":{"android":"levelo://app?vid=c1d0a9e6-3f59-422d-ad5c-42d15be54cf2","ios":"levelo://app?vid=c1d0a9e6-3f59-422d-ad5c-42d15be54cf2"},"vehicle_type_id":"4","last_reported":1716829586,"current_range_meters":11200,"station_id":"ce4bhap2rcd13ifvqek0","pricing_plan_id":"cebpf4jnsgd1na2vs0mg"},{"bike_id":"a0597abd-9a9e-4d28-9195-61974e370e54","system_id":"levelo_inurba_marseille","lat":43.28937,"lon":5.36636,"is_reserved":false,"is_disabled":false,"rental_uris":{"android":"levelo://app?vid=a0597abd-9a9e-4d28-9195-61974e370e54","ios":"levelo://app?vid=a0597abd-9a9e-4d28-9195-61974e370e54"},"vehicle_type_id":"4","last_reported":1716829586,"current_range_meters":0,"station_id":"ce4bhap2rcd13ifvqek0","pricing_plan_id":"cebpf4jnsgd1na2vs0mg"},{"bike_id":"c401d318-c9a0-463d-a3d3-48a5d6688431","system_id":"levelo_inurba_marseille","lat":43.289439,"lon":5.364014,"is_reserved":false,"is_disabled":false,"rental_uris":{"android":"levelo://app?vid=c401d318-c9a0-463d-a3d3-48a5d6688431","ios":"levelo://app?vid=c401d318-c9a0-463d-a3d3-48a5d6688431"},"vehicle_type_id":"4","last_reported":1716829586,"current_range_meters":0,"station_id":"ce4bhc92rcd13ifvqetg","pricing_plan_id":"cebpf4jnsgd1na2vs0mg"},{"bike_id":"cd8fbf29-139b-4e3d-bf3a-758ca7a56233","system_id":"levelo_inurba_marseille","lat":43.289468,"lon":5.363719,"is_reserved":false,"is_disabled":false,"rental_uris":{"android":"levelo://app?vid=cd8fbf29-139b-4e3d-bf3a-758ca7a56233","ios":"levelo://app?vid=cd8fbf29-139b-4e3d-bf3a-758ca7a56233"},"vehicle_type_id":"4","last_reported":1716829586,"current_range_meters":13600,"station_id":"ce4bhc92rcd13ifvqetg","pricing_plan_id":"cebpf4jnsgd1na2vs0mg"},{"bike_id":"fed81aa0-3bca-49c3-948f-5f0b06ec9b63","system_id":"levelo_inurba_marseille","lat":43.292644,"lon":5.384257,"is_reserved":false,"is_disabled":false,"rental_uris":{"android":"levelo://app?vid=fed81aa0-3bca-49c3-948f-5f0b06ec9b63","ios":"levelo://app?vid=fed81aa0-3bca-49c3-948f-5f0b06ec9b63"},"vehicle_type_id":"4","last_reported":1716829586,"current_range_meters":0,"station_id":"ce4bh692rcd13ifvqea0","pricing_plan_id":"cebpf4jnsgd1na2vs0mg"},{"bike_id":"ba030169-0e84-45ac-8438-0adce5948015","system_id":"levelo_inurba_marseille","lat":43.29269,"lon":5.38429,"is_reserved":false,"is_disabled":false,"rental_uris":{"android":"levelo://app?vid=ba030169-0e84-45ac-8438-0adce5948015","ios":"levelo://app?vid=ba030169-0e84-45ac-8438-0adce5948015"},"vehicle_type_id":"4","last_reported":1716829586,"current_range_meters":0,"station_id":"ce4bh692rcd13ifvqea0","pricing_plan_id":"cebpf4jnsgd1na2vs0mg"},{"bike_id":"b55504b4-c087-42de-b1ec-aabdc85da982","system_id":"levelo_inurba_marseille","lat":43.292644,"lon":5.384257,"is_reserved":false,"is_disabled":false,"rental_uris":{"android":"levelo://app?vid=b55504b4-c087-42de-b1ec-aabdc85da982","ios":"levelo://app?vid=b55504b4-c087-42de-b1ec-aabdc85da982"},"vehicle_type_id":"4","last_reported":1716829586,"current_range_meters":10800,"station_id":"ce4bh692rcd13ifvqea0","pricing_plan_id":"cebpf4jnsgd1na2vs0mg"},{"bike_id":"5899f6c1-7e69-490a-92f9-070170563a05","system_id":"levelo_inurba_marseille","lat":43.290104,"lon":5.356111,"is_reserved":false,"is_disabled":false,"rental_uris":{"android":"levelo://app?vid=5899f6c1-7e69-490a-92f9-070170563a05","ios":"levelo://app?vid=5899f6c1-7e69-490a-92f9-070170563a05"},"vehicle_type_id":"4","last_reported":1716829586,"current_range_meters":24000,"station_id":"ce4bhb92rcd13ifvqen0","pricing_plan_id":"cebpf4jnsgd1na2vs0mg"},{"bike_id":"f6b0852e-abda-4b71-b469-ee8c17492547","system_id":"levelo_inurba_marseille","lat":43.295169,"lon":5.390426,"is_reserved":false,"is_disabled":false,"rental_uris":{"android":"levelo://app?vid=f6b0852e-abda-4b71-b469-ee8c17492547","ios":"levelo://app?vid=f6b0852e-abda-4b71-b469-ee8c17492547"},"vehicle_type_id":"4","last_reported":1716829586,"current_range_meters":17600,"station_id":"ce4bh3p2rcd13ifvqdp0","pricing_plan_id":"cebpf4jnsgd1na2vs0mg"},{"bike_id":"5364a786-06ac-463b-82a6-d8f70fef5229","system_id":"levelo_inurba_marseille","lat":43.330442,"lon":5.389148,"is_reserved":false,"is_disabled":false,"rental_uris":{"android":"levelo://app?vid=5364a786-06ac-463b-82a6-d8f70fef5229","ios":"levelo://app?vid=5364a786-06ac-463b-82a6-d8f70fef5229"},"vehicle_type_id":"4","last_reported":1716829586,"current_range_meters":21200,"station_id":"ce4bhr92rcd13ifvqhrg","pricing_plan_id":"cebpf4jnsgd1na2vs0mg"},{"bike_id":"a99b4186-124c-4837-8a8b-fe8038b615c7","system_id":"levelo_inurba_marseille","lat":43.330442,"lon":5.389148,"is_reserved":false,"is_disabled":false,"rental_uris":{"android":"levelo://app?vid=a99b4186-124c-4837-8a8b-fe8038b615c7","ios":"levelo://app?vid=a99b4186-124c-4837-8a8b-fe8038b615c7"},"vehicle_type_id":"4","last_reported":1716829586,"current_range_meters":1600,"station_id":"ce4bhr92rcd13ifvqhrg","pricing_plan_id":"cebpf4jnsgd1na2vs0mg"},{"bike_id":"c145158d-3eda-4276-a0fa-1915d78be181","system_id":"levelo_inurba_marseille","lat":43.330442,"lon":5.389148,"is_reserved":false,"is_disabled":false,"rental_uris":{"android":"levelo://app?vid=c145158d-3eda-4276-a0fa-1915d78be181","ios":"levelo://app?vid=c145158d-3eda-4276-a0fa-1915d78be181"},"vehicle_type_id":"4","last_reported":1716829586,"current_range_meters":8400,"station_id":"ce4bhr92rcd13ifvqhrg","pricing_plan_id":"cebpf4jnsgd1na2vs0mg"},{"bike_id":"1f83cfa2-6617-4d56-9f24-dfa69fe4b959","system_id":"levelo_inurba_marseille","lat":43.295169,"lon":5.390426,"is_reserved":false,"is_disabled":false,"rental_uris":{"android":"levelo://app?vid=1f83cfa2-6617-4d56-9f24-dfa69fe4b959","ios":"levelo://app?vid=1f83cfa2-6617-4d56-9f24-dfa69fe4b959"},"vehicle_type_id":"4","last_reported":1716829586,"current_range_meters":27600,"station_id":"ce4bh3p2rcd13ifvqdp0","pricing_plan_id":"cebpf4jnsgd1na2vs0mg"},{"bike_id":"7baaece5-8d7f-4e9d-b646-e45063221cce","system_id":"levelo_inurba_marseille","lat":43.28973,"lon":5.37837,"is_reserved":false,"is_disabled":false,"rental_uris":{"android":"levelo://app?vid=7baaece5-8d7f-4e9d-b646-e45063221cce","ios":"levelo://app?vid=7baaece5-8d7f-4e9d-b646-e45063221cce"},"vehicle_type_id":"4","last_reported":1716829586,"current_range_meters":0,"station_id":"ce4bh9p2rcd13ifvqed0","pricing_plan_id":"cebpf4jnsgd1na2vs0mg"},{"bike_id":"0cbbb787-c6b0-4260-af1c-20cb8afbd470","system_id":"levelo_inurba_marseille","lat":43.330442,"lon":5.389148,"is_reserved":false,"is_disabled":false,"rental_uris":{"android":"levelo://app?vid=0cbbb787-c6b0-4260-af1c-20cb8afbd470","ios":"levelo://app?vid=0cbbb787-c6b0-4260-af1c-20cb8afbd470"},"vehicle_type_id":"4","last_reported":1716829586,"current_range_meters":11600,"station_id":"ce4bhr92rcd13ifvqhrg","pricing_plan_id":"cebpf4jnsgd1na2vs0mg"},{"bike_id":"7f9b868a-ef02-48ae-9e0c-c098bcc66450","system_id":"levelo_inurba_marseille","lat":43.295169,"lon":5.390426,"is_reserved":false,"is_disabled":false,"rental_uris":{"android":"levelo://app?vid=7f9b868a-ef02-48ae-9e0c-c098bcc66450","ios":"levelo://app?vid=7f9b868a-ef02-48ae-9e0c-c098bcc66450"},"vehicle_type_id":"4","last_reported":1716829586,"current_range_meters":0,"station_id":"ce4bh3p2rcd13ifvqdp0","pricing_plan_id":"cebpf4jnsgd1na2vs0mg"},{"bike_id":"da79e517-8b2f-4a82-a256-ab2e254ec4f9","system_id":"levelo_inurba_marseille","lat":43.330442,"lon":5.389148,"is_reserved":false,"is_disabled":false,"rental_uris":{"android":"levelo://app?vid=da79e517-8b2f-4a82-a256-ab2e254ec4f9","ios":"levelo://app?vid=da79e517-8b2f-4a82-a256-ab2e254ec4f9"},"vehicle_type_id":"4","last_reported":1716829586,"current_range_meters":14400,"station_id":"ce4bhr92rcd13ifvqhrg","pricing_plan_id":"cebpf4jnsgd1na2vs0mg"},{"bike_id":"06609689-11e1-4dcd-9015-4028ab0384ad","system_id":"levelo_inurba_marseille","lat":43.330442,"lon":5.389148,"is_reserved":false,"is_disabled":false,"rental_uris":{"android":"levelo://app?vid=06609689-11e1-4dcd-9015-4028ab0384ad","ios":"levelo://app?vid=06609689-11e1-4dcd-9015-4028ab0384ad"},"vehicle_type_id":"4","last_reported":1716829586,"current_range_meters":22400,"station_id":"ce4bhr92rcd13ifvqhrg","pricing_plan_id":"cebpf4jnsgd1na2vs0mg"},{"bike_id":"b17982e7-e2bd-427e-b7fd-304fe7be85cc","system_id":"levelo_inurba_marseille","lat":43.295169,"lon":5.390426,"is_reserved":false,"is_disabled":false,"rental_uris":{"android":"levelo://app?vid=b17982e7-e2bd-427e-b7fd-304fe7be85cc","ios":"levelo://app?vid=b17982e7-e2bd-427e-b7fd-304fe7be85cc"},"vehicle_type_id":"4","last_reported":1716829586,"current_range_meters":6800,"station_id":"ce4bh3p2rcd13ifvqdp0","pricing_plan_id":"cebpf4jnsgd1na2vs0mg"},{"bike_id":"183cea2f-c486-46f3-bc43-8628c5d7c244","system_id":"levelo_inurba_marseille","lat":43.295169,"lon":5.390426,"is_reserved":false,"is_disabled":false,"rental_uris":{"android":"levelo://app?vid=183cea2f-c486-46f3-bc43-8628c5d7c244","ios":"levelo://app?vid=183cea2f-c486-46f3-bc43-8628c5d7c244"},"vehicle_type_id":"4","last_reported":1716829586,"current_range_meters":19600,"station_id":"ce4bh3p2rcd13ifvqdp0","pricing_plan_id":"cebpf4jnsgd1na2vs0mg"},{"bike_id":"4a9444a8-ff5d-4bf9-8b20-525b524df63d","system_id":"levelo_inurba_marseille","lat":43.288666,"lon":5.358792,"is_reserved":false,"is_disabled":false,"rental_uris":{"android":"levelo://app?vid=4a9444a8-ff5d-4bf9-8b20-525b524df63d","ios":"levelo://app?vid=4a9444a8-ff5d-4bf9-8b20-525b524df63d"},"vehicle_type_id":"4","last_reported":1716829586,"current_range_meters":0,"station_id":"ce4bhb12rcd13ifvqem0","pricing_plan_id":"cebpf4jnsgd1na2vs0mg"},{"bike_id":"eba7fe01-c9d7-4332-8650-e0212eea5660","system_id":"levelo_inurba_marseille","lat":43.28856,"lon":5.358371,"is_reserved":false,"is_disabled":false,"rental_uris":{"android":"levelo://app?vid=eba7fe01-c9d7-4332-8650-e0212eea5660","ios":"levelo://app?vid=eba7fe01-c9d7-4332-8650-e0212eea5660"},"vehicle_type_id":"4","last_reported":1716829586,"current_range_meters":22800,"station_id":"ce4bhb12rcd13ifvqem0","pricing_plan_id":"cebpf4jnsgd1na2vs0mg"},{"bike_id":"14a069cb-d4d3-441d-b34a-0ea82b2819a6","system_id":"levelo_inurba_marseille","lat":43.290345,"lon":5.38646,"is_reserved":false,"is_disabled":false,"rental_uris":{"android":"levelo://app?vid=14a069cb-d4d3-441d-b34a-0ea82b2819a6","ios":"levelo://app?vid=14a069cb-d4d3-441d-b34a-0ea82b2819a6"},"vehicle_type_id":"4","last_reported":1716829586,"current_range_meters":14000,"station_id":"ce4bh4p2rcd13ifvqe0g","pricing_plan_id":"cebpf4jnsgd1na2vs0mg"},{"bike_id":"62ab63ff-16b7-4f79-a001-cc180945d1c6","system_id":"levelo_inurba_marseille","lat":43.2901,"lon":5.381269,"is_reserved":false,"is_disabled":false,"rental_uris":{"android":"levelo://app?vid=62ab63ff-16b7-4f79-a001-cc180945d1c6","ios":"levelo://app?vid=62ab63ff-16b7-4f79-a001-cc180945d1c6"},"vehicle_type_id":"4","last_reported":1716829586,"current_range_meters":26400,"station_id":"ce4bh4p2rcd13ifvqe1g","pricing_plan_id":"cebpf4jnsgd1na2vs0mg"},{"bike_id":"05beb74e-7a84-4fed-b029-9ecc508bd248","system_id":"levelo_inurba_marseille","lat":43.28857,"lon":5.35834,"is_reserved":false,"is_disabled":false,"rental_uris":{"android":"levelo://app?vid=05beb74e-7a84-4fed-b029-9ecc508bd248","ios":"levelo://app?vid=05beb74e-7a84-4fed-b029-9ecc508bd248"},"vehicle_type_id":"4","last_reported":1716829586,"current_range_meters":0,"station_id":"ce4bhb12rcd13ifvqem0","pricing_plan_id":"cebpf4jnsgd1na2vs0mg"},{"bike_id":"386023af-20b8-4d9f-901a-6272cdbc385e","system_id":"levelo_inurba_marseille","lat":43.290094,"lon":5.381264,"is_reserved":false,"is_disabled":false,"rental_uris":{"android":"levelo://app?vid=386023af-20b8-4d9f-901a-6272cdbc385e","ios":"levelo://app?vid=386023af-20b8-4d9f-901a-6272cdbc385e"},"vehicle_type_id":"4","last_reported":1716829586,"current_range_meters":0,"station_id":"ce4bh4p2rcd13ifvqe1g","pricing_plan_id":"cebpf4jnsgd1na2vs0mg"},{"bike_id":"4cb2db7b-0dc2-4fef-a2ab-11d273ab2e4e","system_id":"levelo_inurba_marseille","lat":43.288488,"lon":5.358658,"is_reserved":false,"is_disabled":false,"rental_uris":{"android":"levelo://app?vid=4cb2db7b-0dc2-4fef-a2ab-11d273ab2e4e","ios":"levelo://app?vid=4cb2db7b-0dc2-4fef-a2ab-11d273ab2e4e"},"vehicle_type_id":"4","last_reported":1716829586,"current_range_meters":0,"station_id":"ce4bhb12rcd13ifvqem0","pricing_plan_id":"cebpf4jnsgd1na2vs0mg"},{"bike_id":"4a062409-595e-4997-aed3-7ecece806351","system_id":"levelo_inurba_marseille","lat":43.312609,"lon":5.401662,"is_reserved":false,"is_disabled":false,"rental_uris":{"android":"levelo://app?vid=4a062409-595e-4997-aed3-7ecece806351","ios":"levelo://app?vid=4a062409-595e-4997-aed3-7ecece806351"},"vehicle_type_id":"4","last_reported":1716829586,"current_range_meters":15200,"station_id":"ce4bh092rcd13ifvqd30","pricing_plan_id":"cebpf4jnsgd1na2vs0mg"},{"bike_id":"c817be8a-4d3f-428e-9e83-fb97be659edc","system_id":"levelo_inurba_marseille","lat":43.33739,"lon":5.37443,"is_reserved":false,"is_disabled":false,"rental_uris":{"android":"levelo://app?vid=c817be8a-4d3f-428e-9e83-fb97be659edc","ios":"levelo://app?vid=c817be8a-4d3f-428e-9e83-fb97be659edc"},"vehicle_type_id":"4","last_reported":1716829586,"current_range_meters":16400,"station_id":"","pricing_plan_id":"cebpf4jnsgd1na2vs0mg"},{"bike_id":"692ca19f-0574-4a95-a62a-6faaf8808531","system_id":"levelo_inurba_marseille","lat":43.312609,"lon":5.401662,"is_reserved":false,"is_disabled":false,"rental_uris":{"android":"levelo://app?vid=692ca19f-0574-4a95-a62a-6faaf8808531","ios":"levelo://app?vid=692ca19f-0574-4a95-a62a-6faaf8808531"},