{"last_updated":1692893280,"ttl":30,"version":"2.2","data":{"bikes":[{"bike_id":"f22ca441-4e4e-4660-b824-b2f46943e54d","system_id":"levelo_inurba_marseille","lat":43.312239,"lon":5.368562,"is_reserved":false,"is_disabled":false,"rental_uris":{"android":"levelo://app?vid=f22ca441-4e4e-4660-b824-b2f46943e54d","ios":"levelo://app?vid=f22ca441-4e4e-4660-b824-b2f46943e54d"},"vehicle_type_id":"4","last_reported":1692893280,"current_range_meters":31600,"station_id":"ce4bgl92rcd13ifvqbq0","pricing_plan_id":"free"},{"bike_id":"65674239-bfb7-4928-84de-b7277febf7c2","system_id":"levelo_inurba_marseille","lat":43.312239,"lon":5.368562,"is_reserved":false,"is_disabled":false,"rental_uris":{"android":"levelo://app?vid=65674239-bfb7-4928-84de-b7277febf7c2","ios":"levelo://app?vid=65674239-bfb7-4928-84de-b7277febf7c2"},"vehicle_type_id":"4","last_reported":1692893280,"current_range_meters":13200,"station_id":"ce4bgl92rcd13ifvqbq0","pricing_plan_id":"free"},{"bike_id":"d2be997d-44d2-40a5-bb20-02aeaaf65fa5","system_id":"levelo_inurba_marseille","lat":43.314811,"lon":5.373103,"is_reserved":false,"is_disabled":false,"rental_uris":{"android":"levelo://app?vid=d2be997d-44d2-40a5-bb20-02aeaaf65fa5","ios":"levelo://app?vid=d2be997d-44d2-40a5-bb20-02aeaaf65fa5"},"vehicle_type_id":"4","last_reported":1692893280,"current_range_meters":30800,"station_id":"ce4bgt12rcd13ifvqcd0","pricing_plan_id":"free"},{"bike_id":"86b9d6b9-bbc3-4332-9f68-c6265cf6129a","system_id":"levelo_inurba_marseille","lat":43.314811,"lon":5.373104,"is_reserved":false,"is_disabled":false,"rental_uris":{"android":"levelo://app?vid=86b9d6b9-bbc3-4332-9f68-c6265cf6129a","ios":"levelo://app?vid=86b9d6b9-bbc3-4332-9f68-c6265cf6129a"},"vehicle_type_id":"4","last_reported":1692893280,"current_range_meters":0,"station_id":"ce4bgt12rcd13ifvqcd0","pricing_plan_id":"free"},{"bike_id":"917370f5-f03d-44e7-b177-53d94f6a7a2d","system_id":"levelo_inurba_marseille","lat":43.305989,"lon":5.37225,"is_reserved":false,"is_disabled":false,"rental_uris":{"android":"levelo://app?vid=917370f5-f03d-44e7-b177-53d94f6a7a2d","ios":"levelo://app?vid=917370f5-f03d-44e7-b177-53d94f6a7a2d"},"vehicle_type_id":"4","last_reported":1692893280,"current_range_meters":5600,"station_id":"ce4bgqh2rcd13ifvqc4g","pricing_plan_id":"free"},{"bike_id":"9bb989a7-d21e-4dfc-afcd-d5ac3602c505","system_id":"levelo_inurba_marseille","lat":43.270721,"lon":5.422764,"is_reserved":false,"is_disabled":false,"rental_uris":{"android":"levelo://app?vid=9bb989a7-d21e-4dfc-afcd-d5ac3602c505","ios":"levelo://app?vid=9bb989a7-d21e-4dfc-afcd-d5ac3602c505"},"vehicle_type_id":"4","last_reported":1692893280,"current_range_meters":5600,"station_id":"ce4bhk92rcd13ifvqgb0","pricing_plan_id":"free"},{"bike_id":"ae23c5ea-ff9c-4949-b07d-ac04d708f295","system_id":"levelo_inurba_marseille","lat":43.315293,"lon":5.380349,"is_reserved":false,"is_disabled":false,"rental_uris":{"android":"levelo://app?vid=ae23c5ea-ff9c-4949-b07d-ac04d708f295","ios":"levelo://app?vid=ae23c5ea-ff9c-4949-b07d-ac04d708f295"},"vehicle_type_id":"4","last_reported":1692893280,"current_range_meters":30800,"station_id":"ce4bhsp2rcd13ifvqi50","pricing_plan_id":"free"},{"bike_id":"4eade472-7afb-49db-9ee3-172c560e1fe0","system_id":"levelo_inurba_marseille","lat":43.31537,"lon":5.38031,"is_reserved":false,"is_disabled":false,"rental_uris":{"android":"levelo://app?vid=4eade472-7afb-49db-9ee3-172c560e1fe0","ios":"levelo://app?vid=4eade472-7afb-49db-9ee3-172c560e1fe0"},"vehicle_type_id":"4","last_reported":1692893280,"current_range_meters":31200,"station_id":"ce4bhsp2rcd13ifvqi50","pricing_plan_id":"free"},{"bike_id":"3661e5f6-9474-422f-abac-e9bf1d884c16","system_id":"levelo_inurba_marseille","lat":43.31533,"lon":5.38038,"is_reserved":false,"is_disabled":false,"rental_uris":{"android":"levelo://app?vid=3661e5f6-9474-422f-abac-e9bf1d884c16","ios":"levelo://app?vid=3661e5f6-9474-422f-abac-e9bf1d884c16"},"vehicle_type_id":"4","last_reported":1692893280,"current_range_meters":31200,"station_id":"ce4bhsp2rcd13ifvqi50","pricing_plan_id":"free"},{"bike_id":"c08f1b4f-a36e-4d10-adc0-670ab5b30659","system_id":"levelo_inurba_marseille","lat":43.315293,"lon":5.380349,"is_reserved":false,"is_disabled":false,"rental_uris":{"android":"levelo://app?vid=c08f1b4f-a36e-4d10-adc0-670ab5b30659","ios":"levelo://app?vid=c08f1b4f-a36e-4d10-adc0-670ab5b30659"},"vehicle_type_id":"4","last_reported":1692893280,"current_range_meters":20000,"station_id":"ce4bhsp2rcd13ifvqi50","pricing_plan_id":"free"},{"bike_id":"5982ab2e-07e6-4f2f-a081-73968b26c8fa","system_id":"levelo_inurba_marseille","lat":43.315293,"lon":5.380349,"is_reserved":false,"is_disabled":false,"rental_uris":{"android":"levelo://app?vid=5982ab2e-07e6-4f2f-a081-73968b26c8fa","ios":"levelo://app?vid=5982ab2e-07e6-4f2f-a081-73968b26c8fa"},"vehicle_type_id":"4","last_reported":1692893280,"current_range_meters":23200,"station_id":"ce4bhsp2rcd13ifvqi50","pricing_plan_id":"free"},{"bike_id":"072c052d-19ae-47a3-9589-353f3d598eb4","system_id":"levelo_inurba_marseille","lat":43.31367,"lon":5.38489,"is_reserved":false,"is_disabled":false,"rental_uris":{"android":"levelo://app?vid=072c052d-19ae-47a3-9589-353f3d598eb4","ios":"levelo://app?vid=072c052d-19ae-47a3-9589-353f3d598eb4"},"vehicle_type_id":"4","last_reported":1692893280,"current_range_meters":5600,"station_id":"ce4bgt92rcd13ifvqcf0","pricing_plan_id":"free"},{"bike_id":"95dc9ecf-047e-4c3a-bb12-a5676cb36ad4","system_id":"levelo_inurba_marseille","lat":43.3216,"lon":5.38166,"is_reserved":false,"is_disabled":false,"rental_uris":{"android":"levelo://app?vid=95dc9ecf-047e-4c3a-bb12-a5676cb36ad4","ios":"levelo://app?vid=95dc9ecf-047e-4c3a-bb12-a5676cb36ad4"},"vehicle_type_id":"4","last_reported":1692893280,"current_range_meters":0,"station_id":"","pricing_plan_id":"free"},{"bike_id":"ea628102-f413-4421-a451-01c3055a1ca3","system_id":"levelo_inurba_marseille","lat":43.30543,"lon":5.38433,"is_reserved":false,"is_disabled":false,"rental_uris":{"android":"levelo://app?vid=ea628102-f413-4421-a451-01c3055a1ca3","ios":"levelo://app?vid=ea628102-f413-4421-a451-01c3055a1ca3"},"vehicle_type_id":"4","last_reported":1692893280,"current_range_meters":31200,"station_id":"ce4bgg92rcd13ifvqb30","pricing_plan_id":"free"},{"bike_id":"b885f463-e8c5-42cc-902f-7152167ce1c7","system_id":"levelo_inurba_marseille","lat":43.299243,"lon":5.374807,"is_reserved":false,"is_disabled":false,"rental_uris":{"android":"levelo://app?vid=b885f463-e8c5-42cc-902f-7152167ce1c7","ios":"levelo://app?vid=b885f463-e8c5-42cc-902f-7152167ce1c7"},"vehicle_type_id":"4","last_reported":1692893280,"current_range_meters":31200,"station_id":"ce4bgjh2rcd13ifvqbg0","pricing_plan_id":"free"},{"bike_id":"2f9e2def-2173-4eb4-a460-9a385f59debe","system_id":"levelo_inurba_marseille","lat":43.299243,"lon":5.37481,"is_reserved":false,"is_disabled":false,"rental_uris":{"android":"levelo://app?vid=2f9e2def-2173-4eb4-a460-9a385f59debe","ios":"levelo://app?vid=2f9e2def-2173-4eb4-a460-9a385f59debe"},"vehicle_type_id":"4","last_reported":1692893280,"current_range_meters":31200,"station_id":"ce4bgjh2rcd13ifvqbg0","pricing_plan_id":"free"},{"bike_id":"35eec3a1-aa54-4990-8eb4-78e6c0dd24d0","system_id":"levelo_inurba_marseille","lat":43.29906,"lon":5.37474,"is_reserved":false,"is_disabled":false,"rental_uris":{"android":"levelo://app?vid=35eec3a1-aa54-4990-8eb4-78e6c0dd24d0","ios":"levelo://app?vid=35eec3a1-aa54-4990-8eb4-78e6c0dd24d0"},"vehicle_type_id":"4","last_reported":1692893280,"current_range_meters":25600,"station_id":"ce4bgjh2rcd13ifvqbg0","pricing_plan_id":"free"},{"bike_id":"bd0bd295-6ecc-40c4-a4d0-89f645593756","system_id":"levelo_inurba_marseille","lat":43.29722,"lon":5.36608,"is_reserved":false,"is_disabled":false,"rental_uris":{"android":"levelo://app?vid=bd0bd295-6ecc-40c4-a4d0-89f645593756","ios":"levelo://app?vid=bd0bd295-6ecc-40c4-a4d0-89f645593756"},"vehicle_type_id":"4","last_reported":1692893280,"current_range_meters":11200,"station_id":"ce4bgn12rcd13ifvqbt0","pricing_plan_id":"free"},{"bike_id":"38b04131-5a71-4066-988d-ef18967fac34","system_id":"levelo_inurba_marseille","lat":43.328371,"lon":5.366909,"is_reserved":false,"is_disabled":false,"rental_uris":{"android":"levelo://app?vid=38b04131-5a71-4066-988d-ef18967fac34","ios":"levelo://app?vid=38b04131-5a71-4066-988d-ef18967fac34"},"vehicle_type_id":"4","last_reported":1692893280,"current_range_meters":30800,"station_id":"ce4bhs92rcd13ifvqi0g","pricing_plan_id":"free"},{"bike_id":"1d9120b3-4e75-4d5f-b4d5-c762235f67ff","system_id":"levelo_inurba_marseille","lat":43.32832,"lon":5.36691,"is_reserved":false,"is_disabled":false,"rental_uris":{"android":"levelo://app?vid=1d9120b3-4e75-4d5f-b4d5-c762235f67ff","ios":"levelo://app?vid=1d9120b3-4e75-4d5f-b4d5-c762235f67ff"},"vehicle_type_id":"4","last_reported":1692893280,"current_range_meters":14400,"station_id":"ce4bhs92rcd13ifvqi0g","pricing_plan_id":"free"},{"bike_id":"dd789220-e7b5-42c1-b9dc-dc4243148021","system_id":"levelo_inurba_marseille","lat":43.297163,"lon":5.365866,"is_reserved":false,"is_disabled":false,"rental_uris":{"android":"levelo://app?vid=dd789220-e7b5-42c1-b9dc-dc4243148021","ios":"levelo://app?vid=dd789220-e7b5-42c1-b9dc-dc4243148021"},"vehicle_type_id":"4","last_reported":1692893280,"current_range_meters":31200,"station_id":"ce4bgn12rcd13ifvqbt0","pricing_plan_id":"free"},{"bike_id":"c0f1fdf8-8693-4d4f-a248-41c778261b20","system_id":"levelo_inurba_marseille","lat":43.32834,"lon":5.36679,"is_reserved":false,"is_disabled":false,"rental_uris":{"android":"levelo://app?vid=c0f1fdf8-8693-4d4f-a248-41c778261b20","ios":"levelo://app?vid=c0f1fdf8-8693-4d4f-a248-41c778261b20"},"vehicle_type_id":"4","last_reported":1692893280,"current_range_meters":24000,"station_id":"ce4bhs92rcd13ifvqi0g","pricing_plan_id":"free"},{"bike_id":"7e754b2b-151b-4e41-9377-2eda24fce5ae","system_id":"levelo_inurba_marseille","lat":43.32835,"lon":5.36678,"is_reserved":false,"is_disabled":false,"rental_uris":{"android":"levelo://app?vid=7e754b2b-151b-4e41-9377-2eda24fce5ae","ios":"levelo://app?vid=7e754b2b-151b-4e41-9377-2eda24fce5ae"},"vehicle_type_id":"4","last_reported":1692893280,"current_range_meters":30800,"station_id":"ce4bhs92rcd13ifvqi0g","pricing_plan_id":"free"},{"bike_id":"d3139180-8ba9-4c91-b6e4-8baae3c22113","system_id":"levelo_inurba_marseille","lat":43.296131,"lon":5.370791,"is_reserved":false,"is_disabled":false,"rental_uris":{"android":"levelo://app?vid=d3139180-8ba9-4c91-b6e4-8baae3c22113","ios":"levelo://app?vid=d3139180-8ba9-4c91-b6e4-8baae3c22113"},"vehicle_type_id":"4","last_reported":1692893280,"current_range_meters":31200,"station_id":"ce4bgnh2rcd13ifvqc0g","pricing_plan_id":"free"},{"bike_id":"1febf6d4-682c-42aa-afbc-25830e1bb311","system_id":"levelo_inurba_marseille","lat":43.296935,"lon":5.376544,"is_reserved":false,"is_disabled":false,"rental_uris":{"android":"levelo://app?vid=1febf6d4-682c-42aa-afbc-25830e1bb311","ios":"levelo://app?vid=1febf6d4-682c-42aa-afbc-25830e1bb311"},"vehicle_type_id":"4","last_reported":1692893280,"current_range_meters":20800,"station_id":"ce4bgkh2rcd13ifvqbl0","pricing_plan_id":"free"},{"bike_id":"1070a3b7-7eb1-4a4e-b457-aeb4e023f2a6","system_id":"levelo_inurba_marseille","lat":43.317557,"lon":5.390173,"is_reserved":false,"is_disabled":false,"rental_uris":{"android":"levelo://app?vid=1070a3b7-7eb1-4a4e-b457-aeb4e023f2a6","ios":"levelo://app?vid=1070a3b7-7eb1-4a4e-b457-aeb4e023f2a6"},"vehicle_type_id":"4","last_reported":1692893280,"current_range_meters":23200,"station_id":"ce4bhqp2rcd13ifvqhng","pricing_plan_id":"free"},{"bike_id":"727000d4-44dc-4e56-bea3-e4d3ba755502","system_id":"levelo_inurba_marseille","lat":43.317557,"lon":5.390173,"is_reserved":false,"is_disabled":false,"rental_uris":{"android":"levelo://app?vid=727000d4-44dc-4e56-bea3-e4d3ba755502","ios":"levelo://app?vid=727000d4-44dc-4e56-bea3-e4d3ba755502"},"vehicle_type_id":"4","last_reported":1692893280,"current_range_meters":8400,"station_id":"ce4bhqp2rcd13ifvqhng","pricing_plan_id":"free"},{"bike_id":"2c93ce6f-c5e1-4ec9-9941-ebb7469bb8f2","system_id":"levelo_inurba_marseille","lat":43.317557,"lon":5.390173,"is_reserved":false,"is_disabled":false,"rental_uris":{"android":"levelo://app?vid=2c93ce6f-c5e1-4ec9-9941-ebb7469bb8f2","ios":"levelo://app?vid=2c93ce6f-c5e1-4ec9-9941-ebb7469bb8f2"},"vehicle_type_id":"4","last_reported":1692893280,"current_range_meters":31600,"station_id":"ce4bhqp2rcd13ifvqhng","pricing_plan_id":"free"},{"bike_id":"236ed6c3-86ca-435f-84e0-e4c3ce229bc0","system_id":"levelo_inurba_marseille","lat":43.31481,"lon":5.39124,"is_reserved":false,"is_disabled":false,"rental_uris":{"android":"levelo://app?vid=236ed6c3-86ca-435f-84e0-e4c3ce229bc0","ios":"levelo://app?vid=236ed6c3-86ca-435f-84e0-e4c3ce229bc0"},"vehicle_type_id":"4","last_reported":1692893280,"current_range_meters":2800,"station_id":"","pricing_plan_id":"free"},{"bike_id":"952a19e7-6602-41c3-942f-79cfb514366f","system_id":"levelo_inurba_marseille","lat":43.29803,"lon":5.38089,"is_reserved":false,"is_disabled":false,"rental_uris":{"android":"levelo://app?vid=952a19e7-6602-41c3-942f-79cfb514366f","ios":"levelo://app?vid=952a19e7-6602-41c3-942f-79cfb514366f"},"vehicle_type_id":"4","last_reported":1692893280,"current_range_meters":30800,"station_id":"ce4bgip2rcd13ifvqbb0","pricing_plan_id":"free"},{"bike_id":"5639c962-850c-45d6-becf-fe2d2b3bbf72","system_id":"levelo_inurba_marseille","lat":43.2958,"lon":5.3751,"is_reserved":false,"is_disabled":false,"rental_uris":{"android":"levelo://app?vid=5639c962-850c-45d6-becf-fe2d2b3bbf72","ios":"levelo://app?vid=5639c962-850c-45d6-becf-fe2d2b3bbf72"},"vehicle_type_id":"4","last_reported":1692893280,"current_range_meters":13200,"station_id":"ce4bgh92rcd13ifvqb50","pricing_plan_id":"free"},{"bike_id":"d8d95c5e-4f7e-4490-a326-bd4c6729595b","system_id":"levelo_inurba_marseille","lat":43.29574,"lon":5.375,"is_reserved":false,"is_disabled":false,"rental_uris":{"android":"levelo://app?vid=d8d95c5e-4f7e-4490-a326-bd4c6729595b","ios":"levelo://app?vid=d8d95c5e-4f7e-4490-a326-bd4c6729595b"},"vehicle_type_id":"4","last_reported":1692893280,"current_range_meters":21200,"station_id":"ce4bgh92rcd13ifvqb50","pricing_plan_id":"free"},{"bike_id":"88633cd0-092e-443a-a19c-7f566d24b133","system_id":"levelo_inurba_marseille","lat":43.33067,"lon":5.36269,"is_reserved":false,"is_disabled":false,"rental_uris":{"android":"levelo://app?vid=88633cd0-092e-443a-a19c-7f566d24b133","ios":"levelo://app?vid=88633cd0-092e-443a-a19c-7f566d24b133"},"vehicle_type_id":"4","last_reported":1692893280,"current_range_meters":9200,"station_id":"","pricing_plan_id":"free"},{"bike_id":"329b52da-6179-4119-8885-76b50cbdc2a9","system_id":"levelo_inurba_marseille","lat":43.29975,"lon":5.38495,"is_reserved":false,"is_disabled":false,"rental_uris":{"android":"levelo://app?vid=329b52da-6179-4119-8885-76b50cbdc2a9","ios":"levelo://app?vid=329b52da-6179-4119-8885-76b50cbdc2a9"},"vehicle_type_id":"4","last_reported":1692893280,"current_range_meters":23200,"station_id":"ce4bgj92rcd13ifvqbd0","pricing_plan_id":"free"},{"bike_id":"037b3482-f8b8-4ae7-a5d2-976d2b97e6ac","system_id":"levelo_inurba_marseille","lat":43.29961,"lon":5.38484,"is_reserved":false,"is_disabled":false,"rental_uris":{"android":"levelo://app?vid=037b3482-f8b8-4ae7-a5d2-976d2b97e6ac","ios":"levelo://app?vid=037b3482-f8b8-4ae7-a5d2-976d2b97e6ac"},"vehicle_type_id":"4","last_reported":1692893280,"current_range_meters":28400,"station_id":"ce4bgj92rcd13ifvqbd0","pricing_plan_id":"free"},{"bike_id":"7f32b9dc-ef89-4ba3-8d07-0c5903bf2696","system_id":"levelo_inurba_marseille","lat":43.301252,"lon":5.387877,"is_reserved":false,"is_disabled":false,"rental_uris":{"android":"levelo://app?vid=7f32b9dc-ef89-4ba3-8d07-0c5903bf2696","ios":"levelo://app?vid=7f32b9dc-ef89-4ba3-8d07-0c5903bf2696"},"vehicle_type_id":"4","last_reported":1692893280,"current_range_meters":22800,"station_id":"","pricing_plan_id":"free"},{"bike_id":"f56184c8-73f8-47cd-bd4b-43ba382c0a0e","system_id":"levelo_inurba_marseille","lat":43.32367,"lon":5.388836,"is_reserved":false,"is_disabled":false,"rental_uris":{"android":"levelo://app?vid=f56184c8-73f8-47cd-bd4b-43ba382c0a0e","ios":"levelo://app?vid=f56184c8-73f8-47cd-bd4b-43ba382c0a0e"},"vehicle_type_id":"4","last_reported":1692893280,"current_range_meters":11600,"station_id":"ce4bhqp2rcd13ifvqhog","pricing_plan_id":"free"},{"bike_id":"baab8f95-6cb5-4cdb-8709-d526f67d1483","system_id":"levelo_inurba_marseille","lat":43.32367,"lon":5.388836,"is_reserved":false,"is_disabled":false,"rental_uris":{"android":"levelo://app?vid=baab8f95-6cb5-4cdb-8709-d526f67d1483","ios":"levelo://app?vid=baab8f95-6cb5-4cdb-8709-d526f67d1483"},"vehicle_type_id":"4","last_reported":1692893280,"current_range_meters":27600,"station_id":"ce4bhqp2rcd13ifvqhog","pricing_plan_id":"free"},{"bike_id":"32ecad24-e92e-4fa4-967e-7876de8b623c","system_id":"levelo_inurba_marseille","lat":43.32367,"lon":5.388836,"is_reserved":false,"is_disabled":false,"rental_uris":{"android":"levelo://app?vid=32ecad24-e92e-4fa4-967e-7876de8b623c","ios":"levelo://app?vid=32ecad24-e92e-4fa4-967e-7876de8b623c"},"vehicle_type_id":"4","last_reported":1692893280,"current_range_meters":11200,"station_id":"ce4bhqp2rcd13ifvqhog","pricing_plan_id":"free"},{"bike_id":"373c4bdf-e363-4db2-b092-deabc3a4907a","system_id":"levelo_inurba_marseille","lat":43.32366,"lon":5.38879,"is_reserved":false,"is_disabled":false,"rental_uris":{"android":"levelo://app?vid=373c4bdf-e363-4db2-b092-deabc3a4907a","ios":"levelo://app?vid=373c4bdf-e363-4db2-b092-deabc3a4907a"},"vehicle_type_id":"4","last_reported":1692893280,"current_range_meters":26800,"station_id":"ce4bhqp2rcd13ifvqhog","pricing_plan_id":"free"},{"bike_id":"828dede6-92f9-4c93-ad20-df1fdc8a0c35","system_id":"levelo_inurba_marseille","lat":43.32367,"lon":5.388836,"is_reserved":false,"is_disabled":false,"rental_uris":{"android":"levelo://app?vid=828dede6-92f9-4c93-ad20-df1fdc8a0c35","ios":"levelo://app?vid=828dede6-92f9-4c93-ad20-df1fdc8a0c35"},"vehicle_type_id":"4","last_reported":1692893280,"current_range_meters":12800,"station_id":"ce4bhqp2rcd13ifvqhog","pricing_plan_id":"free"},{"bike_id":"d7fb9c00-6bf8-4bfa-822f-aac11f42d8d9","system_id":"levelo_inurba_marseille","lat":43.32369,"lon":5.38877,"is_reserved":false,"is_disabled":false,"rental_uris":{"android":"levelo://app?vid=d7fb9c00-6bf8-4bfa-822f-aac11f42d8d9","ios":"levelo://app?vid=d7fb9c00-6bf8-4bfa-822f-aac11f42d8d9"},"vehicle_type_id":"4","last_reported":1692893280,"current_range_meters":26400,"station_id":"ce4bhqp2rcd13ifvqhog","pricing_plan_id":"free"},{"bike_id":"806c2268-3423-46f3-b665-6097df066def","system_id":"levelo_inurba_marseille","lat":43.32362,"lon":5.38885,"is_reserved":false,"is_disabled":false,"rental_uris":{"android":"levelo://app?vid=806c2268-3423-46f3-b665-6097df066def","ios":"levelo://app?vid=806c2268-3423-46f3-b665-6097df066def"},"vehicle_type_id":"4","last_reported":1692893280,"current_range_meters":27200,"station_id":"ce4bhqp2rcd13ifvqhog","pricing_plan_id":"free"},{"bike_id":"9622801f-a665-42a8-bdea-eba2330a474a","system_id":"levelo_inurba_marseille","lat":43.32362,"lon":5.38885,"is_reserved":false,"is_disabled":false,"rental_uris":{"android":"levelo://app?vid=9622801f-a665-42a8-bdea-eba2330a474a","ios":"levelo://app?vid=9622801f-a665-42a8-bdea-eba2330a474a"},"vehicle_type_id":"4","last_reported":1692893280,"current_range_meters":24000,"station_id":"ce4bhqp2rcd13ifvqhog","pricing_plan_id":"free"},{"bike_id":"7c7d326f-cdfb-41e6-abbb-d7c1d9d2955d","system_id":"levelo_inurba_marseille","lat":43.32365,"lon":5.38883,"is_reserved":false,"is_disabled":false,"rental_uris":{"android":"levelo://app?vid=7c7d326f-cdfb-41e6-abbb-d7c1d9d2955d","ios":"levelo://app?vid=7c7d326f-cdfb-41e6-abbb-d7c1d9d2955d"},"vehicle_type_id":"4","last_reported":1692893280,"current_range_meters":23200,"station_id":"ce4bhqp2rcd13ifvqhog","pricing_plan_id":"free"},{"bike_id":"086ccc2b-b3e2-402c-9fd3-6512af113421","system_id":"levelo_inurba_marseille","lat":43.32363,"lon":5.38885,"is_reserved":false,"is_disabled":false,"rental_uris":{"android":"levelo://app?vid=086ccc2b-b3e2-402c-9fd3-6512af113421","ios":"levelo://app?vid=086ccc2b-b3e2-402c-9fd3-6512af113421"},"vehicle_type_id":"4","last_reported":1692893280,"current_range_meters":23200,"station_id":"ce4bhqp2rcd13ifvqhog","pricing_plan_id":"free"},{"bike_id":"49c5a9f4-e27f-4512-858e-1859315046f2","system_id":"levelo_inurba_marseille","lat":43.32365,"lon":5.38885,"is_reserved":false,"is_disabled":false,"rental_uris":{"android":"levelo://app?vid=49c5a9f4-e27f-4512-858e-1859315046f2","ios":"levelo://app?vid=49c5a9f4-e27f-4512-858e-1859315046f2"},"vehicle_type_id":"4","last_reported":1692893280,"current_range_meters":27600,"station_id":"ce4bhqp2rcd13ifvqhog","pricing_plan_id":"free"},{"bike_id":"2b9a2fce-dba0-4cf4-b5cf-3855da61766b","system_id":"levelo_inurba_marseille","lat":43.32367,"lon":5.388836,"is_reserved":false,"is_disabled":false,"rental_uris":{"android":"levelo://app?vid=2b9a2fce-dba0-4cf4-b5cf-3855da61766b","ios":"levelo://app?vid=2b9a2fce-dba0-4cf4-b5cf-3855da61766b"},"vehicle_type_id":"4","last_reported":1692893280,"current_range_meters":23600,"station_id":"ce4bhqp2rcd13ifvqhog","pricing_plan_id":"free"},{"bike_id":"00883cd9-a56a-4720-bb55-237d0136a4a1","system_id":"levelo_inurba_marseille","lat":43.32367,"lon":5.388836,"is_reserved":false,"is_disabled":false,"rental_uris":{"android":"levelo://app?vid=00883cd9-a56a-4720-bb55-237d0136a4a1","ios":"levelo://app?vid=00883cd9-a56a-4720-bb55-237d0136a4a1"},"vehicle_type_id":"4","last_reported":1692893280,"current_range_meters":24800,"station_id":"ce4bhqp2rcd13ifvqhog","pricing_plan_id":"free"},{"bike_id":"4cc6afcb-8ab3-420f-b8e1-a4bccdd2c827","system_id":"levelo_inurba_marseille","lat":43.32367,"lon":5.388836,"is_reserved":false,"is_disabled":false,"rental_uris":{"android":"levelo://app?vid=4cc6afcb-8ab3-420f-b8e1-a4bccdd2c827","ios":"levelo://app?vid=4cc6afcb-8ab3-420f-b8e1-a4bccdd2c827"},"vehicle_type_id":"4","last_reported":1692893280,"current_range_meters":31200,"station_id":"ce4bhqp2rcd13ifvqhog","pricing_plan_id":"free"},{"bike_id":"c5bc3cba-282e-484d-b591-63b5722745ec","system_id":"levelo_inurba_marseille","lat":43.32367,"lon":5.388836,"is_reserved":false,"is_disabled":false,"rental_uris":{"android":"levelo://app?vid=c5bc3cba-282e-484d-b591-63b5722745ec","ios":"levelo://app?vid=c5bc3cba-282e-484d-b591-63b5722745ec"},"vehicle_type_id":"4","last_reported":1692893280,"current_range_meters":13200,"station_id":"ce4bhqp2rcd13ifvqhog","pricing_plan_id":"free"},{"bike_id":"547a076a-5dde-4ebd-bbda-4525894a2ed6","system_id":"levelo_inurba_marseille","lat":43.292749,"lon":5.368402,"is_reserved":false,"is_disabled":false,"rental_uris":{"android":"levelo://app?vid=547a076a-5dde-4ebd-bbda-4525894a2ed6","ios":"levelo://app?vid=547a076a-5dde-4ebd-bbda-4525894a2ed6"},"vehicle_type_id":"4","last_reported":1692893280,"current_range_meters":5600,"station_id":"ce4bhbp2rcd13ifvqesg","pricing_plan_id":"free"},{"bike_id":"d5d977ac-586d-438a-b40a-69625a10f9ee","system_id":"levelo_inurba_marseille","lat":43.292749,"lon":5.368402,"is_reserved":false,"is_disabled":false,"rental_uris":{"android":"levelo://app?vid=d5d977ac-586d-438a-b40a-69625a10f9ee","ios":"levelo://app?vid=d5d977ac-586d-438a-b40a-69625a10f9ee"},"vehicle_type_id":"4","last_reported":1692893280,"current_range_meters":12000,"station_id":"ce4bhbp2rcd13ifvqesg","pricing_plan_id":"free"},{"bike_id":"39e2f07e-58b1-4eda-a554-ad6195cd299c","system_id":"levelo_inurba_marseille","lat":43.292749,"lon":5.368398,"is_reserved":false,"is_disabled":false,"rental_uris":{"android":"levelo://app?vid=39e2f07e-58b1-4eda-a554-ad6195cd299c","ios":"levelo://app?vid=39e2f07e-58b1-4eda-a554-ad6195cd299c"},"vehicle_type_id":"4","last_reported":1692893280,"current_range_meters":20000,"station_id":"ce4bhbp2rcd13ifvqesg","pricing_plan_id":"free"},{"bike_id":"00546753-6635-4808-b4fe-cc5985fa8964","system_id":"levelo_inurba_marseille","lat":43.305994,"lon":5.393687,"is_reserved":false,"is_disabled":false,"rental_uris":{"android":"levelo://app?vid=00546753-6635-4808-b4fe-cc5985fa8964","ios":"levelo://app?vid=00546753-6635-4808-b4fe-cc5985fa8964"},"vehicle_type_id":"4","last_reported":1692893280,"current_range_meters":6400,"station_id":"ce4bh0p2rcd13ifvqd80","pricing_plan_id":"free"},{"bike_id":"6533c646-1091-4458-9ef2-bc9d36dce22d","system_id":"levelo_inurba_marseille","lat":43.293009,"lon":5.374584,"is_reserved":false,"is_disabled":false,"rental_uris":{"android":"levelo://app?vid=6533c646-1091-4458-9ef2-bc9d36dce22d","ios":"levelo://app?vid=6533c646-1091-4458-9ef2-bc9d36dce22d"},"vehicle_type_id":"4","last_reported":1692893280,"current_range_meters":27200,"station_id":"ce4bgi12rcd13ifvqb70","pricing_plan_id":"free"},{"bike_id":"38fef587-7cc5-4800-b069-87b8f296a10a","system_id":"levelo_inurba_marseille","lat":43.29296,"lon":5.37457,"is_reserved":false,"is_disabled":false,"rental_uris":{"android":"levelo://app?vid=38fef587-7cc5-4800-b069-87b8f296a10a","ios":"levelo://app?vid=38fef587-7cc5-4800-b069-87b8f296a10a"},"vehicle_type_id":"4","last_reported":1692893280,"current_range_meters":31200,"station_id":"ce4bgi12rcd13ifvqb70","pricing_plan_id":"free"},{"bike_id":"7488c452-9280-4e43-b1ed-f3259988e08b","system_id":"levelo_inurba_marseille","lat":43.305952,"lon":5.393652,"is_reserved":false,"is_disabled":false,"rental_uris":{"android":"levelo://app?vid=7488c452-9280-4e43-b1ed-f3259988e08b","ios":"levelo://app?vid=7488c452-9280-4e43-b1ed-f3259988e08b"},"vehicle_type_id":"4","last_reported":1692893280,"current_range_meters":27600,"station_id":"","pricing_plan_id":"free"},{"bike_id":"9117cd8c-9605-40cc-a0e6-978218cb50b6","system_id":"levelo_inurba_marseille","lat":43.305994,"lon":5.393687,"is_reserved":false,"is_disabled":false,"rental_uris":{"android":"levelo://app?vid=9117cd8c-9605-40cc-a0e6-978218cb50b6","ios":"levelo://app?vid=9117cd8c-9605-40cc-a0e6-978218cb50b6"},"vehicle_type_id":"4","last_reported":1692893280,"current_range_meters":17200,"station_id":"ce4bh0p2rcd13ifvqd80","pricing_plan_id":"free"},{"bike_id":"0724f352-a262-45b7-9b71-9a09ff17d945","system_id":"levelo_inurba_marseille","lat":43.30306,"lon":5.39203,"is_reserved":false,"is_disabled":false,"rental_uris":{"android":"levelo://app?vid=0724f352-a262-45b7-9b71-9a09ff17d945","ios":"levelo://app?vid=0724f352-a262-45b7-9b71-9a09ff17d945"},"vehicle_type_id":"4","last_reported":1692893280,"current_range_meters":21600,"station_id":"ce4bgkh2rcd13ifvqbk0","pricing_plan_id":"free"},{"bike_id":"59d4a7cc-c4d8-47e1-a63f-2e26b5d209c3","system_id":"levelo_inurba_marseille","lat":43.2936,"lon":5.37835,"is_reserved":false,"is_disabled":false,"rental_uris":{"android":"levelo://app?vid=59d4a7cc-c4d8-47e1-a63f-2e26b5d209c3","ios":"levelo://app?vid=59d4a7cc-c4d8-47e1-a63f-2e26b5d209c3"},"vehicle_type_id":"4","last_reported":1692893280,"current_range_meters":30400,"station_id":"ce4bgjh2rcd13ifvqbf0","pricing_plan_id":"free"},{"bike_id":"f3541045-e984-4b3c-bd83-d80fdf4562b4","system_id":"levelo_inurba_marseille","lat":43.31322,"lon":5.3969,"is_reserved":false,"is_disabled":false,"rental_uris":{"android":"levelo://app?vid=f3541045-e984-4b3c-bd83-d80fdf4562b4","ios":"levelo://app?vid=f3541045-e984-4b3c-bd83-d80fdf4562b4"},"vehicle_type_id":"4","last_reported":1692893280,"current_range_meters":26400,"station_id":"ce4bgvp2rcd13ifvqcu0","pricing_plan_id":"free"},{"bike_id":"f264bdd0-85cb-4909-b92f-cece8974fab2","system_id":"levelo_inurba_marseille","lat":43.31323,"lon":5.39692,"is_reserved":false,"is_disabled":false,"rental_uris":{"android":"levelo://app?vid=f264bdd0-85cb-4909-b92f-cece8974fab2","ios":"levelo://app?vid=f264bdd0-85cb-4909-b92f-cece8974fab2"},"vehicle_type_id":"4","last_reported":1692893280,"current_range_meters":14000,"station_id":"ce4bgvp2rcd13ifvqcu0","pricing_plan_id":"free"},{"bike_id":"9c4c1886-762d-4172-b1b5-f1a9234b88a7","system_id":"levelo_inurba_marseille","lat":43.29529,"lon":5.385581,"is_reserved":false,"is_disabled":false,"rental_uris":{"android":"levelo://app?vid=9c4c1886-762d-4172-b1b5-f1a9234b88a7","ios":"levelo://app?vid=9c4c1886-762d-4172-b1b5-f1a9234b88a7"},"vehicle_type_id":"4","last_reported":1692893280,"current_range_meters":22400,"station_id":"ce4bgih2rcd13ifvqba0","pricing_plan_id":"free"},{"bike_id":"aa141525-be2f-4421-88b9-788a0b892055","system_id":"levelo_inurba_marseille","lat":43.29529,"lon":5.385581,"is_reserved":false,"is_disabled":false,"rental_uris":{"android":"levelo://app?vid=aa141525-be2f-4421-88b9-788a0b892055","ios":"levelo://app?vid=aa141525-be2f-4421-88b9-788a0b892055"},"vehicle_type_id":"4","last_reported":1692893280,"current_range_meters":0,"station_id":"ce4bgih2rcd13ifvqba0","pricing_plan_id":"free"},{"bike_id":"ea6baca2-d9eb-4094-8542-285dc284eb04","system_id":"levelo_inurba_marseille","lat":43.290779,"lon":5.371482,"is_reserved":false,"is_disabled":false,"rental_uris":{"android":"levelo://app?vid=ea6baca2-d9eb-4094-8542-285dc284eb04","ios":"levelo://app?vid=ea6baca2-d9eb-4094-8542-285dc284eb04"},"vehicle_type_id":"4","last_reported":1692893280,"current_range_meters":0,"station_id":"ce4bh5p2rcd13ifvqe4g","pricing_plan_id":"free"},{"bike_id":"acbbd9e7-f607-4bb8-9d3d-6a59e0497ccd","system_id":"levelo_inurba_marseille","lat":43.290779,"lon":5.371482,"is_reserved":false,"is_disabled":false,"rental_uris":{"android":"levelo://app?vid=acbbd9e7-f607-4bb8-9d3d-6a59e0497ccd","ios":"levelo://app?vid=acbbd9e7-f607-4bb8-9d3d-6a59e0497ccd"},"vehicle_type_id":"4","last_reported":1692893280,"current_range_meters":2800,"station_id":"ce4bh5p2rcd13ifvqe4g","pricing_plan_id":"free"},{"bike_id":"39b5b5cf-86ef-48ea-a176-58e554756417","system_id":"levelo_inurba_marseille","lat":43.302008,"lon":5.394694,"is_reserved":false,"is_disabled":false,"rental_uris":{"android":"levelo://app?vid=39b5b5cf-86ef-48ea-a176-58e554756417","ios":"levelo://app?vid=39b5b5cf-86ef-48ea-a176-58e554756417"},"vehicle_type_id":"4","last_reported":1692893280,"current_range_meters":29200,"station_id":"ce4bh0p2rcd13ifvqd70","pricing_plan_id":"free"},{"bike_id":"3d1473b2-0e6c-4da5-b167-4dac21a1c483","system_id":"levelo_inurba_marseille","lat":43.289184,"lon":5.366408,"is_reserved":false,"is_disabled":false,"rental_uris":{"android":"levelo://app?vid=3d1473b2-0e6c-4da5-b167-4dac21a1c483","ios":"levelo://app?vid=3d1473b2-0e6c-4da5-b167-4dac21a1c483"},"vehicle_type_id":"4","last_reported":1692893280,"current_range_meters":21600,"station_id":"ce4bhap2rcd13ifvqek0","pricing_plan_id":"free"},{"bike_id":"35629a88-2350-4f28-a7c6-da968e16dbf6","system_id":"levelo_inurba_marseille","lat":43.289468,"lon":5.363719,"is_reserved":false,"is_disabled":false,"rental_uris":{"android":"levelo://app?vid=35629a88-2350-4f28-a7c6-da968e16dbf6","ios":"levelo://app?vid=35629a88-2350-4f28-a7c6-da968e16dbf6"},"vehicle_type_id":"4","last_reported":1692893280,"current_range_meters":800,"station_id":"ce4bhc92rcd13ifvqetg","pricing_plan_id":"free"},{"bike_id":"b7bf1990-6a12-4ad5-9ea8-e8c66e4b882b","system_id":"levelo_inurba_marseille","lat":43.28936,"lon":5.36403,"is_reserved":false,"is_disabled":false,"rental_uris":{"android":"levelo://app?vid=b7bf1990-6a12-4ad5-9ea8-e8c66e4b882b","ios":"levelo://app?vid=b7bf1990-6a12-4ad5-9ea8-e8c66e4b882b"},"vehicle_type_id":"4","last_reported":1692893280,"current_range_meters":29200,"station_id":"","pricing_plan_id":"free"},{"bike_id":"eb3272a7-9de6-4858-87e5-608fa19d991e","system_id":"levelo_inurba_marseille","lat":43.289468,"lon":5.363719,"is_reserved":false,"is_disabled":false,"rental_uris":{"android":"levelo://app?vid=eb3272a7-9de6-4858-87e5-608fa19d991e","ios":"levelo://app?vid=eb3272a7-9de6-4858-87e5-608fa19d991e"},"vehicle_type_id":"4","last_reported":1692893280,"current_range_meters":17200,"station_id":"ce4bhc92rcd13ifvqetg","pricing_plan_id":"free"},{"bike_id":"597451cb-844d-4477-8835-e8ec9d180b71","system_id":"levelo_inurba_marseille","lat":43.292644,"lon":5.384257,"is_reserved":false,"is_disabled":false,"rental_uris":{"android":"levelo://app?vid=597451cb-844d-4477-8835-e8ec9d180b71","ios":"levelo://app?vid=597451cb-844d-4477-8835-e8ec9d180b71"},"vehicle_type_id":"4","last_reported":1692893280,"current_range_meters":12000,"station_id":"ce4bh692rcd13ifvqea0","pricing_plan_id":"free"},{"bike_id":"149e039c-9278-41aa-af20-70aa6fe16595","system_id":"levelo_inurba_marseille","lat":43.292644,"lon":5.384257,"is_reserved":false,"is_disabled":false,"rental_uris":{"android":"levelo://app?vid=149e039c-9278-41aa-af20-70aa6fe16595","ios":"levelo://app?vid=149e039c-9278-41aa-af20-70aa6fe16595"},"vehicle_type_id":"4","last_reported":1692893280,"current_range_meters":6800,"station_id":"ce4bh692rcd13ifvqea0","pricing_plan_id":"free"},{"bike_id":"2393bdc3-6ce1-40ee-aba9-a8ea21de8c29","system_id":"levelo_inurba_marseille","lat":43.292644,"lon":5.384257,"is_reserved":false,"is_disabled":false,"rental_uris":{"android":"levelo://app?vid=2393bdc3-6ce1-40ee-aba9-a8ea21de8c29","ios":"levelo://app?vid=2393bdc3-6ce1-40ee-aba9-a8ea21de8c29"},"vehicle_type_id":"4","last_reported":1692893280,"current_range_meters":14400,"station_id":"ce4bh692rcd13ifvqea0","pricing_plan_id":"free"},{"bike_id":"5ebd9e3e-1031-41a0-bcaf-ff41fb2cbb93","system_id":"levelo_inurba_marseille","lat":43.292642,"lon":5.384254,"is_reserved":false,"is_disabled":false,"rental_uris":{"android":"levelo://app?vid=5ebd9e3e-1031-41a0-bcaf-ff41fb2cbb93","ios":"levelo://app?vid=5ebd9e3e-1031-41a0-bcaf-ff41fb2cbb93"},"vehicle_type_id":"4","last_reported":1692893280,"current_range_meters":7200,"station_id":"ce4bh692rcd13ifvqea0","pricing_plan_id":"free"},{"bike_id":"f4a5c5ac-9dd0-49e8-8414-50ac341434a6","system_id":"levelo_inurba_marseille","lat":43.29261,"lon":5.38449,"is_reserved":false,"is_disabled":false,"rental_uris":{"android":"levelo://app?vid=f4a5c5ac-9dd0-49e8-8414-50ac341434a6","ios":"levelo://app?vid=f4a5c5ac-9dd0-49e8-8414-50ac341434a6"},"vehicle_type_id":"4","last_reported":1692893280,"current_range_meters":13200,"station_id":"ce4bh692rcd13ifvqea0","pricing_plan_id":"free"},{"bike_id":"1c07e25f-84db-4513-bedb-11b97c6ec9b6","system_id":"levelo_inurba_marseille","lat":43.33041,"lon":5.38914,"is_reserved":false,"is_disabled":false,"rental_uris":{"android":"levelo://app?vid=1c07e25f-84db-4513-bedb-11b97c6ec9b6","ios":"levelo://app?vid=1c07e25f-84db-4513-bedb-11b97c6ec9b6"},"vehicle_type_id":"4","last_reported":1692893280,"current_range_meters":31200,"station_id":"ce4bhr92rcd13ifvqhrg","pricing_plan_id":"free"},{"bike_id":"a2a8c01f-7280-4ca6-bc8a-6f0c618673eb","system_id":"levelo_inurba_marseille","lat":43.33042,"lon":5.38917,"is_reserved":false,"is_disabled":false,"rental_uris":{"android":"levelo://app?vid=a2a8c01f-7280-4ca6-bc8a-6f0c618673eb","ios":"levelo://app?vid=a2a8c01f-7280-4ca6-bc8a-6f0c618673eb"},"vehicle_type_id":"4","last_reported":1692893280,"current_range_meters":14800,"station_id":"ce4bhr92rcd13ifvqhrg","pricing_plan_id":"free"},{"bike_id":"73e30c8d-1fec-42fa-994e-db63cd20ad16","system_id":"levelo_inurba_marseille","lat":43.33039,"lon":5.38922,"is_reserved":false,"is_disabled":false,"rental_uris":{"android":"levelo://app?vid=73e30c8d-1fec-42fa-994e-db63cd20ad16","ios":"levelo://app?vid=73e30c8d-1fec-42fa-994e-db63cd20ad16"},"vehicle_type_id":"4","last_reported":1692893280,"current_range_meters":19600,"station_id":"ce4bhr92rcd13ifvqhrg","pricing_plan_id":"free"},{"bike_id":"1895038e-acdb-4d35-aa35-e1291f23a30a","system_id":"levelo_inurba_marseille","lat":43.29009,"lon":5.35613,"is_reserved":false,"is_disabled":false,"rental_uris":{"android":"levelo://app?vid=1895038e-acdb-4d35-aa35-e1291f23a30a","ios":"levelo://app?vid=1895038e-acdb-4d35-aa35-e1291f23a30a"},"vehicle_type_id":"4","last_reported":1692893280,"current_range_meters":31200,"station_id":"ce4bhb92rcd13ifvqen0","pricing_plan_id":"free"},{"bike_id":"5f4f9907-0787-4bf8-8a56-fcaa0a043375","system_id":"levelo_inurba_marseille","lat":43.3304,"lon":5.38922,"is_reserved":false,"is_disabled":false,"rental_uris":{"android":"levelo://app?vid=5f4f9907-0787-4bf8-8a56-fcaa0a043375","ios":"levelo://app?vid=5f4f9907-0787-4bf8-8a56-fcaa0a043375"},"vehicle_type_id":"4","last_reported":1692893280,"current_range_meters":16000,"station_id":"ce4bhr92rcd13ifvqhrg","pricing_plan_id":"free"},{"bike_id":"c64531b8-215c-466c-8107-948273dfc7b2","system_id":"levelo_inurba_marseille","lat":43.33045,"lon":5.38917,"is_reserved":false,"is_disabled":false,"rental_uris":{"android":"levelo://app?vid=c64531b8-215c-466c-8107-948273dfc7b2","ios":"levelo://app?vid=c64531b8-215c-466c-8107-948273dfc7b2"},"vehicle_type_id":"4","last_reported":1692893280,"current_range_meters":31200,"station_id":"ce4bhr92rcd13ifvqhrg","pricing_plan_id":"free"},{"bike_id":"8b9f9b54-2e03-4d4e-bfd8-a7cfda03648a","system_id":"levelo_inurba_marseille","lat":43.3304,"lon":5.38925,"is_reserved":false,"is_disabled":false,"rental_uris":{"android":"levelo://app?vid=8b9f9b54-2e03-4d4e-bfd8-a7cfda03648a","ios":"levelo://app?vid=8b9f9b54-2e03-4d4e-bfd8-a7cfda03648a"},"vehicle_type_id":"4","last_reported":1692893280,"current_range_meters":22400,"station_id":"ce4bhr92rcd13ifvqhrg","pricing_plan_id":"free"},{"bike_id":"81bdd50f-e2c9-4875-93b8-ce66b1f39ff9","system_id":"levelo_inurba_marseille","lat":43.33043,"lon":5.38924,"is_reserved":false,"is_disabled":false,"rental_uris":{"android":"levelo://app?vid=81bdd50f-e2c9-4875-93b8-ce66b1f39ff9","ios":"levelo://app?vid=81bdd50f-e2c9-4875-93b8-ce66b1f39ff9"},"vehicle_type_id":"4","last_reported":1692893280,"current_range_meters":31200,"station_id":"ce4bhr92rcd13ifvqhrg","pricing_plan_id":"free"},{"bike_id":"4feeedcd-1716-4baa-b0b8-cacd6225dc99","system_id":"levelo_inurba_marseille","lat":43.33044,"lon":5.38923,"is_reserved":false,"is_disabled":false,"rental_uris":{"android":"levelo://app?vid=4feeedcd-1716-4baa-b0b8-cacd6225dc99","ios":"levelo://app?vid=4feeedcd-1716-4baa-b0b8-cacd6225dc99"},"vehicle_type_id":"4","last_reported":1692893280,"current_range_meters":29600,"station_id":"ce4bhr92rcd13ifvqhrg","pricing_plan_id":"free"},{"bike_id":"6093d433-f9d6-48fe-897b-a1be7c29ef34","system_id":"levelo_inurba_marseille","lat":43.290104,"lon":5.356111,"is_reserved":false,"is_disabled":false,"rental_uris":{"android":"levelo://app?vid=6093d433-f9d6-48fe-897b-a1be7c29ef34","ios":"levelo://app?vid=6093d433-f9d6-48fe-897b-a1be7c29ef34"},"vehicle_type_id":"4","last_reported":1692893280,"current_range_meters":24000,"station_id":"ce4bhb92rcd13ifvqen0","pricing_plan_id":"free"},{"bike_id":"a4df99ce-0488-49dd-a888-94686f562e88","system_id":"levelo_inurba_marseille","lat":43.290104,"lon":5.356111,"is_reserved":false,"is_disabled":false,"rental_uris":{"android":"levelo://app?vid=a4df99ce-0488-49dd-a888-94686f562e88","ios":"levelo://app?vid=a4df99ce-0488-49dd-a888-94686f562e88"},"vehicle_type_id":"4","last_reported":1692893280,"current_range_meters":28800,"station_id":"ce4bhb92rcd13ifvqen0","pricing_plan_id":"free"},{"bike_id":"ae6f8ed9-3e92-434f-95eb-be488d974696","system_id":"levelo_inurba_marseille","lat":43.290995,"lon":5.381361,"is_reserved":false,"is_disabled":false,"rental_uris":{"android":"levelo://app?vid=ae6f8ed9-3e92-434f-95eb-be488d974696","ios":"levelo://app?vid=ae6f8ed9-3e92-434f-95eb-be488d974696"},"vehicle_type_id":"4","last_reported":1692893280,"current_range_meters":20000,"station_id":"ce4bh512rcd13ifvqe2g","pricing_plan_id":"free"},{"bike_id":"9ec715d9-1f84-423c-bfeb-74dbbf1a9467","system_id":"levelo_inurba_marseille","lat":43.28864,"lon":5.35977,"is_reserved":false,"is_disabled":false,"rental_uris":{"android":"levelo://app?vid=9ec715d9-1f84-423c-bfeb-74dbbf1a9467","ios":"levelo://app?vid=9ec715d9-1f84-423c-bfeb-74dbbf1a9467"},"vehicle_type_id":"4","last_reported":1692893280,"current_range_meters":22400,"station_id":"","pricing_plan_id":"free"},{"bike_id":"17bef54b-46a3-4faa-a7c5-ca1cce8e0759","system_id":"levelo_inurba_marseille","lat":43.28856,"lon":5.358371,"is_reserved":false,"is_disabled":false,"rental_uris":{"android":"levelo://app?vid=17bef54b-46a3-4faa-a7c5-ca1cce8e0759","ios":"levelo://app?vid=17bef54b-46a3-4faa-a7c5-ca1cce8e0759"},"vehicle_type_id":"4","last_reported":1692893280,"current_range_meters":22800,"station_id":"ce4bhb12rcd13ifvqem0","pricing_plan_id":"free"},{"bike_id":"af9e8285-edcc-4591-b431-357a56826800","system_id":"levelo_inurba_marseille","lat":43.33761,"lon":5.37477,"is_reserved":false,"is_disabled":false,"rental_uris":{"android":"levelo://app?vid=af9e8285-edcc-4591-b431-357a56826800","ios":"levelo://app?vid=af9e8285-edcc-4591-b431-357a56826800"},"vehicle_type_id":"4","last_reported":1692893280,"current_range_meters":26000,"station_id":"","pricing_plan_id":"free"},{"bike_id":"ded01225-1fc4-43ef-84b9-409e07fdd6af","system_id":"levelo_inurba_marseille","lat":43.33771,"lon":5.37428,"is_reserved":false,"is_disabled":false,"rental_uris":{"android":"levelo://app?vid=ded01225-1fc4-43ef-84b9-409e07fdd6af","ios":"levelo://app?vid=ded01225-1fc4-43ef-84b9-409e07fdd6af"},"vehicle_type_id":"4","last_reported":1692893280,"current_range_meters":31200,"station_id":"","pricing_plan_id":"free"},{"bike_id":"a33cd75b-ba17-46d3-9627-42f167f29ba5","system_id":"levelo_inurba_marseille","lat":43.286961,"lon":5.373785,"is_reserved":false,"is_disabled":false,"rental_uris":{"android":"levelo://app?vid=a33cd75b-ba17-46d3-9627-42f167f29ba5","ios":"levelo://app?vid=a33cd75b-ba17-46d3-9627-42f167f29ba5"},"vehicle_type_id":"4","last_reported":1692893280,"current_range_meters":1600,"station_id":"ce4bh3p2rcd13ifvqdq0","pricing_plan_id":"free"},{"bike_id":"91da28c0-f1d3-488c-a46c-cf79d954e320","system_id":"levelo_inurba_marseille","lat":43.304188,"lon":5.412904,"is_reserved":false,"is_disabled":false,"rental_uris":{"android":"levelo://app?vid=91da28c0-f1d3-488c-a46c-cf79d954e320","ios":"levelo://app?vid=91da28c0-f1d3-488c-a46c-cf79d954e320"},"vehicle_type_id":"4","last_reported":1692893280,"current_range_meters":10000,"station_id":"ce4bhop2rcd13ifvqh8g","pricing_plan_id":"free"},{"bike_id":"8e319e26-5544-4a1f-91fb-420c94b15662","system_id":"levelo_inurba_marseille","lat":43.286961,"lon":5.373785,"is_reserved":false,"is_disabled":false,"rental_uris":{"android":"levelo://app?vid=8e319e26-5544-4a1f-91fb-420c94b15662","ios":"levelo://app?vid=8e319e26-5544-4a1f-91fb-420c94b15662"},"vehicle_type_id":"4","last_reported":1692893280,"current_range_meters":29200,"station_id":"ce4bh3p2rcd13ifvqdq0","pricing_plan_id":"free"},{"bike_id":"d9b825ea-0f1d-46c2-9124-6cf133aba30a","system_id":"levelo_inurba_marseille","lat":43.28663,"lon":5.3636,"is_reserved":false,"is_disabled":false,"rental_uris":{"android":"levelo://app?vid=d9b825ea-0f1d-46c2-9124-6cf133aba30a","ios":"levelo://app?vid=d9b825ea-0f1d-46c2-9124-6cf133aba30a"},"vehicle_type_id":"4","last_reported":1692893280,"current_range_meters":12400,"station_id":"ce4bhah2rcd13ifvqej0","pricing_plan_id":"free"},{"bike_id":"2365150f-73ab-4507-aea4-76016e6109c8","system_id":"levelo_inurba_marseille","lat":43.28662,"lon":5.36352,"is_reserved":false,"is_disabled":false,"rental_uris":{"android":"levelo://app?vid=2365150f-73ab-4507-aea4-76016e6109c8","ios":"levelo://app?vid=2365150f-73ab-4507-aea4-76016e6109c8"},"vehicle_type_id":"4","last_reported":1692893280,"current_range_meters":5200,"station_id":"ce4bhah2rcd13ifvqej0","pricing_plan_id":"free"},{"bike_id":"75199276-b705-4ad7-b6a9-49aeaa84628a","system_id":"levelo_inurba_marseille","lat":43.28661,"lon":5.36347,"is_reserved":false,"is_disabled":false,"rental_uris":{"android":"levelo://app?vid=75199276-b705-4ad7-b6a9-49aeaa84628a","ios":"levelo://app?vid=75199276-b705-4ad7-b6a9-49aeaa84628a"},"vehicle_type_id":"4","last_reported":1692893280,"current_range_meters":26000,"station_id":"ce4bhah2rcd13ifvqej0","pricing_plan_id":"free"},{"bike_id":"b479af77-2d49-4f51-89b2-cae994a0ab9a","system_id":"levelo_inurba_marseille","lat":43.28602,"lon":5.37064,"is_reserved":false,"is_disabled":false,"rental_uris":{"android":"levelo://app?vid=b479af77-2d49-4f51-89b2-cae994a0ab9a","ios":"levelo://app?vid=b479af77-2d49-4f51-89b2-cae994a0ab9a"},"vehicle_type_id":"4","last_reported":1692893280,"current_range_meters":8400,"station_id":"ce4bht12rcd13ifvqi60","pricing_plan_id":"free"},{"bike_id":"a96203ac-acb6-4ee6-871a-1c6965d538b3","system_id":"levelo_inurba_marseille","lat":43.28806,"lon":5.35236,"is_reserved":false,"is_disabled":false,"rental_uris":{"android":"levelo://app?vid=a96203ac-acb6-4ee6-871a-1c6965d538b3","ios":"levelo://app?vid=a96203ac-acb6-4ee6-871a-1c6965d538b3"},"vehicle_type_id":"4","last_reported":1692893280,"current_range_meters":0,"station_id":"","pricing_plan_id":"free"},{"bike_id":"7da9e437-1e79-4b5f-9ab0-65254ac17dd7","system_id":"levelo_inurba_marseille","lat":43.3165,"lon":5.40434,"is_reserved":false,"is_disabled":false,"rental_uris":{"android":"levelo://app?vid=7da9e437-1e79-4b5f-9ab0-65254ac17dd7","ios":"levelo://app?vid=7da9e437-1e79-4b5f-9ab0-65254ac17dd7"},"vehicle_type_id":"4","last_reported":1692893280,"current_range_meters":22000,"station_id":"ce4bh012rcd13ifvqd00","pricing_plan_id":"free"},{"bike_id":"9e0a4559-30ee-4d99-b63d-df24d43804e8","system_id":"levelo_inurba_marseille","lat":43.284538,"lon":5.358657,"is_reserved":false,"is_disabled":false,"rental_uris":{"android":"levelo://app?vid=9e0a4559-30ee-4d99-b63d-df24d43804e8","ios":"levelo://app?vid=9e0a4559-30ee-4d99-b63d-df24d43804e8"},"vehicle_type_id":"4","last_reported":1692893280,"current_range_meters":18800,"station_id":"ce4bhah2rcd13ifvqei0","pricing_plan_id":"free"},{"bike_id":"d0e4c4d2-032d-438c-9434-98f4e75d4b27","system_id":"levelo_inurba_marseille","lat":43.29446,"lon":5.39741,"is_reserved":false,"is_disabled":false,"rental_uris":{"android":"levelo://app?vid=d0e4c4d2-032d-438c-9434-98f4e75d4b27","ios":"levelo://app?vid=d0e4c4d2-032d-438c-9434-98f4e75d4b27"},"vehicle_type_id":"4","last_reported":1692893280,"current_range_meters":6800,"station_id":"ce4bh3h2rcd13ifvqdo0","pricing_plan_id":"free"},{"bike_id":"2b61931c-9631-40d0-9449-506ac6da04b3","system_id":"levelo_inurba_marseille","lat":43.28617,"lon":5.35106,"is_reserved":false,"is_disabled":false,"rental_uris":{"android":"levelo://app?vid=2b61931c-9631-40d0-9449-506ac6da04b3","ios":"levelo://app?vid=2b61931c-9631-40d0-9449-506ac6da04b3"},"vehicle_type_id":"4","last_reported":1692893280,"current_range_meters":25200,"station_id":"ce4bhch2rcd13ifvqeug","pricing_plan_id":"free"},{"bike_id":"2363d3b5-6c15-401a-a59c-ee80bd4af927","system_id":"levelo_inurba_marseille","lat":43.28415,"lon":5.37522,"is_reserved":false,"is_disabled":false,"rental_uris":{"android":"levelo://app?vid=2363d3b5-6c15-401a-a59c-ee80bd4af927","ios":"levelo://app?vid=2363d3b5-6c15-401a-a59c-ee80bd4af927"},"vehicle_type_id":"4","last_reported":1692893280,"current_range_meters":1200,"station_id":"ce4bh412rcd13ifvqds0","pricing_plan_id":"free"},{"bike_id":"7995d5f8-4097-4ff8-9a26-c1e67947abf8","system_id":"levelo_inurba_marseille","lat":43.33721,"lon":5.39174,"is_reserved":false,"is_disabled":false,"rental_uris":{"android":"levelo://app?vid=7995d5f8-4097-4ff8-9a26-c1e67947abf8","ios":"levelo://app?vid=7995d5f8-4097-4ff8-9a26-c1e67947abf8"},"vehicle_type_id":"4","last_reported":1692893280,"current_range_meters":28800,"station_id":"ce4bhr92rcd13ifvqhsg","pricing_plan_id":"free"},{"bike_id":"fa78aabd-8504-4fff-97d5-67819f3c7e97","system_id":"levelo_inurba_marseille","lat":43.33723,"lon":5.39182,"is_reserved":false,"is_disabled":false,"rental_uris":{"android":"levelo://app?vid=fa78aabd-8504-4fff-97d5-67819f3c7e97","ios":"levelo://app?vid=fa78aabd-8504-4fff-97d5-67819f3c7e97"},"vehicle_type_id":"4","last_reported":1692893280,"current_range_meters":31200,"station_id":"ce4bhr92rcd13ifvqhsg","pricing_plan_id":"free"},{"bike_id":"a67bc8ba-477f-4950-afee-36977800f97f","system_id":"levelo_inurba_marseille","lat":43.33726,"lon":5.39179,"is_reserved":false,"is_disabled":false,"rental_uris":{"android":"levelo://app?vid=a67bc8ba-477f-4950-afee-36977800f97f","ios":"levelo://app?vid=a67bc8ba-477f-4950-afee-36977800f97f"},"vehicle_type_id":"4","last_reported":1692893280,"current_range_meters":30400,"station_id":"ce4bhr92rcd13ifvqhsg","pricing_plan_id":"free"},{"bike_id":"f59572cd-eeee-45a7-81fd-c3c75f5406c9","system_id":"levelo_inurba_marseille","lat":43.33726,"lon":5.39179,"is_reserved":false,"is_disabled":false,"rental_uris":{"android":"levelo://app?vid=f59572cd-eeee-45a7-81fd-c3c75f5406c9","ios":"levelo://app?vid=f59572cd-eeee-45a7-81fd-c3c75f5406c9"},"vehicle_type_id":"4","last_reported":1692893280,"current_range_meters":29200,"station_id":"ce4bhr92rcd13ifvqhsg","pricing_plan_id":"free"},{"bike_id":"e54ac8bf-03e6-4445-b501-5f2a8496318b","system_id":"levelo_inurba_marseille","lat":43.33727,"lon":5.39179,"is_reserved":false,"is_disabled":false,"rental_uris":{"android":"levelo://app?vid=e54ac8bf-03e6-4445-b501-5f2a8496318b","ios":"levelo://app?vid=e54ac8bf-03e6-4445-b501-5f2a8496318b"},"vehicle_type_id":"4","last_reported":1692893280,"current_range_meters":12800,"station_id":"ce4bhr92rcd13ifvqhsg","pricing_plan_id":"free"},{"bike_id":"22f5ebde-00e6-4c30-b807-8619e53ee930","system_id":"levelo_inurba_marseille","lat":43.33724,"lon":5.39185,"is_reserved":false,"is_disabled":false,"rental_uris":{"android":"levelo://app?vid=22f5ebde-00e6-4c30-b807-8619e53ee930","ios":"levelo://app?vid=22f5ebde-00e6-4c30-b807-8619e53ee930"},"vehicle_type_id":"4","last_reported":1692893280,"current_range_meters":31200,"station_id":"ce4bhr92rcd13ifvqhsg","pricing_plan_id":"free"},{"bike_id":"54aa535b-3168-437d-a935-bb332c86467c","system_id":"levelo_inurba_marseille","lat":43.33727,"lon":5.39181,"is_reserved":false,"is_disabled":false,"rental_uris":{"android":"levelo://app?vid=54aa535b-3168-437d-a935-bb332c86467c","ios":"levelo://app?vid=54aa535b-3168-437d-a935-bb332c86467c"},"vehicle_type_id":"4","last_reported":1692893280,"current_range_meters":25200,"station_id":"ce4bhr92rcd13ifvqhsg","pricing_plan_id":"free"},{"bike_id":"7009255e-b3b4-4c16-89fc-1dba203d6726","system_id":"levelo_inurba_marseille","lat":43.33725,"lon":5.39185,"is_reserved":false,"is_disabled":false,"rental_uris":{"android":"levelo://app?vid=7009255e-b3b4-4c16-89fc-1dba203d6726","ios":"levelo://app?vid=7009255e-b3b4-4c16-89fc-1dba203d6726"},"vehicle_type_id":"4","last_reported":1692893280,"current_range_meters":18000,"station_id":"ce4bhr92rcd13ifvqhsg","pricing_plan_id":"free"},{"bike_id":"b814af44-4042-43e9-8b7d-548431887ed8","system_id":"levelo_inurba_marseille","lat":43.323464,"lon":5.406297,"is_reserved":false,"is_disabled":false,"rental_uris":{"android":"levelo://app?vid=b814af44-4042-43e9-8b7d-548431887ed8","ios":"levelo://app?vid=b814af44-4042-43e9-8b7d-548431887ed8"},"vehicle_type_id":"4","last_reported":1692893280,"current_range_meters":30000,"station_id":"ce4bhq92rcd13ifvqhjg","pricing_plan_id":"free"},{"bike_id":"fcd157e8-6bfb-4a6b-89b1-fbc530062c9a","system_id":"levelo_inurba_marseille","lat":43.3373,"lon":5.39184,"is_reserved":false,"is_disabled":false,"rental_uris":{"android":"levelo://app?vid=fcd157e8-6bfb-4a6b-89b1-fbc530062c9a","ios":"levelo://app?vid=fcd157e8-6bfb-4a6b-89b1-fbc530062c9a"},"vehicle_type_id":"4","last_reported":1692893280,"current_range_meters":31200,"station_id":"ce4bhr92rcd13ifvqhsg","pricing_plan_id":"free"},{"bike_id":"3584ed82-8c83-4732-884b-ec35eb5758d6","system_id":"levelo_inurba_marseille","lat":43.33735,"lon":5.39189,"is_reserved":false,"is_disabled":false,"rental_uris":{"android":"levelo://app?vid=3584ed82-8c83-4732-884b-ec35eb5758d6","ios":"levelo://app?vid=3584ed82-8c83-4732-884b-ec35eb5758d6"},"vehicle_type_id":"4","last_reported":1692893280,"current_range_meters":14400,"station_id":"ce4bhr92rcd13ifvqhsg","pricing_plan_id":"free"},{"bike_id":"486e5578-f4b6-46c8-b288-dd2598c97761","system_id":"levelo_inurba_marseille","lat":43.33735,"lon":5.39189,"is_reserved":false,"is_disabled":false,"rental_uris":{"android":"levelo://app?vid=486e5578-f4b6-46c8-b288-dd2598c97761","ios":"levelo://app?vid=486e5578-f4b6-46c8-b288-dd2598c97761"},"vehicle_type_id":"4","last_reported":1692893280,"current_range_meters":31200,"station_id":"ce4bhr92rcd13ifvqhsg","pricing_plan_id":"free"},{"bike_id":"73407d5d-ae91-461c-8582-bbf0e6e1ffea","system_id":"levelo_inurba_marseille","lat":43.337376,"lon":5.391927,"is_reserved":false,"is_disabled":false,"rental_uris":{"android":"levelo://app?vid=73407d5d-ae91-461c-8582-bbf0e6e1ffea","ios":"levelo://app?vid=73407d5d-ae91-461c-8582-bbf0e6e1ffea"},"vehicle_type_id":"4","last_reported":1692893280,"current_range_meters":0,"station_id":"ce4bhr92rcd13ifvqhsg","pricing_plan_id":"free"},{"bike_id":"414290bd-353b-41b2-bd9a-1d3c2c5739df","system_id":"levelo_inurba_marseille","lat":43.284787,"lon":5.384116,"is_reserved":false,"is_disabled":false,"rental_uris":{"android":"levelo://app?vid=414290bd-353b-41b2-bd9a-1d3c2c5739df","ios":"levelo://app?vid=414290bd-353b-41b2-bd9a-1d3c2c5739df"},"vehicle_type_id":"4","last_reported":1692893280,"current_range_meters":26400,"station_id":"ce4bh512rcd13ifvqe3g","pricing_plan_id":"free"},{"bike_id":"81207e02-e329-4cea-9b6c-33ba9c0267d2","system_id":"levelo_inurba_marseille","lat":43.284787,"lon":5.384116,"is_reserved":false,"is_disabled":false,"rental_uris":{"android":"levelo://app?vid=81207e02-e329-4cea-9b6c-33ba9c0267d2","ios":"levelo://app?vid=81207e02-e329-4cea-9b6c-33ba9c0267d2"},"vehicle_type_id":"4","last_reported":1692893280,"current_range_meters":31200,"station_id":"ce4bh512rcd13ifvqe3g","pricing_plan_id":"free"},{"bike_id":"6995bf44-d1c3-46d9-96a9-1beaaadae618","system_id":"levelo_inurba_marseille","lat":43.28429,"lon":5.34997,"is_reserved":false,"is_disabled":false,"rental_uris":{"android":"levelo://app?vid=6995bf44-d1c3-46d9-96a9-1beaaadae618","ios":"levelo://app?vid=6995bf44-d1c3-46d9-96a9-1beaaadae618"},"vehicle_type_id":"4","last_reported":1692893280,"current_range_meters":12800,"station_id":"ce4bhbh2rcd13ifvqepg","pricing_plan_id":"free"},{"bike_id":"400004cf-e09c-4c7d-a634-5874986add9c","system_id":"levelo_inurba_marseille","lat":43.28426,"lon":5.35,"is_reserved":false,"is_disabled":false,"rental_uris":{"android":"levelo://app?vid=400004cf-e09c-4c7d-a634-5874986add9c","ios":"levelo://app?vid=400004cf-e09c-4c7d-a634-5874986add9c"},"vehicle_type_id":"4","last_reported":1692893280,"current_range_meters":10800,"station_id":"ce4bhbh2rcd13ifvqepg","pricing_plan_id":"free"},{"bike_id":"f3269bb0-1649-4a6c-b2df-bca5449afeba","system_id":"levelo_inurba_marseille","lat":43.284219,"lon":5.3497,"is_reserved":false,"is_disabled":false,"rental_uris":{"android":"levelo://app?vid=f3269bb0-1649-4a6c-b2df-bca5449afeba","ios":"levelo://app?vid=f3269bb0-1649-4a6c-b2df-bca5449afeba"},"vehicle_type_id":"4","last_reported":1692893280,"current_range_meters":22800,"station_id":"ce4bhbh2rcd13ifvqepg","pricing_plan_id":"free"},{"bike_id":"31b7bcdc-ae2f-43ad-91a3-b4a02677403b","system_id":"levelo_inurba_marseille","lat":43.28425,"lon":5.34982,"is_reserved":false,"is_disabled":false,"rental_uris":{"android":"levelo://app?vid=31b7bcdc-ae2f-43ad-91a3-b4a02677403b","ios":"levelo://app?vid=31b7bcdc-ae2f-43ad-91a3-b4a02677403b"},"vehicle_type_id":"4","last_reported":1692893280,"current_range_meters":8800,"station_id":"ce4bhbh2rcd13ifvqepg","pricing_plan_id":"free"},{"bike_id":"33822efa-e5a6-4523-8b60-4a593a388655","system_id":"levelo_inurba_marseille","lat":43.284217,"lon":5.349697,"is_reserved":false,"is_disabled":false,"rental_uris":{"android":"levelo://app?vid=33822efa-e5a6-4523-8b60-4a593a388655","ios":"levelo://app?vid=33822efa-e5a6-4523-8b60-4a593a388655"},"vehicle_type_id":"4","last_reported":1692893280,"current_range_meters":25600,"station_id":"ce4bhbh2rcd13ifvqepg","pricing_plan_id":"free"},{"bike_id":"f50aca5f-cf5b-4020-925f-826a2e34874f","system_id":"levelo_inurba_marseille","lat":43.289363,"lon":5.396322,"is_reserved":false,"is_disabled":false,"rental_uris":{"android":"levelo://app?vid=f50aca5f-cf5b-4020-925f-826a2e34874f","ios":"levelo://app?vid=f50aca5f-cf5b-4020-925f-826a2e34874f"},"vehicle_type_id":"4","last_reported":1692893280,"current_range_meters":31200,"station_id":"ce4bh3h2rcd13ifvqdn0","pricing_plan_id":"free"},{"bike_id":"79ae07f7-3d9b-456b-927e-8e880eafedba","system_id":"levelo_inurba_marseille","lat":43.32572,"lon":5.40673,"is_reserved":false,"is_disabled":false,"rental_uris":{"android":"levelo://app?vid=79ae07f7-3d9b-456b-927e-8e880eafedba","ios":"levelo://app?vid=79ae07f7-3d9b-456b-927e-8e880eafedba"},"vehicle_type_id":"4","last_reported":1692893280,"current_range_meters":0,"station_id":"","pricing_plan_id":"free"},{"bike_id":"2ca1a463-75c1-4513-ac02-533174e0d650","system_id":"levelo_inurba_marseille","lat":43.282744,"lon":5.350533,"is_reserved":false,"is_disabled":false,"rental_uris":{"android":"levelo://app?vid=2ca1a463-75c1-4513-ac02-533174e0d650","ios":"levelo://app?vid=2ca1a463-75c1-4513-ac02-533174e0d650"},"vehicle_type_id":"4","last_reported":1692893280,"current_range_meters":28000,"station_id":"ce4bhbp2rcd13ifvqerg","pricing_plan_id":"free"},{"bike_id":"361f4719-b971-4cf3-9474-abf165f4fba6","system_id":"levelo_inurba_marseille","lat":43.282786,"lon":5.350592,"is_reserved":false,"is_disabled":false,"rental_uris":{"android":"levelo://app?vid=361f4719-b971-4cf3-9474-abf165f4fba6","ios":"levelo://app?vid=361f4719-b971-4cf3-9474-abf165f4fba6"},"vehicle_type_id":"4","last_reported":1692893280,"current_range_meters":22000,"station_id":"ce4bhbp2rcd13ifvqerg","pricing_plan_id":"free"},{"bike_id":"f11de3c9-939b-4dea-a163-0425d13dc33d","system_id":"levelo_inurba_marseille","lat":43.28273,"lon":5.35074,"is_reserved":false,"is_disabled":false,"rental_uris":{"android":"levelo://app?vid=f11de3c9-939b-4dea-a163-0425d13dc33d","ios":"levelo://app?vid=f11de3c9-939b-4dea-a163-0425d13dc33d"},"vehicle_type_id":"4","last_reported":1692893280,"current_range_meters":19200,"station_id":"ce4bhbp2rcd13ifvqerg","pricing_plan_id":"free"},{"bike_id":"81deba5e-8d9a-4d0b-8d9b-fa941c2f301a","system_id":"levelo_inurba_marseille","lat":43.282744,"lon":5.350533,"is_reserved":false,"is_disabled":false,"rental_uris":{"android":"levelo://app?vid=81deba5e-8d9a-4d0b-8d9b-fa941c2f301a","ios":"levelo://app?vid=81deba5e-8d9a-4d0b-8d9b-fa941c2f301a"},"vehicle_type_id":"4","last_reported":1692893280,"current_range_meters":20400,"station_id":"ce4bhbp2rcd13ifvqerg","pricing_plan_id":"free"},{"bike_id":"a4c77fde-efa6-4496-b708-d0721d1f958e","system_id":"levelo_inurba_marseille","lat":43.282744,"lon":5.350533,"is_reserved":false,"is_disabled":false,"rental_uris":{"android":"levelo://app?vid=a4c77fde-efa6-4496-b708-d0721d1f958e","ios":"levelo://app?vid=a4c77fde-efa6-4496-b708-d0721d1f958e"},"vehicle_type_id":"4","last_reported":1692893280,"current_range_meters":11200,"station_id":"ce4bhbp2rcd13ifvqerg","pricing_plan_id":"free"},{"bike_id":"9f46cfde-4f76-4076-bade-5765c2d3d473","system_id":"levelo_inurba_marseille","lat":43.28039,"lon":5.369297,"is_reserved":false,"is_disabled":false,"rental_uris":{"android":"levelo://app?vid=9f46cfde-4f76-4076-bade-5765c2d3d473","ios":"levelo://app?vid=9f46cfde-4f76-4076-bade-5765c2d3d473"},"vehicle_type_id":"4","last_reported":1692893280,"current_range_meters":31200,"station_id":"ce4bha12rcd13ifvqef0","pricing_plan_id":"free"},{"bike_id":"58c7e334-a922-4709-9e7b-686ff02199a0","system_id":"levelo_inurba_marseille","lat":43.28025,"lon":5.36937,"is_reserved":false,"is_disabled":false,"rental_uris":{"android":"levelo://app?vid=58c7e334-a922-4709-9e7b-686ff02199a0","ios":"levelo://app?vid=58c7e334-a922-4709-9e7b-686ff02199a0"},"vehicle_type_id":"4","last_reported":1692893280,"current_range_meters":27600,"station_id":"ce4bha12rcd13ifvqef0","pricing_plan_id":"free"},{"bike_id":"107eb847-c4f5-426a-85cb-6293c1595833","system_id":"levelo_inurba_marseille","lat":43.28573,"lon":5.394992,"is_reserved":false,"is_disabled":false,"rental_uris":{"android":"levelo://app?vid=107eb847-c4f5-426a-85cb-6293c1595833","ios":"levelo://app?vid=107eb847-c4f5-426a-85cb-6293c1595833"},"vehicle_type_id":"4","last_reported":1692893280,"current_range_meters":30400,"station_id":"ce4bh292rcd13ifvqdg0","pricing_plan_id":"free"},{"bike_id":"0182811c-7990-4e85-93c1-dcb0f1497a54","system_id":"levelo_inurba_marseille","lat":43.32658,"lon":5.40994,"is_reserved":false,"is_disabled":false,"rental_uris":{"android":"levelo://app?vid=0182811c-7990-4e85-93c1-dcb0f1497a54","ios":"levelo://app?vid=0182811c-7990-4e85-93c1-dcb0f1497a54"},"vehicle_type_id":"4","last_reported":1692893280,"current_range_meters":16400,"station_id":"ce4bhpp2rcd13ifvqhgg","pricing_plan_id":"free"},{"bike_id":"526a2a9a-75bb-45e7-8efa-d6f68b36db44","system_id":"levelo_inurba_marseille","lat":43.287154,"lon":5.399979,"is_reserved":false,"is_disabled":false,"rental_uris":{"android":"levelo://app?vid=526a2a9a-75bb-45e7-8efa-d6f68b36db44","ios":"levelo://app?vid=526a2a9a-75bb-45e7-8efa-d6f68b36db44"},"vehicle_type_id":"4","last_reported":1692893280,"current_range_meters":15600,"station_id":"ce4bho92rcd13ifvqh3g","pricing_plan_id":"free"},{"bike_id":"84af2b9f-836b-412a-9655-10327d02ea14","system_id":"levelo_inurba_marseille","lat":43.287091,"lon":5.400047,"is_reserved":false,"is_disabled":false,"rental_uris":{"android":"levelo://app?vid=84af2b9f-836b-412a-9655-10327d02ea14","ios":"levelo://app?vid=84af2b9f-836b-412a-9655-10327d02ea14"},"vehicle_type_id":"4","last_reported":1692893280,"current_range_meters":15600,"station_id":"","pricing_plan_id":"free"},{"bike_id":"df42b348-4090-4704-a344-c2dc6ae5c12a","system_id":"levelo_inurba_marseille","lat":43.287154,"lon":5.399979,"is_reserved":false,"is_disabled":false,"rental_uris":{"android":"levelo://app?vid=df42b348-4090-4704-a344-c2dc6ae5c12a","ios":"levelo://app?vid=df42b348-4090-4704-a344-c2dc6ae5c12a"},"vehicle_type_id":"4","last_reported":1692893280,"current_range_meters":6800,"station_id":"ce4bho92rcd13ifvqh3g","pricing_plan_id":"free"},{"bike_id":"a1aa1e4c-d65d-4778-8472-1c00a265d30f","system_id":"levelo_inurba_marseille","lat":43.320045,"lon":5.415048,"is_reserved":false,"is_disabled":false,"rental_uris":{"android":"levelo://app?vid=a1aa1e4c-d65d-4778-8472-1c00a265d30f","ios":"levelo://app?vid=a1aa1e4c-d65d-4778-8472-1c00a265d30f"},"vehicle_type_id":"4","last_reported":1692893280,"current_range_meters":15600,"station_id":"ce4bhq92rcd13ifvqhkg","pricing_plan_id":"free"},{"bike_id":"c327718a-8fe6-4791-a349-aba0f8f94e82","system_id":"levelo_inurba_marseille","lat":43.279742,"lon":5.38744,"is_reserved":false,"is_disabled":false,"rental_uris":{"android":"levelo://app?vid=c327718a-8fe6-4791-a349-aba0f8f94e82","ios":"levelo://app?vid=c327718a-8fe6-4791-a349-aba0f8f94e82"},"vehicle_type_id":"4","last_reported":1692893280,"current_range_meters":24800,"station_id":"ce4bhg12rcd13ifvqf80","pricing_plan_id":"free"},{"bike_id":"5a9b9e47-2523-4128-9c11-ed5bae65b963","system_id":"levelo_inurba_marseille","lat":43.32051,"lon":5.41546,"is_reserved":false,"is_disabled":false,"rental_uris":{"android":"levelo://app?vid=5a9b9e47-2523-4128-9c11-ed5bae65b963","ios":"levelo://app?vid=5a9b9e47-2523-4128-9c11-ed5bae65b963"},"vehicle_type_id":"4","last_reported":1692893280,"current_range_meters":24800,"station_id":"ce4bhq92rcd13ifvqhkg","pricing_plan_id":"free"},{"bike_id":"606c2e76-ee9c-470b-92c8-77a42f1bb4bd","system_id":"levelo_inurba_marseille","lat":43.320045,"lon":5.415046,"is_reserved":false,"is_disabled":false,"rental_uris":{"android":"levelo://app?vid=606c2e76-ee9c-470b-92c8-77a42f1bb4bd","ios":"levelo://app?vid=606c2e76-ee9c-470b-92c8-77a42f1bb4bd"},"vehicle_type_id":"4","last_reported":1692893280,"current_range_meters":12400,"station_id":"ce4bhq92rcd13ifvqhkg","pricing_plan_id":"free"},{"bike_id":"c5c24910-7da4-4aeb-8c55-797ac1e641b6","system_id":"levelo_inurba_marseille","lat":43.32056,"lon":5.41557,"is_reserved":false,"is_disabled":false,"rental_uris":{"android":"levelo://app?vid=c5c24910-7da4-4aeb-8c55-797ac1e641b6","ios":"levelo://app?vid=c5c24910-7da4-4aeb-8c55-797ac1e641b6"},"vehicle_type_id":"4","last_reported":1692893280,"current_range_meters":15200,"station_id":"ce4bhq92rcd13ifvqhkg","pricing_plan_id":"free"},{"bike_id":"dc130a96-1e90-4d60-beac-f8b1e5d602a9","system_id":"levelo_inurba_marseille","lat":43.27618,"lon":5.361009,"is_reserved":false,"is_disabled":false,"rental_uris":{"android":"levelo://app?vid=dc130a96-1e90-4d60-beac-f8b1e5d602a9","ios":"levelo://app?vid=dc130a96-1e90-4d60-beac-f8b1e5d602a9"},"vehicle_type_id":"4","last_reported":1692893280,"current_range_meters":18400,"station_id":"ce4bgj92rcd13ifvqbe0","pricing_plan_id":"free"},{"bike_id":"612b534f-5072-4bfe-a60c-a1f1365ca7de","system_id":"levelo_inurba_marseille","lat":43.27624,"lon":5.36112,"is_reserved":false,"is_disabled":false,"rental_uris":{"android":"levelo://app?vid=612b534f-5072-4bfe-a60c-a1f1365ca7de","ios":"levelo://app?vid=612b534f-5072-4bfe-a60c-a1f1365ca7de"},"vehicle_type_id":"4","last_reported":1692893280,"current_range_meters":14800,"station_id":"ce4bgj92rcd13ifvqbe0","pricing_plan_id":"free"},{"bike_id":"9e81489e-08af-4ef8-9365-8692a2d018d3","system_id":"levelo_inurba_marseille","lat":43.27618,"lon":5.361009,"is_reserved":false,"is_disabled":false,"rental_uris":{"android":"levelo://app?vid=9e81489e-08af-4ef8-9365-8692a2d018d3","ios":"levelo://app?vid=9e81489e-08af-4ef8-9365-8692a2d018d3"},"vehicle_type_id":"4","last_reported":1692893280,"current_range_meters":12000,"station_id":"ce4bgj92rcd13ifvqbe0","pricing_plan_id":"free"},{"bike_id":"e26cd1eb-cd60-435b-84f0-06e7536229f6","system_id":"levelo_inurba_marseille","lat":43.27606,"lon":5.36113,"is_reserved":false,"is_disabled":false,"rental_uris":{"android":"levelo://app?vid=e26cd1eb-cd60-435b-84f0-06e7536229f6","ios":"levelo://app?vid=e26cd1eb-cd60-435b-84f0-06e7536229f6"},"vehicle_type_id":"4","last_reported":1692893280,"current_range_meters":20000,"station_id":"ce4bgj92rcd13ifvqbe0","pricing_plan_id":"free"},{"bike_id":"7644d340-46f0-449b-b9a6-ddea19429e06","system_id":"levelo_inurba_marseille","lat":43.280784,"lon":5.396622,"is_reserved":false,"is_disabled":false,"rental_uris":{"android":"levelo://app?vid=7644d340-46f0-449b-b9a6-ddea19429e06","ios":"levelo://app?vid=7644d340-46f0-449b-b9a6-ddea19429e06"},"vehicle_type_id":"4","last_reported":1692893280,"current_range_meters":24400,"station_id":"ce4bho12rcd13ifvqh2g","pricing_plan_id":"free"},{"bike_id":"6b00d176-360f-4fc8-a58b-e85c0815d305","system_id":"levelo_inurba_marseille","lat":43.28075,"lon":5.39659,"is_reserved":false,"is_disabled":false,"rental_uris":{"android":"levelo://app?vid=6b00d176-360f-4fc8-a58b-e85c0815d305","ios":"levelo://app?vid=6b00d176-360f-4fc8-a58b-e85c0815d305"},"vehicle_type_id":"4","last_reported":1692893280,"current_range_meters":26400,"station_id":"","pricing_plan_id":"free"},{"bike_id":"e771f898-9276-4916-b2af-8cad46c44f8e","system_id":"levelo_inurba_marseille","lat":43.27415,"lon":5.36203,"is_reserved":false,"is_disabled":false,"rental_uris":{"android":"levelo://app?vid=e771f898-9276-4916-b2af-8cad46c44f8e","ios":"levelo://app?vid=e771f898-9276-4916-b2af-8cad46c44f8e"},"vehicle_type_id":"4","last_reported":1692893280,"current_range_meters":7200,"station_id":"","pricing_plan_id":"free"},{"bike_id":"dab7bb93-5eee-47bf-9b93-b0d92b78773f","system_id":"levelo_inurba_marseille","lat":43.303837,"lon":5.418724,"is_reserved":false,"is_disabled":false,"rental_uris":{"android":"levelo://app?vid=dab7bb93-5eee-47bf-9b93-b0d92b78773f","ios":"levelo://app?vid=dab7bb93-5eee-47bf-9b93-b0d92b78773f"},"vehicle_type_id":"4","last_reported":1692893280,"current_range_meters":21600,"station_id":"ce4bhop2rcd13ifvqh7g","pricing_plan_id":"free"},{"bike_id":"60b4a702-13ea-46ae-a55d-ebcac87d616c","system_id":"levelo_inurba_marseille","lat":43.278382,"lon":5.392055,"is_reserved":false,"is_disabled":false,"rental_uris":{"android":"levelo://app?vid=60b4a702-13ea-46ae-a55d-ebcac87d616c","ios":"levelo://app?vid=60b4a702-13ea-46ae-a55d-ebcac87d616c"},"vehicle_type_id":"4","last_reported":1692893280,"current_range_meters":3600,"station_id":"ce4bhjp2rcd13ifvqga0","pricing_plan_id":"free"},{"bike_id":"21427b2d-9ad9-401a-9362-8beb92a81c59","system_id":"levelo_inurba_marseille","lat":43.27387,"lon":5.36254,"is_reserved":false,"is_disabled":false,"rental_uris":{"android":"levelo://app?vid=21427b2d-9ad9-401a-9362-8beb92a81c59","ios":"levelo://app?vid=21427b2d-9ad9-401a-9362-8beb92a81c59"},"vehicle_type_id":"4","last_reported":1692893280,"current_range_meters":28000,"station_id":"ce4bhbh2rcd13ifvqeo0","pricing_plan_id":"free"},{"bike_id":"9b00b600-2ec4-4bc1-b1c0-ee0568f304bb","system_id":"levelo_inurba_marseille","lat":43.273613,"lon":5.362705,"is_reserved":false,"is_disabled":false,"rental_uris":{"android":"levelo://app?vid=9b00b600-2ec4-4bc1-b1c0-ee0568f304bb","ios":"levelo://app?vid=9b00b600-2ec4-4bc1-b1c0-ee0568f304bb"},"vehicle_type_id":"4","last_reported":1692893280,"current_range_meters":31600,"station_id":"ce4bhbh2rcd13ifvqeo0","pricing_plan_id":"free"},{"bike_id":"a67c09cd-0198-413d-8223-a8fbd1551ce7","system_id":"levelo_inurba_marseille","lat":43.2738,"lon":5.36252,"is_reserved":false,"is_disabled":false,"rental_uris":{"android":"levelo://app?vid=a67c09cd-0198-413d-8223-a8fbd1551ce7","ios":"levelo://app?vid=a67c09cd-0198-413d-8223-a8fbd1551ce7"},"vehicle_type_id":"4","last_reported":1692893280,"current_range_meters":26400,"station_id":"ce4bhbh2rcd13ifvqeo0","pricing_plan_id":"free"},{"bike_id":"164d38fa-9e0a-488f-bde6-08ac4da3b219","system_id":"levelo_inurba_marseille","lat":43.273613,"lon":5.362705,"is_reserved":false,"is_disabled":false,"rental_uris":{"android":"levelo://app?vid=164d38fa-9e0a-488f-bde6-08ac4da3b219","ios":"levelo://app?vid=164d38fa-9e0a-488f-bde6-08ac4da3b219"},"vehicle_type_id":"4","last_reported":1692893280,"current_range_meters":29600,"station_id":"ce4bhbh2rcd13ifvqeo0","pricing_plan_id":"free"},{"bike_id":"4a78f73d-b872-4297-8734-118a2952616b","system_id":"levelo_inurba_marseille","lat":43.273613,"lon":5.362705,"is_reserved":false,"is_disabled":false,"rental_uris":{"android":"levelo://app?vid=4a78f73d-b872-4297-8734-118a2952616b","ios":"levelo://app?vid=4a78f73d-b872-4297-8734-118a2952616b"},"vehicle_type_id":"4","last_reported":1692893280,"current_range_meters":31200,"station_id":"ce4bhbh2rcd13ifvqeo0","pricing_plan_id":"free"},{"bike_id":"d40ea5e1-de83-4136-8a2a-b6f6485d0099","system_id":"levelo_inurba_marseille","lat":43.273613,"lon":5.362705,"is_reserved":false,"is_disabled":false,"rental_uris":{"android":"levelo://app?vid=d40ea5e1-de83-4136-8a2a-b6f6485d0099","ios":"levelo://app?vid=d40ea5e1-de83-4136-8a2a-b6f6485d0099"},"vehicle_type_id":"4","last_reported":1692893280,"current_range_meters":8800,"station_id":"ce4bhbh2rcd13ifvqeo0","pricing_plan_id":"free"},{"bike_id":"700a99ef-d3a5-4371-9988-6c2ce5a9a3ad","system_id":"levelo_inurba_marseille","lat":43.273613,"lon":5.362705,"is_reserved":false,"is_disabled":false,"rental_uris":{"android":"levelo://app?vid=700a99ef-d3a5-4371-9988-6c2ce5a9a3ad","ios":"levelo://app?vid=700a99ef-d3a5-4371-9988-6c2ce5a9a3ad"},"vehicle_type_id":"4","last_reported":1692893280,"current_range_meters":16400,"station_id":"ce4bhbh2rcd13ifvqeo0","pricing_plan_id":"free"},{"bike_id":"a49732a7-a79f-480a-9d73-525aef60a8dc","system_id":"levelo_inurba_marseille","lat":43.273609,"lon":5.362708,"is_reserved":false,"is_disabled":false,"rental_uris":{"android":"levelo://app?vid=a49732a7-a79f-480a-9d73-525aef60a8dc","ios":"levelo://app?vid=a49732a7-a79f-480a-9d73-525aef60a8dc"},"vehicle_type_id":"4","last_reported":1692893280,"current_range_meters":17200,"station_id":"ce4bhbh2rcd13ifvqeo0","pricing_plan_id":"free"},{"bike_id":"13a56f74-06f5-4cc3-8519-cc58018640f4","system_id":"levelo_inurba_marseille","lat":43.273609,"lon":5.362708,"is_reserved":false,"is_disabled":false,"rental_uris":{"android":"levelo://app?vid=13a56f74-06f5-4cc3-8519-cc58018640f4","ios":"levelo://app?vid=13a56f74-06f5-4cc3-8519-cc58018640f4"},"vehicle_type_id":"4","last_reported":1692893280,"current_range_meters":31200,"station_id":"ce4bhbh2rcd13ifvqeo0","pricing_plan_id":"free"},{"bike_id":"7a7a1442-743c-481f-a419-e4588dba9d67","system_id":"levelo_inurba_marseille","lat":43.273609,"lon":5.362708,"is_reserved":false,"is_disabled":false,"rental_uris":{"android":"levelo://app?vid=7a7a1442-743c-481f-a419-e4588dba9d67","ios":"levelo://app?vid=7a7a1442-743c-481f-a419-e4588dba9d67"},"vehicle_type_id":"4","last_reported":1692893280,"current_range_meters":31200,"station_id":"ce4bhbh2rcd13ifvqeo0","pricing_plan_id":"free"},{"bike_id":"9278726e-fbb6-4d1c-afd8-9bbbcc5e3810","system_id":"levelo_inurba_marseille","lat":43.3361,"lon":5.41031,"is_reserved":false,"is_disabled":false,"rental_uris":{"android":"levelo://app?vid=9278726e-fbb6-4d1c-afd8-9bbbcc5e3810","ios":"levelo://app?vid=9278726e-fbb6-4d1c-afd8-9bbbcc5e3810"},"vehicle_type_id":"4","last_reported":1692893280,"current_range_meters":13600,"station_id":"ce4bhqh2rcd13ifvqhmg","pricing_plan_id":"free"},{"bike_id":"2c002134-e4d2-41d1-b436-28e8e2ea24ca","system_id":"levelo_inurba_marseille","lat":43.276769,"lon":5.388787,"is_reserved":false,"is_disabled":false,"rental_uris":{"android":"levelo://app?vid=2c002134-e4d2-41d1-b436-28e8e2ea24ca","ios":"levelo://app?vid=2c002134-e4d2-41d1-b436-28e8e2ea24ca"},"vehicle_type_id":"4","last_reported":1692893280,"current_range_meters":28800,"station_id":"ce4bhi12rcd13ifvqfo0","pricing_plan_id":"free"},{"bike_id":"8597d573-3163-48a6-852f-be56568980fa","system_id":"levelo_inurba_marseille","lat":43.34139,"lon":5.409,"is_reserved":false,"is_disabled":false,"rental_uris":{"android":"levelo://app?vid=8597d573-3163-48a6-852f-be56568980fa","ios":"levelo://app?vid=8597d573-3163-48a6-852f-be56568980fa"},"vehicle_type_id":"4","last_reported":1692893280,"current_range_meters":27600,"station_id":"ce4bhqh2rcd13ifvqhlg","pricing_plan_id":"free"},{"bike_id":"517e42e8-7bf0-407a-9148-08d9c9486339","system_id":"levelo_inurba_marseille","lat":43.34142,"lon":5.40898,"is_reserved":false,"is_disabled":false,"rental_uris":{"android":"levelo://app?vid=517e42e8-7bf0-407a-9148-08d9c9486339","ios":"levelo://app?vid=517e42e8-7bf0-407a-9148-08d9c9486339"},"vehicle_type_id":"4","last_reported":1692893280,"current_range_meters":30000,"station_id":"ce4bhqh2rcd13ifvqhlg","pricing_plan_id":"free"},{"bike_id":"80bc4f7f-6b01-4264-9dc0-f1d8e1d4062e","system_id":"levelo_inurba_marseille","lat":43.34142,"lon":5.40898,"is_reserved":false,"is_disabled":false,"rental_uris":{"android":"levelo://app?vid=80bc4f7f-6b01-4264-9dc0-f1d8e1d4062e","ios":"levelo://app?vid=80bc4f7f-6b01-4264-9dc0-f1d8e1d4062e"},"vehicle_type_id":"4","last_reported":1692893280,"current_range_meters":23200,"station_id":"ce4bhqh2rcd13ifvqhlg","pricing_plan_id":"free"},{"bike_id":"56fae68c-5275-441a-9dc9-be69facb353e","system_id":"levelo_inurba_marseille","lat":43.34142,"lon":5.40901,"is_reserved":false,"is_disabled":false,"rental_uris":{"android":"levelo://app?vid=56fae68c-5275-441a-9dc9-be69facb353e","ios":"levelo://app?vid=56fae68c-5275-441a-9dc9-be69facb353e"},"vehicle_type_id":"4","last_reported":1692893280,"current_range_meters":25600,"station_id":"ce4bhqh2rcd13ifvqhlg","pricing_plan_id":"free"},{"bike_id":"cce52d9f-0a5d-4d75-b311-faed3abc7378","system_id":"levelo_inurba_marseille","lat":43.34142,"lon":5.40901,"is_reserved":false,"is_disabled":false,"rental_uris":{"android":"levelo://app?vid=cce52d9f-0a5d-4d75-b311-faed3abc7378","ios":"levelo://app?vid=cce52d9f-0a5d-4d75-b311-faed3abc7378"},"vehicle_type_id":"4","last_reported":1692893280,"current_range_meters":28400,"station_id":"ce4bhqh2rcd13ifvqhlg","pricing_plan_id":"free"},{"bike_id":"e3615b0a-264c-4de6-bbe9-121c0343c69b","system_id":"levelo_inurba_marseille","lat":43.340804,"lon":5.410219,"is_reserved":false,"is_disabled":false,"rental_uris":{"android":"levelo://app?vid=e3615b0a-264c-4de6-bbe9-121c0343c69b","ios":"levelo://app?vid=e3615b0a-264c-4de6-bbe9-121c0343c69b"},"vehicle_type_id":"4","last_reported":1692893280,"current_range_meters":24400,"station_id":"ce4bhqh2rcd13ifvqhlg","pricing_plan_id":"free"},{"bike_id":"31852202-872c-40ee-ad71-fa11e1944efb","system_id":"levelo_inurba_marseille","lat":43.340804,"lon":5.410219,"is_reserved":false,"is_disabled":false,"rental_uris":{"android":"levelo://app?vid=31852202-872c-40ee-ad71-fa11e1944efb","ios":"levelo://app?vid=31852202-872c-40ee-ad71-fa11e1944efb"},"vehicle_type_id":"4","last_reported":1692893280,"current_range_meters":22800,"station_id":"ce4bhqh2rcd13ifvqhlg","pricing_plan_id":"free"},{"bike_id":"b48fafa3-f376-4f62-bf2a-79b952294cee","system_id":"levelo_inurba_marseille","lat":43.34143,"lon":5.40902,"is_reserved":false,"is_disabled":false,"rental_uris":{"android":"levelo://app?vid=b48fafa3-f376-4f62-bf2a-79b952294cee","ios":"levelo://app?vid=b48fafa3-f376-4f62-bf2a-79b952294cee"},"vehicle_type_id":"4","last_reported":1692893280,"current_range_meters":29600,"station_id":"ce4bhqh2rcd13ifvqhlg","pricing_plan_id":"free"},{"bike_id":"002bb0a0-bb1a-470c-9c13-2518fae8f480","system_id":"levelo_inurba_marseille","lat":43.340804,"lon":5.410219,"is_reserved":false,"is_disabled":false,"rental_uris":{"android":"levelo://app?vid=002bb0a0-bb1a-470c-9c13-2518fae8f480","ios":"levelo://app?vid=002bb0a0-bb1a-470c-9c13-2518fae8f480"},"vehicle_type_id":"4","last_reported":1692893280,"current_range_meters":26400,"station_id":"ce4bhqh2rcd13ifvqhlg","pricing_plan_id":"free"},{"bike_id":"e70b76ea-5268-4e50-abe3-2f0407cbacc6","system_id":"levelo_inurba_marseille","lat":43.34148,"lon":5.40902,"is_reserved":false,"is_disabled":false,"rental_uris":{"android":"levelo://app?vid=e70b76ea-5268-4e50-abe3-2f0407cbacc6","ios":"levelo://app?vid=e70b76ea-5268-4e50-abe3-2f0407cbacc6"},"vehicle_type_id":"4","last_reported":1692893280,"current_range_meters":9200,"station_id":"ce4bhqh2rcd13ifvqhlg","pricing_plan_id":"free"},{"bike_id":"0d99c7d3-2d86-4979-86a7-4e9c7e32a427","system_id":"levelo_inurba_marseille","lat":43.27329,"lon":5.39068,"is_reserved":false,"is_disabled":false,"rental_uris":{"android":"levelo://app?vid=0d99c7d3-2d86-4979-86a7-4e9c7e32a427","ios":"levelo://app?vid=0d99c7d3-2d86-4979-86a7-4e9c7e32a427"},"vehicle_type_id":"4","last_reported":1692893280,"current_range_meters":23200,"station_id":"ce4bhgp2rcd13ifvqfe0","pricing_plan_id":"free"},{"bike_id":"37c81004-52ef-43cb-9186-3a5e6cee8c50","system_id":"levelo_inurba_marseille","lat":43.27322,"lon":5.39082,"is_reserved":false,"is_disabled":false,"rental_uris":{"android":"levelo://app?vid=37c81004-52ef-43cb-9186-3a5e6cee8c50","ios":"levelo://app?vid=37c81004-52ef-43cb-9186-3a5e6cee8c50"},"vehicle_type_id":"4","last_reported":1692893280,"current_range_meters":9600,"station_id":"ce4bhgp2rcd13ifvqfe0","pricing_plan_id":"free"},{"bike_id":"ae01cb88-b30b-490f-95b3-c0db0e86ff9b","system_id":"levelo_inurba_marseille","lat":43.29556,"lon":5.4228,"is_reserved":false,"is_disabled":false,"rental_uris":{"android":"levelo://app?vid=ae01cb88-b30b-490f-95b3-c0db0e86ff9b","ios":"levelo://app?vid=ae01cb88-b30b-490f-95b3-c0db0e86ff9b"},"vehicle_type_id":"4","last_reported":1692893280,"current_range_meters":27600,"station_id":"ce4bhph2rcd13ifvqhdg","pricing_plan_id":"free"},{"bike_id":"fab760bb-5e2f-4e15-a399-6970b1b198a8","system_id":"levelo_inurba_marseille","lat":43.27237,"lon":5.39169,"is_reserved":false,"is_disabled":false,"rental_uris":{"android":"levelo://app?vid=fab760bb-5e2f-4e15-a399-6970b1b198a8","ios":"levelo://app?vid=fab760bb-5e2f-4e15-a399-6970b1b198a8"},"vehicle_type_id":"4","last_reported":1692893280,"current_range_meters":3600,"station_id":"ce4bhhp2rcd13ifvqfm0","pricing_plan_id":"free"},{"bike_id":"e925c7fc-62b4-46e0-b980-1e64df98966e","system_id":"levelo_inurba_marseille","lat":43.295511,"lon":5.422926,"is_reserved":false,"is_disabled":false,"rental_uris":{"android":"levelo://app?vid=e925c7fc-62b4-46e0-b980-1e64df98966e","ios":"levelo://app?vid=e925c7fc-62b4-46e0-b980-1e64df98966e"},"vehicle_type_id":"4","last_reported":1692893280,"current_range_meters":25200,"station_id":"ce4bhph2rcd13ifvqhdg","pricing_plan_id":"free"},{"bike_id":"7c4911ee-941e-4db0-967f-fe20dab0589a","system_id":"levelo_inurba_marseille","lat":43.295511,"lon":5.422926,"is_reserved":false,"is_disabled":false,"rental_uris":{"android":"levelo://app?vid=7c4911ee-941e-4db0-967f-fe20dab0589a","ios":"levelo://app?vid=7c4911ee-941e-4db0-967f-fe20dab0589a"},"vehicle_type_id":"4","last_reported":1692893280,"current_range_meters":24800,"station_id":"ce4bhph2rcd13ifvqhdg","pricing_plan_id":"free"},{"bike_id":"9b5e59b2-4d70-488a-9d0b-afba93ec5ab3","system_id":"levelo_inurba_marseille","lat":43.272116,"lon":5.391747,"is_reserved":false,"is_disabled":false,"rental_uris":{"android":"levelo://app?vid=9b5e59b2-4d70-488a-9d0b-afba93ec5ab3","ios":"levelo://app?vid=9b5e59b2-4d70-488a-9d0b-afba93ec5ab3"},"vehicle_type_id":"4","last_reported":1692893280,"current_range_meters":19200,"station_id":"ce4bhhp2rcd13ifvqfm0","pricing_plan_id":"free"},{"bike_id":"23829b92-5c10-4e05-9874-16afb5988a77","system_id":"levelo_inurba_marseille","lat":43.27942,"lon":5.41036,"is_reserved":false,"is_disabled":false,"rental_uris":{"android":"levelo://app?vid=23829b92-5c10-4e05-9874-16afb5988a77","ios":"levelo://app?vid=23829b92-5c10-4e05-9874-16afb5988a77"},"vehicle_type_id":"4","last_reported":1692893280,"current_range_meters":17200,"station_id":"ce4bhnp2rcd13ifvqh0g","pricing_plan_id":"free"},{"bike_id":"bfb7395b-cbba-4174-af21-80e2b04aa104","system_id":"levelo_inurba_marseille","lat":43.26681,"lon":5.382694,"is_reserved":false,"is_disabled":false,"rental_uris":{"android":"levelo://app?vid=bfb7395b-cbba-4174-af21-80e2b04aa104","ios":"levelo://app?vid=bfb7395b-cbba-4174-af21-80e2b04aa104"},"vehicle_type_id":"4","last_reported":1692893280,"current_range_meters":30400,"station_id":"ce4bhg92rcd13ifvqf90","pricing_plan_id":"free"},{"bike_id":"a8cfa54d-c9c8-4fdb-99e5-06ea148a3121","system_id":"levelo_inurba_marseille","lat":43.26685,"lon":5.3827,"is_reserved":false,"is_disabled":false,"rental_uris":{"android":"levelo://app?vid=a8cfa54d-c9c8-4fdb-99e5-06ea148a3121","ios":"levelo://app?vid=a8cfa54d-c9c8-4fdb-99e5-06ea148a3121"},"vehicle_type_id":"4","last_reported":1692893280,"current_range_meters":0,"station_id":"ce4bhg92rcd13ifvqf90","pricing_plan_id":"free"},{"bike_id":"afce1e8a-9a20-4476-8a11-8bdb5a71d5b9","system_id":"levelo_inurba_marseille","lat":43.2668,"lon":5.38252,"is_reserved":false,"is_disabled":false,"rental_uris":{"android":"levelo://app?vid=afce1e8a-9a20-4476-8a11-8bdb5a71d5b9","ios":"levelo://app?vid=afce1e8a-9a20-4476-8a11-8bdb5a71d5b9"},"vehicle_type_id":"4","last_reported":1692893280,"current_range_meters":0,"station_id":"ce4bhg92rcd13ifvqf90","pricing_plan_id":"free"},{"bike_id":"6e3ab586-a51c-4e6f-80fa-0b2ff07afb5e","system_id":"levelo_inurba_marseille","lat":43.27092,"lon":5.40028,"is_reserved":false,"is_disabled":false,"rental_uris":{"android":"levelo://app?vid=6e3ab586-a51c-4e6f-80fa-0b2ff07afb5e","ios":"levelo://app?vid=6e3ab586-a51c-4e6f-80fa-0b2ff07afb5e"},"vehicle_type_id":"4","last_reported":1692893280,"current_range_meters":13200,"station_id":"","pricing_plan_id":"free"},{"bike_id":"7837189b-56bb-434a-9926-5989ba138fb2","system_id":"levelo_inurba_marseille","lat":43.26568,"lon":5.39012,"is_reserved":false,"is_disabled":false,"rental_uris":{"android":"levelo://app?vid=7837189b-56bb-434a-9926-5989ba138fb2","ios":"levelo://app?vid=7837189b-56bb-434a-9926-5989ba138fb2"},"vehicle_type_id":"4","last_reported":1692893280,"current_range_meters":9600,"station_id":"","pricing_plan_id":"free"},{"bike_id":"c7bbc296-128b-468c-b6ad-4ec02d5200d7","system_id":"levelo_inurba_marseille","lat":43.26227,"lon":5.37437,"is_reserved":false,"is_disabled":false,"rental_uris":{"android":"levelo://app?vid=c7bbc296-128b-468c-b6ad-4ec02d5200d7","ios":"levelo://app?vid=c7bbc296-128b-468c-b6ad-4ec02d5200d7"},"vehicle_type_id":"4","last_reported":1692893280,"current_range_meters":16800,"station_id":"","pricing_plan_id":"free"},{"bike_id":"da6acaf9-c3d5-4652-8b33-5f70af8cae7f","system_id":"levelo_inurba_marseille","lat":43.26195,"lon":5.37439,"is_reserved":false,"is_disabled":false,"rental_uris":{"android":"levelo://app?vid=da6acaf9-c3d5-4652-8b33-5f70af8cae7f","ios":"levelo://app?vid=da6acaf9-c3d5-4652-8b33-5f70af8cae7f"},"vehicle_type_id":"4","last_reported":1692893280,"current_range_meters":5600,"station_id":"","pricing_plan_id":"free"},{"bike_id":"988df165-85a0-49d9-b885-6ae4a04ed801","system_id":"levelo_inurba_marseille","lat":43.26194,"lon":5.37443,"is_reserved":false,"is_disabled":false,"rental_uris":{"android":"levelo://app?vid=988df165-85a0-49d9-b885-6ae4a04ed801","ios":"levelo://app?vid=988df165-85a0-49d9-b885-6ae4a04ed801"},"vehicle_type_id":"4","last_reported":1692893280,"current_range_meters":23600,"station_id":"","pricing_plan_id":"free"},{"bike_id":"d26577ae-1a46-440b-95ff-3a0ecf6f5147","system_id":"levelo_inurba_marseille","lat":43.26194,"lon":5.37445,"is_reserved":false,"is_disabled":false,"rental_uris":{"android":"levelo://app?vid=d26577ae-1a46-440b-95ff-3a0ecf6f5147","ios":"levelo://app?vid=d26577ae-1a46-440b-95ff-3a0ecf6f5147"},"vehicle_type_id":"4","last_reported":1692893280,"current_range_meters":7600,"station_id":"","pricing_plan_id":"free"},{"bike_id":"086b1dd5-f4e7-43a4-8055-fb07b6d14a75","system_id":"levelo_inurba_marseille","lat":43.26191,"lon":5.37441,"is_reserved":false,"is_disabled":false,"rental_uris":{"android":"levelo://app?vid=086b1dd5-f4e7-43a4-8055-fb07b6d14a75","ios":"levelo://app?vid=086b1dd5-f4e7-43a4-8055-fb07b6d14a75"},"vehicle_type_id":"4","last_reported":1692893280,"current_range_meters":19600,"station_id":"","pricing_plan_id":"free"},{"bike_id":"95be610f-1fad-4edb-8ac1-7aa271f09429","system_id":"levelo_inurba_marseille","lat":43.26191,"lon":5.37441,"is_reserved":false,"is_disabled":false,"rental_uris":{"android":"levelo://app?vid=95be610f-1fad-4edb-8ac1-7aa271f09429","ios":"levelo://app?vid=95be610f-1fad-4edb-8ac1-7aa271f09429"},"vehicle_type_id":"4","last_reported":1692893280,"current_range_meters":11600,"station_id":"","pricing_plan_id":"free"},{"bike_id":"6d976d58-781a-45d9-897c-611d02565aba","system_id":"levelo_inurba_marseille","lat":43.2619,"lon":5.37438,"is_reserved":false,"is_disabled":false,"rental_uris":{"android":"levelo://app?vid=6d976d58-781a-45d9-897c-611d02565aba","ios":"levelo://app?vid=6d976d58-781a-45d9-897c-611d02565aba"},"vehicle_type_id":"4","last_reported":1692893280,"current_range_meters":22400,"station_id":"","pricing_plan_id":"free"},{"bike_id":"1213b440-485a-447f-bebb-ce844e05efeb","system_id":"levelo_inurba_marseille","lat":43.26189,"lon":5.3743,"is_reserved":false,"is_disabled":false,"rental_uris":{"android":"levelo://app?vid=1213b440-485a-447f-bebb-ce844e05efeb","ios":"levelo://app?vid=1213b440-485a-447f-bebb-ce844e05efeb"},"vehicle_type_id":"4","last_reported":1692893280,"current_range_meters":16000,"station_id":"","pricing_plan_id":"free"},{"bike_id":"1667050f-6266-4b64-8b7e-d511885b2dde","system_id":"levelo_inurba_marseille","lat":43.2619,"lon":5.37444,"is_reserved":false,"is_disabled":false,"rental_uris":{"android":"levelo://app?vid=1667050f-6266-4b64-8b7e-d511885b2dde","ios":"levelo://app?vid=1667050f-6266-4b64-8b7e-d511885b2dde"},"vehicle_type_id":"4","last_reported":1692893280,"current_range_meters":25600,"station_id":"","pricing_plan_id":"free"},{"bike_id":"3c5e2caf-ef3d-43fa-8df5-3c0a0b8e8ae6","system_id":"levelo_inurba_marseille","lat":43.26189,"lon":5.37436,"is_reserved":false,"is_disabled":false,"rental_uris":{"android":"levelo://app?vid=3c5e2caf-ef3d-43fa-8df5-3c0a0b8e8ae6","ios":"levelo://app?vid=3c5e2caf-ef3d-43fa-8df5-3c0a0b8e8ae6"},"vehicle_type_id":"4","last_reported":1692893280,"current_range_meters":26800,"station_id":"","pricing_plan_id":"free"},{"bike_id":"622ee363-4406-4802-98ca-67c8f9ce0e6f","system_id":"levelo_inurba_marseille","lat":43.26189,"lon":5.37439,"is_reserved":false,"is_disabled":false,"rental_uris":{"android":"levelo://app?vid=622ee363-4406-4802-98ca-67c8f9ce0e6f","ios":"levelo://app?vid=622ee363-4406-4802-98ca-67c8f9ce0e6f"},"vehicle_type_id":"4","last_reported":1692893280,"current_range_meters":21200,"station_id":"","pricing_plan_id":"free"},{"bike_id":"eba9e12c-4946-4c3e-9532-40519f37e675","system_id":"levelo_inurba_marseille","lat":43.26189,"lon":5.3744,"is_reserved":false,"is_disabled":false,"rental_uris":{"android":"levelo://app?vid=eba9e12c-4946-4c3e-9532-40519f37e675","ios":"levelo://app?vid=eba9e12c-4946-4c3e-9532-40519f37e675"},"vehicle_type_id":"4","last_reported":1692893280,"current_range_meters":8800,"station_id":"","pricing_plan_id":"free"},{"bike_id":"3aede007-9a76-49da-9e24-8059f37d085c","system_id":"levelo_inurba_marseille","lat":43.26188,"lon":5.3744,"is_reserved":false,"is_disabled":false,"rental_uris":{"android":"levelo://app?vid=3aede007-9a76-49da-9e24-8059f37d085c","ios":"levelo://app?vid=3aede007-9a76-49da-9e24-8059f37d085c"},"vehicle_type_id":"4","last_reported":1692893280,"current_range_meters":22800,"station_id":"","pricing_plan_id":"free"},{"bike_id":"1bc65f79-481c-4f5a-9510-503ff1fc4d22","system_id":"levelo_inurba_marseille","lat":43.26188,"lon":5.37446,"is_reserved":false,"is_disabled":false,"rental_uris":{"android":"levelo://app?vid=1bc65f79-481c-4f5a-9510-503ff1fc4d22","ios":"levelo://app?vid=1bc65f79-481c-4f5a-9510-503ff1fc4d22"},"vehicle_type_id":"4","last_reported":1692893280,"current_range_meters":18000,"station_id":"","pricing_plan_id":"free"},{"bike_id":"6742d20a-a004-4f92-8bb3-78c6ef6559e1","system_id":"levelo_inurba_marseille","lat":43.26187,"lon":5.37441,"is_reserved":false,"is_disabled":false,"rental_uris":{"android":"levelo://app?vid=6742d20a-a004-4f92-8bb3-78c6ef6559e1","ios":"levelo://app?vid=6742d20a-a004-4f92-8bb3-78c6ef6559e1"},"vehicle_type_id":"4","last_reported":1692893280,"current_range_meters":6800,"station_id":"","pricing_plan_id":"free"},{"bike_id":"a1876d02-9b35-467a-a1ef-16340a88af67","system_id":"levelo_inurba_marseille","lat":43.26187,"lon":5.37443,"is_reserved":false,"is_disabled":false,"rental_uris":{"android":"levelo://app?vid=a1876d02-9b35-467a-a1ef-16340a88af67","ios":"levelo://app?vid=a1876d02-9b35-467a-a1ef-16340a88af67"},"vehicle_type_id":"4","last_reported":1692893280,"current_range_meters":26000,"station_id":"","pricing_plan_id":"free"},{"bike_id":"5c2f4569-51c9-43eb-bde3-ae45e03abd02","system_id":"levelo_inurba_marseille","lat":43.26186,"lon":5.37436,"is_reserved":false,"is_disabled":false,"rental_uris":{"android":"levelo://app?vid=5c2f4569-51c9-43eb-bde3-ae45e03abd02","ios":"levelo://app?vid=5c2f4569-51c9-43eb-bde3-ae45e03abd02"},"vehicle_type_id":"4","last_reported":1692893280,"current_range_meters":16400,"station_id":"","pricing_plan_id":"free"},{"bike_id":"a6aaf974-ee7a-41ae-bb28-06197fd068a5","system_id":"levelo_inurba_marseille","lat":43.26186,"lon":5.3744,"is_reserved":false,"is_disabled":false,"rental_uris":{"android":"levelo://app?vid=a6aaf974-ee7a-41ae-bb28-06197fd068a5","ios":"levelo://app?vid=a6aaf974-ee7a-41ae-bb28-06197fd068a5"},"vehicle_type_id":"4","last_reported":1692893280,"current_range_meters":30400,"station_id":"","pricing_plan_id":"free"},{"bike_id":"b1caa4c2-29c3-4e67-bc10-b4e10adeb6fa","system_id":"levelo_inurba_marseille","lat":43.26186,"lon":5.37442,"is_reserved":false,"is_disabled":false,"rental_uris":{"android":"levelo://app?vid=b1caa4c2-29c3-4e67-bc10-b4e10adeb6fa","ios":"levelo://app?vid=b1caa4c2-29c3-4e67-bc10-b4e10adeb6fa"},"vehicle_type_id":"4","last_reported":1692893280,"current_range_meters":17600,"station_id":"","pricing_plan_id":"free"},{"bike_id":"76f85ae7-6296-4dc8-b8ed-0f8a5b82b3d6","system_id":"levelo_inurba_marseille","lat":43.26186,"lon":5.37442,"is_reserved":false,"is_disabled":false,"rental_uris":{"android":"levelo://app?vid=76f85ae7-6296-4dc8-b8ed-0f8a5b82b3d6","ios":"levelo://app?vid=76f85ae7-6296-4dc8-b8ed-0f8a5b82b3d6"},"vehicle_type_id":"4","last_reported":1692893280,"current_range_meters":23200,"station_id":"","pricing_plan_id":"free"},{"bike_id":"ea8bd491-cb71-4c8b-862c-f6ca3d1ee5cb","system_id":"levelo_inurba_marseille","lat":43.26186,"lon":5.37442,"is_reserved":false,"is_disabled":false,"rental_uris":{"android":"levelo://app?vid=ea8bd491-cb71-4c8b-862c-f6ca3d1ee5cb","ios":"levelo://app?vid=ea8bd491-cb71-4c8b-862c-f6ca3d1ee5cb"},"vehicle_type_id":"4","last_reported":1692893280,"current_range_meters":23200,"station_id":"","pricing_plan_id":"free"},{"bike_id":"2a895f09-3014-4973-ad28-3542c918f901","system_id":"levelo_inurba_marseille","lat":43.26186,"lon":5.37443,"is_reserved":false,"is_disabled":false,"rental_uris":{"android":"levelo://app?vid=2a895f09-3014-4973-ad28-3542c918f901","ios":"levelo://app?vid=2a895f09-3014-4973-ad28-3542c918f901"},"vehicle_type_id":"4","last_reported":1692893280,"current_range_meters":11200,"station_id":"","pricing_plan_id":"free"},{"bike_id":"dc61fe66-a5b0-4c9b-acd7-1c620b8eafc0","system_id":"levelo_inurba_marseille","lat":43.26186,"lon":5.37444,"is_reserved":false,"is_disabled":false,"rental_uris":{"android":"levelo://app?vid=dc61fe66-a5b0-4c9b-acd7-1c620b8eafc0","ios":"levelo://app?vid=dc61fe66-a5b0-4c9b-acd7-1c620b8eafc0"},"vehicle_type_id":"4","last_reported":1692893280,"current_range_meters":17200,"station_id":"","pricing_plan_id":"free"},{"bike_id":"f762fd75-c874-46f3-a48c-43e9d9007c27","system_id":"levelo_inurba_marseille","lat":43.26186,"lon":5.37446,"is_reserved":false,"is_disabled":false,"rental_uris":{"android":"levelo://app?vid=f762fd75-c874-46f3-a48c-43e9d9007c27","ios":"levelo://app?vid=f762fd75-c874-46f3-a48c-43e9d9007c27"},"vehicle_type_id":"4","last_reported":1692893280,"current_range_meters":5200,"station_id":"","pricing_plan_id":"free"},{"bike_id":"1c87d388-fb06-4f23-9ab8-262a6e8386a0","system_id":"levelo_inurba_marseille","lat":43.26185,"lon":5.37446,"is_reserved":false,"is_disabled":false,"rental_uris":{"android":"levelo://app?vid=1c87d388-fb06-4f23-9ab8-262a6e8386a0","ios":"levelo://app?vid=1c87d388-fb06-4f23-9ab8-262a6e8386a0"},"vehicle_type_id":"4","last_reported":1692893280,"current_range_meters":24800,"station_id":"","pricing_plan_id":"free"},{"bike_id":"44c85c1f-303f-4568-8d90-fcb15621ca9e","system_id":"levelo_inurba_marseille","lat":43.26185,"lon":5.37449,"is_reserved":false,"is_disabled":false,"rental_uris":{"android":"levelo://app?vid=44c85c1f-303f-4568-8d90-fcb15621ca9e","ios":"levelo://app?vid=44c85c1f-303f-4568-8d90-fcb15621ca9e"},"vehicle_type_id":"4","last_reported":1692893280,"current_range_meters":0,"station_id":"","pricing_plan_id":"free"},{"bike_id":"8e739e59-2c90-4e69-92c8-b4ab2a362894","system_id":"levelo_inurba_marseille","lat":43.26184,"lon":5.37442,"is_reserved":false,"is_disabled":false,"rental_uris":{"android":"levelo://app?vid=8e739e59-2c90-4e69-92c8-b4ab2a362894","ios":"levelo://app?vid=8e739e59-2c90-4e69-92c8-b4ab2a362894"},"vehicle_type_id":"4","last_reported":1692893280,"current_range_meters":23200,"station_id":"","pricing_plan_id":"free"},{"bike_id":"5c8c427b-5ec5-4d7c-a38b-2eb445816420","system_id":"levelo_inurba_marseille","lat":43.26184,"lon":5.37442,"is_reserved":false,"is_disabled":false,"rental_uris":{"android":"levelo://app?vid=5c8c427b-5ec5-4d7c-a38b-2eb445816420","ios":"levelo://app?vid=5c8c427b-5ec5-4d7c-a38b-2eb445816420"},"vehicle_type_id":"4","last_reported":1692893280,"current_range_meters":24400,"station_id":"","pricing_plan_id":"free"},{"bike_id":"77300249-24c3-4ceb-b3ab-ac5e39ce35bd","system_id":"levelo_inurba_marseille","lat":43.26184,"lon":5.37444,"is_reserved":false,"is_disabled":false,"rental_uris":{"android":"levelo://app?vid=77300249-24c3-4ceb-b3ab-ac5e39ce35bd","ios":"levelo://app?vid=77300249-24c3-4ceb-b3ab-ac5e39ce35bd"},"vehicle_type_id":"4","last_reported":1692893280,"current_range_meters":19200,"station_id":"","pricing_plan_id":"free"},{"bike_id":"7ca7da80-5684-4dd9-8c35-19720f4d6833","system_id":"levelo_inurba_marseille","lat":43.26184,"lon":5.37446,"is_reserved":false,"is_disabled":false,"rental_uris":{"android":"levelo://app?vid=7ca7da80-5684-4dd9-8c35-19720f4d6833","ios":"levelo://app?vid=7ca7da80-5684-4dd9-8c35-19720f4d6833"},"vehicle_type_id":"4","last_reported":1692893280,"current_range_meters":21200,"station_id":"","pricing_plan_id":"free"},{"bike_id":"01710ece-7bfe-44f7-8a71-e5982780a99f","system_id":"levelo_inurba_marseille","lat":43.26184,"lon":5.37448,"is_reserved":false,"is_disabled":false,"rental_uris":{"android":"levelo://app?vid=01710ece-7bfe-44f7-8a71-e5982780a99f","ios":"levelo://app?vid=01710ece-7bfe-44f7-8a71-e5982780a99f"},"vehicle_type_id":"4","last_reported":1692893280,"current_range_meters":800,"station_id":"","pricing_plan_id":"free"},{"bike_id":"05b9602a-8253-4595-9938-0f8af85c1e6b","system_id":"levelo_inurba_marseille","lat":43.26183,"lon":5.37442,"is_reserved":false,"is_disabled":false,"rental_uris":{"android":"levelo://app?vid=05b9602a-8253-4595-9938-0f8af85c1e6b","ios":"levelo://app?vid=05b9602a-8253-4595-9938-0f8af85c1e6b"},"vehicle_type_id":"4","last_reported":1692893280,"current_range_meters":23200,"station_id":"","pricing_plan_id":"free"},{"bike_id":"d69b6697-5e36-4687-b8fb-cbe3488f8e07","system_id":"levelo_inurba_marseille","lat":43.317104,"lon":5.436818,"is_reserved":false,"is_disabled":false,"rental_uris":{"android":"levelo://app?vid=d69b6697-5e36-4687-b8fb-cbe3488f8e07","ios":"levelo://app?vid=d69b6697-5e36-4687-b8fb-cbe3488f8e07"},"vehicle_type_id":"4","last_reported":1692893280,"current_range_meters":13600,"station_id":"ce4bhp92rcd13ifvqhcg","pricing_plan_id":"free"},{"bike_id":"908215c8-6640-4b80-9cf8-2e503232fc8d","system_id":"levelo_inurba_marseille","lat":43.26209,"lon":5.37922,"is_reserved":false,"is_disabled":false,"rental_uris":{"android":"levelo://app?vid=908215c8-6640-4b80-9cf8-2e503232fc8d","ios":"levelo://app?vid=908215c8-6640-4b80-9cf8-2e503232fc8d"},"vehicle_type_id":"4","last_reported":1692893280,"current_range_meters":12400,"station_id":"ce4bhjp2rcd13ifvqg90","pricing_plan_id":"free"},{"bike_id":"45d99741-8d1f-471e-ae7e-de4c0814de96","system_id":"levelo_inurba_marseille","lat":43.26206,"lon":5.3793,"is_reserved":false,"is_disabled":false,"rental_uris":{"android":"levelo://app?vid=45d99741-8d1f-471e-ae7e-de4c0814de96","ios":"levelo://app?vid=45d99741-8d1f-471e-ae7e-de4c0814de96"},"vehicle_type_id":"4","last_reported":1692893280,"current_range_meters":26000,"station_id":"ce4bhjp2rcd13ifvqg90","pricing_plan_id":"free"},{"bike_id":"a9607eb4-9c26-4bed-a9be-772aefa2cf54","system_id":"levelo_inurba_marseille","lat":43.271368,"lon":5.40928,"is_reserved":false,"is_disabled":false,"rental_uris":{"android":"levelo://app?vid=a9607eb4-9c26-4bed-a9be-772aefa2cf54","ios":"levelo://app?vid=a9607eb4-9c26-4bed-a9be-772aefa2cf54"},"vehicle_type_id":"4","last_reported":1692893280,"current_range_meters":31200,"station_id":"ce4bhl12rcd13ifvqgf0","pricing_plan_id":"free"},{"bike_id":"1e4512a0-62cf-4b70-adb2-f25a49e1312a","system_id":"levelo_inurba_marseille","lat":43.26204,"lon":5.37929,"is_reserved":false,"is_disabled":false,"rental_uris":{"android":"levelo://app?vid=1e4512a0-62cf-4b70-adb2-f25a49e1312a","ios":"levelo://app?vid=1e4512a0-62cf-4b70-adb2-f25a49e1312a"},"vehicle_type_id":"4","last_reported":1692893280,"current_range_meters":24400,"station_id":"ce4bhjp2rcd13ifvqg90","pricing_plan_id":"free"},{"bike_id":"826e3502-9504-42a8-b153-3a4e2b02a9ca","system_id":"levelo_inurba_marseille","lat":43.26202,"lon":5.379299,"is_reserved":false,"is_disabled":false,"rental_uris":{"android":"levelo://app?vid=826e3502-9504-42a8-b153-3a4e2b02a9ca","ios":"levelo://app?vid=826e3502-9504-42a8-b153-3a4e2b02a9ca"},"vehicle_type_id":"4","last_reported":1692893280,"current_range_meters":13600,"station_id":"ce4bhjp2rcd13ifvqg90","pricing_plan_id":"free"},{"bike_id":"6123c191-0fcf-448d-a70a-ff78f8d6c8ea","system_id":"levelo_inurba_marseille","lat":43.26202,"lon":5.37929,"is_reserved":false,"is_disabled":false,"rental_uris":{"android":"levelo://app?vid=6123c191-0fcf-448d-a70a-ff78f8d6c8ea","ios":"levelo://app?vid=6123c191-0fcf-448d-a70a-ff78f8d6c8ea"},"vehicle_type_id":"4","last_reported":1692893280,"current_range_meters":19600,"station_id":"ce4bhjp2rcd13ifvqg90","pricing_plan_id":"free"},