{"last_updated":1771350445,"ttl":60,"version":"2.2","data":{"bikes":[{"bike_id":"96c80467-cf26-4494-a042-706944c964da","system_id":"levelo_inurba_marseille","lat":43.29009,"lon":5.35614,"is_reserved":false,"is_disabled":false,"rental_uris":{"android":"levelo://app?vid=96c80467-cf26-4494-a042-706944c964da","ios":"levelo://app?vid=96c80467-cf26-4494-a042-706944c964da"},"vehicle_type_id":"4","last_reported":1771350445,"current_range_meters":6800,"station_id":"ce4bhb92rcd13ifvqen0","pricing_plan_id":"cebpf4jnsgd1na2vs0mg"},{"bike_id":"0dec7a6e-29d0-41f4-a0f3-1dcc86f38028","system_id":"levelo_inurba_marseille","lat":43.24954,"lon":5.40492,"is_reserved":false,"is_disabled":false,"rental_uris":{"android":"levelo://app?vid=0dec7a6e-29d0-41f4-a0f3-1dcc86f38028","ios":"levelo://app?vid=0dec7a6e-29d0-41f4-a0f3-1dcc86f38028"},"vehicle_type_id":"4","last_reported":1771350445,"current_range_meters":29600,"station_id":"st_d2ngiaodas8pm72gd1h0","pricing_plan_id":"cebpf4jnsgd1na2vs0mg"},{"bike_id":"d5c39038-a196-442c-a8de-b272561ff450","system_id":"levelo_inurba_marseille","lat":43.31247,"lon":5.36936,"is_reserved":false,"is_disabled":false,"rental_uris":{"android":"levelo://app?vid=d5c39038-a196-442c-a8de-b272561ff450","ios":"levelo://app?vid=d5c39038-a196-442c-a8de-b272561ff450"},"vehicle_type_id":"4","last_reported":1771350445,"current_range_meters":14400,"station_id":"","pricing_plan_id":"cebpf4jnsgd1na2vs0mg"},{"bike_id":"9e80a46a-e212-4568-b8f2-e7bfcbbc6fb2","system_id":"levelo_inurba_marseille","lat":43.33135,"lon":5.37718,"is_reserved":false,"is_disabled":false,"rental_uris":{"android":"levelo://app?vid=9e80a46a-e212-4568-b8f2-e7bfcbbc6fb2","ios":"levelo://app?vid=9e80a46a-e212-4568-b8f2-e7bfcbbc6fb2"},"vehicle_type_id":"4","last_reported":1771350445,"current_range_meters":28000,"station_id":"st_d46cu089ee8s73dldbu0","pricing_plan_id":"cebpf4jnsgd1na2vs0mg"},{"bike_id":"06a35ccd-b33f-4049-bbfa-98f79e3425d6","system_id":"levelo_inurba_marseille","lat":43.26229,"lon":5.40453,"is_reserved":false,"is_disabled":false,"rental_uris":{"android":"levelo://app?vid=06a35ccd-b33f-4049-bbfa-98f79e3425d6","ios":"levelo://app?vid=06a35ccd-b33f-4049-bbfa-98f79e3425d6"},"vehicle_type_id":"4","last_reported":1771350445,"current_range_meters":20400,"station_id":"ce4bhmh2rcd13ifvqgmg","pricing_plan_id":"cebpf4jnsgd1na2vs0mg"},{"bike_id":"b2eb5fe5-c8e8-48e2-9166-64fc7fadb88f","system_id":"levelo_inurba_marseille","lat":43.24803,"lon":5.37451,"is_reserved":false,"is_disabled":false,"rental_uris":{"android":"levelo://app?vid=b2eb5fe5-c8e8-48e2-9166-64fc7fadb88f","ios":"levelo://app?vid=b2eb5fe5-c8e8-48e2-9166-64fc7fadb88f"},"vehicle_type_id":"4","last_reported":1771350445,"current_range_meters":36000,"station_id":"ce4bhgh2rcd13ifvqfb0","pricing_plan_id":"cebpf4jnsgd1na2vs0mg"},{"bike_id":"ca208522-c5c5-415c-9069-124a5d2f7bd4","system_id":"levelo_inurba_marseille","lat":43.24545,"lon":5.39514,"is_reserved":false,"is_disabled":false,"rental_uris":{"android":"levelo://app?vid=ca208522-c5c5-415c-9069-124a5d2f7bd4","ios":"levelo://app?vid=ca208522-c5c5-415c-9069-124a5d2f7bd4"},"vehicle_type_id":"4","last_reported":1771350445,"current_range_meters":31200,"station_id":"ce4bhlp2rcd13ifvqgjg","pricing_plan_id":"cebpf4jnsgd1na2vs0mg"},{"bike_id":"402492b2-75b7-4a30-b15f-baf2edef3968","system_id":"levelo_inurba_marseille","lat":43.26543,"lon":5.37295,"is_reserved":false,"is_disabled":true,"rental_uris":{"android":"levelo://app?vid=402492b2-75b7-4a30-b15f-baf2edef3968","ios":"levelo://app?vid=402492b2-75b7-4a30-b15f-baf2edef3968"},"vehicle_type_id":"4","last_reported":1771350445,"current_range_meters":37600,"station_id":"ce4bhg12rcd13ifvqf70","pricing_plan_id":"cebpf4jnsgd1na2vs0mg"},{"bike_id":"572bc761-8879-44f9-beaf-5779abd95762","system_id":"levelo_inurba_marseille","lat":43.26071,"lon":5.39397,"is_reserved":false,"is_disabled":false,"rental_uris":{"android":"levelo://app?vid=572bc761-8879-44f9-beaf-5779abd95762","ios":"levelo://app?vid=572bc761-8879-44f9-beaf-5779abd95762"},"vehicle_type_id":"4","last_reported":1771350445,"current_range_meters":10000,"station_id":"ce4bhh92rcd13ifvqfj0","pricing_plan_id":"cebpf4jnsgd1na2vs0mg"},{"bike_id":"5a983a63-0def-4441-a187-04ff64118d4b","system_id":"levelo_inurba_marseille","lat":43.304207,"lon":5.412811,"is_reserved":false,"is_disabled":false,"rental_uris":{"android":"levelo://app?vid=5a983a63-0def-4441-a187-04ff64118d4b","ios":"levelo://app?vid=5a983a63-0def-4441-a187-04ff64118d4b"},"vehicle_type_id":"4","last_reported":1771350445,"current_range_meters":7200,"station_id":"ce4bhop2rcd13ifvqh8g","pricing_plan_id":"cebpf4jnsgd1na2vs0mg"},{"bike_id":"a378116d-7a7e-4011-b826-d27e4ca1e68f","system_id":"levelo_inurba_marseille","lat":43.28851,"lon":5.3585,"is_reserved":false,"is_disabled":false,"rental_uris":{"android":"levelo://app?vid=a378116d-7a7e-4011-b826-d27e4ca1e68f","ios":"levelo://app?vid=a378116d-7a7e-4011-b826-d27e4ca1e68f"},"vehicle_type_id":"4","last_reported":1771350445,"current_range_meters":32800,"station_id":"","pricing_plan_id":"cebpf4jnsgd1na2vs0mg"},{"bike_id":"a760d9ba-2518-49a9-9223-50bcead8a859","system_id":"levelo_inurba_marseille","lat":43.29212,"lon":5.36044,"is_reserved":false,"is_disabled":false,"rental_uris":{"android":"levelo://app?vid=a760d9ba-2518-49a9-9223-50bcead8a859","ios":"levelo://app?vid=a760d9ba-2518-49a9-9223-50bcead8a859"},"vehicle_type_id":"4","last_reported":1771350445,"current_range_meters":11600,"station_id":"ce4bhbh2rcd13ifvqeqg","pricing_plan_id":"cebpf4jnsgd1na2vs0mg"},{"bike_id":"8604ba8d-23fc-4903-b43a-10ff6c1ab4ed","system_id":"levelo_inurba_marseille","lat":43.2439,"lon":5.37079,"is_reserved":false,"is_disabled":false,"rental_uris":{"android":"levelo://app?vid=8604ba8d-23fc-4903-b43a-10ff6c1ab4ed","ios":"levelo://app?vid=8604ba8d-23fc-4903-b43a-10ff6c1ab4ed"},"vehicle_type_id":"4","last_reported":1771350445,"current_range_meters":10800,"station_id":"ce4bhhh2rcd13ifvqfk0","pricing_plan_id":"cebpf4jnsgd1na2vs0mg"},{"bike_id":"dd7633b9-0cfb-4351-9b88-59e9f0bb3e60","system_id":"levelo_inurba_marseille","lat":43.2953,"lon":5.39049,"is_reserved":false,"is_disabled":false,"rental_uris":{"android":"levelo://app?vid=dd7633b9-0cfb-4351-9b88-59e9f0bb3e60","ios":"levelo://app?vid=dd7633b9-0cfb-4351-9b88-59e9f0bb3e60"},"vehicle_type_id":"4","last_reported":1771350445,"current_range_meters":8400,"station_id":"ce4bh3p2rcd13ifvqdp0","pricing_plan_id":"cebpf4jnsgd1na2vs0mg"},{"bike_id":"45c678c1-7b9b-4a93-a038-ef2c1a60194d","system_id":"levelo_inurba_marseille","lat":43.312238,"lon":5.368745,"is_reserved":false,"is_disabled":false,"rental_uris":{"android":"levelo://app?vid=45c678c1-7b9b-4a93-a038-ef2c1a60194d","ios":"levelo://app?vid=45c678c1-7b9b-4a93-a038-ef2c1a60194d"},"vehicle_type_id":"4","last_reported":1771350445,"current_range_meters":34800,"station_id":"ce4bgl92rcd13ifvqbq0","pricing_plan_id":"cebpf4jnsgd1na2vs0mg"},{"bike_id":"0ee84456-b561-44d6-9de8-8dd933fbade9","system_id":"levelo_inurba_marseille","lat":43.28962,"lon":5.36384,"is_reserved":false,"is_disabled":false,"rental_uris":{"android":"levelo://app?vid=0ee84456-b561-44d6-9de8-8dd933fbade9","ios":"levelo://app?vid=0ee84456-b561-44d6-9de8-8dd933fbade9"},"vehicle_type_id":"4","last_reported":1771350445,"current_range_meters":39200,"station_id":"ce4bhc92rcd13ifvqetg","pricing_plan_id":"cebpf4jnsgd1na2vs0mg"},{"bike_id":"89a9603f-299a-418a-bef2-4f915ff1c465","system_id":"levelo_inurba_marseille","lat":43.29951,"lon":5.41323,"is_reserved":false,"is_disabled":false,"rental_uris":{"android":"levelo://app?vid=89a9603f-299a-418a-bef2-4f915ff1c465","ios":"levelo://app?vid=89a9603f-299a-418a-bef2-4f915ff1c465"},"vehicle_type_id":"4","last_reported":1771350445,"current_range_meters":38800,"station_id":"ce4bhp12rcd13ifvqh9g","pricing_plan_id":"cebpf4jnsgd1na2vs0mg"},{"bike_id":"9a8e9fdf-6de3-44ca-b997-82917ce09240","system_id":"levelo_inurba_marseille","lat":43.31163,"lon":5.38741,"is_reserved":false,"is_disabled":false,"rental_uris":{"android":"levelo://app?vid=9a8e9fdf-6de3-44ca-b997-82917ce09240","ios":"levelo://app?vid=9a8e9fdf-6de3-44ca-b997-82917ce09240"},"vehicle_type_id":"4","last_reported":1771350445,"current_range_meters":32800,"station_id":"ce4bgv12rcd13ifvqcp0","pricing_plan_id":"cebpf4jnsgd1na2vs0mg"},{"bike_id":"06fbad56-b200-43dd-8bf6-f0b5d190c345","system_id":"levelo_inurba_marseille","lat":43.283394,"lon":5.380973,"is_reserved":false,"is_disabled":false,"rental_uris":{"android":"levelo://app?vid=06fbad56-b200-43dd-8bf6-f0b5d190c345","ios":"levelo://app?vid=06fbad56-b200-43dd-8bf6-f0b5d190c345"},"vehicle_type_id":"4","last_reported":1771350445,"current_range_meters":40000,"station_id":"ce4bh412rcd13ifvqdr0","pricing_plan_id":"cebpf4jnsgd1na2vs0mg"},{"bike_id":"77981940-8b3f-4695-8477-b34f59e0613e","system_id":"levelo_inurba_marseille","lat":43.319022,"lon":5.407591,"is_reserved":false,"is_disabled":false,"rental_uris":{"android":"levelo://app?vid=77981940-8b3f-4695-8477-b34f59e0613e","ios":"levelo://app?vid=77981940-8b3f-4695-8477-b34f59e0613e"},"vehicle_type_id":"4","last_reported":1771350445,"current_range_meters":23200,"station_id":"ce4bhq12rcd13ifvqhig","pricing_plan_id":"cebpf4jnsgd1na2vs0mg"},{"bike_id":"252ffab4-b7b6-4e0c-9da0-6b22d38b30ab","system_id":"levelo_inurba_marseille","lat":43.29542,"lon":5.39392,"is_reserved":false,"is_disabled":false,"rental_uris":{"android":"levelo://app?vid=252ffab4-b7b6-4e0c-9da0-6b22d38b30ab","ios":"levelo://app?vid=252ffab4-b7b6-4e0c-9da0-6b22d38b30ab"},"vehicle_type_id":"4","last_reported":1771350445,"current_range_meters":4800,"station_id":"ce4bh292rcd13ifvqdf0","pricing_plan_id":"cebpf4jnsgd1na2vs0mg"},{"bike_id":"ef57d60e-e562-431d-9fe1-125f89a75263","system_id":"levelo_inurba_marseille","lat":43.29619,"lon":5.37161,"is_reserved":false,"is_disabled":false,"rental_uris":{"android":"levelo://app?vid=ef57d60e-e562-431d-9fe1-125f89a75263","ios":"levelo://app?vid=ef57d60e-e562-431d-9fe1-125f89a75263"},"vehicle_type_id":"4","last_reported":1771350445,"current_range_meters":39200,"station_id":"ce4bgnh2rcd13ifvqc0g","pricing_plan_id":"cebpf4jnsgd1na2vs0mg"},{"bike_id":"523be3a1-7aac-4998-b646-37ab41bb0d4f","system_id":"levelo_inurba_marseille","lat":43.27841,"lon":5.40717,"is_reserved":false,"is_disabled":false,"rental_uris":{"android":"levelo://app?vid=523be3a1-7aac-4998-b646-37ab41bb0d4f","ios":"levelo://app?vid=523be3a1-7aac-4998-b646-37ab41bb0d4f"},"vehicle_type_id":"4","last_reported":1771350445,"current_range_meters":30000,"station_id":"ce4bhnh2rcd13ifvqgtg","pricing_plan_id":"cebpf4jnsgd1na2vs0mg"},{"bike_id":"282dbedf-0523-49c3-b1d1-8b4c40d39507","system_id":"levelo_inurba_marseille","lat":43.29516,"lon":5.39391,"is_reserved":false,"is_disabled":false,"rental_uris":{"android":"levelo://app?vid=282dbedf-0523-49c3-b1d1-8b4c40d39507","ios":"levelo://app?vid=282dbedf-0523-49c3-b1d1-8b4c40d39507"},"vehicle_type_id":"4","last_reported":1771350445,"current_range_meters":26000,"station_id":"ce4bh292rcd13ifvqdf0","pricing_plan_id":"cebpf4jnsgd1na2vs0mg"},{"bike_id":"9c9adcdf-0816-450b-b9ff-32754c377e98","system_id":"levelo_inurba_marseille","lat":43.3355,"lon":5.37479,"is_reserved":false,"is_disabled":false,"rental_uris":{"android":"levelo://app?vid=9c9adcdf-0816-450b-b9ff-32754c377e98","ios":"levelo://app?vid=9c9adcdf-0816-450b-b9ff-32754c377e98"},"vehicle_type_id":"4","last_reported":1771350445,"current_range_meters":3600,"station_id":"st_d46tts09ee8s73dlu43g","pricing_plan_id":"cebpf4jnsgd1na2vs0mg"},{"bike_id":"bade6b24-73d5-47df-8808-1e7c1a6f2206","system_id":"levelo_inurba_marseille","lat":43.29594,"lon":5.38124,"is_reserved":false,"is_disabled":false,"rental_uris":{"android":"levelo://app?vid=bade6b24-73d5-47df-8808-1e7c1a6f2206","ios":"levelo://app?vid=bade6b24-73d5-47df-8808-1e7c1a6f2206"},"vehicle_type_id":"4","last_reported":1771350445,"current_range_meters":35600,"station_id":"ce4bgl12rcd13ifvqbo0","pricing_plan_id":"cebpf4jnsgd1na2vs0mg"},{"bike_id":"13a92af8-e043-4e9c-b17f-e15ce8758a34","system_id":"levelo_inurba_marseille","lat":43.25137,"lon":5.40321,"is_reserved":false,"is_disabled":false,"rental_uris":{"android":"levelo://app?vid=13a92af8-e043-4e9c-b17f-e15ce8758a34","ios":"levelo://app?vid=13a92af8-e043-4e9c-b17f-e15ce8758a34"},"vehicle_type_id":"4","last_reported":1771350445,"current_range_meters":38400,"station_id":"ce4bhlh2rcd13ifvqgig","pricing_plan_id":"cebpf4jnsgd1na2vs0mg"},{"bike_id":"759ac6cc-a160-4e19-bb55-d70c5d7d0210","system_id":"levelo_inurba_marseille","lat":43.27452,"lon":5.39386,"is_reserved":false,"is_disabled":false,"rental_uris":{"android":"levelo://app?vid=759ac6cc-a160-4e19-bb55-d70c5d7d0210","ios":"levelo://app?vid=759ac6cc-a160-4e19-bb55-d70c5d7d0210"},"vehicle_type_id":"4","last_reported":1771350445,"current_range_meters":28400,"station_id":"ce4bhdp2rcd13ifvqf20","pricing_plan_id":"cebpf4jnsgd1na2vs0mg"},{"bike_id":"cf2a5fe1-98b3-4136-8a1d-5a11257bcb2f","system_id":"levelo_inurba_marseille","lat":43.28941,"lon":5.36637,"is_reserved":false,"is_disabled":false,"rental_uris":{"android":"levelo://app?vid=cf2a5fe1-98b3-4136-8a1d-5a11257bcb2f","ios":"levelo://app?vid=cf2a5fe1-98b3-4136-8a1d-5a11257bcb2f"},"vehicle_type_id":"4","last_reported":1771350445,"current_range_meters":36800,"station_id":"ce4bhap2rcd13ifvqek0","pricing_plan_id":"cebpf4jnsgd1na2vs0mg"},{"bike_id":"04307d66-1f7c-4a0b-9a4c-94ccb476c8c8","system_id":"levelo_inurba_marseille","lat":43.29535,"lon":5.38537,"is_reserved":false,"is_disabled":false,"rental_uris":{"android":"levelo://app?vid=04307d66-1f7c-4a0b-9a4c-94ccb476c8c8","ios":"levelo://app?vid=04307d66-1f7c-4a0b-9a4c-94ccb476c8c8"},"vehicle_type_id":"4","last_reported":1771350445,"current_range_meters":7200,"station_id":"ce4bgih2rcd13ifvqba0","pricing_plan_id":"cebpf4jnsgd1na2vs0mg"},{"bike_id":"91e18b06-e43f-4689-81f7-7af2dc71414d","system_id":"levelo_inurba_marseille","lat":43.26484,"lon":5.39549,"is_reserved":false,"is_disabled":false,"rental_uris":{"android":"levelo://app?vid=91e18b06-e43f-4689-81f7-7af2dc71414d","ios":"levelo://app?vid=91e18b06-e43f-4689-81f7-7af2dc71414d"},"vehicle_type_id":"4","last_reported":1771350445,"current_range_meters":36400,"station_id":"ce4bhi12rcd13ifvqfq0","pricing_plan_id":"cebpf4jnsgd1na2vs0mg"},{"bike_id":"a966433b-162b-45a9-a349-c7e6eb2ce498","system_id":"levelo_inurba_marseille","lat":43.27998,"lon":5.40027,"is_reserved":false,"is_disabled":false,"rental_uris":{"android":"levelo://app?vid=a966433b-162b-45a9-a349-c7e6eb2ce498","ios":"levelo://app?vid=a966433b-162b-45a9-a349-c7e6eb2ce498"},"vehicle_type_id":"4","last_reported":1771350445,"current_range_meters":19600,"station_id":"ce4bho92rcd13ifvqh4g","pricing_plan_id":"cebpf4jnsgd1na2vs0mg"},{"bike_id":"6de5e299-d1ca-4f6f-bb0e-37f0d2361727","system_id":"levelo_inurba_marseille","lat":43.28858,"lon":5.35862,"is_reserved":false,"is_disabled":false,"rental_uris":{"android":"levelo://app?vid=6de5e299-d1ca-4f6f-bb0e-37f0d2361727","ios":"levelo://app?vid=6de5e299-d1ca-4f6f-bb0e-37f0d2361727"},"vehicle_type_id":"4","last_reported":1771350445,"current_range_meters":39200,"station_id":"ce4bhb12rcd13ifvqem0","pricing_plan_id":"cebpf4jnsgd1na2vs0mg"},{"bike_id":"0f39b697-4a2b-43a3-ada4-ce8c43776e1f","system_id":"levelo_inurba_marseille","lat":43.31208,"lon":5.36882,"is_reserved":false,"is_disabled":false,"rental_uris":{"android":"levelo://app?vid=0f39b697-4a2b-43a3-ada4-ce8c43776e1f","ios":"levelo://app?vid=0f39b697-4a2b-43a3-ada4-ce8c43776e1f"},"vehicle_type_id":"4","last_reported":1771350445,"current_range_meters":16400,"station_id":"ce4bgl92rcd13ifvqbq0","pricing_plan_id":"cebpf4jnsgd1na2vs0mg"},{"bike_id":"76a0d4aa-0887-4be6-bfc2-d5259dc7e99e","system_id":"levelo_inurba_marseille","lat":43.29215,"lon":5.36076,"is_reserved":false,"is_disabled":false,"rental_uris":{"android":"levelo://app?vid=76a0d4aa-0887-4be6-bfc2-d5259dc7e99e","ios":"levelo://app?vid=76a0d4aa-0887-4be6-bfc2-d5259dc7e99e"},"vehicle_type_id":"4","last_reported":1771350445,"current_range_meters":39200,"station_id":"ce4bhbh2rcd13ifvqeqg","pricing_plan_id":"cebpf4jnsgd1na2vs0mg"},{"bike_id":"ec532e3d-01fc-41fe-bfbc-45c5b470be82","system_id":"levelo_inurba_marseille","lat":43.25119,"lon":5.40312,"is_reserved":false,"is_disabled":false,"rental_uris":{"android":"levelo://app?vid=ec532e3d-01fc-41fe-bfbc-45c5b470be82","ios":"levelo://app?vid=ec532e3d-01fc-41fe-bfbc-45c5b470be82"},"vehicle_type_id":"4","last_reported":1771350445,"current_range_meters":30000,"station_id":"ce4bhlh2rcd13ifvqgig","pricing_plan_id":"cebpf4jnsgd1na2vs0mg"},{"bike_id":"0b73333e-38b9-4d9d-ba71-b38073e6feef","system_id":"levelo_inurba_marseille","lat":43.26555,"lon":5.3903,"is_reserved":false,"is_disabled":true,"rental_uris":{"android":"levelo://app?vid=0b73333e-38b9-4d9d-ba71-b38073e6feef","ios":"levelo://app?vid=0b73333e-38b9-4d9d-ba71-b38073e6feef"},"vehicle_type_id":"4","last_reported":1771350445,"current_range_meters":0,"station_id":"ce4bhe12rcd13ifvqf30","pricing_plan_id":"cebpf4jnsgd1na2vs0mg"},{"bike_id":"a13d12dc-0854-40de-8b63-2487b16bd2f7","system_id":"levelo_inurba_marseille","lat":43.30308,"lon":5.39214,"is_reserved":false,"is_disabled":false,"rental_uris":{"android":"levelo://app?vid=a13d12dc-0854-40de-8b63-2487b16bd2f7","ios":"levelo://app?vid=a13d12dc-0854-40de-8b63-2487b16bd2f7"},"vehicle_type_id":"4","last_reported":1771350445,"current_range_meters":35200,"station_id":"ce4bgkh2rcd13ifvqbk0","pricing_plan_id":"cebpf4jnsgd1na2vs0mg"},{"bike_id":"c73347ca-cc14-4483-8b47-9a48e9728c50","system_id":"levelo_inurba_marseille","lat":43.29562,"lon":5.37543,"is_reserved":false,"is_disabled":false,"rental_uris":{"android":"levelo://app?vid=c73347ca-cc14-4483-8b47-9a48e9728c50","ios":"levelo://app?vid=c73347ca-cc14-4483-8b47-9a48e9728c50"},"vehicle_type_id":"4","last_reported":1771350445,"current_range_meters":36800,"station_id":"ce4bgh92rcd13ifvqb50","pricing_plan_id":"cebpf4jnsgd1na2vs0mg"},{"bike_id":"a297b937-d94a-41b7-a7fa-274c5de42c2e","system_id":"levelo_inurba_marseille","lat":43.26494,"lon":5.39542,"is_reserved":false,"is_disabled":false,"rental_uris":{"android":"levelo://app?vid=a297b937-d94a-41b7-a7fa-274c5de42c2e","ios":"levelo://app?vid=a297b937-d94a-41b7-a7fa-274c5de42c2e"},"vehicle_type_id":"4","last_reported":1771350445,"current_range_meters":32400,"station_id":"ce4bhi12rcd13ifvqfq0","pricing_plan_id":"cebpf4jnsgd1na2vs0mg"},{"bike_id":"d973d5ae-d111-4a0c-9b95-fba5442ad829","system_id":"levelo_inurba_marseille","lat":43.260676,"lon":5.393978,"is_reserved":false,"is_disabled":false,"rental_uris":{"android":"levelo://app?vid=d973d5ae-d111-4a0c-9b95-fba5442ad829","ios":"levelo://app?vid=d973d5ae-d111-4a0c-9b95-fba5442ad829"},"vehicle_type_id":"4","last_reported":1771350445,"current_range_meters":8400,"station_id":"ce4bhh92rcd13ifvqfj0","pricing_plan_id":"cebpf4jnsgd1na2vs0mg"},{"bike_id":"ef3f0443-e181-4ab7-b489-4a9a20005b24","system_id":"levelo_inurba_marseille","lat":43.3016,"lon":5.39883,"is_reserved":false,"is_disabled":false,"rental_uris":{"android":"levelo://app?vid=ef3f0443-e181-4ab7-b489-4a9a20005b24","ios":"levelo://app?vid=ef3f0443-e181-4ab7-b489-4a9a20005b24"},"vehicle_type_id":"4","last_reported":1771350445,"current_range_meters":20800,"station_id":"ce4bh0h2rcd13ifvqd40","pricing_plan_id":"cebpf4jnsgd1na2vs0mg"},{"bike_id":"09932d24-a853-4aa0-9941-b188ac5eb37e","system_id":"levelo_inurba_marseille","lat":43.284026,"lon":5.375286,"is_reserved":false,"is_disabled":false,"rental_uris":{"android":"levelo://app?vid=09932d24-a853-4aa0-9941-b188ac5eb37e","ios":"levelo://app?vid=09932d24-a853-4aa0-9941-b188ac5eb37e"},"vehicle_type_id":"4","last_reported":1771350445,"current_range_meters":3200,"station_id":"ce4bh412rcd13ifvqds0","pricing_plan_id":"cebpf4jnsgd1na2vs0mg"},{"bike_id":"e308d050-502a-44ad-8fb8-6a23ebc18376","system_id":"levelo_inurba_marseille","lat":43.29217,"lon":5.36057,"is_reserved":false,"is_disabled":false,"rental_uris":{"android":"levelo://app?vid=e308d050-502a-44ad-8fb8-6a23ebc18376","ios":"levelo://app?vid=e308d050-502a-44ad-8fb8-6a23ebc18376"},"vehicle_type_id":"4","last_reported":1771350445,"current_range_meters":26800,"station_id":"ce4bhbh2rcd13ifvqeqg","pricing_plan_id":"cebpf4jnsgd1na2vs0mg"},{"bike_id":"9a0b105c-51c2-4394-93c8-b3bf166943bb","system_id":"levelo_inurba_marseille","lat":43.27186,"lon":5.40986,"is_reserved":false,"is_disabled":false,"rental_uris":{"android":"levelo://app?vid=9a0b105c-51c2-4394-93c8-b3bf166943bb","ios":"levelo://app?vid=9a0b105c-51c2-4394-93c8-b3bf166943bb"},"vehicle_type_id":"4","last_reported":1771350445,"current_range_meters":26800,"station_id":"ce4bhl12rcd13ifvqgf0","pricing_plan_id":"cebpf4jnsgd1na2vs0mg"},{"bike_id":"2d798a79-f787-4661-a430-dd43104f6fd6","system_id":"levelo_inurba_marseille","lat":43.28077,"lon":5.39659,"is_reserved":false,"is_disabled":false,"rental_uris":{"android":"levelo://app?vid=2d798a79-f787-4661-a430-dd43104f6fd6","ios":"levelo://app?vid=2d798a79-f787-4661-a430-dd43104f6fd6"},"vehicle_type_id":"4","last_reported":1771350445,"current_range_meters":8800,"station_id":"ce4bho12rcd13ifvqh2g","pricing_plan_id":"cebpf4jnsgd1na2vs0mg"},{"bike_id":"5a965df6-6bde-443d-bd53-103df330df07","system_id":"levelo_inurba_marseille","lat":43.33754,"lon":5.37491,"is_reserved":false,"is_disabled":false,"rental_uris":{"android":"levelo://app?vid=5a965df6-6bde-443d-bd53-103df330df07","ios":"levelo://app?vid=5a965df6-6bde-443d-bd53-103df330df07"},"vehicle_type_id":"4","last_reported":1771350445,"current_range_meters":38400,"station_id":"","pricing_plan_id":"cebpf4jnsgd1na2vs0mg"},{"bike_id":"7ae2f520-3f6d-4d15-803f-7620186a5e30","system_id":"levelo_inurba_marseille","lat":43.29226,"lon":5.3607,"is_reserved":false,"is_disabled":false,"rental_uris":{"android":"levelo://app?vid=7ae2f520-3f6d-4d15-803f-7620186a5e30","ios":"levelo://app?vid=7ae2f520-3f6d-4d15-803f-7620186a5e30"},"vehicle_type_id":"4","last_reported":1771350445,"current_range_meters":39200,"station_id":"ce4bhbh2rcd13ifvqeqg","pricing_plan_id":"cebpf4jnsgd1na2vs0mg"},{"bike_id":"17b0d32b-7f7f-4eaa-b2e1-b821a637614c","system_id":"levelo_inurba_marseille","lat":43.26958,"lon":5.38645,"is_reserved":false,"is_disabled":false,"rental_uris":{"android":"levelo://app?vid=17b0d32b-7f7f-4eaa-b2e1-b821a637614c","ios":"levelo://app?vid=17b0d32b-7f7f-4eaa-b2e1-b821a637614c"},"vehicle_type_id":"4","last_reported":1771350445,"current_range_meters":24800,"station_id":"ce4bhh92rcd13ifvqfh0","pricing_plan_id":"cebpf4jnsgd1na2vs0mg"},{"bike_id":"e041f392-b8c5-44a1-8028-4931d6269d88","system_id":"levelo_inurba_marseille","lat":43.29228,"lon":5.409,"is_reserved":false,"is_disabled":false,"rental_uris":{"android":"levelo://app?vid=e041f392-b8c5-44a1-8028-4931d6269d88","ios":"levelo://app?vid=e041f392-b8c5-44a1-8028-4931d6269d88"},"vehicle_type_id":"4","last_reported":1771350445,"current_range_meters":8400,"station_id":"ce4bh192rcd13ifvqdc0","pricing_plan_id":"cebpf4jnsgd1na2vs0mg"},{"bike_id":"c6257056-1773-40b3-8420-fe95746c06e4","system_id":"levelo_inurba_marseille","lat":43.29537,"lon":5.38527,"is_reserved":false,"is_disabled":false,"rental_uris":{"android":"levelo://app?vid=c6257056-1773-40b3-8420-fe95746c06e4","ios":"levelo://app?vid=c6257056-1773-40b3-8420-fe95746c06e4"},"vehicle_type_id":"4","last_reported":1771350445,"current_range_meters":14000,"station_id":"ce4bgih2rcd13ifvqba0","pricing_plan_id":"cebpf4jnsgd1na2vs0mg"},{"bike_id":"6e1b6725-bd2a-450f-8fbb-87285b7c6526","system_id":"levelo_inurba_marseille","lat":43.24182,"lon":5.36432,"is_reserved":false,"is_disabled":false,"rental_uris":{"android":"levelo://app?vid=6e1b6725-bd2a-450f-8fbb-87285b7c6526","ios":"levelo://app?vid=6e1b6725-bd2a-450f-8fbb-87285b7c6526"},"vehicle_type_id":"4","last_reported":1771350445,"current_range_meters":3200,"station_id":"cpo36qri1sfpv3e86is0","pricing_plan_id":"cebpf4jnsgd1na2vs0mg"},{"bike_id":"77ac5366-15fc-40d4-bdb3-1f0b7d78a118","system_id":"levelo_inurba_marseille","lat":43.29769,"lon":5.37097,"is_reserved":false,"is_disabled":false,"rental_uris":{"android":"levelo://app?vid=77ac5366-15fc-40d4-bdb3-1f0b7d78a118","ios":"levelo://app?vid=77ac5366-15fc-40d4-bdb3-1f0b7d78a118"},"vehicle_type_id":"4","last_reported":1771350445,"current_range_meters":8400,"station_id":"ce4bgop2rcd13ifvqc1g","pricing_plan_id":"cebpf4jnsgd1na2vs0mg"},{"bike_id":"80261557-3e26-4295-9be4-36d891205bcd","system_id":"levelo_inurba_marseille","lat":43.29637,"lon":5.3716,"is_reserved":false,"is_disabled":false,"rental_uris":{"android":"levelo://app?vid=80261557-3e26-4295-9be4-36d891205bcd","ios":"levelo://app?vid=80261557-3e26-4295-9be4-36d891205bcd"},"vehicle_type_id":"4","last_reported":1771350445,"current_range_meters":36400,"station_id":"ce4bgnh2rcd13ifvqc0g","pricing_plan_id":"cebpf4jnsgd1na2vs0mg"},{"bike_id":"e6e53a36-cd42-4bc7-a84c-7313c13f98bd","system_id":"levelo_inurba_marseille","lat":43.25111,"lon":5.40323,"is_reserved":false,"is_disabled":false,"rental_uris":{"android":"levelo://app?vid=e6e53a36-cd42-4bc7-a84c-7313c13f98bd","ios":"levelo://app?vid=e6e53a36-cd42-4bc7-a84c-7313c13f98bd"},"vehicle_type_id":"4","last_reported":1771350445,"current_range_meters":19200,"station_id":"ce4bhlh2rcd13ifvqgig","pricing_plan_id":"cebpf4jnsgd1na2vs0mg"},{"bike_id":"6c78dcaf-5149-4541-a0b3-6080efcde2a9","system_id":"levelo_inurba_marseille","lat":43.30913,"lon":5.36854,"is_reserved":false,"is_disabled":false,"rental_uris":{"android":"levelo://app?vid=6c78dcaf-5149-4541-a0b3-6080efcde2a9","ios":"levelo://app?vid=6c78dcaf-5149-4541-a0b3-6080efcde2a9"},"vehicle_type_id":"4","last_reported":1771350445,"current_range_meters":25200,"station_id":"ce4bgn92rcd13ifvqbvg","pricing_plan_id":"cebpf4jnsgd1na2vs0mg"},{"bike_id":"061ee33a-0cb8-48bc-a843-c564ef436c43","system_id":"levelo_inurba_marseille","lat":43.28162,"lon":5.42634,"is_reserved":false,"is_disabled":false,"rental_uris":{"android":"levelo://app?vid=061ee33a-0cb8-48bc-a843-c564ef436c43","ios":"levelo://app?vid=061ee33a-0cb8-48bc-a843-c564ef436c43"},"vehicle_type_id":"4","last_reported":1771350445,"current_range_meters":38400,"station_id":"ce4bhnh2rcd13ifvqgug","pricing_plan_id":"cebpf4jnsgd1na2vs0mg"},{"bike_id":"5b8de0cc-7d3e-4222-8509-d21d6ce44619","system_id":"levelo_inurba_marseille","lat":43.24635,"lon":5.43144,"is_reserved":false,"is_disabled":false,"rental_uris":{"android":"levelo://app?vid=5b8de0cc-7d3e-4222-8509-d21d6ce44619","ios":"levelo://app?vid=5b8de0cc-7d3e-4222-8509-d21d6ce44619"},"vehicle_type_id":"4","last_reported":1771350445,"current_range_meters":12000,"station_id":"st_d2m6c4gdas8pm72e190g","pricing_plan_id":"cebpf4jnsgd1na2vs0mg"},{"bike_id":"86192d04-a141-409d-b724-3e354a3ed317","system_id":"levelo_inurba_marseille","lat":43.30891,"lon":5.38366,"is_reserved":false,"is_disabled":false,"rental_uris":{"android":"levelo://app?vid=86192d04-a141-409d-b724-3e354a3ed317","ios":"levelo://app?vid=86192d04-a141-409d-b724-3e354a3ed317"},"vehicle_type_id":"4","last_reported":1771350445,"current_range_meters":6800,"station_id":"","pricing_plan_id":"cebpf4jnsgd1na2vs0mg"},{"bike_id":"7f7e6064-6c05-4e1f-a4b0-120e50364b3a","system_id":"levelo_inurba_marseille","lat":43.26062,"lon":5.39398,"is_reserved":false,"is_disabled":false,"rental_uris":{"android":"levelo://app?vid=7f7e6064-6c05-4e1f-a4b0-120e50364b3a","ios":"levelo://app?vid=7f7e6064-6c05-4e1f-a4b0-120e50364b3a"},"vehicle_type_id":"4","last_reported":1771350445,"current_range_meters":28800,"station_id":"ce4bhh92rcd13ifvqfj0","pricing_plan_id":"cebpf4jnsgd1na2vs0mg"},{"bike_id":"35849916-2fe4-4b34-8084-9dcaefd2c823","system_id":"levelo_inurba_marseille","lat":43.3122,"lon":5.36839,"is_reserved":false,"is_disabled":false,"rental_uris":{"android":"levelo://app?vid=35849916-2fe4-4b34-8084-9dcaefd2c823","ios":"levelo://app?vid=35849916-2fe4-4b34-8084-9dcaefd2c823"},"vehicle_type_id":"4","last_reported":1771350445,"current_range_meters":38400,"station_id":"ce4bgl92rcd13ifvqbq0","pricing_plan_id":"cebpf4jnsgd1na2vs0mg"},{"bike_id":"36a96621-0437-4e6a-a67e-91443a5a0006","system_id":"levelo_inurba_marseille","lat":43.25595,"lon":5.38252,"is_reserved":false,"is_disabled":false,"rental_uris":{"android":"levelo://app?vid=36a96621-0437-4e6a-a67e-91443a5a0006","ios":"levelo://app?vid=36a96621-0437-4e6a-a67e-91443a5a0006"},"vehicle_type_id":"4","last_reported":1771350445,"current_range_meters":39200,"station_id":"ce4bhih2rcd13ifvqfs0","pricing_plan_id":"cebpf4jnsgd1na2vs0mg"},{"bike_id":"6bb36a9f-067d-4eef-9d07-1ddb3347be78","system_id":"levelo_inurba_marseille","lat":43.29007,"lon":5.38157,"is_reserved":false,"is_disabled":false,"rental_uris":{"android":"levelo://app?vid=6bb36a9f-067d-4eef-9d07-1ddb3347be78","ios":"levelo://app?vid=6bb36a9f-067d-4eef-9d07-1ddb3347be78"},"vehicle_type_id":"4","last_reported":1771350445,"current_range_meters":38000,"station_id":"ce4bh4p2rcd13ifvqe1g","pricing_plan_id":"cebpf4jnsgd1na2vs0mg"},{"bike_id":"6f566a9d-10ed-406d-af83-64e27e638094","system_id":"levelo_inurba_marseille","lat":43.301385,"lon":5.398817,"is_reserved":false,"is_disabled":false,"rental_uris":{"android":"levelo://app?vid=6f566a9d-10ed-406d-af83-64e27e638094","ios":"levelo://app?vid=6f566a9d-10ed-406d-af83-64e27e638094"},"vehicle_type_id":"4","last_reported":1771350445,"current_range_meters":4800,"station_id":"ce4bh0h2rcd13ifvqd40","pricing_plan_id":"cebpf4jnsgd1na2vs0mg"},{"bike_id":"b722cdad-f140-4670-8082-77ea6d1f7cc6","system_id":"levelo_inurba_marseille","lat":43.312621,"lon":5.368704,"is_reserved":false,"is_disabled":false,"rental_uris":{"android":"levelo://app?vid=b722cdad-f140-4670-8082-77ea6d1f7cc6","ios":"levelo://app?vid=b722cdad-f140-4670-8082-77ea6d1f7cc6"},"vehicle_type_id":"4","last_reported":1771350445,"current_range_meters":38000,"station_id":"ce4bgl92rcd13ifvqbq0","pricing_plan_id":"cebpf4jnsgd1na2vs0mg"},{"bike_id":"ececbe0e-0e34-4d8d-94e2-d6a8f1b03bbe","system_id":"levelo_inurba_marseille","lat":43.33158,"lon":5.37688,"is_reserved":false,"is_disabled":false,"rental_uris":{"android":"levelo://app?vid=ececbe0e-0e34-4d8d-94e2-d6a8f1b03bbe","ios":"levelo://app?vid=ececbe0e-0e34-4d8d-94e2-d6a8f1b03bbe"},"vehicle_type_id":"4","last_reported":1771350445,"current_range_meters":36800,"station_id":"st_d46cu089ee8s73dldbu0","pricing_plan_id":"cebpf4jnsgd1na2vs0mg"},{"bike_id":"d9414eea-4822-4c71-bae1-8fc190606b9b","system_id":"levelo_inurba_marseille","lat":43.28687,"lon":5.35509,"is_reserved":false,"is_disabled":true,"rental_uris":{"android":"levelo://app?vid=d9414eea-4822-4c71-bae1-8fc190606b9b","ios":"levelo://app?vid=d9414eea-4822-4c71-bae1-8fc190606b9b"},"vehicle_type_id":"4","last_reported":1771350445,"current_range_meters":38000,"station_id":"","pricing_plan_id":"cebpf4jnsgd1na2vs0mg"},{"bike_id":"67b88794-6d90-4499-904e-1df2f8d67263","system_id":"levelo_inurba_marseille","lat":43.30597,"lon":5.39358,"is_reserved":false,"is_disabled":false,"rental_uris":{"android":"levelo://app?vid=67b88794-6d90-4499-904e-1df2f8d67263","ios":"levelo://app?vid=67b88794-6d90-4499-904e-1df2f8d67263"},"vehicle_type_id":"4","last_reported":1771350445,"current_range_meters":6400,"station_id":"ce4bh0p2rcd13ifvqd80","pricing_plan_id":"cebpf4jnsgd1na2vs0mg"},{"bike_id":"fc522677-07d6-4e90-979c-17c8f21c8c74","system_id":"levelo_inurba_marseille","lat":43.29534,"lon":5.37514,"is_reserved":false,"is_disabled":false,"rental_uris":{"android":"levelo://app?vid=fc522677-07d6-4e90-979c-17c8f21c8c74","ios":"levelo://app?vid=fc522677-07d6-4e90-979c-17c8f21c8c74"},"vehicle_type_id":"4","last_reported":1771350445,"current_range_meters":9200,"station_id":"ce4bgkp2rcd13ifvqbmg","pricing_plan_id":"cebpf4jnsgd1na2vs0mg"},{"bike_id":"0b80e1be-8f2b-4513-82b3-2450c7c69a23","system_id":"levelo_inurba_marseille","lat":43.29146,"lon":5.37198,"is_reserved":false,"is_disabled":false,"rental_uris":{"android":"levelo://app?vid=0b80e1be-8f2b-4513-82b3-2450c7c69a23","ios":"levelo://app?vid=0b80e1be-8f2b-4513-82b3-2450c7c69a23"},"vehicle_type_id":"4","last_reported":1771350445,"current_range_meters":35200,"station_id":"ce4bha92rcd13ifvqeh0","pricing_plan_id":"cebpf4jnsgd1na2vs0mg"},{"bike_id":"4fffa687-113e-4c17-9149-88fa57491723","system_id":"levelo_inurba_marseille","lat":43.28612,"lon":5.35113,"is_reserved":false,"is_disabled":false,"rental_uris":{"android":"levelo://app?vid=4fffa687-113e-4c17-9149-88fa57491723","ios":"levelo://app?vid=4fffa687-113e-4c17-9149-88fa57491723"},"vehicle_type_id":"4","last_reported":1771350445,"current_range_meters":20000,"station_id":"ce4bhch2rcd13ifvqeug","pricing_plan_id":"cebpf4jnsgd1na2vs0mg"},{"bike_id":"e1973e49-c22d-4cfc-9fd1-01bb239b8af6","system_id":"levelo_inurba_marseille","lat":43.27466,"lon":5.42429,"is_reserved":false,"is_disabled":false,"rental_uris":{"android":"levelo://app?vid=e1973e49-c22d-4cfc-9fd1-01bb239b8af6","ios":"levelo://app?vid=e1973e49-c22d-4cfc-9fd1-01bb239b8af6"},"vehicle_type_id":"4","last_reported":1771350445,"current_range_meters":10800,"station_id":"ce4bhn92rcd13ifvqgrg","pricing_plan_id":"cebpf4jnsgd1na2vs0mg"},{"bike_id":"82cea78d-13cb-47cb-bf53-d4e236e14283","system_id":"levelo_inurba_marseille","lat":43.30209,"lon":5.39455,"is_reserved":false,"is_disabled":false,"rental_uris":{"android":"levelo://app?vid=82cea78d-13cb-47cb-bf53-d4e236e14283","ios":"levelo://app?vid=82cea78d-13cb-47cb-bf53-d4e236e14283"},"vehicle_type_id":"4","last_reported":1771350445,"current_range_meters":22800,"station_id":"ce4bh0p2rcd13ifvqd70","pricing_plan_id":"cebpf4jnsgd1na2vs0mg"},{"bike_id":"56c1ac30-00c3-4b7f-9cb7-9a2dcacdd7ae","system_id":"levelo_inurba_marseille","lat":43.30599,"lon":5.3722,"is_reserved":false,"is_disabled":false,"rental_uris":{"android":"levelo://app?vid=56c1ac30-00c3-4b7f-9cb7-9a2dcacdd7ae","ios":"levelo://app?vid=56c1ac30-00c3-4b7f-9cb7-9a2dcacdd7ae"},"vehicle_type_id":"4","last_reported":1771350445,"current_range_meters":38400,"station_id":"ce4bgqh2rcd13ifvqc4g","pricing_plan_id":"cebpf4jnsgd1na2vs0mg"},{"bike_id":"d97537ae-36ee-4f17-b523-a6c7d44c7ba4","system_id":"levelo_inurba_marseille","lat":43.28658,"lon":5.36361,"is_reserved":false,"is_disabled":false,"rental_uris":{"android":"levelo://app?vid=d97537ae-36ee-4f17-b523-a6c7d44c7ba4","ios":"levelo://app?vid=d97537ae-36ee-4f17-b523-a6c7d44c7ba4"},"vehicle_type_id":"4","last_reported":1771350445,"current_range_meters":38000,"station_id":"ce4bhah2rcd13ifvqej0","pricing_plan_id":"cebpf4jnsgd1na2vs0mg"},{"bike_id":"252b9549-a329-4719-8fa9-46cd4e11de92","system_id":"levelo_inurba_marseille","lat":43.30314,"lon":5.40276,"is_reserved":false,"is_disabled":false,"rental_uris":{"android":"levelo://app?vid=252b9549-a329-4719-8fa9-46cd4e11de92","ios":"levelo://app?vid=252b9549-a329-4719-8fa9-46cd4e11de92"},"vehicle_type_id":"4","last_reported":1771350445,"current_range_meters":11200,"station_id":"","pricing_plan_id":"cebpf4jnsgd1na2vs0mg"},{"bike_id":"19646293-cfd9-4b47-83b4-12ec7e7f9547","system_id":"levelo_inurba_marseille","lat":43.23049,"lon":5.35481,"is_reserved":false,"is_disabled":false,"rental_uris":{"android":"levelo://app?vid=19646293-cfd9-4b47-83b4-12ec7e7f9547","ios":"levelo://app?vid=19646293-cfd9-4b47-83b4-12ec7e7f9547"},"vehicle_type_id":"4","last_reported":1771350445,"current_range_meters":39200,"station_id":"cpo3342slgdg3j2ifvpg","pricing_plan_id":"cebpf4jnsgd1na2vs0mg"},{"bike_id":"014686fd-09ab-42de-a62c-7b88e3892335","system_id":"levelo_inurba_marseille","lat":43.30628,"lon":5.40077,"is_reserved":false,"is_disabled":false,"rental_uris":{"android":"levelo://app?vid=014686fd-09ab-42de-a62c-7b88e3892335","ios":"levelo://app?vid=014686fd-09ab-42de-a62c-7b88e3892335"},"vehicle_type_id":"4","last_reported":1771350445,"current_range_meters":3600,"station_id":"ce4bh112rcd13ifvqda0","pricing_plan_id":"cebpf4jnsgd1na2vs0mg"},{"bike_id":"2378b382-40a9-4c25-b5e5-863cfb124533","system_id":"levelo_inurba_marseille","lat":43.24808,"lon":5.37449,"is_reserved":false,"is_disabled":false,"rental_uris":{"android":"levelo://app?vid=2378b382-40a9-4c25-b5e5-863cfb124533","ios":"levelo://app?vid=2378b382-40a9-4c25-b5e5-863cfb124533"},"vehicle_type_id":"4","last_reported":1771350445,"current_range_meters":39200,"station_id":"ce4bhgh2rcd13ifvqfb0","pricing_plan_id":"cebpf4jnsgd1na2vs0mg"},{"bike_id":"806ea4e8-cc70-4baf-a5d9-7617dfd81486","system_id":"levelo_inurba_marseille","lat":43.313652,"lon":5.36703,"is_reserved":false,"is_disabled":true,"rental_uris":{"android":"levelo://app?vid=806ea4e8-cc70-4baf-a5d9-7617dfd81486","ios":"levelo://app?vid=806ea4e8-cc70-4baf-a5d9-7617dfd81486"},"vehicle_type_id":"4","last_reported":1771350445,"current_range_meters":30400,"station_id":"ce4bgrh2rcd13ifvqc8g","pricing_plan_id":"cebpf4jnsgd1na2vs0mg"},{"bike_id":"de65fd15-1dc1-45f5-85a2-1e28c1b651c0","system_id":"levelo_inurba_marseille","lat":43.2957,"lon":5.39969,"is_reserved":false,"is_disabled":false,"rental_uris":{"android":"levelo://app?vid=de65fd15-1dc1-45f5-85a2-1e28c1b651c0","ios":"levelo://app?vid=de65fd15-1dc1-45f5-85a2-1e28c1b651c0"},"vehicle_type_id":"4","last_reported":1771350445,"current_range_meters":26800,"station_id":"ce4bh312rcd13ifvqdj0","pricing_plan_id":"cebpf4jnsgd1na2vs0mg"},{"bike_id":"4ae54365-08a4-4214-90ef-eb3c127f344d","system_id":"levelo_inurba_marseille","lat":43.25123,"lon":5.40327,"is_reserved":false,"is_disabled":false,"rental_uris":{"android":"levelo://app?vid=4ae54365-08a4-4214-90ef-eb3c127f344d","ios":"levelo://app?vid=4ae54365-08a4-4214-90ef-eb3c127f344d"},"vehicle_type_id":"4","last_reported":1771350445,"current_range_meters":38800,"station_id":"ce4bhlh2rcd13ifvqgig","pricing_plan_id":"cebpf4jnsgd1na2vs0mg"},{"bike_id":"6ae2b3b6-ded8-4f46-9c9d-1d178f4b84c1","system_id":"levelo_inurba_marseille","lat":43.28406,"lon":5.349863,"is_reserved":false,"is_disabled":false,"rental_uris":{"android":"levelo://app?vid=6ae2b3b6-ded8-4f46-9c9d-1d178f4b84c1","ios":"levelo://app?vid=6ae2b3b6-ded8-4f46-9c9d-1d178f4b84c1"},"vehicle_type_id":"4","last_reported":1771350445,"current_range_meters":22000,"station_id":"ce4bhbh2rcd13ifvqepg","pricing_plan_id":"cebpf4jnsgd1na2vs0mg"},{"bike_id":"5cf34e17-6234-42d4-b0cc-647bc7c6ce27","system_id":"levelo_inurba_marseille","lat":43.31907,"lon":5.4074,"is_reserved":false,"is_disabled":false,"rental_uris":{"android":"levelo://app?vid=5cf34e17-6234-42d4-b0cc-647bc7c6ce27","ios":"levelo://app?vid=5cf34e17-6234-42d4-b0cc-647bc7c6ce27"},"vehicle_type_id":"4","last_reported":1771350445,"current_range_meters":40000,"station_id":"ce4bhq12rcd13ifvqhig","pricing_plan_id":"cebpf4jnsgd1na2vs0mg"},{"bike_id":"3cb2f482-1b8c-45a9-a4e3-71d42f7a25ff","system_id":"levelo_inurba_marseille","lat":43.26547,"lon":5.37284,"is_reserved":false,"is_disabled":false,"rental_uris":{"android":"levelo://app?vid=3cb2f482-1b8c-45a9-a4e3-71d42f7a25ff","ios":"levelo://app?vid=3cb2f482-1b8c-45a9-a4e3-71d42f7a25ff"},"vehicle_type_id":"4","last_reported":1771350445,"current_range_meters":19200,"station_id":"ce4bhg12rcd13ifvqf70","pricing_plan_id":"cebpf4jnsgd1na2vs0mg"},{"bike_id":"e2457b7a-b940-406e-a0fc-f2f92d564a16","system_id":"levelo_inurba_marseille","lat":43.29001,"lon":5.35604,"is_reserved":false,"is_disabled":false,"rental_uris":{"android":"levelo://app?vid=e2457b7a-b940-406e-a0fc-f2f92d564a16","ios":"levelo://app?vid=e2457b7a-b940-406e-a0fc-f2f92d564a16"},"vehicle_type_id":"4","last_reported":1771350445,"current_range_meters":29600,"station_id":"ce4bhb92rcd13ifvqen0","pricing_plan_id":"cebpf4jnsgd1na2vs0mg"},{"bike_id":"7f7fa670-c055-40ed-9361-529a04146c39","system_id":"levelo_inurba_marseille","lat":43.29034,"lon":5.38651,"is_reserved":false,"is_disabled":false,"rental_uris":{"android":"levelo://app?vid=7f7fa670-c055-40ed-9361-529a04146c39","ios":"levelo://app?vid=7f7fa670-c055-40ed-9361-529a04146c39"},"vehicle_type_id":"4","last_reported":1771350445,"current_range_meters":30400,"station_id":"ce4bh4p2rcd13ifvqe0g","pricing_plan_id":"cebpf4jnsgd1na2vs0mg"},{"bike_id":"4477481c-6ee7-4b64-a85c-b50b2241d99a","system_id":"levelo_inurba_marseille","lat":43.24393,"lon":5.3707,"is_reserved":false,"is_disabled":false,"rental_uris":{"android":"levelo://app?vid=4477481c-6ee7-4b64-a85c-b50b2241d99a","ios":"levelo://app?vid=4477481c-6ee7-4b64-a85c-b50b2241d99a"},"vehicle_type_id":"4","last_reported":1771350445,"current_range_meters":25200,"station_id":"ce4bhhh2rcd13ifvqfk0","pricing_plan_id":"cebpf4jnsgd1na2vs0mg"},{"bike_id":"110699dc-c15d-45d7-9ddf-24883bd1a642","system_id":"levelo_inurba_marseille","lat":43.28419,"lon":5.34987,"is_reserved":false,"is_disabled":false,"rental_uris":{"android":"levelo://app?vid=110699dc-c15d-45d7-9ddf-24883bd1a642","ios":"levelo://app?vid=110699dc-c15d-45d7-9ddf-24883bd1a642"},"vehicle_type_id":"4","last_reported":1771350445,"current_range_meters":38800,"station_id":"ce4bhbh2rcd13ifvqepg","pricing_plan_id":"cebpf4jnsgd1na2vs0mg"},{"bike_id":"8fd7d5e4-5e36-4277-b24d-f171cf14d05e","system_id":"levelo_inurba_marseille","lat":43.25947,"lon":5.40904,"is_reserved":false,"is_disabled":false,"rental_uris":{"android":"levelo://app?vid=8fd7d5e4-5e36-4277-b24d-f171cf14d05e","ios":"levelo://app?vid=8fd7d5e4-5e36-4277-b24d-f171cf14d05e"},"vehicle_type_id":"4","last_reported":1771350445,"current_range_meters":27600,"station_id":"ce4bhm92rcd13ifvqglg","pricing_plan_id":"cebpf4jnsgd1na2vs0mg"},{"bike_id":"d578db4d-e2b2-4237-b019-f3007e8be806","system_id":"levelo_inurba_marseille","lat":43.25579,"lon":5.3824,"is_reserved":false,"is_disabled":false,"rental_uris":{"android":"levelo://app?vid=d578db4d-e2b2-4237-b019-f3007e8be806","ios":"levelo://app?vid=d578db4d-e2b2-4237-b019-f3007e8be806"},"vehicle_type_id":"4","last_reported":1771350445,"current_range_meters":3200,"station_id":"ce4bhih2rcd13ifvqfs0","pricing_plan_id":"cebpf4jnsgd1na2vs0mg"},{"bike_id":"154563d7-c416-4fa7-a542-c2fa7f9eacbc","system_id":"levelo_inurba_marseille","lat":43.28482,"lon":5.48399,"is_reserved":false,"is_disabled":false,"rental_uris":{"android":"levelo://app?vid=154563d7-c416-4fa7-a542-c2fa7f9eacbc","ios":"levelo://app?vid=154563d7-c416-4fa7-a542-c2fa7f9eacbc"},"vehicle_type_id":"4","last_reported":1771350445,"current_range_meters":30400,"station_id":"","pricing_plan_id":"cebpf4jnsgd1na2vs0mg"},{"bike_id":"7d58deb0-d3df-4cba-b032-66e10c7a0925","system_id":"levelo_inurba_marseille","lat":43.24769,"lon":5.37472,"is_reserved":false,"is_disabled":false,"rental_uris":{"android":"levelo://app?vid=7d58deb0-d3df-4cba-b032-66e10c7a0925","ios":"levelo://app?vid=7d58deb0-d3df-4cba-b032-66e10c7a0925"},"vehicle_type_id":"4","last_reported":1771350445,"current_range_meters":24400,"station_id":"ce4bhgh2rcd13ifvqfb0","pricing_plan_id":"cebpf4jnsgd1na2vs0mg"},{"bike_id":"c0e6de11-b7cb-41d7-9636-2100cf12b773","system_id":"levelo_inurba_marseille","lat":43.30408,"lon":5.3782,"is_reserved":false,"is_disabled":false,"rental_uris":{"android":"levelo://app?vid=c0e6de11-b7cb-41d7-9636-2100cf12b773","ios":"levelo://app?vid=c0e6de11-b7cb-41d7-9636-2100cf12b773"},"vehicle_type_id":"4","last_reported":1771350445,"current_range_meters":15200,"station_id":"","pricing_plan_id":"cebpf4jnsgd1na2vs0mg"},{"bike_id":"b20b74a5-2b7e-49d3-ae44-1cf4c91f5db3","system_id":"levelo_inurba_marseille","lat":43.22558,"lon":5.41627,"is_reserved":false,"is_disabled":false,"rental_uris":{"android":"levelo://app?vid=b20b74a5-2b7e-49d3-ae44-1cf4c91f5db3","ios":"levelo://app?vid=b20b74a5-2b7e-49d3-ae44-1cf4c91f5db3"},"vehicle_type_id":"4","last_reported":1771350445,"current_range_meters":6000,"station_id":"st_d2o4gvlbi1j2169b742g","pricing_plan_id":"cebpf4jnsgd1na2vs0mg"},{"bike_id":"2e62e3c6-0b27-4130-bb68-0925f0a95e9a","system_id":"levelo_inurba_marseille","lat":43.27324,"lon":5.39091,"is_reserved":false,"is_disabled":true,"rental_uris":{"android":"levelo://app?vid=2e62e3c6-0b27-4130-bb68-0925f0a95e9a","ios":"levelo://app?vid=2e62e3c6-0b27-4130-bb68-0925f0a95e9a"},"vehicle_type_id":"4","last_reported":1771350445,"current_range_meters":33200,"station_id":"ce4bhgp2rcd13ifvqfe0","pricing_plan_id":"cebpf4jnsgd1na2vs0mg"},{"bike_id":"220cefcc-9413-4a04-8be2-d38b460fccf6","system_id":"levelo_inurba_marseille","lat":43.26476,"lon":5.39581,"is_reserved":false,"is_disabled":false,"rental_uris":{"android":"levelo://app?vid=220cefcc-9413-4a04-8be2-d38b460fccf6","ios":"levelo://app?vid=220cefcc-9413-4a04-8be2-d38b460fccf6"},"vehicle_type_id":"4","last_reported":1771350445,"current_range_meters":32400,"station_id":"ce4bhi12rcd13ifvqfq0","pricing_plan_id":"cebpf4jnsgd1na2vs0mg"},{"bike_id":"016e4389-a149-4190-8f7a-e29c62519426","system_id":"levelo_inurba_marseille","lat":43.3108,"lon":5.42427,"is_reserved":false,"is_disabled":false,"rental_uris":{"android":"levelo://app?vid=016e4389-a149-4190-8f7a-e29c62519426","ios":"levelo://app?vid=016e4389-a149-4190-8f7a-e29c62519426"},"vehicle_type_id":"4","last_reported":1771350445,"current_range_meters":24400,"station_id":"ce4bhp92rcd13ifvqhag","pricing_plan_id":"cebpf4jnsgd1na2vs0mg"},{"bike_id":"5468eb09-8d59-4915-a5b3-f072f7165ae6","system_id":"levelo_inurba_marseille","lat":43.304444,"lon":5.388896,"is_reserved":false,"is_disabled":false,"rental_uris":{"android":"levelo://app?vid=5468eb09-8d59-4915-a5b3-f072f7165ae6","ios":"levelo://app?vid=5468eb09-8d59-4915-a5b3-f072f7165ae6"},"vehicle_type_id":"4","last_reported":1771350445,"current_range_meters":19600,"station_id":"ce4bgk12rcd13ifvqbi0","pricing_plan_id":"cebpf4jnsgd1na2vs0mg"},{"bike_id":"d541d312-8957-468f-98f5-5438278aaf0a","system_id":"levelo_inurba_marseille","lat":43.30306,"lon":5.36886,"is_reserved":false,"is_disabled":false,"rental_uris":{"android":"levelo://app?vid=d541d312-8957-468f-98f5-5438278aaf0a","ios":"levelo://app?vid=d541d312-8957-468f-98f5-5438278aaf0a"},"vehicle_type_id":"4","last_reported":1771350445,"current_range_meters":22800,"station_id":"ce4bgqh2rcd13ifvqc5g","pricing_plan_id":"cebpf4jnsgd1na2vs0mg"},{"bike_id":"dcfc4996-4d68-4874-bf59-5ac226b21e31","system_id":"levelo_inurba_marseille","lat":43.29184,"lon":5.35782,"is_reserved":false,"is_disabled":false,"rental_uris":{"android":"levelo://app?vid=dcfc4996-4d68-4874-bf59-5ac226b21e31","ios":"levelo://app?vid=dcfc4996-4d68-4874-bf59-5ac226b21e31"},"vehicle_type_id":"4","last_reported":1771350445,"current_range_meters":37600,"station_id":"ce4bhb12rcd13ifvqel0","pricing_plan_id":"cebpf4jnsgd1na2vs0mg"},{"bike_id":"e9be978a-fe42-4e37-8c73-6b487f73cb3e","system_id":"levelo_inurba_marseille","lat":43.29601,"lon":5.381,"is_reserved":false,"is_disabled":false,"rental_uris":{"android":"levelo://app?vid=e9be978a-fe42-4e37-8c73-6b487f73cb3e","ios":"levelo://app?vid=e9be978a-fe42-4e37-8c73-6b487f73cb3e"},"vehicle_type_id":"4","last_reported":1771350445,"current_range_meters":35600,"station_id":"ce4bgl12rcd13ifvqbo0","pricing_plan_id":"cebpf4jnsgd1na2vs0mg"},{"bike_id":"94a8d388-1c91-4996-a003-85cbae6522ee","system_id":"levelo_inurba_marseille","lat":43.297343,"lon":5.376815,"is_reserved":false,"is_disabled":false,"rental_uris":{"android":"levelo://app?vid=94a8d388-1c91-4996-a003-85cbae6522ee","ios":"levelo://app?vid=94a8d388-1c91-4996-a003-85cbae6522ee"},"vehicle_type_id":"4","last_reported":1771350445,"current_range_meters":19600,"station_id":"ce4bgkh2rcd13ifvqbl0","pricing_plan_id":"cebpf4jnsgd1na2vs0mg"},{"bike_id":"d2caf9d8-1a11-4658-97a9-300561939203","system_id":"levelo_inurba_marseille","lat":43.22945,"lon":5.35399,"is_reserved":false,"is_disabled":false,"rental_uris":{"android":"levelo://app?vid=d2caf9d8-1a11-4658-97a9-300561939203","ios":"levelo://app?vid=d2caf9d8-1a11-4658-97a9-300561939203"},"vehicle_type_id":"4","last_reported":1771350445,"current_range_meters":36400,"station_id":"cpo3532slgdg3j2ikp40","pricing_plan_id":"cebpf4jnsgd1na2vs0mg"},{"bike_id":"bba2b92c-3990-4600-83cd-4fa3aa763df5","system_id":"levelo_inurba_marseille","lat":43.295537,"lon":5.4229,"is_reserved":false,"is_disabled":false,"rental_uris":{"android":"levelo://app?vid=bba2b92c-3990-4600-83cd-4fa3aa763df5","ios":"levelo://app?vid=bba2b92c-3990-4600-83cd-4fa3aa763df5"},"vehicle_type_id":"4","last_reported":1771350445,"current_range_meters":33200,"station_id":"ce4bhph2rcd13ifvqhdg","pricing_plan_id":"cebpf4jnsgd1na2vs0mg"},{"bike_id":"8af641e4-d82a-4077-979c-1f2ae4621f62","system_id":"levelo_inurba_marseille","lat":43.31059,"lon":5.37187,"is_reserved":false,"is_disabled":false,"rental_uris":{"android":"levelo://app?vid=8af641e4-d82a-4077-979c-1f2ae4621f62","ios":"levelo://app?vid=8af641e4-d82a-4077-979c-1f2ae4621f62"},"vehicle_type_id":"4","last_reported":1771350445,"current_range_meters":39200,"station_id":"st_d4kl2rp97mjs73e7tdfg","pricing_plan_id":"cebpf4jnsgd1na2vs0mg"},{"bike_id":"f31eb581-da52-4925-8974-e20c43185d16","system_id":"levelo_inurba_marseille","lat":43.26787,"lon":5.39409,"is_reserved":false,"is_disabled":false,"rental_uris":{"android":"levelo://app?vid=f31eb581-da52-4925-8974-e20c43185d16","ios":"levelo://app?vid=f31eb581-da52-4925-8974-e20c43185d16"},"vehicle_type_id":"4","last_reported":1771350445,"current_range_meters":36800,"station_id":"ce4bhh12rcd13ifvqfg0","pricing_plan_id":"cebpf4jnsgd1na2vs0mg"},{"bike_id":"2349831e-d7f9-4f31-a5d9-1fff72e9bf17","system_id":"levelo_inurba_marseille","lat":43.28721,"lon":5.36079,"is_reserved":false,"is_disabled":false,"rental_uris":{"android":"levelo://app?vid=2349831e-d7f9-4f31-a5d9-1fff72e9bf17","ios":"levelo://app?vid=2349831e-d7f9-4f31-a5d9-1fff72e9bf17"},"vehicle_type_id":"4","last_reported":1771350445,"current_range_meters":13600,"station_id":"cki0cbj6b192h4jlfktg","pricing_plan_id":"cebpf4jnsgd1na2vs0mg"},{"bike_id":"2fbc3363-f793-4fa9-a7b2-0da7f3ec6d22","system_id":"levelo_inurba_marseille","lat":43.26217,"lon":5.37477,"is_reserved":false,"is_disabled":false,"rental_uris":{"android":"levelo://app?vid=2fbc3363-f793-4fa9-a7b2-0da7f3ec6d22","ios":"levelo://app?vid=2fbc3363-f793-4fa9-a7b2-0da7f3ec6d22"},"vehicle_type_id":"4","last_reported":1771350445,"current_range_meters":38400,"station_id":"ce4bhgp2rcd13ifvqfc0","pricing_plan_id":"cebpf4jnsgd1na2vs0mg"},{"bike_id":"38c77bad-2974-430e-b0cc-cadbbf837617","system_id":"levelo_inurba_marseille","lat":43.284774,"lon":5.484008,"is_reserved":false,"is_disabled":false,"rental_uris":{"android":"levelo://app?vid=38c77bad-2974-430e-b0cc-cadbbf837617","ios":"levelo://app?vid=38c77bad-2974-430e-b0cc-cadbbf837617"},"vehicle_type_id":"4","last_reported":1771350445,"current_range_meters":17600,"station_id":"","pricing_plan_id":"cebpf4jnsgd1na2vs0mg"},{"bike_id":"827d142a-a626-40f5-b7d9-2ad4ece61dfc","system_id":"levelo_inurba_marseille","lat":43.28384,"lon":5.34981,"is_reserved":false,"is_disabled":false,"rental_uris":{"android":"levelo://app?vid=827d142a-a626-40f5-b7d9-2ad4ece61dfc","ios":"levelo://app?vid=827d142a-a626-40f5-b7d9-2ad4ece61dfc"},"vehicle_type_id":"4","last_reported":1771350445,"current_range_meters":20000,"station_id":"","pricing_plan_id":"cebpf4jnsgd1na2vs0mg"},{"bike_id":"58ec58a2-d76f-4337-afbd-c53a83287f42","system_id":"levelo_inurba_marseille","lat":43.281409,"lon":5.424862,"is_reserved":false,"is_disabled":false,"rental_uris":{"android":"levelo://app?vid=58ec58a2-d76f-4337-afbd-c53a83287f42","ios":"levelo://app?vid=58ec58a2-d76f-4337-afbd-c53a83287f42"},"vehicle_type_id":"4","last_reported":1771350445,"current_range_meters":39200,"station_id":"ce4bhnh2rcd13ifvqgug","pricing_plan_id":"cebpf4jnsgd1na2vs0mg"},{"bike_id":"6f8b96a7-23f9-4815-ad78-d93647a06dc5","system_id":"levelo_inurba_marseille","lat":43.305358,"lon":5.365455,"is_reserved":false,"is_disabled":false,"rental_uris":{"android":"levelo://app?vid=6f8b96a7-23f9-4815-ad78-d93647a06dc5","ios":"levelo://app?vid=6f8b96a7-23f9-4815-ad78-d93647a06dc5"},"vehicle_type_id":"4","last_reported":1771350445,"current_range_meters":32800,"station_id":"ce4bgs12rcd13ifvqcag","pricing_plan_id":"cebpf4jnsgd1na2vs0mg"},{"bike_id":"22d1bb3b-f1af-43f7-bfee-dba1d668695b","system_id":"levelo_inurba_marseille","lat":43.26563,"lon":5.38985,"is_reserved":false,"is_disabled":false,"rental_uris":{"android":"levelo://app?vid=22d1bb3b-f1af-43f7-bfee-dba1d668695b","ios":"levelo://app?vid=22d1bb3b-f1af-43f7-bfee-dba1d668695b"},"vehicle_type_id":"4","last_reported":1771350445,"current_range_meters":17200,"station_id":"ce4bhe12rcd13ifvqf30","pricing_plan_id":"cebpf4jnsgd1na2vs0mg"},{"bike_id":"ce40ea0b-0212-47b0-bb2b-9944b8cf5ae2","system_id":"levelo_inurba_marseille","lat":43.27667,"lon":5.38893,"is_reserved":false,"is_disabled":false,"rental_uris":{"android":"levelo://app?vid=ce40ea0b-0212-47b0-bb2b-9944b8cf5ae2","ios":"levelo://app?vid=ce40ea0b-0212-47b0-bb2b-9944b8cf5ae2"},"vehicle_type_id":"4","last_reported":1771350445,"current_range_meters":11200,"station_id":"ce4bhi12rcd13ifvqfo0","pricing_plan_id":"cebpf4jnsgd1na2vs0mg"},{"bike_id":"68274cbd-590c-45aa-9a28-61b725a4285b","system_id":"levelo_inurba_marseille","lat":43.2417,"lon":5.36389,"is_reserved":false,"is_disabled":true,"rental_uris":{"android":"levelo://app?vid=68274cbd-590c-45aa-9a28-61b725a4285b","ios":"levelo://app?vid=68274cbd-590c-45aa-9a28-61b725a4285b"},"vehicle_type_id":"4","last_reported":1771350445,"current_range_meters":22800,"station_id":"cpo36qri1sfpv3e86is0","pricing_plan_id":"cebpf4jnsgd1na2vs0mg"},{"bike_id":"48976bec-2fb1-4ae0-ab03-7197793fa6d6","system_id":"levelo_inurba_marseille","lat":43.27053,"lon":5.40254,"is_reserved":false,"is_disabled":false,"rental_uris":{"android":"levelo://app?vid=48976bec-2fb1-4ae0-ab03-7197793fa6d6","ios":"levelo://app?vid=48976bec-2fb1-4ae0-ab03-7197793fa6d6"},"vehicle_type_id":"4","last_reported":1771350445,"current_range_meters":17200,"station_id":"ce4bhk92rcd13ifvqgc0","pricing_plan_id":"cebpf4jnsgd1na2vs0mg"},{"bike_id":"6519ffcc-e63c-44b1-aec4-9b1a3b8e7dba","system_id":"levelo_inurba_marseille","lat":43.25588,"lon":5.38255,"is_reserved":false,"is_disabled":false,"rental_uris":{"android":"levelo://app?vid=6519ffcc-e63c-44b1-aec4-9b1a3b8e7dba","ios":"levelo://app?vid=6519ffcc-e63c-44b1-aec4-9b1a3b8e7dba"},"vehicle_type_id":"4","last_reported":1771350445,"current_range_meters":28800,"station_id":"ce4bhih2rcd13ifvqfs0","pricing_plan_id":"cebpf4jnsgd1na2vs0mg"},{"bike_id":"1ce24394-305c-4488-b178-aa7abf68971e","system_id":"levelo_inurba_marseille","lat":43.27385,"lon":5.36264,"is_reserved":false,"is_disabled":false,"rental_uris":{"android":"levelo://app?vid=1ce24394-305c-4488-b178-aa7abf68971e","ios":"levelo://app?vid=1ce24394-305c-4488-b178-aa7abf68971e"},"vehicle_type_id":"4","last_reported":1771350445,"current_range_meters":17200,"station_id":"ce4bhbh2rcd13ifvqeo0","pricing_plan_id":"cebpf4jnsgd1na2vs0mg"},{"bike_id":"62fa60e4-871f-4c91-8a1a-bd1faf4d3dcb","system_id":"levelo_inurba_marseille","lat":43.29518,"lon":5.37513,"is_reserved":false,"is_disabled":false,"rental_uris":{"android":"levelo://app?vid=62fa60e4-871f-4c91-8a1a-bd1faf4d3dcb","ios":"levelo://app?vid=62fa60e4-871f-4c91-8a1a-bd1faf4d3dcb"},"vehicle_type_id":"4","last_reported":1771350445,"current_range_meters":23200,"station_id":"ce4bgkp2rcd13ifvqbmg","pricing_plan_id":"cebpf4jnsgd1na2vs0mg"},{"bike_id":"d86398ff-c6db-4f62-8773-be3d0fa39f5c","system_id":"levelo_inurba_marseille","lat":43.25823,"lon":5.39439,"is_reserved":false,"is_disabled":false,"rental_uris":{"android":"levelo://app?vid=d86398ff-c6db-4f62-8773-be3d0fa39f5c","ios":"levelo://app?vid=d86398ff-c6db-4f62-8773-be3d0fa39f5c"},"vehicle_type_id":"4","last_reported":1771350445,"current_range_meters":29600,"station_id":"ce4bhip2rcd13ifvqft0","pricing_plan_id":"cebpf4jnsgd1na2vs0mg"},{"bike_id":"43ee0588-c27a-4ccf-a93d-19fae64c8940","system_id":"levelo_inurba_marseille","lat":43.26064,"lon":5.39407,"is_reserved":false,"is_disabled":false,"rental_uris":{"android":"levelo://app?vid=43ee0588-c27a-4ccf-a93d-19fae64c8940","ios":"levelo://app?vid=43ee0588-c27a-4ccf-a93d-19fae64c8940"},"vehicle_type_id":"4","last_reported":1771350445,"current_range_meters":39200,"station_id":"ce4bhh92rcd13ifvqfj0","pricing_plan_id":"cebpf4jnsgd1na2vs0mg"},{"bike_id":"51856490-b1ea-41ec-b7e3-1417d88d36a2","system_id":"levelo_inurba_marseille","lat":43.25087,"lon":5.39525,"is_reserved":false,"is_disabled":false,"rental_uris":{"android":"levelo://app?vid=51856490-b1ea-41ec-b7e3-1417d88d36a2","ios":"levelo://app?vid=51856490-b1ea-41ec-b7e3-1417d88d36a2"},"vehicle_type_id":"4","last_reported":1771350445,"current_range_meters":35600,"station_id":"ce4bhm12rcd13ifvqgkg","pricing_plan_id":"cebpf4jnsgd1na2vs0mg"},{"bike_id":"e9991c87-6785-4dbb-814f-912667b2e07d","system_id":"levelo_inurba_marseille","lat":43.27067,"lon":5.42275,"is_reserved":false,"is_disabled":false,"rental_uris":{"android":"levelo://app?vid=e9991c87-6785-4dbb-814f-912667b2e07d","ios":"levelo://app?vid=e9991c87-6785-4dbb-814f-912667b2e07d"},"vehicle_type_id":"4","last_reported":1771350445,"current_range_meters":28800,"station_id":"ce4bhk92rcd13ifvqgb0","pricing_plan_id":"cebpf4jnsgd1na2vs0mg"},{"bike_id":"62c4ee00-00d3-4573-89db-bcd49a4e4fd7","system_id":"levelo_inurba_marseille","lat":43.27072,"lon":5.422802,"is_reserved":false,"is_disabled":false,"rental_uris":{"android":"levelo://app?vid=62c4ee00-00d3-4573-89db-bcd49a4e4fd7","ios":"levelo://app?vid=62c4ee00-00d3-4573-89db-bcd49a4e4fd7"},"vehicle_type_id":"4","last_reported":1771350445,"current_range_meters":36000,"station_id":"ce4bhk92rcd13ifvqgb0","pricing_plan_id":"cebpf4jnsgd1na2vs0mg"},{"bike_id":"eee86da4-3e34-439e-b8c9-f79c4c504015","system_id":"levelo_inurba_marseille","lat":43.29558,"lon":5.37519,"is_reserved":false,"is_disabled":false,"rental_uris":{"android":"levelo://app?vid=eee86da4-3e34-439e-b8c9-f79c4c504015","ios":"levelo://app?vid=eee86da4-3e34-439e-b8c9-f79c4c504015"},"vehicle_type_id":"4","last_reported":1771350445,"current_range_meters":27600,"station_id":"ce4bgh92rcd13ifvqb50","pricing_plan_id":"cebpf4jnsgd1na2vs0mg"},{"bike_id":"dc37f397-e1a0-4158-913f-96a85ffff3c7","system_id":"levelo_inurba_marseille","lat":43.29294,"lon":5.37457,"is_reserved":false,"is_disabled":false,"rental_uris":{"android":"levelo://app?vid=dc37f397-e1a0-4158-913f-96a85ffff3c7","ios":"levelo://app?vid=dc37f397-e1a0-4158-913f-96a85ffff3c7"},"vehicle_type_id":"4","last_reported":1771350445,"current_range_meters":33600,"station_id":"ce4bgi12rcd13ifvqb70","pricing_plan_id":"cebpf4jnsgd1na2vs0mg"},{"bike_id":"ae3605a2-c5dd-42e4-ad1a-571c2d29e2ce","system_id":"levelo_inurba_marseille","lat":43.287462,"lon":5.363581,"is_reserved":false,"is_disabled":false,"rental_uris":{"android":"levelo://app?vid=ae3605a2-c5dd-42e4-ad1a-571c2d29e2ce","ios":"levelo://app?vid=ae3605a2-c5dd-42e4-ad1a-571c2d29e2ce"},"vehicle_type_id":"4","last_reported":1771350445,"current_range_meters":6800,"station_id":"ce4bhah2rcd13ifvqej0","pricing_plan_id":"cebpf4jnsgd1na2vs0mg"},{"bike_id":"0cfceae5-a32b-4c1f-b802-b5e4660a01e1","system_id":"levelo_inurba_marseille","lat":43.28871,"lon":5.35856,"is_reserved":false,"is_disabled":false,"rental_uris":{"android":"levelo://app?vid=0cfceae5-a32b-4c1f-b802-b5e4660a01e1","ios":"levelo://app?vid=0cfceae5-a32b-4c1f-b802-b5e4660a01e1"},"vehicle_type_id":"4","last_reported":1771350445,"current_range_meters":37600,"station_id":"ce4bhb12rcd13ifvqem0","pricing_plan_id":"cebpf4jnsgd1na2vs0mg"},{"bike_id":"4beb363b-dcf4-4217-8db8-34031ffa11b0","system_id":"levelo_inurba_marseille","lat":43.30139,"lon":5.38082,"is_reserved":false,"is_disabled":false,"rental_uris":{"android":"levelo://app?vid=4beb363b-dcf4-4217-8db8-34031ffa11b0","ios":"levelo://app?vid=4beb363b-dcf4-4217-8db8-34031ffa11b0"},"vehicle_type_id":"4","last_reported":1771350445,"current_range_meters":19600,"station_id":"ce4bgjp2rcd13ifvqbh0","pricing_plan_id":"cebpf4jnsgd1na2vs0mg"},{"bike_id":"6874a728-2036-45e6-b6c2-69ff6fd8b41b","system_id":"levelo_inurba_marseille","lat":43.264969,"lon":5.395401,"is_reserved":false,"is_disabled":false,"rental_uris":{"android":"levelo://app?vid=6874a728-2036-45e6-b6c2-69ff6fd8b41b","ios":"levelo://app?vid=6874a728-2036-45e6-b6c2-69ff6fd8b41b"},"vehicle_type_id":"4","last_reported":1771350445,"current_range_meters":17600,"station_id":"ce4bhi12rcd13ifvqfq0","pricing_plan_id":"cebpf4jnsgd1na2vs0mg"},{"bike_id":"c17f44cd-8a4b-4c4e-90da-1b538fcc39f6","system_id":"levelo_inurba_marseille","lat":43.297003,"lon":5.376916,"is_reserved":false,"is_disabled":false,"rental_uris":{"android":"levelo://app?vid=c17f44cd-8a4b-4c4e-90da-1b538fcc39f6","ios":"levelo://app?vid=c17f44cd-8a4b-4c4e-90da-1b538fcc39f6"},"vehicle_type_id":"4","last_reported":1771350445,"current_range_meters":33600,"station_id":"ce4bh4p2rcd13ifvqe1g","pricing_plan_id":"cebpf4jnsgd1na2vs0mg"},{"bike_id":"5c72476a-9212-4c44-ab1d-c5117cf2ed5f","system_id":"levelo_inurba_marseille","lat":43.33544,"lon":5.37468,"is_reserved":false,"is_disabled":false,"rental_uris":{"android":"levelo://app?vid=5c72476a-9212-4c44-ab1d-c5117cf2ed5f","ios":"levelo://app?vid=5c72476a-9212-4c44-ab1d-c5117cf2ed5f"},"vehicle_type_id":"4","last_reported":1771350445,"current_range_meters":27600,"station_id":"st_d46tts09ee8s73dlu43g","pricing_plan_id":"cebpf4jnsgd1na2vs0mg"},{"bike_id":"dbdd8196-53c1-4d97-97e1-f913d3089af2","system_id":"levelo_inurba_marseille","lat":43.29029,"lon":5.38638,"is_reserved":false,"is_disabled":false,"rental_uris":{"android":"levelo://app?vid=dbdd8196-53c1-4d97-97e1-f913d3089af2","ios":"levelo://app?vid=dbdd8196-53c1-4d97-97e1-f913d3089af2"},"vehicle_type_id":"4","last_reported":1771350445,"current_range_meters":14400,"station_id":"ce4bh4p2rcd13ifvqe0g","pricing_plan_id":"cebpf4jnsgd1na2vs0mg"},{"bike_id":"fc01cc9d-533a-4c48-813b-04abe2bf0ba6","system_id":"levelo_inurba_marseille","lat":43.29754,"lon":5.42788,"is_reserved":false,"is_disabled":false,"rental_uris":{"android":"levelo://app?vid=fc01cc9d-533a-4c48-813b-04abe2bf0ba6","ios":"levelo://app?vid=fc01cc9d-533a-4c48-813b-04abe2bf0ba6"},"vehicle_type_id":"4","last_reported":1771350445,"current_range_meters":35200,"station_id":"st_d3md5207bmas73dh9klg","pricing_plan_id":"cebpf4jnsgd1na2vs0mg"},{"bike_id":"24e98e5d-096e-4b5b-a836-ec8cf23bd5a0","system_id":"levelo_inurba_marseille","lat":43.248122,"lon":5.374601,"is_reserved":false,"is_disabled":false,"rental_uris":{"android":"levelo://app?vid=24e98e5d-096e-4b5b-a836-ec8cf23bd5a0","ios":"levelo://app?vid=24e98e5d-096e-4b5b-a836-ec8cf23bd5a0"},"vehicle_type_id":"4","last_reported":1771350445,"current_range_meters":23200,"station_id":"ce4bhgh2rcd13ifvqfb0","pricing_plan_id":"cebpf4jnsgd1na2vs0mg"},{"bike_id":"88154445-c431-462f-8428-0fdfe7013aae","system_id":"levelo_inurba_marseille","lat":43.27374,"lon":5.36248,"is_reserved":false,"is_disabled":false,"rental_uris":{"android":"levelo://app?vid=88154445-c431-462f-8428-0fdfe7013aae","ios":"levelo://app?vid=88154445-c431-462f-8428-0fdfe7013aae"},"vehicle_type_id":"4","last_reported":1771350445,"current_range_meters":39200,"station_id":"ce4bhbh2rcd13ifvqeo0","pricing_plan_id":"cebpf4jnsgd1na2vs0mg"},{"bike_id":"37a0928e-089e-4ada-908a-e9f1c360e895","system_id":"levelo_inurba_marseille","lat":43.29932,"lon":5.36527,"is_reserved":false,"is_disabled":false,"rental_uris":{"android":"levelo://app?vid=37a0928e-089e-4ada-908a-e9f1c360e895","ios":"levelo://app?vid=37a0928e-089e-4ada-908a-e9f1c360e895"},"vehicle_type_id":"4","last_reported":1771350445,"current_range_meters":24400,"station_id":"ce4bgm92rcd13ifvqbr0","pricing_plan_id":"cebpf4jnsgd1na2vs0mg"},{"bike_id":"819da65f-4600-4ae7-b59f-7223a1bca979","system_id":"levelo_inurba_marseille","lat":43.24806,"lon":5.37449,"is_reserved":false,"is_disabled":false,"rental_uris":{"android":"levelo://app?vid=819da65f-4600-4ae7-b59f-7223a1bca979","ios":"levelo://app?vid=819da65f-4600-4ae7-b59f-7223a1bca979"},"vehicle_type_id":"4","last_reported":1771350445,"current_range_meters":40000,"station_id":"ce4bhgh2rcd13ifvqfb0","pricing_plan_id":"cebpf4jnsgd1na2vs0mg"},{"bike_id":"c6b89208-df95-4016-b6a6-e7860bb27cba","system_id":"levelo_inurba_marseille","lat":43.33548,"lon":5.37467,"is_reserved":false,"is_disabled":false,"rental_uris":{"android":"levelo://app?vid=c6b89208-df95-4016-b6a6-e7860bb27cba","ios":"levelo://app?vid=c6b89208-df95-4016-b6a6-e7860bb27cba"},"vehicle_type_id":"4","last_reported":1771350445,"current_range_meters":28000,"station_id":"st_d46tts09ee8s73dlu43g","pricing_plan_id":"cebpf4jnsgd1na2vs0mg"},{"bike_id":"5f683831-51df-4314-889a-b592e44e840f","system_id":"levelo_inurba_marseille","lat":43.31367,"lon":5.3849,"is_reserved":false,"is_disabled":false,"rental_uris":{"android":"levelo://app?vid=5f683831-51df-4314-889a-b592e44e840f","ios":"levelo://app?vid=5f683831-51df-4314-889a-b592e44e840f"},"vehicle_type_id":"4","last_reported":1771350445,"current_range_meters":16400,"station_id":"ce4bgt92rcd13ifvqcf0","pricing_plan_id":"cebpf4jnsgd1na2vs0mg"},{"bike_id":"cba59a9d-c58d-4a67-a69b-b0c3f03357f2","system_id":"levelo_inurba_marseille","lat":43.33125,"lon":5.39271,"is_reserved":false,"is_disabled":false,"rental_uris":{"android":"levelo://app?vid=cba59a9d-c58d-4a67-a69b-b0c3f03357f2","ios":"levelo://app?vid=cba59a9d-c58d-4a67-a69b-b0c3f03357f2"},"vehicle_type_id":"4","last_reported":1771350445,"current_range_meters":20000,"station_id":"","pricing_plan_id":"cebpf4jnsgd1na2vs0mg"},{"bike_id":"0d56c936-b384-4851-bbb5-943b49818f15","system_id":"levelo_inurba_marseille","lat":43.28628,"lon":5.35099,"is_reserved":false,"is_disabled":false,"rental_uris":{"android":"levelo://app?vid=0d56c936-b384-4851-bbb5-943b49818f15","ios":"levelo://app?vid=0d56c936-b384-4851-bbb5-943b49818f15"},"vehicle_type_id":"4","last_reported":1771350445,"current_range_meters":11200,"station_id":"ce4bhch2rcd13ifvqeug","pricing_plan_id":"cebpf4jnsgd1na2vs0mg"},{"bike_id":"37e06210-33d1-49b6-b4b7-edff021bda30","system_id":"levelo_inurba_marseille","lat":43.32069,"lon":5.36718,"is_reserved":false,"is_disabled":false,"rental_uris":{"android":"levelo://app?vid=37e06210-33d1-49b6-b4b7-edff021bda30","ios":"levelo://app?vid=37e06210-33d1-49b6-b4b7-edff021bda30"},"vehicle_type_id":"4","last_reported":1771350445,"current_range_meters":22400,"station_id":"ce4bhrh2rcd13ifvqhug","pricing_plan_id":"cebpf4jnsgd1na2vs0mg"},{"bike_id":"6e31aed5-b016-4873-b3e5-55d6cf695abd","system_id":"levelo_inurba_marseille","lat":43.26944,"lon":5.3865,"is_reserved":false,"is_disabled":false,"rental_uris":{"android":"levelo://app?vid=6e31aed5-b016-4873-b3e5-55d6cf695abd","ios":"levelo://app?vid=6e31aed5-b016-4873-b3e5-55d6cf695abd"},"vehicle_type_id":"4","last_reported":1771350445,"current_range_meters":16800,"station_id":"ce4bhh92rcd13ifvqfh0","pricing_plan_id":"cebpf4jnsgd1na2vs0mg"},{"bike_id":"f656897a-360c-42f3-b402-80df1a5de904","system_id":"levelo_inurba_marseille","lat":43.26546,"lon":5.3729,"is_reserved":false,"is_disabled":false,"rental_uris":{"android":"levelo://app?vid=f656897a-360c-42f3-b402-80df1a5de904","ios":"levelo://app?vid=f656897a-360c-42f3-b402-80df1a5de904"},"vehicle_type_id":"4","last_reported":1771350445,"current_range_meters":6800,"station_id":"ce4bhg12rcd13ifvqf70","pricing_plan_id":"cebpf4jnsgd1na2vs0mg"},{"bike_id":"ec723023-d52e-4e05-836a-9da1981ac6c3","system_id":"levelo_inurba_marseille","lat":43.28616,"lon":5.35105,"is_reserved":false,"is_disabled":false,"rental_uris":{"android":"levelo://app?vid=ec723023-d52e-4e05-836a-9da1981ac6c3","ios":"levelo://app?vid=ec723023-d52e-4e05-836a-9da1981ac6c3"},"vehicle_type_id":"4","last_reported":1771350445,"current_range_meters":36400,"station_id":"ce4bhch2rcd13ifvqeug","pricing_plan_id":"cebpf4jnsgd1na2vs0mg"},{"bike_id":"48225f1b-4a1f-444a-b556-96d906634ea3","system_id":"levelo_inurba_marseille","lat":43.24396,"lon":5.37072,"is_reserved":false,"is_disabled":false,"rental_uris":{"android":"levelo://app?vid=48225f1b-4a1f-444a-b556-96d906634ea3","ios":"levelo://app?vid=48225f1b-4a1f-444a-b556-96d906634ea3"},"vehicle_type_id":"4","last_reported":1771350445,"current_range_meters":32400,"station_id":"ce4bhhh2rcd13ifvqfk0","pricing_plan_id":"cebpf4jnsgd1na2vs0mg"},{"bike_id":"2a84dada-a119-4dd5-a0a1-9644ad5b9ada","system_id":"levelo_inurba_marseille","lat":43.23965,"lon":5.36649,"is_reserved":false,"is_disabled":false,"rental_uris":{"android":"levelo://app?vid=2a84dada-a119-4dd5-a0a1-9644ad5b9ada","ios":"levelo://app?vid=2a84dada-a119-4dd5-a0a1-9644ad5b9ada"},"vehicle_type_id":"4","last_reported":1771350445,"current_range_meters":3600,"station_id":"ce4bhi12rcd13ifvqfp0","pricing_plan_id":"cebpf4jnsgd1na2vs0mg"},{"bike_id":"979867e6-f531-4279-b2b8-099588a9201e","system_id":"levelo_inurba_marseille","lat":43.25082,"lon":5.39504,"is_reserved":false,"is_disabled":false,"rental_uris":{"android":"levelo://app?vid=979867e6-f531-4279-b2b8-099588a9201e","ios":"levelo://app?vid=979867e6-f531-4279-b2b8-099588a9201e"},"vehicle_type_id":"4","last_reported":1771350445,"current_range_meters":4400,"station_id":"ce4bhm12rcd13ifvqgkg","pricing_plan_id":"cebpf4jnsgd1na2vs0mg"},{"bike_id":"ad6d85d6-789c-4fb5-b702-1313a4cd817f","system_id":"levelo_inurba_marseille","lat":43.33536,"lon":5.37457,"is_reserved":false,"is_disabled":false,"rental_uris":{"android":"levelo://app?vid=ad6d85d6-789c-4fb5-b702-1313a4cd817f","ios":"levelo://app?vid=ad6d85d6-789c-4fb5-b702-1313a4cd817f"},"vehicle_type_id":"4","last_reported":1771350445,"current_range_meters":17200,"station_id":"st_d46tts09ee8s73dlu43g","pricing_plan_id":"cebpf4jnsgd1na2vs0mg"},{"bike_id":"2205f806-2b4e-4d2e-9a52-ff5479da41b9","system_id":"levelo_inurba_marseille","lat":43.2293,"lon":5.35377,"is_reserved":false,"is_disabled":false,"rental_uris":{"android":"levelo://app?vid=2205f806-2b4e-4d2e-9a52-ff5479da41b9","ios":"levelo://app?vid=2205f806-2b4e-4d2e-9a52-ff5479da41b9"},"vehicle_type_id":"4","last_reported":1771350445,"current_range_meters":13600,"station_id":"cpo3532slgdg3j2ikp40","pricing_plan_id":"cebpf4jnsgd1na2vs0mg"},{"bike_id":"4ba95c3b-c026-4c62-8562-d1a9d931cdb5","system_id":"levelo_inurba_marseille","lat":43.253355,"lon":5.421643,"is_reserved":false,"is_disabled":false,"rental_uris":{"android":"levelo://app?vid=4ba95c3b-c026-4c62-8562-d1a9d931cdb5","ios":"levelo://app?vid=4ba95c3b-c026-4c62-8562-d1a9d931cdb5"},"vehicle_type_id":"4","last_reported":1771350445,"current_range_meters":28000,"station_id":"st_d2m65c5bi1j21697t3ng","pricing_plan_id":"cebpf4jnsgd1na2vs0mg"},{"bike_id":"36f301fb-c160-4225-9a43-f57e64075002","system_id":"levelo_inurba_marseille","lat":43.305502,"lon":5.365259,"is_reserved":false,"is_disabled":false,"rental_uris":{"android":"levelo://app?vid=36f301fb-c160-4225-9a43-f57e64075002","ios":"levelo://app?vid=36f301fb-c160-4225-9a43-f57e64075002"},"vehicle_type_id":"4","last_reported":1771350445,"current_range_meters":12800,"station_id":"ce4bgs12rcd13ifvqcag","pricing_plan_id":"cebpf4jnsgd1na2vs0mg"},{"bike_id":"99ec35f0-e147-4ca4-ac89-90348b5d45a6","system_id":"levelo_inurba_marseille","lat":43.231937,"lon":5.355522,"is_reserved":false,"is_disabled":false,"rental_uris":{"android":"levelo://app?vid=99ec35f0-e147-4ca4-ac89-90348b5d45a6","ios":"levelo://app?vid=99ec35f0-e147-4ca4-ac89-90348b5d45a6"},"vehicle_type_id":"4","last_reported":1771350445,"current_range_meters":8800,"station_id":"ce4bhu92rcd13ifvqi70","pricing_plan_id":"cebpf4jnsgd1na2vs0mg"},{"bike_id":"85f01765-5f38-432e-984a-21b4c8ec9fb7","system_id":"levelo_inurba_marseille","lat":43.29978,"lon":5.38498,"is_reserved":false,"is_disabled":false,"rental_uris":{"android":"levelo://app?vid=85f01765-5f38-432e-984a-21b4c8ec9fb7","ios":"levelo://app?vid=85f01765-5f38-432e-984a-21b4c8ec9fb7"},"vehicle_type_id":"4","last_reported":1771350445,"current_range_meters":28000,"station_id":"ce4bgj92rcd13ifvqbd0","pricing_plan_id":"cebpf4jnsgd1na2vs0mg"},{"bike_id":"3b4af1bd-7155-46cc-bbe4-71c75df76dd2","system_id":"levelo_inurba_marseille","lat":43.25736,"lon":5.41084,"is_reserved":false,"is_disabled":false,"rental_uris":{"android":"levelo://app?vid=3b4af1bd-7155-46cc-bbe4-71c75df76dd2","ios":"levelo://app?vid=3b4af1bd-7155-46cc-bbe4-71c75df76dd2"},"vehicle_type_id":"4","last_reported":1771350445,"current_range_meters":30400,"station_id":"ce4bhkp2rcd13ifvqgd0","pricing_plan_id":"cebpf4jnsgd1na2vs0mg"},{"bike_id":"46f832db-6db1-4193-9443-e88fffb4a52a","system_id":"levelo_inurba_marseille","lat":43.30934,"lon":5.40137,"is_reserved":false,"is_disabled":false,"rental_uris":{"android":"levelo://app?vid=46f832db-6db1-4193-9443-e88fffb4a52a","ios":"levelo://app?vid=46f832db-6db1-4193-9443-e88fffb4a52a"},"vehicle_type_id":"4","last_reported":1771350445,"current_range_meters":27200,"station_id":"ce4bgvp2rcd13ifvqct0","pricing_plan_id":"cebpf4jnsgd1na2vs0mg"},{"bike_id":"1697b585-2eb3-4220-8ca9-885292fe1b8f","system_id":"levelo_inurba_marseille","lat":43.30329,"lon":5.369,"is_reserved":false,"is_disabled":false,"rental_uris":{"android":"levelo://app?vid=1697b585-2eb3-4220-8ca9-885292fe1b8f","ios":"levelo://app?vid=1697b585-2eb3-4220-8ca9-885292fe1b8f"},"vehicle_type_id":"4","last_reported":1771350445,"current_range_meters":34000,"station_id":"ce4bgqh2rcd13ifvqc5g","pricing_plan_id":"cebpf4jnsgd1na2vs0mg"},{"bike_id":"cff4a59b-4a5f-4b9f-813d-63f325141d2d","system_id":"levelo_inurba_marseille","lat":43.24948,"lon":5.40484,"is_reserved":false,"is_disabled":false,"rental_uris":{"android":"levelo://app?vid=cff4a59b-4a5f-4b9f-813d-63f325141d2d","ios":"levelo://app?vid=cff4a59b-4a5f-4b9f-813d-63f325141d2d"},"vehicle_type_id":"4","last_reported":1771350445,"current_range_meters":28000,"station_id":"st_d2ngiaodas8pm72gd1h0","pricing_plan_id":"cebpf4jnsgd1na2vs0mg"},{"bike_id":"d800483e-e4b5-4dba-b8af-f5caf11048b6","system_id":"levelo_inurba_marseille","lat":43.29811,"lon":5.44045,"is_reserved":false,"is_disabled":false,"rental_uris":{"android":"levelo://app?vid=d800483e-e4b5-4dba-b8af-f5caf11048b6","ios":"levelo://app?vid=d800483e-e4b5-4dba-b8af-f5caf11048b6"},"vehicle_type_id":"4","last_reported":1771350445,"current_range_meters":26800,"station_id":"st_d3jp68qikq2c7381ktn0","pricing_plan_id":"cebpf4jnsgd1na2vs0mg"},{"bike_id":"c4a9c1ba-c1be-4185-8c96-245e91ee0f36","system_id":"levelo_inurba_marseille","lat":43.29004,"lon":5.3562,"is_reserved":false,"is_disabled":false,"rental_uris":{"android":"levelo://app?vid=c4a9c1ba-c1be-4185-8c96-245e91ee0f36","ios":"levelo://app?vid=c4a9c1ba-c1be-4185-8c96-245e91ee0f36"},"vehicle_type_id":"4","last_reported":1771350445,"current_range_meters":26000,"station_id":"ce4bhb92rcd13ifvqen0","pricing_plan_id":"cebpf4jnsgd1na2vs0mg"},{"bike_id":"c18896dc-dcd6-4005-80ac-fa6ffb39ee8f","system_id":"levelo_inurba_marseille","lat":43.27052,"lon":5.40269,"is_reserved":false,"is_disabled":true,"rental_uris":{"android":"levelo://app?vid=c18896dc-dcd6-4005-80ac-fa6ffb39ee8f","ios":"levelo://app?vid=c18896dc-dcd6-4005-80ac-fa6ffb39ee8f"},"vehicle_type_id":"4","last_reported":1771350445,"current_range_meters":33200,"station_id":"ce4bhk92rcd13ifvqgc0","pricing_plan_id":"cebpf4jnsgd1na2vs0mg"},{"bike_id":"b169e6eb-033b-4974-be3c-c56e17bad045","system_id":"levelo_inurba_marseille","lat":43.25916,"lon":5.40878,"is_reserved":false,"is_disabled":false,"rental_uris":{"android":"levelo://app?vid=b169e6eb-033b-4974-be3c-c56e17bad045","ios":"levelo://app?vid=b169e6eb-033b-4974-be3c-c56e17bad045"},"vehicle_type_id":"4","last_reported":1771350445,"current_range_meters":39200,"station_id":"ce4bhm92rcd13ifvqglg","pricing_plan_id":"cebpf4jnsgd1na2vs0mg"},{"bike_id":"bd7ab447-da9f-4a0e-a8cf-f8397aa89d64","system_id":"levelo_inurba_marseille","lat":43.29541,"lon":5.37488,"is_reserved":false,"is_disabled":false,"rental_uris":{"android":"levelo://app?vid=bd7ab447-da9f-4a0e-a8cf-f8397aa89d64","ios":"levelo://app?vid=bd7ab447-da9f-4a0e-a8cf-f8397aa89d64"},"vehicle_type_id":"4","last_reported":1771350445,"current_range_meters":24400,"station_id":"ce4bgkp2rcd13ifvqbmg","pricing_plan_id":"cebpf4jnsgd1na2vs0mg"},{"bike_id":"2b1befc2-0ba6-464c-a4ec-a41a31074438","system_id":"levelo_inurba_marseille","lat":43.30911,"lon":5.36845,"is_reserved":false,"is_disabled":false,"rental_uris":{"android":"levelo://app?vid=2b1befc2-0ba6-464c-a4ec-a41a31074438","ios":"levelo://app?vid=2b1befc2-0ba6-464c-a4ec-a41a31074438"},"vehicle_type_id":"4","last_reported":1771350445,"current_range_meters":27200,"station_id":"ce4bgn92rcd13ifvqbvg","pricing_plan_id":"cebpf4jnsgd1na2vs0mg"},{"bike_id":"fafd63cc-2841-4f45-9878-ea3ea32210ac","system_id":"levelo_inurba_marseille","lat":43.29573,"lon":5.43928,"is_reserved":false,"is_disabled":false,"rental_uris":{"android":"levelo://app?vid=fafd63cc-2841-4f45-9878-ea3ea32210ac","ios":"levelo://app?vid=fafd63cc-2841-4f45-9878-ea3ea32210ac"},"vehicle_type_id":"4","last_reported":1771350445,"current_range_meters":21600,"station_id":"","pricing_plan_id":"cebpf4jnsgd1na2vs0mg"},{"bike_id":"886bb703-6ea0-4e90-9cc2-893398bca37a","system_id":"levelo_inurba_marseille","lat":43.26774,"lon":5.39421,"is_reserved":false,"is_disabled":false,"rental_uris":{"android":"levelo://app?vid=886bb703-6ea0-4e90-9cc2-893398bca37a","ios":"levelo://app?vid=886bb703-6ea0-4e90-9cc2-893398bca37a"},"vehicle_type_id":"4","last_reported":1771350445,"current_range_meters":9200,"station_id":"ce4bhh12rcd13ifvqfg0","pricing_plan_id":"cebpf4jnsgd1na2vs0mg"},{"bike_id":"17db437d-61b6-4a4c-ab9b-e1c0e421c12d","system_id":"levelo_inurba_marseille","lat":43.2784,"lon":5.39196,"is_reserved":false,"is_disabled":false,"rental_uris":{"android":"levelo://app?vid=17db437d-61b6-4a4c-ab9b-e1c0e421c12d","ios":"levelo://app?vid=17db437d-61b6-4a4c-ab9b-e1c0e421c12d"},"vehicle_type_id":"4","last_reported":1771350445,"current_range_meters":28800,"station_id":"ce4bhjp2rcd13ifvqga0","pricing_plan_id":"cebpf4jnsgd1na2vs0mg"},{"bike_id":"10a4979d-8156-4142-ab86-02aca5738f57","system_id":"levelo_inurba_marseille","lat":43.30777,"lon":5.37661,"is_reserved":false,"is_disabled":false,"rental_uris":{"android":"levelo://app?vid=10a4979d-8156-4142-ab86-02aca5738f57","ios":"levelo://app?vid=10a4979d-8156-4142-ab86-02aca5738f57"},"vehicle_type_id":"4","last_reported":1771350445,"current_range_meters":28000,"station_id":"ce4bgv92rcd13ifvqcq0","pricing_plan_id":"cebpf4jnsgd1na2vs0mg"},{"bike_id":"091c26ef-a67a-48f4-8694-33aea309e055","system_id":"levelo_inurba_marseille","lat":43.25736,"lon":5.41128,"is_reserved":false,"is_disabled":false,"rental_uris":{"android":"levelo://app?vid=091c26ef-a67a-48f4-8694-33aea309e055","ios":"levelo://app?vid=091c26ef-a67a-48f4-8694-33aea309e055"},"vehicle_type_id":"4","last_reported":1771350445,"current_range_meters":38000,"station_id":"ce4bhkp2rcd13ifvqgd0","pricing_plan_id":"cebpf4jnsgd1na2vs0mg"},{"bike_id":"a6a81681-4b6a-4b37-a5f2-d092bfb159e0","system_id":"levelo_inurba_marseille","lat":43.260608,"lon":5.393933,"is_reserved":false,"is_disabled":false,"rental_uris":{"android":"levelo://app?vid=a6a81681-4b6a-4b37-a5f2-d092bfb159e0","ios":"levelo://app?vid=a6a81681-4b6a-4b37-a5f2-d092bfb159e0"},"vehicle_type_id":"4","last_reported":1771350445,"current_range_meters":38000,"station_id":"ce4bhh92rcd13ifvqfj0","pricing_plan_id":"cebpf4jnsgd1na2vs0mg"},{"bike_id":"a422cbe2-1485-4885-a94e-b526b365eac4","system_id":"levelo_inurba_marseille","lat":43.27957,"lon":5.3866,"is_reserved":false,"is_disabled":true,"rental_uris":{"android":"levelo://app?vid=a422cbe2-1485-4885-a94e-b526b365eac4","ios":"levelo://app?vid=a422cbe2-1485-4885-a94e-b526b365eac4"},"vehicle_type_id":"4","last_reported":1771350445,"current_range_meters":19200,"station_id":"ce4bhg12rcd13ifvqf80","pricing_plan_id":"cebpf4jnsgd1na2vs0mg"},{"bike_id":"d0addae8-3758-4956-867d-9e2fdb78dcfb","system_id":"levelo_inurba_marseille","lat":43.24642,"lon":5.389,"is_reserved":false,"is_disabled":false,"rental_uris":{"android":"levelo://app?vid=d0addae8-3758-4956-867d-9e2fdb78dcfb","ios":"levelo://app?vid=d0addae8-3758-4956-867d-9e2fdb78dcfb"},"vehicle_type_id":"4","last_reported":1771350445,"current_range_meters":18800,"station_id":"ce4bhg12rcd13ifvqf60","pricing_plan_id":"cebpf4jnsgd1na2vs0mg"},{"bike_id":"22bad5ca-bf7d-45cd-86b9-834b1668fb65","system_id":"levelo_inurba_marseille","lat":43.29521,"lon":5.3785,"is_reserved":false,"is_disabled":false,"rental_uris":{"android":"levelo://app?vid=22bad5ca-bf7d-45cd-86b9-834b1668fb65","ios":"levelo://app?vid=22bad5ca-bf7d-45cd-86b9-834b1668fb65"},"vehicle_type_id":"4","last_reported":1771350445,"current_range_meters":35200,"station_id":"","pricing_plan_id":"cebpf4jnsgd1na2vs0mg"},{"bike_id":"75d7ae73-fb00-4d37-81ab-7e01ef083d2d","system_id":"levelo_inurba_marseille","lat":43.25375,"lon":5.42139,"is_reserved":false,"is_disabled":false,"rental_uris":{"android":"levelo://app?vid=75d7ae73-fb00-4d37-81ab-7e01ef083d2d","ios":"levelo://app?vid=75d7ae73-fb00-4d37-81ab-7e01ef083d2d"},"vehicle_type_id":"4","last_reported":1771350445,"current_range_meters":8800,"station_id":"st_d2m65c5bi1j21697t3ng","pricing_plan_id":"cebpf4jnsgd1na2vs0mg"},{"bike_id":"1a765b9e-e031-409f-b804-276cc48d2d93","system_id":"levelo_inurba_marseille","lat":43.30205,"lon":5.39467,"is_reserved":false,"is_disabled":false,"rental_uris":{"android":"levelo://app?vid=1a765b9e-e031-409f-b804-276cc48d2d93","ios":"levelo://app?vid=1a765b9e-e031-409f-b804-276cc48d2d93"},"vehicle_type_id":"4","last_reported":1771350445,"current_range_meters":40000,"station_id":"ce4bh0p2rcd13ifvqd70","pricing_plan_id":"cebpf4jnsgd1na2vs0mg"},{"bike_id":"52822dfb-05a3-4831-b448-ea2d23feb569","system_id":"levelo_inurba_marseille","lat":43.29534,"lon":5.38541,"is_reserved":false,"is_disabled":false,"rental_uris":{"android":"levelo://app?vid=52822dfb-05a3-4831-b448-ea2d23feb569","ios":"levelo://app?vid=52822dfb-05a3-4831-b448-ea2d23feb569"},"vehicle_type_id":"4","last_reported":1771350445,"current_range_meters":14800,"station_id":"ce4bgih2rcd13ifvqba0","pricing_plan_id":"cebpf4jnsgd1na2vs0mg"},{"bike_id":"740f8f2e-710e-4b2e-8ba1-0f60d50869bd","system_id":"levelo_inurba_marseille","lat":43.287331,"lon":5.360759,"is_reserved":false,"is_disabled":false,"rental_uris":{"android":"levelo://app?vid=740f8f2e-710e-4b2e-8ba1-0f60d50869bd","ios":"levelo://app?vid=740f8f2e-710e-4b2e-8ba1-0f60d50869bd"},"vehicle_type_id":"4","last_reported":1771350445,"current_range_meters":18800,"station_id":"cki0cbj6b192h4jlfktg","pricing_plan_id":"cebpf4jnsgd1na2vs0mg"},{"bike_id":"e9749b0e-def4-4ccd-a6ad-31e91d22746a","system_id":"levelo_inurba_marseille","lat":43.26215,"lon":5.40452,"is_reserved":false,"is_disabled":false,"rental_uris":{"android":"levelo://app?vid=e9749b0e-def4-4ccd-a6ad-31e91d22746a","ios":"levelo://app?vid=e9749b0e-def4-4ccd-a6ad-31e91d22746a"},"vehicle_type_id":"4","last_reported":1771350445,"current_range_meters":30400,"station_id":"ce4bhmh2rcd13ifvqgmg","pricing_plan_id":"cebpf4jnsgd1na2vs0mg"},{"bike_id":"62e692db-f7dc-4aa5-abd5-05a186ddbe25","system_id":"levelo_inurba_marseille","lat":43.29188,"lon":5.37132,"is_reserved":false,"is_disabled":false,"rental_uris":{"android":"levelo://app?vid=62e692db-f7dc-4aa5-abd5-05a186ddbe25","ios":"levelo://app?vid=62e692db-f7dc-4aa5-abd5-05a186ddbe25"},"vehicle_type_id":"4","last_reported":1771350445,"current_range_meters":26800,"station_id":"ce4bha92rcd13ifvqeh0","pricing_plan_id":"cebpf4jnsgd1na2vs0mg"},{"bike_id":"c62c8bb8-5105-49ac-b6a0-75ac314fbf1f","system_id":"levelo_inurba_marseille","lat":43.29823,"lon":5.44072,"is_reserved":false,"is_disabled":false,"rental_uris":{"android":"levelo://app?vid=c62c8bb8-5105-49ac-b6a0-75ac314fbf1f","ios":"levelo://app?vid=c62c8bb8-5105-49ac-b6a0-75ac314fbf1f"},"vehicle_type_id":"4","last_reported":1771350445,"current_range_meters":8400,"station_id":"st_d3jp68qikq2c7381ktn0","pricing_plan_id":"cebpf4jnsgd1na2vs0mg"},{"bike_id":"fd96f353-138d-45da-bff2-6a987a2e0b7b","system_id":"levelo_inurba_marseille","lat":43.29372,"lon":5.37851,"is_reserved":false,"is_disabled":false,"rental_uris":{"android":"levelo://app?vid=fd96f353-138d-45da-bff2-6a987a2e0b7b","ios":"levelo://app?vid=fd96f353-138d-45da-bff2-6a987a2e0b7b"},"vehicle_type_id":"4","last_reported":1771350445,"current_range_meters":29600,"station_id":"ce4bgjh2rcd13ifvqbf0","pricing_plan_id":"cebpf4jnsgd1na2vs0mg"},{"bike_id":"7f8ec848-8645-4d0d-a741-bb2ba6ea7af2","system_id":"levelo_inurba_marseille","lat":43.253427,"lon":5.421663,"is_reserved":false,"is_disabled":false,"rental_uris":{"android":"levelo://app?vid=7f8ec848-8645-4d0d-a741-bb2ba6ea7af2","ios":"levelo://app?vid=7f8ec848-8645-4d0d-a741-bb2ba6ea7af2"},"vehicle_type_id":"4","last_reported":1771350445,"current_range_meters":7200,"station_id":"st_d2m65c5bi1j21697t3ng","pricing_plan_id":"cebpf4jnsgd1na2vs0mg"},{"bike_id":"ba560cac-91c1-471a-aa80-443b30117879","system_id":"levelo_inurba_marseille","lat":43.29257,"lon":5.38434,"is_reserved":false,"is_disabled":false,"rental_uris":{"android":"levelo://app?vid=ba560cac-91c1-471a-aa80-443b30117879","ios":"levelo://app?vid=ba560cac-91c1-471a-aa80-443b30117879"},"vehicle_type_id":"4","last_reported":1771350445,"current_range_meters":40000,"station_id":"ce4bh692rcd13ifvqea0","pricing_plan_id":"cebpf4jnsgd1na2vs0mg"},{"bike_id":"38c30afd-bece-416e-933d-1a2e080dab16","system_id":"levelo_inurba_marseille","lat":43.23184,"lon":5.3554,"is_reserved":false,"is_disabled":false,"rental_uris":{"android":"levelo://app?vid=38c30afd-bece-416e-933d-1a2e080dab16","ios":"levelo://app?vid=38c30afd-bece-416e-933d-1a2e080dab16"},"vehicle_type_id":"4","last_reported":1771350445,"current_range_meters":23200,"station_id":"ce4bhu92rcd13ifvqi70","pricing_plan_id":"cebpf4jnsgd1na2vs0mg"},{"bike_id":"3f6e6d5b-9c66-4d26-b0b8-f270d679b2a6","system_id":"levelo_inurba_marseille","lat":43.28484,"lon":5.48387,"is_reserved":false,"is_disabled":false,"rental_uris":{"android":"levelo://app?vid=3f6e6d5b-9c66-4d26-b0b8-f270d679b2a6","ios":"levelo://app?vid=3f6e6d5b-9c66-4d26-b0b8-f270d679b2a6"},"vehicle_type_id":"4","last_reported":1771350445,"current_range_meters":8400,"station_id":"st_d3svhcjqgbts73a3dn0g","pricing_plan_id":"cebpf4jnsgd1na2vs0mg"},{"bike_id":"aae3c724-7de3-461e-a596-adba9732ab8c","system_id":"levelo_inurba_marseille","lat":43.2953,"lon":5.38547,"is_reserved":false,"is_disabled":false,"rental_uris":{"android":"levelo://app?vid=aae3c724-7de3-461e-a596-adba9732ab8c","ios":"levelo://app?vid=aae3c724-7de3-461e-a596-adba9732ab8c"},"vehicle_type_id":"4","last_reported":1771350445,"current_range_meters":14400,"station_id":"ce4bgih2rcd13ifvqba0","pricing_plan_id":"cebpf4jnsgd1na2vs0mg"},{"bike_id":"afa08f7e-7441-413b-8fab-b43ad514a93d","system_id":"levelo_inurba_marseille","lat":43.2549,"lon":5.37645,"is_reserved":false,"is_disabled":false,"rental_uris":{"android":"levelo://app?vid=afa08f7e-7441-413b-8fab-b43ad514a93d","ios":"levelo://app?vid=afa08f7e-7441-413b-8fab-b43ad514a93d"},"vehicle_type_id":"4","last_reported":1771350445,"current_range_meters":11200,"station_id":"ce4bhh12rcd13ifvqff0","pricing_plan_id":"cebpf4jnsgd1na2vs0mg"},{"bike_id":"8afbe5f1-e31f-497c-82ed-db86cdcdec29","system_id":"levelo_inurba_marseille","lat":43.33764,"lon":5.3744,"is_reserved":false,"is_disabled":false,"rental_uris":{"android":"levelo://app?vid=8afbe5f1-e31f-497c-82ed-db86cdcdec29","ios":"levelo://app?vid=8afbe5f1-e31f-497c-82ed-db86cdcdec29"},"vehicle_type_id":"4","last_reported":1771350445,"current_range_meters":24400,"station_id":"","pricing_plan_id":"cebpf4jnsgd1na2vs0mg"},{"bike_id":"bf763d5f-3925-4930-9d6b-2b57c49f4d4c","system_id":"levelo_inurba_marseille","lat":43.23161,"lon":5.43701,"is_reserved":false,"is_disabled":true,"rental_uris":{"android":"levelo://app?vid=bf763d5f-3925-4930-9d6b-2b57c49f4d4c","ios":"levelo://app?vid=bf763d5f-3925-4930-9d6b-2b57c49f4d4c"},"vehicle_type_id":"4","last_reported":1771350445,"current_range_meters":39200,"station_id":"ce4bhmp2rcd13ifvqgog","pricing_plan_id":"cebpf4jnsgd1na2vs0mg"},{"bike_id":"7c84b2ea-182c-495f-ba9f-56a792a7543c","system_id":"levelo_inurba_marseille","lat":43.24042,"lon":5.37746,"is_reserved":false,"is_disabled":false,"rental_uris":{"android":"levelo://app?vid=7c84b2ea-182c-495f-ba9f-56a792a7543c","ios":"levelo://app?vid=7c84b2ea-182c-495f-ba9f-56a792a7543c"},"vehicle_type_id":"4","last_reported":1771350445,"current_range_meters":38000,"station_id":"ce4bhnp2rcd13ifvqgvg","pricing_plan_id":"cebpf4jnsgd1na2vs0mg"},{"bike_id":"cf657348-7d1b-4093-a144-9f75124506c9","system_id":"levelo_inurba_marseille","lat":43.2886,"lon":5.3585,"is_reserved":false,"is_disabled":false,"rental_uris":{"android":"levelo://app?vid=cf657348-7d1b-4093-a144-9f75124506c9","ios":"levelo://app?vid=cf657348-7d1b-4093-a144-9f75124506c9"},"vehicle_type_id":"4","last_reported":1771350445,"current_range_meters":22000,"station_id":"ce4bhb12rcd13ifvqem0","pricing_plan_id":"cebpf4jnsgd1na2vs0mg"},{"bike_id":"2328bb42-38da-434f-9da6-21140eda5f58","system_id":"levelo_inurba_marseille","lat":43.29038,"lon":5.38658,"is_reserved":false,"is_disabled":true,"rental_uris":{"android":"levelo://app?vid=2328bb42-38da-434f-9da6-21140eda5f58","ios":"levelo://app?vid=2328bb42-38da-434f-9da6-21140eda5f58"},"vehicle_type_id":"4","last_reported":1771350445,"current_range_meters":1600,"station_id":"ce4bh4p2rcd13ifvqe0g","pricing_plan_id":"cebpf4jnsgd1na2vs0mg"},{"bike_id":"ff563949-39a4-4b17-95be-61cea1ca9070","system_id":"levelo_inurba_marseille","lat":43.29527,"lon":5.38533,"is_reserved":false,"is_disabled":false,"rental_uris":{"android":"levelo://app?vid=ff563949-39a4-4b17-95be-61cea1ca9070","ios":"levelo://app?vid=ff563949-39a4-4b17-95be-61cea1ca9070"},"vehicle_type_id":"4","last_reported":1771350445,"current_range_meters":24400,"station_id":"ce4bgih2rcd13ifvqba0","pricing_plan_id":"cebpf4jnsgd1na2vs0mg"},{"bike_id":"3ee955de-ebfc-4597-9214-e3fb8357ac34","system_id":"levelo_inurba_marseille","lat":43.29005,"lon":5.35614,"is_reserved":false,"is_disabled":false,"rental_uris":{"android":"levelo://app?vid=3ee955de-ebfc-4597-9214-e3fb8357ac34","ios":"levelo://app?vid=3ee955de-ebfc-4597-9214-e3fb8357ac34"},"vehicle_type_id":"4","last_reported":1771350445,"current_range_meters":26800,"station_id":"ce4bhb92rcd13ifvqen0","pricing_plan_id":"cebpf4jnsgd1na2vs0mg"},{"bike_id":"6bf5dac3-4531-43da-af99-7e37cc028d3b","system_id":"levelo_inurba_marseille","lat":43.31381,"lon":5.36694,"is_reserved":false,"is_disabled":false,"rental_uris":{"android":"levelo://app?vid=6bf5dac3-4531-43da-af99-7e37cc028d3b","ios":"levelo://app?vid=6bf5dac3-4531-43da-af99-7e37cc028d3b"},"vehicle_type_id":"4","last_reported":1771350445,"current_range_meters":31200,"station_id":"ce4bgr92rcd13ifvqc6g","pricing_plan_id":"cebpf4jnsgd1na2vs0mg"},{"bike_id":"e1e3629a-8716-4d5a-a58e-978576db7610","system_id":"levelo_inurba_marseille","lat":43.302155,"lon":5.394606,"is_reserved":false,"is_disabled":false,"rental_uris":{"android":"levelo://app?vid=e1e3629a-8716-4d5a-a58e-978576db7610","ios":"levelo://app?vid=e1e3629a-8716-4d5a-a58e-978576db7610"},"vehicle_type_id":"4","last_reported":1771350445,"current_range_meters":4400,"station_id":"","pricing_plan_id":"cebpf4jnsgd1na2vs0mg"},{"bike_id":"6e9dbbc0-aa6c-4868-b06c-e7eaa68c09c7","system_id":"levelo_inurba_marseille","lat":43.245472,"lon":5.39526,"is_reserved":false,"is_disabled":false,"rental_uris":{"android":"levelo://app?vid=6e9dbbc0-aa6c-4868-b06c-e7eaa68c09c7","ios":"levelo://app?vid=6e9dbbc0-aa6c-4868-b06c-e7eaa68c09c7"},"vehicle_type_id":"4","last_reported":1771350445,"current_range_meters":9200,"station_id":"ce4bhlp2rcd13ifvqgjg","pricing_plan_id":"cebpf4jnsgd1na2vs0mg"},{"bike_id":"38a515da-b3af-456b-adac-2db7213d87ac","system_id":"levelo_inurba_marseille","lat":43.28614,"lon":5.35107,"is_reserved":false,"is_disabled":false,"rental_uris":{"android":"levelo://app?vid=38a515da-b3af-456b-adac-2db7213d87ac","ios":"levelo://app?vid=38a515da-b3af-456b-adac-2db7213d87ac"},"vehicle_type_id":"4","last_reported":1771350445,"current_range_meters":20800,"station_id":"ce4bhch2rcd13ifvqeug","pricing_plan_id":"cebpf4jnsgd1na2vs0mg"},{"bike_id":"e258fda4-3785-4057-8fa8-e490a690f392","system_id":"levelo_inurba_marseille","lat":43.30579,"lon":5.37202,"is_reserved":false,"is_disabled":false,"rental_uris":{"android":"levelo://app?vid=e258fda4-3785-4057-8fa8-e490a690f392","ios":"levelo://app?vid=e258fda4-3785-4057-8fa8-e490a690f392"},"vehicle_type_id":"4","last_reported":1771350445,"current_range_meters":30400,"station_id":"ce4bgqh2rcd13ifvqc4g","pricing_plan_id":"cebpf4jnsgd1na2vs0mg"},{"bike_id":"dbfe7d62-69bb-4b6f-b279-e02fb0b739a5","system_id":"levelo_inurba_marseille","lat":43.31266,"lon":5.36871,"is_reserved":false,"is_disabled":false,"rental_uris":{"android":"levelo://app?vid=dbfe7d62-69bb-4b6f-b279-e02fb0b739a5","ios":"levelo://app?vid=dbfe7d62-69bb-4b6f-b279-e02fb0b739a5"},"vehicle_type_id":"4","last_reported":1771350445,"current_range_meters":20000,"station_id":"ce4bgl92rcd13ifvqbq0","pricing_plan_id":"cebpf4jnsgd1na2vs0mg"},{"bike_id":"2d305240-72a3-4635-bf71-c7972180459f","system_id":"levelo_inurba_marseille","lat":43.26951,"lon":5.3864,"is_reserved":false,"is_disabled":false,"rental_uris":{"android":"levelo://app?vid=2d305240-72a3-4635-bf71-c7972180459f","ios":"levelo://app?vid=2d305240-72a3-4635-bf71-c7972180459f"},"vehicle_type_id":"4","last_reported":1771350445,"current_range_meters":27600,"station_id":"ce4bhh92rcd13ifvqfh0","pricing_plan_id":"cebpf4jnsgd1na2vs0mg"},{"bike_id":"008cf1a5-d324-4e23-acfa-4a137cedc0af","system_id":"levelo_inurba_marseille","lat":43.312432,"lon":5.368576,"is_reserved":false,"is_disabled":false,"rental_uris":{"android":"levelo://app?vid=008cf1a5-d324-4e23-acfa-4a137cedc0af","ios":"levelo://app?vid=008cf1a5-d324-4e23-acfa-4a137cedc0af"},"vehicle_type_id":"4","last_reported":1771350445,"current_range_meters":39200,"station_id":"ce4bgl92rcd13ifvqbq0","pricing_plan_id":"cebpf4jnsgd1na2vs0mg"},{"bike_id":"0f9e3e26-97c8-4d64-a040-2715cbd80fe3","system_id":"levelo_inurba_marseille","lat":43.29792,"lon":5.39351,"is_reserved":false,"is_disabled":false,"rental_uris":{"android":"levelo://app?vid=0f9e3e26-97c8-4d64-a040-2715cbd80fe3","ios":"levelo://app?vid=0f9e3e26-97c8-4d64-a040-2715cbd80fe3"},"vehicle_type_id":"4","last_reported":1771350445,"current_range_meters":23200,"station_id":"chh1huq6cuj3fo74tm60","pricing_plan_id":"cebpf4jnsgd1na2vs0mg"},{"bike_id":"76a9098f-473c-4c0a-b8f8-0eade8aae04f","system_id":"levelo_inurba_marseille","lat":43.28938,"lon":5.39619,"is_reserved":false,"is_disabled":false,"rental_uris":{"android":"levelo://app?vid=76a9098f-473c-4c0a-b8f8-0eade8aae04f","ios":"levelo://app?vid=76a9098f-473c-4c0a-b8f8-0eade8aae04f"},"vehicle_type_id":"4","last_reported":1771350445,"current_range_meters":38800,"station_id":"ce4bh3h2rcd13ifvqdn0","pricing_plan_id":"cebpf4jnsgd1na2vs0mg"},{"bike_id":"aeb607bd-8701-49d6-9638-179ff83e8d8f","system_id":"levelo_inurba_marseille","lat":43.29976,"lon":5.38503,"is_reserved":false,"is_disabled":false,"rental_uris":{"android":"levelo://app?vid=aeb607bd-8701-49d6-9638-179ff83e8d8f","ios":"levelo://app?vid=aeb607bd-8701-49d6-9638-179ff83e8d8f"},"vehicle_type_id":"4","last_reported":1771350445,"current_range_meters":21600,"station_id":"ce4bgj92rcd13ifvqbd0","pricing_plan_id":"cebpf4jnsgd1na2vs0mg"},{"bike_id":"6e8f3bd2-53f9-41a0-948d-4e822be3d8d8","system_id":"levelo_inurba_marseille","lat":43.28399,"lon":5.37518,"is_reserved":false,"is_disabled":false,"rental_uris":{"android":"levelo://app?vid=6e8f3bd2-53f9-41a0-948d-4e822be3d8d8","ios":"levelo://app?vid=6e8f3bd2-53f9-41a0-948d-4e822be3d8d8"},"vehicle_type_id":"4","last_reported":1771350445,"current_range_meters":34000,"station_id":"ce4bh412rcd13ifvqds0","pricing_plan_id":"cebpf4jnsgd1na2vs0mg"},{"bike_id":"521bfd52-bd24-405f-a41c-6e3af0621352","system_id":"levelo_inurba_marseille","lat":43.30549,"lon":5.36708,"is_reserved":false,"is_disabled":false,"rental_uris":{"android":"levelo://app?vid=521bfd52-bd24-405f-a41c-6e3af0621352","ios":"levelo://app?vid=521bfd52-bd24-405f-a41c-6e3af0621352"},"vehicle_type_id":"4","last_reported":1771350445,"current_range_meters":36400,"station_id":"ce4bgrp2rcd13ifvqc9g","pricing_plan_id":"cebpf4jnsgd1na2vs0mg"},{"bike_id":"0d6fd63f-cb7e-429b-8217-93190fed5833","system_id":"levelo_inurba_marseille","lat":43.27054,"lon":5.42277,"is_reserved":false,"is_disabled":false,"rental_uris":{"android":"levelo://app?vid=0d6fd63f-cb7e-429b-8217-93190fed5833","ios":"levelo://app?vid=0d6fd63f-cb7e-429b-8217-93190fed5833"},"vehicle_type_id":"4","last_reported":1771350445,"current_range_meters":30800,"station_id":"ce4bhk92rcd13ifvqgb0","pricing_plan_id":"cebpf4jnsgd1na2vs0mg"},{"bike_id":"48c72481-fe5a-4b2c-bd5c-07d3bd895aa9","system_id":"levelo_inurba_marseille","lat":43.22928,"lon":5.35374,"is_reserved":false,"is_disabled":false,"rental_uris":{"android":"levelo://app?vid=48c72481-fe5a-4b2c-bd5c-07d3bd895aa9","ios":"levelo://app?vid=48c72481-fe5a-4b2c-bd5c-07d3bd895aa9"},"vehicle_type_id":"4","last_reported":1771350445,"current_range_meters":34000,"station_id":"cpo3532slgdg3j2ikp40","pricing_plan_id":"cebpf4jnsgd1na2vs0mg"},{"bike_id":"f3bef3d0-f67a-4cce-9c92-8b76cbcb9726","system_id":"levelo_inurba_marseille","lat":43.30415,"lon":5.41265,"is_reserved":false,"is_disabled":false,"rental_uris":{"android":"levelo://app?vid=f3bef3d0-f67a-4cce-9c92-8b76cbcb9726","ios":"levelo://app?vid=f3bef3d0-f67a-4cce-9c92-8b76cbcb9726"},"vehicle_type_id":"4","last_reported":1771350445,"current_range_meters":39200,"station_id":"ce4bhop2rcd13ifvqh8g","pricing_plan_id":"cebpf4jnsgd1na2vs0mg"},{"bike_id":"06f459f3-ac33-480c-aa70-fac0b887368d","system_id":"levelo_inurba_marseille","lat":43.31107,"lon":5.3695,"is_reserved":false,"is_disabled":false,"rental_uris":{"android":"levelo://app?vid=06f459f3-ac33-480c-aa70-fac0b887368d","ios":"levelo://app?vid=06f459f3-ac33-480c-aa70-fac0b887368d"},"vehicle_type_id":"4","last_reported":1771350445,"current_range_meters":34800,"station_id":"","pricing_plan_id":"cebpf4jnsgd1na2vs0mg"},{"bike_id":"5be1fdbd-6a29-4b03-a28e-d08e847a6feb","system_id":"levelo_inurba_marseille","lat":43.27442,"lon":5.39417,"is_reserved":false,"is_disabled":false,"rental_uris":{"android":"levelo://app?vid=5be1fdbd-6a29-4b03-a28e-d08e847a6feb","ios":"levelo://app?vid=5be1fdbd-6a29-4b03-a28e-d08e847a6feb"},"vehicle_type_id":"4","last_reported":1771350445,"current_range_meters":19200,"station_id":"ce4bhdp2rcd13ifvqf20","pricing_plan_id":"cebpf4jnsgd1na2vs0mg"},{"bike_id":"1c042727-a01e-4956-b496-365b530b101c","system_id":"levelo_inurba_marseille","lat":43.26568,"lon":5.39008,"is_reserved":false,"is_disabled":true,"rental_uris":{"android":"levelo://app?vid=1c042727-a01e-4956-b496-365b530b101c","ios":"levelo://app?vid=1c042727-a01e-4956-b496-365b530b101c"},"vehicle_type_id":"4","last_reported":1771350445,"current_range_meters":0,"station_id":"ce4bhe12rcd13ifvqf30","pricing_plan_id":"cebpf4jnsgd1na2vs0mg"},{"bike_id":"32535675-8006-4d23-867a-16c40d02d64b","system_id":"levelo_inurba_marseille","lat":43.295533,"lon":5.38544,"is_reserved":false,"is_disabled":true,"rental_uris":{"android":"levelo://app?vid=32535675-8006-4d23-867a-16c40d02d64b","ios":"levelo://app?vid=32535675-8006-4d23-867a-16c40d02d64b"},"vehicle_type_id":"4","last_reported":1771350445,"current_range_meters":10000,"station_id":"ce4bgih2rcd13ifvqba0","pricing_plan_id":"cebpf4jnsgd1na2vs0mg"},{"bike_id":"6b959931-ea1e-48be-a295-669acde08f0f","system_id":"levelo_inurba_marseille","lat":43.27073,"lon":5.38315,"is_reserved":false,"is_disabled":false,"rental_uris":{"android":"levelo://app?vid=6b959931-ea1e-48be-a295-669acde08f0f","ios":"levelo://app?vid=6b959931-ea1e-48be-a295-669acde08f0f"},"vehicle_type_id":"4","last_reported":1771350445,"current_range_meters":26800,"station_id":"st_d3n2fo6cfp8s73cte1j0","pricing_plan_id":"cebpf4jnsgd1na2vs0mg"},{"bike_id":"137f6f96-f9c1-4c36-8540-70062335e1eb","system_id":"levelo_inurba_marseille","lat":43.27666,"lon":5.38897,"is_reserved":false,"is_disabled":false,"rental_uris":{"android":"levelo://app?vid=137f6f96-f9c1-4c36-8540-70062335e1eb","ios":"levelo://app?vid=137f6f96-f9c1-4c36-8540-70062335e1eb"},"vehicle_type_id":"4","last_reported":1771350445,"current_range_meters":36000,"station_id":"ce4bhi12rcd13ifvqfo0","pricing_plan_id":"cebpf4jnsgd1na2vs0mg"},{"bike_id":"e8034ba9-764c-40c1-aec6-d75c786fb0e0","system_id":"levelo_inurba_marseille","lat":43.29533,"lon":5.37496,"is_reserved":false,"is_disabled":false,"rental_uris":{"android":"levelo://app?vid=e8034ba9-764c-40c1-aec6-d75c786fb0e0","ios":"levelo://app?vid=e8034ba9-764c-40c1-aec6-d75c786fb0e0"},"vehicle_type_id":"4","last_reported":1771350445,"current_range_meters":31200,"station_id":"ce4bgkp2rcd13ifvqbmg","pricing_plan_id":"cebpf4jnsgd1na2vs0mg"},