{"last_updated":1734962889,"ttl":60,"version":"2.2","data":{"bikes":[{"bike_id":"5e34ba9e-857e-4232-91d1-c0f537d64a83","system_id":"levelo_inurba_marseille","lat":43.30539,"lon":5.36563,"is_reserved":false,"is_disabled":false,"rental_uris":{"android":"levelo://app?vid=5e34ba9e-857e-4232-91d1-c0f537d64a83","ios":"levelo://app?vid=5e34ba9e-857e-4232-91d1-c0f537d64a83"},"vehicle_type_id":"4","last_reported":1734962889,"current_range_meters":14400,"station_id":"ce4bgs12rcd13ifvqcag","pricing_plan_id":"cebpf4jnsgd1na2vs0mg"},{"bike_id":"92670bf9-a385-4cee-b547-3e900fbde130","system_id":"levelo_inurba_marseille","lat":43.2846,"lon":5.38434,"is_reserved":false,"is_disabled":false,"rental_uris":{"android":"levelo://app?vid=92670bf9-a385-4cee-b547-3e900fbde130","ios":"levelo://app?vid=92670bf9-a385-4cee-b547-3e900fbde130"},"vehicle_type_id":"4","last_reported":1734962889,"current_range_meters":38800,"station_id":"ce4bh512rcd13ifvqe3g","pricing_plan_id":"cebpf4jnsgd1na2vs0mg"},{"bike_id":"b57a1d4d-3c70-4143-8bd1-f3d3cdf21ccf","system_id":"levelo_inurba_marseille","lat":43.25585,"lon":5.38232,"is_reserved":false,"is_disabled":false,"rental_uris":{"android":"levelo://app?vid=b57a1d4d-3c70-4143-8bd1-f3d3cdf21ccf","ios":"levelo://app?vid=b57a1d4d-3c70-4143-8bd1-f3d3cdf21ccf"},"vehicle_type_id":"4","last_reported":1734962889,"current_range_meters":9200,"station_id":"ce4bhih2rcd13ifvqfs0","pricing_plan_id":"cebpf4jnsgd1na2vs0mg"},{"bike_id":"6116d3a7-012b-48a3-9669-e5d61a410ebf","system_id":"levelo_inurba_marseille","lat":43.29796,"lon":5.38088,"is_reserved":false,"is_disabled":false,"rental_uris":{"android":"levelo://app?vid=6116d3a7-012b-48a3-9669-e5d61a410ebf","ios":"levelo://app?vid=6116d3a7-012b-48a3-9669-e5d61a410ebf"},"vehicle_type_id":"4","last_reported":1734962889,"current_range_meters":8800,"station_id":"ce4bgip2rcd13ifvqbb0","pricing_plan_id":"cebpf4jnsgd1na2vs0mg"},{"bike_id":"6c0e2fb5-015c-4176-b0bb-902f57d44214","system_id":"levelo_inurba_marseille","lat":43.28938,"lon":5.39638,"is_reserved":false,"is_disabled":true,"rental_uris":{"android":"levelo://app?vid=6c0e2fb5-015c-4176-b0bb-902f57d44214","ios":"levelo://app?vid=6c0e2fb5-015c-4176-b0bb-902f57d44214"},"vehicle_type_id":"4","last_reported":1734962889,"current_range_meters":24400,"station_id":"ce4bh3h2rcd13ifvqdn0","pricing_plan_id":"cebpf4jnsgd1na2vs0mg"},{"bike_id":"275f54a7-987a-4829-9334-64c4a35923ad","system_id":"levelo_inurba_marseille","lat":43.24994,"lon":5.38946,"is_reserved":false,"is_disabled":false,"rental_uris":{"android":"levelo://app?vid=275f54a7-987a-4829-9334-64c4a35923ad","ios":"levelo://app?vid=275f54a7-987a-4829-9334-64c4a35923ad"},"vehicle_type_id":"4","last_reported":1734962889,"current_range_meters":27200,"station_id":"ce4bhgp2rcd13ifvqfd0","pricing_plan_id":"cebpf4jnsgd1na2vs0mg"},{"bike_id":"35b24391-6697-4606-b33e-bec6c27963cb","system_id":"levelo_inurba_marseille","lat":43.337444,"lon":5.374475,"is_reserved":false,"is_disabled":false,"rental_uris":{"android":"levelo://app?vid=35b24391-6697-4606-b33e-bec6c27963cb","ios":"levelo://app?vid=35b24391-6697-4606-b33e-bec6c27963cb"},"vehicle_type_id":"4","last_reported":1734962889,"current_range_meters":39200,"station_id":"ce4bh192rcd13ifvqdb0","pricing_plan_id":"cebpf4jnsgd1na2vs0mg"},{"bike_id":"5ecfb7d1-6abc-4dd2-87a4-6b70a520c2ca","system_id":"levelo_inurba_marseille","lat":43.2721,"lon":5.39187,"is_reserved":false,"is_disabled":false,"rental_uris":{"android":"levelo://app?vid=5ecfb7d1-6abc-4dd2-87a4-6b70a520c2ca","ios":"levelo://app?vid=5ecfb7d1-6abc-4dd2-87a4-6b70a520c2ca"},"vehicle_type_id":"4","last_reported":1734962889,"current_range_meters":38800,"station_id":"ce4bhhp2rcd13ifvqfm0","pricing_plan_id":"cebpf4jnsgd1na2vs0mg"},{"bike_id":"5d6b7842-4068-493b-b261-daeeebe1a520","system_id":"levelo_inurba_marseille","lat":43.31334,"lon":5.39693,"is_reserved":false,"is_disabled":false,"rental_uris":{"android":"levelo://app?vid=5d6b7842-4068-493b-b261-daeeebe1a520","ios":"levelo://app?vid=5d6b7842-4068-493b-b261-daeeebe1a520"},"vehicle_type_id":"4","last_reported":1734962889,"current_range_meters":38400,"station_id":"ce4bgvp2rcd13ifvqcu0","pricing_plan_id":"cebpf4jnsgd1na2vs0mg"},{"bike_id":"80804cee-23d9-415c-aa9f-2591c6b8d79b","system_id":"levelo_inurba_marseille","lat":43.28697,"lon":5.39988,"is_reserved":false,"is_disabled":false,"rental_uris":{"android":"levelo://app?vid=80804cee-23d9-415c-aa9f-2591c6b8d79b","ios":"levelo://app?vid=80804cee-23d9-415c-aa9f-2591c6b8d79b"},"vehicle_type_id":"4","last_reported":1734962889,"current_range_meters":38800,"station_id":"ce4bho92rcd13ifvqh3g","pricing_plan_id":"cebpf4jnsgd1na2vs0mg"},{"bike_id":"96f67906-c94f-4a78-ae6e-fdff28a17019","system_id":"levelo_inurba_marseille","lat":43.33753,"lon":5.37429,"is_reserved":false,"is_disabled":false,"rental_uris":{"android":"levelo://app?vid=96f67906-c94f-4a78-ae6e-fdff28a17019","ios":"levelo://app?vid=96f67906-c94f-4a78-ae6e-fdff28a17019"},"vehicle_type_id":"4","last_reported":1734962889,"current_range_meters":21600,"station_id":"","pricing_plan_id":"cebpf4jnsgd1na2vs0mg"},{"bike_id":"4ae04926-163e-4ffb-be62-88da4a5836ca","system_id":"levelo_inurba_marseille","lat":43.29235,"lon":5.36075,"is_reserved":false,"is_disabled":false,"rental_uris":{"android":"levelo://app?vid=4ae04926-163e-4ffb-be62-88da4a5836ca","ios":"levelo://app?vid=4ae04926-163e-4ffb-be62-88da4a5836ca"},"vehicle_type_id":"4","last_reported":1734962889,"current_range_meters":12800,"station_id":"ce4bhbh2rcd13ifvqeqg","pricing_plan_id":"cebpf4jnsgd1na2vs0mg"},{"bike_id":"454a2917-bbfc-4010-a3c2-3e352c41d99d","system_id":"levelo_inurba_marseille","lat":43.2925,"lon":5.40911,"is_reserved":false,"is_disabled":false,"rental_uris":{"android":"levelo://app?vid=454a2917-bbfc-4010-a3c2-3e352c41d99d","ios":"levelo://app?vid=454a2917-bbfc-4010-a3c2-3e352c41d99d"},"vehicle_type_id":"4","last_reported":1734962889,"current_range_meters":38800,"station_id":"ce4bh192rcd13ifvqdc0","pricing_plan_id":"cebpf4jnsgd1na2vs0mg"},{"bike_id":"8ba84ccc-8626-48fe-9205-f75891433829","system_id":"levelo_inurba_marseille","lat":43.25503,"lon":5.37655,"is_reserved":false,"is_disabled":false,"rental_uris":{"android":"levelo://app?vid=8ba84ccc-8626-48fe-9205-f75891433829","ios":"levelo://app?vid=8ba84ccc-8626-48fe-9205-f75891433829"},"vehicle_type_id":"4","last_reported":1734962889,"current_range_meters":39200,"station_id":"ce4bhh12rcd13ifvqff0","pricing_plan_id":"cebpf4jnsgd1na2vs0mg"},{"bike_id":"13fd8ed7-3284-4d21-9372-d871d71d55dc","system_id":"levelo_inurba_marseille","lat":43.29616,"lon":5.3776,"is_reserved":false,"is_disabled":false,"rental_uris":{"android":"levelo://app?vid=13fd8ed7-3284-4d21-9372-d871d71d55dc","ios":"levelo://app?vid=13fd8ed7-3284-4d21-9372-d871d71d55dc"},"vehicle_type_id":"4","last_reported":1734962889,"current_range_meters":18000,"station_id":"ce4bgi92rcd13ifvqb90","pricing_plan_id":"cebpf4jnsgd1na2vs0mg"},{"bike_id":"21d38c8d-4838-4110-bed4-0ac5354af131","system_id":"levelo_inurba_marseille","lat":43.28567,"lon":5.39501,"is_reserved":false,"is_disabled":false,"rental_uris":{"android":"levelo://app?vid=21d38c8d-4838-4110-bed4-0ac5354af131","ios":"levelo://app?vid=21d38c8d-4838-4110-bed4-0ac5354af131"},"vehicle_type_id":"4","last_reported":1734962889,"current_range_meters":30800,"station_id":"ce4bh292rcd13ifvqdg0","pricing_plan_id":"cebpf4jnsgd1na2vs0mg"},{"bike_id":"06b681c3-5405-4b96-8a00-5c8598be3e97","system_id":"levelo_inurba_marseille","lat":43.26948,"lon":5.38644,"is_reserved":false,"is_disabled":false,"rental_uris":{"android":"levelo://app?vid=06b681c3-5405-4b96-8a00-5c8598be3e97","ios":"levelo://app?vid=06b681c3-5405-4b96-8a00-5c8598be3e97"},"vehicle_type_id":"4","last_reported":1734962889,"current_range_meters":38800,"station_id":"ce4bhh92rcd13ifvqfh0","pricing_plan_id":"cebpf4jnsgd1na2vs0mg"},{"bike_id":"f8df509d-f14d-4fc9-b446-50546b501b6c","system_id":"levelo_inurba_marseille","lat":43.27076,"lon":5.42281,"is_reserved":false,"is_disabled":false,"rental_uris":{"android":"levelo://app?vid=f8df509d-f14d-4fc9-b446-50546b501b6c","ios":"levelo://app?vid=f8df509d-f14d-4fc9-b446-50546b501b6c"},"vehicle_type_id":"4","last_reported":1734962889,"current_range_meters":12400,"station_id":"ce4bhk92rcd13ifvqgb0","pricing_plan_id":"cebpf4jnsgd1na2vs0mg"},{"bike_id":"12077225-0151-4b61-a64e-e4fc908916e8","system_id":"levelo_inurba_marseille","lat":43.30191,"lon":5.36607,"is_reserved":false,"is_disabled":false,"rental_uris":{"android":"levelo://app?vid=12077225-0151-4b61-a64e-e4fc908916e8","ios":"levelo://app?vid=12077225-0151-4b61-a64e-e4fc908916e8"},"vehicle_type_id":"4","last_reported":1734962889,"current_range_meters":38800,"station_id":"ce4bgrh2rcd13ifvqc8g","pricing_plan_id":"cebpf4jnsgd1na2vs0mg"},{"bike_id":"9aa524f1-9619-4cb0-b870-7f474e7b8ecd","system_id":"levelo_inurba_marseille","lat":43.26928,"lon":5.38939,"is_reserved":false,"is_disabled":false,"rental_uris":{"android":"levelo://app?vid=9aa524f1-9619-4cb0-b870-7f474e7b8ecd","ios":"levelo://app?vid=9aa524f1-9619-4cb0-b870-7f474e7b8ecd"},"vehicle_type_id":"4","last_reported":1734962889,"current_range_meters":38000,"station_id":"ce4bhhh2rcd13ifvqfl0","pricing_plan_id":"cebpf4jnsgd1na2vs0mg"},{"bike_id":"483c1a88-3d76-4ce2-b8a0-18ab3d6306de","system_id":"levelo_inurba_marseille","lat":43.29931,"lon":5.36554,"is_reserved":false,"is_disabled":false,"rental_uris":{"android":"levelo://app?vid=483c1a88-3d76-4ce2-b8a0-18ab3d6306de","ios":"levelo://app?vid=483c1a88-3d76-4ce2-b8a0-18ab3d6306de"},"vehicle_type_id":"4","last_reported":1734962889,"current_range_meters":10000,"station_id":"ce4bgm92rcd13ifvqbr0","pricing_plan_id":"cebpf4jnsgd1na2vs0mg"},{"bike_id":"677767c6-7ea3-4173-ae5e-27b0074a22e9","system_id":"levelo_inurba_marseille","lat":43.28726,"lon":5.36084,"is_reserved":false,"is_disabled":false,"rental_uris":{"android":"levelo://app?vid=677767c6-7ea3-4173-ae5e-27b0074a22e9","ios":"levelo://app?vid=677767c6-7ea3-4173-ae5e-27b0074a22e9"},"vehicle_type_id":"4","last_reported":1734962889,"current_range_meters":20800,"station_id":"cki0cbj6b192h4jlfktg","pricing_plan_id":"cebpf4jnsgd1na2vs0mg"},{"bike_id":"b5305089-62ba-43a5-a181-d0cf47187869","system_id":"levelo_inurba_marseille","lat":43.26494,"lon":5.39538,"is_reserved":false,"is_disabled":false,"rental_uris":{"android":"levelo://app?vid=b5305089-62ba-43a5-a181-d0cf47187869","ios":"levelo://app?vid=b5305089-62ba-43a5-a181-d0cf47187869"},"vehicle_type_id":"4","last_reported":1734962889,"current_range_meters":25200,"station_id":"ce4bhi12rcd13ifvqfq0","pricing_plan_id":"cebpf4jnsgd1na2vs0mg"},{"bike_id":"671b6366-55bc-4b51-a3a4-65fbc5c39302","system_id":"levelo_inurba_marseille","lat":43.3203,"lon":5.41569,"is_reserved":false,"is_disabled":false,"rental_uris":{"android":"levelo://app?vid=671b6366-55bc-4b51-a3a4-65fbc5c39302","ios":"levelo://app?vid=671b6366-55bc-4b51-a3a4-65fbc5c39302"},"vehicle_type_id":"4","last_reported":1734962889,"current_range_meters":36800,"station_id":"ce4bhq92rcd13ifvqhkg","pricing_plan_id":"cebpf4jnsgd1na2vs0mg"},{"bike_id":"d1dc16e5-85c2-43d5-b8fa-3eebc423a7ee","system_id":"levelo_inurba_marseille","lat":43.26786,"lon":5.39419,"is_reserved":false,"is_disabled":false,"rental_uris":{"android":"levelo://app?vid=d1dc16e5-85c2-43d5-b8fa-3eebc423a7ee","ios":"levelo://app?vid=d1dc16e5-85c2-43d5-b8fa-3eebc423a7ee"},"vehicle_type_id":"4","last_reported":1734962889,"current_range_meters":21600,"station_id":"ce4bhh12rcd13ifvqfg0","pricing_plan_id":"cebpf4jnsgd1na2vs0mg"},{"bike_id":"3130a1e9-02dc-483e-bca9-c7faabf763a1","system_id":"levelo_inurba_marseille","lat":43.25501,"lon":5.37671,"is_reserved":false,"is_disabled":false,"rental_uris":{"android":"levelo://app?vid=3130a1e9-02dc-483e-bca9-c7faabf763a1","ios":"levelo://app?vid=3130a1e9-02dc-483e-bca9-c7faabf763a1"},"vehicle_type_id":"4","last_reported":1734962889,"current_range_meters":38800,"station_id":"ce4bhh12rcd13ifvqff0","pricing_plan_id":"cebpf4jnsgd1na2vs0mg"},{"bike_id":"635ccb9d-88db-4ba5-b6d1-124b9a790259","system_id":"levelo_inurba_marseille","lat":43.25589,"lon":5.38269,"is_reserved":false,"is_disabled":false,"rental_uris":{"android":"levelo://app?vid=635ccb9d-88db-4ba5-b6d1-124b9a790259","ios":"levelo://app?vid=635ccb9d-88db-4ba5-b6d1-124b9a790259"},"vehicle_type_id":"4","last_reported":1734962889,"current_range_meters":24800,"station_id":"ce4bhih2rcd13ifvqfs0","pricing_plan_id":"cebpf4jnsgd1na2vs0mg"},{"bike_id":"b76cea7e-5025-4e14-a8c7-eebf31292c4c","system_id":"levelo_inurba_marseille","lat":43.26067,"lon":5.39395,"is_reserved":false,"is_disabled":true,"rental_uris":{"android":"levelo://app?vid=b76cea7e-5025-4e14-a8c7-eebf31292c4c","ios":"levelo://app?vid=b76cea7e-5025-4e14-a8c7-eebf31292c4c"},"vehicle_type_id":"4","last_reported":1734962889,"current_range_meters":28400,"station_id":"ce4bhh92rcd13ifvqfj0","pricing_plan_id":"cebpf4jnsgd1na2vs0mg"},{"bike_id":"aa1436f5-c993-4bcf-bfe2-e10aaba5f65a","system_id":"levelo_inurba_marseille","lat":43.33024,"lon":5.39039,"is_reserved":false,"is_disabled":false,"rental_uris":{"android":"levelo://app?vid=aa1436f5-c993-4bcf-bfe2-e10aaba5f65a","ios":"levelo://app?vid=aa1436f5-c993-4bcf-bfe2-e10aaba5f65a"},"vehicle_type_id":"4","last_reported":1734962889,"current_range_meters":18000,"station_id":"ce4bhr92rcd13ifvqhrg","pricing_plan_id":"cebpf4jnsgd1na2vs0mg"},{"bike_id":"b385a3ef-d6ae-472e-981a-32c07a4ffc9c","system_id":"levelo_inurba_marseille","lat":43.27053,"lon":5.40264,"is_reserved":false,"is_disabled":false,"rental_uris":{"android":"levelo://app?vid=b385a3ef-d6ae-472e-981a-32c07a4ffc9c","ios":"levelo://app?vid=b385a3ef-d6ae-472e-981a-32c07a4ffc9c"},"vehicle_type_id":"4","last_reported":1734962889,"current_range_meters":36800,"station_id":"ce4bhk92rcd13ifvqgc0","pricing_plan_id":"cebpf4jnsgd1na2vs0mg"},{"bike_id":"fb1eaf8b-bec7-43ef-9756-b887dc8ac40f","system_id":"levelo_inurba_marseille","lat":43.28433,"lon":5.37525,"is_reserved":false,"is_disabled":false,"rental_uris":{"android":"levelo://app?vid=fb1eaf8b-bec7-43ef-9756-b887dc8ac40f","ios":"levelo://app?vid=fb1eaf8b-bec7-43ef-9756-b887dc8ac40f"},"vehicle_type_id":"4","last_reported":1734962889,"current_range_meters":36000,"station_id":"ce4bh412rcd13ifvqds0","pricing_plan_id":"cebpf4jnsgd1na2vs0mg"},{"bike_id":"f64237d5-46cf-42d8-870d-cc1e4d25f3e7","system_id":"levelo_inurba_marseille","lat":43.26713,"lon":5.38278,"is_reserved":false,"is_disabled":false,"rental_uris":{"android":"levelo://app?vid=f64237d5-46cf-42d8-870d-cc1e4d25f3e7","ios":"levelo://app?vid=f64237d5-46cf-42d8-870d-cc1e4d25f3e7"},"vehicle_type_id":"4","last_reported":1734962889,"current_range_meters":33600,"station_id":"ce4bhg92rcd13ifvqf90","pricing_plan_id":"cebpf4jnsgd1na2vs0mg"},{"bike_id":"1e8c1fdd-eb97-4f7c-acee-27c706aa87da","system_id":"levelo_inurba_marseille","lat":43.33768,"lon":5.37436,"is_reserved":false,"is_disabled":false,"rental_uris":{"android":"levelo://app?vid=1e8c1fdd-eb97-4f7c-acee-27c706aa87da","ios":"levelo://app?vid=1e8c1fdd-eb97-4f7c-acee-27c706aa87da"},"vehicle_type_id":"4","last_reported":1734962889,"current_range_meters":38000,"station_id":"","pricing_plan_id":"cebpf4jnsgd1na2vs0mg"},{"bike_id":"5d29fc56-dbb2-4006-96bc-27e181f8d4f5","system_id":"levelo_inurba_marseille","lat":43.298514,"lon":5.362837,"is_reserved":false,"is_disabled":false,"rental_uris":{"android":"levelo://app?vid=5d29fc56-dbb2-4006-96bc-27e181f8d4f5","ios":"levelo://app?vid=5d29fc56-dbb2-4006-96bc-27e181f8d4f5"},"vehicle_type_id":"4","last_reported":1734962889,"current_range_meters":38800,"station_id":"ce4bgpp2rcd13ifvqc3g","pricing_plan_id":"cebpf4jnsgd1na2vs0mg"},{"bike_id":"e11034bc-1e33-4e61-bbe9-3cdf0db13805","system_id":"levelo_inurba_marseille","lat":43.29014,"lon":5.38145,"is_reserved":false,"is_disabled":false,"rental_uris":{"android":"levelo://app?vid=e11034bc-1e33-4e61-bbe9-3cdf0db13805","ios":"levelo://app?vid=e11034bc-1e33-4e61-bbe9-3cdf0db13805"},"vehicle_type_id":"4","last_reported":1734962889,"current_range_meters":38000,"station_id":"ce4bh4p2rcd13ifvqe1g","pricing_plan_id":"cebpf4jnsgd1na2vs0mg"},{"bike_id":"e1a1fefb-6ade-46e6-98d6-844f07ab9872","system_id":"levelo_inurba_marseille","lat":43.29262,"lon":5.36851,"is_reserved":false,"is_disabled":false,"rental_uris":{"android":"levelo://app?vid=e1a1fefb-6ade-46e6-98d6-844f07ab9872","ios":"levelo://app?vid=e1a1fefb-6ade-46e6-98d6-844f07ab9872"},"vehicle_type_id":"4","last_reported":1734962889,"current_range_meters":20000,"station_id":"ce4bhbp2rcd13ifvqesg","pricing_plan_id":"cebpf4jnsgd1na2vs0mg"},{"bike_id":"384703fa-0bca-4cdd-8569-5eaec8e257c7","system_id":"levelo_inurba_marseille","lat":43.29614,"lon":5.37726,"is_reserved":false,"is_disabled":false,"rental_uris":{"android":"levelo://app?vid=384703fa-0bca-4cdd-8569-5eaec8e257c7","ios":"levelo://app?vid=384703fa-0bca-4cdd-8569-5eaec8e257c7"},"vehicle_type_id":"4","last_reported":1734962889,"current_range_meters":33200,"station_id":"ce4bgi92rcd13ifvqb90","pricing_plan_id":"cebpf4jnsgd1na2vs0mg"},{"bike_id":"10f4c972-306b-4715-a504-cabc848301b9","system_id":"levelo_inurba_marseille","lat":43.29287,"lon":5.40125,"is_reserved":false,"is_disabled":false,"rental_uris":{"android":"levelo://app?vid=10f4c972-306b-4715-a504-cabc848301b9","ios":"levelo://app?vid=10f4c972-306b-4715-a504-cabc848301b9"},"vehicle_type_id":"4","last_reported":1734962889,"current_range_meters":23200,"station_id":"ce4bh312rcd13ifvqdk0","pricing_plan_id":"cebpf4jnsgd1na2vs0mg"},{"bike_id":"8d1e6821-96d9-47ad-9a26-5c5e1a79c7b5","system_id":"levelo_inurba_marseille","lat":43.29908,"lon":5.38143,"is_reserved":false,"is_disabled":false,"rental_uris":{"android":"levelo://app?vid=8d1e6821-96d9-47ad-9a26-5c5e1a79c7b5","ios":"levelo://app?vid=8d1e6821-96d9-47ad-9a26-5c5e1a79c7b5"},"vehicle_type_id":"4","last_reported":1734962889,"current_range_meters":38800,"station_id":"ce4bgj12rcd13ifvqbc0","pricing_plan_id":"cebpf4jnsgd1na2vs0mg"},{"bike_id":"41d0d9f5-bb31-41f6-8358-898df39bf21c","system_id":"levelo_inurba_marseille","lat":43.25871,"lon":5.39906,"is_reserved":false,"is_disabled":false,"rental_uris":{"android":"levelo://app?vid=41d0d9f5-bb31-41f6-8358-898df39bf21c","ios":"levelo://app?vid=41d0d9f5-bb31-41f6-8358-898df39bf21c"},"vehicle_type_id":"4","last_reported":1734962889,"current_range_meters":38800,"station_id":"ce4bhl92rcd13ifvqghg","pricing_plan_id":"cebpf4jnsgd1na2vs0mg"},{"bike_id":"7e211114-fd49-4399-8a81-09d040af8d46","system_id":"levelo_inurba_marseille","lat":43.24809,"lon":5.37448,"is_reserved":false,"is_disabled":false,"rental_uris":{"android":"levelo://app?vid=7e211114-fd49-4399-8a81-09d040af8d46","ios":"levelo://app?vid=7e211114-fd49-4399-8a81-09d040af8d46"},"vehicle_type_id":"4","last_reported":1734962889,"current_range_meters":39200,"station_id":"ce4bhgh2rcd13ifvqfb0","pricing_plan_id":"cebpf4jnsgd1na2vs0mg"},{"bike_id":"8fd4ed25-e7b3-49be-b1e0-521234d05b10","system_id":"levelo_inurba_marseille","lat":43.32475,"lon":5.36568,"is_reserved":false,"is_disabled":false,"rental_uris":{"android":"levelo://app?vid=8fd4ed25-e7b3-49be-b1e0-521234d05b10","ios":"levelo://app?vid=8fd4ed25-e7b3-49be-b1e0-521234d05b10"},"vehicle_type_id":"4","last_reported":1734962889,"current_range_meters":28800,"station_id":"ce4bhs12rcd13ifvqhvg","pricing_plan_id":"cebpf4jnsgd1na2vs0mg"},{"bike_id":"eaa93ee8-361b-4bd6-bc3c-a3486958f70d","system_id":"levelo_inurba_marseille","lat":43.29297,"lon":5.37455,"is_reserved":false,"is_disabled":false,"rental_uris":{"android":"levelo://app?vid=eaa93ee8-361b-4bd6-bc3c-a3486958f70d","ios":"levelo://app?vid=eaa93ee8-361b-4bd6-bc3c-a3486958f70d"},"vehicle_type_id":"4","last_reported":1734962889,"current_range_meters":37600,"station_id":"ce4bgi12rcd13ifvqb70","pricing_plan_id":"cebpf4jnsgd1na2vs0mg"},{"bike_id":"96d5dd56-e6ec-496f-90ba-f112638bb2cc","system_id":"levelo_inurba_marseille","lat":43.30622,"lon":5.37214,"is_reserved":false,"is_disabled":false,"rental_uris":{"android":"levelo://app?vid=96d5dd56-e6ec-496f-90ba-f112638bb2cc","ios":"levelo://app?vid=96d5dd56-e6ec-496f-90ba-f112638bb2cc"},"vehicle_type_id":"4","last_reported":1734962889,"current_range_meters":33600,"station_id":"ce4bgqh2rcd13ifvqc4g","pricing_plan_id":"cebpf4jnsgd1na2vs0mg"},{"bike_id":"e724f4e5-0922-4e36-91f4-8a4c9d514ff5","system_id":"levelo_inurba_marseille","lat":43.29839,"lon":5.3627,"is_reserved":false,"is_disabled":false,"rental_uris":{"android":"levelo://app?vid=e724f4e5-0922-4e36-91f4-8a4c9d514ff5","ios":"levelo://app?vid=e724f4e5-0922-4e36-91f4-8a4c9d514ff5"},"vehicle_type_id":"4","last_reported":1734962889,"current_range_meters":37600,"station_id":"ce4bgpp2rcd13ifvqc3g","pricing_plan_id":"cebpf4jnsgd1na2vs0mg"},{"bike_id":"e758d540-a49b-4c63-beac-9556d1c03d6f","system_id":"levelo_inurba_marseille","lat":43.31714,"lon":5.42405,"is_reserved":false,"is_disabled":false,"rental_uris":{"android":"levelo://app?vid=e758d540-a49b-4c63-beac-9556d1c03d6f","ios":"levelo://app?vid=e758d540-a49b-4c63-beac-9556d1c03d6f"},"vehicle_type_id":"4","last_reported":1734962889,"current_range_meters":36800,"station_id":"ce4bhp92rcd13ifvqhbg","pricing_plan_id":"cebpf4jnsgd1na2vs0mg"},{"bike_id":"d98f0b8a-1ef4-43b4-85a1-12b00b5f4de1","system_id":"levelo_inurba_marseille","lat":43.28418,"lon":5.34976,"is_reserved":false,"is_disabled":false,"rental_uris":{"android":"levelo://app?vid=d98f0b8a-1ef4-43b4-85a1-12b00b5f4de1","ios":"levelo://app?vid=d98f0b8a-1ef4-43b4-85a1-12b00b5f4de1"},"vehicle_type_id":"4","last_reported":1734962889,"current_range_meters":30800,"station_id":"ce4bhbh2rcd13ifvqepg","pricing_plan_id":"cebpf4jnsgd1na2vs0mg"},{"bike_id":"dd3dbacf-347a-4a33-90ce-76bd61257750","system_id":"levelo_inurba_marseille","lat":43.32048,"lon":5.41564,"is_reserved":false,"is_disabled":true,"rental_uris":{"android":"levelo://app?vid=dd3dbacf-347a-4a33-90ce-76bd61257750","ios":"levelo://app?vid=dd3dbacf-347a-4a33-90ce-76bd61257750"},"vehicle_type_id":"4","last_reported":1734962889,"current_range_meters":39200,"station_id":"ce4bhq92rcd13ifvqhkg","pricing_plan_id":"cebpf4jnsgd1na2vs0mg"},{"bike_id":"71bbaaf0-30fa-412b-9088-f880a672af88","system_id":"levelo_inurba_marseille","lat":43.26025,"lon":5.37555,"is_reserved":false,"is_disabled":false,"rental_uris":{"android":"levelo://app?vid=71bbaaf0-30fa-412b-9088-f880a672af88","ios":"levelo://app?vid=71bbaaf0-30fa-412b-9088-f880a672af88"},"vehicle_type_id":"4","last_reported":1734962889,"current_range_meters":32000,"station_id":"ce4bhgh2rcd13ifvqfa0","pricing_plan_id":"cebpf4jnsgd1na2vs0mg"},{"bike_id":"21ab5b88-6485-46cc-b980-ff963f0dbebd","system_id":"levelo_inurba_marseille","lat":43.28476,"lon":5.38446,"is_reserved":false,"is_disabled":false,"rental_uris":{"android":"levelo://app?vid=21ab5b88-6485-46cc-b980-ff963f0dbebd","ios":"levelo://app?vid=21ab5b88-6485-46cc-b980-ff963f0dbebd"},"vehicle_type_id":"4","last_reported":1734962889,"current_range_meters":29600,"station_id":"ce4bh512rcd13ifvqe3g","pricing_plan_id":"cebpf4jnsgd1na2vs0mg"},{"bike_id":"4a6725fc-a836-4f87-b7ea-100e1ba8d7c4","system_id":"levelo_inurba_marseille","lat":43.28412,"lon":5.37531,"is_reserved":false,"is_disabled":false,"rental_uris":{"android":"levelo://app?vid=4a6725fc-a836-4f87-b7ea-100e1ba8d7c4","ios":"levelo://app?vid=4a6725fc-a836-4f87-b7ea-100e1ba8d7c4"},"vehicle_type_id":"4","last_reported":1734962889,"current_range_meters":25200,"station_id":"ce4bh412rcd13ifvqds0","pricing_plan_id":"cebpf4jnsgd1na2vs0mg"},{"bike_id":"980185bd-062a-4071-8686-3ad854900388","system_id":"levelo_inurba_marseille","lat":43.23187,"lon":5.39999,"is_reserved":false,"is_disabled":true,"rental_uris":{"android":"levelo://app?vid=980185bd-062a-4071-8686-3ad854900388","ios":"levelo://app?vid=980185bd-062a-4071-8686-3ad854900388"},"vehicle_type_id":"4","last_reported":1734962889,"current_range_meters":1600,"station_id":"ce4bhn12rcd13ifvqgqg","pricing_plan_id":"cebpf4jnsgd1na2vs0mg"},{"bike_id":"a45d7bd1-4293-495f-bfde-11f55f0dec91","system_id":"levelo_inurba_marseille","lat":43.27931,"lon":5.38726,"is_reserved":false,"is_disabled":false,"rental_uris":{"android":"levelo://app?vid=a45d7bd1-4293-495f-bfde-11f55f0dec91","ios":"levelo://app?vid=a45d7bd1-4293-495f-bfde-11f55f0dec91"},"vehicle_type_id":"4","last_reported":1734962889,"current_range_meters":31200,"station_id":"ce4bhg12rcd13ifvqf80","pricing_plan_id":"cebpf4jnsgd1na2vs0mg"},{"bike_id":"dc3dce93-662a-4050-8e00-d4fdf2a3866f","system_id":"levelo_inurba_marseille","lat":43.25523,"lon":5.37679,"is_reserved":false,"is_disabled":false,"rental_uris":{"android":"levelo://app?vid=dc3dce93-662a-4050-8e00-d4fdf2a3866f","ios":"levelo://app?vid=dc3dce93-662a-4050-8e00-d4fdf2a3866f"},"vehicle_type_id":"4","last_reported":1734962889,"current_range_meters":38800,"station_id":"ce4bhh12rcd13ifvqff0","pricing_plan_id":"cebpf4jnsgd1na2vs0mg"},{"bike_id":"e0e29527-1e19-4212-acb1-99df124df8d1","system_id":"levelo_inurba_marseille","lat":43.29176,"lon":5.37168,"is_reserved":false,"is_disabled":false,"rental_uris":{"android":"levelo://app?vid=e0e29527-1e19-4212-acb1-99df124df8d1","ios":"levelo://app?vid=e0e29527-1e19-4212-acb1-99df124df8d1"},"vehicle_type_id":"4","last_reported":1734962889,"current_range_meters":38800,"station_id":"ce4bha92rcd13ifvqeh0","pricing_plan_id":"cebpf4jnsgd1na2vs0mg"},{"bike_id":"a87760bb-860a-41ff-af6f-797f55d9f68d","system_id":"levelo_inurba_marseille","lat":43.2979,"lon":5.39359,"is_reserved":false,"is_disabled":false,"rental_uris":{"android":"levelo://app?vid=a87760bb-860a-41ff-af6f-797f55d9f68d","ios":"levelo://app?vid=a87760bb-860a-41ff-af6f-797f55d9f68d"},"vehicle_type_id":"4","last_reported":1734962889,"current_range_meters":36800,"station_id":"chh1huq6cuj3fo74tm60","pricing_plan_id":"cebpf4jnsgd1na2vs0mg"},{"bike_id":"da2cf751-5fbe-4046-877c-63cc74d17142","system_id":"levelo_inurba_marseille","lat":43.27206,"lon":5.39189,"is_reserved":false,"is_disabled":false,"rental_uris":{"android":"levelo://app?vid=da2cf751-5fbe-4046-877c-63cc74d17142","ios":"levelo://app?vid=da2cf751-5fbe-4046-877c-63cc74d17142"},"vehicle_type_id":"4","last_reported":1734962889,"current_range_meters":30000,"station_id":"ce4bhhp2rcd13ifvqfm0","pricing_plan_id":"cebpf4jnsgd1na2vs0mg"},{"bike_id":"370a5638-7ba2-4fb7-a94d-eb38ce88ddf9","system_id":"levelo_inurba_marseille","lat":43.31349,"lon":5.36723,"is_reserved":false,"is_disabled":false,"rental_uris":{"android":"levelo://app?vid=370a5638-7ba2-4fb7-a94d-eb38ce88ddf9","ios":"levelo://app?vid=370a5638-7ba2-4fb7-a94d-eb38ce88ddf9"},"vehicle_type_id":"4","last_reported":1734962889,"current_range_meters":39200,"station_id":"ce4bgr92rcd13ifvqc6g","pricing_plan_id":"cebpf4jnsgd1na2vs0mg"},{"bike_id":"1bff88cc-7e80-4f66-93cd-eccfe100465b","system_id":"levelo_inurba_marseille","lat":43.305443,"lon":5.365421,"is_reserved":false,"is_disabled":false,"rental_uris":{"android":"levelo://app?vid=1bff88cc-7e80-4f66-93cd-eccfe100465b","ios":"levelo://app?vid=1bff88cc-7e80-4f66-93cd-eccfe100465b"},"vehicle_type_id":"4","last_reported":1734962889,"current_range_meters":36400,"station_id":"ce4bgs12rcd13ifvqcag","pricing_plan_id":"cebpf4jnsgd1na2vs0mg"},{"bike_id":"fa27ee24-baf1-4edf-912c-c35c66d5d9f9","system_id":"levelo_inurba_marseille","lat":43.30535,"lon":5.36538,"is_reserved":false,"is_disabled":false,"rental_uris":{"android":"levelo://app?vid=fa27ee24-baf1-4edf-912c-c35c66d5d9f9","ios":"levelo://app?vid=fa27ee24-baf1-4edf-912c-c35c66d5d9f9"},"vehicle_type_id":"4","last_reported":1734962889,"current_range_meters":39200,"station_id":"ce4bgs12rcd13ifvqcag","pricing_plan_id":"cebpf4jnsgd1na2vs0mg"},{"bike_id":"eb493c73-faad-4c01-b4aa-27ac99a1af59","system_id":"levelo_inurba_marseille","lat":43.2962,"lon":5.37166,"is_reserved":false,"is_disabled":false,"rental_uris":{"android":"levelo://app?vid=eb493c73-faad-4c01-b4aa-27ac99a1af59","ios":"levelo://app?vid=eb493c73-faad-4c01-b4aa-27ac99a1af59"},"vehicle_type_id":"4","last_reported":1734962889,"current_range_meters":29600,"station_id":"ce4bgnh2rcd13ifvqc0g","pricing_plan_id":"cebpf4jnsgd1na2vs0mg"},{"bike_id":"8137b16e-0483-4de3-b680-5eb21eccdacf","system_id":"levelo_inurba_marseille","lat":43.2958,"lon":5.37508,"is_reserved":false,"is_disabled":true,"rental_uris":{"android":"levelo://app?vid=8137b16e-0483-4de3-b680-5eb21eccdacf","ios":"levelo://app?vid=8137b16e-0483-4de3-b680-5eb21eccdacf"},"vehicle_type_id":"4","last_reported":1734962889,"current_range_meters":36400,"station_id":"ce4bgh92rcd13ifvqb50","pricing_plan_id":"cebpf4jnsgd1na2vs0mg"},{"bike_id":"4e04016c-2772-4e68-b3ac-c97099768127","system_id":"levelo_inurba_marseille","lat":43.29045,"lon":5.37569,"is_reserved":false,"is_disabled":false,"rental_uris":{"android":"levelo://app?vid=4e04016c-2772-4e68-b3ac-c97099768127","ios":"levelo://app?vid=4e04016c-2772-4e68-b3ac-c97099768127"},"vehicle_type_id":"4","last_reported":1734962889,"current_range_meters":33200,"station_id":"ce4bh692rcd13ifvqe90","pricing_plan_id":"cebpf4jnsgd1na2vs0mg"},{"bike_id":"a3f20b06-fbbc-488d-ab74-510676955d57","system_id":"levelo_inurba_marseille","lat":43.31888,"lon":5.40755,"is_reserved":false,"is_disabled":false,"rental_uris":{"android":"levelo://app?vid=a3f20b06-fbbc-488d-ab74-510676955d57","ios":"levelo://app?vid=a3f20b06-fbbc-488d-ab74-510676955d57"},"vehicle_type_id":"4","last_reported":1734962889,"current_range_meters":30400,"station_id":"ce4bhq12rcd13ifvqhig","pricing_plan_id":"cebpf4jnsgd1na2vs0mg"},{"bike_id":"2633e9ba-ac8f-41eb-8615-a08e37b3083a","system_id":"levelo_inurba_marseille","lat":43.27196,"lon":5.41016,"is_reserved":false,"is_disabled":false,"rental_uris":{"android":"levelo://app?vid=2633e9ba-ac8f-41eb-8615-a08e37b3083a","ios":"levelo://app?vid=2633e9ba-ac8f-41eb-8615-a08e37b3083a"},"vehicle_type_id":"4","last_reported":1734962889,"current_range_meters":32400,"station_id":"ce4bhl12rcd13ifvqgf0","pricing_plan_id":"cebpf4jnsgd1na2vs0mg"},{"bike_id":"42504198-7683-425c-bc1a-4188fde13f5b","system_id":"levelo_inurba_marseille","lat":43.29727,"lon":5.37692,"is_reserved":false,"is_disabled":false,"rental_uris":{"android":"levelo://app?vid=42504198-7683-425c-bc1a-4188fde13f5b","ios":"levelo://app?vid=42504198-7683-425c-bc1a-4188fde13f5b"},"vehicle_type_id":"4","last_reported":1734962889,"current_range_meters":36800,"station_id":"ce4bgkh2rcd13ifvqbl0","pricing_plan_id":"cebpf4jnsgd1na2vs0mg"},{"bike_id":"af1cd6cf-2562-434f-aa74-4bd775d99ddb","system_id":"levelo_inurba_marseille","lat":43.31069,"lon":5.38356,"is_reserved":false,"is_disabled":true,"rental_uris":{"android":"levelo://app?vid=af1cd6cf-2562-434f-aa74-4bd775d99ddb","ios":"levelo://app?vid=af1cd6cf-2562-434f-aa74-4bd775d99ddb"},"vehicle_type_id":"4","last_reported":1734962889,"current_range_meters":32000,"station_id":"ce4bgv92rcd13ifvqcr0","pricing_plan_id":"cebpf4jnsgd1na2vs0mg"},{"bike_id":"e73e6057-e6e9-407b-a17e-f4e119a96aba","system_id":"levelo_inurba_marseille","lat":43.321074,"lon":5.367725,"is_reserved":false,"is_disabled":false,"rental_uris":{"android":"levelo://app?vid=e73e6057-e6e9-407b-a17e-f4e119a96aba","ios":"levelo://app?vid=e73e6057-e6e9-407b-a17e-f4e119a96aba"},"vehicle_type_id":"4","last_reported":1734962889,"current_range_meters":7200,"station_id":"ce4bhrh2rcd13ifvqhug","pricing_plan_id":"cebpf4jnsgd1na2vs0mg"},{"bike_id":"8c23ca40-0769-4ca8-b1f0-68e8fb86c54b","system_id":"levelo_inurba_marseille","lat":43.24998,"lon":5.38924,"is_reserved":false,"is_disabled":false,"rental_uris":{"android":"levelo://app?vid=8c23ca40-0769-4ca8-b1f0-68e8fb86c54b","ios":"levelo://app?vid=8c23ca40-0769-4ca8-b1f0-68e8fb86c54b"},"vehicle_type_id":"4","last_reported":1734962889,"current_range_meters":9200,"station_id":"ce4bhgp2rcd13ifvqfd0","pricing_plan_id":"cebpf4jnsgd1na2vs0mg"},{"bike_id":"ff19ce84-10b6-4ffc-b9fc-1625914b166c","system_id":"levelo_inurba_marseille","lat":43.29698,"lon":5.36611,"is_reserved":false,"is_disabled":false,"rental_uris":{"android":"levelo://app?vid=ff19ce84-10b6-4ffc-b9fc-1625914b166c","ios":"levelo://app?vid=ff19ce84-10b6-4ffc-b9fc-1625914b166c"},"vehicle_type_id":"4","last_reported":1734962889,"current_range_meters":28800,"station_id":"ce4bgn12rcd13ifvqbt0","pricing_plan_id":"cebpf4jnsgd1na2vs0mg"},{"bike_id":"eec5b158-e03f-497d-94cc-73d8f287c475","system_id":"levelo_inurba_marseille","lat":43.29041,"lon":5.35904,"is_reserved":false,"is_disabled":false,"rental_uris":{"android":"levelo://app?vid=eec5b158-e03f-497d-94cc-73d8f287c475","ios":"levelo://app?vid=eec5b158-e03f-497d-94cc-73d8f287c475"},"vehicle_type_id":"4","last_reported":1734962889,"current_range_meters":37600,"station_id":"ce4bha92rcd13ifvqeg0","pricing_plan_id":"cebpf4jnsgd1na2vs0mg"},{"bike_id":"c99ba480-bd0d-4379-ae34-4ed49b478ae0","system_id":"levelo_inurba_marseille","lat":43.26208,"lon":5.37441,"is_reserved":false,"is_disabled":false,"rental_uris":{"android":"levelo://app?vid=c99ba480-bd0d-4379-ae34-4ed49b478ae0","ios":"levelo://app?vid=c99ba480-bd0d-4379-ae34-4ed49b478ae0"},"vehicle_type_id":"4","last_reported":1734962889,"current_range_meters":30000,"station_id":"ce4bhgp2rcd13ifvqfc0","pricing_plan_id":"cebpf4jnsgd1na2vs0mg"},{"bike_id":"2ecd7a5c-6b03-4906-a193-c1bc16b7668c","system_id":"levelo_inurba_marseille","lat":43.30234,"lon":5.40099,"is_reserved":false,"is_disabled":true,"rental_uris":{"android":"levelo://app?vid=2ecd7a5c-6b03-4906-a193-c1bc16b7668c","ios":"levelo://app?vid=2ecd7a5c-6b03-4906-a193-c1bc16b7668c"},"vehicle_type_id":"4","last_reported":1734962889,"current_range_meters":32800,"station_id":"ce4bgvh2rcd13ifvqcs0","pricing_plan_id":"cebpf4jnsgd1na2vs0mg"},{"bike_id":"4bcb37c0-9249-499d-890c-0bbf93d29f8b","system_id":"levelo_inurba_marseille","lat":43.23188,"lon":5.35543,"is_reserved":false,"is_disabled":true,"rental_uris":{"android":"levelo://app?vid=4bcb37c0-9249-499d-890c-0bbf93d29f8b","ios":"levelo://app?vid=4bcb37c0-9249-499d-890c-0bbf93d29f8b"},"vehicle_type_id":"4","last_reported":1734962889,"current_range_meters":22400,"station_id":"ce4bhu92rcd13ifvqi70","pricing_plan_id":"cebpf4jnsgd1na2vs0mg"},{"bike_id":"3eb90edc-e357-4d71-9531-1137e0e55cf7","system_id":"levelo_inurba_marseille","lat":43.29386,"lon":5.37831,"is_reserved":false,"is_disabled":false,"rental_uris":{"android":"levelo://app?vid=3eb90edc-e357-4d71-9531-1137e0e55cf7","ios":"levelo://app?vid=3eb90edc-e357-4d71-9531-1137e0e55cf7"},"vehicle_type_id":"4","last_reported":1734962889,"current_range_meters":16000,"station_id":"ce4bgjh2rcd13ifvqbf0","pricing_plan_id":"cebpf4jnsgd1na2vs0mg"},{"bike_id":"4d70a3bf-a8e9-4395-92a9-3e1f7045a4b1","system_id":"levelo_inurba_marseille","lat":43.32042,"lon":5.41566,"is_reserved":false,"is_disabled":false,"rental_uris":{"android":"levelo://app?vid=4d70a3bf-a8e9-4395-92a9-3e1f7045a4b1","ios":"levelo://app?vid=4d70a3bf-a8e9-4395-92a9-3e1f7045a4b1"},"vehicle_type_id":"4","last_reported":1734962889,"current_range_meters":38400,"station_id":"ce4bhq92rcd13ifvqhkg","pricing_plan_id":"cebpf4jnsgd1na2vs0mg"},{"bike_id":"8c6b4140-6220-43d0-8e62-acb4296f5484","system_id":"levelo_inurba_marseille","lat":43.29295,"lon":5.3745,"is_reserved":false,"is_disabled":false,"rental_uris":{"android":"levelo://app?vid=8c6b4140-6220-43d0-8e62-acb4296f5484","ios":"levelo://app?vid=8c6b4140-6220-43d0-8e62-acb4296f5484"},"vehicle_type_id":"4","last_reported":1734962889,"current_range_meters":32400,"station_id":"ce4bgi12rcd13ifvqb70","pricing_plan_id":"cebpf4jnsgd1na2vs0mg"},{"bike_id":"a4f2a1ba-4c33-4d0d-8c83-eb221d73f773","system_id":"levelo_inurba_marseille","lat":43.29609,"lon":5.37738,"is_reserved":false,"is_disabled":false,"rental_uris":{"android":"levelo://app?vid=a4f2a1ba-4c33-4d0d-8c83-eb221d73f773","ios":"levelo://app?vid=a4f2a1ba-4c33-4d0d-8c83-eb221d73f773"},"vehicle_type_id":"4","last_reported":1734962889,"current_range_meters":38400,"station_id":"ce4bgi92rcd13ifvqb90","pricing_plan_id":"cebpf4jnsgd1na2vs0mg"},{"bike_id":"343bc065-3555-49ac-90b9-9f9335d87211","system_id":"levelo_inurba_marseille","lat":43.2582,"lon":5.39437,"is_reserved":false,"is_disabled":false,"rental_uris":{"android":"levelo://app?vid=343bc065-3555-49ac-90b9-9f9335d87211","ios":"levelo://app?vid=343bc065-3555-49ac-90b9-9f9335d87211"},"vehicle_type_id":"4","last_reported":1734962889,"current_range_meters":33600,"station_id":"ce4bhip2rcd13ifvqft0","pricing_plan_id":"cebpf4jnsgd1na2vs0mg"},{"bike_id":"ddbfce67-cbf8-4481-9917-3eaa981e7b2e","system_id":"levelo_inurba_marseille","lat":43.22924,"lon":5.35376,"is_reserved":false,"is_disabled":false,"rental_uris":{"android":"levelo://app?vid=ddbfce67-cbf8-4481-9917-3eaa981e7b2e","ios":"levelo://app?vid=ddbfce67-cbf8-4481-9917-3eaa981e7b2e"},"vehicle_type_id":"4","last_reported":1734962889,"current_range_meters":28000,"station_id":"cpo3532slgdg3j2ikp40","pricing_plan_id":"cebpf4jnsgd1na2vs0mg"},{"bike_id":"f05c7e32-ee1f-4822-9688-1d8bdc5b4813","system_id":"levelo_inurba_marseille","lat":43.2668,"lon":5.38272,"is_reserved":false,"is_disabled":false,"rental_uris":{"android":"levelo://app?vid=f05c7e32-ee1f-4822-9688-1d8bdc5b4813","ios":"levelo://app?vid=f05c7e32-ee1f-4822-9688-1d8bdc5b4813"},"vehicle_type_id":"4","last_reported":1734962889,"current_range_meters":38800,"station_id":"ce4bhg92rcd13ifvqf90","pricing_plan_id":"cebpf4jnsgd1na2vs0mg"},{"bike_id":"d40f1e6c-dd7d-4a6b-9613-7314f471a7fe","system_id":"levelo_inurba_marseille","lat":43.30155,"lon":5.38094,"is_reserved":false,"is_disabled":false,"rental_uris":{"android":"levelo://app?vid=d40f1e6c-dd7d-4a6b-9613-7314f471a7fe","ios":"levelo://app?vid=d40f1e6c-dd7d-4a6b-9613-7314f471a7fe"},"vehicle_type_id":"4","last_reported":1734962889,"current_range_meters":34000,"station_id":"ce4bgjp2rcd13ifvqbh0","pricing_plan_id":"cebpf4jnsgd1na2vs0mg"},{"bike_id":"dad6db58-f5bc-4da2-b0b4-3d5d1002166b","system_id":"levelo_inurba_marseille","lat":43.32109,"lon":5.36774,"is_reserved":false,"is_disabled":false,"rental_uris":{"android":"levelo://app?vid=dad6db58-f5bc-4da2-b0b4-3d5d1002166b","ios":"levelo://app?vid=dad6db58-f5bc-4da2-b0b4-3d5d1002166b"},"vehicle_type_id":"4","last_reported":1734962889,"current_range_meters":36400,"station_id":"ce4bhrh2rcd13ifvqhug","pricing_plan_id":"cebpf4jnsgd1na2vs0mg"},{"bike_id":"d215e6a3-2dbb-4240-82c4-dbdd5ce5595f","system_id":"levelo_inurba_marseille","lat":43.29892,"lon":5.38142,"is_reserved":false,"is_disabled":false,"rental_uris":{"android":"levelo://app?vid=d215e6a3-2dbb-4240-82c4-dbdd5ce5595f","ios":"levelo://app?vid=d215e6a3-2dbb-4240-82c4-dbdd5ce5595f"},"vehicle_type_id":"4","last_reported":1734962889,"current_range_meters":19600,"station_id":"ce4bgj12rcd13ifvqbc0","pricing_plan_id":"cebpf4jnsgd1na2vs0mg"},{"bike_id":"60770c9f-5288-402e-a2f3-9eefe1cc354e","system_id":"levelo_inurba_marseille","lat":43.2956,"lon":5.37507,"is_reserved":false,"is_disabled":false,"rental_uris":{"android":"levelo://app?vid=60770c9f-5288-402e-a2f3-9eefe1cc354e","ios":"levelo://app?vid=60770c9f-5288-402e-a2f3-9eefe1cc354e"},"vehicle_type_id":"4","last_reported":1734962889,"current_range_meters":20000,"station_id":"ce4bgh92rcd13ifvqb50","pricing_plan_id":"cebpf4jnsgd1na2vs0mg"},{"bike_id":"80026bd6-ffb9-4c36-a5bf-a94e93e8775a","system_id":"levelo_inurba_marseille","lat":43.29264,"lon":5.36852,"is_reserved":false,"is_disabled":false,"rental_uris":{"android":"levelo://app?vid=80026bd6-ffb9-4c36-a5bf-a94e93e8775a","ios":"levelo://app?vid=80026bd6-ffb9-4c36-a5bf-a94e93e8775a"},"vehicle_type_id":"4","last_reported":1734962889,"current_range_meters":28000,"station_id":"ce4bhbp2rcd13ifvqesg","pricing_plan_id":"cebpf4jnsgd1na2vs0mg"},{"bike_id":"972e1b07-6d5a-4ee2-b220-0b87fe2fc597","system_id":"levelo_inurba_marseille","lat":43.30557,"lon":5.36546,"is_reserved":false,"is_disabled":false,"rental_uris":{"android":"levelo://app?vid=972e1b07-6d5a-4ee2-b220-0b87fe2fc597","ios":"levelo://app?vid=972e1b07-6d5a-4ee2-b220-0b87fe2fc597"},"vehicle_type_id":"4","last_reported":1734962889,"current_range_meters":32400,"station_id":"ce4bgs12rcd13ifvqcag","pricing_plan_id":"cebpf4jnsgd1na2vs0mg"},{"bike_id":"6507bce1-e9b4-4aad-bbab-13ef4b5297a4","system_id":"levelo_inurba_marseille","lat":43.31724,"lon":5.42401,"is_reserved":false,"is_disabled":false,"rental_uris":{"android":"levelo://app?vid=6507bce1-e9b4-4aad-bbab-13ef4b5297a4","ios":"levelo://app?vid=6507bce1-e9b4-4aad-bbab-13ef4b5297a4"},"vehicle_type_id":"4","last_reported":1734962889,"current_range_meters":38800,"station_id":"ce4bhp92rcd13ifvqhbg","pricing_plan_id":"cebpf4jnsgd1na2vs0mg"},{"bike_id":"7f05144e-08f4-4164-8954-2ee826ab7eaa","system_id":"levelo_inurba_marseille","lat":43.27842,"lon":5.39212,"is_reserved":false,"is_disabled":false,"rental_uris":{"android":"levelo://app?vid=7f05144e-08f4-4164-8954-2ee826ab7eaa","ios":"levelo://app?vid=7f05144e-08f4-4164-8954-2ee826ab7eaa"},"vehicle_type_id":"4","last_reported":1734962889,"current_range_meters":32800,"station_id":"ce4bhjp2rcd13ifvqga0","pricing_plan_id":"cebpf4jnsgd1na2vs0mg"},{"bike_id":"b00b2e39-6b46-4fee-b475-7c9478a90456","system_id":"levelo_inurba_marseille","lat":43.29517,"lon":5.37504,"is_reserved":false,"is_disabled":false,"rental_uris":{"android":"levelo://app?vid=b00b2e39-6b46-4fee-b475-7c9478a90456","ios":"levelo://app?vid=b00b2e39-6b46-4fee-b475-7c9478a90456"},"vehicle_type_id":"4","last_reported":1734962889,"current_range_meters":30800,"station_id":"ce4bgkp2rcd13ifvqbmg","pricing_plan_id":"cebpf4jnsgd1na2vs0mg"},{"bike_id":"00a81140-6d2d-4a7d-9793-0afc5da932e7","system_id":"levelo_inurba_marseille","lat":43.27675,"lon":5.38922,"is_reserved":false,"is_disabled":false,"rental_uris":{"android":"levelo://app?vid=00a81140-6d2d-4a7d-9793-0afc5da932e7","ios":"levelo://app?vid=00a81140-6d2d-4a7d-9793-0afc5da932e7"},"vehicle_type_id":"4","last_reported":1734962889,"current_range_meters":14800,"station_id":"ce4bhi12rcd13ifvqfo0","pricing_plan_id":"cebpf4jnsgd1na2vs0mg"},{"bike_id":"7d51f556-7ada-4233-9b93-03f8f492aa76","system_id":"levelo_inurba_marseille","lat":43.24524,"lon":5.39524,"is_reserved":false,"is_disabled":true,"rental_uris":{"android":"levelo://app?vid=7d51f556-7ada-4233-9b93-03f8f492aa76","ios":"levelo://app?vid=7d51f556-7ada-4233-9b93-03f8f492aa76"},"vehicle_type_id":"4","last_reported":1734962889,"current_range_meters":12400,"station_id":"ce4bhlp2rcd13ifvqgjg","pricing_plan_id":"cebpf4jnsgd1na2vs0mg"},{"bike_id":"d0e82741-a749-43ee-a0bc-2f617e5672f2","system_id":"levelo_inurba_marseille","lat":43.31185,"lon":5.38711,"is_reserved":false,"is_disabled":false,"rental_uris":{"android":"levelo://app?vid=d0e82741-a749-43ee-a0bc-2f617e5672f2","ios":"levelo://app?vid=d0e82741-a749-43ee-a0bc-2f617e5672f2"},"vehicle_type_id":"4","last_reported":1734962889,"current_range_meters":8800,"station_id":"ce4bgv12rcd13ifvqcp0","pricing_plan_id":"cebpf4jnsgd1na2vs0mg"},{"bike_id":"50ed8d09-e307-4804-8048-b331687ea0e6","system_id":"levelo_inurba_marseille","lat":43.24674,"lon":5.38167,"is_reserved":false,"is_disabled":false,"rental_uris":{"android":"levelo://app?vid=50ed8d09-e307-4804-8048-b331687ea0e6","ios":"levelo://app?vid=50ed8d09-e307-4804-8048-b331687ea0e6"},"vehicle_type_id":"4","last_reported":1734962889,"current_range_meters":38800,"station_id":"ce4bhih2rcd13ifvqfr0","pricing_plan_id":"cebpf4jnsgd1na2vs0mg"},{"bike_id":"213bc904-ac7f-4cc9-bb02-fc34c779e745","system_id":"levelo_inurba_marseille","lat":43.27952,"lon":5.4106,"is_reserved":false,"is_disabled":false,"rental_uris":{"android":"levelo://app?vid=213bc904-ac7f-4cc9-bb02-fc34c779e745","ios":"levelo://app?vid=213bc904-ac7f-4cc9-bb02-fc34c779e745"},"vehicle_type_id":"4","last_reported":1734962889,"current_range_meters":34800,"station_id":"ce4bhnp2rcd13ifvqh0g","pricing_plan_id":"cebpf4jnsgd1na2vs0mg"},{"bike_id":"f9fd94c9-2475-4acb-946f-8c0ced937d1e","system_id":"levelo_inurba_marseille","lat":43.28347,"lon":5.3811,"is_reserved":false,"is_disabled":false,"rental_uris":{"android":"levelo://app?vid=f9fd94c9-2475-4acb-946f-8c0ced937d1e","ios":"levelo://app?vid=f9fd94c9-2475-4acb-946f-8c0ced937d1e"},"vehicle_type_id":"4","last_reported":1734962889,"current_range_meters":20800,"station_id":"ce4bh412rcd13ifvqdr0","pricing_plan_id":"cebpf4jnsgd1na2vs0mg"},{"bike_id":"4c4857d7-70f5-4e5f-9880-b0ffae53456c","system_id":"levelo_inurba_marseille","lat":43.31234,"lon":5.36869,"is_reserved":false,"is_disabled":false,"rental_uris":{"android":"levelo://app?vid=4c4857d7-70f5-4e5f-9880-b0ffae53456c","ios":"levelo://app?vid=4c4857d7-70f5-4e5f-9880-b0ffae53456c"},"vehicle_type_id":"4","last_reported":1734962889,"current_range_meters":30000,"station_id":"ce4bgl92rcd13ifvqbq0","pricing_plan_id":"cebpf4jnsgd1na2vs0mg"},{"bike_id":"13c39096-92de-47dd-a9ee-5b5cda0c5bbc","system_id":"levelo_inurba_marseille","lat":43.24649,"lon":5.38901,"is_reserved":false,"is_disabled":false,"rental_uris":{"android":"levelo://app?vid=13c39096-92de-47dd-a9ee-5b5cda0c5bbc","ios":"levelo://app?vid=13c39096-92de-47dd-a9ee-5b5cda0c5bbc"},"vehicle_type_id":"4","last_reported":1734962889,"current_range_meters":35600,"station_id":"ce4bhg12rcd13ifvqf60","pricing_plan_id":"cebpf4jnsgd1na2vs0mg"},{"bike_id":"c787057b-d2c3-47cb-afbf-5583f193229c","system_id":"levelo_inurba_marseille","lat":43.24654,"lon":5.38893,"is_reserved":false,"is_disabled":false,"rental_uris":{"android":"levelo://app?vid=c787057b-d2c3-47cb-afbf-5583f193229c","ios":"levelo://app?vid=c787057b-d2c3-47cb-afbf-5583f193229c"},"vehicle_type_id":"4","last_reported":1734962889,"current_range_meters":38800,"station_id":"ce4bhg12rcd13ifvqf60","pricing_plan_id":"cebpf4jnsgd1na2vs0mg"},{"bike_id":"aca644f7-1dca-4969-8fda-f7acf7913db7","system_id":"levelo_inurba_marseille","lat":43.28445,"lon":5.38567,"is_reserved":false,"is_disabled":false,"rental_uris":{"android":"levelo://app?vid=aca644f7-1dca-4969-8fda-f7acf7913db7","ios":"levelo://app?vid=aca644f7-1dca-4969-8fda-f7acf7913db7"},"vehicle_type_id":"4","last_reported":1734962889,"current_range_meters":38800,"station_id":"ce4bh8p2rcd13ifvqeb0","pricing_plan_id":"cebpf4jnsgd1na2vs0mg"},{"bike_id":"9c7eeb5b-f97e-4fc2-ab19-aaf7531bd9e2","system_id":"levelo_inurba_marseille","lat":43.301544,"lon":5.38086,"is_reserved":false,"is_disabled":false,"rental_uris":{"android":"levelo://app?vid=9c7eeb5b-f97e-4fc2-ab19-aaf7531bd9e2","ios":"levelo://app?vid=9c7eeb5b-f97e-4fc2-ab19-aaf7531bd9e2"},"vehicle_type_id":"4","last_reported":1734962889,"current_range_meters":30000,"station_id":"ce4bgjp2rcd13ifvqbh0","pricing_plan_id":"cebpf4jnsgd1na2vs0mg"},{"bike_id":"ae7f903f-510f-4706-a6f0-62a01d98611c","system_id":"levelo_inurba_marseille","lat":43.30536,"lon":5.38426,"is_reserved":false,"is_disabled":false,"rental_uris":{"android":"levelo://app?vid=ae7f903f-510f-4706-a6f0-62a01d98611c","ios":"levelo://app?vid=ae7f903f-510f-4706-a6f0-62a01d98611c"},"vehicle_type_id":"4","last_reported":1734962889,"current_range_meters":37600,"station_id":"ce4bgg92rcd13ifvqb30","pricing_plan_id":"cebpf4jnsgd1na2vs0mg"},{"bike_id":"4a1cd71c-9afb-4867-b720-a6766b060101","system_id":"levelo_inurba_marseille","lat":43.30158,"lon":5.38096,"is_reserved":false,"is_disabled":false,"rental_uris":{"android":"levelo://app?vid=4a1cd71c-9afb-4867-b720-a6766b060101","ios":"levelo://app?vid=4a1cd71c-9afb-4867-b720-a6766b060101"},"vehicle_type_id":"4","last_reported":1734962889,"current_range_meters":36800,"station_id":"ce4bgjp2rcd13ifvqbh0","pricing_plan_id":"cebpf4jnsgd1na2vs0mg"},{"bike_id":"af1f6b13-3869-4a53-a485-e865f7bdc077","system_id":"levelo_inurba_marseille","lat":43.2558,"lon":5.38235,"is_reserved":false,"is_disabled":false,"rental_uris":{"android":"levelo://app?vid=af1f6b13-3869-4a53-a485-e865f7bdc077","ios":"levelo://app?vid=af1f6b13-3869-4a53-a485-e865f7bdc077"},"vehicle_type_id":"4","last_reported":1734962889,"current_range_meters":32000,"station_id":"ce4bhih2rcd13ifvqfs0","pricing_plan_id":"cebpf4jnsgd1na2vs0mg"},{"bike_id":"f8416cf3-28eb-4197-9702-1f7d128bf330","system_id":"levelo_inurba_marseille","lat":43.29545,"lon":5.37519,"is_reserved":false,"is_disabled":false,"rental_uris":{"android":"levelo://app?vid=f8416cf3-28eb-4197-9702-1f7d128bf330","ios":"levelo://app?vid=f8416cf3-28eb-4197-9702-1f7d128bf330"},"vehicle_type_id":"4","last_reported":1734962889,"current_range_meters":28000,"station_id":"ce4bgh92rcd13ifvqb50","pricing_plan_id":"cebpf4jnsgd1na2vs0mg"},{"bike_id":"4e6d0ca2-6374-490a-b48e-6cba90785a4f","system_id":"levelo_inurba_marseille","lat":43.24647,"lon":5.38896,"is_reserved":false,"is_disabled":false,"rental_uris":{"android":"levelo://app?vid=4e6d0ca2-6374-490a-b48e-6cba90785a4f","ios":"levelo://app?vid=4e6d0ca2-6374-490a-b48e-6cba90785a4f"},"vehicle_type_id":"4","last_reported":1734962889,"current_range_meters":26800,"station_id":"ce4bhg12rcd13ifvqf60","pricing_plan_id":"cebpf4jnsgd1na2vs0mg"},{"bike_id":"30ab88b4-2e86-474c-a5f1-66993f6bb63f","system_id":"levelo_inurba_marseille","lat":43.28416,"lon":5.37518,"is_reserved":false,"is_disabled":false,"rental_uris":{"android":"levelo://app?vid=30ab88b4-2e86-474c-a5f1-66993f6bb63f","ios":"levelo://app?vid=30ab88b4-2e86-474c-a5f1-66993f6bb63f"},"vehicle_type_id":"4","last_reported":1734962889,"current_range_meters":35600,"station_id":"ce4bh412rcd13ifvqds0","pricing_plan_id":"cebpf4jnsgd1na2vs0mg"},{"bike_id":"ecf619c8-9615-4659-9f22-0712d954e252","system_id":"levelo_inurba_marseille","lat":43.27497,"lon":5.42448,"is_reserved":false,"is_disabled":false,"rental_uris":{"android":"levelo://app?vid=ecf619c8-9615-4659-9f22-0712d954e252","ios":"levelo://app?vid=ecf619c8-9615-4659-9f22-0712d954e252"},"vehicle_type_id":"4","last_reported":1734962889,"current_range_meters":20400,"station_id":"ce4bhn92rcd13ifvqgrg","pricing_plan_id":"cebpf4jnsgd1na2vs0mg"},{"bike_id":"f88f24ca-fe58-4e52-b7e0-53c92a3dcbd4","system_id":"levelo_inurba_marseille","lat":43.26786,"lon":5.39412,"is_reserved":false,"is_disabled":false,"rental_uris":{"android":"levelo://app?vid=f88f24ca-fe58-4e52-b7e0-53c92a3dcbd4","ios":"levelo://app?vid=f88f24ca-fe58-4e52-b7e0-53c92a3dcbd4"},"vehicle_type_id":"4","last_reported":1734962889,"current_range_meters":36800,"station_id":"ce4bhh12rcd13ifvqfg0","pricing_plan_id":"cebpf4jnsgd1na2vs0mg"},{"bike_id":"e6f255e7-c3a0-4128-a0b1-f18581ab0420","system_id":"levelo_inurba_marseille","lat":43.2989,"lon":5.38145,"is_reserved":false,"is_disabled":false,"rental_uris":{"android":"levelo://app?vid=e6f255e7-c3a0-4128-a0b1-f18581ab0420","ios":"levelo://app?vid=e6f255e7-c3a0-4128-a0b1-f18581ab0420"},"vehicle_type_id":"4","last_reported":1734962889,"current_range_meters":38800,"station_id":"ce4bgj12rcd13ifvqbc0","pricing_plan_id":"cebpf4jnsgd1na2vs0mg"},{"bike_id":"7a8a2f05-0d62-4df7-8049-73a80a7b5613","system_id":"levelo_inurba_marseille","lat":43.27054,"lon":5.40252,"is_reserved":false,"is_disabled":false,"rental_uris":{"android":"levelo://app?vid=7a8a2f05-0d62-4df7-8049-73a80a7b5613","ios":"levelo://app?vid=7a8a2f05-0d62-4df7-8049-73a80a7b5613"},"vehicle_type_id":"4","last_reported":1734962889,"current_range_meters":11600,"station_id":"ce4bhk92rcd13ifvqgc0","pricing_plan_id":"cebpf4jnsgd1na2vs0mg"},{"bike_id":"fa46f150-8345-4c47-89dc-dd714e8f2794","system_id":"levelo_inurba_marseille","lat":43.29693,"lon":5.36602,"is_reserved":false,"is_disabled":false,"rental_uris":{"android":"levelo://app?vid=fa46f150-8345-4c47-89dc-dd714e8f2794","ios":"levelo://app?vid=fa46f150-8345-4c47-89dc-dd714e8f2794"},"vehicle_type_id":"4","last_reported":1734962889,"current_range_meters":38000,"station_id":"ce4bgn12rcd13ifvqbt0","pricing_plan_id":"cebpf4jnsgd1na2vs0mg"},{"bike_id":"fde4b311-66a3-4278-b696-209b5d383698","system_id":"levelo_inurba_marseille","lat":43.26946,"lon":5.40246,"is_reserved":false,"is_disabled":false,"rental_uris":{"android":"levelo://app?vid=fde4b311-66a3-4278-b696-209b5d383698","ios":"levelo://app?vid=fde4b311-66a3-4278-b696-209b5d383698"},"vehicle_type_id":"4","last_reported":1734962889,"current_range_meters":6800,"station_id":"cjm6bp8fraef2m0cb0m0","pricing_plan_id":"cebpf4jnsgd1na2vs0mg"},{"bike_id":"2c65a8cf-5aad-4675-868d-127caebf80c1","system_id":"levelo_inurba_marseille","lat":43.30929,"lon":5.40163,"is_reserved":false,"is_disabled":false,"rental_uris":{"android":"levelo://app?vid=2c65a8cf-5aad-4675-868d-127caebf80c1","ios":"levelo://app?vid=2c65a8cf-5aad-4675-868d-127caebf80c1"},"vehicle_type_id":"4","last_reported":1734962889,"current_range_meters":35600,"station_id":"ce4bgvp2rcd13ifvqct0","pricing_plan_id":"cebpf4jnsgd1na2vs0mg"},{"bike_id":"3174c70f-58ab-444d-925c-f2800db09601","system_id":"levelo_inurba_marseille","lat":43.2953,"lon":5.37496,"is_reserved":false,"is_disabled":false,"rental_uris":{"android":"levelo://app?vid=3174c70f-58ab-444d-925c-f2800db09601","ios":"levelo://app?vid=3174c70f-58ab-444d-925c-f2800db09601"},"vehicle_type_id":"4","last_reported":1734962889,"current_range_meters":33200,"station_id":"ce4bgkp2rcd13ifvqbmg","pricing_plan_id":"cebpf4jnsgd1na2vs0mg"},{"bike_id":"32719622-34d0-441d-8780-7dc527ea7376","system_id":"levelo_inurba_marseille","lat":43.26195,"lon":5.37458,"is_reserved":false,"is_disabled":false,"rental_uris":{"android":"levelo://app?vid=32719622-34d0-441d-8780-7dc527ea7376","ios":"levelo://app?vid=32719622-34d0-441d-8780-7dc527ea7376"},"vehicle_type_id":"4","last_reported":1734962889,"current_range_meters":38000,"station_id":"ce4bhgp2rcd13ifvqfc0","pricing_plan_id":"cebpf4jnsgd1na2vs0mg"},{"bike_id":"58975c95-cbcc-4de2-ac6a-2c5c03741a00","system_id":"levelo_inurba_marseille","lat":43.27073,"lon":5.42277,"is_reserved":false,"is_disabled":false,"rental_uris":{"android":"levelo://app?vid=58975c95-cbcc-4de2-ac6a-2c5c03741a00","ios":"levelo://app?vid=58975c95-cbcc-4de2-ac6a-2c5c03741a00"},"vehicle_type_id":"4","last_reported":1734962889,"current_range_meters":38800,"station_id":"ce4bhk92rcd13ifvqgb0","pricing_plan_id":"cebpf4jnsgd1na2vs0mg"},{"bike_id":"fb84cb07-349c-4dd6-9ee1-71d110a804a7","system_id":"levelo_inurba_marseille","lat":43.29553,"lon":5.42287,"is_reserved":false,"is_disabled":false,"rental_uris":{"android":"levelo://app?vid=fb84cb07-349c-4dd6-9ee1-71d110a804a7","ios":"levelo://app?vid=fb84cb07-349c-4dd6-9ee1-71d110a804a7"},"vehicle_type_id":"4","last_reported":1734962889,"current_range_meters":38800,"station_id":"ce4bhph2rcd13ifvqhdg","pricing_plan_id":"cebpf4jnsgd1na2vs0mg"},{"bike_id":"e5b7f70e-d8e3-44d9-8582-413c5967227d","system_id":"levelo_inurba_marseille","lat":43.2649,"lon":5.39546,"is_reserved":false,"is_disabled":false,"rental_uris":{"android":"levelo://app?vid=e5b7f70e-d8e3-44d9-8582-413c5967227d","ios":"levelo://app?vid=e5b7f70e-d8e3-44d9-8582-413c5967227d"},"vehicle_type_id":"4","last_reported":1734962889,"current_range_meters":27600,"station_id":"ce4bhi12rcd13ifvqfq0","pricing_plan_id":"cebpf4jnsgd1na2vs0mg"},{"bike_id":"591e56d3-570f-4000-8104-235340497ab2","system_id":"levelo_inurba_marseille","lat":43.28037,"lon":5.36949,"is_reserved":false,"is_disabled":false,"rental_uris":{"android":"levelo://app?vid=591e56d3-570f-4000-8104-235340497ab2","ios":"levelo://app?vid=591e56d3-570f-4000-8104-235340497ab2"},"vehicle_type_id":"4","last_reported":1734962889,"current_range_meters":39200,"station_id":"ce4bha12rcd13ifvqef0","pricing_plan_id":"cebpf4jnsgd1na2vs0mg"},{"bike_id":"4405502f-8c8b-4683-a639-278101ac3b7f","system_id":"levelo_inurba_marseille","lat":43.2811,"lon":5.37848,"is_reserved":false,"is_disabled":false,"rental_uris":{"android":"levelo://app?vid=4405502f-8c8b-4683-a639-278101ac3b7f","ios":"levelo://app?vid=4405502f-8c8b-4683-a639-278101ac3b7f"},"vehicle_type_id":"4","last_reported":1734962889,"current_range_meters":38800,"station_id":"ce4bha12rcd13ifvqee0","pricing_plan_id":"cebpf4jnsgd1na2vs0mg"},{"bike_id":"f85da1fc-5547-42bf-9797-24e626653e67","system_id":"levelo_inurba_marseille","lat":43.26784,"lon":5.39415,"is_reserved":false,"is_disabled":false,"rental_uris":{"android":"levelo://app?vid=f85da1fc-5547-42bf-9797-24e626653e67","ios":"levelo://app?vid=f85da1fc-5547-42bf-9797-24e626653e67"},"vehicle_type_id":"4","last_reported":1734962889,"current_range_meters":38400,"station_id":"ce4bhh12rcd13ifvqfg0","pricing_plan_id":"cebpf4jnsgd1na2vs0mg"},{"bike_id":"7caaef92-015d-4e69-83d4-9aad55d903d1","system_id":"levelo_inurba_marseille","lat":43.2835,"lon":5.38119,"is_reserved":false,"is_disabled":false,"rental_uris":{"android":"levelo://app?vid=7caaef92-015d-4e69-83d4-9aad55d903d1","ios":"levelo://app?vid=7caaef92-015d-4e69-83d4-9aad55d903d1"},"vehicle_type_id":"4","last_reported":1734962889,"current_range_meters":36000,"station_id":"ce4bh412rcd13ifvqdr0","pricing_plan_id":"cebpf4jnsgd1na2vs0mg"},{"bike_id":"b964809e-89ea-492d-8a49-b8c5c1f95cea","system_id":"levelo_inurba_marseille","lat":43.326575,"lon":5.409835,"is_reserved":false,"is_disabled":false,"rental_uris":{"android":"levelo://app?vid=b964809e-89ea-492d-8a49-b8c5c1f95cea","ios":"levelo://app?vid=b964809e-89ea-492d-8a49-b8c5c1f95cea"},"vehicle_type_id":"4","last_reported":1734962889,"current_range_meters":38400,"station_id":"ce4bhpp2rcd13ifvqhgg","pricing_plan_id":"cebpf4jnsgd1na2vs0mg"},{"bike_id":"1bfb59b3-5d70-4c84-8077-a6771e996a2b","system_id":"levelo_inurba_marseille","lat":43.29926,"lon":5.3655,"is_reserved":false,"is_disabled":false,"rental_uris":{"android":"levelo://app?vid=1bfb59b3-5d70-4c84-8077-a6771e996a2b","ios":"levelo://app?vid=1bfb59b3-5d70-4c84-8077-a6771e996a2b"},"vehicle_type_id":"4","last_reported":1734962889,"current_range_meters":38800,"station_id":"ce4bgm92rcd13ifvqbr0","pricing_plan_id":"cebpf4jnsgd1na2vs0mg"},{"bike_id":"2306650b-7690-47c4-abe8-f0aba874b7e3","system_id":"levelo_inurba_marseille","lat":43.3013,"lon":5.398629,"is_reserved":false,"is_disabled":false,"rental_uris":{"android":"levelo://app?vid=2306650b-7690-47c4-abe8-f0aba874b7e3","ios":"levelo://app?vid=2306650b-7690-47c4-abe8-f0aba874b7e3"},"vehicle_type_id":"4","last_reported":1734962889,"current_range_meters":27200,"station_id":"ce4bh0h2rcd13ifvqd40","pricing_plan_id":"cebpf4jnsgd1na2vs0mg"},{"bike_id":"ec37c2b9-cbed-4b5c-b4a5-3eb8d13a2786","system_id":"levelo_inurba_marseille","lat":43.29532,"lon":5.38539,"is_reserved":false,"is_disabled":false,"rental_uris":{"android":"levelo://app?vid=ec37c2b9-cbed-4b5c-b4a5-3eb8d13a2786","ios":"levelo://app?vid=ec37c2b9-cbed-4b5c-b4a5-3eb8d13a2786"},"vehicle_type_id":"4","last_reported":1734962889,"current_range_meters":19600,"station_id":"ce4bh692rcd13ifvqea0","pricing_plan_id":"cebpf4jnsgd1na2vs0mg"},{"bike_id":"68db534e-0067-497a-971b-c0ac21bdd722","system_id":"levelo_inurba_marseille","lat":43.26185,"lon":5.37921,"is_reserved":false,"is_disabled":false,"rental_uris":{"android":"levelo://app?vid=68db534e-0067-497a-971b-c0ac21bdd722","ios":"levelo://app?vid=68db534e-0067-497a-971b-c0ac21bdd722"},"vehicle_type_id":"4","last_reported":1734962889,"current_range_meters":36800,"station_id":"ce4bhjp2rcd13ifvqg90","pricing_plan_id":"cebpf4jnsgd1na2vs0mg"},{"bike_id":"1e73c81f-7d8d-42c9-8216-05e0c8d2e4e9","system_id":"levelo_inurba_marseille","lat":43.29611,"lon":5.37751,"is_reserved":false,"is_disabled":false,"rental_uris":{"android":"levelo://app?vid=1e73c81f-7d8d-42c9-8216-05e0c8d2e4e9","ios":"levelo://app?vid=1e73c81f-7d8d-42c9-8216-05e0c8d2e4e9"},"vehicle_type_id":"4","last_reported":1734962889,"current_range_meters":39200,"station_id":"ce4bgi92rcd13ifvqb90","pricing_plan_id":"cebpf4jnsgd1na2vs0mg"},{"bike_id":"180c51e8-707b-4d3a-bce6-60033fd0e9cc","system_id":"levelo_inurba_marseille","lat":43.29893,"lon":5.38138,"is_reserved":false,"is_disabled":false,"rental_uris":{"android":"levelo://app?vid=180c51e8-707b-4d3a-bce6-60033fd0e9cc","ios":"levelo://app?vid=180c51e8-707b-4d3a-bce6-60033fd0e9cc"},"vehicle_type_id":"4","last_reported":1734962889,"current_range_meters":29600,"station_id":"ce4bgj12rcd13ifvqbc0","pricing_plan_id":"cebpf4jnsgd1na2vs0mg"},{"bike_id":"af30a030-7bba-44d5-989f-f377db8c7017","system_id":"levelo_inurba_marseille","lat":43.295564,"lon":5.375138,"is_reserved":false,"is_disabled":false,"rental_uris":{"android":"levelo://app?vid=af30a030-7bba-44d5-989f-f377db8c7017","ios":"levelo://app?vid=af30a030-7bba-44d5-989f-f377db8c7017"},"vehicle_type_id":"4","last_reported":1734962889,"current_range_meters":36000,"station_id":"ce4bgh92rcd13ifvqb50","pricing_plan_id":"cebpf4jnsgd1na2vs0mg"},{"bike_id":"18bc712f-05f8-4bfe-a81a-9b0f3911a5b1","system_id":"levelo_inurba_marseille","lat":43.27555,"lon":5.38432,"is_reserved":false,"is_disabled":false,"rental_uris":{"android":"levelo://app?vid=18bc712f-05f8-4bfe-a81a-9b0f3911a5b1","ios":"levelo://app?vid=18bc712f-05f8-4bfe-a81a-9b0f3911a5b1"},"vehicle_type_id":"4","last_reported":1734962889,"current_range_meters":38800,"station_id":"ce4bhh92rcd13ifvqfi0","pricing_plan_id":"cebpf4jnsgd1na2vs0mg"},{"bike_id":"d988d1df-e50f-45dd-ba44-c6941eae377d","system_id":"levelo_inurba_marseille","lat":43.27544,"lon":5.38436,"is_reserved":false,"is_disabled":false,"rental_uris":{"android":"levelo://app?vid=d988d1df-e50f-45dd-ba44-c6941eae377d","ios":"levelo://app?vid=d988d1df-e50f-45dd-ba44-c6941eae377d"},"vehicle_type_id":"4","last_reported":1734962889,"current_range_meters":19200,"station_id":"ce4bhh92rcd13ifvqfi0","pricing_plan_id":"cebpf4jnsgd1na2vs0mg"},{"bike_id":"2d995820-d040-480b-a897-bf9d5f03891e","system_id":"levelo_inurba_marseille","lat":43.29385,"lon":5.37869,"is_reserved":false,"is_disabled":true,"rental_uris":{"android":"levelo://app?vid=2d995820-d040-480b-a897-bf9d5f03891e","ios":"levelo://app?vid=2d995820-d040-480b-a897-bf9d5f03891e"},"vehicle_type_id":"4","last_reported":1734962889,"current_range_meters":30400,"station_id":"ce4bgjh2rcd13ifvqbf0","pricing_plan_id":"cebpf4jnsgd1na2vs0mg"},{"bike_id":"13b86537-f90d-4e73-8d81-e42239efbc6c","system_id":"levelo_inurba_marseille","lat":43.2973,"lon":5.37692,"is_reserved":false,"is_disabled":false,"rental_uris":{"android":"levelo://app?vid=13b86537-f90d-4e73-8d81-e42239efbc6c","ios":"levelo://app?vid=13b86537-f90d-4e73-8d81-e42239efbc6c"},"vehicle_type_id":"4","last_reported":1734962889,"current_range_meters":13600,"station_id":"ce4bgkh2rcd13ifvqbl0","pricing_plan_id":"cebpf4jnsgd1na2vs0mg"},{"bike_id":"8aa29a25-71b0-47b4-8794-3774a275bf08","system_id":"levelo_inurba_marseille","lat":43.27172,"lon":5.40992,"is_reserved":false,"is_disabled":false,"rental_uris":{"android":"levelo://app?vid=8aa29a25-71b0-47b4-8794-3774a275bf08","ios":"levelo://app?vid=8aa29a25-71b0-47b4-8794-3774a275bf08"},"vehicle_type_id":"4","last_reported":1734962889,"current_range_meters":20000,"station_id":"ce4bhl12rcd13ifvqgf0","pricing_plan_id":"cebpf4jnsgd1na2vs0mg"},{"bike_id":"50771762-6294-492b-bae5-db8bd88e73ed","system_id":"levelo_inurba_marseille","lat":43.27429,"lon":5.39418,"is_reserved":false,"is_disabled":false,"rental_uris":{"android":"levelo://app?vid=50771762-6294-492b-bae5-db8bd88e73ed","ios":"levelo://app?vid=50771762-6294-492b-bae5-db8bd88e73ed"},"vehicle_type_id":"4","last_reported":1734962889,"current_range_meters":39200,"station_id":"ce4bhdp2rcd13ifvqf20","pricing_plan_id":"cebpf4jnsgd1na2vs0mg"},{"bike_id":"a32643ba-7afa-4689-a15c-154e2bfcd54f","system_id":"levelo_inurba_marseille","lat":43.2909,"lon":5.38155,"is_reserved":false,"is_disabled":false,"rental_uris":{"android":"levelo://app?vid=a32643ba-7afa-4689-a15c-154e2bfcd54f","ios":"levelo://app?vid=a32643ba-7afa-4689-a15c-154e2bfcd54f"},"vehicle_type_id":"4","last_reported":1734962889,"current_range_meters":38000,"station_id":"ce4bh512rcd13ifvqe2g","pricing_plan_id":"cebpf4jnsgd1na2vs0mg"},{"bike_id":"7fe4488f-3df2-4537-b5ac-9a3aaee3697e","system_id":"levelo_inurba_marseille","lat":43.31684,"lon":5.40477,"is_reserved":false,"is_disabled":false,"rental_uris":{"android":"levelo://app?vid=7fe4488f-3df2-4537-b5ac-9a3aaee3697e","ios":"levelo://app?vid=7fe4488f-3df2-4537-b5ac-9a3aaee3697e"},"vehicle_type_id":"4","last_reported":1734962889,"current_range_meters":21600,"station_id":"ce4bh012rcd13ifvqd00","pricing_plan_id":"cebpf4jnsgd1na2vs0mg"},{"bike_id":"0b1dbe83-06bc-4dd0-a526-062173db1059","system_id":"levelo_inurba_marseille","lat":43.29255,"lon":5.409052,"is_reserved":false,"is_disabled":false,"rental_uris":{"android":"levelo://app?vid=0b1dbe83-06bc-4dd0-a526-062173db1059","ios":"levelo://app?vid=0b1dbe83-06bc-4dd0-a526-062173db1059"},"vehicle_type_id":"4","last_reported":1734962889,"current_range_meters":26000,"station_id":"ce4bh192rcd13ifvqdc0","pricing_plan_id":"cebpf4jnsgd1na2vs0mg"},{"bike_id":"4549eda9-4825-40cc-8d92-5d08dcf1ba13","system_id":"levelo_inurba_marseille","lat":43.28154,"lon":5.42645,"is_reserved":false,"is_disabled":false,"rental_uris":{"android":"levelo://app?vid=4549eda9-4825-40cc-8d92-5d08dcf1ba13","ios":"levelo://app?vid=4549eda9-4825-40cc-8d92-5d08dcf1ba13"},"vehicle_type_id":"4","last_reported":1734962889,"current_range_meters":6400,"station_id":"ce4bhnh2rcd13ifvqgug","pricing_plan_id":"cebpf4jnsgd1na2vs0mg"},{"bike_id":"9a93a604-158f-437c-847a-f9b2772a28db","system_id":"levelo_inurba_marseille","lat":43.29066,"lon":5.37166,"is_reserved":false,"is_disabled":false,"rental_uris":{"android":"levelo://app?vid=9a93a604-158f-437c-847a-f9b2772a28db","ios":"levelo://app?vid=9a93a604-158f-437c-847a-f9b2772a28db"},"vehicle_type_id":"4","last_reported":1734962889,"current_range_meters":36800,"station_id":"ce4bh5p2rcd13ifvqe4g","pricing_plan_id":"cebpf4jnsgd1na2vs0mg"},{"bike_id":"fb66cd6e-c5a0-474c-9088-97f132f59360","system_id":"levelo_inurba_marseille","lat":43.295305,"lon":5.375043,"is_reserved":false,"is_disabled":false,"rental_uris":{"android":"levelo://app?vid=fb66cd6e-c5a0-474c-9088-97f132f59360","ios":"levelo://app?vid=fb66cd6e-c5a0-474c-9088-97f132f59360"},"vehicle_type_id":"4","last_reported":1734962889,"current_range_meters":33600,"station_id":"ce4bgkp2rcd13ifvqbmg","pricing_plan_id":"cebpf4jnsgd1na2vs0mg"},{"bike_id":"49580bca-7fdd-4980-ba9d-b58e16ff3054","system_id":"levelo_inurba_marseille","lat":43.29847,"lon":5.36273,"is_reserved":false,"is_disabled":false,"rental_uris":{"android":"levelo://app?vid=49580bca-7fdd-4980-ba9d-b58e16ff3054","ios":"levelo://app?vid=49580bca-7fdd-4980-ba9d-b58e16ff3054"},"vehicle_type_id":"4","last_reported":1734962889,"current_range_meters":27600,"station_id":"ce4bgpp2rcd13ifvqc3g","pricing_plan_id":"cebpf4jnsgd1na2vs0mg"},{"bike_id":"e91f2eeb-b790-4efa-82fb-f280c81dc92d","system_id":"levelo_inurba_marseille","lat":43.29612,"lon":5.37729,"is_reserved":false,"is_disabled":false,"rental_uris":{"android":"levelo://app?vid=e91f2eeb-b790-4efa-82fb-f280c81dc92d","ios":"levelo://app?vid=e91f2eeb-b790-4efa-82fb-f280c81dc92d"},"vehicle_type_id":"4","last_reported":1734962889,"current_range_meters":35600,"station_id":"ce4bgi92rcd13ifvqb90","pricing_plan_id":"cebpf4jnsgd1na2vs0mg"},{"bike_id":"24a28824-23fe-4a40-97b0-c8ce73315934","system_id":"levelo_inurba_marseille","lat":43.25821,"lon":5.39444,"is_reserved":false,"is_disabled":false,"rental_uris":{"android":"levelo://app?vid=24a28824-23fe-4a40-97b0-c8ce73315934","ios":"levelo://app?vid=24a28824-23fe-4a40-97b0-c8ce73315934"},"vehicle_type_id":"4","last_reported":1734962889,"current_range_meters":24800,"station_id":"ce4bhip2rcd13ifvqft0","pricing_plan_id":"cebpf4jnsgd1na2vs0mg"},{"bike_id":"21249eef-8883-49e1-95a2-b89bbfb0c29f","system_id":"levelo_inurba_marseille","lat":43.27205,"lon":5.39193,"is_reserved":false,"is_disabled":false,"rental_uris":{"android":"levelo://app?vid=21249eef-8883-49e1-95a2-b89bbfb0c29f","ios":"levelo://app?vid=21249eef-8883-49e1-95a2-b89bbfb0c29f"},"vehicle_type_id":"4","last_reported":1734962889,"current_range_meters":38800,"station_id":"ce4bhhp2rcd13ifvqfm0","pricing_plan_id":"cebpf4jnsgd1na2vs0mg"},{"bike_id":"0d9e8a85-f042-4a32-8e00-03eea6698e75","system_id":"levelo_inurba_marseille","lat":43.31072,"lon":5.38357,"is_reserved":false,"is_disabled":false,"rental_uris":{"android":"levelo://app?vid=0d9e8a85-f042-4a32-8e00-03eea6698e75","ios":"levelo://app?vid=0d9e8a85-f042-4a32-8e00-03eea6698e75"},"vehicle_type_id":"4","last_reported":1734962889,"current_range_meters":36800,"station_id":"ce4bgv92rcd13ifvqcr0","pricing_plan_id":"cebpf4jnsgd1na2vs0mg"},{"bike_id":"b333908e-96c8-4368-98b6-3a126929e4aa","system_id":"levelo_inurba_marseille","lat":43.28465,"lon":5.384183,"is_reserved":false,"is_disabled":false,"rental_uris":{"android":"levelo://app?vid=b333908e-96c8-4368-98b6-3a126929e4aa","ios":"levelo://app?vid=b333908e-96c8-4368-98b6-3a126929e4aa"},"vehicle_type_id":"4","last_reported":1734962889,"current_range_meters":38800,"station_id":"ce4bh512rcd13ifvqe3g","pricing_plan_id":"cebpf4jnsgd1na2vs0mg"},{"bike_id":"537ef1bf-3a78-45af-b334-3a2c52a599a8","system_id":"levelo_inurba_marseille","lat":43.34146,"lon":5.40902,"is_reserved":false,"is_disabled":false,"rental_uris":{"android":"levelo://app?vid=537ef1bf-3a78-45af-b334-3a2c52a599a8","ios":"levelo://app?vid=537ef1bf-3a78-45af-b334-3a2c52a599a8"},"vehicle_type_id":"4","last_reported":1734962889,"current_range_meters":36400,"station_id":"ce4bhqh2rcd13ifvqhlg","pricing_plan_id":"cebpf4jnsgd1na2vs0mg"},{"bike_id":"c59345d4-1e21-4d77-99bd-e0121b8e1fb8","system_id":"levelo_inurba_marseille","lat":43.2481,"lon":5.37439,"is_reserved":false,"is_disabled":false,"rental_uris":{"android":"levelo://app?vid=c59345d4-1e21-4d77-99bd-e0121b8e1fb8","ios":"levelo://app?vid=c59345d4-1e21-4d77-99bd-e0121b8e1fb8"},"vehicle_type_id":"4","last_reported":1734962889,"current_range_meters":38800,"station_id":"ce4bhgh2rcd13ifvqfb0","pricing_plan_id":"cebpf4jnsgd1na2vs0mg"},{"bike_id":"7cfa7914-a6fa-49c8-b1ec-dbe48b7366ea","system_id":"levelo_inurba_marseille","lat":43.24391,"lon":5.37059,"is_reserved":false,"is_disabled":false,"rental_uris":{"android":"levelo://app?vid=7cfa7914-a6fa-49c8-b1ec-dbe48b7366ea","ios":"levelo://app?vid=7cfa7914-a6fa-49c8-b1ec-dbe48b7366ea"},"vehicle_type_id":"4","last_reported":1734962889,"current_range_meters":38800,"station_id":"ce4bhhh2rcd13ifvqfk0","pricing_plan_id":"cebpf4jnsgd1na2vs0mg"},{"bike_id":"90c75562-0b0b-43e4-a683-9312e07e2243","system_id":"levelo_inurba_marseille","lat":43.28464,"lon":5.38414,"is_reserved":false,"is_disabled":false,"rental_uris":{"android":"levelo://app?vid=90c75562-0b0b-43e4-a683-9312e07e2243","ios":"levelo://app?vid=90c75562-0b0b-43e4-a683-9312e07e2243"},"vehicle_type_id":"4","last_reported":1734962889,"current_range_meters":35600,"station_id":"ce4bh512rcd13ifvqe3g","pricing_plan_id":"cebpf4jnsgd1na2vs0mg"},{"bike_id":"b07e0204-2c57-49d1-a1f7-320de8610e25","system_id":"levelo_inurba_marseille","lat":43.29402,"lon":5.37344,"is_reserved":false,"is_disabled":true,"rental_uris":{"android":"levelo://app?vid=b07e0204-2c57-49d1-a1f7-320de8610e25","ios":"levelo://app?vid=b07e0204-2c57-49d1-a1f7-320de8610e25"},"vehicle_type_id":"4","last_reported":1734962889,"current_range_meters":24000,"station_id":"","pricing_plan_id":"cebpf4jnsgd1na2vs0mg"},{"bike_id":"7ca6cd0c-d53c-49b3-ad0d-395bff0dc2b7","system_id":"levelo_inurba_marseille","lat":43.32652,"lon":5.40991,"is_reserved":false,"is_disabled":false,"rental_uris":{"android":"levelo://app?vid=7ca6cd0c-d53c-49b3-ad0d-395bff0dc2b7","ios":"levelo://app?vid=7ca6cd0c-d53c-49b3-ad0d-395bff0dc2b7"},"vehicle_type_id":"4","last_reported":1734962889,"current_range_meters":38800,"station_id":"ce4bhpp2rcd13ifvqhgg","pricing_plan_id":"cebpf4jnsgd1na2vs0mg"},{"bike_id":"f97162d8-ac35-4106-9dab-07f272349842","system_id":"levelo_inurba_marseille","lat":43.25831,"lon":5.39428,"is_reserved":false,"is_disabled":false,"rental_uris":{"android":"levelo://app?vid=f97162d8-ac35-4106-9dab-07f272349842","ios":"levelo://app?vid=f97162d8-ac35-4106-9dab-07f272349842"},"vehicle_type_id":"4","last_reported":1734962889,"current_range_meters":9600,"station_id":"ce4bhip2rcd13ifvqft0","pricing_plan_id":"cebpf4jnsgd1na2vs0mg"},{"bike_id":"a22c6c33-be0d-40b1-b535-b083076c3b73","system_id":"levelo_inurba_marseille","lat":43.29729,"lon":5.37681,"is_reserved":false,"is_disabled":false,"rental_uris":{"android":"levelo://app?vid=a22c6c33-be0d-40b1-b535-b083076c3b73","ios":"levelo://app?vid=a22c6c33-be0d-40b1-b535-b083076c3b73"},"vehicle_type_id":"4","last_reported":1734962889,"current_range_meters":27600,"station_id":"ce4bgkh2rcd13ifvqbl0","pricing_plan_id":"cebpf4jnsgd1na2vs0mg"},{"bike_id":"7befd885-7fc8-4dc1-b970-da31c9e46ce6","system_id":"levelo_inurba_marseille","lat":43.26037,"lon":5.37553,"is_reserved":false,"is_disabled":false,"rental_uris":{"android":"levelo://app?vid=7befd885-7fc8-4dc1-b970-da31c9e46ce6","ios":"levelo://app?vid=7befd885-7fc8-4dc1-b970-da31c9e46ce6"},"vehicle_type_id":"4","last_reported":1734962889,"current_range_meters":32000,"station_id":"ce4bhgh2rcd13ifvqfa0","pricing_plan_id":"cebpf4jnsgd1na2vs0mg"},{"bike_id":"0ba6d847-b04d-4662-8e74-a4fd8409ab96","system_id":"levelo_inurba_marseille","lat":43.26787,"lon":5.39424,"is_reserved":false,"is_disabled":false,"rental_uris":{"android":"levelo://app?vid=0ba6d847-b04d-4662-8e74-a4fd8409ab96","ios":"levelo://app?vid=0ba6d847-b04d-4662-8e74-a4fd8409ab96"},"vehicle_type_id":"4","last_reported":1734962889,"current_range_meters":16800,"station_id":"ce4bhh12rcd13ifvqfg0","pricing_plan_id":"cebpf4jnsgd1na2vs0mg"},{"bike_id":"f3fe0314-8e40-4845-abe1-4c14c28f0999","system_id":"levelo_inurba_marseille","lat":43.29246,"lon":5.40908,"is_reserved":false,"is_disabled":false,"rental_uris":{"android":"levelo://app?vid=f3fe0314-8e40-4845-abe1-4c14c28f0999","ios":"levelo://app?vid=f3fe0314-8e40-4845-abe1-4c14c28f0999"},"vehicle_type_id":"4","last_reported":1734962889,"current_range_meters":39200,"station_id":"ce4bh192rcd13ifvqdc0","pricing_plan_id":"cebpf4jnsgd1na2vs0mg"},{"bike_id":"bd04cbb4-2402-4a18-87e1-831b8038bca8","system_id":"levelo_inurba_marseille","lat":43.30139,"lon":5.37416,"is_reserved":false,"is_disabled":false,"rental_uris":{"android":"levelo://app?vid=bd04cbb4-2402-4a18-87e1-831b8038bca8","ios":"levelo://app?vid=bd04cbb4-2402-4a18-87e1-831b8038bca8"},"vehicle_type_id":"4","last_reported":1734962889,"current_range_meters":33600,"station_id":"ce4bgs92rcd13ifvqcc0","pricing_plan_id":"cebpf4jnsgd1na2vs0mg"},{"bike_id":"7b4d282c-a7d9-4676-b525-fa109a59185c","system_id":"levelo_inurba_marseille","lat":43.26956,"lon":5.38637,"is_reserved":false,"is_disabled":false,"rental_uris":{"android":"levelo://app?vid=7b4d282c-a7d9-4676-b525-fa109a59185c","ios":"levelo://app?vid=7b4d282c-a7d9-4676-b525-fa109a59185c"},"vehicle_type_id":"4","last_reported":1734962889,"current_range_meters":38800,"station_id":"ce4bhh92rcd13ifvqfh0","pricing_plan_id":"cebpf4jnsgd1na2vs0mg"},{"bike_id":"d8e19718-03bc-417c-998d-d1b1d907c453","system_id":"levelo_inurba_marseille","lat":43.26688,"lon":5.3828,"is_reserved":false,"is_disabled":false,"rental_uris":{"android":"levelo://app?vid=d8e19718-03bc-417c-998d-d1b1d907c453","ios":"levelo://app?vid=d8e19718-03bc-417c-998d-d1b1d907c453"},"vehicle_type_id":"4","last_reported":1734962889,"current_range_meters":18000,"station_id":"ce4bhg92rcd13ifvqf90","pricing_plan_id":"cebpf4jnsgd1na2vs0mg"},{"bike_id":"0f9f1654-63fd-4b65-a8fb-a5beee04226f","system_id":"levelo_inurba_marseille","lat":43.29622,"lon":5.37157,"is_reserved":false,"is_disabled":false,"rental_uris":{"android":"levelo://app?vid=0f9f1654-63fd-4b65-a8fb-a5beee04226f","ios":"levelo://app?vid=0f9f1654-63fd-4b65-a8fb-a5beee04226f"},"vehicle_type_id":"4","last_reported":1734962889,"current_range_meters":36800,"station_id":"ce4bgnh2rcd13ifvqc0g","pricing_plan_id":"cebpf4jnsgd1na2vs0mg"},{"bike_id":"3dc3d98b-4a3e-409b-9488-f8ef470f860a","system_id":"levelo_inurba_marseille","lat":43.292673,"lon":5.40914,"is_reserved":false,"is_disabled":false,"rental_uris":{"android":"levelo://app?vid=3dc3d98b-4a3e-409b-9488-f8ef470f860a","ios":"levelo://app?vid=3dc3d98b-4a3e-409b-9488-f8ef470f860a"},"vehicle_type_id":"4","last_reported":1734962889,"current_range_meters":29600,"station_id":"ce4bh192rcd13ifvqdc0","pricing_plan_id":"cebpf4jnsgd1na2vs0mg"},{"bike_id":"fadf82d5-673a-446c-9582-d82213e9281b","system_id":"levelo_inurba_marseille","lat":43.291662,"lon":5.371312,"is_reserved":false,"is_disabled":false,"rental_uris":{"android":"levelo://app?vid=fadf82d5-673a-446c-9582-d82213e9281b","ios":"levelo://app?vid=fadf82d5-673a-446c-9582-d82213e9281b"},"vehicle_type_id":"4","last_reported":1734962889,"current_range_meters":25600,"station_id":"ce4bha92rcd13ifvqeh0","pricing_plan_id":"cebpf4jnsgd1na2vs0mg"},{"bike_id":"cfbbc39b-dd20-4408-8ad2-dc6e1a5efa27","system_id":"levelo_inurba_marseille","lat":43.29611,"lon":5.37727,"is_reserved":false,"is_disabled":false,"rental_uris":{"android":"levelo://app?vid=cfbbc39b-dd20-4408-8ad2-dc6e1a5efa27","ios":"levelo://app?vid=cfbbc39b-dd20-4408-8ad2-dc6e1a5efa27"},"vehicle_type_id":"4","last_reported":1734962889,"current_range_meters":27600,"station_id":"ce4bgi92rcd13ifvqb90","pricing_plan_id":"cebpf4jnsgd1na2vs0mg"},{"bike_id":"61fa49f4-079a-40dc-b0c9-9d46e8ff18de","system_id":"levelo_inurba_marseille","lat":43.3025,"lon":5.39331,"is_reserved":false,"is_disabled":false,"rental_uris":{"android":"levelo://app?vid=61fa49f4-079a-40dc-b0c9-9d46e8ff18de","ios":"levelo://app?vid=61fa49f4-079a-40dc-b0c9-9d46e8ff18de"},"vehicle_type_id":"4","last_reported":1734962889,"current_range_meters":32800,"station_id":"","pricing_plan_id":"cebpf4jnsgd1na2vs0mg"},{"bike_id":"4094ac40-fe97-4483-91f4-bc4b6a97b4f3","system_id":"levelo_inurba_marseille","lat":43.25839,"lon":5.39431,"is_reserved":false,"is_disabled":true,"rental_uris":{"android":"levelo://app?vid=4094ac40-fe97-4483-91f4-bc4b6a97b4f3","ios":"levelo://app?vid=4094ac40-fe97-4483-91f4-bc4b6a97b4f3"},"vehicle_type_id":"4","last_reported":1734962889,"current_range_meters":0,"station_id":"ce4bhip2rcd13ifvqft0","pricing_plan_id":"cebpf4jnsgd1na2vs0mg"},{"bike_id":"236cb044-914e-48c2-9acd-572b5ec5d0f2","system_id":"levelo_inurba_marseille","lat":43.337444,"lon":5.374475,"is_reserved":false,"is_disabled":false,"rental_uris":{"android":"levelo://app?vid=236cb044-914e-48c2-9acd-572b5ec5d0f2","ios":"levelo://app?vid=236cb044-914e-48c2-9acd-572b5ec5d0f2"},"vehicle_type_id":"4","last_reported":1734962889,"current_range_meters":34000,"station_id":"","pricing_plan_id":"cebpf4jnsgd1na2vs0mg"},{"bike_id":"41fb6768-42a1-4d3c-85e7-f814727d885a","system_id":"levelo_inurba_marseille","lat":43.30427,"lon":5.39755,"is_reserved":false,"is_disabled":false,"rental_uris":{"android":"levelo://app?vid=41fb6768-42a1-4d3c-85e7-f814727d885a","ios":"levelo://app?vid=41fb6768-42a1-4d3c-85e7-f814727d885a"},"vehicle_type_id":"4","last_reported":1734962889,"current_range_meters":38800,"station_id":"ce4bh092rcd13ifvqd20","pricing_plan_id":"cebpf4jnsgd1na2vs0mg"},{"bike_id":"e05bf4ea-d74d-49ed-a7dc-94fa3a3cc350","system_id":"levelo_inurba_marseille","lat":43.32363,"lon":5.36768,"is_reserved":false,"is_disabled":false,"rental_uris":{"android":"levelo://app?vid=e05bf4ea-d74d-49ed-a7dc-94fa3a3cc350","ios":"levelo://app?vid=e05bf4ea-d74d-49ed-a7dc-94fa3a3cc350"},"vehicle_type_id":"4","last_reported":1734962889,"current_range_meters":14000,"station_id":"ce4bhsh2rcd13ifvqi2g","pricing_plan_id":"cebpf4jnsgd1na2vs0mg"},{"bike_id":"554be7ba-8970-4cbd-a0d8-41da0a14a5b5","system_id":"levelo_inurba_marseille","lat":43.29627,"lon":5.37177,"is_reserved":false,"is_disabled":false,"rental_uris":{"android":"levelo://app?vid=554be7ba-8970-4cbd-a0d8-41da0a14a5b5","ios":"levelo://app?vid=554be7ba-8970-4cbd-a0d8-41da0a14a5b5"},"vehicle_type_id":"4","last_reported":1734962889,"current_range_meters":26000,"station_id":"ce4bgnh2rcd13ifvqc0g","pricing_plan_id":"cebpf4jnsgd1na2vs0mg"},{"bike_id":"352a9584-53b4-445d-82e1-ba1a7afea687","system_id":"levelo_inurba_marseille","lat":43.30429,"lon":5.39752,"is_reserved":false,"is_disabled":false,"rental_uris":{"android":"levelo://app?vid=352a9584-53b4-445d-82e1-ba1a7afea687","ios":"levelo://app?vid=352a9584-53b4-445d-82e1-ba1a7afea687"},"vehicle_type_id":"4","last_reported":1734962889,"current_range_meters":38800,"station_id":"ce4bh092rcd13ifvqd20","pricing_plan_id":"cebpf4jnsgd1na2vs0mg"},{"bike_id":"6fe3366f-7b74-4d56-84ed-c16dbecc42ae","system_id":"levelo_inurba_marseille","lat":43.28688,"lon":5.38659,"is_reserved":false,"is_disabled":false,"rental_uris":{"android":"levelo://app?vid=6fe3366f-7b74-4d56-84ed-c16dbecc42ae","ios":"levelo://app?vid=6fe3366f-7b74-4d56-84ed-c16dbecc42ae"},"vehicle_type_id":"4","last_reported":1734962889,"current_range_meters":28800,"station_id":"ce4bh492rcd13ifvqdug","pricing_plan_id":"cebpf4jnsgd1na2vs0mg"},{"bike_id":"32ebf098-e002-4aa6-88f7-5b365ee05e11","system_id":"levelo_inurba_marseille","lat":43.24082,"lon":5.3774,"is_reserved":false,"is_disabled":true,"rental_uris":{"android":"levelo://app?vid=32ebf098-e002-4aa6-88f7-5b365ee05e11","ios":"levelo://app?vid=32ebf098-e002-4aa6-88f7-5b365ee05e11"},"vehicle_type_id":"4","last_reported":1734962889,"current_range_meters":0,"station_id":"ce4bhnp2rcd13ifvqgvg","pricing_plan_id":"cebpf4jnsgd1na2vs0mg"},{"bike_id":"51092a0b-c258-4d4f-8fbf-b61d8d751561","system_id":"levelo_inurba_marseille","lat":43.28411,"lon":5.34983,"is_reserved":false,"is_disabled":false,"rental_uris":{"android":"levelo://app?vid=51092a0b-c258-4d4f-8fbf-b61d8d751561","ios":"levelo://app?vid=51092a0b-c258-4d4f-8fbf-b61d8d751561"},"vehicle_type_id":"4","last_reported":1734962889,"current_range_meters":15200,"station_id":"ce4bhbh2rcd13ifvqepg","pricing_plan_id":"cebpf4jnsgd1na2vs0mg"},{"bike_id":"842888b9-0281-4137-8179-95fdfc851120","system_id":"levelo_inurba_marseille","lat":43.26937,"lon":5.40241,"is_reserved":false,"is_disabled":false,"rental_uris":{"android":"levelo://app?vid=842888b9-0281-4137-8179-95fdfc851120","ios":"levelo://app?vid=842888b9-0281-4137-8179-95fdfc851120"},"vehicle_type_id":"4","last_reported":1734962889,"current_range_meters":6800,"station_id":"cjm6bp8fraef2m0cb0m0","pricing_plan_id":"cebpf4jnsgd1na2vs0mg"},{"bike_id":"3f821dae-136e-4817-8d16-0800fb38ab20","system_id":"levelo_inurba_marseille","lat":43.30158,"lon":5.38081,"is_reserved":false,"is_disabled":false,"rental_uris":{"android":"levelo://app?vid=3f821dae-136e-4817-8d16-0800fb38ab20","ios":"levelo://app?vid=3f821dae-136e-4817-8d16-0800fb38ab20"},"vehicle_type_id":"4","last_reported":1734962889,"current_range_meters":22800,"station_id":"ce4bgjp2rcd13ifvqbh0","pricing_plan_id":"cebpf4jnsgd1na2vs0mg"},{"bike_id":"00229341-e01d-4593-b56c-1a1d100c5021","system_id":"levelo_inurba_marseille","lat":43.28103,"lon":5.37844,"is_reserved":false,"is_disabled":false,"rental_uris":{"android":"levelo://app?vid=00229341-e01d-4593-b56c-1a1d100c5021","ios":"levelo://app?vid=00229341-e01d-4593-b56c-1a1d100c5021"},"vehicle_type_id":"4","last_reported":1734962889,"current_range_meters":17600,"station_id":"ce4bha12rcd13ifvqee0","pricing_plan_id":"cebpf4jnsgd1na2vs0mg"},{"bike_id":"60288a72-58ff-43fd-a2dc-f3c3695a2ad9","system_id":"levelo_inurba_marseille","lat":43.29734,"lon":5.37663,"is_reserved":false,"is_disabled":false,"rental_uris":{"android":"levelo://app?vid=60288a72-58ff-43fd-a2dc-f3c3695a2ad9","ios":"levelo://app?vid=60288a72-58ff-43fd-a2dc-f3c3695a2ad9"},"vehicle_type_id":"4","last_reported":1734962889,"current_range_meters":37600,"station_id":"ce4bgkh2rcd13ifvqbl0","pricing_plan_id":"cebpf4jnsgd1na2vs0mg"},{"bike_id":"85b80f61-13a5-4a12-a381-352d1429d14e","system_id":"levelo_inurba_marseille","lat":43.30153,"lon":5.38089,"is_reserved":false,"is_disabled":false,"rental_uris":{"android":"levelo://app?vid=85b80f61-13a5-4a12-a381-352d1429d14e","ios":"levelo://app?vid=85b80f61-13a5-4a12-a381-352d1429d14e"},"vehicle_type_id":"4","last_reported":1734962889,"current_range_meters":34800,"station_id":"ce4bgjp2rcd13ifvqbh0","pricing_plan_id":"cebpf4jnsgd1na2vs0mg"},{"bike_id":"ba623d7f-de4d-43e6-9a39-be19938e75fb","system_id":"levelo_inurba_marseille","lat":43.29369,"lon":5.37856,"is_reserved":false,"is_disabled":true,"rental_uris":{"android":"levelo://app?vid=ba623d7f-de4d-43e6-9a39-be19938e75fb","ios":"levelo://app?vid=ba623d7f-de4d-43e6-9a39-be19938e75fb"},"vehicle_type_id":"4","last_reported":1734962889,"current_range_meters":32400,"station_id":"","pricing_plan_id":"cebpf4jnsgd1na2vs0mg"},{"bike_id":"f5c3066f-e226-4517-a90e-b453d0a6feae","system_id":"levelo_inurba_marseille","lat":43.2466,"lon":5.38172,"is_reserved":false,"is_disabled":false,"rental_uris":{"android":"levelo://app?vid=f5c3066f-e226-4517-a90e-b453d0a6feae","ios":"levelo://app?vid=f5c3066f-e226-4517-a90e-b453d0a6feae"},"vehicle_type_id":"4","last_reported":1734962889,"current_range_meters":39200,"station_id":"ce4bhih2rcd13ifvqfr0","pricing_plan_id":"cebpf4jnsgd1na2vs0mg"},{"bike_id":"ac7b867f-9527-4ec6-a4db-bc5518e01c69","system_id":"levelo_inurba_marseille","lat":43.29715,"lon":5.37691,"is_reserved":false,"is_disabled":false,"rental_uris":{"android":"levelo://app?vid=ac7b867f-9527-4ec6-a4db-bc5518e01c69","ios":"levelo://app?vid=ac7b867f-9527-4ec6-a4db-bc5518e01c69"},"vehicle_type_id":"4","last_reported":1734962889,"current_range_meters":21600,"station_id":"ce4bgkh2rcd13ifvqbl0","pricing_plan_id":"cebpf4jnsgd1na2vs0mg"},{"bike_id":"5e1ef48a-8f1f-4cfa-b2b3-a4053e96881b","system_id":"levelo_inurba_marseille","lat":43.27988,"lon":5.40009,"is_reserved":false,"is_disabled":false,"rental_uris":{"android":"levelo://app?vid=5e1ef48a-8f1f-4cfa-b2b3-a4053e96881b","ios":"levelo://app?vid=5e1ef48a-8f1f-4cfa-b2b3-a4053e96881b"},"vehicle_type_id":"4","last_reported":1734962889,"current_range_meters":14000,"station_id":"ce4bho92rcd13ifvqh4g","pricing_plan_id":"cebpf4jnsgd1na2vs0mg"},{"bike_id":"418d7244-b69e-441d-9bd5-5ce706fb8948","system_id":"levelo_inurba_marseille","lat":43.30543,"lon":5.36708,"is_reserved":false,"is_disabled":false,"rental_uris":{"android":"levelo://app?vid=418d7244-b69e-441d-9bd5-5ce706fb8948","ios":"levelo://app?vid=418d7244-b69e-441d-9bd5-5ce706fb8948"},"vehicle_type_id":"4","last_reported":1734962889,"current_range_meters":38800,"station_id":"ce4bgrp2rcd13ifvqc9g","pricing_plan_id":"cebpf4jnsgd1na2vs0mg"},{"bike_id":"bac60d22-11b2-4f2c-953f-45a038e43e56","system_id":"levelo_inurba_marseille","lat":43.30602,"lon":5.39364,"is_reserved":false,"is_disabled":false,"rental_uris":{"android":"levelo://app?vid=bac60d22-11b2-4f2c-953f-45a038e43e56","ios":"levelo://app?vid=bac60d22-11b2-4f2c-953f-45a038e43e56"},"vehicle_type_id":"4","last_reported":1734962889,"current_range_meters":38800,"station_id":"ce4bh0p2rcd13ifvqd80","pricing_plan_id":"cebpf4jnsgd1na2vs0mg"},{"bike_id":"8756d9c3-b0d7-4b29-be6b-ed105a770259","system_id":"levelo_inurba_marseille","lat":43.27429,"lon":5.3942,"is_reserved":false,"is_disabled":false,"rental_uris":{"android":"levelo://app?vid=8756d9c3-b0d7-4b29-be6b-ed105a770259","ios":"levelo://app?vid=8756d9c3-b0d7-4b29-be6b-ed105a770259"},"vehicle_type_id":"4","last_reported":1734962889,"current_range_meters":39200,"station_id":"ce4bhdp2rcd13ifvqf20","pricing_plan_id":"cebpf4jnsgd1na2vs0mg"},{"bike_id":"f8448348-5574-4b47-abf3-6a6fdc140e6b","system_id":"levelo_inurba_marseille","lat":43.26031,"lon":5.37551,"is_reserved":false,"is_disabled":false,"rental_uris":{"android":"levelo://app?vid=f8448348-5574-4b47-abf3-6a6fdc140e6b","ios":"levelo://app?vid=f8448348-5574-4b47-abf3-6a6fdc140e6b"},"vehicle_type_id":"4","last_reported":1734962889,"current_range_meters":38800,"station_id":"ce4bhgh2rcd13ifvqfa0","pricing_plan_id":"cebpf4jnsgd1na2vs0mg"},{"bike_id":"864c8c07-623f-46e0-a84e-8c24a90096f0","system_id":"levelo_inurba_marseille","lat":43.30545,"lon":5.36556,"is_reserved":false,"is_disabled":false,"rental_uris":{"android":"levelo://app?vid=864c8c07-623f-46e0-a84e-8c24a90096f0","ios":"levelo://app?vid=864c8c07-623f-46e0-a84e-8c24a90096f0"},"vehicle_type_id":"4","last_reported":1734962889,"current_range_meters":28800,"station_id":"ce4bgs12rcd13ifvqcag","pricing_plan_id":"cebpf4jnsgd1na2vs0mg"},{"bike_id":"ae4ebacb-f293-4bd6-af3d-3892a5f6ec0d","system_id":"levelo_inurba_marseille","lat":43.27852,"lon":5.39204,"is_reserved":false,"is_disabled":false,"rental_uris":{"android":"levelo://app?vid=ae4ebacb-f293-4bd6-af3d-3892a5f6ec0d","ios":"levelo://app?vid=ae4ebacb-f293-4bd6-af3d-3892a5f6ec0d"},"vehicle_type_id":"4","last_reported":1734962889,"current_range_meters":39200,"station_id":"ce4bhjp2rcd13ifvqga0","pricing_plan_id":"cebpf4jnsgd1na2vs0mg"},{"bike_id":"eedf9196-7757-434b-8160-d07780cfeb66","system_id":"levelo_inurba_marseille","lat":43.27994,"lon":5.38744,"is_reserved":false,"is_disabled":false,"rental_uris":{"android":"levelo://app?vid=eedf9196-7757-434b-8160-d07780cfeb66","ios":"levelo://app?vid=eedf9196-7757-434b-8160-d07780cfeb66"},"vehicle_type_id":"4","last_reported":1734962889,"current_range_meters":38800,"station_id":"ce4bhg12rcd13ifvqf80","pricing_plan_id":"cebpf4jnsgd1na2vs0mg"},{"bike_id":"9b14e4bd-5f0f-4b82-91a0-c593b95da2dc","system_id":"levelo_inurba_marseille","lat":43.27056,"lon":5.4029,"is_reserved":false,"is_disabled":false,"rental_uris":{"android":"levelo://app?vid=9b14e4bd-5f0f-4b82-91a0-c593b95da2dc","ios":"levelo://app?vid=9b14e4bd-5f0f-4b82-91a0-c593b95da2dc"},"vehicle_type_id":"4","last_reported":1734962889,"current_range_meters":38800,"station_id":"ce4bhk92rcd13ifvqgc0","pricing_plan_id":"cebpf4jnsgd1na2vs0mg"},{"bike_id":"e82b34cf-6ab8-4c24-9733-0bec0f5d6239","system_id":"levelo_inurba_marseille","lat":43.30473,"lon":5.37911,"is_reserved":false,"is_disabled":false,"rental_uris":{"android":"levelo://app?vid=e82b34cf-6ab8-4c24-9733-0bec0f5d6239","ios":"levelo://app?vid=e82b34cf-6ab8-4c24-9733-0bec0f5d6239"},"vehicle_type_id":"4","last_reported":1734962889,"current_range_meters":20400,"station_id":"ce4bgup2rcd13ifvqcn0","pricing_plan_id":"cebpf4jnsgd1na2vs0mg"},{"bike_id":"c866eb33-ab7e-4129-aefa-ae11af502fca","system_id":"levelo_inurba_marseille","lat":43.32541,"lon":5.41475,"is_reserved":false,"is_disabled":false,"rental_uris":{"android":"levelo://app?vid=c866eb33-ab7e-4129-aefa-ae11af502fca","ios":"levelo://app?vid=c866eb33-ab7e-4129-aefa-ae11af502fca"},"vehicle_type_id":"4","last_reported":1734962889,"current_range_meters":38000,"station_id":"ce4bhq12rcd13ifvqhhg","pricing_plan_id":"cebpf4jnsgd1na2vs0mg"},{"bike_id":"1a472be0-a3ff-44c9-9889-5accdd1a927d","system_id":"levelo_inurba_marseille","lat":43.30898,"lon":5.36889,"is_reserved":false,"is_disabled":false,"rental_uris":{"android":"levelo://app?vid=1a472be0-a3ff-44c9-9889-5accdd1a927d","ios":"levelo://app?vid=1a472be0-a3ff-44c9-9889-5accdd1a927d"},"vehicle_type_id":"4","last_reported":1734962889,"current_range_meters":38800,"station_id":"ce4bgn92rcd13ifvqbvg","pricing_plan_id":"cebpf4jnsgd1na2vs0mg"},{"bike_id":"e7339f5b-b85c-4b45-a45e-74db837a7d60","system_id":"levelo_inurba_marseille","lat":43.29558,"lon":5.37502,"is_reserved":false,"is_disabled":false,"rental_uris":{"android":"levelo://app?vid=e7339f5b-b85c-4b45-a45e-74db837a7d60","ios":"levelo://app?vid=e7339f5b-b85c-4b45-a45e-74db837a7d60"},"vehicle_type_id":"4","last_reported":1734962889,"current_range_meters":38800,"station_id":"ce4bgh92rcd13ifvqb50","pricing_plan_id":"cebpf4jnsgd1na2vs0mg"},{"bike_id":"5ccf2ec0-267c-42e2-95b9-0f62ea4d8baa","system_id":"levelo_inurba_marseille","lat":43.31766,"lon":5.39017,"is_reserved":false,"is_disabled":false,"rental_uris":{"android":"levelo://app?vid=5ccf2ec0-267c-42e2-95b9-0f62ea4d8baa","ios":"levelo://app?vid=5ccf2ec0-267c-42e2-95b9-0f62ea4d8baa"},"vehicle_type_id":"4","last_reported":1734962889,"current_range_meters":38800,"station_id":"ce4bhqp2rcd13ifvqhng","pricing_plan_id":"cebpf4jnsgd1na2vs0mg"},{"bike_id":"dac94ecf-3203-4c89-acc0-21c14e979588","system_id":"levelo_inurba_marseille","lat":43.26692,"lon":5.38269,"is_reserved":false,"is_disabled":false,"rental_uris":{"android":"levelo://app?vid=dac94ecf-3203-4c89-acc0-21c14e979588","ios":"levelo://app?vid=dac94ecf-3203-4c89-acc0-21c14e979588"},"vehicle_type_id":"4","last_reported":1734962889,"current_range_meters":22400,"station_id":"ce4bhg92rcd13ifvqf90","pricing_plan_id":"cebpf4jnsgd1na2vs0mg"},{"bike_id":"7a90d79c-efb7-473f-8f60-a6e952fac037","system_id":"levelo_inurba_marseille","lat":43.30519,"lon":5.3654,"is_reserved":false,"is_disabled":false,"rental_uris":{"android":"levelo://app?vid=7a90d79c-efb7-473f-8f60-a6e952fac037","ios":"levelo://app?vid=7a90d79c-efb7-473f-8f60-a6e952fac037"},"vehicle_type_id":"4","last_reported":1734962889,"current_range_meters":29600,"station_id":"ce4bgs12rcd13ifvqcag","pricing_plan_id":"cebpf4jnsgd1na2vs0mg"},{"bike_id":"0bafca04-fcc3-4e67-bf97-2b96334defbb","system_id":"levelo_inurba_marseille","lat":43.26789,"lon":5.39407,"is_reserved":false,"is_disabled":false,"rental_uris":{"android":"levelo://app?vid=0bafca04-fcc3-4e67-bf97-2b96334defbb","ios":"levelo://app?vid=0bafca04-fcc3-4e67-bf97-2b96334defbb"},"vehicle_type_id":"4","last_reported":1734962889,"current_range_meters":30000,"station_id":"ce4bhh12rcd13ifvqfg0","pricing_plan_id":"cebpf4jnsgd1na2vs0mg"},{"bike_id":"41b3b17a-a3c9-4e41-9947-0409f1be0905","system_id":"levelo_inurba_marseille","lat":43.3373,"lon":5.39189,"is_reserved":false,"is_disabled":false,"rental_uris":{"android":"levelo://app?vid=41b3b17a-a3c9-4e41-9947-0409f1be0905","ios":"levelo://app?vid=41b3b17a-a3c9-4e41-9947-0409f1be0905"},"vehicle_type_id":"4","last_reported":1734962889,"current_range_meters":38800,"station_id":"ce4bhr92rcd13ifvqhsg","pricing_plan_id":"cebpf4jnsgd1na2vs0mg"},{"bike_id":"72bce916-68b4-4572-b535-60a3789d49d8","system_id":"levelo_inurba_marseille","lat":43.320287,"lon":5.415533,"is_reserved":false,"is_disabled":false,"rental_uris":{"android":"levelo://app?vid=72bce916-68b4-4572-b535-60a3789d49d8","ios":"levelo://app?vid=72bce916-68b4-4572-b535-60a3789d49d8"},"vehicle_type_id":"4","last_reported":1734962889,"current_range_meters":39200,"station_id":"ce4bhq92rcd13ifvqhkg","pricing_plan_id":"cebpf4jnsgd1na2vs0mg"},{"bike_id":"03498501-ee13-45ea-938c-ddfe631690c9","system_id":"levelo_inurba_marseille","lat":43.24681,"lon":5.38152,"is_reserved":false,"is_disabled":false,"rental_uris":{"android":"levelo://app?vid=03498501-ee13-45ea-938c-ddfe631690c9","ios":"levelo://app?vid=03498501-ee13-45ea-938c-ddfe631690c9"},"vehicle_type_id":"4","last_reported":1734962889,"current_range_meters":30400,"station_id":"ce4bhih2rcd13ifvqfr0","pricing_plan_id":"cebpf4jnsgd1na2vs0mg"},{"bike_id":"fcaa428f-5b81-4cef-aa5d-f496099afa0b","system_id":"levelo_inurba_marseille","lat":43.30579,"lon":5.36534,"is_reserved":false,"is_disabled":false,"rental_uris":{"android":"levelo://app?vid=fcaa428f-5b81-4cef-aa5d-f496099afa0b","ios":"levelo://app?vid=fcaa428f-5b81-4cef-aa5d-f496099afa0b"},"vehicle_type_id":"4","last_reported":1734962889,"current_range_meters":38800,"station_id":"ce4bgs12rcd13ifvqcag","pricing_plan_id":"cebpf4jnsgd1na2vs0mg"},{"bike_id":"77811f17-f82f-4e97-8c7e-18336f4e1458","system_id":"levelo_inurba_marseille","lat":43.28466,"lon":5.38413,"is_reserved":false,"is_disabled":false,"rental_uris":{"android":"levelo://app?vid=77811f17-f82f-4e97-8c7e-18336f4e1458","ios":"levelo://app?vid=77811f17-f82f-4e97-8c7e-18336f4e1458"},"vehicle_type_id":"4","last_reported":1734962889,"current_range_meters":38800,"station_id":"ce4bh512rcd13ifvqe3g","pricing_plan_id":"cebpf4jnsgd1na2vs0mg"},{"bike_id":"f32ec1dc-57c4-484c-a849-5534c3c3731c","system_id":"levelo_inurba_marseille","lat":43.30792,"lon":5.37656,"is_reserved":false,"is_disabled":false,"rental_uris":{"android":"levelo://app?vid=f32ec1dc-57c4-484c-a849-5534c3c3731c","ios":"levelo://app?vid=f32ec1dc-57c4-484c-a849-5534c3c3731c"},"vehicle_type_id":"4","last_reported":1734962889,"current_range_meters":24000,"station_id":"ce4bgv92rcd13ifvqcq0","pricing_plan_id":"cebpf4jnsgd1na2vs0mg"},{"bike_id":"a56ef3c5-bb38-4b33-97c1-4d470a666ba6","system_id":"levelo_inurba_marseille","lat":43.298522,"lon":5.362839,"is_reserved":false,"is_disabled":false,"rental_uris":{"android":"levelo://app?vid=a56ef3c5-bb38-4b33-97c1-4d470a666ba6","ios":"levelo://app?vid=a56ef3c5-bb38-4b33-97c1-4d470a666ba6"},"vehicle_type_id":"4","last_reported":1734962889,"current_range_meters":34800,"station_id":"ce4bgpp2rcd13ifvqc3g","pricing_plan_id":"cebpf4jnsgd1na2vs0mg"},{"bike_id":"aeb21815-fda5-4673-a326-4fbe39a203b0","system_id":"levelo_inurba_marseille","lat":43.32467,"lon":5.36573,"is_reserved":false,"is_disabled":false,"rental_uris":{"android":"levelo://app?vid=aeb21815-fda5-4673-a326-4fbe39a203b0","ios":"levelo://app?vid=aeb21815-fda5-4673-a326-4fbe39a203b0"},"vehicle_type_id":"4","last_reported":1734962889,"current_range_meters":10800,"station_id":"ce4bhs12rcd13ifvqhvg","pricing_plan_id":"cebpf4jnsgd1na2vs0mg"},{"bike_id":"50a18693-3e54-4e5b-84f8-e27609e6c376","system_id":"levelo_inurba_marseille","lat":43.2958,"lon":5.36746,"is_reserved":false,"is_disabled":false,"rental_uris":{"android":"levelo://app?vid=50a18693-3e54-4e5b-84f8-e27609e6c376","ios":"levelo://app?vid=50a18693-3e54-4e5b-84f8-e27609e6c376"},"vehicle_type_id":"4","last_reported":1734962889,"current_range_meters":38000,"station_id":"ce4bgph2rcd13ifvqc2g","pricing_plan_id":"cebpf4jnsgd1na2vs0mg"},{"bike_id":"389629d4-b5fa-4746-a155-08f4e7afaacf","system_id":"levelo_inurba_marseille","lat":43.279261,"lon":5.395839,"is_reserved":false,"is_disabled":false,"rental_uris":{"android":"levelo://app?vid=389629d4-b5fa-4746-a155-08f4e7afaacf","ios":"levelo://app?vid=389629d4-b5fa-4746-a155-08f4e7afaacf"},"vehicle_type_id":"4","last_reported":1734962889,"current_range_meters":32000,"station_id":"ce4bhf92rcd13ifvqf40","pricing_plan_id":"cebpf4jnsgd1na2vs0mg"},{"bike_id":"b5a368f2-adde-42d4-93df-372ee801755a","system_id":"levelo_inurba_marseille","lat":43.30548,"lon":5.36558,"is_reserved":false,"is_disabled":false,"rental_uris":{"android":"levelo://app?vid=b5a368f2-adde-42d4-93df-372ee801755a","ios":"levelo://app?vid=b5a368f2-adde-42d4-93df-372ee801755a"},"vehicle_type_id":"4","last_reported":1734962889,"current_range_meters":26000,"station_id":"ce4bgs12rcd13ifvqcag","pricing_plan_id":"cebpf4jnsgd1na2vs0mg"},{"bike_id":"085f67b0-44f2-4732-999e-5d735b9a7008","system_id":"levelo_inurba_marseille","lat":43.27376,"lon":5.36247,"is_reserved":false,"is_disabled":false,"rental_uris":{"android":"levelo://app?vid=085f67b0-44f2-4732-999e-5d735b9a7008","ios":"levelo://app?vid=085f67b0-44f2-4732-999e-5d735b9a7008"},"vehicle_type_id":"4","last_reported":1734962889,"current_range_meters":32000,"station_id":"ce4bhbh2rcd13ifvqeo0","pricing_plan_id":"cebpf4jnsgd1na2vs0mg"},{"bike_id":"d8516e49-9f1e-434a-acf9-21daae4231b2","system_id":"levelo_inurba_marseille","lat":43.295362,"lon":5.375053,"is_reserved":false,"is_disabled":false,"rental_uris":{"android":"levelo://app?vid=d8516e49-9f1e-434a-acf9-21daae4231b2","ios":"levelo://app?vid=d8516e49-9f1e-434a-acf9-21daae4231b2"},"vehicle_type_id":"4","last_reported":1734962889,"current_range_meters":31200,"station_id":"ce4bgkp2rcd13ifvqbmg","pricing_plan_id":"cebpf4jnsgd1na2vs0mg"},{"bike_id":"b890cd89-06b8-4540-953c-81edd3eaece2","system_id":"levelo_inurba_marseille","lat":43.29613,"lon":5.3771,"is_reserved":false,"is_disabled":false,"rental_uris":{"android":"levelo://app?vid=b890cd89-06b8-4540-953c-81edd3eaece2","ios":"levelo://app?vid=b890cd89-06b8-4540-953c-81edd3eaece2"},"vehicle_type_id":"4","last_reported":1734962889,"current_range_meters":11600,"station_id":"ce4bgi92rcd13ifvqb90","pricing_plan_id":"cebpf4jnsgd1na2vs0mg"},{"bike_id":"d1853d76-78cf-466d-9558-f0792250c702","system_id":"levelo_inurba_marseille","lat":43.33815,"lon":5.37432,"is_reserved":false,"is_disabled":false,"rental_uris":{"android":"levelo://app?vid=d1853d76-78cf-466d-9558-f0792250c702","ios":"levelo://app?vid=d1853d76-78cf-466d-9558-f0792250c702"},"vehicle_type_id":"4","last_reported":1734962889,"current_range_meters":20000,"station_id":"","pricing_plan_id":"cebpf4jnsgd1na2vs0mg"},{"bike_id":"bb7a8be0-0720-4b48-bcb7-a138cd62f49a","system_id":"levelo_inurba_marseille","lat":43.29096,"lon":5.38162,"is_reserved":false,"is_disabled":false,"rental_uris":{"android":"levelo://app?vid=bb7a8be0-0720-4b48-bcb7-a138cd62f49a","ios":"levelo://app?vid=bb7a8be0-0720-4b48-bcb7-a138cd62f49a"},"vehicle_type_id":"4","last_reported":1734962889,"current_range_meters":38800,"station_id":"ce4bh512rcd13ifvqe2g","pricing_plan_id":"cebpf4jnsgd1na2vs0mg"},{"bike_id":"99ebec17-1da0-4f42-9337-6e078838fd3e","system_id":"levelo_inurba_marseille","lat":43.29723,"lon":5.37705,"is_reserved":false,"is_disabled":false,"rental_uris":{"android":"levelo://app?vid=99ebec17-1da0-4f42-9337-6e078838fd3e","ios":"levelo://app?vid=99ebec17-1da0-4f42-9337-6e078838fd3e"},"vehicle_type_id":"4","last_reported":1734962889,"current_range_meters":12400,"station_id":"ce4bgkh2rcd13ifvqbl0","pricing_plan_id":"cebpf4jnsgd1na2vs0mg"},