{"last_updated":1746706827,"ttl":60,"version":"2.2","data":{"bikes":[{"bike_id":"0e367d35-fe8b-40dc-82b6-6001fd44ca0b","system_id":"levelo_inurba_marseille","lat":43.24387,"lon":5.37065,"is_reserved":false,"is_disabled":false,"rental_uris":{"android":"levelo://app?vid=0e367d35-fe8b-40dc-82b6-6001fd44ca0b","ios":"levelo://app?vid=0e367d35-fe8b-40dc-82b6-6001fd44ca0b"},"vehicle_type_id":"4","last_reported":1746706827,"current_range_meters":2800,"station_id":"ce4bhhh2rcd13ifvqfk0","pricing_plan_id":"cebpf4jnsgd1na2vs0mg"},{"bike_id":"34342486-9847-4d63-83cb-ca73269c2e70","system_id":"levelo_inurba_marseille","lat":43.28273,"lon":5.35063,"is_reserved":false,"is_disabled":false,"rental_uris":{"android":"levelo://app?vid=34342486-9847-4d63-83cb-ca73269c2e70","ios":"levelo://app?vid=34342486-9847-4d63-83cb-ca73269c2e70"},"vehicle_type_id":"4","last_reported":1746706827,"current_range_meters":2800,"station_id":"ce4bhbp2rcd13ifvqerg","pricing_plan_id":"cebpf4jnsgd1na2vs0mg"},{"bike_id":"80b63bec-adad-4d2f-a7d4-1defb404ce19","system_id":"levelo_inurba_marseille","lat":43.31077,"lon":5.3835,"is_reserved":false,"is_disabled":false,"rental_uris":{"android":"levelo://app?vid=80b63bec-adad-4d2f-a7d4-1defb404ce19","ios":"levelo://app?vid=80b63bec-adad-4d2f-a7d4-1defb404ce19"},"vehicle_type_id":"4","last_reported":1746706827,"current_range_meters":2800,"station_id":"ce4bgv92rcd13ifvqcr0","pricing_plan_id":"cebpf4jnsgd1na2vs0mg"},{"bike_id":"42fd5e25-3eb5-4ffb-adc2-8f1b45738227","system_id":"levelo_inurba_marseille","lat":43.27375,"lon":5.36268,"is_reserved":false,"is_disabled":false,"rental_uris":{"android":"levelo://app?vid=42fd5e25-3eb5-4ffb-adc2-8f1b45738227","ios":"levelo://app?vid=42fd5e25-3eb5-4ffb-adc2-8f1b45738227"},"vehicle_type_id":"4","last_reported":1746706827,"current_range_meters":3200,"station_id":"ce4bhbh2rcd13ifvqeo0","pricing_plan_id":"cebpf4jnsgd1na2vs0mg"},{"bike_id":"acbc3767-23d7-4619-9f80-a0249d18a18f","system_id":"levelo_inurba_marseille","lat":43.24801,"lon":5.37454,"is_reserved":false,"is_disabled":false,"rental_uris":{"android":"levelo://app?vid=acbc3767-23d7-4619-9f80-a0249d18a18f","ios":"levelo://app?vid=acbc3767-23d7-4619-9f80-a0249d18a18f"},"vehicle_type_id":"4","last_reported":1746706827,"current_range_meters":3200,"station_id":"ce4bhgh2rcd13ifvqfb0","pricing_plan_id":"cebpf4jnsgd1na2vs0mg"},{"bike_id":"8e1f77b9-fe75-43c7-acf0-d53d5230b43d","system_id":"levelo_inurba_marseille","lat":43.2834,"lon":5.38102,"is_reserved":false,"is_disabled":false,"rental_uris":{"android":"levelo://app?vid=8e1f77b9-fe75-43c7-acf0-d53d5230b43d","ios":"levelo://app?vid=8e1f77b9-fe75-43c7-acf0-d53d5230b43d"},"vehicle_type_id":"4","last_reported":1746706827,"current_range_meters":3200,"station_id":"ce4bh412rcd13ifvqdr0","pricing_plan_id":"cebpf4jnsgd1na2vs0mg"},{"bike_id":"5d07e7ba-33ed-423b-8534-3f3126171b1b","system_id":"levelo_inurba_marseille","lat":43.261806,"lon":5.374386,"is_reserved":false,"is_disabled":false,"rental_uris":{"android":"levelo://app?vid=5d07e7ba-33ed-423b-8534-3f3126171b1b","ios":"levelo://app?vid=5d07e7ba-33ed-423b-8534-3f3126171b1b"},"vehicle_type_id":"4","last_reported":1746706827,"current_range_meters":3600,"station_id":"ce4bhgp2rcd13ifvqfc0","pricing_plan_id":"cebpf4jnsgd1na2vs0mg"},{"bike_id":"4025bef7-38fd-4931-bfa7-69703bacb315","system_id":"levelo_inurba_marseille","lat":43.25866,"lon":5.39897,"is_reserved":false,"is_disabled":false,"rental_uris":{"android":"levelo://app?vid=4025bef7-38fd-4931-bfa7-69703bacb315","ios":"levelo://app?vid=4025bef7-38fd-4931-bfa7-69703bacb315"},"vehicle_type_id":"4","last_reported":1746706827,"current_range_meters":3600,"station_id":"ce4bhl92rcd13ifvqghg","pricing_plan_id":"cebpf4jnsgd1na2vs0mg"},{"bike_id":"42c5aedc-2d08-43ff-b18f-426b5d2dc0eb","system_id":"levelo_inurba_marseille","lat":43.28076,"lon":5.3966,"is_reserved":false,"is_disabled":false,"rental_uris":{"android":"levelo://app?vid=42c5aedc-2d08-43ff-b18f-426b5d2dc0eb","ios":"levelo://app?vid=42c5aedc-2d08-43ff-b18f-426b5d2dc0eb"},"vehicle_type_id":"4","last_reported":1746706827,"current_range_meters":3600,"station_id":"ce4bho12rcd13ifvqh2g","pricing_plan_id":"cebpf4jnsgd1na2vs0mg"},{"bike_id":"1a533c77-1ac4-4101-b033-c997a21103b8","system_id":"levelo_inurba_marseille","lat":43.241845,"lon":5.39711,"is_reserved":false,"is_disabled":false,"rental_uris":{"android":"levelo://app?vid=1a533c77-1ac4-4101-b033-c997a21103b8","ios":"levelo://app?vid=1a533c77-1ac4-4101-b033-c997a21103b8"},"vehicle_type_id":"4","last_reported":1746706827,"current_range_meters":3600,"station_id":"ce4bhn12rcd13ifvqgpg","pricing_plan_id":"cebpf4jnsgd1na2vs0mg"},{"bike_id":"d9fc8173-6364-4021-aeb0-c4a73063f2f5","system_id":"levelo_inurba_marseille","lat":43.24167,"lon":5.36394,"is_reserved":false,"is_disabled":false,"rental_uris":{"android":"levelo://app?vid=d9fc8173-6364-4021-aeb0-c4a73063f2f5","ios":"levelo://app?vid=d9fc8173-6364-4021-aeb0-c4a73063f2f5"},"vehicle_type_id":"4","last_reported":1746706827,"current_range_meters":4000,"station_id":"cpo36qri1sfpv3e86is0","pricing_plan_id":"cebpf4jnsgd1na2vs0mg"},{"bike_id":"dee206bd-2911-40ef-ba78-025fd48dd3e6","system_id":"levelo_inurba_marseille","lat":43.2885,"lon":5.35858,"is_reserved":false,"is_disabled":false,"rental_uris":{"android":"levelo://app?vid=dee206bd-2911-40ef-ba78-025fd48dd3e6","ios":"levelo://app?vid=dee206bd-2911-40ef-ba78-025fd48dd3e6"},"vehicle_type_id":"4","last_reported":1746706827,"current_range_meters":4000,"station_id":"ce4bhb12rcd13ifvqem0","pricing_plan_id":"cebpf4jnsgd1na2vs0mg"},{"bike_id":"00d9fdc2-0932-4eb5-87e8-a48e7e3ef8a2","system_id":"levelo_inurba_marseille","lat":43.27996,"lon":5.4001,"is_reserved":false,"is_disabled":false,"rental_uris":{"android":"levelo://app?vid=00d9fdc2-0932-4eb5-87e8-a48e7e3ef8a2","ios":"levelo://app?vid=00d9fdc2-0932-4eb5-87e8-a48e7e3ef8a2"},"vehicle_type_id":"4","last_reported":1746706827,"current_range_meters":4400,"station_id":"ce4bho92rcd13ifvqh4g","pricing_plan_id":"cebpf4jnsgd1na2vs0mg"},{"bike_id":"b56d5ade-0de2-44f1-90b1-fb52a39fc442","system_id":"levelo_inurba_marseille","lat":43.29268,"lon":5.37622,"is_reserved":false,"is_disabled":false,"rental_uris":{"android":"levelo://app?vid=b56d5ade-0de2-44f1-90b1-fb52a39fc442","ios":"levelo://app?vid=b56d5ade-0de2-44f1-90b1-fb52a39fc442"},"vehicle_type_id":"4","last_reported":1746706827,"current_range_meters":4400,"station_id":"ce4bgi12rcd13ifvqb80","pricing_plan_id":"cebpf4jnsgd1na2vs0mg"},{"bike_id":"2f333e1d-f3e5-4828-84d0-6d5fbaee3fae","system_id":"levelo_inurba_marseille","lat":43.26565,"lon":5.39011,"is_reserved":false,"is_disabled":false,"rental_uris":{"android":"levelo://app?vid=2f333e1d-f3e5-4828-84d0-6d5fbaee3fae","ios":"levelo://app?vid=2f333e1d-f3e5-4828-84d0-6d5fbaee3fae"},"vehicle_type_id":"4","last_reported":1746706827,"current_range_meters":4800,"station_id":"ce4bhe12rcd13ifvqf30","pricing_plan_id":"cebpf4jnsgd1na2vs0mg"},{"bike_id":"c46a6519-04e4-472a-b2a8-915b67091ebb","system_id":"levelo_inurba_marseille","lat":43.30956,"lon":5.39028,"is_reserved":false,"is_disabled":false,"rental_uris":{"android":"levelo://app?vid=c46a6519-04e4-472a-b2a8-915b67091ebb","ios":"levelo://app?vid=c46a6519-04e4-472a-b2a8-915b67091ebb"},"vehicle_type_id":"4","last_reported":1746706827,"current_range_meters":4800,"station_id":"ce4bgup2rcd13ifvqco0","pricing_plan_id":"cebpf4jnsgd1na2vs0mg"},{"bike_id":"75a6ea25-678e-4b36-a126-4500b8f1a164","system_id":"levelo_inurba_marseille","lat":43.30142,"lon":5.38079,"is_reserved":false,"is_disabled":false,"rental_uris":{"android":"levelo://app?vid=75a6ea25-678e-4b36-a126-4500b8f1a164","ios":"levelo://app?vid=75a6ea25-678e-4b36-a126-4500b8f1a164"},"vehicle_type_id":"4","last_reported":1746706827,"current_range_meters":5600,"station_id":"ce4bgjp2rcd13ifvqbh0","pricing_plan_id":"cebpf4jnsgd1na2vs0mg"},{"bike_id":"082b5772-10bb-4282-bdbf-aa00094bbf28","system_id":"levelo_inurba_marseille","lat":43.27064,"lon":5.40249,"is_reserved":false,"is_disabled":false,"rental_uris":{"android":"levelo://app?vid=082b5772-10bb-4282-bdbf-aa00094bbf28","ios":"levelo://app?vid=082b5772-10bb-4282-bdbf-aa00094bbf28"},"vehicle_type_id":"4","last_reported":1746706827,"current_range_meters":5600,"station_id":"ce4bhk92rcd13ifvqgc0","pricing_plan_id":"cebpf4jnsgd1na2vs0mg"},{"bike_id":"8548cb73-456b-4d6e-b84c-82d3978737f9","system_id":"levelo_inurba_marseille","lat":43.27814,"lon":5.40706,"is_reserved":false,"is_disabled":false,"rental_uris":{"android":"levelo://app?vid=8548cb73-456b-4d6e-b84c-82d3978737f9","ios":"levelo://app?vid=8548cb73-456b-4d6e-b84c-82d3978737f9"},"vehicle_type_id":"4","last_reported":1746706827,"current_range_meters":5600,"station_id":"ce4bhnh2rcd13ifvqgtg","pricing_plan_id":"cebpf4jnsgd1na2vs0mg"},{"bike_id":"a5949f9e-6627-4037-a487-62f23f4f041e","system_id":"levelo_inurba_marseille","lat":43.27379,"lon":5.362687,"is_reserved":false,"is_disabled":false,"rental_uris":{"android":"levelo://app?vid=a5949f9e-6627-4037-a487-62f23f4f041e","ios":"levelo://app?vid=a5949f9e-6627-4037-a487-62f23f4f041e"},"vehicle_type_id":"4","last_reported":1746706827,"current_range_meters":5600,"station_id":"ce4bhbh2rcd13ifvqeo0","pricing_plan_id":"cebpf4jnsgd1na2vs0mg"},{"bike_id":"caf711ed-fc3d-4593-a4f8-cdcf344f90ef","system_id":"levelo_inurba_marseille","lat":43.23972,"lon":5.36613,"is_reserved":false,"is_disabled":false,"rental_uris":{"android":"levelo://app?vid=caf711ed-fc3d-4593-a4f8-cdcf344f90ef","ios":"levelo://app?vid=caf711ed-fc3d-4593-a4f8-cdcf344f90ef"},"vehicle_type_id":"4","last_reported":1746706827,"current_range_meters":5600,"station_id":"ce4bhi12rcd13ifvqfp0","pricing_plan_id":"cebpf4jnsgd1na2vs0mg"},{"bike_id":"bd4a3b44-4c37-4b24-8b89-3f829b0cf395","system_id":"levelo_inurba_marseille","lat":43.30422,"lon":5.41284,"is_reserved":false,"is_disabled":false,"rental_uris":{"android":"levelo://app?vid=bd4a3b44-4c37-4b24-8b89-3f829b0cf395","ios":"levelo://app?vid=bd4a3b44-4c37-4b24-8b89-3f829b0cf395"},"vehicle_type_id":"4","last_reported":1746706827,"current_range_meters":6000,"station_id":"ce4bhop2rcd13ifvqh8g","pricing_plan_id":"cebpf4jnsgd1na2vs0mg"},{"bike_id":"c72e9ab1-a289-41a0-a26c-6ae657643ab4","system_id":"levelo_inurba_marseille","lat":43.23167,"lon":5.43703,"is_reserved":false,"is_disabled":false,"rental_uris":{"android":"levelo://app?vid=c72e9ab1-a289-41a0-a26c-6ae657643ab4","ios":"levelo://app?vid=c72e9ab1-a289-41a0-a26c-6ae657643ab4"},"vehicle_type_id":"4","last_reported":1746706827,"current_range_meters":6000,"station_id":"ce4bhmp2rcd13ifvqgog","pricing_plan_id":"cebpf4jnsgd1na2vs0mg"},{"bike_id":"e07a4576-9080-4697-9d6b-9a11e8bf2b19","system_id":"levelo_inurba_marseille","lat":43.21184,"lon":5.35076,"is_reserved":false,"is_disabled":false,"rental_uris":{"android":"levelo://app?vid=e07a4576-9080-4697-9d6b-9a11e8bf2b19","ios":"levelo://app?vid=e07a4576-9080-4697-9d6b-9a11e8bf2b19"},"vehicle_type_id":"4","last_reported":1746706827,"current_range_meters":6000,"station_id":"st_cvj6sg6p6f1abm77japg","pricing_plan_id":"cebpf4jnsgd1na2vs0mg"},{"bike_id":"78b5cbc9-b72b-4535-8c4a-73f8976b6979","system_id":"levelo_inurba_marseille","lat":43.29227,"lon":5.36062,"is_reserved":false,"is_disabled":false,"rental_uris":{"android":"levelo://app?vid=78b5cbc9-b72b-4535-8c4a-73f8976b6979","ios":"levelo://app?vid=78b5cbc9-b72b-4535-8c4a-73f8976b6979"},"vehicle_type_id":"4","last_reported":1746706827,"current_range_meters":6000,"station_id":"ce4bhbh2rcd13ifvqeqg","pricing_plan_id":"cebpf4jnsgd1na2vs0mg"},{"bike_id":"6f80d320-6d2f-40b8-b39d-d571bef8ba7e","system_id":"levelo_inurba_marseille","lat":43.28985,"lon":5.37835,"is_reserved":false,"is_disabled":false,"rental_uris":{"android":"levelo://app?vid=6f80d320-6d2f-40b8-b39d-d571bef8ba7e","ios":"levelo://app?vid=6f80d320-6d2f-40b8-b39d-d571bef8ba7e"},"vehicle_type_id":"4","last_reported":1746706827,"current_range_meters":6000,"station_id":"ce4bh9p2rcd13ifvqed0","pricing_plan_id":"cebpf4jnsgd1na2vs0mg"},{"bike_id":"3e2bce36-ad5b-4dd6-937a-c0cad51b795c","system_id":"levelo_inurba_marseille","lat":43.26031,"lon":5.37549,"is_reserved":false,"is_disabled":false,"rental_uris":{"android":"levelo://app?vid=3e2bce36-ad5b-4dd6-937a-c0cad51b795c","ios":"levelo://app?vid=3e2bce36-ad5b-4dd6-937a-c0cad51b795c"},"vehicle_type_id":"4","last_reported":1746706827,"current_range_meters":6400,"station_id":"ce4bhgh2rcd13ifvqfa0","pricing_plan_id":"cebpf4jnsgd1na2vs0mg"},{"bike_id":"bf3aea6a-d626-4d6a-9f3a-f1d6813e54f7","system_id":"levelo_inurba_marseille","lat":43.2318,"lon":5.39991,"is_reserved":false,"is_disabled":false,"rental_uris":{"android":"levelo://app?vid=bf3aea6a-d626-4d6a-9f3a-f1d6813e54f7","ios":"levelo://app?vid=bf3aea6a-d626-4d6a-9f3a-f1d6813e54f7"},"vehicle_type_id":"4","last_reported":1746706827,"current_range_meters":6400,"station_id":"ce4bhn12rcd13ifvqgqg","pricing_plan_id":"cebpf4jnsgd1na2vs0mg"},{"bike_id":"8e3d83fc-3fd3-4683-8688-6e2a3f148914","system_id":"levelo_inurba_marseille","lat":43.286062,"lon":5.351029,"is_reserved":false,"is_disabled":false,"rental_uris":{"android":"levelo://app?vid=8e3d83fc-3fd3-4683-8688-6e2a3f148914","ios":"levelo://app?vid=8e3d83fc-3fd3-4683-8688-6e2a3f148914"},"vehicle_type_id":"4","last_reported":1746706827,"current_range_meters":6400,"station_id":"ce4bhbp2rcd13ifvqerg","pricing_plan_id":"cebpf4jnsgd1na2vs0mg"},{"bike_id":"bb6685c6-8835-42f7-8cdb-57288ab49efe","system_id":"levelo_inurba_marseille","lat":43.21188,"lon":5.35072,"is_reserved":false,"is_disabled":false,"rental_uris":{"android":"levelo://app?vid=bb6685c6-8835-42f7-8cdb-57288ab49efe","ios":"levelo://app?vid=bb6685c6-8835-42f7-8cdb-57288ab49efe"},"vehicle_type_id":"4","last_reported":1746706827,"current_range_meters":6400,"station_id":"st_cvj6sg6p6f1abm77japg","pricing_plan_id":"cebpf4jnsgd1na2vs0mg"},{"bike_id":"7e52e8f8-1cef-4ac7-97d7-5efaf8416a74","system_id":"levelo_inurba_marseille","lat":43.25872,"lon":5.39896,"is_reserved":false,"is_disabled":false,"rental_uris":{"android":"levelo://app?vid=7e52e8f8-1cef-4ac7-97d7-5efaf8416a74","ios":"levelo://app?vid=7e52e8f8-1cef-4ac7-97d7-5efaf8416a74"},"vehicle_type_id":"4","last_reported":1746706827,"current_range_meters":6400,"station_id":"ce4bhl92rcd13ifvqghg","pricing_plan_id":"cebpf4jnsgd1na2vs0mg"},{"bike_id":"4b34fbb1-cf54-4c85-b8e2-df7ab9326abb","system_id":"levelo_inurba_marseille","lat":43.31481,"lon":5.37311,"is_reserved":false,"is_disabled":false,"rental_uris":{"android":"levelo://app?vid=4b34fbb1-cf54-4c85-b8e2-df7ab9326abb","ios":"levelo://app?vid=4b34fbb1-cf54-4c85-b8e2-df7ab9326abb"},"vehicle_type_id":"4","last_reported":1746706827,"current_range_meters":6800,"station_id":"ce4bgt12rcd13ifvqcd0","pricing_plan_id":"cebpf4jnsgd1na2vs0mg"},{"bike_id":"79a50dda-adb6-443a-ad47-6f586af05a89","system_id":"levelo_inurba_marseille","lat":43.28418,"lon":5.34982,"is_reserved":false,"is_disabled":false,"rental_uris":{"android":"levelo://app?vid=79a50dda-adb6-443a-ad47-6f586af05a89","ios":"levelo://app?vid=79a50dda-adb6-443a-ad47-6f586af05a89"},"vehicle_type_id":"4","last_reported":1746706827,"current_range_meters":6800,"station_id":"ce4bhbh2rcd13ifvqepg","pricing_plan_id":"cebpf4jnsgd1na2vs0mg"},{"bike_id":"5d97afa3-75c8-4720-9690-7157f6b19de8","system_id":"levelo_inurba_marseille","lat":43.33606,"lon":5.41017,"is_reserved":false,"is_disabled":false,"rental_uris":{"android":"levelo://app?vid=5d97afa3-75c8-4720-9690-7157f6b19de8","ios":"levelo://app?vid=5d97afa3-75c8-4720-9690-7157f6b19de8"},"vehicle_type_id":"4","last_reported":1746706827,"current_range_meters":6800,"station_id":"ce4bhqh2rcd13ifvqhmg","pricing_plan_id":"cebpf4jnsgd1na2vs0mg"},{"bike_id":"a297e50c-bb28-4d8d-97f5-57738833cd8f","system_id":"levelo_inurba_marseille","lat":43.337444,"lon":5.374475,"is_reserved":false,"is_disabled":false,"rental_uris":{"android":"levelo://app?vid=a297e50c-bb28-4d8d-97f5-57738833cd8f","ios":"levelo://app?vid=a297e50c-bb28-4d8d-97f5-57738833cd8f"},"vehicle_type_id":"4","last_reported":1746706827,"current_range_meters":6800,"station_id":"","pricing_plan_id":"cebpf4jnsgd1na2vs0mg"},{"bike_id":"ddda1e7e-2780-4187-b2fe-c09599a440f7","system_id":"levelo_inurba_marseille","lat":43.23133,"lon":5.43753,"is_reserved":false,"is_disabled":false,"rental_uris":{"android":"levelo://app?vid=ddda1e7e-2780-4187-b2fe-c09599a440f7","ios":"levelo://app?vid=ddda1e7e-2780-4187-b2fe-c09599a440f7"},"vehicle_type_id":"4","last_reported":1746706827,"current_range_meters":7200,"station_id":"","pricing_plan_id":"cebpf4jnsgd1na2vs0mg"},{"bike_id":"096ee441-4cd0-4b74-a72d-7f691798aa2b","system_id":"levelo_inurba_marseille","lat":43.2827,"lon":5.35062,"is_reserved":false,"is_disabled":false,"rental_uris":{"android":"levelo://app?vid=096ee441-4cd0-4b74-a72d-7f691798aa2b","ios":"levelo://app?vid=096ee441-4cd0-4b74-a72d-7f691798aa2b"},"vehicle_type_id":"4","last_reported":1746706827,"current_range_meters":7200,"station_id":"ce4bhbp2rcd13ifvqerg","pricing_plan_id":"cebpf4jnsgd1na2vs0mg"},{"bike_id":"1b34466f-a118-46f6-a5f5-227f007ae3a7","system_id":"levelo_inurba_marseille","lat":43.23192,"lon":5.35554,"is_reserved":false,"is_disabled":false,"rental_uris":{"android":"levelo://app?vid=1b34466f-a118-46f6-a5f5-227f007ae3a7","ios":"levelo://app?vid=1b34466f-a118-46f6-a5f5-227f007ae3a7"},"vehicle_type_id":"4","last_reported":1746706827,"current_range_meters":7200,"station_id":"ce4bhu92rcd13ifvqi70","pricing_plan_id":"cebpf4jnsgd1na2vs0mg"},{"bike_id":"b7bdbe3a-b7ec-4256-908f-dfa71835a5d1","system_id":"levelo_inurba_marseille","lat":43.290103,"lon":5.373343,"is_reserved":false,"is_disabled":false,"rental_uris":{"android":"levelo://app?vid=b7bdbe3a-b7ec-4256-908f-dfa71835a5d1","ios":"levelo://app?vid=b7bdbe3a-b7ec-4256-908f-dfa71835a5d1"},"vehicle_type_id":"4","last_reported":1746706827,"current_range_meters":7200,"station_id":"","pricing_plan_id":"cebpf4jnsgd1na2vs0mg"},{"bike_id":"be3a2ed9-e107-46dc-8066-89cfcff50847","system_id":"levelo_inurba_marseille","lat":43.292343,"lon":5.371253,"is_reserved":false,"is_disabled":false,"rental_uris":{"android":"levelo://app?vid=be3a2ed9-e107-46dc-8066-89cfcff50847","ios":"levelo://app?vid=be3a2ed9-e107-46dc-8066-89cfcff50847"},"vehicle_type_id":"4","last_reported":1746706827,"current_range_meters":8000,"station_id":"","pricing_plan_id":"cebpf4jnsgd1na2vs0mg"},{"bike_id":"1c549479-bf93-4f72-9a51-6e7bb0fa4bfd","system_id":"levelo_inurba_marseille","lat":43.26567,"lon":5.39008,"is_reserved":false,"is_disabled":false,"rental_uris":{"android":"levelo://app?vid=1c549479-bf93-4f72-9a51-6e7bb0fa4bfd","ios":"levelo://app?vid=1c549479-bf93-4f72-9a51-6e7bb0fa4bfd"},"vehicle_type_id":"4","last_reported":1746706827,"current_range_meters":8000,"station_id":"ce4bhe12rcd13ifvqf30","pricing_plan_id":"cebpf4jnsgd1na2vs0mg"},{"bike_id":"820bd674-0eb7-4a31-99dd-425807173eb4","system_id":"levelo_inurba_marseille","lat":43.27066,"lon":5.40254,"is_reserved":false,"is_disabled":false,"rental_uris":{"android":"levelo://app?vid=820bd674-0eb7-4a31-99dd-425807173eb4","ios":"levelo://app?vid=820bd674-0eb7-4a31-99dd-425807173eb4"},"vehicle_type_id":"4","last_reported":1746706827,"current_range_meters":8000,"station_id":"ce4bhk92rcd13ifvqgc0","pricing_plan_id":"cebpf4jnsgd1na2vs0mg"},{"bike_id":"ffaf7abf-4cb1-4866-ac3c-102e314cafc8","system_id":"levelo_inurba_marseille","lat":43.24184,"lon":5.397035,"is_reserved":false,"is_disabled":false,"rental_uris":{"android":"levelo://app?vid=ffaf7abf-4cb1-4866-ac3c-102e314cafc8","ios":"levelo://app?vid=ffaf7abf-4cb1-4866-ac3c-102e314cafc8"},"vehicle_type_id":"4","last_reported":1746706827,"current_range_meters":8000,"station_id":"ce4bhn12rcd13ifvqgpg","pricing_plan_id":"cebpf4jnsgd1na2vs0mg"},{"bike_id":"896d3462-4257-48d2-a1bc-723f0dd22e77","system_id":"levelo_inurba_marseille","lat":43.24392,"lon":5.37061,"is_reserved":false,"is_disabled":false,"rental_uris":{"android":"levelo://app?vid=896d3462-4257-48d2-a1bc-723f0dd22e77","ios":"levelo://app?vid=896d3462-4257-48d2-a1bc-723f0dd22e77"},"vehicle_type_id":"4","last_reported":1746706827,"current_range_meters":8400,"station_id":"ce4bhhh2rcd13ifvqfk0","pricing_plan_id":"cebpf4jnsgd1na2vs0mg"},{"bike_id":"9b4e4fe8-c571-493c-bd7e-759572ed984c","system_id":"levelo_inurba_marseille","lat":43.28612,"lon":5.37063,"is_reserved":false,"is_disabled":false,"rental_uris":{"android":"levelo://app?vid=9b4e4fe8-c571-493c-bd7e-759572ed984c","ios":"levelo://app?vid=9b4e4fe8-c571-493c-bd7e-759572ed984c"},"vehicle_type_id":"4","last_reported":1746706827,"current_range_meters":8400,"station_id":"ce4bht12rcd13ifvqi60","pricing_plan_id":"cebpf4jnsgd1na2vs0mg"},{"bike_id":"fee20068-c2b3-4e28-8dd0-affab138d2ac","system_id":"levelo_inurba_marseille","lat":43.26507,"lon":5.39534,"is_reserved":false,"is_disabled":false,"rental_uris":{"android":"levelo://app?vid=fee20068-c2b3-4e28-8dd0-affab138d2ac","ios":"levelo://app?vid=fee20068-c2b3-4e28-8dd0-affab138d2ac"},"vehicle_type_id":"4","last_reported":1746706827,"current_range_meters":8400,"station_id":"ce4bhi12rcd13ifvqfq0","pricing_plan_id":"cebpf4jnsgd1na2vs0mg"},{"bike_id":"4ae7a83c-4508-4420-bdfc-fc011c19b67a","system_id":"levelo_inurba_marseille","lat":43.337699,"lon":5.374899,"is_reserved":false,"is_disabled":false,"rental_uris":{"android":"levelo://app?vid=4ae7a83c-4508-4420-bdfc-fc011c19b67a","ios":"levelo://app?vid=4ae7a83c-4508-4420-bdfc-fc011c19b67a"},"vehicle_type_id":"4","last_reported":1746706827,"current_range_meters":8400,"station_id":"","pricing_plan_id":"cebpf4jnsgd1na2vs0mg"},{"bike_id":"f2265f2b-0eb3-47c5-81df-72d4c60e9b77","system_id":"levelo_inurba_marseille","lat":43.23183,"lon":5.39985,"is_reserved":false,"is_disabled":false,"rental_uris":{"android":"levelo://app?vid=f2265f2b-0eb3-47c5-81df-72d4c60e9b77","ios":"levelo://app?vid=f2265f2b-0eb3-47c5-81df-72d4c60e9b77"},"vehicle_type_id":"4","last_reported":1746706827,"current_range_meters":8400,"station_id":"ce4bhn12rcd13ifvqgqg","pricing_plan_id":"cebpf4jnsgd1na2vs0mg"},{"bike_id":"3cc19258-5d32-4b00-9245-bedf560fa53c","system_id":"levelo_inurba_marseille","lat":43.27366,"lon":5.36251,"is_reserved":false,"is_disabled":false,"rental_uris":{"android":"levelo://app?vid=3cc19258-5d32-4b00-9245-bedf560fa53c","ios":"levelo://app?vid=3cc19258-5d32-4b00-9245-bedf560fa53c"},"vehicle_type_id":"4","last_reported":1746706827,"current_range_meters":8400,"station_id":"ce4bhbh2rcd13ifvqeo0","pricing_plan_id":"cebpf4jnsgd1na2vs0mg"},{"bike_id":"8149f87a-b487-4052-b156-30eed5e8b29e","system_id":"levelo_inurba_marseille","lat":43.29365,"lon":5.37845,"is_reserved":false,"is_disabled":false,"rental_uris":{"android":"levelo://app?vid=8149f87a-b487-4052-b156-30eed5e8b29e","ios":"levelo://app?vid=8149f87a-b487-4052-b156-30eed5e8b29e"},"vehicle_type_id":"4","last_reported":1746706827,"current_range_meters":8800,"station_id":"ce4bgjh2rcd13ifvqbf0","pricing_plan_id":"cebpf4jnsgd1na2vs0mg"},{"bike_id":"f576fc13-20b5-43b2-851a-7ce8875a03c8","system_id":"levelo_inurba_marseille","lat":43.23067,"lon":5.35491,"is_reserved":false,"is_disabled":false,"rental_uris":{"android":"levelo://app?vid=f576fc13-20b5-43b2-851a-7ce8875a03c8","ios":"levelo://app?vid=f576fc13-20b5-43b2-851a-7ce8875a03c8"},"vehicle_type_id":"4","last_reported":1746706827,"current_range_meters":8800,"station_id":"cpo3342slgdg3j2ifvpg","pricing_plan_id":"cebpf4jnsgd1na2vs0mg"},{"bike_id":"5a6db143-4498-48d8-9b5c-8994d3ba704a","system_id":"levelo_inurba_marseille","lat":43.21196,"lon":5.35056,"is_reserved":false,"is_disabled":false,"rental_uris":{"android":"levelo://app?vid=5a6db143-4498-48d8-9b5c-8994d3ba704a","ios":"levelo://app?vid=5a6db143-4498-48d8-9b5c-8994d3ba704a"},"vehicle_type_id":"4","last_reported":1746706827,"current_range_meters":9200,"station_id":"st_cvj6sg6p6f1abm77japg","pricing_plan_id":"cebpf4jnsgd1na2vs0mg"},{"bike_id":"2be647d5-519c-42b3-9c07-2bdea29d5767","system_id":"levelo_inurba_marseille","lat":43.26683,"lon":5.38276,"is_reserved":false,"is_disabled":false,"rental_uris":{"android":"levelo://app?vid=2be647d5-519c-42b3-9c07-2bdea29d5767","ios":"levelo://app?vid=2be647d5-519c-42b3-9c07-2bdea29d5767"},"vehicle_type_id":"4","last_reported":1746706827,"current_range_meters":9200,"station_id":"ce4bhg92rcd13ifvqf90","pricing_plan_id":"cebpf4jnsgd1na2vs0mg"},{"bike_id":"edc14644-b89f-4204-b3b6-7edbbb1f0191","system_id":"levelo_inurba_marseille","lat":43.33086,"lon":5.3869,"is_reserved":false,"is_disabled":false,"rental_uris":{"android":"levelo://app?vid=edc14644-b89f-4204-b3b6-7edbbb1f0191","ios":"levelo://app?vid=edc14644-b89f-4204-b3b6-7edbbb1f0191"},"vehicle_type_id":"4","last_reported":1746706827,"current_range_meters":9200,"station_id":"","pricing_plan_id":"cebpf4jnsgd1na2vs0mg"},{"bike_id":"dcc56f7b-7e79-42fa-8aa2-e9c1fff2e9fb","system_id":"levelo_inurba_marseille","lat":43.25938,"lon":5.40899,"is_reserved":false,"is_disabled":false,"rental_uris":{"android":"levelo://app?vid=dcc56f7b-7e79-42fa-8aa2-e9c1fff2e9fb","ios":"levelo://app?vid=dcc56f7b-7e79-42fa-8aa2-e9c1fff2e9fb"},"vehicle_type_id":"4","last_reported":1746706827,"current_range_meters":9200,"station_id":"ce4bhm92rcd13ifvqglg","pricing_plan_id":"cebpf4jnsgd1na2vs0mg"},{"bike_id":"b15fe93b-1059-4d75-abd3-040e349ce402","system_id":"levelo_inurba_marseille","lat":43.30114,"lon":5.37016,"is_reserved":false,"is_disabled":false,"rental_uris":{"android":"levelo://app?vid=b15fe93b-1059-4d75-abd3-040e349ce402","ios":"levelo://app?vid=b15fe93b-1059-4d75-abd3-040e349ce402"},"vehicle_type_id":"4","last_reported":1746706827,"current_range_meters":9200,"station_id":"","pricing_plan_id":"cebpf4jnsgd1na2vs0mg"},{"bike_id":"709ff0f2-bf95-427c-8e88-40b731e8f48f","system_id":"levelo_inurba_marseille","lat":43.32476,"lon":5.36552,"is_reserved":false,"is_disabled":false,"rental_uris":{"android":"levelo://app?vid=709ff0f2-bf95-427c-8e88-40b731e8f48f","ios":"levelo://app?vid=709ff0f2-bf95-427c-8e88-40b731e8f48f"},"vehicle_type_id":"4","last_reported":1746706827,"current_range_meters":9200,"station_id":"ce4bhs12rcd13ifvqhvg","pricing_plan_id":"cebpf4jnsgd1na2vs0mg"},{"bike_id":"f8a5b583-9b15-4ebc-aca1-dfc6d3ce1523","system_id":"levelo_inurba_marseille","lat":43.27372,"lon":5.36261,"is_reserved":false,"is_disabled":false,"rental_uris":{"android":"levelo://app?vid=f8a5b583-9b15-4ebc-aca1-dfc6d3ce1523","ios":"levelo://app?vid=f8a5b583-9b15-4ebc-aca1-dfc6d3ce1523"},"vehicle_type_id":"4","last_reported":1746706827,"current_range_meters":9600,"station_id":"ce4bhbh2rcd13ifvqeo0","pricing_plan_id":"cebpf4jnsgd1na2vs0mg"},{"bike_id":"96397060-03cf-4896-8a2e-b8e6ba8ba5d9","system_id":"levelo_inurba_marseille","lat":43.31485,"lon":5.37303,"is_reserved":false,"is_disabled":false,"rental_uris":{"android":"levelo://app?vid=96397060-03cf-4896-8a2e-b8e6ba8ba5d9","ios":"levelo://app?vid=96397060-03cf-4896-8a2e-b8e6ba8ba5d9"},"vehicle_type_id":"4","last_reported":1746706827,"current_range_meters":10000,"station_id":"ce4bgt12rcd13ifvqcd0","pricing_plan_id":"cebpf4jnsgd1na2vs0mg"},{"bike_id":"67f5582f-cc73-4181-85b5-0c588a18600a","system_id":"levelo_inurba_marseille","lat":43.29619,"lon":5.37156,"is_reserved":false,"is_disabled":false,"rental_uris":{"android":"levelo://app?vid=67f5582f-cc73-4181-85b5-0c588a18600a","ios":"levelo://app?vid=67f5582f-cc73-4181-85b5-0c588a18600a"},"vehicle_type_id":"4","last_reported":1746706827,"current_range_meters":9600,"station_id":"ce4bgnh2rcd13ifvqc0g","pricing_plan_id":"cebpf4jnsgd1na2vs0mg"},{"bike_id":"5453c7c8-d7df-431d-98db-167d3c16d978","system_id":"levelo_inurba_marseille","lat":43.31369,"lon":5.38494,"is_reserved":false,"is_disabled":false,"rental_uris":{"android":"levelo://app?vid=5453c7c8-d7df-431d-98db-167d3c16d978","ios":"levelo://app?vid=5453c7c8-d7df-431d-98db-167d3c16d978"},"vehicle_type_id":"4","last_reported":1746706827,"current_range_meters":10800,"station_id":"ce4bgt92rcd13ifvqcf0","pricing_plan_id":"cebpf4jnsgd1na2vs0mg"},{"bike_id":"764f7530-c324-4cb7-bc97-9325e8135a76","system_id":"levelo_inurba_marseille","lat":43.23192,"lon":5.39974,"is_reserved":false,"is_disabled":false,"rental_uris":{"android":"levelo://app?vid=764f7530-c324-4cb7-bc97-9325e8135a76","ios":"levelo://app?vid=764f7530-c324-4cb7-bc97-9325e8135a76"},"vehicle_type_id":"4","last_reported":1746706827,"current_range_meters":10800,"station_id":"ce4bhn12rcd13ifvqgqg","pricing_plan_id":"cebpf4jnsgd1na2vs0mg"},{"bike_id":"9dc63e69-22ba-4072-996c-a8a332e4704c","system_id":"levelo_inurba_marseille","lat":43.29847,"lon":5.36279,"is_reserved":false,"is_disabled":false,"rental_uris":{"android":"levelo://app?vid=9dc63e69-22ba-4072-996c-a8a332e4704c","ios":"levelo://app?vid=9dc63e69-22ba-4072-996c-a8a332e4704c"},"vehicle_type_id":"4","last_reported":1746706827,"current_range_meters":10800,"station_id":"ce4bgpp2rcd13ifvqc3g","pricing_plan_id":"cebpf4jnsgd1na2vs0mg"},{"bike_id":"a9f3c931-d45d-4d3c-a1dc-04cd7b247917","system_id":"levelo_inurba_marseille","lat":43.21746,"lon":5.34605,"is_reserved":false,"is_disabled":false,"rental_uris":{"android":"levelo://app?vid=a9f3c931-d45d-4d3c-a1dc-04cd7b247917","ios":"levelo://app?vid=a9f3c931-d45d-4d3c-a1dc-04cd7b247917"},"vehicle_type_id":"4","last_reported":1746706827,"current_range_meters":10800,"station_id":"st_cvj6r9ubvosntc0bgbag","pricing_plan_id":"cebpf4jnsgd1na2vs0mg"},{"bike_id":"855699af-6148-4d57-a53e-8d429b4ce4ce","system_id":"levelo_inurba_marseille","lat":43.239684,"lon":5.366251,"is_reserved":false,"is_disabled":false,"rental_uris":{"android":"levelo://app?vid=855699af-6148-4d57-a53e-8d429b4ce4ce","ios":"levelo://app?vid=855699af-6148-4d57-a53e-8d429b4ce4ce"},"vehicle_type_id":"4","last_reported":1746706827,"current_range_meters":10800,"station_id":"ce4bhi12rcd13ifvqfp0","pricing_plan_id":"cebpf4jnsgd1na2vs0mg"},{"bike_id":"8bbfa461-14e4-4bd5-ba1b-e2e5b00aea3b","system_id":"levelo_inurba_marseille","lat":43.22495,"lon":5.34791,"is_reserved":false,"is_disabled":false,"rental_uris":{"android":"levelo://app?vid=8bbfa461-14e4-4bd5-ba1b-e2e5b00aea3b","ios":"levelo://app?vid=8bbfa461-14e4-4bd5-ba1b-e2e5b00aea3b"},"vehicle_type_id":"4","last_reported":1746706827,"current_range_meters":10800,"station_id":"st_cvj5dfep6f1abm77gieg","pricing_plan_id":"cebpf4jnsgd1na2vs0mg"},{"bike_id":"c4b1dd74-ca62-423f-96ad-7ee0a3a40f6d","system_id":"levelo_inurba_marseille","lat":43.2408,"lon":5.37753,"is_reserved":false,"is_disabled":false,"rental_uris":{"android":"levelo://app?vid=c4b1dd74-ca62-423f-96ad-7ee0a3a40f6d","ios":"levelo://app?vid=c4b1dd74-ca62-423f-96ad-7ee0a3a40f6d"},"vehicle_type_id":"4","last_reported":1746706827,"current_range_meters":10000,"station_id":"ce4bhnp2rcd13ifvqgvg","pricing_plan_id":"cebpf4jnsgd1na2vs0mg"},{"bike_id":"2a8ab15d-b457-4ee7-a160-850d22e7a80c","system_id":"levelo_inurba_marseille","lat":43.2842,"lon":5.34982,"is_reserved":false,"is_disabled":false,"rental_uris":{"android":"levelo://app?vid=2a8ab15d-b457-4ee7-a160-850d22e7a80c","ios":"levelo://app?vid=2a8ab15d-b457-4ee7-a160-850d22e7a80c"},"vehicle_type_id":"4","last_reported":1746706827,"current_range_meters":10800,"station_id":"ce4bhbh2rcd13ifvqepg","pricing_plan_id":"cebpf4jnsgd1na2vs0mg"},{"bike_id":"212cca14-5096-4e4a-91cc-6d7a239ab550","system_id":"levelo_inurba_marseille","lat":43.30328,"lon":5.40431,"is_reserved":false,"is_disabled":false,"rental_uris":{"android":"levelo://app?vid=212cca14-5096-4e4a-91cc-6d7a239ab550","ios":"levelo://app?vid=212cca14-5096-4e4a-91cc-6d7a239ab550"},"vehicle_type_id":"4","last_reported":1746706827,"current_range_meters":10800,"station_id":"ce4bh012rcd13ifvqd10","pricing_plan_id":"cebpf4jnsgd1na2vs0mg"},{"bike_id":"eb040e54-8e7e-40e0-9055-4395cac7e47a","system_id":"levelo_inurba_marseille","lat":43.27677,"lon":5.38878,"is_reserved":false,"is_disabled":false,"rental_uris":{"android":"levelo://app?vid=eb040e54-8e7e-40e0-9055-4395cac7e47a","ios":"levelo://app?vid=eb040e54-8e7e-40e0-9055-4395cac7e47a"},"vehicle_type_id":"4","last_reported":1746706827,"current_range_meters":11200,"station_id":"ce4bhi12rcd13ifvqfo0","pricing_plan_id":"cebpf4jnsgd1na2vs0mg"},{"bike_id":"4040ea5e-56e7-4104-825f-b494fe5ec97e","system_id":"levelo_inurba_marseille","lat":43.23189,"lon":5.3998,"is_reserved":false,"is_disabled":false,"rental_uris":{"android":"levelo://app?vid=4040ea5e-56e7-4104-825f-b494fe5ec97e","ios":"levelo://app?vid=4040ea5e-56e7-4104-825f-b494fe5ec97e"},"vehicle_type_id":"4","last_reported":1746706827,"current_range_meters":11200,"station_id":"ce4bhn12rcd13ifvqgqg","pricing_plan_id":"cebpf4jnsgd1na2vs0mg"},{"bike_id":"34e22087-a65a-4f2b-ba87-16b581e3c6c5","system_id":"levelo_inurba_marseille","lat":43.3116,"lon":5.3872,"is_reserved":false,"is_disabled":false,"rental_uris":{"android":"levelo://app?vid=34e22087-a65a-4f2b-ba87-16b581e3c6c5","ios":"levelo://app?vid=34e22087-a65a-4f2b-ba87-16b581e3c6c5"},"vehicle_type_id":"4","last_reported":1746706827,"current_range_meters":11200,"station_id":"ce4bgv12rcd13ifvqcp0","pricing_plan_id":"cebpf4jnsgd1na2vs0mg"},{"bike_id":"c19ac314-2bee-4511-afb6-2eeb47358495","system_id":"levelo_inurba_marseille","lat":43.2439,"lon":5.37056,"is_reserved":false,"is_disabled":false,"rental_uris":{"android":"levelo://app?vid=c19ac314-2bee-4511-afb6-2eeb47358495","ios":"levelo://app?vid=c19ac314-2bee-4511-afb6-2eeb47358495"},"vehicle_type_id":"4","last_reported":1746706827,"current_range_meters":11200,"station_id":"ce4bhhh2rcd13ifvqfk0","pricing_plan_id":"cebpf4jnsgd1na2vs0mg"},{"bike_id":"9a85c5bf-42fe-436d-b1da-9a47175098de","system_id":"levelo_inurba_marseille","lat":43.323667,"lon":5.388837,"is_reserved":false,"is_disabled":false,"rental_uris":{"android":"levelo://app?vid=9a85c5bf-42fe-436d-b1da-9a47175098de","ios":"levelo://app?vid=9a85c5bf-42fe-436d-b1da-9a47175098de"},"vehicle_type_id":"4","last_reported":1746706827,"current_range_meters":11600,"station_id":"ce4bhqp2rcd13ifvqhog","pricing_plan_id":"cebpf4jnsgd1na2vs0mg"},{"bike_id":"2f7ed876-efaf-4579-a3de-c97f238b0d03","system_id":"levelo_inurba_marseille","lat":43.29625,"lon":5.37162,"is_reserved":false,"is_disabled":false,"rental_uris":{"android":"levelo://app?vid=2f7ed876-efaf-4579-a3de-c97f238b0d03","ios":"levelo://app?vid=2f7ed876-efaf-4579-a3de-c97f238b0d03"},"vehicle_type_id":"4","last_reported":1746706827,"current_range_meters":11200,"station_id":"ce4bgnh2rcd13ifvqc0g","pricing_plan_id":"cebpf4jnsgd1na2vs0mg"},{"bike_id":"b993bfc3-7b06-4f3c-acf1-d5ff0d7234ba","system_id":"levelo_inurba_marseille","lat":43.21748,"lon":5.34602,"is_reserved":false,"is_disabled":false,"rental_uris":{"android":"levelo://app?vid=b993bfc3-7b06-4f3c-acf1-d5ff0d7234ba","ios":"levelo://app?vid=b993bfc3-7b06-4f3c-acf1-d5ff0d7234ba"},"vehicle_type_id":"4","last_reported":1746706827,"current_range_meters":11600,"station_id":"st_cvj6r9ubvosntc0bgbag","pricing_plan_id":"cebpf4jnsgd1na2vs0mg"},{"bike_id":"95d1a10d-21c8-48bf-8b1e-b3ceec494dce","system_id":"levelo_inurba_marseille","lat":43.23142,"lon":5.437248,"is_reserved":false,"is_disabled":false,"rental_uris":{"android":"levelo://app?vid=95d1a10d-21c8-48bf-8b1e-b3ceec494dce","ios":"levelo://app?vid=95d1a10d-21c8-48bf-8b1e-b3ceec494dce"},"vehicle_type_id":"4","last_reported":1746706827,"current_range_meters":11600,"station_id":"ce4bhmp2rcd13ifvqgog","pricing_plan_id":"cebpf4jnsgd1na2vs0mg"},{"bike_id":"89e0bf27-f3f4-4c48-899e-43928dff0d19","system_id":"levelo_inurba_marseille","lat":43.21194,"lon":5.35075,"is_reserved":false,"is_disabled":false,"rental_uris":{"android":"levelo://app?vid=89e0bf27-f3f4-4c48-899e-43928dff0d19","ios":"levelo://app?vid=89e0bf27-f3f4-4c48-899e-43928dff0d19"},"vehicle_type_id":"4","last_reported":1746706827,"current_range_meters":12000,"station_id":"st_cvj6sg6p6f1abm77japg","pricing_plan_id":"cebpf4jnsgd1na2vs0mg"},{"bike_id":"809c8673-c032-46b9-aa07-62c38e26d44e","system_id":"levelo_inurba_marseille","lat":43.25061,"lon":5.38781,"is_reserved":false,"is_disabled":false,"rental_uris":{"android":"levelo://app?vid=809c8673-c032-46b9-aa07-62c38e26d44e","ios":"levelo://app?vid=809c8673-c032-46b9-aa07-62c38e26d44e"},"vehicle_type_id":"4","last_reported":1746706827,"current_range_meters":12400,"station_id":"","pricing_plan_id":"cebpf4jnsgd1na2vs0mg"},{"bike_id":"5966a493-613f-4419-a9c9-06aa5a23dfad","system_id":"levelo_inurba_marseille","lat":43.2318,"lon":5.39986,"is_reserved":false,"is_disabled":false,"rental_uris":{"android":"levelo://app?vid=5966a493-613f-4419-a9c9-06aa5a23dfad","ios":"levelo://app?vid=5966a493-613f-4419-a9c9-06aa5a23dfad"},"vehicle_type_id":"4","last_reported":1746706827,"current_range_meters":12400,"station_id":"ce4bhn12rcd13ifvqgqg","pricing_plan_id":"cebpf4jnsgd1na2vs0mg"},{"bike_id":"9108bee6-9e33-42d5-814d-dff722b7dfbc","system_id":"levelo_inurba_marseille","lat":43.26196,"lon":5.37446,"is_reserved":false,"is_disabled":false,"rental_uris":{"android":"levelo://app?vid=9108bee6-9e33-42d5-814d-dff722b7dfbc","ios":"levelo://app?vid=9108bee6-9e33-42d5-814d-dff722b7dfbc"},"vehicle_type_id":"4","last_reported":1746706827,"current_range_meters":12400,"station_id":"ce4bhgp2rcd13ifvqfc0","pricing_plan_id":"cebpf4jnsgd1na2vs0mg"},{"bike_id":"ad03c535-6f9f-43a4-8fb8-de73a608e3e8","system_id":"levelo_inurba_marseille","lat":43.21745,"lon":5.34603,"is_reserved":false,"is_disabled":false,"rental_uris":{"android":"levelo://app?vid=ad03c535-6f9f-43a4-8fb8-de73a608e3e8","ios":"levelo://app?vid=ad03c535-6f9f-43a4-8fb8-de73a608e3e8"},"vehicle_type_id":"4","last_reported":1746706827,"current_range_meters":12800,"station_id":"st_cvj6r9ubvosntc0bgbag","pricing_plan_id":"cebpf4jnsgd1na2vs0mg"},{"bike_id":"98b85f72-ced3-4027-9275-d7f154e51dc8","system_id":"levelo_inurba_marseille","lat":43.27375,"lon":5.36255,"is_reserved":false,"is_disabled":false,"rental_uris":{"android":"levelo://app?vid=98b85f72-ced3-4027-9275-d7f154e51dc8","ios":"levelo://app?vid=98b85f72-ced3-4027-9275-d7f154e51dc8"},"vehicle_type_id":"4","last_reported":1746706827,"current_range_meters":12800,"station_id":"ce4bhbh2rcd13ifvqeo0","pricing_plan_id":"cebpf4jnsgd1na2vs0mg"},{"bike_id":"565f070d-cb8a-47df-85f9-05d3eaceaa0f","system_id":"levelo_inurba_marseille","lat":43.30149,"lon":5.380779,"is_reserved":false,"is_disabled":false,"rental_uris":{"android":"levelo://app?vid=565f070d-cb8a-47df-85f9-05d3eaceaa0f","ios":"levelo://app?vid=565f070d-cb8a-47df-85f9-05d3eaceaa0f"},"vehicle_type_id":"4","last_reported":1746706827,"current_range_meters":12800,"station_id":"ce4bgjp2rcd13ifvqbh0","pricing_plan_id":"cebpf4jnsgd1na2vs0mg"},{"bike_id":"8f929bfb-a5f6-403d-be56-d2c53a62ebb5","system_id":"levelo_inurba_marseille","lat":43.27064,"lon":5.42271,"is_reserved":false,"is_disabled":false,"rental_uris":{"android":"levelo://app?vid=8f929bfb-a5f6-403d-be56-d2c53a62ebb5","ios":"levelo://app?vid=8f929bfb-a5f6-403d-be56-d2c53a62ebb5"},"vehicle_type_id":"4","last_reported":1746706827,"current_range_meters":13600,"station_id":"ce4bhk92rcd13ifvqgb0","pricing_plan_id":"cebpf4jnsgd1na2vs0mg"},{"bike_id":"6971f759-8594-489e-a8f6-9153c9a9c438","system_id":"levelo_inurba_marseille","lat":43.27702,"lon":5.41965,"is_reserved":false,"is_disabled":false,"rental_uris":{"android":"levelo://app?vid=6971f759-8594-489e-a8f6-9153c9a9c438","ios":"levelo://app?vid=6971f759-8594-489e-a8f6-9153c9a9c438"},"vehicle_type_id":"4","last_reported":1746706827,"current_range_meters":13600,"station_id":"","pricing_plan_id":"cebpf4jnsgd1na2vs0mg"},{"bike_id":"caccb556-2ad0-45b8-84b8-819024dd44e6","system_id":"levelo_inurba_marseille","lat":43.29786,"lon":5.36795,"is_reserved":false,"is_disabled":false,"rental_uris":{"android":"levelo://app?vid=caccb556-2ad0-45b8-84b8-819024dd44e6","ios":"levelo://app?vid=caccb556-2ad0-45b8-84b8-819024dd44e6"},"vehicle_type_id":"4","last_reported":1746706827,"current_range_meters":14000,"station_id":"","pricing_plan_id":"cebpf4jnsgd1na2vs0mg"},{"bike_id":"31e53738-b539-419e-af74-77b45718ee2b","system_id":"levelo_inurba_marseille","lat":43.28936,"lon":5.39619,"is_reserved":false,"is_disabled":false,"rental_uris":{"android":"levelo://app?vid=31e53738-b539-419e-af74-77b45718ee2b","ios":"levelo://app?vid=31e53738-b539-419e-af74-77b45718ee2b"},"vehicle_type_id":"4","last_reported":1746706827,"current_range_meters":14400,"station_id":"ce4bh3h2rcd13ifvqdn0","pricing_plan_id":"cebpf4jnsgd1na2vs0mg"},{"bike_id":"3c536bd8-1f8a-4f96-8f18-d6e5af9260ac","system_id":"levelo_inurba_marseille","lat":43.28943,"lon":5.39616,"is_reserved":false,"is_disabled":false,"rental_uris":{"android":"levelo://app?vid=3c536bd8-1f8a-4f96-8f18-d6e5af9260ac","ios":"levelo://app?vid=3c536bd8-1f8a-4f96-8f18-d6e5af9260ac"},"vehicle_type_id":"4","last_reported":1746706827,"current_range_meters":14000,"station_id":"ce4bh3h2rcd13ifvqdn0","pricing_plan_id":"cebpf4jnsgd1na2vs0mg"},{"bike_id":"5dff7032-b285-4304-aac2-f9326ed1d9e1","system_id":"levelo_inurba_marseille","lat":43.28997,"lon":5.35616,"is_reserved":false,"is_disabled":false,"rental_uris":{"android":"levelo://app?vid=5dff7032-b285-4304-aac2-f9326ed1d9e1","ios":"levelo://app?vid=5dff7032-b285-4304-aac2-f9326ed1d9e1"},"vehicle_type_id":"4","last_reported":1746706827,"current_range_meters":14400,"station_id":"ce4bhb92rcd13ifvqen0","pricing_plan_id":"cebpf4jnsgd1na2vs0mg"},{"bike_id":"fcb60d48-d01d-4d33-be73-0d8b5f6f848e","system_id":"levelo_inurba_marseille","lat":43.21194,"lon":5.35072,"is_reserved":false,"is_disabled":false,"rental_uris":{"android":"levelo://app?vid=fcb60d48-d01d-4d33-be73-0d8b5f6f848e","ios":"levelo://app?vid=fcb60d48-d01d-4d33-be73-0d8b5f6f848e"},"vehicle_type_id":"4","last_reported":1746706827,"current_range_meters":14400,"station_id":"st_cvj6sg6p6f1abm77japg","pricing_plan_id":"cebpf4jnsgd1na2vs0mg"},{"bike_id":"e83e558d-e397-4ac4-84f5-b114838c8915","system_id":"levelo_inurba_marseille","lat":43.22928,"lon":5.35373,"is_reserved":false,"is_disabled":false,"rental_uris":{"android":"levelo://app?vid=e83e558d-e397-4ac4-84f5-b114838c8915","ios":"levelo://app?vid=e83e558d-e397-4ac4-84f5-b114838c8915"},"vehicle_type_id":"4","last_reported":1746706827,"current_range_meters":14400,"station_id":"cpo3532slgdg3j2ikp40","pricing_plan_id":"cebpf4jnsgd1na2vs0mg"},{"bike_id":"89f953df-2061-408d-8f0d-6a2938e5443a","system_id":"levelo_inurba_marseille","lat":43.23653,"lon":5.40342,"is_reserved":false,"is_disabled":false,"rental_uris":{"android":"levelo://app?vid=89f953df-2061-408d-8f0d-6a2938e5443a","ios":"levelo://app?vid=89f953df-2061-408d-8f0d-6a2938e5443a"},"vehicle_type_id":"4","last_reported":1746706827,"current_range_meters":14800,"station_id":"","pricing_plan_id":"cebpf4jnsgd1na2vs0mg"},{"bike_id":"e6282093-23fb-41a9-859d-c0d9ad966535","system_id":"levelo_inurba_marseille","lat":43.31896,"lon":5.37278,"is_reserved":false,"is_disabled":false,"rental_uris":{"android":"levelo://app?vid=e6282093-23fb-41a9-859d-c0d9ad966535","ios":"levelo://app?vid=e6282093-23fb-41a9-859d-c0d9ad966535"},"vehicle_type_id":"4","last_reported":1746706827,"current_range_meters":14800,"station_id":"","pricing_plan_id":"cebpf4jnsgd1na2vs0mg"},{"bike_id":"94d57758-1c50-44c0-a2ee-428018f67577","system_id":"levelo_inurba_marseille","lat":43.30136,"lon":5.38063,"is_reserved":false,"is_disabled":false,"rental_uris":{"android":"levelo://app?vid=94d57758-1c50-44c0-a2ee-428018f67577","ios":"levelo://app?vid=94d57758-1c50-44c0-a2ee-428018f67577"},"vehicle_type_id":"4","last_reported":1746706827,"current_range_meters":15200,"station_id":"ce4bgjp2rcd13ifvqbh0","pricing_plan_id":"cebpf4jnsgd1na2vs0mg"},{"bike_id":"a2309e80-b2ba-42c9-9c60-147f0babf9f9","system_id":"levelo_inurba_marseille","lat":43.30847,"lon":5.3704,"is_reserved":false,"is_disabled":false,"rental_uris":{"android":"levelo://app?vid=a2309e80-b2ba-42c9-9c60-147f0babf9f9","ios":"levelo://app?vid=a2309e80-b2ba-42c9-9c60-147f0babf9f9"},"vehicle_type_id":"4","last_reported":1746706827,"current_range_meters":15200,"station_id":"","pricing_plan_id":"cebpf4jnsgd1na2vs0mg"},{"bike_id":"22d1f17c-ac80-4ec2-a4f8-cbc0680016c4","system_id":"levelo_inurba_marseille","lat":43.21752,"lon":5.345998,"is_reserved":false,"is_disabled":false,"rental_uris":{"android":"levelo://app?vid=22d1f17c-ac80-4ec2-a4f8-cbc0680016c4","ios":"levelo://app?vid=22d1f17c-ac80-4ec2-a4f8-cbc0680016c4"},"vehicle_type_id":"4","last_reported":1746706827,"current_range_meters":15200,"station_id":"st_cvj6r9ubvosntc0bgbag","pricing_plan_id":"cebpf4jnsgd1na2vs0mg"},{"bike_id":"579169cd-fd04-4495-a109-f2f1a71bf9a4","system_id":"levelo_inurba_marseille","lat":43.21752,"lon":5.34602,"is_reserved":false,"is_disabled":false,"rental_uris":{"android":"levelo://app?vid=579169cd-fd04-4495-a109-f2f1a71bf9a4","ios":"levelo://app?vid=579169cd-fd04-4495-a109-f2f1a71bf9a4"},"vehicle_type_id":"4","last_reported":1746706827,"current_range_meters":15200,"station_id":"st_cvj6r9ubvosntc0bgbag","pricing_plan_id":"cebpf4jnsgd1na2vs0mg"},{"bike_id":"a95a792f-9880-41fd-ae62-ca56077c52bf","system_id":"levelo_inurba_marseille","lat":43.27332,"lon":5.36281,"is_reserved":false,"is_disabled":false,"rental_uris":{"android":"levelo://app?vid=a95a792f-9880-41fd-ae62-ca56077c52bf","ios":"levelo://app?vid=a95a792f-9880-41fd-ae62-ca56077c52bf"},"vehicle_type_id":"4","last_reported":1746706827,"current_range_meters":16000,"station_id":"ce4bhbh2rcd13ifvqeo0","pricing_plan_id":"cebpf4jnsgd1na2vs0mg"},{"bike_id":"49a97f07-f4af-4824-bfef-a87d86f6a703","system_id":"levelo_inurba_marseille","lat":43.29567,"lon":5.37535,"is_reserved":false,"is_disabled":false,"rental_uris":{"android":"levelo://app?vid=49a97f07-f4af-4824-bfef-a87d86f6a703","ios":"levelo://app?vid=49a97f07-f4af-4824-bfef-a87d86f6a703"},"vehicle_type_id":"4","last_reported":1746706827,"current_range_meters":16000,"station_id":"ce4bgh92rcd13ifvqb50","pricing_plan_id":"cebpf4jnsgd1na2vs0mg"},{"bike_id":"27d783d2-068a-4061-914a-7c4018d7e03a","system_id":"levelo_inurba_marseille","lat":43.2418,"lon":5.39727,"is_reserved":false,"is_disabled":false,"rental_uris":{"android":"levelo://app?vid=27d783d2-068a-4061-914a-7c4018d7e03a","ios":"levelo://app?vid=27d783d2-068a-4061-914a-7c4018d7e03a"},"vehicle_type_id":"4","last_reported":1746706827,"current_range_meters":16000,"station_id":"","pricing_plan_id":"cebpf4jnsgd1na2vs0mg"},{"bike_id":"645d6f56-8a54-41ae-9ded-fbf324088feb","system_id":"levelo_inurba_marseille","lat":43.29577,"lon":5.3673,"is_reserved":false,"is_disabled":false,"rental_uris":{"android":"levelo://app?vid=645d6f56-8a54-41ae-9ded-fbf324088feb","ios":"levelo://app?vid=645d6f56-8a54-41ae-9ded-fbf324088feb"},"vehicle_type_id":"4","last_reported":1746706827,"current_range_meters":16000,"station_id":"ce4bgph2rcd13ifvqc2g","pricing_plan_id":"cebpf4jnsgd1na2vs0mg"},{"bike_id":"38bdd155-492a-488c-a7fa-0a1c1a34eecf","system_id":"levelo_inurba_marseille","lat":43.22933,"lon":5.35378,"is_reserved":false,"is_disabled":false,"rental_uris":{"android":"levelo://app?vid=38bdd155-492a-488c-a7fa-0a1c1a34eecf","ios":"levelo://app?vid=38bdd155-492a-488c-a7fa-0a1c1a34eecf"},"vehicle_type_id":"4","last_reported":1746706827,"current_range_meters":16000,"station_id":"cpo3532slgdg3j2ikp40","pricing_plan_id":"cebpf4jnsgd1na2vs0mg"},{"bike_id":"2cf9ef03-2c15-43b3-bb7f-a0d3c192811c","system_id":"levelo_inurba_marseille","lat":43.23178,"lon":5.39988,"is_reserved":false,"is_disabled":false,"rental_uris":{"android":"levelo://app?vid=2cf9ef03-2c15-43b3-bb7f-a0d3c192811c","ios":"levelo://app?vid=2cf9ef03-2c15-43b3-bb7f-a0d3c192811c"},"vehicle_type_id":"4","last_reported":1746706827,"current_range_meters":16000,"station_id":"ce4bhn12rcd13ifvqgqg","pricing_plan_id":"cebpf4jnsgd1na2vs0mg"},{"bike_id":"386441d1-d0cd-4783-a499-3625d3e469b1","system_id":"levelo_inurba_marseille","lat":43.28202,"lon":5.3635,"is_reserved":false,"is_disabled":true,"rental_uris":{"android":"levelo://app?vid=386441d1-d0cd-4783-a499-3625d3e469b1","ios":"levelo://app?vid=386441d1-d0cd-4783-a499-3625d3e469b1"},"vehicle_type_id":"4","last_reported":1746706827,"current_range_meters":16000,"station_id":"","pricing_plan_id":"cebpf4jnsgd1na2vs0mg"},{"bike_id":"54cba029-7b65-4baf-bccf-0d9bc2427884","system_id":"levelo_inurba_marseille","lat":43.30143,"lon":5.38075,"is_reserved":false,"is_disabled":false,"rental_uris":{"android":"levelo://app?vid=54cba029-7b65-4baf-bccf-0d9bc2427884","ios":"levelo://app?vid=54cba029-7b65-4baf-bccf-0d9bc2427884"},"vehicle_type_id":"4","last_reported":1746706827,"current_range_meters":16000,"station_id":"ce4bgjp2rcd13ifvqbh0","pricing_plan_id":"cebpf4jnsgd1na2vs0mg"},{"bike_id":"aecf2561-2db5-4477-9317-f5ce9edd3fdf","system_id":"levelo_inurba_marseille","lat":43.28267,"lon":5.350657,"is_reserved":false,"is_disabled":false,"rental_uris":{"android":"levelo://app?vid=aecf2561-2db5-4477-9317-f5ce9edd3fdf","ios":"levelo://app?vid=aecf2561-2db5-4477-9317-f5ce9edd3fdf"},"vehicle_type_id":"4","last_reported":1746706827,"current_range_meters":16000,"station_id":"ce4bhbp2rcd13ifvqerg","pricing_plan_id":"cebpf4jnsgd1na2vs0mg"},{"bike_id":"9710e29a-d51a-43f0-a949-c2e541c66d21","system_id":"levelo_inurba_marseille","lat":43.21743,"lon":5.34601,"is_reserved":false,"is_disabled":false,"rental_uris":{"android":"levelo://app?vid=9710e29a-d51a-43f0-a949-c2e541c66d21","ios":"levelo://app?vid=9710e29a-d51a-43f0-a949-c2e541c66d21"},"vehicle_type_id":"4","last_reported":1746706827,"current_range_meters":16400,"station_id":"st_cvj6r9ubvosntc0bgbag","pricing_plan_id":"cebpf4jnsgd1na2vs0mg"},{"bike_id":"7758461a-f872-43e8-b7c7-f0281f4c8c88","system_id":"levelo_inurba_marseille","lat":43.28459,"lon":5.35889,"is_reserved":false,"is_disabled":false,"rental_uris":{"android":"levelo://app?vid=7758461a-f872-43e8-b7c7-f0281f4c8c88","ios":"levelo://app?vid=7758461a-f872-43e8-b7c7-f0281f4c8c88"},"vehicle_type_id":"4","last_reported":1746706827,"current_range_meters":16400,"station_id":"ce4bhah2rcd13ifvqei0","pricing_plan_id":"cebpf4jnsgd1na2vs0mg"},{"bike_id":"ad3a7ffd-1b02-437d-b7e3-55baa21e2c56","system_id":"levelo_inurba_marseille","lat":43.31091,"lon":5.42423,"is_reserved":false,"is_disabled":false,"rental_uris":{"android":"levelo://app?vid=ad3a7ffd-1b02-437d-b7e3-55baa21e2c56","ios":"levelo://app?vid=ad3a7ffd-1b02-437d-b7e3-55baa21e2c56"},"vehicle_type_id":"4","last_reported":1746706827,"current_range_meters":16400,"station_id":"ce4bhp92rcd13ifvqhag","pricing_plan_id":"cebpf4jnsgd1na2vs0mg"},{"bike_id":"e9135506-ad92-4336-9c8f-389560d4b052","system_id":"levelo_inurba_marseille","lat":43.31363,"lon":5.38486,"is_reserved":false,"is_disabled":false,"rental_uris":{"android":"levelo://app?vid=e9135506-ad92-4336-9c8f-389560d4b052","ios":"levelo://app?vid=e9135506-ad92-4336-9c8f-389560d4b052"},"vehicle_type_id":"4","last_reported":1746706827,"current_range_meters":16800,"station_id":"ce4bgt92rcd13ifvqcf0","pricing_plan_id":"cebpf4jnsgd1na2vs0mg"},{"bike_id":"16f7aed3-5508-44cc-bbc0-e84545057c34","system_id":"levelo_inurba_marseille","lat":43.2439,"lon":5.37058,"is_reserved":false,"is_disabled":false,"rental_uris":{"android":"levelo://app?vid=16f7aed3-5508-44cc-bbc0-e84545057c34","ios":"levelo://app?vid=16f7aed3-5508-44cc-bbc0-e84545057c34"},"vehicle_type_id":"4","last_reported":1746706827,"current_range_meters":16800,"station_id":"ce4bhhh2rcd13ifvqfk0","pricing_plan_id":"cebpf4jnsgd1na2vs0mg"},{"bike_id":"a12850ee-1d66-48f8-9ce1-9b0f8f6c3b39","system_id":"levelo_inurba_marseille","lat":43.24387,"lon":5.37062,"is_reserved":false,"is_disabled":false,"rental_uris":{"android":"levelo://app?vid=a12850ee-1d66-48f8-9ce1-9b0f8f6c3b39","ios":"levelo://app?vid=a12850ee-1d66-48f8-9ce1-9b0f8f6c3b39"},"vehicle_type_id":"4","last_reported":1746706827,"current_range_meters":16800,"station_id":"ce4bhhh2rcd13ifvqfk0","pricing_plan_id":"cebpf4jnsgd1na2vs0mg"},{"bike_id":"1caa0ac4-cd02-468c-907a-3080c9dce660","system_id":"levelo_inurba_marseille","lat":43.30905,"lon":5.36842,"is_reserved":false,"is_disabled":false,"rental_uris":{"android":"levelo://app?vid=1caa0ac4-cd02-468c-907a-3080c9dce660","ios":"levelo://app?vid=1caa0ac4-cd02-468c-907a-3080c9dce660"},"vehicle_type_id":"4","last_reported":1746706827,"current_range_meters":16800,"station_id":"ce4bgn92rcd13ifvqbvg","pricing_plan_id":"cebpf4jnsgd1na2vs0mg"},{"bike_id":"fd7b8aba-77df-40c7-9f79-d7918bbef597","system_id":"levelo_inurba_marseille","lat":43.26208,"lon":5.37441,"is_reserved":false,"is_disabled":false,"rental_uris":{"android":"levelo://app?vid=fd7b8aba-77df-40c7-9f79-d7918bbef597","ios":"levelo://app?vid=fd7b8aba-77df-40c7-9f79-d7918bbef597"},"vehicle_type_id":"4","last_reported":1746706827,"current_range_meters":16800,"station_id":"ce4bhgp2rcd13ifvqfc0","pricing_plan_id":"cebpf4jnsgd1na2vs0mg"},{"bike_id":"cb66b0bb-b708-4c07-af18-bb5249a5bfe1","system_id":"levelo_inurba_marseille","lat":43.217439,"lon":5.345989,"is_reserved":false,"is_disabled":false,"rental_uris":{"android":"levelo://app?vid=cb66b0bb-b708-4c07-af18-bb5249a5bfe1","ios":"levelo://app?vid=cb66b0bb-b708-4c07-af18-bb5249a5bfe1"},"vehicle_type_id":"4","last_reported":1746706827,"current_range_meters":16800,"station_id":"st_cvj6r9ubvosntc0bgbag","pricing_plan_id":"cebpf4jnsgd1na2vs0mg"},{"bike_id":"799b85a6-6823-4af9-954a-c8d4878c95fb","system_id":"levelo_inurba_marseille","lat":43.30149,"lon":5.38765,"is_reserved":false,"is_disabled":false,"rental_uris":{"android":"levelo://app?vid=799b85a6-6823-4af9-954a-c8d4878c95fb","ios":"levelo://app?vid=799b85a6-6823-4af9-954a-c8d4878c95fb"},"vehicle_type_id":"4","last_reported":1746706827,"current_range_meters":17200,"station_id":"ce4bghh2rcd13ifvqb60","pricing_plan_id":"cebpf4jnsgd1na2vs0mg"},{"bike_id":"1237b25c-772a-47f6-afab-5083772fec57","system_id":"levelo_inurba_marseille","lat":43.26569,"lon":5.39005,"is_reserved":false,"is_disabled":false,"rental_uris":{"android":"levelo://app?vid=1237b25c-772a-47f6-afab-5083772fec57","ios":"levelo://app?vid=1237b25c-772a-47f6-afab-5083772fec57"},"vehicle_type_id":"4","last_reported":1746706827,"current_range_meters":17200,"station_id":"ce4bhe12rcd13ifvqf30","pricing_plan_id":"cebpf4jnsgd1na2vs0mg"},{"bike_id":"8e49215f-2639-4df5-a20e-6539e400a84f","system_id":"levelo_inurba_marseille","lat":43.2678,"lon":5.39422,"is_reserved":false,"is_disabled":false,"rental_uris":{"android":"levelo://app?vid=8e49215f-2639-4df5-a20e-6539e400a84f","ios":"levelo://app?vid=8e49215f-2639-4df5-a20e-6539e400a84f"},"vehicle_type_id":"4","last_reported":1746706827,"current_range_meters":16800,"station_id":"ce4bhh12rcd13ifvqfg0","pricing_plan_id":"cebpf4jnsgd1na2vs0mg"},{"bike_id":"ff807334-3ad3-4e40-bbde-648eb2b1c45b","system_id":"levelo_inurba_marseille","lat":43.21209,"lon":5.35087,"is_reserved":false,"is_disabled":false,"rental_uris":{"android":"levelo://app?vid=ff807334-3ad3-4e40-bbde-648eb2b1c45b","ios":"levelo://app?vid=ff807334-3ad3-4e40-bbde-648eb2b1c45b"},"vehicle_type_id":"4","last_reported":1746706827,"current_range_meters":17200,"station_id":"st_cvj6sg6p6f1abm77japg","pricing_plan_id":"cebpf4jnsgd1na2vs0mg"},{"bike_id":"a71a0dfc-7de8-44ee-9bb2-1e81dadd19e0","system_id":"levelo_inurba_marseille","lat":43.317025,"lon":5.43698,"is_reserved":false,"is_disabled":false,"rental_uris":{"android":"levelo://app?vid=a71a0dfc-7de8-44ee-9bb2-1e81dadd19e0","ios":"levelo://app?vid=a71a0dfc-7de8-44ee-9bb2-1e81dadd19e0"},"vehicle_type_id":"4","last_reported":1746706827,"current_range_meters":17200,"station_id":"ce4bhp92rcd13ifvqhcg","pricing_plan_id":"cebpf4jnsgd1na2vs0mg"},{"bike_id":"577911b5-2dfb-4e8c-8e61-c74ee46eaa95","system_id":"levelo_inurba_marseille","lat":43.24387,"lon":5.3706,"is_reserved":false,"is_disabled":false,"rental_uris":{"android":"levelo://app?vid=577911b5-2dfb-4e8c-8e61-c74ee46eaa95","ios":"levelo://app?vid=577911b5-2dfb-4e8c-8e61-c74ee46eaa95"},"vehicle_type_id":"4","last_reported":1746706827,"current_range_meters":17600,"station_id":"ce4bhhh2rcd13ifvqfk0","pricing_plan_id":"cebpf4jnsgd1na2vs0mg"},{"bike_id":"357fb94f-a4e6-4bf4-b822-c1152c1f9e65","system_id":"levelo_inurba_marseille","lat":43.21194,"lon":5.35077,"is_reserved":false,"is_disabled":false,"rental_uris":{"android":"levelo://app?vid=357fb94f-a4e6-4bf4-b822-c1152c1f9e65","ios":"levelo://app?vid=357fb94f-a4e6-4bf4-b822-c1152c1f9e65"},"vehicle_type_id":"4","last_reported":1746706827,"current_range_meters":17600,"station_id":"st_cvj6sg6p6f1abm77japg","pricing_plan_id":"cebpf4jnsgd1na2vs0mg"},{"bike_id":"b47348c3-144f-4d8e-a419-cf4c3ace77e6","system_id":"levelo_inurba_marseille","lat":43.23164,"lon":5.437,"is_reserved":false,"is_disabled":false,"rental_uris":{"android":"levelo://app?vid=b47348c3-144f-4d8e-a419-cf4c3ace77e6","ios":"levelo://app?vid=b47348c3-144f-4d8e-a419-cf4c3ace77e6"},"vehicle_type_id":"4","last_reported":1746706827,"current_range_meters":17600,"station_id":"ce4bhmp2rcd13ifvqgog","pricing_plan_id":"cebpf4jnsgd1na2vs0mg"},{"bike_id":"cb5561fb-3ed2-49bf-bd58-7c8862116c78","system_id":"levelo_inurba_marseille","lat":43.212,"lon":5.35064,"is_reserved":false,"is_disabled":false,"rental_uris":{"android":"levelo://app?vid=cb5561fb-3ed2-49bf-bd58-7c8862116c78","ios":"levelo://app?vid=cb5561fb-3ed2-49bf-bd58-7c8862116c78"},"vehicle_type_id":"4","last_reported":1746706827,"current_range_meters":17600,"station_id":"st_cvj6sg6p6f1abm77japg","pricing_plan_id":"cebpf4jnsgd1na2vs0mg"},{"bike_id":"b3d5f702-96b7-4836-83bf-bbca60f76380","system_id":"levelo_inurba_marseille","lat":43.2319,"lon":5.39992,"is_reserved":false,"is_disabled":false,"rental_uris":{"android":"levelo://app?vid=b3d5f702-96b7-4836-83bf-bbca60f76380","ios":"levelo://app?vid=b3d5f702-96b7-4836-83bf-bbca60f76380"},"vehicle_type_id":"4","last_reported":1746706827,"current_range_meters":17600,"station_id":"ce4bhn12rcd13ifvqgqg","pricing_plan_id":"cebpf4jnsgd1na2vs0mg"},{"bike_id":"95407fdd-6b53-4c42-85f7-ee3e66f21b13","system_id":"levelo_inurba_marseille","lat":43.24331,"lon":5.38005,"is_reserved":false,"is_disabled":false,"rental_uris":{"android":"levelo://app?vid=95407fdd-6b53-4c42-85f7-ee3e66f21b13","ios":"levelo://app?vid=95407fdd-6b53-4c42-85f7-ee3e66f21b13"},"vehicle_type_id":"4","last_reported":1746706827,"current_range_meters":18000,"station_id":"","pricing_plan_id":"cebpf4jnsgd1na2vs0mg"},{"bike_id":"13dcf47e-4a64-4b90-9425-15abaa7b6175","system_id":"levelo_inurba_marseille","lat":43.21188,"lon":5.35076,"is_reserved":false,"is_disabled":false,"rental_uris":{"android":"levelo://app?vid=13dcf47e-4a64-4b90-9425-15abaa7b6175","ios":"levelo://app?vid=13dcf47e-4a64-4b90-9425-15abaa7b6175"},"vehicle_type_id":"4","last_reported":1746706827,"current_range_meters":18000,"station_id":"st_cvj6sg6p6f1abm77japg","pricing_plan_id":"cebpf4jnsgd1na2vs0mg"},{"bike_id":"f80541d7-392b-4153-8748-0f20ce1c9e22","system_id":"levelo_inurba_marseille","lat":43.26212,"lon":5.37442,"is_reserved":false,"is_disabled":false,"rental_uris":{"android":"levelo://app?vid=f80541d7-392b-4153-8748-0f20ce1c9e22","ios":"levelo://app?vid=f80541d7-392b-4153-8748-0f20ce1c9e22"},"vehicle_type_id":"4","last_reported":1746706827,"current_range_meters":18000,"station_id":"ce4bhgp2rcd13ifvqfc0","pricing_plan_id":"cebpf4jnsgd1na2vs0mg"},{"bike_id":"c821e32e-d925-441c-80d2-d5a984744aba","system_id":"levelo_inurba_marseille","lat":43.21194,"lon":5.35072,"is_reserved":false,"is_disabled":false,"rental_uris":{"android":"levelo://app?vid=c821e32e-d925-441c-80d2-d5a984744aba","ios":"levelo://app?vid=c821e32e-d925-441c-80d2-d5a984744aba"},"vehicle_type_id":"4","last_reported":1746706827,"current_range_meters":18000,"station_id":"st_cvj6sg6p6f1abm77japg","pricing_plan_id":"cebpf4jnsgd1na2vs0mg"},{"bike_id":"8078a9da-7a0b-4e8d-8b7d-05afd4c30c3c","system_id":"levelo_inurba_marseille","lat":43.28404,"lon":5.37514,"is_reserved":false,"is_disabled":false,"rental_uris":{"android":"levelo://app?vid=8078a9da-7a0b-4e8d-8b7d-05afd4c30c3c","ios":"levelo://app?vid=8078a9da-7a0b-4e8d-8b7d-05afd4c30c3c"},"vehicle_type_id":"4","last_reported":1746706827,"current_range_meters":18000,"station_id":"ce4bh412rcd13ifvqds0","pricing_plan_id":"cebpf4jnsgd1na2vs0mg"},{"bike_id":"22c93dc8-eb36-4893-8ee9-410db2b25f3b","system_id":"levelo_inurba_marseille","lat":43.26192,"lon":5.37446,"is_reserved":false,"is_disabled":false,"rental_uris":{"android":"levelo://app?vid=22c93dc8-eb36-4893-8ee9-410db2b25f3b","ios":"levelo://app?vid=22c93dc8-eb36-4893-8ee9-410db2b25f3b"},"vehicle_type_id":"4","last_reported":1746706827,"current_range_meters":18000,"station_id":"ce4bhgp2rcd13ifvqfc0","pricing_plan_id":"cebpf4jnsgd1na2vs0mg"},{"bike_id":"0b36f17c-7df2-4c96-aa4c-ead654070e97","system_id":"levelo_inurba_marseille","lat":43.32499,"lon":5.36565,"is_reserved":false,"is_disabled":false,"rental_uris":{"android":"levelo://app?vid=0b36f17c-7df2-4c96-aa4c-ead654070e97","ios":"levelo://app?vid=0b36f17c-7df2-4c96-aa4c-ead654070e97"},"vehicle_type_id":"4","last_reported":1746706827,"current_range_meters":18000,"station_id":"ce4bhs12rcd13ifvqhvg","pricing_plan_id":"cebpf4jnsgd1na2vs0mg"},{"bike_id":"90dd7ece-e0e3-4e3f-8585-4f4f345a0f96","system_id":"levelo_inurba_marseille","lat":43.31704,"lon":5.40463,"is_reserved":false,"is_disabled":false,"rental_uris":{"android":"levelo://app?vid=90dd7ece-e0e3-4e3f-8585-4f4f345a0f96","ios":"levelo://app?vid=90dd7ece-e0e3-4e3f-8585-4f4f345a0f96"},"vehicle_type_id":"4","last_reported":1746706827,"current_range_meters":18800,"station_id":"ce4bh012rcd13ifvqd00","pricing_plan_id":"cebpf4jnsgd1na2vs0mg"},{"bike_id":"c00b4dc3-faff-4d5a-88c8-7b701ca8bbe6","system_id":"levelo_inurba_marseille","lat":43.317283,"lon":5.40458,"is_reserved":false,"is_disabled":false,"rental_uris":{"android":"levelo://app?vid=c00b4dc3-faff-4d5a-88c8-7b701ca8bbe6","ios":"levelo://app?vid=c00b4dc3-faff-4d5a-88c8-7b701ca8bbe6"},"vehicle_type_id":"4","last_reported":1746706827,"current_range_meters":18800,"station_id":"ce4bh012rcd13ifvqd00","pricing_plan_id":"cebpf4jnsgd1na2vs0mg"},{"bike_id":"dd41344d-bcef-4994-b557-bac5def93c05","system_id":"levelo_inurba_marseille","lat":43.30548,"lon":5.38429,"is_reserved":false,"is_disabled":false,"rental_uris":{"android":"levelo://app?vid=dd41344d-bcef-4994-b557-bac5def93c05","ios":"levelo://app?vid=dd41344d-bcef-4994-b557-bac5def93c05"},"vehicle_type_id":"4","last_reported":1746706827,"current_range_meters":18800,"station_id":"ce4bgg92rcd13ifvqb30","pricing_plan_id":"cebpf4jnsgd1na2vs0mg"},{"bike_id":"568ade89-84eb-46d8-b9a2-cf4e4d6171d9","system_id":"levelo_inurba_marseille","lat":43.22504,"lon":5.34784,"is_reserved":false,"is_disabled":false,"rental_uris":{"android":"levelo://app?vid=568ade89-84eb-46d8-b9a2-cf4e4d6171d9","ios":"levelo://app?vid=568ade89-84eb-46d8-b9a2-cf4e4d6171d9"},"vehicle_type_id":"4","last_reported":1746706827,"current_range_meters":18800,"station_id":"st_cvj5dfep6f1abm77gieg","pricing_plan_id":"cebpf4jnsgd1na2vs0mg"},{"bike_id":"beb102ea-a802-4144-bbe8-99eabdddc5c3","system_id":"levelo_inurba_marseille","lat":43.28999,"lon":5.3782,"is_reserved":false,"is_disabled":false,"rental_uris":{"android":"levelo://app?vid=beb102ea-a802-4144-bbe8-99eabdddc5c3","ios":"levelo://app?vid=beb102ea-a802-4144-bbe8-99eabdddc5c3"},"vehicle_type_id":"4","last_reported":1746706827,"current_range_meters":18000,"station_id":"ce4bh9p2rcd13ifvqed0","pricing_plan_id":"cebpf4jnsgd1na2vs0mg"},{"bike_id":"74be9d67-0fab-4d64-bdc5-5deb82210f7e","system_id":"levelo_inurba_marseille","lat":43.275979,"lon":5.361022,"is_reserved":false,"is_disabled":false,"rental_uris":{"android":"levelo://app?vid=74be9d67-0fab-4d64-bdc5-5deb82210f7e","ios":"levelo://app?vid=74be9d67-0fab-4d64-bdc5-5deb82210f7e"},"vehicle_type_id":"4","last_reported":1746706827,"current_range_meters":18800,"station_id":"ce4bha12rcd13ifvqef0","pricing_plan_id":"cebpf4jnsgd1na2vs0mg"},{"bike_id":"72c714fe-a0de-42e3-a30e-f198dc7536fd","system_id":"levelo_inurba_marseille","lat":43.217463,"lon":5.346046,"is_reserved":false,"is_disabled":false,"rental_uris":{"android":"levelo://app?vid=72c714fe-a0de-42e3-a30e-f198dc7536fd","ios":"levelo://app?vid=72c714fe-a0de-42e3-a30e-f198dc7536fd"},"vehicle_type_id":"4","last_reported":1746706827,"current_range_meters":19200,"station_id":"st_cvj6r9ubvosntc0bgbag","pricing_plan_id":"cebpf4jnsgd1na2vs0mg"},{"bike_id":"1dd622ec-7717-4e16-9b33-5fae65b6d06d","system_id":"levelo_inurba_marseille","lat":43.25102,"lon":5.39515,"is_reserved":false,"is_disabled":false,"rental_uris":{"android":"levelo://app?vid=1dd622ec-7717-4e16-9b33-5fae65b6d06d","ios":"levelo://app?vid=1dd622ec-7717-4e16-9b33-5fae65b6d06d"},"vehicle_type_id":"4","last_reported":1746706827,"current_range_meters":19200,"station_id":"ce4bhm12rcd13ifvqgkg","pricing_plan_id":"cebpf4jnsgd1na2vs0mg"},{"bike_id":"5ed18b6b-f0db-4f69-a428-8608a651fb52","system_id":"levelo_inurba_marseille","lat":43.3083,"lon":5.37011,"is_reserved":false,"is_disabled":false,"rental_uris":{"android":"levelo://app?vid=5ed18b6b-f0db-4f69-a428-8608a651fb52","ios":"levelo://app?vid=5ed18b6b-f0db-4f69-a428-8608a651fb52"},"vehicle_type_id":"4","last_reported":1746706827,"current_range_meters":18800,"station_id":"","pricing_plan_id":"cebpf4jnsgd1na2vs0mg"},{"bike_id":"5daafd42-e735-42e8-8785-d195e4386318","system_id":"levelo_inurba_marseille","lat":43.24383,"lon":5.3706,"is_reserved":false,"is_disabled":false,"rental_uris":{"android":"levelo://app?vid=5daafd42-e735-42e8-8785-d195e4386318","ios":"levelo://app?vid=5daafd42-e735-42e8-8785-d195e4386318"},"vehicle_type_id":"4","last_reported":1746706827,"current_range_meters":19200,"station_id":"ce4bhhh2rcd13ifvqfk0","pricing_plan_id":"cebpf4jnsgd1na2vs0mg"},{"bike_id":"a5e93638-fd65-4041-acd2-1fa408a23755","system_id":"levelo_inurba_marseille","lat":43.306315,"lon":5.37198,"is_reserved":false,"is_disabled":false,"rental_uris":{"android":"levelo://app?vid=a5e93638-fd65-4041-acd2-1fa408a23755","ios":"levelo://app?vid=a5e93638-fd65-4041-acd2-1fa408a23755"},"vehicle_type_id":"4","last_reported":1746706827,"current_range_meters":19200,"station_id":"ce4bgqh2rcd13ifvqc4g","pricing_plan_id":"cebpf4jnsgd1na2vs0mg"},{"bike_id":"05dade46-bd08-4540-9fe6-2feba385c4b6","system_id":"levelo_inurba_marseille","lat":43.29008,"lon":5.38122,"is_reserved":false,"is_disabled":false,"rental_uris":{"android":"levelo://app?vid=05dade46-bd08-4540-9fe6-2feba385c4b6","ios":"levelo://app?vid=05dade46-bd08-4540-9fe6-2feba385c4b6"},"vehicle_type_id":"4","last_reported":1746706827,"current_range_meters":19600,"station_id":"ce4bh4p2rcd13ifvqe1g","pricing_plan_id":"cebpf4jnsgd1na2vs0mg"},{"bike_id":"5ee9c729-7f9d-41c2-b762-1614ce1599ff","system_id":"levelo_inurba_marseille","lat":43.26557,"lon":5.37281,"is_reserved":false,"is_disabled":false,"rental_uris":{"android":"levelo://app?vid=5ee9c729-7f9d-41c2-b762-1614ce1599ff","ios":"levelo://app?vid=5ee9c729-7f9d-41c2-b762-1614ce1599ff"},"vehicle_type_id":"4","last_reported":1746706827,"current_range_meters":19600,"station_id":"ce4bhg12rcd13ifvqf70","pricing_plan_id":"cebpf4jnsgd1na2vs0mg"},{"bike_id":"0c78f221-6ded-4793-93f3-a35458d83dfb","system_id":"levelo_inurba_marseille","lat":43.27373,"lon":5.36256,"is_reserved":false,"is_disabled":false,"rental_uris":{"android":"levelo://app?vid=0c78f221-6ded-4793-93f3-a35458d83dfb","ios":"levelo://app?vid=0c78f221-6ded-4793-93f3-a35458d83dfb"},"vehicle_type_id":"4","last_reported":1746706827,"current_range_meters":19600,"station_id":"ce4bhbh2rcd13ifvqeo0","pricing_plan_id":"cebpf4jnsgd1na2vs0mg"},{"bike_id":"a4fcbb3b-f554-443f-a672-cec2fba9b975","system_id":"levelo_inurba_marseille","lat":43.25111,"lon":5.40327,"is_reserved":false,"is_disabled":false,"rental_uris":{"android":"levelo://app?vid=a4fcbb3b-f554-443f-a672-cec2fba9b975","ios":"levelo://app?vid=a4fcbb3b-f554-443f-a672-cec2fba9b975"},"vehicle_type_id":"4","last_reported":1746706827,"current_range_meters":19600,"station_id":"ce4bhlh2rcd13ifvqgig","pricing_plan_id":"cebpf4jnsgd1na2vs0mg"},{"bike_id":"a21e668c-8069-4475-af0d-0f56b8c777f1","system_id":"levelo_inurba_marseille","lat":43.28927,"lon":5.36636,"is_reserved":false,"is_disabled":false,"rental_uris":{"android":"levelo://app?vid=a21e668c-8069-4475-af0d-0f56b8c777f1","ios":"levelo://app?vid=a21e668c-8069-4475-af0d-0f56b8c777f1"},"vehicle_type_id":"4","last_reported":1746706827,"current_range_meters":19600,"station_id":"ce4bhap2rcd13ifvqek0","pricing_plan_id":"cebpf4jnsgd1na2vs0mg"},{"bike_id":"930fe499-7bdd-47b7-8cd2-d81750c9449c","system_id":"levelo_inurba_marseille","lat":43.337444,"lon":5.374475,"is_reserved":false,"is_disabled":false,"rental_uris":{"android":"levelo://app?vid=930fe499-7bdd-47b7-8cd2-d81750c9449c","ios":"levelo://app?vid=930fe499-7bdd-47b7-8cd2-d81750c9449c"},"vehicle_type_id":"4","last_reported":1746706827,"current_range_meters":19600,"station_id":"","pricing_plan_id":"cebpf4jnsgd1na2vs0mg"},{"bike_id":"de59fb44-d61e-420b-9551-6ffb77a5b113","system_id":"levelo_inurba_marseille","lat":43.24178,"lon":5.39717,"is_reserved":false,"is_disabled":false,"rental_uris":{"android":"levelo://app?vid=de59fb44-d61e-420b-9551-6ffb77a5b113","ios":"levelo://app?vid=de59fb44-d61e-420b-9551-6ffb77a5b113"},"vehicle_type_id":"4","last_reported":1746706827,"current_range_meters":20000,"station_id":"ce4bhn12rcd13ifvqgpg","pricing_plan_id":"cebpf4jnsgd1na2vs0mg"},{"bike_id":"91e162dc-df90-4b10-94c0-748de28a9b55","system_id":"levelo_inurba_marseille","lat":43.27813,"lon":5.39948,"is_reserved":false,"is_disabled":false,"rental_uris":{"android":"levelo://app?vid=91e162dc-df90-4b10-94c0-748de28a9b55","ios":"levelo://app?vid=91e162dc-df90-4b10-94c0-748de28a9b55"},"vehicle_type_id":"4","last_reported":1746706827,"current_range_meters":20000,"station_id":"","pricing_plan_id":"cebpf4jnsgd1na2vs0mg"},{"bike_id":"fd627e89-1bed-4539-bf0a-e3d8d03a0133","system_id":"levelo_inurba_marseille","lat":43.23178,"lon":5.39983,"is_reserved":false,"is_disabled":false,"rental_uris":{"android":"levelo://app?vid=fd627e89-1bed-4539-bf0a-e3d8d03a0133","ios":"levelo://app?vid=fd627e89-1bed-4539-bf0a-e3d8d03a0133"},"vehicle_type_id":"4","last_reported":1746706827,"current_range_meters":20000,"station_id":"ce4bhn12rcd13ifvqgqg","pricing_plan_id":"cebpf4jnsgd1na2vs0mg"},{"bike_id":"8909d45b-5ec6-4b31-bbb7-55e12301d5eb","system_id":"levelo_inurba_marseille","lat":43.21194,"lon":5.35075,"is_reserved":false,"is_disabled":false,"rental_uris":{"android":"levelo://app?vid=8909d45b-5ec6-4b31-bbb7-55e12301d5eb","ios":"levelo://app?vid=8909d45b-5ec6-4b31-bbb7-55e12301d5eb"},"vehicle_type_id":"4","last_reported":1746706827,"current_range_meters":20000,"station_id":"st_cvj6sg6p6f1abm77japg","pricing_plan_id":"cebpf4jnsgd1na2vs0mg"},{"bike_id":"397509d8-c8f0-434f-81b1-bf5094f7d37c","system_id":"levelo_inurba_marseille","lat":43.279957,"lon":5.416643,"is_reserved":false,"is_disabled":false,"rental_uris":{"android":"levelo://app?vid=397509d8-c8f0-434f-81b1-bf5094f7d37c","ios":"levelo://app?vid=397509d8-c8f0-434f-81b1-bf5094f7d37c"},"vehicle_type_id":"4","last_reported":1746706827,"current_range_meters":20000,"station_id":"ce4bho12rcd13ifvqh1g","pricing_plan_id":"cebpf4jnsgd1na2vs0mg"},{"bike_id":"f1dd7bf4-aed1-47a1-a798-92e38ddd2af5","system_id":"levelo_inurba_marseille","lat":43.2655,"lon":5.37304,"is_reserved":false,"is_disabled":false,"rental_uris":{"android":"levelo://app?vid=f1dd7bf4-aed1-47a1-a798-92e38ddd2af5","ios":"levelo://app?vid=f1dd7bf4-aed1-47a1-a798-92e38ddd2af5"},"vehicle_type_id":"4","last_reported":1746706827,"current_range_meters":20400,"station_id":"ce4bhg12rcd13ifvqf70","pricing_plan_id":"cebpf4jnsgd1na2vs0mg"},{"bike_id":"030962dc-4f42-4452-ade2-429c4c7267c1","system_id":"levelo_inurba_marseille","lat":43.26549,"lon":5.37294,"is_reserved":false,"is_disabled":false,"rental_uris":{"android":"levelo://app?vid=030962dc-4f42-4452-ade2-429c4c7267c1","ios":"levelo://app?vid=030962dc-4f42-4452-ade2-429c4c7267c1"},"vehicle_type_id":"4","last_reported":1746706827,"current_range_meters":20400,"station_id":"ce4bhg12rcd13ifvqf70","pricing_plan_id":"cebpf4jnsgd1na2vs0mg"},{"bike_id":"78175de2-da2f-48fe-b753-9faac74d6785","system_id":"levelo_inurba_marseille","lat":43.30882,"lon":5.3966,"is_reserved":false,"is_disabled":false,"rental_uris":{"android":"levelo://app?vid=78175de2-da2f-48fe-b753-9faac74d6785","ios":"levelo://app?vid=78175de2-da2f-48fe-b753-9faac74d6785"},"vehicle_type_id":"4","last_reported":1746706827,"current_range_meters":20400,"station_id":"ce4bh012rcd13ifvqcv0","pricing_plan_id":"cebpf4jnsgd1na2vs0mg"},{"bike_id":"a93e13e2-0bea-4cbd-a9d4-6c33c87d0781","system_id":"levelo_inurba_marseille","lat":43.27366,"lon":5.36252,"is_reserved":false,"is_disabled":false,"rental_uris":{"android":"levelo://app?vid=a93e13e2-0bea-4cbd-a9d4-6c33c87d0781","ios":"levelo://app?vid=a93e13e2-0bea-4cbd-a9d4-6c33c87d0781"},"vehicle_type_id":"4","last_reported":1746706827,"current_range_meters":20400,"station_id":"ce4bhbh2rcd13ifvqeo0","pricing_plan_id":"cebpf4jnsgd1na2vs0mg"},{"bike_id":"a0f59bc0-650a-4106-a079-d368ed8a3edf","system_id":"levelo_inurba_marseille","lat":43.27418,"lon":5.39407,"is_reserved":false,"is_disabled":true,"rental_uris":{"android":"levelo://app?vid=a0f59bc0-650a-4106-a079-d368ed8a3edf","ios":"levelo://app?vid=a0f59bc0-650a-4106-a079-d368ed8a3edf"},"vehicle_type_id":"4","last_reported":1746706827,"current_range_meters":20400,"station_id":"ce4bhdp2rcd13ifvqf20","pricing_plan_id":"cebpf4jnsgd1na2vs0mg"},{"bike_id":"fbdc470a-f9f3-40c7-9bda-da42f0f6d12e","system_id":"levelo_inurba_marseille","lat":43.3137,"lon":5.38499,"is_reserved":false,"is_disabled":false,"rental_uris":{"android":"levelo://app?vid=fbdc470a-f9f3-40c7-9bda-da42f0f6d12e","ios":"levelo://app?vid=fbdc470a-f9f3-40c7-9bda-da42f0f6d12e"},"vehicle_type_id":"4","last_reported":1746706827,"current_range_meters":20400,"station_id":"ce4bgt92rcd13ifvqcf0","pricing_plan_id":"cebpf4jnsgd1na2vs0mg"},{"bike_id":"97befefa-5a57-41c3-b05f-992b5ed1c603","system_id":"levelo_inurba_marseille","lat":43.24069,"lon":5.37768,"is_reserved":false,"is_disabled":false,"rental_uris":{"android":"levelo://app?vid=97befefa-5a57-41c3-b05f-992b5ed1c603","ios":"levelo://app?vid=97befefa-5a57-41c3-b05f-992b5ed1c603"},"vehicle_type_id":"4","last_reported":1746706827,"current_range_meters":20400,"station_id":"ce4bhnp2rcd13ifvqgvg","pricing_plan_id":"cebpf4jnsgd1na2vs0mg"},{"bike_id":"25bfd5cc-d55a-4a5d-820e-ca03b942e559","system_id":"levelo_inurba_marseille","lat":43.313305,"lon":5.39697,"is_reserved":false,"is_disabled":false,"rental_uris":{"android":"levelo://app?vid=25bfd5cc-d55a-4a5d-820e-ca03b942e559","ios":"levelo://app?vid=25bfd5cc-d55a-4a5d-820e-ca03b942e559"},"vehicle_type_id":"4","last_reported":1746706827,"current_range_meters":20800,"station_id":"ce4bgvp2rcd13ifvqcu0","pricing_plan_id":"cebpf4jnsgd1na2vs0mg"},{"bike_id":"4057c94e-3384-425c-974e-d5a1504c85ce","system_id":"levelo_inurba_marseille","lat":43.225,"lon":5.34774,"is_reserved":false,"is_disabled":false,"rental_uris":{"android":"levelo://app?vid=4057c94e-3384-425c-974e-d5a1504c85ce","ios":"levelo://app?vid=4057c94e-3384-425c-974e-d5a1504c85ce"},"vehicle_type_id":"4","last_reported":1746706827,"current_range_meters":20800,"station_id":"st_cvj5dfep6f1abm77gieg","pricing_plan_id":"cebpf4jnsgd1na2vs0mg"},{"bike_id":"8e1f30d9-bb21-4482-9811-ac1d7d71c326","system_id":"levelo_inurba_marseille","lat":43.217484,"lon":5.346006,"is_reserved":false,"is_disabled":false,"rental_uris":{"android":"levelo://app?vid=8e1f30d9-bb21-4482-9811-ac1d7d71c326","ios":"levelo://app?vid=8e1f30d9-bb21-4482-9811-ac1d7d71c326"},"vehicle_type_id":"4","last_reported":1746706827,"current_range_meters":20800,"station_id":"st_cvj6r9ubvosntc0bgbag","pricing_plan_id":"cebpf4jnsgd1na2vs0mg"},{"bike_id":"94f123b5-46c6-4ca2-a512-0f9908fea193","system_id":"levelo_inurba_marseille","lat":43.21745,"lon":5.34609,"is_reserved":false,"is_disabled":false,"rental_uris":{"android":"levelo://app?vid=94f123b5-46c6-4ca2-a512-0f9908fea193","ios":"levelo://app?vid=94f123b5-46c6-4ca2-a512-0f9908fea193"},"vehicle_type_id":"4","last_reported":1746706827,"current_range_meters":21600,"station_id":"st_cvj6r9ubvosntc0bgbag","pricing_plan_id":"cebpf4jnsgd1na2vs0mg"},{"bike_id":"eaeb3ade-b595-4205-ab9d-1467dbfca3de","system_id":"levelo_inurba_marseille","lat":43.31711,"lon":5.43708,"is_reserved":false,"is_disabled":false,"rental_uris":{"android":"levelo://app?vid=eaeb3ade-b595-4205-ab9d-1467dbfca3de","ios":"levelo://app?vid=eaeb3ade-b595-4205-ab9d-1467dbfca3de"},"vehicle_type_id":"4","last_reported":1746706827,"current_range_meters":20800,"station_id":"ce4bhp92rcd13ifvqhcg","pricing_plan_id":"cebpf4jnsgd1na2vs0mg"},{"bike_id":"617a619d-fa89-470f-b6bc-6c7d921b2842","system_id":"levelo_inurba_marseille","lat":43.292644,"lon":5.367779,"is_reserved":false,"is_disabled":false,"rental_uris":{"android":"levelo://app?vid=617a619d-fa89-470f-b6bc-6c7d921b2842","ios":"levelo://app?vid=617a619d-fa89-470f-b6bc-6c7d921b2842"},"vehicle_type_id":"4","last_reported":1746706827,"current_range_meters":21600,"station_id":"ce4bhb92rcd13ifvqen0","pricing_plan_id":"cebpf4jnsgd1na2vs0mg"},{"bike_id":"a8e4a764-18eb-4283-80d1-c2fbd7fe01c1","system_id":"levelo_inurba_marseille","lat":43.26554,"lon":5.37282,"is_reserved":false,"is_disabled":false,"rental_uris":{"android":"levelo://app?vid=a8e4a764-18eb-4283-80d1-c2fbd7fe01c1","ios":"levelo://app?vid=a8e4a764-18eb-4283-80d1-c2fbd7fe01c1"},"vehicle_type_id":"4","last_reported":1746706827,"current_range_meters":21600,"station_id":"ce4bhg12rcd13ifvqf70","pricing_plan_id":"cebpf4jnsgd1na2vs0mg"},{"bike_id":"8d6defb6-7c71-43a6-8ea5-9c7c2a5cca0a","system_id":"levelo_inurba_marseille","lat":43.24171,"lon":5.36399,"is_reserved":false,"is_disabled":false,"rental_uris":{"android":"levelo://app?vid=8d6defb6-7c71-43a6-8ea5-9c7c2a5cca0a","ios":"levelo://app?vid=8d6defb6-7c71-43a6-8ea5-9c7c2a5cca0a"},"vehicle_type_id":"4","last_reported":1746706827,"current_range_meters":21600,"station_id":"cpo36qri1sfpv3e86is0","pricing_plan_id":"cebpf4jnsgd1na2vs0mg"},{"bike_id":"679502ea-e209-4ef7-803c-369dd3d971bf","system_id":"levelo_inurba_marseille","lat":43.23196,"lon":5.35549,"is_reserved":false,"is_disabled":false,"rental_uris":{"android":"levelo://app?vid=679502ea-e209-4ef7-803c-369dd3d971bf","ios":"levelo://app?vid=679502ea-e209-4ef7-803c-369dd3d971bf"},"vehicle_type_id":"4","last_reported":1746706827,"current_range_meters":21600,"station_id":"ce4bhu92rcd13ifvqi70","pricing_plan_id":"cebpf4jnsgd1na2vs0mg"},{"bike_id":"03334883-b14c-45b6-a378-c2f50f402826","system_id":"levelo_inurba_marseille","lat":43.30351,"lon":5.41872,"is_reserved":false,"is_disabled":false,"rental_uris":{"android":"levelo://app?vid=03334883-b14c-45b6-a378-c2f50f402826","ios":"levelo://app?vid=03334883-b14c-45b6-a378-c2f50f402826"},"vehicle_type_id":"4","last_reported":1746706827,"current_range_meters":20800,"station_id":"ce4bhop2rcd13ifvqh7g","pricing_plan_id":"cebpf4jnsgd1na2vs0mg"},{"bike_id":"8cf63b8b-32d2-4320-b90d-274240a281d1","system_id":"levelo_inurba_marseille","lat":43.25111,"lon":5.403307,"is_reserved":false,"is_disabled":false,"rental_uris":{"android":"levelo://app?vid=8cf63b8b-32d2-4320-b90d-274240a281d1","ios":"levelo://app?vid=8cf63b8b-32d2-4320-b90d-274240a281d1"},"vehicle_type_id":"4","last_reported":1746706827,"current_range_meters":22000,"station_id":"ce4bhlh2rcd13ifvqgig","pricing_plan_id":"cebpf4jnsgd1na2vs0mg"},{"bike_id":"c1041c9f-2085-470a-b13c-f88fd8323115","system_id":"levelo_inurba_marseille","lat":43.27741,"lon":5.38661,"is_reserved":false,"is_disabled":false,"rental_uris":{"android":"levelo://app?vid=c1041c9f-2085-470a-b13c-f88fd8323115","ios":"levelo://app?vid=c1041c9f-2085-470a-b13c-f88fd8323115"},"vehicle_type_id":"4","last_reported":1746706827,"current_range_meters":22000,"station_id":"","pricing_plan_id":"cebpf4jnsgd1na2vs0mg"},{"bike_id":"d1107ecd-be4f-458d-a1cd-17553b1323a8","system_id":"levelo_inurba_marseille","lat":43.2148,"lon":5.34815,"is_reserved":false,"is_disabled":false,"rental_uris":{"android":"levelo://app?vid=d1107ecd-be4f-458d-a1cd-17553b1323a8","ios":"levelo://app?vid=d1107ecd-be4f-458d-a1cd-17553b1323a8"},"vehicle_type_id":"4","last_reported":1746706827,"current_range_meters":22000,"station_id":"","pricing_plan_id":"cebpf4jnsgd1na2vs0mg"},{"bike_id":"ba31d16f-c0d4-478a-8e86-cfbd6bbb780c","system_id":"levelo_inurba_marseille","lat":43.24167,"lon":5.39737,"is_reserved":false,"is_disabled":false,"rental_uris":{"android":"levelo://app?vid=ba31d16f-c0d4-478a-8e86-cfbd6bbb780c","ios":"levelo://app?vid=ba31d16f-c0d4-478a-8e86-cfbd6bbb780c"},"vehicle_type_id":"4","last_reported":1746706827,"current_range_meters":22000,"station_id":"ce4bhn12rcd13ifvqgpg","pricing_plan_id":"cebpf4jnsgd1na2vs0mg"},{"bike_id":"5cfe4fe1-c43b-4872-a506-754506bbf97e","system_id":"levelo_inurba_marseille","lat":43.28431,"lon":5.35,"is_reserved":false,"is_disabled":false,"rental_uris":{"android":"levelo://app?vid=5cfe4fe1-c43b-4872-a506-754506bbf97e","ios":"levelo://app?vid=5cfe4fe1-c43b-4872-a506-754506bbf97e"},"vehicle_type_id":"4","last_reported":1746706827,"current_range_meters":22000,"station_id":"ce4bhbh2rcd13ifvqepg","pricing_plan_id":"cebpf4jnsgd1na2vs0mg"},{"bike_id":"f11ee706-6f53-4807-ab21-5333a3dda1b8","system_id":"levelo_inurba_marseille","lat":43.2439,"lon":5.37057,"is_reserved":false,"is_disabled":false,"rental_uris":{"android":"levelo://app?vid=f11ee706-6f53-4807-ab21-5333a3dda1b8","ios":"levelo://app?vid=f11ee706-6f53-4807-ab21-5333a3dda1b8"},"vehicle_type_id":"4","last_reported":1746706827,"current_range_meters":22000,"station_id":"ce4bhhh2rcd13ifvqfk0","pricing_plan_id":"cebpf4jnsgd1na2vs0mg"},{"bike_id":"01131fd8-66d9-48fd-8b56-770ccd7c6912","system_id":"levelo_inurba_marseille","lat":43.21193,"lon":5.35071,"is_reserved":false,"is_disabled":false,"rental_uris":{"android":"levelo://app?vid=01131fd8-66d9-48fd-8b56-770ccd7c6912","ios":"levelo://app?vid=01131fd8-66d9-48fd-8b56-770ccd7c6912"},"vehicle_type_id":"4","last_reported":1746706827,"current_range_meters":22000,"station_id":"st_cvj6sg6p6f1abm77japg","pricing_plan_id":"cebpf4jnsgd1na2vs0mg"},{"bike_id":"5db5bb60-1eb3-42ef-aa90-9cbaf6b81c32","system_id":"levelo_inurba_marseille","lat":43.22933,"lon":5.35377,"is_reserved":false,"is_disabled":false,"rental_uris":{"android":"levelo://app?vid=5db5bb60-1eb3-42ef-aa90-9cbaf6b81c32","ios":"levelo://app?vid=5db5bb60-1eb3-42ef-aa90-9cbaf6b81c32"},"vehicle_type_id":"4","last_reported":1746706827,"current_range_meters":22000,"station_id":"cpo3532slgdg3j2ikp40","pricing_plan_id":"cebpf4jnsgd1na2vs0mg"},{"bike_id":"83a50b95-d68b-4f37-b42f-f4b6d18160f2","system_id":"levelo_inurba_marseille","lat":43.25962,"lon":5.40808,"is_reserved":false,"is_disabled":false,"rental_uris":{"android":"levelo://app?vid=83a50b95-d68b-4f37-b42f-f4b6d18160f2","ios":"levelo://app?vid=83a50b95-d68b-4f37-b42f-f4b6d18160f2"},"vehicle_type_id":"4","last_reported":1746706827,"current_range_meters":22400,"station_id":"ce4bhm92rcd13ifvqglg","pricing_plan_id":"cebpf4jnsgd1na2vs0mg"},{"bike_id":"da29634c-f61d-48f3-85e3-89fede4143b5","system_id":"levelo_inurba_marseille","lat":43.31687,"lon":5.40469,"is_reserved":false,"is_disabled":false,"rental_uris":{"android":"levelo://app?vid=da29634c-f61d-48f3-85e3-89fede4143b5","ios":"levelo://app?vid=da29634c-f61d-48f3-85e3-89fede4143b5"},"vehicle_type_id":"4","last_reported":1746706827,"current_range_meters":22400,"station_id":"ce4bh012rcd13ifvqd00","pricing_plan_id":"cebpf4jnsgd1na2vs0mg"},{"bike_id":"388270c6-9dce-4c50-8fec-eb57943acfd3","system_id":"levelo_inurba_marseille","lat":43.24068,"lon":5.37763,"is_reserved":false,"is_disabled":false,"rental_uris":{"android":"levelo://app?vid=388270c6-9dce-4c50-8fec-eb57943acfd3","ios":"levelo://app?vid=388270c6-9dce-4c50-8fec-eb57943acfd3"},"vehicle_type_id":"4","last_reported":1746706827,"current_range_meters":22800,"station_id":"ce4bhnp2rcd13ifvqgvg","pricing_plan_id":"cebpf4jnsgd1na2vs0mg"},{"bike_id":"7549ab92-d11d-4ea9-97d1-af58db6419be","system_id":"levelo_inurba_marseille","lat":43.29702,"lon":5.36606,"is_reserved":false,"is_disabled":false,"rental_uris":{"android":"levelo://app?vid=7549ab92-d11d-4ea9-97d1-af58db6419be","ios":"levelo://app?vid=7549ab92-d11d-4ea9-97d1-af58db6419be"},"vehicle_type_id":"4","last_reported":1746706827,"current_range_meters":22800,"station_id":"ce4bgn12rcd13ifvqbt0","pricing_plan_id":"cebpf4jnsgd1na2vs0mg"},{"bike_id":"8f54da4f-893f-4ac4-b9da-4d1c15b517b4","system_id":"levelo_inurba_marseille","lat":43.29973,"lon":5.37192,"is_reserved":false,"is_disabled":false,"rental_uris":{"android":"levelo://app?vid=8f54da4f-893f-4ac4-b9da-4d1c15b517b4","ios":"levelo://app?vid=8f54da4f-893f-4ac4-b9da-4d1c15b517b4"},"vehicle_type_id":"4","last_reported":1746706827,"current_range_meters":22800,"station_id":"ce4bgr92rcd13ifvqc7g","pricing_plan_id":"cebpf4jnsgd1na2vs0mg"},{"bike_id":"277d3626-e50e-445e-bb7d-0064518293cb","system_id":"levelo_inurba_marseille","lat":43.2985,"lon":5.36289,"is_reserved":false,"is_disabled":false,"rental_uris":{"android":"levelo://app?vid=277d3626-e50e-445e-bb7d-0064518293cb","ios":"levelo://app?vid=277d3626-e50e-445e-bb7d-0064518293cb"},"vehicle_type_id":"4","last_reported":1746706827,"current_range_meters":22800,"station_id":"ce4bgpp2rcd13ifvqc3g","pricing_plan_id":"cebpf4jnsgd1na2vs0mg"},{"bike_id":"db135363-de23-4704-b3a2-384149a5ee19","system_id":"levelo_inurba_marseille","lat":43.28412,"lon":5.349823,"is_reserved":false,"is_disabled":false,"rental_uris":{"android":"levelo://app?vid=db135363-de23-4704-b3a2-384149a5ee19","ios":"levelo://app?vid=db135363-de23-4704-b3a2-384149a5ee19"},"vehicle_type_id":"4","last_reported":1746706827,"current_range_meters":22800,"station_id":"ce4bhbh2rcd13ifvqepg","pricing_plan_id":"cebpf4jnsgd1na2vs0mg"},{"bike_id":"bafeb1cb-af55-4358-a4f7-e75ed7b2c5d6","system_id":"levelo_inurba_marseille","lat":43.28154,"lon":5.42646,"is_reserved":false,"is_disabled":false,"rental_uris":{"android":"levelo://app?vid=bafeb1cb-af55-4358-a4f7-e75ed7b2c5d6","ios":"levelo://app?vid=bafeb1cb-af55-4358-a4f7-e75ed7b2c5d6"},"vehicle_type_id":"4","last_reported":1746706827,"current_range_meters":22800,"station_id":"ce4bhnh2rcd13ifvqgug","pricing_plan_id":"cebpf4jnsgd1na2vs0mg"},{"bike_id":"8e919703-fc97-452b-9031-4ae4d6195b9f","system_id":"levelo_inurba_marseille","lat":43.28936,"lon":5.36639,"is_reserved":false,"is_disabled":false,"rental_uris":{"android":"levelo://app?vid=8e919703-fc97-452b-9031-4ae4d6195b9f","ios":"levelo://app?vid=8e919703-fc97-452b-9031-4ae4d6195b9f"},"vehicle_type_id":"4","last_reported":1746706827,"current_range_meters":22800,"station_id":"ce4bhap2rcd13ifvqek0","pricing_plan_id":"cebpf4jnsgd1na2vs0mg"},{"bike_id":"e20796c6-fb69-495f-8806-cb4abe497320","system_id":"levelo_inurba_marseille","lat":43.26566,"lon":5.37257,"is_reserved":false,"is_disabled":false,"rental_uris":{"android":"levelo://app?vid=e20796c6-fb69-495f-8806-cb4abe497320","ios":"levelo://app?vid=e20796c6-fb69-495f-8806-cb4abe497320"},"vehicle_type_id":"4","last_reported":1746706827,"current_range_meters":22800,"station_id":"ce4bhg12rcd13ifvqf70","pricing_plan_id":"cebpf4jnsgd1na2vs0mg"},{"bike_id":"6ca62e57-c590-4844-9177-13881fea05d1","system_id":"levelo_inurba_marseille","lat":43.26216,"lon":5.37437,"is_reserved":false,"is_disabled":false,"rental_uris":{"android":"levelo://app?vid=6ca62e57-c590-4844-9177-13881fea05d1","ios":"levelo://app?vid=6ca62e57-c590-4844-9177-13881fea05d1"},"vehicle_type_id":"4","last_reported":1746706827,"current_range_meters":22800,"station_id":"ce4bhgp2rcd13ifvqfc0","pricing_plan_id":"cebpf4jnsgd1na2vs0mg"},{"bike_id":"1e68407f-a480-4bdf-a04b-131c419bf599","system_id":"levelo_inurba_marseille","lat":43.2558,"lon":5.38227,"is_reserved":false,"is_disabled":false,"rental_uris":{"android":"levelo://app?vid=1e68407f-a480-4bdf-a04b-131c419bf599","ios":"levelo://app?vid=1e68407f-a480-4bdf-a04b-131c419bf599"},"vehicle_type_id":"4","last_reported":1746706827,"current_range_meters":22800,"station_id":"ce4bhih2rcd13ifvqfs0","pricing_plan_id":"cebpf4jnsgd1na2vs0mg"},{"bike_id":"081e31e4-a568-4d25-a88e-83085c5e0d76","system_id":"levelo_inurba_marseille","lat":43.265577,"lon":5.372817,"is_reserved":false,"is_disabled":false,"rental_uris":{"android":"levelo://app?vid=081e31e4-a568-4d25-a88e-83085c5e0d76","ios":"levelo://app?vid=081e31e4-a568-4d25-a88e-83085c5e0d76"},"vehicle_type_id":"4","last_reported":1746706827,"current_range_meters":22800,"station_id":"ce4bhg12rcd13ifvqf70","pricing_plan_id":"cebpf4jnsgd1na2vs0mg"},{"bike_id":"a3220723-4386-4e7a-8680-13c9435277c8","system_id":"levelo_inurba_marseille","lat":43.30766,"lon":5.3737,"is_reserved":false,"is_disabled":false,"rental_uris":{"android":"levelo://app?vid=a3220723-4386-4e7a-8680-13c9435277c8","ios":"levelo://app?vid=a3220723-4386-4e7a-8680-13c9435277c8"},"vehicle_type_id":"4","last_reported":1746706827,"current_range_meters":22800,"station_id":"","pricing_plan_id":"cebpf4jnsgd1na2vs0mg"},{"bike_id":"70646830-7348-4afb-9305-a878bbdaa257","system_id":"levelo_inurba_marseille","lat":43.31369,"lon":5.38492,"is_reserved":false,"is_disabled":false,"rental_uris":{"android":"levelo://app?vid=70646830-7348-4afb-9305-a878bbdaa257","ios":"levelo://app?vid=70646830-7348-4afb-9305-a878bbdaa257"},"vehicle_type_id":"4","last_reported":1746706827,"current_range_meters":23200,"station_id":"ce4bgt92rcd13ifvqcf0","pricing_plan_id":"cebpf4jnsgd1na2vs0mg"},{"bike_id":"52631938-a29e-4c80-9b6e-6eaf75695676","system_id":"levelo_inurba_marseille","lat":43.21196,"lon":5.35061,"is_reserved":false,"is_disabled":false,"rental_uris":{"android":"levelo://app?vid=52631938-a29e-4c80-9b6e-6eaf75695676","ios":"levelo://app?vid=52631938-a29e-4c80-9b6e-6eaf75695676"},"vehicle_type_id":"4","last_reported":1746706827,"current_range_meters":23200,"station_id":"st_cvj6sg6p6f1abm77japg","pricing_plan_id":"cebpf4jnsgd1na2vs0mg"},{"bike_id":"66e56cd5-6c03-492d-bd6c-33caf1943fcd","system_id":"levelo_inurba_marseille","lat":43.28614,"lon":5.35107,"is_reserved":false,"is_disabled":false,"rental_uris":{"android":"levelo://app?vid=66e56cd5-6c03-492d-bd6c-33caf1943fcd","ios":"levelo://app?vid=66e56cd5-6c03-492d-bd6c-33caf1943fcd"},"vehicle_type_id":"4","last_reported":1746706827,"current_range_meters":23200,"station_id":"ce4bhch2rcd13ifvqeug","pricing_plan_id":"cebpf4jnsgd1na2vs0mg"},{"bike_id":"2eb8dc8a-5422-4a49-9e5b-7b1ea59dd4ea","system_id":"levelo_inurba_marseille","lat":43.21769,"lon":5.34603,"is_reserved":false,"is_disabled":false,"rental_uris":{"android":"levelo://app?vid=2eb8dc8a-5422-4a49-9e5b-7b1ea59dd4ea","ios":"levelo://app?vid=2eb8dc8a-5422-4a49-9e5b-7b1ea59dd4ea"},"vehicle_type_id":"4","last_reported":1746706827,"current_range_meters":23200,"station_id":"st_cvj6r9ubvosntc0bgbag","pricing_plan_id":"cebpf4jnsgd1na2vs0mg"},{"bike_id":"e6c78a5f-38c0-461c-be9c-4ec508342459","system_id":"levelo_inurba_marseille","lat":43.28435,"lon":5.34989,"is_reserved":false,"is_disabled":false,"rental_uris":{"android":"levelo://app?vid=e6c78a5f-38c0-461c-be9c-4ec508342459","ios":"levelo://app?vid=e6c78a5f-38c0-461c-be9c-4ec508342459"},"vehicle_type_id":"4","last_reported":1746706827,"current_range_meters":23200,"station_id":"ce4bhbh2rcd13ifvqepg","pricing_plan_id":"cebpf4jnsgd1na2vs0mg"},{"bike_id":"bc01eef1-0c31-4fe3-8c3b-c0f85c668c12","system_id":"levelo_inurba_marseille","lat":43.21749,"lon":5.34598,"is_reserved":false,"is_disabled":false,"rental_uris":{"android":"levelo://app?vid=bc01eef1-0c31-4fe3-8c3b-c0f85c668c12","ios":"levelo://app?vid=bc01eef1-0c31-4fe3-8c3b-c0f85c668c12"},"vehicle_type_id":"4","last_reported":1746706827,"current_range_meters":23200,"station_id":"st_cvj6r9ubvosntc0bgbag","pricing_plan_id":"cebpf4jnsgd1na2vs0mg"},{"bike_id":"20833a68-fa50-4fa8-8c24-fb15fa384bd3","system_id":"levelo_inurba_marseille","lat":43.30534,"lon":5.36721,"is_reserved":false,"is_disabled":false,"rental_uris":{"android":"levelo://app?vid=20833a68-fa50-4fa8-8c24-fb15fa384bd3","ios":"levelo://app?vid=20833a68-fa50-4fa8-8c24-fb15fa384bd3"},"vehicle_type_id":"4","last_reported":1746706827,"current_range_meters":23200,"station_id":"ce4bgrp2rcd13ifvqc9g","pricing_plan_id":"cebpf4jnsgd1na2vs0mg"},{"bike_id":"53cd0b0e-58ae-4411-95d4-910ae46a770e","system_id":"levelo_inurba_marseille","lat":43.32538,"lon":5.41433,"is_reserved":false,"is_disabled":false,"rental_uris":{"android":"levelo://app?vid=53cd0b0e-58ae-4411-95d4-910ae46a770e","ios":"levelo://app?vid=53cd0b0e-58ae-4411-95d4-910ae46a770e"},"vehicle_type_id":"4","last_reported":1746706827,"current_range_meters":22800,"station_id":"ce4bhq12rcd13ifvqhhg","pricing_plan_id":"cebpf4jnsgd1na2vs0mg"},{"bike_id":"b6150a6d-7cd6-4c3f-81bd-6c814149cd67","system_id":"levelo_inurba_marseille","lat":43.25503,"lon":5.37649,"is_reserved":false,"is_disabled":false,"rental_uris":{"android":"levelo://app?vid=b6150a6d-7cd6-4c3f-81bd-6c814149cd67","ios":"levelo://app?vid=b6150a6d-7cd6-4c3f-81bd-6c814149cd67"},"vehicle_type_id":"4","last_reported":1746706827,"current_range_meters":24000,"station_id":"ce4bhh12rcd13ifvqff0","pricing_plan_id":"cebpf4jnsgd1na2vs0mg"},{"bike_id":"fc2577e7-1497-425b-9d4f-ab8d7dc843c6","system_id":"levelo_inurba_marseille","lat":43.33771,"lon":5.37485,"is_reserved":false,"is_disabled":false,"rental_uris":{"android":"levelo://app?vid=fc2577e7-1497-425b-9d4f-ab8d7dc843c6","ios":"levelo://app?vid=fc2577e7-1497-425b-9d4f-ab8d7dc843c6"},"vehicle_type_id":"4","last_reported":1746706827,"current_range_meters":24000,"station_id":"","pricing_plan_id":"cebpf4jnsgd1na2vs0mg"},{"bike_id":"0fde9a71-5a12-44c6-a3c2-bfca6fc04861","system_id":"levelo_inurba_marseille","lat":43.2737,"lon":5.36252,"is_reserved":false,"is_disabled":false,"rental_uris":{"android":"levelo://app?vid=0fde9a71-5a12-44c6-a3c2-bfca6fc04861","ios":"levelo://app?vid=0fde9a71-5a12-44c6-a3c2-bfca6fc04861"},"vehicle_type_id":"4","last_reported":1746706827,"current_range_meters":23200,"station_id":"ce4bhbh2rcd13ifvqeo0","pricing_plan_id":"cebpf4jnsgd1na2vs0mg"},{"bike_id":"5c598e38-708a-4cf7-8e16-2c19ab64dd5b","system_id":"levelo_inurba_marseille","lat":43.28864,"lon":5.35859,"is_reserved":false,"is_disabled":false,"rental_uris":{"android":"levelo://app?vid=5c598e38-708a-4cf7-8e16-2c19ab64dd5b","ios":"levelo://app?vid=5c598e38-708a-4cf7-8e16-2c19ab64dd5b"},"vehicle_type_id":"4","last_reported":1746706827,"current_range_meters":24000,"station_id":"ce4bhb12rcd13ifvqem0","pricing_plan_id":"cebpf4jnsgd1na2vs0mg"},{"bike_id":"07da6f96-fb88-4a40-9077-290e24dde904","system_id":"levelo_inurba_marseille","lat":43.21194,"lon":5.35065,"is_reserved":false,"is_disabled":false,"rental_uris":{"android":"levelo://app?vid=07da6f96-fb88-4a40-9077-290e24dde904","ios":"levelo://app?vid=07da6f96-fb88-4a40-9077-290e24dde904"},"vehicle_type_id":"4","last_reported":1746706827,"current_range_meters":24000,"station_id":"st_cvj6sg6p6f1abm77japg","pricing_plan_id":"cebpf4jnsgd1na2vs0mg"},{"bike_id":"4bd1444e-ae9c-411d-8fff-56e697dc0c48","system_id":"levelo_inurba_marseille","lat":43.28458,"lon":5.35515,"is_reserved":false,"is_disabled":false,"rental_uris":{"android":"levelo://app?vid=4bd1444e-ae9c-411d-8fff-56e697dc0c48","ios":"levelo://app?vid=4bd1444e-ae9c-411d-8fff-56e697dc0c48"},"vehicle_type_id":"4","last_reported":1746706827,"current_range_meters":24000,"station_id":"","pricing_plan_id":"cebpf4jnsgd1na2vs0mg"},{"bike_id":"545e5687-b7df-4883-81be-75a8925d5f91","system_id":"levelo_inurba_marseille","lat":43.337444,"lon":5.374475,"is_reserved":false,"is_disabled":false,"rental_uris":{"android":"levelo://app?vid=545e5687-b7df-4883-81be-75a8925d5f91","ios":"levelo://app?vid=545e5687-b7df-4883-81be-75a8925d5f91"},"vehicle_type_id":"4","last_reported":1746706827,"current_range_meters":24000,"station_id":"","pricing_plan_id":"cebpf4jnsgd1na2vs0mg"},{"bike_id":"7e4bf6fe-4f2e-4fb9-83ec-a1484b3676c9","system_id":"levelo_inurba_marseille","lat":43.3237,"lon":5.38881,"is_reserved":false,"is_disabled":false,"rental_uris":{"android":"levelo://app?vid=7e4bf6fe-4f2e-4fb9-83ec-a1484b3676c9","ios":"levelo://app?vid=7e4bf6fe-4f2e-4fb9-83ec-a1484b3676c9"},"vehicle_type_id":"4","last_reported":1746706827,"current_range_meters":24400,"station_id":"ce4bhqp2rcd13ifvqhog","pricing_plan_id":"cebpf4jnsgd1na2vs0mg"},{"bike_id":"d01b71c1-dfdd-4387-ac14-2871774ca730","system_id":"levelo_inurba_marseille","lat":43.31322,"lon":5.39683,"is_reserved":false,"is_disabled":false,"rental_uris":{"android":"levelo://app?vid=d01b71c1-dfdd-4387-ac14-2871774ca730","ios":"levelo://app?vid=d01b71c1-dfdd-4387-ac14-2871774ca730"},"vehicle_type_id":"4","last_reported":1746706827,"current_range_meters":24400,"station_id":"ce4bgvp2rcd13ifvqcu0","pricing_plan_id":"cebpf4jnsgd1na2vs0mg"},{"bike_id":"cfcf0a27-3831-4e84-9bea-34b38798a087","system_id":"levelo_inurba_marseille","lat":43.212,"lon":5.35054,"is_reserved":false,"is_disabled":false,"rental_uris":{"android":"levelo://app?vid=cfcf0a27-3831-4e84-9bea-34b38798a087","ios":"levelo://app?vid=cfcf0a27-3831-4e84-9bea-34b38798a087"},"vehicle_type_id":"4","last_reported":1746706827,"current_range_meters":24400,"station_id":"st_cvj6sg6p6f1abm77japg","pricing_plan_id":"cebpf4jnsgd1na2vs0mg"},{"bike_id":"a6f4ad41-e482-4042-9e7c-580c1bdb55ea","system_id":"levelo_inurba_marseille","lat":43.309496,"lon":5.390391,"is_reserved":false,"is_disabled":false,"rental_uris":{"android":"levelo://app?vid=a6f4ad41-e482-4042-9e7c-580c1bdb55ea","ios":"levelo://app?vid=a6f4ad41-e482-4042-9e7c-580c1bdb55ea"},"vehicle_type_id":"4","last_reported":1746706827,"current_range_meters":24400,"station_id":"ce4bgup2rcd13ifvqco0","pricing_plan_id":"cebpf4jnsgd1na2vs0mg"},{"bike_id":"4b12119b-886f-455b-b2ae-8814b17b579d","system_id":"levelo_inurba_marseille","lat":43.24176,"lon":5.3975,"is_reserved":false,"is_disabled":false,"rental_uris":{"android":"levelo://app?vid=4b12119b-886f-455b-b2ae-8814b17b579d","ios":"levelo://app?vid=4b12119b-886f-455b-b2ae-8814b17b579d"},"vehicle_type_id":"4","last_reported":1746706827,"current_range_meters":24400,"station_id":"ce4bhn12rcd13ifvqgpg","pricing_plan_id":"cebpf4jnsgd1na2vs0mg"},{"bike_id":"2b5f1332-cfd2-4f8a-9fd1-9c1b6062e31b","system_id":"levelo_inurba_marseille","lat":43.21746,"lon":5.34596,"is_reserved":false,"is_disabled":false,"rental_uris":{"android":"levelo://app?vid=2b5f1332-cfd2-4f8a-9fd1-9c1b6062e31b","ios":"levelo://app?vid=2b5f1332-cfd2-4f8a-9fd1-9c1b6062e31b"},"vehicle_type_id":"4","last_reported":1746706827,"current_range_meters":24400,"station_id":"st_cvj6r9ubvosntc0bgbag","pricing_plan_id":"cebpf4jnsgd1na2vs0mg"},{"bike_id":"399f1539-4def-43af-92d6-a7da47af4cca","system_id":"levelo_inurba_marseille","lat":43.229516,"lon":5.35356,"is_reserved":false,"is_disabled":false,"rental_uris":{"android":"levelo://app?vid=399f1539-4def-43af-92d6-a7da47af4cca","ios":"levelo://app?vid=399f1539-4def-43af-92d6-a7da47af4cca"},"vehicle_type_id":"4","last_reported":1746706827,"current_range_meters":24400,"station_id":"cpo3532slgdg3j2ikp40","pricing_plan_id":"cebpf4jnsgd1na2vs0mg"},{"bike_id":"5e7a90f1-c111-4f72-8370-09205c8a7d08","system_id":"levelo_inurba_marseille","lat":43.27379,"lon":5.362679,"is_reserved":false,"is_disabled":false,"rental_uris":{"android":"levelo://app?vid=5e7a90f1-c111-4f72-8370-09205c8a7d08","ios":"levelo://app?vid=5e7a90f1-c111-4f72-8370-09205c8a7d08"},"vehicle_type_id":"4","last_reported":1746706827,"current_range_meters":24400,"station_id":"ce4bhbh2rcd13ifvqeo0","pricing_plan_id":"cebpf4jnsgd1na2vs0mg"},{"bike_id":"32ec615e-94db-41f5-9f55-9ba60877b677","system_id":"levelo_inurba_marseille","lat":43.28425,"lon":5.34989,"is_reserved":false,"is_disabled":false,"rental_uris":{"android":"levelo://app?vid=32ec615e-94db-41f5-9f55-9ba60877b677","ios":"levelo://app?vid=32ec615e-94db-41f5-9f55-9ba60877b677"},"vehicle_type_id":"4","last_reported":1746706827,"current_range_meters":24400,"station_id":"ce4bhbh2rcd13ifvqepg","pricing_plan_id":"cebpf4jnsgd1na2vs0mg"},{"bike_id":"2c5ef065-9a77-4035-b758-75f07e96864a","system_id":"levelo_inurba_marseille","lat":43.21744,"lon":5.34608,"is_reserved":false,"is_disabled":false,"rental_uris":{"android":"levelo://app?vid=2c5ef065-9a77-4035-b758-75f07e96864a","ios":"levelo://app?vid=2c5ef065-9a77-4035-b758-75f07e96864a"},"vehicle_type_id":"4","last_reported":1746706827,"current_range_meters":24800,"station_id":"st_cvj6r9ubvosntc0bgbag","pricing_plan_id":"cebpf4jnsgd1na2vs0mg"},{"bike_id":"66d39f5f-1aac-423b-9ea7-bf9c1b0e5079","system_id":"levelo_inurba_marseille","lat":43.27502,"lon":5.41131,"is_reserved":false,"is_disabled":false,"rental_uris":{"android":"levelo://app?vid=66d39f5f-1aac-423b-9ea7-bf9c1b0e5079","ios":"levelo://app?vid=66d39f5f-1aac-423b-9ea7-bf9c1b0e5079"},