{"last_updated":1699099866,"ttl":30,"version":"2.2","data":{"bikes":[{"bike_id":"8a6fd88a-151d-4263-83ec-746d4019933e","system_id":"levelo_inurba_marseille","lat":43.312239,"lon":5.368562,"is_reserved":false,"is_disabled":false,"rental_uris":{"android":"levelo://app?vid=8a6fd88a-151d-4263-83ec-746d4019933e","ios":"levelo://app?vid=8a6fd88a-151d-4263-83ec-746d4019933e"},"vehicle_type_id":"4","last_reported":1699099867,"current_range_meters":27200,"station_id":"ce4bgl92rcd13ifvqbq0","pricing_plan_id":"free"},{"bike_id":"882c5c42-3af6-4347-bca3-d14d8aaefbb9","system_id":"levelo_inurba_marseille","lat":43.31525,"lon":5.37316,"is_reserved":false,"is_disabled":false,"rental_uris":{"android":"levelo://app?vid=882c5c42-3af6-4347-bca3-d14d8aaefbb9","ios":"levelo://app?vid=882c5c42-3af6-4347-bca3-d14d8aaefbb9"},"vehicle_type_id":"4","last_reported":1699099867,"current_range_meters":16800,"station_id":"ce4bgt12rcd13ifvqcd0","pricing_plan_id":"free"},{"bike_id":"6dd0b52d-cbba-4279-905f-2444b698370f","system_id":"levelo_inurba_marseille","lat":43.309039,"lon":5.371797,"is_reserved":false,"is_disabled":false,"rental_uris":{"android":"levelo://app?vid=6dd0b52d-cbba-4279-905f-2444b698370f","ios":"levelo://app?vid=6dd0b52d-cbba-4279-905f-2444b698370f"},"vehicle_type_id":"4","last_reported":1699099867,"current_range_meters":18800,"station_id":"ce4bguh2rcd13ifvqckg","pricing_plan_id":"free"},{"bike_id":"82a25eed-a4c4-4bc2-b75e-7bd1bd664e2a","system_id":"levelo_inurba_marseille","lat":43.309039,"lon":5.371797,"is_reserved":false,"is_disabled":false,"rental_uris":{"android":"levelo://app?vid=82a25eed-a4c4-4bc2-b75e-7bd1bd664e2a","ios":"levelo://app?vid=82a25eed-a4c4-4bc2-b75e-7bd1bd664e2a"},"vehicle_type_id":"4","last_reported":1699099867,"current_range_meters":30000,"station_id":"ce4bguh2rcd13ifvqckg","pricing_plan_id":"free"},{"bike_id":"9fbf07fa-0ea4-43d6-8ed6-82424e129746","system_id":"levelo_inurba_marseille","lat":43.31813,"lon":5.36926,"is_reserved":false,"is_disabled":false,"rental_uris":{"android":"levelo://app?vid=9fbf07fa-0ea4-43d6-8ed6-82424e129746","ios":"levelo://app?vid=9fbf07fa-0ea4-43d6-8ed6-82424e129746"},"vehicle_type_id":"4","last_reported":1699099867,"current_range_meters":6400,"station_id":"","pricing_plan_id":"free"},{"bike_id":"7f6d1821-d960-4aa5-81c2-8064a10d310c","system_id":"levelo_inurba_marseille","lat":43.31885,"lon":5.370823,"is_reserved":false,"is_disabled":false,"rental_uris":{"android":"levelo://app?vid=7f6d1821-d960-4aa5-81c2-8064a10d310c","ios":"levelo://app?vid=7f6d1821-d960-4aa5-81c2-8064a10d310c"},"vehicle_type_id":"4","last_reported":1699099867,"current_range_meters":9600,"station_id":"","pricing_plan_id":"free"},{"bike_id":"770aa8b0-74e4-477c-8cc4-fd5d552902a6","system_id":"levelo_inurba_marseille","lat":43.316691,"lon":5.375367,"is_reserved":false,"is_disabled":false,"rental_uris":{"android":"levelo://app?vid=770aa8b0-74e4-477c-8cc4-fd5d552902a6","ios":"levelo://app?vid=770aa8b0-74e4-477c-8cc4-fd5d552902a6"},"vehicle_type_id":"4","last_reported":1699099867,"current_range_meters":7200,"station_id":"","pricing_plan_id":"free"},{"bike_id":"f252b071-dddd-4e5f-ad07-506846af6d1a","system_id":"levelo_inurba_marseille","lat":43.305714,"lon":5.365633,"is_reserved":false,"is_disabled":false,"rental_uris":{"android":"levelo://app?vid=f252b071-dddd-4e5f-ad07-506846af6d1a","ios":"levelo://app?vid=f252b071-dddd-4e5f-ad07-506846af6d1a"},"vehicle_type_id":"4","last_reported":1699099867,"current_range_meters":4800,"station_id":"ce4bgs12rcd13ifvqcag","pricing_plan_id":"free"},{"bike_id":"3bd63a78-5b72-4894-8212-8da358a858ed","system_id":"levelo_inurba_marseille","lat":43.30546,"lon":5.36529,"is_reserved":false,"is_disabled":false,"rental_uris":{"android":"levelo://app?vid=3bd63a78-5b72-4894-8212-8da358a858ed","ios":"levelo://app?vid=3bd63a78-5b72-4894-8212-8da358a858ed"},"vehicle_type_id":"4","last_reported":1699099867,"current_range_meters":0,"station_id":"ce4bgs12rcd13ifvqcag","pricing_plan_id":"free"},{"bike_id":"2d7df0f2-87bd-43fa-97de-fd0c48cf0194","system_id":"levelo_inurba_marseille","lat":43.30542,"lon":5.3655,"is_reserved":false,"is_disabled":false,"rental_uris":{"android":"levelo://app?vid=2d7df0f2-87bd-43fa-97de-fd0c48cf0194","ios":"levelo://app?vid=2d7df0f2-87bd-43fa-97de-fd0c48cf0194"},"vehicle_type_id":"4","last_reported":1699099867,"current_range_meters":18400,"station_id":"ce4bgs12rcd13ifvqcag","pricing_plan_id":"free"},{"bike_id":"8f1c9192-e1d0-4f77-98d3-a84d240090ae","system_id":"levelo_inurba_marseille","lat":43.30537,"lon":5.36556,"is_reserved":false,"is_disabled":false,"rental_uris":{"android":"levelo://app?vid=8f1c9192-e1d0-4f77-98d3-a84d240090ae","ios":"levelo://app?vid=8f1c9192-e1d0-4f77-98d3-a84d240090ae"},"vehicle_type_id":"4","last_reported":1699099867,"current_range_meters":28800,"station_id":"ce4bgs12rcd13ifvqcag","pricing_plan_id":"free"},{"bike_id":"17555d98-a39b-49c6-9824-43b833db2c3f","system_id":"levelo_inurba_marseille","lat":43.30529,"lon":5.36539,"is_reserved":false,"is_disabled":false,"rental_uris":{"android":"levelo://app?vid=17555d98-a39b-49c6-9824-43b833db2c3f","ios":"levelo://app?vid=17555d98-a39b-49c6-9824-43b833db2c3f"},"vehicle_type_id":"4","last_reported":1699099867,"current_range_meters":10800,"station_id":"ce4bgs12rcd13ifvqcag","pricing_plan_id":"free"},{"bike_id":"44c02a63-33c7-4611-b2ab-5d6c091fbb2b","system_id":"levelo_inurba_marseille","lat":43.305989,"lon":5.37225,"is_reserved":false,"is_disabled":false,"rental_uris":{"android":"levelo://app?vid=44c02a63-33c7-4611-b2ab-5d6c091fbb2b","ios":"levelo://app?vid=44c02a63-33c7-4611-b2ab-5d6c091fbb2b"},"vehicle_type_id":"4","last_reported":1699099867,"current_range_meters":23200,"station_id":"ce4bgqh2rcd13ifvqc4g","pricing_plan_id":"free"},{"bike_id":"5eb39e12-5620-45f4-8375-3768454d029b","system_id":"levelo_inurba_marseille","lat":43.305989,"lon":5.37225,"is_reserved":false,"is_disabled":false,"rental_uris":{"android":"levelo://app?vid=5eb39e12-5620-45f4-8375-3768454d029b","ios":"levelo://app?vid=5eb39e12-5620-45f4-8375-3768454d029b"},"vehicle_type_id":"4","last_reported":1699099867,"current_range_meters":31200,"station_id":"ce4bgqh2rcd13ifvqc4g","pricing_plan_id":"free"},{"bike_id":"3a890222-0c0e-494c-922f-60444b7a7ea5","system_id":"levelo_inurba_marseille","lat":43.305989,"lon":5.37225,"is_reserved":false,"is_disabled":false,"rental_uris":{"android":"levelo://app?vid=3a890222-0c0e-494c-922f-60444b7a7ea5","ios":"levelo://app?vid=3a890222-0c0e-494c-922f-60444b7a7ea5"},"vehicle_type_id":"4","last_reported":1699099867,"current_range_meters":30000,"station_id":"ce4bgqh2rcd13ifvqc4g","pricing_plan_id":"free"},{"bike_id":"6ad94e05-81db-409b-a031-0611c4f73cc5","system_id":"levelo_inurba_marseille","lat":43.311131,"lon":5.377651,"is_reserved":false,"is_disabled":false,"rental_uris":{"android":"levelo://app?vid=6ad94e05-81db-409b-a031-0611c4f73cc5","ios":"levelo://app?vid=6ad94e05-81db-409b-a031-0611c4f73cc5"},"vehicle_type_id":"4","last_reported":1699099867,"current_range_meters":31200,"station_id":"ce4bgt92rcd13ifvqcg0","pricing_plan_id":"free"},{"bike_id":"7654d496-15f6-460d-8aaa-7eaa097202e7","system_id":"levelo_inurba_marseille","lat":43.31019,"lon":5.37708,"is_reserved":false,"is_disabled":false,"rental_uris":{"android":"levelo://app?vid=7654d496-15f6-460d-8aaa-7eaa097202e7","ios":"levelo://app?vid=7654d496-15f6-460d-8aaa-7eaa097202e7"},"vehicle_type_id":"4","last_reported":1699099867,"current_range_meters":21600,"station_id":"","pricing_plan_id":"free"},{"bike_id":"c4eb77bd-e3ff-4bbc-bba7-192d36dd1ed6","system_id":"levelo_inurba_marseille","lat":43.311125,"lon":5.377624,"is_reserved":false,"is_disabled":false,"rental_uris":{"android":"levelo://app?vid=c4eb77bd-e3ff-4bbc-bba7-192d36dd1ed6","ios":"levelo://app?vid=c4eb77bd-e3ff-4bbc-bba7-192d36dd1ed6"},"vehicle_type_id":"4","last_reported":1699099867,"current_range_meters":4000,"station_id":"ce4bgt92rcd13ifvqcg0","pricing_plan_id":"free"},{"bike_id":"327e7620-1cd8-4692-a5b6-7e9900884734","system_id":"levelo_inurba_marseille","lat":43.311131,"lon":5.377651,"is_reserved":false,"is_disabled":false,"rental_uris":{"android":"levelo://app?vid=327e7620-1cd8-4692-a5b6-7e9900884734","ios":"levelo://app?vid=327e7620-1cd8-4692-a5b6-7e9900884734"},"vehicle_type_id":"4","last_reported":1699099867,"current_range_meters":26400,"station_id":"ce4bgt92rcd13ifvqcg0","pricing_plan_id":"free"},{"bike_id":"5b00cf58-9197-4a50-9299-2b8dc871f022","system_id":"levelo_inurba_marseille","lat":43.311125,"lon":5.377624,"is_reserved":false,"is_disabled":false,"rental_uris":{"android":"levelo://app?vid=5b00cf58-9197-4a50-9299-2b8dc871f022","ios":"levelo://app?vid=5b00cf58-9197-4a50-9299-2b8dc871f022"},"vehicle_type_id":"4","last_reported":1699099867,"current_range_meters":26400,"station_id":"ce4bgt92rcd13ifvqcg0","pricing_plan_id":"free"},{"bike_id":"3dc7b6ab-8dc2-4939-9c57-dd5493dc0179","system_id":"levelo_inurba_marseille","lat":43.311125,"lon":5.377624,"is_reserved":false,"is_disabled":false,"rental_uris":{"android":"levelo://app?vid=3dc7b6ab-8dc2-4939-9c57-dd5493dc0179","ios":"levelo://app?vid=3dc7b6ab-8dc2-4939-9c57-dd5493dc0179"},"vehicle_type_id":"4","last_reported":1699099867,"current_range_meters":31200,"station_id":"ce4bgt92rcd13ifvqcg0","pricing_plan_id":"free"},{"bike_id":"309292bd-c7d5-46ae-b34f-1e3c37b8b228","system_id":"levelo_inurba_marseille","lat":43.317075,"lon":5.377367,"is_reserved":false,"is_disabled":false,"rental_uris":{"android":"levelo://app?vid=309292bd-c7d5-46ae-b34f-1e3c37b8b228","ios":"levelo://app?vid=309292bd-c7d5-46ae-b34f-1e3c37b8b228"},"vehicle_type_id":"4","last_reported":1699099867,"current_range_meters":25200,"station_id":"ce4bgth2rcd13ifvqch0","pricing_plan_id":"free"},{"bike_id":"248a549d-598d-425c-8078-296bb67aafc6","system_id":"levelo_inurba_marseille","lat":43.30311,"lon":5.36907,"is_reserved":false,"is_disabled":false,"rental_uris":{"android":"levelo://app?vid=248a549d-598d-425c-8078-296bb67aafc6","ios":"levelo://app?vid=248a549d-598d-425c-8078-296bb67aafc6"},"vehicle_type_id":"4","last_reported":1699099867,"current_range_meters":30000,"station_id":"ce4bgqh2rcd13ifvqc5g","pricing_plan_id":"free"},{"bike_id":"56163303-b929-4bea-ac10-5436654f883c","system_id":"levelo_inurba_marseille","lat":43.303046,"lon":5.368981,"is_reserved":false,"is_disabled":false,"rental_uris":{"android":"levelo://app?vid=56163303-b929-4bea-ac10-5436654f883c","ios":"levelo://app?vid=56163303-b929-4bea-ac10-5436654f883c"},"vehicle_type_id":"4","last_reported":1699099867,"current_range_meters":12400,"station_id":"ce4bgqh2rcd13ifvqc5g","pricing_plan_id":"free"},{"bike_id":"0fb00552-09e0-4d18-8ca0-c572eb163650","system_id":"levelo_inurba_marseille","lat":43.303046,"lon":5.368981,"is_reserved":false,"is_disabled":false,"rental_uris":{"android":"levelo://app?vid=0fb00552-09e0-4d18-8ca0-c572eb163650","ios":"levelo://app?vid=0fb00552-09e0-4d18-8ca0-c572eb163650"},"vehicle_type_id":"4","last_reported":1699099867,"current_range_meters":24800,"station_id":"ce4bgqh2rcd13ifvqc5g","pricing_plan_id":"free"},{"bike_id":"f3e4c803-b18a-4367-b1c4-6b148eda8b22","system_id":"levelo_inurba_marseille","lat":43.301939,"lon":5.366286,"is_reserved":false,"is_disabled":false,"rental_uris":{"android":"levelo://app?vid=f3e4c803-b18a-4367-b1c4-6b148eda8b22","ios":"levelo://app?vid=f3e4c803-b18a-4367-b1c4-6b148eda8b22"},"vehicle_type_id":"4","last_reported":1699099867,"current_range_meters":28800,"station_id":"ce4bgrh2rcd13ifvqc8g","pricing_plan_id":"free"},{"bike_id":"c9244487-d735-4ac0-a3d3-f642fd24c2d0","system_id":"levelo_inurba_marseille","lat":43.308012,"lon":5.381511,"is_reserved":false,"is_disabled":false,"rental_uris":{"android":"levelo://app?vid=c9244487-d735-4ac0-a3d3-f642fd24c2d0","ios":"levelo://app?vid=c9244487-d735-4ac0-a3d3-f642fd24c2d0"},"vehicle_type_id":"4","last_reported":1699099867,"current_range_meters":16000,"station_id":"ce4bgt12rcd13ifvqce0","pricing_plan_id":"free"},{"bike_id":"482199db-61d6-4ccc-8980-0aad67477a31","system_id":"levelo_inurba_marseille","lat":43.308012,"lon":5.381511,"is_reserved":false,"is_disabled":false,"rental_uris":{"android":"levelo://app?vid=482199db-61d6-4ccc-8980-0aad67477a31","ios":"levelo://app?vid=482199db-61d6-4ccc-8980-0aad67477a31"},"vehicle_type_id":"4","last_reported":1699099867,"current_range_meters":25200,"station_id":"ce4bgt12rcd13ifvqce0","pricing_plan_id":"free"},{"bike_id":"bb8bacc7-96e2-4222-8bbf-88f35abe576b","system_id":"levelo_inurba_marseille","lat":43.3233,"lon":5.37443,"is_reserved":false,"is_disabled":false,"rental_uris":{"android":"levelo://app?vid=bb8bacc7-96e2-4222-8bbf-88f35abe576b","ios":"levelo://app?vid=bb8bacc7-96e2-4222-8bbf-88f35abe576b"},"vehicle_type_id":"4","last_reported":1699099867,"current_range_meters":2800,"station_id":"","pricing_plan_id":"free"},{"bike_id":"4417582d-c2ca-40fe-a249-37e4da6d0b93","system_id":"levelo_inurba_marseille","lat":43.304606,"lon":5.379026,"is_reserved":false,"is_disabled":false,"rental_uris":{"android":"levelo://app?vid=4417582d-c2ca-40fe-a249-37e4da6d0b93","ios":"levelo://app?vid=4417582d-c2ca-40fe-a249-37e4da6d0b93"},"vehicle_type_id":"4","last_reported":1699099867,"current_range_meters":28800,"station_id":"ce4bgup2rcd13ifvqcn0","pricing_plan_id":"free"},{"bike_id":"9bd24e6b-d050-43f4-9959-beff66b48181","system_id":"levelo_inurba_marseille","lat":43.304606,"lon":5.379026,"is_reserved":false,"is_disabled":false,"rental_uris":{"android":"levelo://app?vid=9bd24e6b-d050-43f4-9959-beff66b48181","ios":"levelo://app?vid=9bd24e6b-d050-43f4-9959-beff66b48181"},"vehicle_type_id":"4","last_reported":1699099867,"current_range_meters":0,"station_id":"ce4bgup2rcd13ifvqcn0","pricing_plan_id":"free"},{"bike_id":"b6a276d3-d29e-4b07-a97c-62087890edd3","system_id":"levelo_inurba_marseille","lat":43.304606,"lon":5.379026,"is_reserved":false,"is_disabled":false,"rental_uris":{"android":"levelo://app?vid=b6a276d3-d29e-4b07-a97c-62087890edd3","ios":"levelo://app?vid=b6a276d3-d29e-4b07-a97c-62087890edd3"},"vehicle_type_id":"4","last_reported":1699099867,"current_range_meters":30800,"station_id":"ce4bgup2rcd13ifvqcn0","pricing_plan_id":"free"},{"bike_id":"b11f552e-259b-4d4f-b8a4-3f63dced67ab","system_id":"levelo_inurba_marseille","lat":43.30462,"lon":5.37912,"is_reserved":false,"is_disabled":false,"rental_uris":{"android":"levelo://app?vid=b11f552e-259b-4d4f-b8a4-3f63dced67ab","ios":"levelo://app?vid=b11f552e-259b-4d4f-b8a4-3f63dced67ab"},"vehicle_type_id":"4","last_reported":1699099867,"current_range_meters":31200,"station_id":"","pricing_plan_id":"free"},{"bike_id":"4901b8ea-6130-45af-94c0-47a6a29d4e25","system_id":"levelo_inurba_marseille","lat":43.304606,"lon":5.379026,"is_reserved":false,"is_disabled":false,"rental_uris":{"android":"levelo://app?vid=4901b8ea-6130-45af-94c0-47a6a29d4e25","ios":"levelo://app?vid=4901b8ea-6130-45af-94c0-47a6a29d4e25"},"vehicle_type_id":"4","last_reported":1699099867,"current_range_meters":20800,"station_id":"ce4bgup2rcd13ifvqcn0","pricing_plan_id":"free"},{"bike_id":"e8584f7f-3a22-4191-9ecd-5314ed574e4e","system_id":"levelo_inurba_marseille","lat":43.303586,"lon":5.377754,"is_reserved":false,"is_disabled":false,"rental_uris":{"android":"levelo://app?vid=e8584f7f-3a22-4191-9ecd-5314ed574e4e","ios":"levelo://app?vid=e8584f7f-3a22-4191-9ecd-5314ed574e4e"},"vehicle_type_id":"4","last_reported":1699099867,"current_range_meters":19600,"station_id":"","pricing_plan_id":"free"},{"bike_id":"95247232-f17f-4d83-8fb4-d23909f9060f","system_id":"levelo_inurba_marseille","lat":43.32482,"lon":5.36568,"is_reserved":false,"is_disabled":false,"rental_uris":{"android":"levelo://app?vid=95247232-f17f-4d83-8fb4-d23909f9060f","ios":"levelo://app?vid=95247232-f17f-4d83-8fb4-d23909f9060f"},"vehicle_type_id":"4","last_reported":1699099867,"current_range_meters":22800,"station_id":"ce4bhs12rcd13ifvqhvg","pricing_plan_id":"free"},{"bike_id":"c37a60ff-8992-4e74-8e8e-b094339c7ef0","system_id":"levelo_inurba_marseille","lat":43.32486,"lon":5.36586,"is_reserved":false,"is_disabled":false,"rental_uris":{"android":"levelo://app?vid=c37a60ff-8992-4e74-8e8e-b094339c7ef0","ios":"levelo://app?vid=c37a60ff-8992-4e74-8e8e-b094339c7ef0"},"vehicle_type_id":"4","last_reported":1699099867,"current_range_meters":19200,"station_id":"ce4bhs12rcd13ifvqhvg","pricing_plan_id":"free"},{"bike_id":"52338be5-afc6-4a0a-bd9c-1093bde5e89c","system_id":"levelo_inurba_marseille","lat":43.302784,"lon":5.377158,"is_reserved":false,"is_disabled":false,"rental_uris":{"android":"levelo://app?vid=52338be5-afc6-4a0a-bd9c-1093bde5e89c","ios":"levelo://app?vid=52338be5-afc6-4a0a-bd9c-1093bde5e89c"},"vehicle_type_id":"4","last_reported":1699099867,"current_range_meters":11600,"station_id":"ce4bguh2rcd13ifvqcj0","pricing_plan_id":"free"},{"bike_id":"3c5389a3-2050-4d1a-8b29-2cf60c8aa179","system_id":"levelo_inurba_marseille","lat":43.302784,"lon":5.377158,"is_reserved":false,"is_disabled":false,"rental_uris":{"android":"levelo://app?vid=3c5389a3-2050-4d1a-8b29-2cf60c8aa179","ios":"levelo://app?vid=3c5389a3-2050-4d1a-8b29-2cf60c8aa179"},"vehicle_type_id":"4","last_reported":1699099867,"current_range_meters":29200,"station_id":"ce4bguh2rcd13ifvqcj0","pricing_plan_id":"free"},{"bike_id":"9f0f0b2d-855f-48d1-8aed-2fd07751956d","system_id":"levelo_inurba_marseille","lat":43.302784,"lon":5.377158,"is_reserved":false,"is_disabled":false,"rental_uris":{"android":"levelo://app?vid=9f0f0b2d-855f-48d1-8aed-2fd07751956d","ios":"levelo://app?vid=9f0f0b2d-855f-48d1-8aed-2fd07751956d"},"vehicle_type_id":"4","last_reported":1699099867,"current_range_meters":31200,"station_id":"ce4bguh2rcd13ifvqcj0","pricing_plan_id":"free"},{"bike_id":"b3b86531-47a7-40e1-a5b2-c3d6184ddb90","system_id":"levelo_inurba_marseille","lat":43.302784,"lon":5.377158,"is_reserved":false,"is_disabled":false,"rental_uris":{"android":"levelo://app?vid=b3b86531-47a7-40e1-a5b2-c3d6184ddb90","ios":"levelo://app?vid=b3b86531-47a7-40e1-a5b2-c3d6184ddb90"},"vehicle_type_id":"4","last_reported":1699099867,"current_range_meters":18800,"station_id":"ce4bguh2rcd13ifvqcj0","pricing_plan_id":"free"},{"bike_id":"35f92502-7ca8-432d-b135-0f7c92eb19a0","system_id":"levelo_inurba_marseille","lat":43.30135,"lon":5.37418,"is_reserved":false,"is_disabled":false,"rental_uris":{"android":"levelo://app?vid=35f92502-7ca8-432d-b135-0f7c92eb19a0","ios":"levelo://app?vid=35f92502-7ca8-432d-b135-0f7c92eb19a0"},"vehicle_type_id":"4","last_reported":1699099867,"current_range_meters":17200,"station_id":"ce4bgs92rcd13ifvqcc0","pricing_plan_id":"free"},{"bike_id":"e1f7ed43-e13e-48ec-9b20-b936528506a0","system_id":"levelo_inurba_marseille","lat":43.301429,"lon":5.37413,"is_reserved":false,"is_disabled":false,"rental_uris":{"android":"levelo://app?vid=e1f7ed43-e13e-48ec-9b20-b936528506a0","ios":"levelo://app?vid=e1f7ed43-e13e-48ec-9b20-b936528506a0"},"vehicle_type_id":"4","last_reported":1699099867,"current_range_meters":31200,"station_id":"ce4bgs92rcd13ifvqcc0","pricing_plan_id":"free"},{"bike_id":"cde09343-cb34-42b4-bd82-ba3dc99ca7a9","system_id":"levelo_inurba_marseille","lat":43.31541,"lon":5.38404,"is_reserved":false,"is_disabled":false,"rental_uris":{"android":"levelo://app?vid=cde09343-cb34-42b4-bd82-ba3dc99ca7a9","ios":"levelo://app?vid=cde09343-cb34-42b4-bd82-ba3dc99ca7a9"},"vehicle_type_id":"4","last_reported":1699099867,"current_range_meters":12400,"station_id":"ce4bhqp2rcd13ifvqhng","pricing_plan_id":"free"},{"bike_id":"3f2c2093-4a23-4121-b50d-71f37016ef76","system_id":"levelo_inurba_marseille","lat":43.314811,"lon":5.373103,"is_reserved":false,"is_disabled":false,"rental_uris":{"android":"levelo://app?vid=3f2c2093-4a23-4121-b50d-71f37016ef76","ios":"levelo://app?vid=3f2c2093-4a23-4121-b50d-71f37016ef76"},"vehicle_type_id":"4","last_reported":1699099867,"current_range_meters":22800,"station_id":"ce4bgt12rcd13ifvqcd0","pricing_plan_id":"free"},{"bike_id":"466e9cff-4937-4b6c-b2fc-7157aaaede6c","system_id":"levelo_inurba_marseille","lat":43.299852,"lon":5.371833,"is_reserved":false,"is_disabled":false,"rental_uris":{"android":"levelo://app?vid=466e9cff-4937-4b6c-b2fc-7157aaaede6c","ios":"levelo://app?vid=466e9cff-4937-4b6c-b2fc-7157aaaede6c"},"vehicle_type_id":"4","last_reported":1699099867,"current_range_meters":16400,"station_id":"ce4bgh92rcd13ifvqb50","pricing_plan_id":"free"},{"bike_id":"5318d17b-4c00-4661-9ccf-9b115784b35c","system_id":"levelo_inurba_marseille","lat":43.299724,"lon":5.371829,"is_reserved":false,"is_disabled":false,"rental_uris":{"android":"levelo://app?vid=5318d17b-4c00-4661-9ccf-9b115784b35c","ios":"levelo://app?vid=5318d17b-4c00-4661-9ccf-9b115784b35c"},"vehicle_type_id":"4","last_reported":1699099867,"current_range_meters":6400,"station_id":"ce4bgr92rcd13ifvqc7g","pricing_plan_id":"free"},{"bike_id":"91e3bdfd-117a-4cf2-bbe7-46f5642c2133","system_id":"levelo_inurba_marseille","lat":43.299724,"lon":5.371829,"is_reserved":false,"is_disabled":false,"rental_uris":{"android":"levelo://app?vid=91e3bdfd-117a-4cf2-bbe7-46f5642c2133","ios":"levelo://app?vid=91e3bdfd-117a-4cf2-bbe7-46f5642c2133"},"vehicle_type_id":"4","last_reported":1699099867,"current_range_meters":22000,"station_id":"ce4bgr92rcd13ifvqc7g","pricing_plan_id":"free"},{"bike_id":"cd159c79-6c7c-4d72-b253-90144c3bbafb","system_id":"levelo_inurba_marseille","lat":43.299222,"lon":5.365554,"is_reserved":false,"is_disabled":false,"rental_uris":{"android":"levelo://app?vid=cd159c79-6c7c-4d72-b253-90144c3bbafb","ios":"levelo://app?vid=cd159c79-6c7c-4d72-b253-90144c3bbafb"},"vehicle_type_id":"4","last_reported":1699099867,"current_range_meters":22000,"station_id":"ce4bgm92rcd13ifvqbr0","pricing_plan_id":"free"},{"bike_id":"0e58520f-29fe-4427-b52c-4109c8134296","system_id":"levelo_inurba_marseille","lat":43.299724,"lon":5.371829,"is_reserved":false,"is_disabled":false,"rental_uris":{"android":"levelo://app?vid=0e58520f-29fe-4427-b52c-4109c8134296","ios":"levelo://app?vid=0e58520f-29fe-4427-b52c-4109c8134296"},"vehicle_type_id":"4","last_reported":1699099867,"current_range_meters":7200,"station_id":"ce4bgr92rcd13ifvqc7g","pricing_plan_id":"free"},{"bike_id":"13798473-9b1e-4c74-b8a6-2d19bc5c2515","system_id":"levelo_inurba_marseille","lat":43.29929,"lon":5.36541,"is_reserved":false,"is_disabled":false,"rental_uris":{"android":"levelo://app?vid=13798473-9b1e-4c74-b8a6-2d19bc5c2515","ios":"levelo://app?vid=13798473-9b1e-4c74-b8a6-2d19bc5c2515"},"vehicle_type_id":"4","last_reported":1699099867,"current_range_meters":21600,"station_id":"ce4bgm92rcd13ifvqbr0","pricing_plan_id":"free"},{"bike_id":"907482bd-ff7e-4a3c-85a4-404aa118ab26","system_id":"levelo_inurba_marseille","lat":43.299724,"lon":5.371829,"is_reserved":false,"is_disabled":false,"rental_uris":{"android":"levelo://app?vid=907482bd-ff7e-4a3c-85a4-404aa118ab26","ios":"levelo://app?vid=907482bd-ff7e-4a3c-85a4-404aa118ab26"},"vehicle_type_id":"4","last_reported":1699099867,"current_range_meters":28000,"station_id":"ce4bgr92rcd13ifvqc7g","pricing_plan_id":"free"},{"bike_id":"8a57593b-6d9b-4361-9553-e56debd4c60e","system_id":"levelo_inurba_marseille","lat":43.299724,"lon":5.371829,"is_reserved":false,"is_disabled":false,"rental_uris":{"android":"levelo://app?vid=8a57593b-6d9b-4361-9553-e56debd4c60e","ios":"levelo://app?vid=8a57593b-6d9b-4361-9553-e56debd4c60e"},"vehicle_type_id":"4","last_reported":1699099867,"current_range_meters":31200,"station_id":"ce4bgr92rcd13ifvqc7g","pricing_plan_id":"free"},{"bike_id":"3fa8d174-7f1c-4c1b-8399-85ab580d72cf","system_id":"levelo_inurba_marseille","lat":43.299724,"lon":5.371829,"is_reserved":false,"is_disabled":false,"rental_uris":{"android":"levelo://app?vid=3fa8d174-7f1c-4c1b-8399-85ab580d72cf","ios":"levelo://app?vid=3fa8d174-7f1c-4c1b-8399-85ab580d72cf"},"vehicle_type_id":"4","last_reported":1699099867,"current_range_meters":24000,"station_id":"ce4bgr92rcd13ifvqc7g","pricing_plan_id":"free"},{"bike_id":"1c2c73ff-4601-4f33-b97f-da95bc589609","system_id":"levelo_inurba_marseille","lat":43.32183,"lon":5.38237,"is_reserved":false,"is_disabled":false,"rental_uris":{"android":"levelo://app?vid=1c2c73ff-4601-4f33-b97f-da95bc589609","ios":"levelo://app?vid=1c2c73ff-4601-4f33-b97f-da95bc589609"},"vehicle_type_id":"4","last_reported":1699099867,"current_range_meters":17600,"station_id":"","pricing_plan_id":"free"},{"bike_id":"cffe800b-8e46-4367-92e9-d9a0f2cba0f2","system_id":"levelo_inurba_marseille","lat":43.299626,"lon":5.375372,"is_reserved":false,"is_disabled":false,"rental_uris":{"android":"levelo://app?vid=cffe800b-8e46-4367-92e9-d9a0f2cba0f2","ios":"levelo://app?vid=cffe800b-8e46-4367-92e9-d9a0f2cba0f2"},"vehicle_type_id":"4","last_reported":1699099867,"current_range_meters":26400,"station_id":"ce4bgjh2rcd13ifvqbg0","pricing_plan_id":"free"},{"bike_id":"c7265010-5796-4074-9906-17003f7574f3","system_id":"levelo_inurba_marseille","lat":43.29852,"lon":5.36284,"is_reserved":false,"is_disabled":false,"rental_uris":{"android":"levelo://app?vid=c7265010-5796-4074-9906-17003f7574f3","ios":"levelo://app?vid=c7265010-5796-4074-9906-17003f7574f3"},"vehicle_type_id":"4","last_reported":1699099867,"current_range_meters":19200,"station_id":"ce4bgpp2rcd13ifvqc3g","pricing_plan_id":"free"},{"bike_id":"abd67fb4-bf98-4384-b12b-48e9ead60053","system_id":"levelo_inurba_marseille","lat":43.298433,"lon":5.362774,"is_reserved":false,"is_disabled":false,"rental_uris":{"android":"levelo://app?vid=abd67fb4-bf98-4384-b12b-48e9ead60053","ios":"levelo://app?vid=abd67fb4-bf98-4384-b12b-48e9ead60053"},"vehicle_type_id":"4","last_reported":1699099867,"current_range_meters":23200,"station_id":"ce4bgpp2rcd13ifvqc3g","pricing_plan_id":"free"},{"bike_id":"04ae54d5-ef7e-4c55-ac13-22578d29c2d7","system_id":"levelo_inurba_marseille","lat":43.305364,"lon":5.384119,"is_reserved":false,"is_disabled":false,"rental_uris":{"android":"levelo://app?vid=04ae54d5-ef7e-4c55-ac13-22578d29c2d7","ios":"levelo://app?vid=04ae54d5-ef7e-4c55-ac13-22578d29c2d7"},"vehicle_type_id":"4","last_reported":1699099867,"current_range_meters":30400,"station_id":"ce4bgg92rcd13ifvqb30","pricing_plan_id":"free"},{"bike_id":"c1d68d86-a3a8-45fb-a3d4-8cccf38a71d6","system_id":"levelo_inurba_marseille","lat":43.298433,"lon":5.362774,"is_reserved":false,"is_disabled":false,"rental_uris":{"android":"levelo://app?vid=c1d68d86-a3a8-45fb-a3d4-8cccf38a71d6","ios":"levelo://app?vid=c1d68d86-a3a8-45fb-a3d4-8cccf38a71d6"},"vehicle_type_id":"4","last_reported":1699099867,"current_range_meters":24800,"station_id":"ce4bgpp2rcd13ifvqc3g","pricing_plan_id":"free"},{"bike_id":"e6009ca9-2d97-4247-82b7-3b2fad73d90c","system_id":"levelo_inurba_marseille","lat":43.298433,"lon":5.362774,"is_reserved":false,"is_disabled":false,"rental_uris":{"android":"levelo://app?vid=e6009ca9-2d97-4247-82b7-3b2fad73d90c","ios":"levelo://app?vid=e6009ca9-2d97-4247-82b7-3b2fad73d90c"},"vehicle_type_id":"4","last_reported":1699099867,"current_range_meters":30000,"station_id":"ce4bgpp2rcd13ifvqc3g","pricing_plan_id":"free"},{"bike_id":"4fc6eca6-4bdb-427b-a48a-621c6a90b0e0","system_id":"levelo_inurba_marseille","lat":43.298433,"lon":5.362774,"is_reserved":false,"is_disabled":false,"rental_uris":{"android":"levelo://app?vid=4fc6eca6-4bdb-427b-a48a-621c6a90b0e0","ios":"levelo://app?vid=4fc6eca6-4bdb-427b-a48a-621c6a90b0e0"},"vehicle_type_id":"4","last_reported":1699099867,"current_range_meters":23200,"station_id":"ce4bgpp2rcd13ifvqc3g","pricing_plan_id":"free"},{"bike_id":"1da880c7-b22f-4144-8bd6-cb28d4e389ec","system_id":"levelo_inurba_marseille","lat":43.298433,"lon":5.362774,"is_reserved":false,"is_disabled":false,"rental_uris":{"android":"levelo://app?vid=1da880c7-b22f-4144-8bd6-cb28d4e389ec","ios":"levelo://app?vid=1da880c7-b22f-4144-8bd6-cb28d4e389ec"},"vehicle_type_id":"4","last_reported":1699099867,"current_range_meters":31200,"station_id":"ce4bgpp2rcd13ifvqc3g","pricing_plan_id":"free"},{"bike_id":"11cf951a-aac9-4ec1-a90b-0164a8d41c2f","system_id":"levelo_inurba_marseille","lat":43.305364,"lon":5.384119,"is_reserved":false,"is_disabled":false,"rental_uris":{"android":"levelo://app?vid=11cf951a-aac9-4ec1-a90b-0164a8d41c2f","ios":"levelo://app?vid=11cf951a-aac9-4ec1-a90b-0164a8d41c2f"},"vehicle_type_id":"4","last_reported":1699099867,"current_range_meters":31200,"station_id":"ce4bgg92rcd13ifvqb30","pricing_plan_id":"free"},{"bike_id":"c6122393-97c1-4d7e-bcd9-71e2875759ce","system_id":"levelo_inurba_marseille","lat":43.298433,"lon":5.362774,"is_reserved":false,"is_disabled":false,"rental_uris":{"android":"levelo://app?vid=c6122393-97c1-4d7e-bcd9-71e2875759ce","ios":"levelo://app?vid=c6122393-97c1-4d7e-bcd9-71e2875759ce"},"vehicle_type_id":"4","last_reported":1699099867,"current_range_meters":16000,"station_id":"ce4bgpp2rcd13ifvqc3g","pricing_plan_id":"free"},{"bike_id":"0c5a515a-46ab-4d7a-aa61-cb869c50408d","system_id":"levelo_inurba_marseille","lat":43.311722,"lon":5.387247,"is_reserved":false,"is_disabled":false,"rental_uris":{"android":"levelo://app?vid=0c5a515a-46ab-4d7a-aa61-cb869c50408d","ios":"levelo://app?vid=0c5a515a-46ab-4d7a-aa61-cb869c50408d"},"vehicle_type_id":"4","last_reported":1699099867,"current_range_meters":20400,"station_id":"ce4bgv12rcd13ifvqcp0","pricing_plan_id":"free"},{"bike_id":"eadb5cc6-a362-455d-a7a2-f02ecb8f2e3c","system_id":"levelo_inurba_marseille","lat":43.297794,"lon":5.370888,"is_reserved":false,"is_disabled":false,"rental_uris":{"android":"levelo://app?vid=eadb5cc6-a362-455d-a7a2-f02ecb8f2e3c","ios":"levelo://app?vid=eadb5cc6-a362-455d-a7a2-f02ecb8f2e3c"},"vehicle_type_id":"4","last_reported":1699099867,"current_range_meters":25600,"station_id":"ce4bgop2rcd13ifvqc1g","pricing_plan_id":"free"},{"bike_id":"f0fc3206-c284-4a81-98a9-86fe56f8ca77","system_id":"levelo_inurba_marseille","lat":43.297794,"lon":5.370888,"is_reserved":false,"is_disabled":false,"rental_uris":{"android":"levelo://app?vid=f0fc3206-c284-4a81-98a9-86fe56f8ca77","ios":"levelo://app?vid=f0fc3206-c284-4a81-98a9-86fe56f8ca77"},"vehicle_type_id":"4","last_reported":1699099867,"current_range_meters":26000,"station_id":"ce4bgop2rcd13ifvqc1g","pricing_plan_id":"free"},{"bike_id":"7cfe6f56-2bc3-46fe-ab24-3640ba957c6a","system_id":"levelo_inurba_marseille","lat":43.297774,"lon":5.370875,"is_reserved":false,"is_disabled":false,"rental_uris":{"android":"levelo://app?vid=7cfe6f56-2bc3-46fe-ab24-3640ba957c6a","ios":"levelo://app?vid=7cfe6f56-2bc3-46fe-ab24-3640ba957c6a"},"vehicle_type_id":"4","last_reported":1699099867,"current_range_meters":24800,"station_id":"ce4bgop2rcd13ifvqc1g","pricing_plan_id":"free"},{"bike_id":"2890ccf2-3841-41f3-9ac6-493ca0d72df1","system_id":"levelo_inurba_marseille","lat":43.297774,"lon":5.370875,"is_reserved":false,"is_disabled":false,"rental_uris":{"android":"levelo://app?vid=2890ccf2-3841-41f3-9ac6-493ca0d72df1","ios":"levelo://app?vid=2890ccf2-3841-41f3-9ac6-493ca0d72df1"},"vehicle_type_id":"4","last_reported":1699099867,"current_range_meters":31200,"station_id":"ce4bgop2rcd13ifvqc1g","pricing_plan_id":"free"},{"bike_id":"ee04e5cc-451d-44b6-bca0-cfc749a45964","system_id":"levelo_inurba_marseille","lat":43.322872,"lon":5.382756,"is_reserved":false,"is_disabled":false,"rental_uris":{"android":"levelo://app?vid=ee04e5cc-451d-44b6-bca0-cfc749a45964","ios":"levelo://app?vid=ee04e5cc-451d-44b6-bca0-cfc749a45964"},"vehicle_type_id":"4","last_reported":1699099867,"current_range_meters":27600,"station_id":"ce4bhr12rcd13ifvqhqg","pricing_plan_id":"free"},{"bike_id":"b697629d-425e-4f98-b283-fdda312f1cec","system_id":"levelo_inurba_marseille","lat":43.322872,"lon":5.382756,"is_reserved":false,"is_disabled":false,"rental_uris":{"android":"levelo://app?vid=b697629d-425e-4f98-b283-fdda312f1cec","ios":"levelo://app?vid=b697629d-425e-4f98-b283-fdda312f1cec"},"vehicle_type_id":"4","last_reported":1699099867,"current_range_meters":28000,"station_id":"ce4bhr12rcd13ifvqhqg","pricing_plan_id":"free"},{"bike_id":"c9428514-9197-4976-812b-d61139ef9187","system_id":"levelo_inurba_marseille","lat":43.318846,"lon":5.386473,"is_reserved":false,"is_disabled":false,"rental_uris":{"android":"levelo://app?vid=c9428514-9197-4976-812b-d61139ef9187","ios":"levelo://app?vid=c9428514-9197-4976-812b-d61139ef9187"},"vehicle_type_id":"4","last_reported":1699099867,"current_range_meters":9200,"station_id":"","pricing_plan_id":"free"},{"bike_id":"5c14b4e6-da06-4ab2-b6ba-b1edddc68652","system_id":"levelo_inurba_marseille","lat":43.32827,"lon":5.36686,"is_reserved":false,"is_disabled":false,"rental_uris":{"android":"levelo://app?vid=5c14b4e6-da06-4ab2-b6ba-b1edddc68652","ios":"levelo://app?vid=5c14b4e6-da06-4ab2-b6ba-b1edddc68652"},"vehicle_type_id":"4","last_reported":1699099867,"current_range_meters":4800,"station_id":"ce4bhs92rcd13ifvqi0g","pricing_plan_id":"free"},{"bike_id":"d2255325-c858-4507-8c11-bdd56a1224e0","system_id":"levelo_inurba_marseille","lat":43.32827,"lon":5.36678,"is_reserved":false,"is_disabled":false,"rental_uris":{"android":"levelo://app?vid=d2255325-c858-4507-8c11-bdd56a1224e0","ios":"levelo://app?vid=d2255325-c858-4507-8c11-bdd56a1224e0"},"vehicle_type_id":"4","last_reported":1699099867,"current_range_meters":3600,"station_id":"ce4bhs92rcd13ifvqi0g","pricing_plan_id":"free"},{"bike_id":"21426a0d-604c-4933-9dde-aad2feebdc38","system_id":"levelo_inurba_marseille","lat":43.32828,"lon":5.36688,"is_reserved":false,"is_disabled":false,"rental_uris":{"android":"levelo://app?vid=21426a0d-604c-4933-9dde-aad2feebdc38","ios":"levelo://app?vid=21426a0d-604c-4933-9dde-aad2feebdc38"},"vehicle_type_id":"4","last_reported":1699099867,"current_range_meters":400,"station_id":"ce4bhs92rcd13ifvqi0g","pricing_plan_id":"free"},{"bike_id":"8ddce3be-8c56-444b-96e9-566f4ce84b5b","system_id":"levelo_inurba_marseille","lat":43.32829,"lon":5.36691,"is_reserved":false,"is_disabled":false,"rental_uris":{"android":"levelo://app?vid=8ddce3be-8c56-444b-96e9-566f4ce84b5b","ios":"levelo://app?vid=8ddce3be-8c56-444b-96e9-566f4ce84b5b"},"vehicle_type_id":"4","last_reported":1699099867,"current_range_meters":0,"station_id":"ce4bhs92rcd13ifvqi0g","pricing_plan_id":"free"},{"bike_id":"260c645f-b280-4251-8fb9-e89c0f995509","system_id":"levelo_inurba_marseille","lat":43.3283,"lon":5.3669,"is_reserved":false,"is_disabled":false,"rental_uris":{"android":"levelo://app?vid=260c645f-b280-4251-8fb9-e89c0f995509","ios":"levelo://app?vid=260c645f-b280-4251-8fb9-e89c0f995509"},"vehicle_type_id":"4","last_reported":1699099867,"current_range_meters":10800,"station_id":"ce4bhs92rcd13ifvqi0g","pricing_plan_id":"free"},{"bike_id":"8d5f007f-7f67-4a20-bfdf-9f835de801ab","system_id":"levelo_inurba_marseille","lat":43.297163,"lon":5.365866,"is_reserved":false,"is_disabled":false,"rental_uris":{"android":"levelo://app?vid=8d5f007f-7f67-4a20-bfdf-9f835de801ab","ios":"levelo://app?vid=8d5f007f-7f67-4a20-bfdf-9f835de801ab"},"vehicle_type_id":"4","last_reported":1699099867,"current_range_meters":17200,"station_id":"ce4bgn12rcd13ifvqbt0","pricing_plan_id":"free"},{"bike_id":"67bb7dbe-50ea-4249-bc98-d0ad4814b4a6","system_id":"levelo_inurba_marseille","lat":43.321453,"lon":5.385595,"is_reserved":false,"is_disabled":false,"rental_uris":{"android":"levelo://app?vid=67bb7dbe-50ea-4249-bc98-d0ad4814b4a6","ios":"levelo://app?vid=67bb7dbe-50ea-4249-bc98-d0ad4814b4a6"},"vehicle_type_id":"4","last_reported":1699099867,"current_range_meters":18800,"station_id":"","pricing_plan_id":"free"},{"bike_id":"8ac57052-c71d-4509-ae4a-bb792e04cbf8","system_id":"levelo_inurba_marseille","lat":43.2968,"lon":5.37291,"is_reserved":false,"is_disabled":false,"rental_uris":{"android":"levelo://app?vid=8ac57052-c71d-4509-ae4a-bb792e04cbf8","ios":"levelo://app?vid=8ac57052-c71d-4509-ae4a-bb792e04cbf8"},"vehicle_type_id":"4","last_reported":1699099867,"current_range_meters":28400,"station_id":"ce4bgk12rcd13ifvqbj0","pricing_plan_id":"free"},{"bike_id":"ac64cfce-5505-455a-9537-62af5dd3a90a","system_id":"levelo_inurba_marseille","lat":43.32355,"lon":5.38416,"is_reserved":false,"is_disabled":false,"rental_uris":{"android":"levelo://app?vid=ac64cfce-5505-455a-9537-62af5dd3a90a","ios":"levelo://app?vid=ac64cfce-5505-455a-9537-62af5dd3a90a"},"vehicle_type_id":"4","last_reported":1699099867,"current_range_meters":20800,"station_id":"","pricing_plan_id":"free"},{"bike_id":"2df52054-3b03-447f-b0ce-b1cc05405d80","system_id":"levelo_inurba_marseille","lat":43.296131,"lon":5.370791,"is_reserved":false,"is_disabled":false,"rental_uris":{"android":"levelo://app?vid=2df52054-3b03-447f-b0ce-b1cc05405d80","ios":"levelo://app?vid=2df52054-3b03-447f-b0ce-b1cc05405d80"},"vehicle_type_id":"4","last_reported":1699099867,"current_range_meters":12800,"station_id":"ce4bgnh2rcd13ifvqc0g","pricing_plan_id":"free"},{"bike_id":"dd512a8d-d790-4dd0-83f2-a1e03261126c","system_id":"levelo_inurba_marseille","lat":43.296131,"lon":5.370791,"is_reserved":false,"is_disabled":false,"rental_uris":{"android":"levelo://app?vid=dd512a8d-d790-4dd0-83f2-a1e03261126c","ios":"levelo://app?vid=dd512a8d-d790-4dd0-83f2-a1e03261126c"},"vehicle_type_id":"4","last_reported":1699099867,"current_range_meters":30400,"station_id":"ce4bgnh2rcd13ifvqc0g","pricing_plan_id":"free"},{"bike_id":"8d7b4160-04ff-49a2-959b-e5d6a726646e","system_id":"levelo_inurba_marseille","lat":43.296131,"lon":5.370791,"is_reserved":false,"is_disabled":false,"rental_uris":{"android":"levelo://app?vid=8d7b4160-04ff-49a2-959b-e5d6a726646e","ios":"levelo://app?vid=8d7b4160-04ff-49a2-959b-e5d6a726646e"},"vehicle_type_id":"4","last_reported":1699099867,"current_range_meters":11600,"station_id":"ce4bgnh2rcd13ifvqc0g","pricing_plan_id":"free"},{"bike_id":"2b5e5e4a-cce6-483f-b6e7-3ca90937c35f","system_id":"levelo_inurba_marseille","lat":43.296129,"lon":5.370777,"is_reserved":false,"is_disabled":false,"rental_uris":{"android":"levelo://app?vid=2b5e5e4a-cce6-483f-b6e7-3ca90937c35f","ios":"levelo://app?vid=2b5e5e4a-cce6-483f-b6e7-3ca90937c35f"},"vehicle_type_id":"4","last_reported":1699099867,"current_range_meters":31200,"station_id":"ce4bgnh2rcd13ifvqc0g","pricing_plan_id":"free"},{"bike_id":"5a3e4389-a6dc-483b-abd6-709292f6e071","system_id":"levelo_inurba_marseille","lat":43.29589,"lon":5.36707,"is_reserved":false,"is_disabled":false,"rental_uris":{"android":"levelo://app?vid=5a3e4389-a6dc-483b-abd6-709292f6e071","ios":"levelo://app?vid=5a3e4389-a6dc-483b-abd6-709292f6e071"},"vehicle_type_id":"4","last_reported":1699099867,"current_range_meters":15200,"station_id":"ce4bgph2rcd13ifvqc2g","pricing_plan_id":"free"},{"bike_id":"c2237100-21cc-4f0e-ab60-ac4ca6dcb8af","system_id":"levelo_inurba_marseille","lat":43.29573,"lon":5.367355,"is_reserved":false,"is_disabled":false,"rental_uris":{"android":"levelo://app?vid=c2237100-21cc-4f0e-ab60-ac4ca6dcb8af","ios":"levelo://app?vid=c2237100-21cc-4f0e-ab60-ac4ca6dcb8af"},"vehicle_type_id":"4","last_reported":1699099867,"current_range_meters":31200,"station_id":"ce4bgph2rcd13ifvqc2g","pricing_plan_id":"free"},{"bike_id":"25f25d8d-4779-4e74-9ce9-a2ea2fbb32fc","system_id":"levelo_inurba_marseille","lat":43.296131,"lon":5.370791,"is_reserved":false,"is_disabled":false,"rental_uris":{"android":"levelo://app?vid=25f25d8d-4779-4e74-9ce9-a2ea2fbb32fc","ios":"levelo://app?vid=25f25d8d-4779-4e74-9ce9-a2ea2fbb32fc"},"vehicle_type_id":"4","last_reported":1699099867,"current_range_meters":13600,"station_id":"ce4bgnh2rcd13ifvqc0g","pricing_plan_id":"free"},{"bike_id":"6a545dbd-8af1-4bd4-bcf8-9cbce39f4d3c","system_id":"levelo_inurba_marseille","lat":43.29619,"lon":5.37154,"is_reserved":false,"is_disabled":false,"rental_uris":{"android":"levelo://app?vid=6a545dbd-8af1-4bd4-bcf8-9cbce39f4d3c","ios":"levelo://app?vid=6a545dbd-8af1-4bd4-bcf8-9cbce39f4d3c"},"vehicle_type_id":"4","last_reported":1699099867,"current_range_meters":30400,"station_id":"ce4bgnh2rcd13ifvqc0g","pricing_plan_id":"free"},{"bike_id":"fc5c1bc3-e89a-4b7c-8fb0-df55f7234849","system_id":"levelo_inurba_marseille","lat":43.296131,"lon":5.370791,"is_reserved":false,"is_disabled":false,"rental_uris":{"android":"levelo://app?vid=fc5c1bc3-e89a-4b7c-8fb0-df55f7234849","ios":"levelo://app?vid=fc5c1bc3-e89a-4b7c-8fb0-df55f7234849"},"vehicle_type_id":"4","last_reported":1699099867,"current_range_meters":14400,"station_id":"ce4bgnh2rcd13ifvqc0g","pricing_plan_id":"free"},{"bike_id":"52f63877-faa6-4f5d-9f7b-28c987b7b6d7","system_id":"levelo_inurba_marseille","lat":43.29573,"lon":5.367355,"is_reserved":false,"is_disabled":false,"rental_uris":{"android":"levelo://app?vid=52f63877-faa6-4f5d-9f7b-28c987b7b6d7","ios":"levelo://app?vid=52f63877-faa6-4f5d-9f7b-28c987b7b6d7"},"vehicle_type_id":"4","last_reported":1699099867,"current_range_meters":31200,"station_id":"ce4bgph2rcd13ifvqc2g","pricing_plan_id":"free"},{"bike_id":"feef5085-10d8-45d1-bc70-0044a0306571","system_id":"levelo_inurba_marseille","lat":43.29573,"lon":5.367355,"is_reserved":false,"is_disabled":false,"rental_uris":{"android":"levelo://app?vid=feef5085-10d8-45d1-bc70-0044a0306571","ios":"levelo://app?vid=feef5085-10d8-45d1-bc70-0044a0306571"},"vehicle_type_id":"4","last_reported":1699099867,"current_range_meters":26000,"station_id":"ce4bgph2rcd13ifvqc2g","pricing_plan_id":"free"},{"bike_id":"1eaebebe-41cb-4472-be1d-a3b873eece35","system_id":"levelo_inurba_marseille","lat":43.29573,"lon":5.367355,"is_reserved":false,"is_disabled":false,"rental_uris":{"android":"levelo://app?vid=1eaebebe-41cb-4472-be1d-a3b873eece35","ios":"levelo://app?vid=1eaebebe-41cb-4472-be1d-a3b873eece35"},"vehicle_type_id":"4","last_reported":1699099867,"current_range_meters":25200,"station_id":"ce4bgph2rcd13ifvqc2g","pricing_plan_id":"free"},{"bike_id":"212028a8-cad7-4e65-9114-319ee84dab9e","system_id":"levelo_inurba_marseille","lat":43.296921,"lon":5.376579,"is_reserved":false,"is_disabled":false,"rental_uris":{"android":"levelo://app?vid=212028a8-cad7-4e65-9114-319ee84dab9e","ios":"levelo://app?vid=212028a8-cad7-4e65-9114-319ee84dab9e"},"vehicle_type_id":"4","last_reported":1699099867,"current_range_meters":31200,"station_id":"ce4bgkh2rcd13ifvqbl0","pricing_plan_id":"free"},{"bike_id":"1ad66ffa-91c6-4950-84a5-e3010291212d","system_id":"levelo_inurba_marseille","lat":43.29732,"lon":5.37683,"is_reserved":false,"is_disabled":false,"rental_uris":{"android":"levelo://app?vid=1ad66ffa-91c6-4950-84a5-e3010291212d","ios":"levelo://app?vid=1ad66ffa-91c6-4950-84a5-e3010291212d"},"vehicle_type_id":"4","last_reported":1699099867,"current_range_meters":26400,"station_id":"ce4bgkh2rcd13ifvqbl0","pricing_plan_id":"free"},{"bike_id":"cf2060ed-324c-46f6-bfc0-f6dd7ccff49f","system_id":"levelo_inurba_marseille","lat":43.296921,"lon":5.376579,"is_reserved":false,"is_disabled":false,"rental_uris":{"android":"levelo://app?vid=cf2060ed-324c-46f6-bfc0-f6dd7ccff49f","ios":"levelo://app?vid=cf2060ed-324c-46f6-bfc0-f6dd7ccff49f"},"vehicle_type_id":"4","last_reported":1699099867,"current_range_meters":31600,"station_id":"ce4bgkh2rcd13ifvqbl0","pricing_plan_id":"free"},{"bike_id":"29ceb8b9-8bff-43b3-a6a6-be2dfcf5e7ec","system_id":"levelo_inurba_marseille","lat":43.29726,"lon":5.37683,"is_reserved":false,"is_disabled":false,"rental_uris":{"android":"levelo://app?vid=29ceb8b9-8bff-43b3-a6a6-be2dfcf5e7ec","ios":"levelo://app?vid=29ceb8b9-8bff-43b3-a6a6-be2dfcf5e7ec"},"vehicle_type_id":"4","last_reported":1699099867,"current_range_meters":23200,"station_id":"ce4bgkh2rcd13ifvqbl0","pricing_plan_id":"free"},{"bike_id":"61cf8df7-773a-4342-9472-15f9fd5ef87f","system_id":"levelo_inurba_marseille","lat":43.29726,"lon":5.37688,"is_reserved":false,"is_disabled":false,"rental_uris":{"android":"levelo://app?vid=61cf8df7-773a-4342-9472-15f9fd5ef87f","ios":"levelo://app?vid=61cf8df7-773a-4342-9472-15f9fd5ef87f"},"vehicle_type_id":"4","last_reported":1699099867,"current_range_meters":29200,"station_id":"ce4bgkh2rcd13ifvqbl0","pricing_plan_id":"free"},{"bike_id":"11e235e8-5666-4c44-a75b-d867a89e9123","system_id":"levelo_inurba_marseille","lat":43.29725,"lon":5.37686,"is_reserved":false,"is_disabled":false,"rental_uris":{"android":"levelo://app?vid=11e235e8-5666-4c44-a75b-d867a89e9123","ios":"levelo://app?vid=11e235e8-5666-4c44-a75b-d867a89e9123"},"vehicle_type_id":"4","last_reported":1699099867,"current_range_meters":31200,"station_id":"ce4bgkh2rcd13ifvqbl0","pricing_plan_id":"free"},{"bike_id":"f85a6667-bc26-4a3d-8c2f-6803b87c6f87","system_id":"levelo_inurba_marseille","lat":43.29726,"lon":5.37689,"is_reserved":false,"is_disabled":false,"rental_uris":{"android":"levelo://app?vid=f85a6667-bc26-4a3d-8c2f-6803b87c6f87","ios":"levelo://app?vid=f85a6667-bc26-4a3d-8c2f-6803b87c6f87"},"vehicle_type_id":"4","last_reported":1699099867,"current_range_meters":2400,"station_id":"ce4bgkh2rcd13ifvqbl0","pricing_plan_id":"free"},{"bike_id":"cabf98be-3010-4be2-849d-bee00f40e5f8","system_id":"levelo_inurba_marseille","lat":43.296921,"lon":5.376579,"is_reserved":false,"is_disabled":false,"rental_uris":{"android":"levelo://app?vid=cabf98be-3010-4be2-849d-bee00f40e5f8","ios":"levelo://app?vid=cabf98be-3010-4be2-849d-bee00f40e5f8"},"vehicle_type_id":"4","last_reported":1699099867,"current_range_meters":22400,"station_id":"ce4bgkh2rcd13ifvqbl0","pricing_plan_id":"free"},{"bike_id":"7d7eadf7-b433-4eb5-9355-9f00dff78b5d","system_id":"levelo_inurba_marseille","lat":43.299028,"lon":5.381509,"is_reserved":false,"is_disabled":false,"rental_uris":{"android":"levelo://app?vid=7d7eadf7-b433-4eb5-9355-9f00dff78b5d","ios":"levelo://app?vid=7d7eadf7-b433-4eb5-9355-9f00dff78b5d"},"vehicle_type_id":"4","last_reported":1699099867,"current_range_meters":29200,"station_id":"ce4bgj12rcd13ifvqbc0","pricing_plan_id":"free"},{"bike_id":"d0c34c74-b1c3-49e7-9e0b-3b5d520ee506","system_id":"levelo_inurba_marseille","lat":43.2971,"lon":5.37684,"is_reserved":false,"is_disabled":false,"rental_uris":{"android":"levelo://app?vid=d0c34c74-b1c3-49e7-9e0b-3b5d520ee506","ios":"levelo://app?vid=d0c34c74-b1c3-49e7-9e0b-3b5d520ee506"},"vehicle_type_id":"4","last_reported":1699099867,"current_range_meters":21600,"station_id":"ce4bgkh2rcd13ifvqbl0","pricing_plan_id":"free"},{"bike_id":"c7a533ae-daca-408f-8c16-3d4fb43dc31b","system_id":"levelo_inurba_marseille","lat":43.29714,"lon":5.37696,"is_reserved":false,"is_disabled":false,"rental_uris":{"android":"levelo://app?vid=c7a533ae-daca-408f-8c16-3d4fb43dc31b","ios":"levelo://app?vid=c7a533ae-daca-408f-8c16-3d4fb43dc31b"},"vehicle_type_id":"4","last_reported":1699099867,"current_range_meters":10400,"station_id":"ce4bgkh2rcd13ifvqbl0","pricing_plan_id":"free"},{"bike_id":"f8e63670-fd97-411a-b957-af4a069bae7e","system_id":"levelo_inurba_marseille","lat":43.296921,"lon":5.376579,"is_reserved":false,"is_disabled":false,"rental_uris":{"android":"levelo://app?vid=f8e63670-fd97-411a-b957-af4a069bae7e","ios":"levelo://app?vid=f8e63670-fd97-411a-b957-af4a069bae7e"},"vehicle_type_id":"4","last_reported":1699099867,"current_range_meters":12000,"station_id":"ce4bgkh2rcd13ifvqbl0","pricing_plan_id":"free"},{"bike_id":"f7d8d10f-bb84-427c-b913-93b688e69b52","system_id":"levelo_inurba_marseille","lat":43.309589,"lon":5.390258,"is_reserved":false,"is_disabled":false,"rental_uris":{"android":"levelo://app?vid=f7d8d10f-bb84-427c-b913-93b688e69b52","ios":"levelo://app?vid=f7d8d10f-bb84-427c-b913-93b688e69b52"},"vehicle_type_id":"4","last_reported":1699099867,"current_range_meters":28400,"station_id":"ce4bgup2rcd13ifvqco0","pricing_plan_id":"free"},{"bike_id":"756d1fdb-396e-464b-b5d2-c35adee67fbe","system_id":"levelo_inurba_marseille","lat":43.29708,"lon":5.37701,"is_reserved":false,"is_disabled":false,"rental_uris":{"android":"levelo://app?vid=756d1fdb-396e-464b-b5d2-c35adee67fbe","ios":"levelo://app?vid=756d1fdb-396e-464b-b5d2-c35adee67fbe"},"vehicle_type_id":"4","last_reported":1699099867,"current_range_meters":15200,"station_id":"ce4bgkh2rcd13ifvqbl0","pricing_plan_id":"free"},{"bike_id":"b1ace2f6-9ef9-4661-8c3b-0eab896d8e19","system_id":"levelo_inurba_marseille","lat":43.309589,"lon":5.390258,"is_reserved":false,"is_disabled":false,"rental_uris":{"android":"levelo://app?vid=b1ace2f6-9ef9-4661-8c3b-0eab896d8e19","ios":"levelo://app?vid=b1ace2f6-9ef9-4661-8c3b-0eab896d8e19"},"vehicle_type_id":"4","last_reported":1699099867,"current_range_meters":26400,"station_id":"ce4bgup2rcd13ifvqco0","pricing_plan_id":"free"},{"bike_id":"549077a0-761c-4c9a-8ca8-ece096372dfe","system_id":"levelo_inurba_marseille","lat":43.29686,"lon":5.37679,"is_reserved":false,"is_disabled":false,"rental_uris":{"android":"levelo://app?vid=549077a0-761c-4c9a-8ca8-ece096372dfe","ios":"levelo://app?vid=549077a0-761c-4c9a-8ca8-ece096372dfe"},"vehicle_type_id":"4","last_reported":1699099867,"current_range_meters":17600,"station_id":"ce4bgkh2rcd13ifvqbl0","pricing_plan_id":"free"},{"bike_id":"0e3f1af6-b748-4eb6-9673-b2f73a826ea1","system_id":"levelo_inurba_marseille","lat":43.298037,"lon":5.381066,"is_reserved":false,"is_disabled":false,"rental_uris":{"android":"levelo://app?vid=0e3f1af6-b748-4eb6-9673-b2f73a826ea1","ios":"levelo://app?vid=0e3f1af6-b748-4eb6-9673-b2f73a826ea1"},"vehicle_type_id":"4","last_reported":1699099867,"current_range_meters":28400,"station_id":"ce4bgip2rcd13ifvqbb0","pricing_plan_id":"free"},{"bike_id":"ebd9f008-a8d1-47ad-be18-1aa7e48fe196","system_id":"levelo_inurba_marseille","lat":43.295748,"lon":5.37522,"is_reserved":false,"is_disabled":false,"rental_uris":{"android":"levelo://app?vid=ebd9f008-a8d1-47ad-be18-1aa7e48fe196","ios":"levelo://app?vid=ebd9f008-a8d1-47ad-be18-1aa7e48fe196"},"vehicle_type_id":"4","last_reported":1699099867,"current_range_meters":23200,"station_id":"ce4bgh92rcd13ifvqb50","pricing_plan_id":"free"},{"bike_id":"1ea5af82-72db-4a40-bff6-6a27bb67f8ef","system_id":"levelo_inurba_marseille","lat":43.295748,"lon":5.37522,"is_reserved":false,"is_disabled":false,"rental_uris":{"android":"levelo://app?vid=1ea5af82-72db-4a40-bff6-6a27bb67f8ef","ios":"levelo://app?vid=1ea5af82-72db-4a40-bff6-6a27bb67f8ef"},"vehicle_type_id":"4","last_reported":1699099867,"current_range_meters":30000,"station_id":"ce4bgh92rcd13ifvqb50","pricing_plan_id":"free"},{"bike_id":"ab6c1870-545a-4ea5-8da6-8e703dca1917","system_id":"levelo_inurba_marseille","lat":43.295748,"lon":5.37522,"is_reserved":false,"is_disabled":false,"rental_uris":{"android":"levelo://app?vid=ab6c1870-545a-4ea5-8da6-8e703dca1917","ios":"levelo://app?vid=ab6c1870-545a-4ea5-8da6-8e703dca1917"},"vehicle_type_id":"4","last_reported":1699099867,"current_range_meters":20800,"station_id":"ce4bgh92rcd13ifvqb50","pricing_plan_id":"free"},{"bike_id":"878ec96d-6332-44b9-b5de-a581199f6202","system_id":"levelo_inurba_marseille","lat":43.295748,"lon":5.37522,"is_reserved":false,"is_disabled":false,"rental_uris":{"android":"levelo://app?vid=878ec96d-6332-44b9-b5de-a581199f6202","ios":"levelo://app?vid=878ec96d-6332-44b9-b5de-a581199f6202"},"vehicle_type_id":"4","last_reported":1699099867,"current_range_meters":29600,"station_id":"ce4bgh92rcd13ifvqb50","pricing_plan_id":"free"},{"bike_id":"9d1603f6-ca7f-46b8-bc8f-41e94d6afa2a","system_id":"levelo_inurba_marseille","lat":43.295748,"lon":5.37522,"is_reserved":false,"is_disabled":false,"rental_uris":{"android":"levelo://app?vid=9d1603f6-ca7f-46b8-bc8f-41e94d6afa2a","ios":"levelo://app?vid=9d1603f6-ca7f-46b8-bc8f-41e94d6afa2a"},"vehicle_type_id":"4","last_reported":1699099867,"current_range_meters":16400,"station_id":"ce4bgh92rcd13ifvqb50","pricing_plan_id":"free"},{"bike_id":"b7e0bc9e-37cf-4b9a-ae73-adf01a95c637","system_id":"levelo_inurba_marseille","lat":43.29618,"lon":5.377,"is_reserved":false,"is_disabled":false,"rental_uris":{"android":"levelo://app?vid=b7e0bc9e-37cf-4b9a-ae73-adf01a95c637","ios":"levelo://app?vid=b7e0bc9e-37cf-4b9a-ae73-adf01a95c637"},"vehicle_type_id":"4","last_reported":1699099867,"current_range_meters":21600,"station_id":"ce4bgi92rcd13ifvqb90","pricing_plan_id":"free"},{"bike_id":"af93a65c-2cfd-47e0-add7-742bd2657142","system_id":"levelo_inurba_marseille","lat":43.295748,"lon":5.37522,"is_reserved":false,"is_disabled":false,"rental_uris":{"android":"levelo://app?vid=af93a65c-2cfd-47e0-add7-742bd2657142","ios":"levelo://app?vid=af93a65c-2cfd-47e0-add7-742bd2657142"},"vehicle_type_id":"4","last_reported":1699099867,"current_range_meters":0,"station_id":"ce4bgh92rcd13ifvqb50","pricing_plan_id":"free"},{"bike_id":"2be68462-3abc-4b24-b61d-913319db77d9","system_id":"levelo_inurba_marseille","lat":43.304278,"lon":5.388868,"is_reserved":false,"is_disabled":false,"rental_uris":{"android":"levelo://app?vid=2be68462-3abc-4b24-b61d-913319db77d9","ios":"levelo://app?vid=2be68462-3abc-4b24-b61d-913319db77d9"},"vehicle_type_id":"4","last_reported":1699099867,"current_range_meters":0,"station_id":"ce4bgk12rcd13ifvqbi0","pricing_plan_id":"free"},{"bike_id":"714550f3-0153-44f0-996d-ca806740781b","system_id":"levelo_inurba_marseille","lat":43.295748,"lon":5.37522,"is_reserved":false,"is_disabled":false,"rental_uris":{"android":"levelo://app?vid=714550f3-0153-44f0-996d-ca806740781b","ios":"levelo://app?vid=714550f3-0153-44f0-996d-ca806740781b"},"vehicle_type_id":"4","last_reported":1699099867,"current_range_meters":14000,"station_id":"ce4bgh92rcd13ifvqb50","pricing_plan_id":"free"},{"bike_id":"d237a9d7-1659-48c4-8e9a-d2b3f40b1c9f","system_id":"levelo_inurba_marseille","lat":43.295748,"lon":5.37522,"is_reserved":false,"is_disabled":false,"rental_uris":{"android":"levelo://app?vid=d237a9d7-1659-48c4-8e9a-d2b3f40b1c9f","ios":"levelo://app?vid=d237a9d7-1659-48c4-8e9a-d2b3f40b1c9f"},"vehicle_type_id":"4","last_reported":1699099867,"current_range_meters":4400,"station_id":"ce4bgh92rcd13ifvqb50","pricing_plan_id":"free"},{"bike_id":"f65dd85d-b7f0-4322-b069-06c56bbbc480","system_id":"levelo_inurba_marseille","lat":43.295748,"lon":5.37522,"is_reserved":false,"is_disabled":false,"rental_uris":{"android":"levelo://app?vid=f65dd85d-b7f0-4322-b069-06c56bbbc480","ios":"levelo://app?vid=f65dd85d-b7f0-4322-b069-06c56bbbc480"},"vehicle_type_id":"4","last_reported":1699099867,"current_range_meters":20400,"station_id":"ce4bgh92rcd13ifvqb50","pricing_plan_id":"free"},{"bike_id":"95f83d96-02db-4bf9-82f4-05f2a88db597","system_id":"levelo_inurba_marseille","lat":43.304274,"lon":5.388873,"is_reserved":false,"is_disabled":false,"rental_uris":{"android":"levelo://app?vid=95f83d96-02db-4bf9-82f4-05f2a88db597","ios":"levelo://app?vid=95f83d96-02db-4bf9-82f4-05f2a88db597"},"vehicle_type_id":"4","last_reported":1699099867,"current_range_meters":0,"station_id":"ce4bgk12rcd13ifvqbi0","pricing_plan_id":"free"},{"bike_id":"d81511dd-4373-415c-8fcb-a80c52e183be","system_id":"levelo_inurba_marseille","lat":43.296263,"lon":5.377094,"is_reserved":false,"is_disabled":false,"rental_uris":{"android":"levelo://app?vid=d81511dd-4373-415c-8fcb-a80c52e183be","ios":"levelo://app?vid=d81511dd-4373-415c-8fcb-a80c52e183be"},"vehicle_type_id":"4","last_reported":1699099867,"current_range_meters":24400,"station_id":"ce4bgi92rcd13ifvqb90","pricing_plan_id":"free"},{"bike_id":"a61076b8-0706-499e-bcc3-8cba6eb4262a","system_id":"levelo_inurba_marseille","lat":43.299707,"lon":5.384859,"is_reserved":false,"is_disabled":false,"rental_uris":{"android":"levelo://app?vid=a61076b8-0706-499e-bcc3-8cba6eb4262a","ios":"levelo://app?vid=a61076b8-0706-499e-bcc3-8cba6eb4262a"},"vehicle_type_id":"4","last_reported":1699099867,"current_range_meters":31200,"station_id":"ce4bgj92rcd13ifvqbd0","pricing_plan_id":"free"},{"bike_id":"120bd7eb-eb6b-4ba0-bd90-176159fabd05","system_id":"levelo_inurba_marseille","lat":43.299707,"lon":5.384859,"is_reserved":false,"is_disabled":false,"rental_uris":{"android":"levelo://app?vid=120bd7eb-eb6b-4ba0-bd90-176159fabd05","ios":"levelo://app?vid=120bd7eb-eb6b-4ba0-bd90-176159fabd05"},"vehicle_type_id":"4","last_reported":1699099867,"current_range_meters":26400,"station_id":"ce4bgj92rcd13ifvqbd0","pricing_plan_id":"free"},{"bike_id":"e5167c3f-a676-4ba8-b28b-8aeb662886f7","system_id":"levelo_inurba_marseille","lat":43.299717,"lon":5.384845,"is_reserved":false,"is_disabled":false,"rental_uris":{"android":"levelo://app?vid=e5167c3f-a676-4ba8-b28b-8aeb662886f7","ios":"levelo://app?vid=e5167c3f-a676-4ba8-b28b-8aeb662886f7"},"vehicle_type_id":"4","last_reported":1699099867,"current_range_meters":26400,"station_id":"ce4bgj92rcd13ifvqbd0","pricing_plan_id":"free"},{"bike_id":"4685e7ed-fbff-445e-86f2-0823f0bdff2e","system_id":"levelo_inurba_marseille","lat":43.299717,"lon":5.384845,"is_reserved":false,"is_disabled":false,"rental_uris":{"android":"levelo://app?vid=4685e7ed-fbff-445e-86f2-0823f0bdff2e","ios":"levelo://app?vid=4685e7ed-fbff-445e-86f2-0823f0bdff2e"},"vehicle_type_id":"4","last_reported":1699099867,"current_range_meters":22800,"station_id":"ce4bgj92rcd13ifvqbd0","pricing_plan_id":"free"},{"bike_id":"d0a8171c-592b-4991-97ac-ebd65da2549b","system_id":"levelo_inurba_marseille","lat":43.299717,"lon":5.384845,"is_reserved":false,"is_disabled":false,"rental_uris":{"android":"levelo://app?vid=d0a8171c-592b-4991-97ac-ebd65da2549b","ios":"levelo://app?vid=d0a8171c-592b-4991-97ac-ebd65da2549b"},"vehicle_type_id":"4","last_reported":1699099867,"current_range_meters":14800,"station_id":"ce4bgj92rcd13ifvqbd0","pricing_plan_id":"free"},{"bike_id":"12da0021-7e2e-4cd8-b353-d36d498c7b0d","system_id":"levelo_inurba_marseille","lat":43.299717,"lon":5.384845,"is_reserved":false,"is_disabled":false,"rental_uris":{"android":"levelo://app?vid=12da0021-7e2e-4cd8-b353-d36d498c7b0d","ios":"levelo://app?vid=12da0021-7e2e-4cd8-b353-d36d498c7b0d"},"vehicle_type_id":"4","last_reported":1699099867,"current_range_meters":25600,"station_id":"ce4bgj92rcd13ifvqbd0","pricing_plan_id":"free"},{"bike_id":"a2f67320-afc9-4b57-bd8f-120b09dba9f6","system_id":"levelo_inurba_marseille","lat":43.299717,"lon":5.384845,"is_reserved":false,"is_disabled":false,"rental_uris":{"android":"levelo://app?vid=a2f67320-afc9-4b57-bd8f-120b09dba9f6","ios":"levelo://app?vid=a2f67320-afc9-4b57-bd8f-120b09dba9f6"},"vehicle_type_id":"4","last_reported":1699099867,"current_range_meters":16400,"station_id":"ce4bgj92rcd13ifvqbd0","pricing_plan_id":"free"},{"bike_id":"0291f199-8f72-4cdc-9706-2a2f78228726","system_id":"levelo_inurba_marseille","lat":43.299717,"lon":5.384845,"is_reserved":false,"is_disabled":false,"rental_uris":{"android":"levelo://app?vid=0291f199-8f72-4cdc-9706-2a2f78228726","ios":"levelo://app?vid=0291f199-8f72-4cdc-9706-2a2f78228726"},"vehicle_type_id":"4","last_reported":1699099867,"current_range_meters":20400,"station_id":"ce4bgj92rcd13ifvqbd0","pricing_plan_id":"free"},{"bike_id":"1f580447-7b2c-4630-9a51-33e28281b372","system_id":"levelo_inurba_marseille","lat":43.329065,"lon":5.379814,"is_reserved":false,"is_disabled":false,"rental_uris":{"android":"levelo://app?vid=1f580447-7b2c-4630-9a51-33e28281b372","ios":"levelo://app?vid=1f580447-7b2c-4630-9a51-33e28281b372"},"vehicle_type_id":"4","last_reported":1699099867,"current_range_meters":16000,"station_id":"","pricing_plan_id":"free"},{"bike_id":"ecf94d7b-2238-4a61-8042-e3febbffae63","system_id":"levelo_inurba_marseille","lat":43.299323,"lon":5.385518,"is_reserved":false,"is_disabled":false,"rental_uris":{"android":"levelo://app?vid=ecf94d7b-2238-4a61-8042-e3febbffae63","ios":"levelo://app?vid=ecf94d7b-2238-4a61-8042-e3febbffae63"},"vehicle_type_id":"4","last_reported":1699099867,"current_range_meters":28000,"station_id":"","pricing_plan_id":"free"},{"bike_id":"eab5d605-eaca-4660-a5fd-3fd2b2fdfd03","system_id":"levelo_inurba_marseille","lat":43.29476,"lon":5.37582,"is_reserved":false,"is_disabled":false,"rental_uris":{"android":"levelo://app?vid=eab5d605-eaca-4660-a5fd-3fd2b2fdfd03","ios":"levelo://app?vid=eab5d605-eaca-4660-a5fd-3fd2b2fdfd03"},"vehicle_type_id":"4","last_reported":1699099867,"current_range_meters":0,"station_id":"","pricing_plan_id":"free"},{"bike_id":"40a1ec77-ae36-4bf2-a77e-781fcd5fa853","system_id":"levelo_inurba_marseille","lat":43.306938,"lon":5.392166,"is_reserved":false,"is_disabled":false,"rental_uris":{"android":"levelo://app?vid=40a1ec77-ae36-4bf2-a77e-781fcd5fa853","ios":"levelo://app?vid=40a1ec77-ae36-4bf2-a77e-781fcd5fa853"},"vehicle_type_id":"4","last_reported":1699099867,"current_range_meters":19200,"station_id":"","pricing_plan_id":"free"},{"bike_id":"765ebce4-d186-446e-bff4-593ff012456f","system_id":"levelo_inurba_marseille","lat":43.29601,"lon":5.381084,"is_reserved":false,"is_disabled":false,"rental_uris":{"android":"levelo://app?vid=765ebce4-d186-446e-bff4-593ff012456f","ios":"levelo://app?vid=765ebce4-d186-446e-bff4-593ff012456f"},"vehicle_type_id":"4","last_reported":1699099867,"current_range_meters":29600,"station_id":"ce4bgl12rcd13ifvqbo0","pricing_plan_id":"free"},{"bike_id":"6c2f8e1c-c2c0-4400-b7ef-8477b5a1b88b","system_id":"levelo_inurba_marseille","lat":43.29593,"lon":5.38103,"is_reserved":false,"is_disabled":false,"rental_uris":{"android":"levelo://app?vid=6c2f8e1c-c2c0-4400-b7ef-8477b5a1b88b","ios":"levelo://app?vid=6c2f8e1c-c2c0-4400-b7ef-8477b5a1b88b"},"vehicle_type_id":"4","last_reported":1699099867,"current_range_meters":22800,"station_id":"ce4bgl12rcd13ifvqbo0","pricing_plan_id":"free"},{"bike_id":"547a7cfc-5b52-446d-9105-ee3d3597290f","system_id":"levelo_inurba_marseille","lat":43.33055,"lon":5.37881,"is_reserved":false,"is_disabled":false,"rental_uris":{"android":"levelo://app?vid=547a7cfc-5b52-446d-9105-ee3d3597290f","ios":"levelo://app?vid=547a7cfc-5b52-446d-9105-ee3d3597290f"},"vehicle_type_id":"4","last_reported":1699099867,"current_range_meters":24800,"station_id":"","pricing_plan_id":"free"},{"bike_id":"91567256-484f-4eb5-bed1-2b77efb7605d","system_id":"levelo_inurba_marseille","lat":43.293009,"lon":5.374584,"is_reserved":false,"is_disabled":false,"rental_uris":{"android":"levelo://app?vid=91567256-484f-4eb5-bed1-2b77efb7605d","ios":"levelo://app?vid=91567256-484f-4eb5-bed1-2b77efb7605d"},"vehicle_type_id":"4","last_reported":1699099867,"current_range_meters":27200,"station_id":"ce4bgi12rcd13ifvqb70","pricing_plan_id":"free"},{"bike_id":"525fcded-eb2e-484a-a202-4bd5e881401d","system_id":"levelo_inurba_marseille","lat":43.293009,"lon":5.374584,"is_reserved":false,"is_disabled":false,"rental_uris":{"android":"levelo://app?vid=525fcded-eb2e-484a-a202-4bd5e881401d","ios":"levelo://app?vid=525fcded-eb2e-484a-a202-4bd5e881401d"},"vehicle_type_id":"4","last_reported":1699099867,"current_range_meters":28000,"station_id":"ce4bgi12rcd13ifvqb70","pricing_plan_id":"free"},{"bike_id":"90a64ee3-b977-44b6-8a25-81568639f7f1","system_id":"levelo_inurba_marseille","lat":43.293009,"lon":5.374584,"is_reserved":false,"is_disabled":false,"rental_uris":{"android":"levelo://app?vid=90a64ee3-b977-44b6-8a25-81568639f7f1","ios":"levelo://app?vid=90a64ee3-b977-44b6-8a25-81568639f7f1"},"vehicle_type_id":"4","last_reported":1699099867,"current_range_meters":18800,"station_id":"ce4bgi12rcd13ifvqb70","pricing_plan_id":"free"},{"bike_id":"c04c1eb8-27bb-40c1-bf93-0dee71221582","system_id":"levelo_inurba_marseille","lat":43.293009,"lon":5.374584,"is_reserved":false,"is_disabled":false,"rental_uris":{"android":"levelo://app?vid=c04c1eb8-27bb-40c1-bf93-0dee71221582","ios":"levelo://app?vid=c04c1eb8-27bb-40c1-bf93-0dee71221582"},"vehicle_type_id":"4","last_reported":1699099867,"current_range_meters":21200,"station_id":"ce4bgi12rcd13ifvqb70","pricing_plan_id":"free"},{"bike_id":"95b38f76-361d-45af-93a5-4380100f8206","system_id":"levelo_inurba_marseille","lat":43.305994,"lon":5.393687,"is_reserved":false,"is_disabled":false,"rental_uris":{"android":"levelo://app?vid=95b38f76-361d-45af-93a5-4380100f8206","ios":"levelo://app?vid=95b38f76-361d-45af-93a5-4380100f8206"},"vehicle_type_id":"4","last_reported":1699099867,"current_range_meters":30400,"station_id":"ce4bh0p2rcd13ifvqd80","pricing_plan_id":"free"},{"bike_id":"79fb19b2-1dc6-4f3e-9963-8711bc0d7623","system_id":"levelo_inurba_marseille","lat":43.293009,"lon":5.374584,"is_reserved":false,"is_disabled":false,"rental_uris":{"android":"levelo://app?vid=79fb19b2-1dc6-4f3e-9963-8711bc0d7623","ios":"levelo://app?vid=79fb19b2-1dc6-4f3e-9963-8711bc0d7623"},"vehicle_type_id":"4","last_reported":1699099867,"current_range_meters":25600,"station_id":"ce4bgi12rcd13ifvqb70","pricing_plan_id":"free"},{"bike_id":"b0188515-b803-4023-a799-0aae7d94763f","system_id":"levelo_inurba_marseille","lat":43.302992,"lon":5.392136,"is_reserved":false,"is_disabled":false,"rental_uris":{"android":"levelo://app?vid=b0188515-b803-4023-a799-0aae7d94763f","ios":"levelo://app?vid=b0188515-b803-4023-a799-0aae7d94763f"},"vehicle_type_id":"4","last_reported":1699099867,"current_range_meters":28400,"station_id":"ce4bgkh2rcd13ifvqbk0","pricing_plan_id":"free"},{"bike_id":"45a574bf-a4d2-4b3c-b8c5-fffd21b05624","system_id":"levelo_inurba_marseille","lat":43.2936,"lon":5.37835,"is_reserved":false,"is_disabled":false,"rental_uris":{"android":"levelo://app?vid=45a574bf-a4d2-4b3c-b8c5-fffd21b05624","ios":"levelo://app?vid=45a574bf-a4d2-4b3c-b8c5-fffd21b05624"},"vehicle_type_id":"4","last_reported":1699099867,"current_range_meters":23200,"station_id":"ce4bgjh2rcd13ifvqbf0","pricing_plan_id":"free"},{"bike_id":"ecd5fcfb-e675-41c4-803e-df009ca85e60","system_id":"levelo_inurba_marseille","lat":43.30984,"lon":5.39538,"is_reserved":false,"is_disabled":false,"rental_uris":{"android":"levelo://app?vid=ecd5fcfb-e675-41c4-803e-df009ca85e60","ios":"levelo://app?vid=ecd5fcfb-e675-41c4-803e-df009ca85e60"},"vehicle_type_id":"4","last_reported":1699099867,"current_range_meters":14000,"station_id":"","pricing_plan_id":"free"},{"bike_id":"1575422b-f99f-4525-ab00-681f712b3765","system_id":"levelo_inurba_marseille","lat":43.3331,"lon":5.35949,"is_reserved":false,"is_disabled":false,"rental_uris":{"android":"levelo://app?vid=1575422b-f99f-4525-ab00-681f712b3765","ios":"levelo://app?vid=1575422b-f99f-4525-ab00-681f712b3765"},"vehicle_type_id":"4","last_reported":1699099867,"current_range_meters":13200,"station_id":"","pricing_plan_id":"free"},{"bike_id":"81badad3-7988-4205-9b64-1e8b201375db","system_id":"levelo_inurba_marseille","lat":43.300852,"lon":5.390859,"is_reserved":false,"is_disabled":false,"rental_uris":{"android":"levelo://app?vid=81badad3-7988-4205-9b64-1e8b201375db","ios":"levelo://app?vid=81badad3-7988-4205-9b64-1e8b201375db"},"vehicle_type_id":"4","last_reported":1699099867,"current_range_meters":27600,"station_id":"ce4bh192rcd13ifvqdb0","pricing_plan_id":"free"},{"bike_id":"df45b8ac-c207-47c3-861c-e27b030f77a8","system_id":"levelo_inurba_marseille","lat":43.29265,"lon":5.37616,"is_reserved":false,"is_disabled":false,"rental_uris":{"android":"levelo://app?vid=df45b8ac-c207-47c3-861c-e27b030f77a8","ios":"levelo://app?vid=df45b8ac-c207-47c3-861c-e27b030f77a8"},"vehicle_type_id":"4","last_reported":1699099867,"current_range_meters":28800,"station_id":"ce4bgi12rcd13ifvqb80","pricing_plan_id":"free"},{"bike_id":"27d36bd2-82aa-46cd-a9a9-91ad8e19db43","system_id":"levelo_inurba_marseille","lat":43.291671,"lon":5.371575,"is_reserved":false,"is_disabled":false,"rental_uris":{"android":"levelo://app?vid=27d36bd2-82aa-46cd-a9a9-91ad8e19db43","ios":"levelo://app?vid=27d36bd2-82aa-46cd-a9a9-91ad8e19db43"},"vehicle_type_id":"4","last_reported":1699099867,"current_range_meters":31200,"station_id":"ce4bha92rcd13ifvqeh0","pricing_plan_id":"free"},{"bike_id":"69ad3757-46d8-4405-83b3-ca3b80299eb6","system_id":"levelo_inurba_marseille","lat":43.291675,"lon":5.371583,"is_reserved":false,"is_disabled":false,"rental_uris":{"android":"levelo://app?vid=69ad3757-46d8-4405-83b3-ca3b80299eb6","ios":"levelo://app?vid=69ad3757-46d8-4405-83b3-ca3b80299eb6"},"vehicle_type_id":"4","last_reported":1699099867,"current_range_meters":31200,"station_id":"ce4bha92rcd13ifvqeh0","pricing_plan_id":"free"},{"bike_id":"ab37003f-9faa-4ebc-884e-107b8d0ae4eb","system_id":"levelo_inurba_marseille","lat":43.29262,"lon":5.3762,"is_reserved":false,"is_disabled":false,"rental_uris":{"android":"levelo://app?vid=ab37003f-9faa-4ebc-884e-107b8d0ae4eb","ios":"levelo://app?vid=ab37003f-9faa-4ebc-884e-107b8d0ae4eb"},"vehicle_type_id":"4","last_reported":1699099867,"current_range_meters":25200,"station_id":"ce4bgi12rcd13ifvqb80","pricing_plan_id":"free"},{"bike_id":"1b031e90-0fa8-45b0-9773-66f2fd4081e9","system_id":"levelo_inurba_marseille","lat":43.29257,"lon":5.37616,"is_reserved":false,"is_disabled":false,"rental_uris":{"android":"levelo://app?vid=1b031e90-0fa8-45b0-9773-66f2fd4081e9","ios":"levelo://app?vid=1b031e90-0fa8-45b0-9773-66f2fd4081e9"},"vehicle_type_id":"4","last_reported":1699099867,"current_range_meters":26400,"station_id":"ce4bgi12rcd13ifvqb80","pricing_plan_id":"free"},{"bike_id":"0e8233d2-0d57-470f-8c07-e9f753046a4f","system_id":"levelo_inurba_marseille","lat":43.33217,"lon":5.3788,"is_reserved":false,"is_disabled":false,"rental_uris":{"android":"levelo://app?vid=0e8233d2-0d57-470f-8c07-e9f753046a4f","ios":"levelo://app?vid=0e8233d2-0d57-470f-8c07-e9f753046a4f"},"vehicle_type_id":"4","last_reported":1699099867,"current_range_meters":13200,"station_id":"","pricing_plan_id":"free"},{"bike_id":"021778ef-75a6-429d-82de-369f8368729c","system_id":"levelo_inurba_marseille","lat":43.29254,"lon":5.37614,"is_reserved":false,"is_disabled":false,"rental_uris":{"android":"levelo://app?vid=021778ef-75a6-429d-82de-369f8368729c","ios":"levelo://app?vid=021778ef-75a6-429d-82de-369f8368729c"},"vehicle_type_id":"4","last_reported":1699099867,"current_range_meters":26400,"station_id":"ce4bgi12rcd13ifvqb80","pricing_plan_id":"free"},{"bike_id":"5a4147e9-e73a-448d-8e66-801277b3124f","system_id":"levelo_inurba_marseille","lat":43.291675,"lon":5.371583,"is_reserved":false,"is_disabled":false,"rental_uris":{"android":"levelo://app?vid=5a4147e9-e73a-448d-8e66-801277b3124f","ios":"levelo://app?vid=5a4147e9-e73a-448d-8e66-801277b3124f"},"vehicle_type_id":"4","last_reported":1699099867,"current_range_meters":26000,"station_id":"ce4bha92rcd13ifvqeh0","pricing_plan_id":"free"},{"bike_id":"d797f1e6-f3ca-4ad7-8b56-5ed6191da53c","system_id":"levelo_inurba_marseille","lat":43.29253,"lon":5.37621,"is_reserved":false,"is_disabled":false,"rental_uris":{"android":"levelo://app?vid=d797f1e6-f3ca-4ad7-8b56-5ed6191da53c","ios":"levelo://app?vid=d797f1e6-f3ca-4ad7-8b56-5ed6191da53c"},"vehicle_type_id":"4","last_reported":1699099867,"current_range_meters":31200,"station_id":"ce4bgi12rcd13ifvqb80","pricing_plan_id":"free"},{"bike_id":"6608c0f0-53a3-48c1-afb8-707826a873b2","system_id":"levelo_inurba_marseille","lat":43.29252,"lon":5.37618,"is_reserved":false,"is_disabled":false,"rental_uris":{"android":"levelo://app?vid=6608c0f0-53a3-48c1-afb8-707826a873b2","ios":"levelo://app?vid=6608c0f0-53a3-48c1-afb8-707826a873b2"},"vehicle_type_id":"4","last_reported":1699099867,"current_range_meters":13200,"station_id":"ce4bgi12rcd13ifvqb80","pricing_plan_id":"free"},{"bike_id":"4636e518-88bf-47e8-922d-17901ed48765","system_id":"levelo_inurba_marseille","lat":43.2988,"lon":5.38914,"is_reserved":false,"is_disabled":false,"rental_uris":{"android":"levelo://app?vid=4636e518-88bf-47e8-922d-17901ed48765","ios":"levelo://app?vid=4636e518-88bf-47e8-922d-17901ed48765"},"vehicle_type_id":"4","last_reported":1699099867,"current_range_meters":20400,"station_id":"ce4bh392rcd13ifvqdl0","pricing_plan_id":"free"},{"bike_id":"7851af3c-7072-4e38-bd64-283ec50bc99e","system_id":"levelo_inurba_marseille","lat":43.291671,"lon":5.371575,"is_reserved":false,"is_disabled":false,"rental_uris":{"android":"levelo://app?vid=7851af3c-7072-4e38-bd64-283ec50bc99e","ios":"levelo://app?vid=7851af3c-7072-4e38-bd64-283ec50bc99e"},"vehicle_type_id":"4","last_reported":1699099867,"current_range_meters":21200,"station_id":"ce4bha92rcd13ifvqeh0","pricing_plan_id":"free"},{"bike_id":"35b23bb4-792d-4844-898c-743ee0fc7eda","system_id":"levelo_inurba_marseille","lat":43.29199,"lon":5.35801,"is_reserved":false,"is_disabled":false,"rental_uris":{"android":"levelo://app?vid=35b23bb4-792d-4844-898c-743ee0fc7eda","ios":"levelo://app?vid=35b23bb4-792d-4844-898c-743ee0fc7eda"},"vehicle_type_id":"4","last_reported":1699099867,"current_range_meters":18400,"station_id":"ce4bhb12rcd13ifvqel0","pricing_plan_id":"free"},{"bike_id":"b3dbc79f-db20-4e33-920e-920f55d690f0","system_id":"levelo_inurba_marseille","lat":43.313291,"lon":5.396838,"is_reserved":false,"is_disabled":false,"rental_uris":{"android":"levelo://app?vid=b3dbc79f-db20-4e33-920e-920f55d690f0","ios":"levelo://app?vid=b3dbc79f-db20-4e33-920e-920f55d690f0"},"vehicle_type_id":"4","last_reported":1699099867,"current_range_meters":17200,"station_id":"ce4bgvp2rcd13ifvqcu0","pricing_plan_id":"free"},{"bike_id":"2cd0bbff-24ff-4b04-9366-9188c7c66908","system_id":"levelo_inurba_marseille","lat":43.313291,"lon":5.396838,"is_reserved":false,"is_disabled":false,"rental_uris":{"android":"levelo://app?vid=2cd0bbff-24ff-4b04-9366-9188c7c66908","ios":"levelo://app?vid=2cd0bbff-24ff-4b04-9366-9188c7c66908"},"vehicle_type_id":"4","last_reported":1699099867,"current_range_meters":26800,"station_id":"ce4bgvp2rcd13ifvqcu0","pricing_plan_id":"free"},{"bike_id":"f0b38b89-45de-4502-8d29-a11f0e8c86d1","system_id":"levelo_inurba_marseille","lat":43.3133,"lon":5.39693,"is_reserved":false,"is_disabled":false,"rental_uris":{"android":"levelo://app?vid=f0b38b89-45de-4502-8d29-a11f0e8c86d1","ios":"levelo://app?vid=f0b38b89-45de-4502-8d29-a11f0e8c86d1"},"vehicle_type_id":"4","last_reported":1699099867,"current_range_meters":13200,"station_id":"ce4bgvp2rcd13ifvqcu0","pricing_plan_id":"free"},{"bike_id":"e2c1729b-3e19-40d7-8c1f-6a29e0cc010a","system_id":"levelo_inurba_marseille","lat":43.31332,"lon":5.39693,"is_reserved":false,"is_disabled":false,"rental_uris":{"android":"levelo://app?vid=e2c1729b-3e19-40d7-8c1f-6a29e0cc010a","ios":"levelo://app?vid=e2c1729b-3e19-40d7-8c1f-6a29e0cc010a"},"vehicle_type_id":"4","last_reported":1699099867,"current_range_meters":26000,"station_id":"ce4bgvp2rcd13ifvqcu0","pricing_plan_id":"free"},{"bike_id":"c61e9814-ddeb-4d02-b877-44315dd5fa14","system_id":"levelo_inurba_marseille","lat":43.29584,"lon":5.38595,"is_reserved":false,"is_disabled":false,"rental_uris":{"android":"levelo://app?vid=c61e9814-ddeb-4d02-b877-44315dd5fa14","ios":"levelo://app?vid=c61e9814-ddeb-4d02-b877-44315dd5fa14"},"vehicle_type_id":"4","last_reported":1699099867,"current_range_meters":23200,"station_id":"","pricing_plan_id":"free"},{"bike_id":"01d5cd64-d15f-4ad5-ab4a-d1760e9c09b7","system_id":"levelo_inurba_marseille","lat":43.31328,"lon":5.39695,"is_reserved":false,"is_disabled":false,"rental_uris":{"android":"levelo://app?vid=01d5cd64-d15f-4ad5-ab4a-d1760e9c09b7","ios":"levelo://app?vid=01d5cd64-d15f-4ad5-ab4a-d1760e9c09b7"},"vehicle_type_id":"4","last_reported":1699099867,"current_range_meters":7200,"station_id":"ce4bgvp2rcd13ifvqcu0","pricing_plan_id":"free"},{"bike_id":"9912db54-f509-48b7-9311-19b727d98114","system_id":"levelo_inurba_marseille","lat":43.313266,"lon":5.396968,"is_reserved":false,"is_disabled":false,"rental_uris":{"android":"levelo://app?vid=9912db54-f509-48b7-9311-19b727d98114","ios":"levelo://app?vid=9912db54-f509-48b7-9311-19b727d98114"},"vehicle_type_id":"4","last_reported":1699099867,"current_range_meters":22000,"station_id":"","pricing_plan_id":"free"},{"bike_id":"e5f0213d-1671-42c1-a952-73e8fad1c7fc","system_id":"levelo_inurba_marseille","lat":43.309038,"lon":5.396546,"is_reserved":false,"is_disabled":false,"rental_uris":{"android":"levelo://app?vid=e5f0213d-1671-42c1-a952-73e8fad1c7fc","ios":"levelo://app?vid=e5f0213d-1671-42c1-a952-73e8fad1c7fc"},"vehicle_type_id":"4","last_reported":1699099867,"current_range_meters":22800,"station_id":"ce4bh012rcd13ifvqcv0","pricing_plan_id":"free"},{"bike_id":"7548165c-e471-4c9b-a8ea-9f21ce150871","system_id":"levelo_inurba_marseille","lat":43.313291,"lon":5.396838,"is_reserved":false,"is_disabled":false,"rental_uris":{"android":"levelo://app?vid=7548165c-e471-4c9b-a8ea-9f21ce150871","ios":"levelo://app?vid=7548165c-e471-4c9b-a8ea-9f21ce150871"},"vehicle_type_id":"4","last_reported":1699099867,"current_range_meters":27600,"station_id":"ce4bgvp2rcd13ifvqcu0","pricing_plan_id":"free"},{"bike_id":"8502c3e7-0021-4f14-81ea-50a3ea584b1c","system_id":"levelo_inurba_marseille","lat":43.309038,"lon":5.396546,"is_reserved":false,"is_disabled":false,"rental_uris":{"android":"levelo://app?vid=8502c3e7-0021-4f14-81ea-50a3ea584b1c","ios":"levelo://app?vid=8502c3e7-0021-4f14-81ea-50a3ea584b1c"},"vehicle_type_id":"4","last_reported":1699099867,"current_range_meters":27200,"station_id":"ce4bh012rcd13ifvqcv0","pricing_plan_id":"free"},{"bike_id":"1959bf17-3257-4feb-acb4-b0da80535bf3","system_id":"levelo_inurba_marseille","lat":43.29529,"lon":5.385581,"is_reserved":false,"is_disabled":false,"rental_uris":{"android":"levelo://app?vid=1959bf17-3257-4feb-acb4-b0da80535bf3","ios":"levelo://app?vid=1959bf17-3257-4feb-acb4-b0da80535bf3"},"vehicle_type_id":"4","last_reported":1699099867,"current_range_meters":17600,"station_id":"ce4bgih2rcd13ifvqba0","pricing_plan_id":"free"},{"bike_id":"d3be0c74-b7ce-4846-beee-db9ce6b6121d","system_id":"levelo_inurba_marseille","lat":43.29529,"lon":5.385581,"is_reserved":false,"is_disabled":false,"rental_uris":{"android":"levelo://app?vid=d3be0c74-b7ce-4846-beee-db9ce6b6121d","ios":"levelo://app?vid=d3be0c74-b7ce-4846-beee-db9ce6b6121d"},"vehicle_type_id":"4","last_reported":1699099867,"current_range_meters":24800,"station_id":"ce4bgih2rcd13ifvqba0","pricing_plan_id":"free"},{"bike_id":"935b40b1-61e3-46a7-b29e-a2f96cd3c383","system_id":"levelo_inurba_marseille","lat":43.290779,"lon":5.371482,"is_reserved":false,"is_disabled":false,"rental_uris":{"android":"levelo://app?vid=935b40b1-61e3-46a7-b29e-a2f96cd3c383","ios":"levelo://app?vid=935b40b1-61e3-46a7-b29e-a2f96cd3c383"},"vehicle_type_id":"4","last_reported":1699099867,"current_range_meters":29200,"station_id":"ce4bh5p2rcd13ifvqe4g","pricing_plan_id":"free"},{"bike_id":"b242866d-7914-4b7b-acb2-93f070b34273","system_id":"levelo_inurba_marseille","lat":43.290779,"lon":5.371482,"is_reserved":false,"is_disabled":false,"rental_uris":{"android":"levelo://app?vid=b242866d-7914-4b7b-acb2-93f070b34273","ios":"levelo://app?vid=b242866d-7914-4b7b-acb2-93f070b34273"},"vehicle_type_id":"4","last_reported":1699099867,"current_range_meters":31200,"station_id":"ce4bh5p2rcd13ifvqe4g","pricing_plan_id":"free"},{"bike_id":"85f3d96e-0a66-4e0a-9b30-ec4d07602839","system_id":"levelo_inurba_marseille","lat":43.290079,"lon":5.367077,"is_reserved":false,"is_disabled":false,"rental_uris":{"android":"levelo://app?vid=85f3d96e-0a66-4e0a-9b30-ec4d07602839","ios":"levelo://app?vid=85f3d96e-0a66-4e0a-9b30-ec4d07602839"},"vehicle_type_id":"4","last_reported":1699099867,"current_range_meters":31200,"station_id":"ce4bhb12rcd13ifvqem0","pricing_plan_id":"free"},{"bike_id":"6ed01682-6689-4362-813f-8565482fa387","system_id":"levelo_inurba_marseille","lat":43.28856,"lon":5.358371,"is_reserved":false,"is_disabled":false,"rental_uris":{"android":"levelo://app?vid=6ed01682-6689-4362-813f-8565482fa387","ios":"levelo://app?vid=6ed01682-6689-4362-813f-8565482fa387"},"vehicle_type_id":"4","last_reported":1699099867,"current_range_meters":30800,"station_id":"ce4bhb12rcd13ifvqem0","pricing_plan_id":"free"},{"bike_id":"aa3f0288-6a81-4e4e-845b-2f08f509c611","system_id":"levelo_inurba_marseille","lat":43.273613,"lon":5.362705,"is_reserved":false,"is_disabled":false,"rental_uris":{"android":"levelo://app?vid=aa3f0288-6a81-4e4e-845b-2f08f509c611","ios":"levelo://app?vid=aa3f0288-6a81-4e4e-845b-2f08f509c611"},"vehicle_type_id":"4","last_reported":1699099867,"current_range_meters":22400,"station_id":"ce4bhbh2rcd13ifvqeo0","pricing_plan_id":"free"},{"bike_id":"5e9c401c-72d5-4edd-8055-4dfacd1a9515","system_id":"levelo_inurba_marseille","lat":43.28856,"lon":5.358371,"is_reserved":false,"is_disabled":false,"rental_uris":{"android":"levelo://app?vid=5e9c401c-72d5-4edd-8055-4dfacd1a9515","ios":"levelo://app?vid=5e9c401c-72d5-4edd-8055-4dfacd1a9515"},"vehicle_type_id":"4","last_reported":1699099867,"current_range_meters":30000,"station_id":"ce4bhb12rcd13ifvqem0","pricing_plan_id":"free"},{"bike_id":"32a5903f-983f-4439-9002-fa022088fd0d","system_id":"levelo_inurba_marseille","lat":43.29046,"lon":5.35922,"is_reserved":false,"is_disabled":false,"rental_uris":{"android":"levelo://app?vid=32a5903f-983f-4439-9002-fa022088fd0d","ios":"levelo://app?vid=32a5903f-983f-4439-9002-fa022088fd0d"},"vehicle_type_id":"4","last_reported":1699099867,"current_range_meters":31200,"station_id":"ce4bha92rcd13ifvqeg0","pricing_plan_id":"free"},{"bike_id":"9b7b67de-a46e-4fd0-8d26-898cd32017fc","system_id":"levelo_inurba_marseille","lat":43.29045,"lon":5.35918,"is_reserved":false,"is_disabled":false,"rental_uris":{"android":"levelo://app?vid=9b7b67de-a46e-4fd0-8d26-898cd32017fc","ios":"levelo://app?vid=9b7b67de-a46e-4fd0-8d26-898cd32017fc"},"vehicle_type_id":"4","last_reported":1699099867,"current_range_meters":30400,"station_id":"ce4bha92rcd13ifvqeg0","pricing_plan_id":"free"},{"bike_id":"ee3f4ad1-33f8-4d95-a8ef-87b446d31a5d","system_id":"levelo_inurba_marseille","lat":43.29045,"lon":5.35911,"is_reserved":false,"is_disabled":false,"rental_uris":{"android":"levelo://app?vid=ee3f4ad1-33f8-4d95-a8ef-87b446d31a5d","ios":"levelo://app?vid=ee3f4ad1-33f8-4d95-a8ef-87b446d31a5d"},"vehicle_type_id":"4","last_reported":1699099867,"current_range_meters":24400,"station_id":"ce4bha92rcd13ifvqeg0","pricing_plan_id":"free"},{"bike_id":"988d4820-c5bd-4b14-8333-61b3b7b1d04a","system_id":"levelo_inurba_marseille","lat":43.29044,"lon":5.35913,"is_reserved":false,"is_disabled":false,"rental_uris":{"android":"levelo://app?vid=988d4820-c5bd-4b14-8333-61b3b7b1d04a","ios":"levelo://app?vid=988d4820-c5bd-4b14-8333-61b3b7b1d04a"},"vehicle_type_id":"4","last_reported":1699099867,"current_range_meters":30400,"station_id":"ce4bha92rcd13ifvqeg0","pricing_plan_id":"free"},{"bike_id":"a4911d8d-0c74-4af8-852a-2f4eac372219","system_id":"levelo_inurba_marseille","lat":43.29042,"lon":5.3591,"is_reserved":false,"is_disabled":false,"rental_uris":{"android":"levelo://app?vid=a4911d8d-0c74-4af8-852a-2f4eac372219","ios":"levelo://app?vid=a4911d8d-0c74-4af8-852a-2f4eac372219"},"vehicle_type_id":"4","last_reported":1699099867,"current_range_meters":22800,"station_id":"ce4bha92rcd13ifvqeg0","pricing_plan_id":"free"},{"bike_id":"251cef05-efa3-46e9-ac1a-3cefdafe840d","system_id":"levelo_inurba_marseille","lat":43.294153,"lon":5.386305,"is_reserved":false,"is_disabled":false,"rental_uris":{"android":"levelo://app?vid=251cef05-efa3-46e9-ac1a-3cefdafe840d","ios":"levelo://app?vid=251cef05-efa3-46e9-ac1a-3cefdafe840d"},"vehicle_type_id":"4","last_reported":1699099867,"current_range_meters":25600,"station_id":"ce4bh2h2rcd13ifvqdh0","pricing_plan_id":"free"},{"bike_id":"c8446124-fbb8-4b6a-a2df-df9f0c450476","system_id":"levelo_inurba_marseille","lat":43.294153,"lon":5.386305,"is_reserved":false,"is_disabled":false,"rental_uris":{"android":"levelo://app?vid=c8446124-fbb8-4b6a-a2df-df9f0c450476","ios":"levelo://app?vid=c8446124-fbb8-4b6a-a2df-df9f0c450476"},"vehicle_type_id":"4","last_reported":1699099867,"current_range_meters":16800,"station_id":"ce4bh2h2rcd13ifvqdh0","pricing_plan_id":"free"},{"bike_id":"cfc9b2dc-95d2-44fd-bedc-52cec9fb29fa","system_id":"levelo_inurba_marseille","lat":43.294153,"lon":5.386305,"is_reserved":false,"is_disabled":false,"rental_uris":{"android":"levelo://app?vid=cfc9b2dc-95d2-44fd-bedc-52cec9fb29fa","ios":"levelo://app?vid=cfc9b2dc-95d2-44fd-bedc-52cec9fb29fa"},"vehicle_type_id":"4","last_reported":1699099867,"current_range_meters":26800,"station_id":"ce4bh2h2rcd13ifvqdh0","pricing_plan_id":"free"},{"bike_id":"e9e2406c-90de-45a5-bd35-cdde935e38de","system_id":"levelo_inurba_marseille","lat":43.29415,"lon":5.38625,"is_reserved":false,"is_disabled":false,"rental_uris":{"android":"levelo://app?vid=e9e2406c-90de-45a5-bd35-cdde935e38de","ios":"levelo://app?vid=e9e2406c-90de-45a5-bd35-cdde935e38de"},"vehicle_type_id":"4","last_reported":1699099867,"current_range_meters":26800,"station_id":"ce4bh2h2rcd13ifvqdh0","pricing_plan_id":"free"},{"bike_id":"0678e112-71c6-4434-8cbe-e61197191c7f","system_id":"levelo_inurba_marseille","lat":43.289415,"lon":5.366437,"is_reserved":false,"is_disabled":false,"rental_uris":{"android":"levelo://app?vid=0678e112-71c6-4434-8cbe-e61197191c7f","ios":"levelo://app?vid=0678e112-71c6-4434-8cbe-e61197191c7f"},"vehicle_type_id":"4","last_reported":1699099867,"current_range_meters":6400,"station_id":"","pricing_plan_id":"free"},{"bike_id":"cc2b259e-4b93-4549-9ce5-ee30812e19f8","system_id":"levelo_inurba_marseille","lat":43.29268,"lon":5.38434,"is_reserved":false,"is_disabled":false,"rental_uris":{"android":"levelo://app?vid=cc2b259e-4b93-4549-9ce5-ee30812e19f8","ios":"levelo://app?vid=cc2b259e-4b93-4549-9ce5-ee30812e19f8"},"vehicle_type_id":"4","last_reported":1699099867,"current_range_meters":24000,"station_id":"ce4bh692rcd13ifvqea0","pricing_plan_id":"free"},{"bike_id":"e7435224-1ab8-40da-8cd0-03a6d647d891","system_id":"levelo_inurba_marseille","lat":43.292642,"lon":5.384254,"is_reserved":false,"is_disabled":false,"rental_uris":{"android":"levelo://app?vid=e7435224-1ab8-40da-8cd0-03a6d647d891","ios":"levelo://app?vid=e7435224-1ab8-40da-8cd0-03a6d647d891"},"vehicle_type_id":"4","last_reported":1699099867,"current_range_meters":26000,"station_id":"ce4bh692rcd13ifvqea0","pricing_plan_id":"free"},{"bike_id":"4d77c96e-d6af-4756-a9c4-3ac6b7f35c8d","system_id":"levelo_inurba_marseille","lat":43.29268,"lon":5.38447,"is_reserved":false,"is_disabled":false,"rental_uris":{"android":"levelo://app?vid=4d77c96e-d6af-4756-a9c4-3ac6b7f35c8d","ios":"levelo://app?vid=4d77c96e-d6af-4756-a9c4-3ac6b7f35c8d"},"vehicle_type_id":"4","last_reported":1699099867,"current_range_meters":18400,"station_id":"ce4bh692rcd13ifvqea0","pricing_plan_id":"free"},{"bike_id":"f24cf45c-0f5a-4a98-b0b9-b3518de3bf39","system_id":"levelo_inurba_marseille","lat":43.292644,"lon":5.384257,"is_reserved":false,"is_disabled":false,"rental_uris":{"android":"levelo://app?vid=f24cf45c-0f5a-4a98-b0b9-b3518de3bf39","ios":"levelo://app?vid=f24cf45c-0f5a-4a98-b0b9-b3518de3bf39"},"vehicle_type_id":"4","last_reported":1699099867,"current_range_meters":31200,"station_id":"ce4bh692rcd13ifvqea0","pricing_plan_id":"free"},{"bike_id":"0492f6aa-a9b3-4538-8ed5-06fe4a511efe","system_id":"levelo_inurba_marseille","lat":43.29294,"lon":5.38509,"is_reserved":false,"is_disabled":false,"rental_uris":{"android":"levelo://app?vid=0492f6aa-a9b3-4538-8ed5-06fe4a511efe","ios":"levelo://app?vid=0492f6aa-a9b3-4538-8ed5-06fe4a511efe"},"vehicle_type_id":"4","last_reported":1699099867,"current_range_meters":6000,"station_id":"","pricing_plan_id":"free"},{"bike_id":"5688b2fe-a67f-4777-9e6f-fe38615a07c0","system_id":"levelo_inurba_marseille","lat":43.29259,"lon":5.3844,"is_reserved":false,"is_disabled":false,"rental_uris":{"android":"levelo://app?vid=5688b2fe-a67f-4777-9e6f-fe38615a07c0","ios":"levelo://app?vid=5688b2fe-a67f-4777-9e6f-fe38615a07c0"},"vehicle_type_id":"4","last_reported":1699099867,"current_range_meters":27200,"station_id":"ce4bh692rcd13ifvqea0","pricing_plan_id":"free"},{"bike_id":"deb9c163-e4a8-46f1-878b-0baf1259b171","system_id":"levelo_inurba_marseille","lat":43.292642,"lon":5.384254,"is_reserved":false,"is_disabled":false,"rental_uris":{"android":"levelo://app?vid=deb9c163-e4a8-46f1-878b-0baf1259b171","ios":"levelo://app?vid=deb9c163-e4a8-46f1-878b-0baf1259b171"},"vehicle_type_id":"4","last_reported":1699099867,"current_range_meters":31600,"station_id":"ce4bh692rcd13ifvqea0","pricing_plan_id":"free"},{"bike_id":"ac5ed59e-878e-4f25-8ef5-22c7ee43393b","system_id":"levelo_inurba_marseille","lat":43.292642,"lon":5.384254,"is_reserved":false,"is_disabled":false,"rental_uris":{"android":"levelo://app?vid=ac5ed59e-878e-4f25-8ef5-22c7ee43393b","ios":"levelo://app?vid=ac5ed59e-878e-4f25-8ef5-22c7ee43393b"},"vehicle_type_id":"4","last_reported":1699099867,"current_range_meters":23200,"station_id":"ce4bh692rcd13ifvqea0","pricing_plan_id":"free"},{"bike_id":"6febbe7a-cd81-4ac3-9798-411f54f19d48","system_id":"levelo_inurba_marseille","lat":43.292642,"lon":5.384254,"is_reserved":false,"is_disabled":false,"rental_uris":{"android":"levelo://app?vid=6febbe7a-cd81-4ac3-9798-411f54f19d48","ios":"levelo://app?vid=6febbe7a-cd81-4ac3-9798-411f54f19d48"},"vehicle_type_id":"4","last_reported":1699099867,"current_range_meters":19600,"station_id":"ce4bh692rcd13ifvqea0","pricing_plan_id":"free"},{"bike_id":"7b70c88c-e16e-44dd-8254-9ae6cc1ecf43","system_id":"levelo_inurba_marseille","lat":43.29258,"lon":5.38441,"is_reserved":false,"is_disabled":false,"rental_uris":{"android":"levelo://app?vid=7b70c88c-e16e-44dd-8254-9ae6cc1ecf43","ios":"levelo://app?vid=7b70c88c-e16e-44dd-8254-9ae6cc1ecf43"},"vehicle_type_id":"4","last_reported":1699099867,"current_range_meters":28400,"station_id":"ce4bh692rcd13ifvqea0","pricing_plan_id":"free"},{"bike_id":"ec218b92-280b-419d-afee-4a389d60b92d","system_id":"levelo_inurba_marseille","lat":43.292642,"lon":5.384254,"is_reserved":false,"is_disabled":false,"rental_uris":{"android":"levelo://app?vid=ec218b92-280b-419d-afee-4a389d60b92d","ios":"levelo://app?vid=ec218b92-280b-419d-afee-4a389d60b92d"},"vehicle_type_id":"4","last_reported":1699099867,"current_range_meters":23600,"station_id":"ce4bh692rcd13ifvqea0","pricing_plan_id":"free"},{"bike_id":"9ca908c3-201f-4c3e-9dcc-e18657ec600a","system_id":"levelo_inurba_marseille","lat":43.290104,"lon":5.356111,"is_reserved":false,"is_disabled":false,"rental_uris":{"android":"levelo://app?vid=9ca908c3-201f-4c3e-9dcc-e18657ec600a","ios":"levelo://app?vid=9ca908c3-201f-4c3e-9dcc-e18657ec600a"},"vehicle_type_id":"4","last_reported":1699099867,"current_range_meters":31200,"station_id":"ce4bhb92rcd13ifvqen0","pricing_plan_id":"free"},{"bike_id":"7545a2f1-559c-40c2-908d-99ad6ef39151","system_id":"levelo_inurba_marseille","lat":43.330442,"lon":5.389148,"is_reserved":false,"is_disabled":false,"rental_uris":{"android":"levelo://app?vid=7545a2f1-559c-40c2-908d-99ad6ef39151","ios":"levelo://app?vid=7545a2f1-559c-40c2-908d-99ad6ef39151"},"vehicle_type_id":"4","last_reported":1699099867,"current_range_meters":16000,"station_id":"ce4bhr92rcd13ifvqhrg","pricing_plan_id":"free"},{"bike_id":"3936e530-1ed8-452c-ac77-c925a4df9170","system_id":"levelo_inurba_marseille","lat":43.290104,"lon":5.356111,"is_reserved":false,"is_disabled":false,"rental_uris":{"android":"levelo://app?vid=3936e530-1ed8-452c-ac77-c925a4df9170","ios":"levelo://app?vid=3936e530-1ed8-452c-ac77-c925a4df9170"},"vehicle_type_id":"4","last_reported":1699099867,"current_range_meters":30800,"station_id":"ce4bhb92rcd13ifvqen0","pricing_plan_id":"free"},{"bike_id":"2428d57d-ed96-4ff8-a6df-e3403f92abd0","system_id":"levelo_inurba_marseille","lat":43.29005,"lon":5.35613,"is_reserved":false,"is_disabled":false,"rental_uris":{"android":"levelo://app?vid=2428d57d-ed96-4ff8-a6df-e3403f92abd0","ios":"levelo://app?vid=2428d57d-ed96-4ff8-a6df-e3403f92abd0"},"vehicle_type_id":"4","last_reported":1699099867,"current_range_meters":28400,"station_id":"ce4bhb92rcd13ifvqen0","pricing_plan_id":"free"},{"bike_id":"89f28dd2-bd67-452a-b37a-1e04867e95c6","system_id":"levelo_inurba_marseille","lat":43.290104,"lon":5.356111,"is_reserved":false,"is_disabled":false,"rental_uris":{"android":"levelo://app?vid=89f28dd2-bd67-452a-b37a-1e04867e95c6","ios":"levelo://app?vid=89f28dd2-bd67-452a-b37a-1e04867e95c6"},"vehicle_type_id":"4","last_reported":1699099867,"current_range_meters":31200,"station_id":"ce4bhb92rcd13ifvqen0","pricing_plan_id":"free"},{"bike_id":"1d4fd3f6-a6af-4822-b3e8-f009679e6aa8","system_id":"levelo_inurba_marseille","lat":43.290995,"lon":5.381361,"is_reserved":false,"is_disabled":false,"rental_uris":{"android":"levelo://app?vid=1d4fd3f6-a6af-4822-b3e8-f009679e6aa8","ios":"levelo://app?vid=1d4fd3f6-a6af-4822-b3e8-f009679e6aa8"},"vehicle_type_id":"4","last_reported":1699099867,"current_range_meters":24800,"station_id":"ce4bh512rcd13ifvqe2g","pricing_plan_id":"free"},{"bike_id":"e0d713cd-ec81-44ec-8ba4-571dd76a2b05","system_id":"levelo_inurba_marseille","lat":43.295169,"lon":5.390426,"is_reserved":false,"is_disabled":false,"rental_uris":{"android":"levelo://app?vid=e0d713cd-ec81-44ec-8ba4-571dd76a2b05","ios":"levelo://app?vid=e0d713cd-ec81-44ec-8ba4-571dd76a2b05"},"vehicle_type_id":"4","last_reported":1699099867,"current_range_meters":1600,"station_id":"ce4bh3p2rcd13ifvqdp0","pricing_plan_id":"free"},{"bike_id":"0a212808-9186-49f0-93d9-1da464efb6b1","system_id":"levelo_inurba_marseille","lat":43.289743,"lon":5.378304,"is_reserved":false,"is_disabled":false,"rental_uris":{"android":"levelo://app?vid=0a212808-9186-49f0-93d9-1da464efb6b1","ios":"levelo://app?vid=0a212808-9186-49f0-93d9-1da464efb6b1"},"vehicle_type_id":"4","last_reported":1699099867,"current_range_meters":14400,"station_id":"ce4bh9p2rcd13ifvqed0","pricing_plan_id":"free"},{"bike_id":"eaf75c9a-b21c-483d-816d-adc3fd73abca","system_id":"levelo_inurba_marseille","lat":43.289743,"lon":5.378304,"is_reserved":false,"is_disabled":false,"rental_uris":{"android":"levelo://app?vid=eaf75c9a-b21c-483d-816d-adc3fd73abca","ios":"levelo://app?vid=eaf75c9a-b21c-483d-816d-adc3fd73abca"},"vehicle_type_id":"4","last_reported":1699099867,"current_range_meters":19600,"station_id":"ce4bh9p2rcd13ifvqed0","pricing_plan_id":"free"},{"bike_id":"82ab9ca6-948a-4876-a9bf-3f54c81a765f","system_id":"levelo_inurba_marseille","lat":43.289741,"lon":5.378306,"is_reserved":false,"is_disabled":false,"rental_uris":{"android":"levelo://app?vid=82ab9ca6-948a-4876-a9bf-3f54c81a765f","ios":"levelo://app?vid=82ab9ca6-948a-4876-a9bf-3f54c81a765f"},"vehicle_type_id":"4","last_reported":1699099867,"current_range_meters":29600,"station_id":"ce4bh9p2rcd13ifvqed0","pricing_plan_id":"free"},{"bike_id":"2ed919a9-1af3-4359-ba69-872807bf1335","system_id":"levelo_inurba_marseille","lat":43.289741,"lon":5.378306,"is_reserved":false,"is_disabled":false,"rental_uris":{"android":"levelo://app?vid=2ed919a9-1af3-4359-ba69-872807bf1335","ios":"levelo://app?vid=2ed919a9-1af3-4359-ba69-872807bf1335"},"vehicle_type_id":"4","last_reported":1699099867,"current_range_meters":27600,"station_id":"ce4bh9p2rcd13ifvqed0","pricing_plan_id":"free"},{"bike_id":"dce7aa51-c1bf-4f88-9b48-f16085afbfb3","system_id":"levelo_inurba_marseille","lat":43.290094,"lon":5.381264,"is_reserved":false,"is_disabled":false,"rental_uris":{"android":"levelo://app?vid=dce7aa51-c1bf-4f88-9b48-f16085afbfb3","ios":"levelo://app?vid=dce7aa51-c1bf-4f88-9b48-f16085afbfb3"},"vehicle_type_id":"4","last_reported":1699099867,"current_range_meters":17600,"station_id":"ce4bh4p2rcd13ifvqe1g","pricing_plan_id":"free"},{"bike_id":"c9fb73ee-d044-4e32-a409-5f2f7bc1c1db","system_id":"levelo_inurba_marseille","lat":43.28859,"lon":5.35863,"is_reserved":false,"is_disabled":false,"rental_uris":{"android":"levelo://app?vid=c9fb73ee-d044-4e32-a409-5f2f7bc1c1db","ios":"levelo://app?vid=c9fb73ee-d044-4e32-a409-5f2f7bc1c1db"},"vehicle_type_id":"4","last_reported":1699099867,"current_range_meters":27200,"station_id":"ce4bhb12rcd13ifvqem0","pricing_plan_id":"free"},{"bike_id":"9b573682-bd6b-4e60-8ebd-530a615fe081","system_id":"levelo_inurba_marseille","lat":43.290094,"lon":5.381264,"is_reserved":false,"is_disabled":false,"rental_uris":{"android":"levelo://app?vid=9b573682-bd6b-4e60-8ebd-530a615fe081","ios":"levelo://app?vid=9b573682-bd6b-4e60-8ebd-530a615fe081"},"vehicle_type_id":"4","last_reported":1699099867,"current_range_meters":8400,"station_id":"ce4bh4p2rcd13ifvqe1g","pricing_plan_id":"free"},{"bike_id":"a2deeb2d-3cdb-455c-9e54-f00d68aeb525","system_id":"levelo_inurba_marseille","lat":43.288619,"lon":5.358359,"is_reserved":false,"is_disabled":false,"rental_uris":{"android":"levelo://app?vid=a2deeb2d-3cdb-455c-9e54-f00d68aeb525","ios":"levelo://app?vid=a2deeb2d-3cdb-455c-9e54-f00d68aeb525"},"vehicle_type_id":"4","last_reported":1699099867,"current_range_meters":19200,"station_id":"ce4bh412rcd13ifvqds0","pricing_plan_id":"free"},{"bike_id":"fbf23ba7-ad5e-414e-a05a-47d411908d69","system_id":"levelo_inurba_marseille","lat":43.290094,"lon":5.381264,"is_reserved":false,"is_disabled":false,"rental_uris":{"android":"levelo://app?vid=fbf23ba7-ad5e-414e-a05a-47d411908d69","ios":"levelo://app?vid=fbf23ba7-ad5e-414e-a05a-47d411908d69"},"vehicle_type_id":"4","last_reported":1699099867,"current_range_meters":21600,"station_id":"ce4bh4p2rcd13ifvqe1g","pricing_plan_id":"free"},{"bike_id":"a4e080b8-aeae-4e2e-9345-984b9f2b5a16","system_id":"levelo_inurba_marseille","lat":43.33741,"lon":5.3746,"is_reserved":false,"is_disabled":false,"rental_uris":{"android":"levelo://app?vid=a4e080b8-aeae-4e2e-9345-984b9f2b5a16","ios":"levelo://app?vid=a4e080b8-aeae-4e2e-9345-984b9f2b5a16"},"vehicle_type_id":"4","last_reported":1699099867,"current_range_meters":29200,"station_id":"","pricing_plan_id":"free"},{"bike_id":"7d4a1f9c-a11c-482a-98b5-65571076cd7e","system_id":"levelo_inurba_marseille","lat":43.31273,"lon":5.40169,"is_reserved":false,"is_disabled":false,"rental_uris":{"android":"levelo://app?vid=7d4a1f9c-a11c-482a-98b5-65571076cd7e","ios":"levelo://app?vid=7d4a1f9c-a11c-482a-98b5-65571076cd7e"},"vehicle_type_id":"4","last_reported":1699099867,"current_range_meters":7200,"station_id":"ce4bh092rcd13ifvqd30","pricing_plan_id":"free"},{"bike_id":"a2905c41-882a-42fb-9a4e-0f684a5329b9","system_id":"levelo_inurba_marseille","lat":43.33744,"lon":5.37445,"is_reserved":false,"is_disabled":false,"rental_uris":{"android":"levelo://app?vid=a2905c41-882a-42fb-9a4e-0f684a5329b9","ios":"levelo://app?vid=a2905c41-882a-42fb-9a4e-0f684a5329b9"},"vehicle_type_id":"4","last_reported":1699099867,"current_range_meters":24400,"station_id":"","pricing_plan_id":"free"},{"bike_id":"d1c29233-920f-4115-9d90-fd443be41479","system_id":"levelo_inurba_marseille","lat":43.30939,"lon":5.40141,"is_reserved":false,"is_disabled":false,"rental_uris":{"android":"levelo://app?vid=d1c29233-920f-4115-9d90-fd443be41479","ios":"levelo://app?vid=d1c29233-920f-4115-9d90-fd443be41479"},"vehicle_type_id":"4","last_reported":1699099867,"current_range_meters":25600,"station_id":"ce4bgvp2rcd13ifvqct0","pricing_plan_id":"free"},{"bike_id":"f3e765ba-30e7-4f66-a524-fc19614bfcb2","system_id":"levelo_inurba_marseille","lat":43.309371,"lon":5.401449,"is_reserved":false,"is_disabled":false,"rental_uris":{"android":"levelo://app?vid=f3e765ba-30e7-4f66-a524-fc19614bfcb2","ios":"levelo://app?vid=f3e765ba-30e7-4f66-a524-fc19614bfcb2"},"vehicle_type_id":"4","last_reported":1699099867,"current_range_meters":10000,"station_id":"ce4bgvp2rcd13ifvqct0","pricing_plan_id":"free"},{"bike_id":"68444c2e-a755-4158-8742-3c7cde5807df","system_id":"levelo_inurba_marseille","lat":43.309371,"lon":5.401449,"is_reserved":false,"is_disabled":false,"rental_uris":{"android":"levelo://app?vid=68444c2e-a755-4158-8742-3c7cde5807df","ios":"levelo://app?vid=68444c2e-a755-4158-8742-3c7cde5807df"},"vehicle_type_id":"4","last_reported":1699099867,"current_range_meters":20400,"station_id":"ce4bgvp2rcd13ifvqct0","pricing_plan_id":"free"},{"bike_id":"42bdc2fb-dca4-4dcf-a3ec-622d844acac7","system_id":"levelo_inurba_marseille","lat":43.30929,"lon":5.40143,"is_reserved":false,"is_disabled":false,"rental_uris":{"android":"levelo://app?vid=42bdc2fb-dca4-4dcf-a3ec-622d844acac7","ios":"levelo://app?vid=42bdc2fb-dca4-4dcf-a3ec-622d844acac7"},"vehicle_type_id":"4","last_reported":1699099867,"current_range_meters":27200,"station_id":"ce4bgvp2rcd13ifvqct0","pricing_plan_id":"free"},{"bike_id":"9776c16a-1bbb-4d1d-91c2-9570c59a690f","system_id":"levelo_inurba_marseille","lat":43.30933,"lon":5.40145,"is_reserved":false,"is_disabled":false,"rental_uris":{"android":"levelo://app?vid=9776c16a-1bbb-4d1d-91c2-9570c59a690f","ios":"levelo://app?vid=9776c16a-1bbb-4d1d-91c2-9570c59a690f"},"vehicle_type_id":"4","last_reported":1699099867,"current_range_meters":2800,"station_id":"ce4bgvp2rcd13ifvqct0","pricing_plan_id":"free"},{"bike_id":"7eb56411-8788-46f3-a2be-243f22bc2ab9","system_id":"levelo_inurba_marseille","lat":43.30642,"lon":5.401031,"is_reserved":false,"is_disabled":false,"rental_uris":{"android":"levelo://app?vid=7eb56411-8788-46f3-a2be-243f22bc2ab9","ios":"levelo://app?vid=7eb56411-8788-46f3-a2be-243f22bc2ab9"},"vehicle_type_id":"4","last_reported":1699099867,"current_range_meters":28400,"station_id":"ce4bh112rcd13ifvqda0","pricing_plan_id":"free"},