{"last_updated":1687291613,"ttl":30,"version":"2.2","data":{"bikes":[{"bike_id":"e434870f-62cf-4105-ab58-270b20f1eace","system_id":"levelo_inurba_marseille","lat":43.31341,"lon":5.367098,"is_reserved":false,"is_disabled":false,"rental_uris":{"android":"levelo://app?vid=e434870f-62cf-4105-ab58-270b20f1eace","ios":"levelo://app?vid=e434870f-62cf-4105-ab58-270b20f1eace"},"vehicle_type_id":"4","last_reported":1687291613,"current_range_meters":13600,"station_id":"ce4bgr92rcd13ifvqc6g","pricing_plan_id":"free"},{"bike_id":"f863caba-cd20-4d71-a159-474c9b15d5c6","system_id":"levelo_inurba_marseille","lat":43.31341,"lon":5.367098,"is_reserved":false,"is_disabled":false,"rental_uris":{"android":"levelo://app?vid=f863caba-cd20-4d71-a159-474c9b15d5c6","ios":"levelo://app?vid=f863caba-cd20-4d71-a159-474c9b15d5c6"},"vehicle_type_id":"4","last_reported":1687291613,"current_range_meters":0,"station_id":"ce4bgr92rcd13ifvqc6g","pricing_plan_id":"free"},{"bike_id":"2180ad8d-bbc0-4c97-8929-f44f48eda6c8","system_id":"levelo_inurba_marseille","lat":43.312239,"lon":5.368562,"is_reserved":false,"is_disabled":false,"rental_uris":{"android":"levelo://app?vid=2180ad8d-bbc0-4c97-8929-f44f48eda6c8","ios":"levelo://app?vid=2180ad8d-bbc0-4c97-8929-f44f48eda6c8"},"vehicle_type_id":"4","last_reported":1687291613,"current_range_meters":8800,"station_id":"ce4bgl92rcd13ifvqbq0","pricing_plan_id":"free"},{"bike_id":"6e4fd040-1866-4783-872c-dd21a7ae18af","system_id":"levelo_inurba_marseille","lat":43.31356,"lon":5.37066,"is_reserved":false,"is_disabled":false,"rental_uris":{"android":"levelo://app?vid=6e4fd040-1866-4783-872c-dd21a7ae18af","ios":"levelo://app?vid=6e4fd040-1866-4783-872c-dd21a7ae18af"},"vehicle_type_id":"4","last_reported":1687291613,"current_range_meters":13600,"station_id":"","pricing_plan_id":"free"},{"bike_id":"3da540aa-5929-4d4a-8397-46574265df24","system_id":"levelo_inurba_marseille","lat":43.30763,"lon":5.36707,"is_reserved":false,"is_disabled":false,"rental_uris":{"android":"levelo://app?vid=3da540aa-5929-4d4a-8397-46574265df24","ios":"levelo://app?vid=3da540aa-5929-4d4a-8397-46574265df24"},"vehicle_type_id":"4","last_reported":1687291613,"current_range_meters":16400,"station_id":"","pricing_plan_id":"free"},{"bike_id":"b191eb05-94f2-402f-a7f1-041cc7d6f30f","system_id":"levelo_inurba_marseille","lat":43.308614,"lon":5.372098,"is_reserved":false,"is_disabled":false,"rental_uris":{"android":"levelo://app?vid=b191eb05-94f2-402f-a7f1-041cc7d6f30f","ios":"levelo://app?vid=b191eb05-94f2-402f-a7f1-041cc7d6f30f"},"vehicle_type_id":"4","last_reported":1687291613,"current_range_meters":0,"station_id":"ce4bguh2rcd13ifvqckg","pricing_plan_id":"free"},{"bike_id":"bffff291-8774-47f4-be53-4fc2bdf1286e","system_id":"levelo_inurba_marseille","lat":43.308606,"lon":5.372099,"is_reserved":false,"is_disabled":false,"rental_uris":{"android":"levelo://app?vid=bffff291-8774-47f4-be53-4fc2bdf1286e","ios":"levelo://app?vid=bffff291-8774-47f4-be53-4fc2bdf1286e"},"vehicle_type_id":"4","last_reported":1687291613,"current_range_meters":17200,"station_id":"ce4bguh2rcd13ifvqckg","pricing_plan_id":"free"},{"bike_id":"5fbdbe65-e141-4473-b7c7-3ca166ee6d1f","system_id":"levelo_inurba_marseille","lat":43.30837,"lon":5.37154,"is_reserved":false,"is_disabled":false,"rental_uris":{"android":"levelo://app?vid=5fbdbe65-e141-4473-b7c7-3ca166ee6d1f","ios":"levelo://app?vid=5fbdbe65-e141-4473-b7c7-3ca166ee6d1f"},"vehicle_type_id":"4","last_reported":1687291613,"current_range_meters":8000,"station_id":"","pricing_plan_id":"free"},{"bike_id":"cf046abf-940e-472d-9455-35168283be32","system_id":"levelo_inurba_marseille","lat":43.305368,"lon":5.367343,"is_reserved":false,"is_disabled":false,"rental_uris":{"android":"levelo://app?vid=cf046abf-940e-472d-9455-35168283be32","ios":"levelo://app?vid=cf046abf-940e-472d-9455-35168283be32"},"vehicle_type_id":"4","last_reported":1687291613,"current_range_meters":7600,"station_id":"ce4bgrp2rcd13ifvqc9g","pricing_plan_id":"free"},{"bike_id":"4cc7e2d8-0e1d-4d58-80dc-e1c48320dba9","system_id":"levelo_inurba_marseille","lat":43.305989,"lon":5.37225,"is_reserved":false,"is_disabled":false,"rental_uris":{"android":"levelo://app?vid=4cc7e2d8-0e1d-4d58-80dc-e1c48320dba9","ios":"levelo://app?vid=4cc7e2d8-0e1d-4d58-80dc-e1c48320dba9"},"vehicle_type_id":"4","last_reported":1687291613,"current_range_meters":20400,"station_id":"ce4bgqh2rcd13ifvqc4g","pricing_plan_id":"free"},{"bike_id":"0d2ccdb9-7632-4027-b709-c8f850e314c8","system_id":"levelo_inurba_marseille","lat":43.299222,"lon":5.365554,"is_reserved":false,"is_disabled":false,"rental_uris":{"android":"levelo://app?vid=0d2ccdb9-7632-4027-b709-c8f850e314c8","ios":"levelo://app?vid=0d2ccdb9-7632-4027-b709-c8f850e314c8"},"vehicle_type_id":"4","last_reported":1687291613,"current_range_meters":10800,"station_id":"ce4bgm92rcd13ifvqbr0","pricing_plan_id":"free"},{"bike_id":"82f663ca-c417-4f51-828b-160f774f9c8f","system_id":"levelo_inurba_marseille","lat":43.303046,"lon":5.368981,"is_reserved":false,"is_disabled":false,"rental_uris":{"android":"levelo://app?vid=82f663ca-c417-4f51-828b-160f774f9c8f","ios":"levelo://app?vid=82f663ca-c417-4f51-828b-160f774f9c8f"},"vehicle_type_id":"4","last_reported":1687291613,"current_range_meters":14000,"station_id":"ce4bgqh2rcd13ifvqc5g","pricing_plan_id":"free"},{"bike_id":"5a4a79df-e94c-4041-8638-cb02cecae00c","system_id":"levelo_inurba_marseille","lat":43.301939,"lon":5.366286,"is_reserved":false,"is_disabled":false,"rental_uris":{"android":"levelo://app?vid=5a4a79df-e94c-4041-8638-cb02cecae00c","ios":"levelo://app?vid=5a4a79df-e94c-4041-8638-cb02cecae00c"},"vehicle_type_id":"4","last_reported":1687291613,"current_range_meters":5600,"station_id":"ce4bgrh2rcd13ifvqc8g","pricing_plan_id":"free"},{"bike_id":"22b872de-a716-4113-9404-3fd9e5b289c8","system_id":"levelo_inurba_marseille","lat":43.301939,"lon":5.366286,"is_reserved":false,"is_disabled":false,"rental_uris":{"android":"levelo://app?vid=22b872de-a716-4113-9404-3fd9e5b289c8","ios":"levelo://app?vid=22b872de-a716-4113-9404-3fd9e5b289c8"},"vehicle_type_id":"4","last_reported":1687291613,"current_range_meters":6000,"station_id":"ce4bgrh2rcd13ifvqc8g","pricing_plan_id":"free"},{"bike_id":"ff1426d6-8c94-4fb9-a71e-9b0d82f6f24d","system_id":"levelo_inurba_marseille","lat":43.308012,"lon":5.381511,"is_reserved":false,"is_disabled":false,"rental_uris":{"android":"levelo://app?vid=ff1426d6-8c94-4fb9-a71e-9b0d82f6f24d","ios":"levelo://app?vid=ff1426d6-8c94-4fb9-a71e-9b0d82f6f24d"},"vehicle_type_id":"4","last_reported":1687291613,"current_range_meters":0,"station_id":"ce4bgt12rcd13ifvqce0","pricing_plan_id":"free"},{"bike_id":"ae33307b-fcd5-479b-9ae1-9002ed226c6e","system_id":"levelo_inurba_marseille","lat":43.308012,"lon":5.381511,"is_reserved":false,"is_disabled":false,"rental_uris":{"android":"levelo://app?vid=ae33307b-fcd5-479b-9ae1-9002ed226c6e","ios":"levelo://app?vid=ae33307b-fcd5-479b-9ae1-9002ed226c6e"},"vehicle_type_id":"4","last_reported":1687291613,"current_range_meters":19200,"station_id":"ce4bgt12rcd13ifvqce0","pricing_plan_id":"free"},{"bike_id":"e8e50549-4f14-4a79-8e01-73f4b2c3ac89","system_id":"levelo_inurba_marseille","lat":43.30233,"lon":5.37491,"is_reserved":false,"is_disabled":false,"rental_uris":{"android":"levelo://app?vid=e8e50549-4f14-4a79-8e01-73f4b2c3ac89","ios":"levelo://app?vid=e8e50549-4f14-4a79-8e01-73f4b2c3ac89"},"vehicle_type_id":"4","last_reported":1687291613,"current_range_meters":4400,"station_id":"","pricing_plan_id":"free"},{"bike_id":"43fc693e-f2a9-4aec-8fd9-d094bb02cb70","system_id":"levelo_inurba_marseille","lat":43.304606,"lon":5.379026,"is_reserved":false,"is_disabled":false,"rental_uris":{"android":"levelo://app?vid=43fc693e-f2a9-4aec-8fd9-d094bb02cb70","ios":"levelo://app?vid=43fc693e-f2a9-4aec-8fd9-d094bb02cb70"},"vehicle_type_id":"4","last_reported":1687291613,"current_range_meters":8800,"station_id":"ce4bgup2rcd13ifvqcn0","pricing_plan_id":"free"},{"bike_id":"c7c64f8e-4e44-485d-80ef-c29f6be6f29a","system_id":"levelo_inurba_marseille","lat":43.319935,"lon":5.381699,"is_reserved":false,"is_disabled":false,"rental_uris":{"android":"levelo://app?vid=c7c64f8e-4e44-485d-80ef-c29f6be6f29a","ios":"levelo://app?vid=c7c64f8e-4e44-485d-80ef-c29f6be6f29a"},"vehicle_type_id":"4","last_reported":1687291613,"current_range_meters":31200,"station_id":"ce4bhr12rcd13ifvqhpg","pricing_plan_id":"free"},{"bike_id":"baae757c-8f10-49be-a4dd-bb0ca67b7e95","system_id":"levelo_inurba_marseille","lat":43.319935,"lon":5.381699,"is_reserved":false,"is_disabled":false,"rental_uris":{"android":"levelo://app?vid=baae757c-8f10-49be-a4dd-bb0ca67b7e95","ios":"levelo://app?vid=baae757c-8f10-49be-a4dd-bb0ca67b7e95"},"vehicle_type_id":"4","last_reported":1687291613,"current_range_meters":31200,"station_id":"ce4bhr12rcd13ifvqhpg","pricing_plan_id":"free"},{"bike_id":"ac78f4c7-6fc5-44eb-9cd4-13675f3f5d1e","system_id":"levelo_inurba_marseille","lat":43.319935,"lon":5.381699,"is_reserved":false,"is_disabled":false,"rental_uris":{"android":"levelo://app?vid=ac78f4c7-6fc5-44eb-9cd4-13675f3f5d1e","ios":"levelo://app?vid=ac78f4c7-6fc5-44eb-9cd4-13675f3f5d1e"},"vehicle_type_id":"4","last_reported":1687291613,"current_range_meters":29600,"station_id":"ce4bhr12rcd13ifvqhpg","pricing_plan_id":"free"},{"bike_id":"d057949d-ce75-4990-9145-a4652eeb481d","system_id":"levelo_inurba_marseille","lat":43.31361,"lon":5.38488,"is_reserved":false,"is_disabled":false,"rental_uris":{"android":"levelo://app?vid=d057949d-ce75-4990-9145-a4652eeb481d","ios":"levelo://app?vid=d057949d-ce75-4990-9145-a4652eeb481d"},"vehicle_type_id":"4","last_reported":1687291613,"current_range_meters":0,"station_id":"ce4bgt92rcd13ifvqcf0","pricing_plan_id":"free"},{"bike_id":"476af4cc-6d1e-47ac-9d00-55e5bd6e9ba9","system_id":"levelo_inurba_marseille","lat":43.299222,"lon":5.365554,"is_reserved":false,"is_disabled":false,"rental_uris":{"android":"levelo://app?vid=476af4cc-6d1e-47ac-9d00-55e5bd6e9ba9","ios":"levelo://app?vid=476af4cc-6d1e-47ac-9d00-55e5bd6e9ba9"},"vehicle_type_id":"4","last_reported":1687291613,"current_range_meters":17600,"station_id":"ce4bgm92rcd13ifvqbr0","pricing_plan_id":"free"},{"bike_id":"f18cb2dd-653b-4716-99cc-171e6522bcdf","system_id":"levelo_inurba_marseille","lat":43.298433,"lon":5.362774,"is_reserved":false,"is_disabled":false,"rental_uris":{"android":"levelo://app?vid=f18cb2dd-653b-4716-99cc-171e6522bcdf","ios":"levelo://app?vid=f18cb2dd-653b-4716-99cc-171e6522bcdf"},"vehicle_type_id":"4","last_reported":1687291613,"current_range_meters":20800,"station_id":"ce4bgpp2rcd13ifvqc3g","pricing_plan_id":"free"},{"bike_id":"429af25e-d07f-4069-a2a6-cca1850be77c","system_id":"levelo_inurba_marseille","lat":43.311722,"lon":5.387247,"is_reserved":false,"is_disabled":false,"rental_uris":{"android":"levelo://app?vid=429af25e-d07f-4069-a2a6-cca1850be77c","ios":"levelo://app?vid=429af25e-d07f-4069-a2a6-cca1850be77c"},"vehicle_type_id":"4","last_reported":1687291613,"current_range_meters":26400,"station_id":"ce4bgv12rcd13ifvqcp0","pricing_plan_id":"free"},{"bike_id":"fe18f46b-930d-499a-8124-877720636275","system_id":"levelo_inurba_marseille","lat":43.311722,"lon":5.387247,"is_reserved":false,"is_disabled":false,"rental_uris":{"android":"levelo://app?vid=fe18f46b-930d-499a-8124-877720636275","ios":"levelo://app?vid=fe18f46b-930d-499a-8124-877720636275"},"vehicle_type_id":"4","last_reported":1687291613,"current_range_meters":12400,"station_id":"ce4bgv12rcd13ifvqcp0","pricing_plan_id":"free"},{"bike_id":"cb35fc24-ae00-4082-8144-607ecfd6db33","system_id":"levelo_inurba_marseille","lat":43.311722,"lon":5.387247,"is_reserved":false,"is_disabled":false,"rental_uris":{"android":"levelo://app?vid=cb35fc24-ae00-4082-8144-607ecfd6db33","ios":"levelo://app?vid=cb35fc24-ae00-4082-8144-607ecfd6db33"},"vehicle_type_id":"4","last_reported":1687291613,"current_range_meters":14000,"station_id":"ce4bgv12rcd13ifvqcp0","pricing_plan_id":"free"},{"bike_id":"f99353af-7b82-487a-b19c-0691275dcbb1","system_id":"levelo_inurba_marseille","lat":43.299243,"lon":5.37481,"is_reserved":false,"is_disabled":false,"rental_uris":{"android":"levelo://app?vid=f99353af-7b82-487a-b19c-0691275dcbb1","ios":"levelo://app?vid=f99353af-7b82-487a-b19c-0691275dcbb1"},"vehicle_type_id":"4","last_reported":1687291613,"current_range_meters":30000,"station_id":"ce4bgjh2rcd13ifvqbg0","pricing_plan_id":"free"},{"bike_id":"6d92055e-71ea-4dd5-915f-38510e27aba3","system_id":"levelo_inurba_marseille","lat":43.311722,"lon":5.387247,"is_reserved":false,"is_disabled":false,"rental_uris":{"android":"levelo://app?vid=6d92055e-71ea-4dd5-915f-38510e27aba3","ios":"levelo://app?vid=6d92055e-71ea-4dd5-915f-38510e27aba3"},"vehicle_type_id":"4","last_reported":1687291613,"current_range_meters":28000,"station_id":"ce4bgv12rcd13ifvqcp0","pricing_plan_id":"free"},{"bike_id":"87b3b7de-26c0-436a-9466-493f3b8d7f70","system_id":"levelo_inurba_marseille","lat":43.311722,"lon":5.387247,"is_reserved":false,"is_disabled":false,"rental_uris":{"android":"levelo://app?vid=87b3b7de-26c0-436a-9466-493f3b8d7f70","ios":"levelo://app?vid=87b3b7de-26c0-436a-9466-493f3b8d7f70"},"vehicle_type_id":"4","last_reported":1687291613,"current_range_meters":23200,"station_id":"ce4bgv12rcd13ifvqcp0","pricing_plan_id":"free"},{"bike_id":"0511c128-3169-40b3-b630-9b308e2983b0","system_id":"levelo_inurba_marseille","lat":43.311722,"lon":5.387247,"is_reserved":false,"is_disabled":false,"rental_uris":{"android":"levelo://app?vid=0511c128-3169-40b3-b630-9b308e2983b0","ios":"levelo://app?vid=0511c128-3169-40b3-b630-9b308e2983b0"},"vehicle_type_id":"4","last_reported":1687291613,"current_range_meters":6800,"station_id":"ce4bgv12rcd13ifvqcp0","pricing_plan_id":"free"},{"bike_id":"87d19ab1-dc1a-4326-b490-2f55989f3e4a","system_id":"levelo_inurba_marseille","lat":43.30191,"lon":5.38116,"is_reserved":false,"is_disabled":false,"rental_uris":{"android":"levelo://app?vid=87d19ab1-dc1a-4326-b490-2f55989f3e4a","ios":"levelo://app?vid=87d19ab1-dc1a-4326-b490-2f55989f3e4a"},"vehicle_type_id":"4","last_reported":1687291613,"current_range_meters":5200,"station_id":"","pricing_plan_id":"free"},{"bike_id":"408cdbd3-920b-45b4-ab4e-0217d7cee4ab","system_id":"levelo_inurba_marseille","lat":43.32823,"lon":5.36688,"is_reserved":false,"is_disabled":false,"rental_uris":{"android":"levelo://app?vid=408cdbd3-920b-45b4-ab4e-0217d7cee4ab","ios":"levelo://app?vid=408cdbd3-920b-45b4-ab4e-0217d7cee4ab"},"vehicle_type_id":"4","last_reported":1687291613,"current_range_meters":10000,"station_id":"ce4bhs92rcd13ifvqi0g","pricing_plan_id":"free"},{"bike_id":"834d1afe-bb61-4a75-ba6d-f90f323b91a4","system_id":"levelo_inurba_marseille","lat":43.328371,"lon":5.366909,"is_reserved":false,"is_disabled":false,"rental_uris":{"android":"levelo://app?vid=834d1afe-bb61-4a75-ba6d-f90f323b91a4","ios":"levelo://app?vid=834d1afe-bb61-4a75-ba6d-f90f323b91a4"},"vehicle_type_id":"4","last_reported":1687291613,"current_range_meters":24400,"station_id":"ce4bhs92rcd13ifvqi0g","pricing_plan_id":"free"},{"bike_id":"db4e72b2-ad08-4787-8cc1-d917696a4d8b","system_id":"levelo_inurba_marseille","lat":43.328371,"lon":5.366909,"is_reserved":false,"is_disabled":false,"rental_uris":{"android":"levelo://app?vid=db4e72b2-ad08-4787-8cc1-d917696a4d8b","ios":"levelo://app?vid=db4e72b2-ad08-4787-8cc1-d917696a4d8b"},"vehicle_type_id":"4","last_reported":1687291613,"current_range_meters":29600,"station_id":"ce4bhs92rcd13ifvqi0g","pricing_plan_id":"free"},{"bike_id":"b4ea75e9-eca7-4ccc-91f9-d0cb06a4a0a6","system_id":"levelo_inurba_marseille","lat":43.328371,"lon":5.366912,"is_reserved":false,"is_disabled":false,"rental_uris":{"android":"levelo://app?vid=b4ea75e9-eca7-4ccc-91f9-d0cb06a4a0a6","ios":"levelo://app?vid=b4ea75e9-eca7-4ccc-91f9-d0cb06a4a0a6"},"vehicle_type_id":"4","last_reported":1687291613,"current_range_meters":29200,"station_id":"ce4bhs92rcd13ifvqi0g","pricing_plan_id":"free"},{"bike_id":"349b7ed6-f14e-4e88-9788-495af6e5ffa6","system_id":"levelo_inurba_marseille","lat":43.328371,"lon":5.366909,"is_reserved":false,"is_disabled":false,"rental_uris":{"android":"levelo://app?vid=349b7ed6-f14e-4e88-9788-495af6e5ffa6","ios":"levelo://app?vid=349b7ed6-f14e-4e88-9788-495af6e5ffa6"},"vehicle_type_id":"4","last_reported":1687291613,"current_range_meters":0,"station_id":"ce4bhs92rcd13ifvqi0g","pricing_plan_id":"free"},{"bike_id":"f9f1a296-c401-40a0-b431-7544da14c26f","system_id":"levelo_inurba_marseille","lat":43.328371,"lon":5.366909,"is_reserved":false,"is_disabled":false,"rental_uris":{"android":"levelo://app?vid=f9f1a296-c401-40a0-b431-7544da14c26f","ios":"levelo://app?vid=f9f1a296-c401-40a0-b431-7544da14c26f"},"vehicle_type_id":"4","last_reported":1687291613,"current_range_meters":22800,"station_id":"ce4bhs92rcd13ifvqi0g","pricing_plan_id":"free"},{"bike_id":"d6ac5c59-0d1e-4bd5-8d6f-d9281ac2ddeb","system_id":"levelo_inurba_marseille","lat":43.328371,"lon":5.366909,"is_reserved":false,"is_disabled":false,"rental_uris":{"android":"levelo://app?vid=d6ac5c59-0d1e-4bd5-8d6f-d9281ac2ddeb","ios":"levelo://app?vid=d6ac5c59-0d1e-4bd5-8d6f-d9281ac2ddeb"},"vehicle_type_id":"4","last_reported":1687291613,"current_range_meters":11200,"station_id":"ce4bhs92rcd13ifvqi0g","pricing_plan_id":"free"},{"bike_id":"832e1273-fa14-42aa-b411-4f520f45589b","system_id":"levelo_inurba_marseille","lat":43.328371,"lon":5.366912,"is_reserved":false,"is_disabled":false,"rental_uris":{"android":"levelo://app?vid=832e1273-fa14-42aa-b411-4f520f45589b","ios":"levelo://app?vid=832e1273-fa14-42aa-b411-4f520f45589b"},"vehicle_type_id":"4","last_reported":1687291613,"current_range_meters":31200,"station_id":"ce4bhs92rcd13ifvqi0g","pricing_plan_id":"free"},{"bike_id":"176f4894-d7fc-460e-aa5d-7c8c1e206dc3","system_id":"levelo_inurba_marseille","lat":43.29705,"lon":5.36612,"is_reserved":false,"is_disabled":false,"rental_uris":{"android":"levelo://app?vid=176f4894-d7fc-460e-aa5d-7c8c1e206dc3","ios":"levelo://app?vid=176f4894-d7fc-460e-aa5d-7c8c1e206dc3"},"vehicle_type_id":"4","last_reported":1687291613,"current_range_meters":22800,"station_id":"ce4bgn12rcd13ifvqbt0","pricing_plan_id":"free"},{"bike_id":"bf8a3a3d-dd46-4afc-b9bb-3537062ee156","system_id":"levelo_inurba_marseille","lat":43.2968,"lon":5.37291,"is_reserved":false,"is_disabled":false,"rental_uris":{"android":"levelo://app?vid=bf8a3a3d-dd46-4afc-b9bb-3537062ee156","ios":"levelo://app?vid=bf8a3a3d-dd46-4afc-b9bb-3537062ee156"},"vehicle_type_id":"4","last_reported":1687291613,"current_range_meters":22400,"station_id":"ce4bgk12rcd13ifvqbj0","pricing_plan_id":"free"},{"bike_id":"4dd1d36d-0309-406b-8815-b2fdef02ea6c","system_id":"levelo_inurba_marseille","lat":43.32854,"lon":5.375,"is_reserved":false,"is_disabled":false,"rental_uris":{"android":"levelo://app?vid=4dd1d36d-0309-406b-8815-b2fdef02ea6c","ios":"levelo://app?vid=4dd1d36d-0309-406b-8815-b2fdef02ea6c"},"vehicle_type_id":"4","last_reported":1687291613,"current_range_meters":31200,"station_id":"","pricing_plan_id":"free"},{"bike_id":"f94156c3-9f6c-4eda-a8c4-3001b37a9527","system_id":"levelo_inurba_marseille","lat":43.29757,"lon":5.37725,"is_reserved":false,"is_disabled":false,"rental_uris":{"android":"levelo://app?vid=f94156c3-9f6c-4eda-a8c4-3001b37a9527","ios":"levelo://app?vid=f94156c3-9f6c-4eda-a8c4-3001b37a9527"},"vehicle_type_id":"4","last_reported":1687291613,"current_range_meters":400,"station_id":"","pricing_plan_id":"free"},{"bike_id":"24f41ca5-b432-4feb-a0c8-a15026b97306","system_id":"levelo_inurba_marseille","lat":43.296131,"lon":5.370773,"is_reserved":false,"is_disabled":false,"rental_uris":{"android":"levelo://app?vid=24f41ca5-b432-4feb-a0c8-a15026b97306","ios":"levelo://app?vid=24f41ca5-b432-4feb-a0c8-a15026b97306"},"vehicle_type_id":"4","last_reported":1687291613,"current_range_meters":3200,"station_id":"ce4bgnh2rcd13ifvqc0g","pricing_plan_id":"free"},{"bike_id":"041bc147-ef2f-419b-bb81-deca3bdf89e2","system_id":"levelo_inurba_marseille","lat":43.29611,"lon":5.36046,"is_reserved":false,"is_disabled":false,"rental_uris":{"android":"levelo://app?vid=041bc147-ef2f-419b-bb81-deca3bdf89e2","ios":"levelo://app?vid=041bc147-ef2f-419b-bb81-deca3bdf89e2"},"vehicle_type_id":"4","last_reported":1687291613,"current_range_meters":21200,"station_id":"","pricing_plan_id":"free"},{"bike_id":"90b599de-fb53-4ef4-976b-881ecb3e6610","system_id":"levelo_inurba_marseille","lat":43.309589,"lon":5.390258,"is_reserved":false,"is_disabled":false,"rental_uris":{"android":"levelo://app?vid=90b599de-fb53-4ef4-976b-881ecb3e6610","ios":"levelo://app?vid=90b599de-fb53-4ef4-976b-881ecb3e6610"},"vehicle_type_id":"4","last_reported":1687291613,"current_range_meters":6800,"station_id":"ce4bgup2rcd13ifvqco0","pricing_plan_id":"free"},{"bike_id":"400cc5c2-aed3-464c-bc2d-d9ec5e39f734","system_id":"levelo_inurba_marseille","lat":43.309589,"lon":5.390258,"is_reserved":false,"is_disabled":false,"rental_uris":{"android":"levelo://app?vid=400cc5c2-aed3-464c-bc2d-d9ec5e39f734","ios":"levelo://app?vid=400cc5c2-aed3-464c-bc2d-d9ec5e39f734"},"vehicle_type_id":"4","last_reported":1687291613,"current_range_meters":26800,"station_id":"ce4bgup2rcd13ifvqco0","pricing_plan_id":"free"},{"bike_id":"ea7bbd99-61c6-420a-a1a4-78d64035409b","system_id":"levelo_inurba_marseille","lat":43.317557,"lon":5.390173,"is_reserved":false,"is_disabled":false,"rental_uris":{"android":"levelo://app?vid=ea7bbd99-61c6-420a-a1a4-78d64035409b","ios":"levelo://app?vid=ea7bbd99-61c6-420a-a1a4-78d64035409b"},"vehicle_type_id":"4","last_reported":1687291613,"current_range_meters":15600,"station_id":"ce4bhqp2rcd13ifvqhng","pricing_plan_id":"free"},{"bike_id":"af8ea858-6c1e-4734-be23-6556f5c81f6b","system_id":"levelo_inurba_marseille","lat":43.317557,"lon":5.390173,"is_reserved":false,"is_disabled":false,"rental_uris":{"android":"levelo://app?vid=af8ea858-6c1e-4734-be23-6556f5c81f6b","ios":"levelo://app?vid=af8ea858-6c1e-4734-be23-6556f5c81f6b"},"vehicle_type_id":"4","last_reported":1687291613,"current_range_meters":31200,"station_id":"ce4bhqp2rcd13ifvqhng","pricing_plan_id":"free"},{"bike_id":"f38ebc4d-313b-41fa-90d1-ba716c998cb4","system_id":"levelo_inurba_marseille","lat":43.317557,"lon":5.390173,"is_reserved":false,"is_disabled":false,"rental_uris":{"android":"levelo://app?vid=f38ebc4d-313b-41fa-90d1-ba716c998cb4","ios":"levelo://app?vid=f38ebc4d-313b-41fa-90d1-ba716c998cb4"},"vehicle_type_id":"4","last_reported":1687291613,"current_range_meters":31200,"station_id":"ce4bhqp2rcd13ifvqhng","pricing_plan_id":"free"},{"bike_id":"b2769412-5d59-4cb2-933b-49c2cf934ce0","system_id":"levelo_inurba_marseille","lat":43.317557,"lon":5.390173,"is_reserved":false,"is_disabled":false,"rental_uris":{"android":"levelo://app?vid=b2769412-5d59-4cb2-933b-49c2cf934ce0","ios":"levelo://app?vid=b2769412-5d59-4cb2-933b-49c2cf934ce0"},"vehicle_type_id":"4","last_reported":1687291613,"current_range_meters":16000,"station_id":"ce4bhqp2rcd13ifvqhng","pricing_plan_id":"free"},{"bike_id":"a2426ea8-7948-43d1-b915-88ba2e3f8973","system_id":"levelo_inurba_marseille","lat":43.298037,"lon":5.381066,"is_reserved":false,"is_disabled":false,"rental_uris":{"android":"levelo://app?vid=a2426ea8-7948-43d1-b915-88ba2e3f8973","ios":"levelo://app?vid=a2426ea8-7948-43d1-b915-88ba2e3f8973"},"vehicle_type_id":"4","last_reported":1687291613,"current_range_meters":1200,"station_id":"ce4bgip2rcd13ifvqbb0","pricing_plan_id":"free"},{"bike_id":"06759597-b185-4045-9044-b23da426f654","system_id":"levelo_inurba_marseille","lat":43.298037,"lon":5.381066,"is_reserved":false,"is_disabled":false,"rental_uris":{"android":"levelo://app?vid=06759597-b185-4045-9044-b23da426f654","ios":"levelo://app?vid=06759597-b185-4045-9044-b23da426f654"},"vehicle_type_id":"4","last_reported":1687291613,"current_range_meters":0,"station_id":"ce4bgip2rcd13ifvqbb0","pricing_plan_id":"free"},{"bike_id":"250c8a96-8498-4211-b8f3-1b00a8d1fbaf","system_id":"levelo_inurba_marseille","lat":43.296477,"lon":5.37768,"is_reserved":false,"is_disabled":false,"rental_uris":{"android":"levelo://app?vid=250c8a96-8498-4211-b8f3-1b00a8d1fbaf","ios":"levelo://app?vid=250c8a96-8498-4211-b8f3-1b00a8d1fbaf"},"vehicle_type_id":"4","last_reported":1687291613,"current_range_meters":4000,"station_id":"","pricing_plan_id":"free"},{"bike_id":"6ca872b3-dc58-45b7-a421-a5ce4ca49bfe","system_id":"levelo_inurba_marseille","lat":43.296277,"lon":5.377108,"is_reserved":false,"is_disabled":false,"rental_uris":{"android":"levelo://app?vid=6ca872b3-dc58-45b7-a421-a5ce4ca49bfe","ios":"levelo://app?vid=6ca872b3-dc58-45b7-a421-a5ce4ca49bfe"},"vehicle_type_id":"4","last_reported":1687291613,"current_range_meters":21200,"station_id":"ce4bgi92rcd13ifvqb90","pricing_plan_id":"free"},{"bike_id":"d4e5cd3a-de80-4089-a4ca-4f735fd08f4c","system_id":"levelo_inurba_marseille","lat":43.30387,"lon":5.38894,"is_reserved":false,"is_disabled":false,"rental_uris":{"android":"levelo://app?vid=d4e5cd3a-de80-4089-a4ca-4f735fd08f4c","ios":"levelo://app?vid=d4e5cd3a-de80-4089-a4ca-4f735fd08f4c"},"vehicle_type_id":"4","last_reported":1687291613,"current_range_meters":2000,"station_id":"","pricing_plan_id":"free"},{"bike_id":"eb56f040-d7e3-440c-9d05-82afe187dd21","system_id":"levelo_inurba_marseille","lat":43.299717,"lon":5.384845,"is_reserved":false,"is_disabled":false,"rental_uris":{"android":"levelo://app?vid=eb56f040-d7e3-440c-9d05-82afe187dd21","ios":"levelo://app?vid=eb56f040-d7e3-440c-9d05-82afe187dd21"},"vehicle_type_id":"4","last_reported":1687291613,"current_range_meters":30400,"station_id":"ce4bgj92rcd13ifvqbd0","pricing_plan_id":"free"},{"bike_id":"79f940be-328f-478d-aa00-a57517d9bda5","system_id":"levelo_inurba_marseille","lat":43.32367,"lon":5.388836,"is_reserved":false,"is_disabled":false,"rental_uris":{"android":"levelo://app?vid=79f940be-328f-478d-aa00-a57517d9bda5","ios":"levelo://app?vid=79f940be-328f-478d-aa00-a57517d9bda5"},"vehicle_type_id":"4","last_reported":1687291613,"current_range_meters":9200,"station_id":"ce4bhqp2rcd13ifvqhog","pricing_plan_id":"free"},{"bike_id":"b13cbc77-d957-4984-bb84-2727bfd4ea96","system_id":"levelo_inurba_marseille","lat":43.32367,"lon":5.388836,"is_reserved":false,"is_disabled":false,"rental_uris":{"android":"levelo://app?vid=b13cbc77-d957-4984-bb84-2727bfd4ea96","ios":"levelo://app?vid=b13cbc77-d957-4984-bb84-2727bfd4ea96"},"vehicle_type_id":"4","last_reported":1687291613,"current_range_meters":3600,"station_id":"ce4bhqp2rcd13ifvqhog","pricing_plan_id":"free"},{"bike_id":"924f5e2c-3798-48c5-a26b-4aa840da3bf3","system_id":"levelo_inurba_marseille","lat":43.323729,"lon":5.388839,"is_reserved":false,"is_disabled":false,"rental_uris":{"android":"levelo://app?vid=924f5e2c-3798-48c5-a26b-4aa840da3bf3","ios":"levelo://app?vid=924f5e2c-3798-48c5-a26b-4aa840da3bf3"},"vehicle_type_id":"4","last_reported":1687291613,"current_range_meters":24800,"station_id":"","pricing_plan_id":"free"},{"bike_id":"efbf3df7-e108-44d6-878d-857b9a7a3f0d","system_id":"levelo_inurba_marseille","lat":43.292749,"lon":5.368402,"is_reserved":false,"is_disabled":false,"rental_uris":{"android":"levelo://app?vid=efbf3df7-e108-44d6-878d-857b9a7a3f0d","ios":"levelo://app?vid=efbf3df7-e108-44d6-878d-857b9a7a3f0d"},"vehicle_type_id":"4","last_reported":1687291613,"current_range_meters":22800,"station_id":"ce4bhbp2rcd13ifvqesg","pricing_plan_id":"free"},{"bike_id":"da4566df-c939-4683-a8d0-6f74595928f5","system_id":"levelo_inurba_marseille","lat":43.293249,"lon":5.371578,"is_reserved":false,"is_disabled":false,"rental_uris":{"android":"levelo://app?vid=da4566df-c939-4683-a8d0-6f74595928f5","ios":"levelo://app?vid=da4566df-c939-4683-a8d0-6f74595928f5"},"vehicle_type_id":"4","last_reported":1687291613,"current_range_meters":16800,"station_id":"ce4bgh92rcd13ifvqb40","pricing_plan_id":"free"},{"bike_id":"66b480a6-9947-4496-98e2-93e61a3244b4","system_id":"levelo_inurba_marseille","lat":43.306,"lon":5.39353,"is_reserved":false,"is_disabled":false,"rental_uris":{"android":"levelo://app?vid=66b480a6-9947-4496-98e2-93e61a3244b4","ios":"levelo://app?vid=66b480a6-9947-4496-98e2-93e61a3244b4"},"vehicle_type_id":"4","last_reported":1687291613,"current_range_meters":31200,"station_id":"ce4bh0p2rcd13ifvqd80","pricing_plan_id":"free"},{"bike_id":"f96bc5ef-773a-4c29-b818-b40707fecfaa","system_id":"levelo_inurba_marseille","lat":43.30598,"lon":5.39355,"is_reserved":false,"is_disabled":false,"rental_uris":{"android":"levelo://app?vid=f96bc5ef-773a-4c29-b818-b40707fecfaa","ios":"levelo://app?vid=f96bc5ef-773a-4c29-b818-b40707fecfaa"},"vehicle_type_id":"4","last_reported":1687291613,"current_range_meters":31200,"station_id":"ce4bh0p2rcd13ifvqd80","pricing_plan_id":"free"},{"bike_id":"c2f91583-00ed-4a2d-8e10-6fdc74937e83","system_id":"levelo_inurba_marseille","lat":43.302992,"lon":5.392136,"is_reserved":false,"is_disabled":false,"rental_uris":{"android":"levelo://app?vid=c2f91583-00ed-4a2d-8e10-6fdc74937e83","ios":"levelo://app?vid=c2f91583-00ed-4a2d-8e10-6fdc74937e83"},"vehicle_type_id":"4","last_reported":1687291613,"current_range_meters":2400,"station_id":"ce4bgkh2rcd13ifvqbk0","pricing_plan_id":"free"},{"bike_id":"9e793958-bb4c-4d51-9e90-dbfb158506fc","system_id":"levelo_inurba_marseille","lat":43.29366,"lon":5.37822,"is_reserved":false,"is_disabled":false,"rental_uris":{"android":"levelo://app?vid=9e793958-bb4c-4d51-9e90-dbfb158506fc","ios":"levelo://app?vid=9e793958-bb4c-4d51-9e90-dbfb158506fc"},"vehicle_type_id":"4","last_reported":1687291613,"current_range_meters":23200,"station_id":"ce4bgjh2rcd13ifvqbf0","pricing_plan_id":"free"},{"bike_id":"7ee8e857-e58f-4d0f-9ec8-cf55d6494b29","system_id":"levelo_inurba_marseille","lat":43.29264,"lon":5.35965,"is_reserved":false,"is_disabled":false,"rental_uris":{"android":"levelo://app?vid=7ee8e857-e58f-4d0f-9ec8-cf55d6494b29","ios":"levelo://app?vid=7ee8e857-e58f-4d0f-9ec8-cf55d6494b29"},"vehicle_type_id":"4","last_reported":1687291613,"current_range_meters":800,"station_id":"","pricing_plan_id":"free"},{"bike_id":"cf2f3679-edf4-43f5-b3e2-c8b53c735b5a","system_id":"levelo_inurba_marseille","lat":43.29837,"lon":5.38789,"is_reserved":false,"is_disabled":false,"rental_uris":{"android":"levelo://app?vid=cf2f3679-edf4-43f5-b3e2-c8b53c735b5a","ios":"levelo://app?vid=cf2f3679-edf4-43f5-b3e2-c8b53c735b5a"},"vehicle_type_id":"4","last_reported":1687291613,"current_range_meters":0,"station_id":"","pricing_plan_id":"free"},{"bike_id":"4844239b-74c2-4608-9aec-e498d0cfe7e6","system_id":"levelo_inurba_marseille","lat":43.30085,"lon":5.390856,"is_reserved":false,"is_disabled":false,"rental_uris":{"android":"levelo://app?vid=4844239b-74c2-4608-9aec-e498d0cfe7e6","ios":"levelo://app?vid=4844239b-74c2-4608-9aec-e498d0cfe7e6"},"vehicle_type_id":"4","last_reported":1687291613,"current_range_meters":30800,"station_id":"ce4bh192rcd13ifvqdb0","pricing_plan_id":"free"},{"bike_id":"7ea1ce43-32bd-447a-ae83-e99017fde583","system_id":"levelo_inurba_marseille","lat":43.298764,"lon":5.388973,"is_reserved":false,"is_disabled":false,"rental_uris":{"android":"levelo://app?vid=7ea1ce43-32bd-447a-ae83-e99017fde583","ios":"levelo://app?vid=7ea1ce43-32bd-447a-ae83-e99017fde583"},"vehicle_type_id":"4","last_reported":1687291613,"current_range_meters":4800,"station_id":"ce4bh392rcd13ifvqdl0","pricing_plan_id":"free"},{"bike_id":"1c412f54-761e-43a5-b09b-89b29e108064","system_id":"levelo_inurba_marseille","lat":43.298764,"lon":5.388973,"is_reserved":false,"is_disabled":false,"rental_uris":{"android":"levelo://app?vid=1c412f54-761e-43a5-b09b-89b29e108064","ios":"levelo://app?vid=1c412f54-761e-43a5-b09b-89b29e108064"},"vehicle_type_id":"4","last_reported":1687291613,"current_range_meters":23600,"station_id":"ce4bh392rcd13ifvqdl0","pricing_plan_id":"free"},{"bike_id":"748c1ecd-f42f-473a-a13b-ca7191525740","system_id":"levelo_inurba_marseille","lat":43.298764,"lon":5.388973,"is_reserved":false,"is_disabled":false,"rental_uris":{"android":"levelo://app?vid=748c1ecd-f42f-473a-a13b-ca7191525740","ios":"levelo://app?vid=748c1ecd-f42f-473a-a13b-ca7191525740"},"vehicle_type_id":"4","last_reported":1687291613,"current_range_meters":0,"station_id":"ce4bh392rcd13ifvqdl0","pricing_plan_id":"free"},{"bike_id":"7a87f340-ac4b-47c8-ac5c-b336014b0809","system_id":"levelo_inurba_marseille","lat":43.30884,"lon":5.39633,"is_reserved":false,"is_disabled":false,"rental_uris":{"android":"levelo://app?vid=7a87f340-ac4b-47c8-ac5c-b336014b0809","ios":"levelo://app?vid=7a87f340-ac4b-47c8-ac5c-b336014b0809"},"vehicle_type_id":"4","last_reported":1687291613,"current_range_meters":17600,"station_id":"ce4bh012rcd13ifvqcv0","pricing_plan_id":"free"},{"bike_id":"44d81b50-8e77-4afb-bb64-bef15549b486","system_id":"levelo_inurba_marseille","lat":43.309038,"lon":5.396546,"is_reserved":false,"is_disabled":false,"rental_uris":{"android":"levelo://app?vid=44d81b50-8e77-4afb-bb64-bef15549b486","ios":"levelo://app?vid=44d81b50-8e77-4afb-bb64-bef15549b486"},"vehicle_type_id":"4","last_reported":1687291613,"current_range_meters":20400,"station_id":"ce4bh012rcd13ifvqcv0","pricing_plan_id":"free"},{"bike_id":"7367c022-5355-4bab-b5a6-2a7d1c6f947e","system_id":"levelo_inurba_marseille","lat":43.309038,"lon":5.396546,"is_reserved":false,"is_disabled":false,"rental_uris":{"android":"levelo://app?vid=7367c022-5355-4bab-b5a6-2a7d1c6f947e","ios":"levelo://app?vid=7367c022-5355-4bab-b5a6-2a7d1c6f947e"},"vehicle_type_id":"4","last_reported":1687291613,"current_range_meters":0,"station_id":"ce4bh012rcd13ifvqcv0","pricing_plan_id":"free"},{"bike_id":"91f27ca4-b1d4-4b07-bbb6-4e3add10a601","system_id":"levelo_inurba_marseille","lat":43.309038,"lon":5.396546,"is_reserved":false,"is_disabled":false,"rental_uris":{"android":"levelo://app?vid=91f27ca4-b1d4-4b07-bbb6-4e3add10a601","ios":"levelo://app?vid=91f27ca4-b1d4-4b07-bbb6-4e3add10a601"},"vehicle_type_id":"4","last_reported":1687291613,"current_range_meters":400,"station_id":"ce4bh012rcd13ifvqcv0","pricing_plan_id":"free"},{"bike_id":"d38c5de4-1b75-44fb-88b5-eb30bcdcd7d0","system_id":"levelo_inurba_marseille","lat":43.313243,"lon":5.396843,"is_reserved":false,"is_disabled":false,"rental_uris":{"android":"levelo://app?vid=d38c5de4-1b75-44fb-88b5-eb30bcdcd7d0","ios":"levelo://app?vid=d38c5de4-1b75-44fb-88b5-eb30bcdcd7d0"},"vehicle_type_id":"4","last_reported":1687291613,"current_range_meters":21200,"station_id":"","pricing_plan_id":"free"},{"bike_id":"cfe4423a-4e9d-4a2b-83c3-2838fc848d96","system_id":"levelo_inurba_marseille","lat":43.309038,"lon":5.396546,"is_reserved":false,"is_disabled":false,"rental_uris":{"android":"levelo://app?vid=cfe4423a-4e9d-4a2b-83c3-2838fc848d96","ios":"levelo://app?vid=cfe4423a-4e9d-4a2b-83c3-2838fc848d96"},"vehicle_type_id":"4","last_reported":1687291613,"current_range_meters":26000,"station_id":"ce4bh012rcd13ifvqcv0","pricing_plan_id":"free"},{"bike_id":"522b8a82-5251-429a-981a-15ca22e57cb0","system_id":"levelo_inurba_marseille","lat":43.313291,"lon":5.396838,"is_reserved":false,"is_disabled":false,"rental_uris":{"android":"levelo://app?vid=522b8a82-5251-429a-981a-15ca22e57cb0","ios":"levelo://app?vid=522b8a82-5251-429a-981a-15ca22e57cb0"},"vehicle_type_id":"4","last_reported":1687291613,"current_range_meters":0,"station_id":"ce4bgvp2rcd13ifvqcu0","pricing_plan_id":"free"},{"bike_id":"b859ee65-8c3d-420a-925c-1e111b8afe8f","system_id":"levelo_inurba_marseille","lat":43.30883,"lon":5.39639,"is_reserved":false,"is_disabled":false,"rental_uris":{"android":"levelo://app?vid=b859ee65-8c3d-420a-925c-1e111b8afe8f","ios":"levelo://app?vid=b859ee65-8c3d-420a-925c-1e111b8afe8f"},"vehicle_type_id":"4","last_reported":1687291613,"current_range_meters":26800,"station_id":"","pricing_plan_id":"free"},{"bike_id":"15c5178f-5561-4295-8c7c-94b581c4621a","system_id":"levelo_inurba_marseille","lat":43.313291,"lon":5.396838,"is_reserved":false,"is_disabled":false,"rental_uris":{"android":"levelo://app?vid=15c5178f-5561-4295-8c7c-94b581c4621a","ios":"levelo://app?vid=15c5178f-5561-4295-8c7c-94b581c4621a"},"vehicle_type_id":"4","last_reported":1687291613,"current_range_meters":8000,"station_id":"ce4bgvp2rcd13ifvqcu0","pricing_plan_id":"free"},{"bike_id":"cce40203-1d8e-41e8-a9fd-763d2f677c68","system_id":"levelo_inurba_marseille","lat":43.31333,"lon":5.39691,"is_reserved":false,"is_disabled":false,"rental_uris":{"android":"levelo://app?vid=cce40203-1d8e-41e8-a9fd-763d2f677c68","ios":"levelo://app?vid=cce40203-1d8e-41e8-a9fd-763d2f677c68"},"vehicle_type_id":"4","last_reported":1687291613,"current_range_meters":14000,"station_id":"ce4bgvp2rcd13ifvqcu0","pricing_plan_id":"free"},{"bike_id":"3ab8eaba-da7b-4776-86b0-5d390c3508d9","system_id":"levelo_inurba_marseille","lat":43.30885,"lon":5.39644,"is_reserved":false,"is_disabled":false,"rental_uris":{"android":"levelo://app?vid=3ab8eaba-da7b-4776-86b0-5d390c3508d9","ios":"levelo://app?vid=3ab8eaba-da7b-4776-86b0-5d390c3508d9"},"vehicle_type_id":"4","last_reported":1687291613,"current_range_meters":8800,"station_id":"ce4bh012rcd13ifvqcv0","pricing_plan_id":"free"},{"bike_id":"3d2f0f76-3088-4456-9663-2afb7577fa88","system_id":"levelo_inurba_marseille","lat":43.309038,"lon":5.396546,"is_reserved":false,"is_disabled":false,"rental_uris":{"android":"levelo://app?vid=3d2f0f76-3088-4456-9663-2afb7577fa88","ios":"levelo://app?vid=3d2f0f76-3088-4456-9663-2afb7577fa88"},"vehicle_type_id":"4","last_reported":1687291613,"current_range_meters":3600,"station_id":"ce4bh012rcd13ifvqcv0","pricing_plan_id":"free"},{"bike_id":"fb9fbaed-5d69-4a64-a3bc-f40695100982","system_id":"levelo_inurba_marseille","lat":43.31329,"lon":5.39692,"is_reserved":false,"is_disabled":false,"rental_uris":{"android":"levelo://app?vid=fb9fbaed-5d69-4a64-a3bc-f40695100982","ios":"levelo://app?vid=fb9fbaed-5d69-4a64-a3bc-f40695100982"},"vehicle_type_id":"4","last_reported":1687291613,"current_range_meters":23600,"station_id":"ce4bgvp2rcd13ifvqcu0","pricing_plan_id":"free"},{"bike_id":"4a4f54b4-b64a-425e-a820-e56c7df62da5","system_id":"levelo_inurba_marseille","lat":43.30884,"lon":5.39648,"is_reserved":false,"is_disabled":false,"rental_uris":{"android":"levelo://app?vid=4a4f54b4-b64a-425e-a820-e56c7df62da5","ios":"levelo://app?vid=4a4f54b4-b64a-425e-a820-e56c7df62da5"},"vehicle_type_id":"4","last_reported":1687291613,"current_range_meters":24800,"station_id":"","pricing_plan_id":"free"},{"bike_id":"b72739af-7d15-4451-89a6-ac1874f77f79","system_id":"levelo_inurba_marseille","lat":43.31328,"lon":5.397,"is_reserved":false,"is_disabled":false,"rental_uris":{"android":"levelo://app?vid=b72739af-7d15-4451-89a6-ac1874f77f79","ios":"levelo://app?vid=b72739af-7d15-4451-89a6-ac1874f77f79"},"vehicle_type_id":"4","last_reported":1687291613,"current_range_meters":16000,"station_id":"ce4bgvp2rcd13ifvqcu0","pricing_plan_id":"free"},{"bike_id":"668d6581-ffb5-4672-a44a-ab599637160f","system_id":"levelo_inurba_marseille","lat":43.30883,"lon":5.39654,"is_reserved":false,"is_disabled":false,"rental_uris":{"android":"levelo://app?vid=668d6581-ffb5-4672-a44a-ab599637160f","ios":"levelo://app?vid=668d6581-ffb5-4672-a44a-ab599637160f"},"vehicle_type_id":"4","last_reported":1687291613,"current_range_meters":4400,"station_id":"","pricing_plan_id":"free"},{"bike_id":"71adf10d-2a55-45fc-adf9-28c46d0517aa","system_id":"levelo_inurba_marseille","lat":43.308828,"lon":5.396607,"is_reserved":false,"is_disabled":false,"rental_uris":{"android":"levelo://app?vid=71adf10d-2a55-45fc-adf9-28c46d0517aa","ios":"levelo://app?vid=71adf10d-2a55-45fc-adf9-28c46d0517aa"},"vehicle_type_id":"4","last_reported":1687291613,"current_range_meters":27200,"station_id":"ce4bh0p2rcd13ifvqd80","pricing_plan_id":"free"},{"bike_id":"6a6a964e-a944-4fd6-8a9e-d4a812c60838","system_id":"levelo_inurba_marseille","lat":43.29529,"lon":5.385581,"is_reserved":false,"is_disabled":false,"rental_uris":{"android":"levelo://app?vid=6a6a964e-a944-4fd6-8a9e-d4a812c60838","ios":"levelo://app?vid=6a6a964e-a944-4fd6-8a9e-d4a812c60838"},"vehicle_type_id":"4","last_reported":1687291613,"current_range_meters":31200,"station_id":"ce4bgih2rcd13ifvqba0","pricing_plan_id":"free"},{"bike_id":"49d555fc-6a73-4f7b-bccb-ef44d6db76b7","system_id":"levelo_inurba_marseille","lat":43.29538,"lon":5.38541,"is_reserved":false,"is_disabled":false,"rental_uris":{"android":"levelo://app?vid=49d555fc-6a73-4f7b-bccb-ef44d6db76b7","ios":"levelo://app?vid=49d555fc-6a73-4f7b-bccb-ef44d6db76b7"},"vehicle_type_id":"4","last_reported":1687291613,"current_range_meters":5600,"station_id":"ce4bgih2rcd13ifvqba0","pricing_plan_id":"free"},{"bike_id":"045baaab-84f4-4081-ae8a-6a28aecacd56","system_id":"levelo_inurba_marseille","lat":43.29529,"lon":5.385581,"is_reserved":false,"is_disabled":false,"rental_uris":{"android":"levelo://app?vid=045baaab-84f4-4081-ae8a-6a28aecacd56","ios":"levelo://app?vid=045baaab-84f4-4081-ae8a-6a28aecacd56"},"vehicle_type_id":"4","last_reported":1687291613,"current_range_meters":23200,"station_id":"ce4bgih2rcd13ifvqba0","pricing_plan_id":"free"},{"bike_id":"34818ed4-8655-4e18-ad2b-d2aa67663749","system_id":"levelo_inurba_marseille","lat":43.29529,"lon":5.385581,"is_reserved":false,"is_disabled":false,"rental_uris":{"android":"levelo://app?vid=34818ed4-8655-4e18-ad2b-d2aa67663749","ios":"levelo://app?vid=34818ed4-8655-4e18-ad2b-d2aa67663749"},"vehicle_type_id":"4","last_reported":1687291613,"current_range_meters":15200,"station_id":"ce4bgih2rcd13ifvqba0","pricing_plan_id":"free"},{"bike_id":"7657a595-ce42-47cd-9840-948331f7adb3","system_id":"levelo_inurba_marseille","lat":43.29529,"lon":5.385581,"is_reserved":false,"is_disabled":false,"rental_uris":{"android":"levelo://app?vid=7657a595-ce42-47cd-9840-948331f7adb3","ios":"levelo://app?vid=7657a595-ce42-47cd-9840-948331f7adb3"},"vehicle_type_id":"4","last_reported":1687291613,"current_range_meters":2400,"station_id":"ce4bgih2rcd13ifvqba0","pricing_plan_id":"free"},{"bike_id":"3353e38c-a9f0-47c3-8db3-6ecdc20b8dc7","system_id":"levelo_inurba_marseille","lat":43.29529,"lon":5.385581,"is_reserved":false,"is_disabled":false,"rental_uris":{"android":"levelo://app?vid=3353e38c-a9f0-47c3-8db3-6ecdc20b8dc7","ios":"levelo://app?vid=3353e38c-a9f0-47c3-8db3-6ecdc20b8dc7"},"vehicle_type_id":"4","last_reported":1687291613,"current_range_meters":17600,"station_id":"ce4bgih2rcd13ifvqba0","pricing_plan_id":"free"},{"bike_id":"674a6505-1a93-4e55-8e99-19d693d64f20","system_id":"levelo_inurba_marseille","lat":43.29529,"lon":5.385581,"is_reserved":false,"is_disabled":false,"rental_uris":{"android":"levelo://app?vid=674a6505-1a93-4e55-8e99-19d693d64f20","ios":"levelo://app?vid=674a6505-1a93-4e55-8e99-19d693d64f20"},"vehicle_type_id":"4","last_reported":1687291613,"current_range_meters":18000,"station_id":"ce4bgih2rcd13ifvqba0","pricing_plan_id":"free"},{"bike_id":"58dc27bf-3f2b-4c64-9b28-93922fd799e9","system_id":"levelo_inurba_marseille","lat":43.29527,"lon":5.38544,"is_reserved":false,"is_disabled":false,"rental_uris":{"android":"levelo://app?vid=58dc27bf-3f2b-4c64-9b28-93922fd799e9","ios":"levelo://app?vid=58dc27bf-3f2b-4c64-9b28-93922fd799e9"},"vehicle_type_id":"4","last_reported":1687291613,"current_range_meters":26800,"station_id":"ce4bgih2rcd13ifvqba0","pricing_plan_id":"free"},{"bike_id":"56e6e7ab-8190-4069-b716-86d9409949bb","system_id":"levelo_inurba_marseille","lat":43.29529,"lon":5.385581,"is_reserved":false,"is_disabled":false,"rental_uris":{"android":"levelo://app?vid=56e6e7ab-8190-4069-b716-86d9409949bb","ios":"levelo://app?vid=56e6e7ab-8190-4069-b716-86d9409949bb"},"vehicle_type_id":"4","last_reported":1687291613,"current_range_meters":13200,"station_id":"ce4bgih2rcd13ifvqba0","pricing_plan_id":"free"},{"bike_id":"a146365f-24f0-422d-8825-3042322414f6","system_id":"levelo_inurba_marseille","lat":43.290631,"lon":5.359244,"is_reserved":false,"is_disabled":false,"rental_uris":{"android":"levelo://app?vid=a146365f-24f0-422d-8825-3042322414f6","ios":"levelo://app?vid=a146365f-24f0-422d-8825-3042322414f6"},"vehicle_type_id":"4","last_reported":1687291613,"current_range_meters":6800,"station_id":"ce4bha92rcd13ifvqeg0","pricing_plan_id":"free"},{"bike_id":"01eb0812-4558-4aea-bf50-ad066f363f38","system_id":"levelo_inurba_marseille","lat":43.28964,"lon":5.36438,"is_reserved":false,"is_disabled":false,"rental_uris":{"android":"levelo://app?vid=01eb0812-4558-4aea-bf50-ad066f363f38","ios":"levelo://app?vid=01eb0812-4558-4aea-bf50-ad066f363f38"},"vehicle_type_id":"4","last_reported":1687291613,"current_range_meters":6400,"station_id":"","pricing_plan_id":"free"},{"bike_id":"d5fc2459-3a41-41de-b336-e9ac2e3ce1bf","system_id":"levelo_inurba_marseille","lat":43.290327,"lon":5.375711,"is_reserved":false,"is_disabled":false,"rental_uris":{"android":"levelo://app?vid=d5fc2459-3a41-41de-b336-e9ac2e3ce1bf","ios":"levelo://app?vid=d5fc2459-3a41-41de-b336-e9ac2e3ce1bf"},"vehicle_type_id":"4","last_reported":1687291613,"current_range_meters":14400,"station_id":"ce4bh692rcd13ifvqe90","pricing_plan_id":"free"},{"bike_id":"3f8a925a-6a54-4259-a38f-9cf091aab246","system_id":"levelo_inurba_marseille","lat":43.294162,"lon":5.386292,"is_reserved":false,"is_disabled":false,"rental_uris":{"android":"levelo://app?vid=3f8a925a-6a54-4259-a38f-9cf091aab246","ios":"levelo://app?vid=3f8a925a-6a54-4259-a38f-9cf091aab246"},"vehicle_type_id":"4","last_reported":1687291613,"current_range_meters":31200,"station_id":"ce4bh2h2rcd13ifvqdh0","pricing_plan_id":"free"},{"bike_id":"0609f09b-61e5-40d1-a057-3a5b9409ddd1","system_id":"levelo_inurba_marseille","lat":43.294153,"lon":5.386305,"is_reserved":false,"is_disabled":false,"rental_uris":{"android":"levelo://app?vid=0609f09b-61e5-40d1-a057-3a5b9409ddd1","ios":"levelo://app?vid=0609f09b-61e5-40d1-a057-3a5b9409ddd1"},"vehicle_type_id":"4","last_reported":1687291613,"current_range_meters":23600,"station_id":"ce4bh2h2rcd13ifvqdh0","pricing_plan_id":"free"},{"bike_id":"7b9aa4ef-e120-4495-b17e-dec81496ec46","system_id":"levelo_inurba_marseille","lat":43.294162,"lon":5.386292,"is_reserved":false,"is_disabled":false,"rental_uris":{"android":"levelo://app?vid=7b9aa4ef-e120-4495-b17e-dec81496ec46","ios":"levelo://app?vid=7b9aa4ef-e120-4495-b17e-dec81496ec46"},"vehicle_type_id":"4","last_reported":1687291613,"current_range_meters":3200,"station_id":"ce4bh2h2rcd13ifvqdh0","pricing_plan_id":"free"},{"bike_id":"640956db-7ce6-4c84-b478-5adeb22e10bf","system_id":"levelo_inurba_marseille","lat":43.290327,"lon":5.375711,"is_reserved":false,"is_disabled":false,"rental_uris":{"android":"levelo://app?vid=640956db-7ce6-4c84-b478-5adeb22e10bf","ios":"levelo://app?vid=640956db-7ce6-4c84-b478-5adeb22e10bf"},"vehicle_type_id":"4","last_reported":1687291613,"current_range_meters":17600,"station_id":"ce4bh692rcd13ifvqe90","pricing_plan_id":"free"},{"bike_id":"7382a73e-cdb3-4890-a36d-ea634aeed312","system_id":"levelo_inurba_marseille","lat":43.289184,"lon":5.366408,"is_reserved":false,"is_disabled":false,"rental_uris":{"android":"levelo://app?vid=7382a73e-cdb3-4890-a36d-ea634aeed312","ios":"levelo://app?vid=7382a73e-cdb3-4890-a36d-ea634aeed312"},"vehicle_type_id":"4","last_reported":1687291613,"current_range_meters":11600,"station_id":"ce4bhap2rcd13ifvqek0","pricing_plan_id":"free"},{"bike_id":"1b637627-da6a-4dd5-9ea4-9d26d6cafe90","system_id":"levelo_inurba_marseille","lat":43.289184,"lon":5.366408,"is_reserved":false,"is_disabled":false,"rental_uris":{"android":"levelo://app?vid=1b637627-da6a-4dd5-9ea4-9d26d6cafe90","ios":"levelo://app?vid=1b637627-da6a-4dd5-9ea4-9d26d6cafe90"},"vehicle_type_id":"4","last_reported":1687291613,"current_range_meters":31200,"station_id":"ce4bhap2rcd13ifvqek0","pricing_plan_id":"free"},{"bike_id":"cf16cb8a-3cc9-4a79-a05e-7abb06f2505e","system_id":"levelo_inurba_marseille","lat":43.289468,"lon":5.363719,"is_reserved":false,"is_disabled":false,"rental_uris":{"android":"levelo://app?vid=cf16cb8a-3cc9-4a79-a05e-7abb06f2505e","ios":"levelo://app?vid=cf16cb8a-3cc9-4a79-a05e-7abb06f2505e"},"vehicle_type_id":"4","last_reported":1687291613,"current_range_meters":0,"station_id":"ce4bhc92rcd13ifvqetg","pricing_plan_id":"free"},{"bike_id":"f8513c32-11c3-4680-b591-2be6f83fd0cb","system_id":"levelo_inurba_marseille","lat":43.289468,"lon":5.363719,"is_reserved":false,"is_disabled":false,"rental_uris":{"android":"levelo://app?vid=f8513c32-11c3-4680-b591-2be6f83fd0cb","ios":"levelo://app?vid=f8513c32-11c3-4680-b591-2be6f83fd0cb"},"vehicle_type_id":"4","last_reported":1687291613,"current_range_meters":19200,"station_id":"ce4bhc92rcd13ifvqetg","pricing_plan_id":"free"},{"bike_id":"fb105f1c-1061-4a42-9142-cc604052e2db","system_id":"levelo_inurba_marseille","lat":43.284793,"lon":5.384119,"is_reserved":false,"is_disabled":false,"rental_uris":{"android":"levelo://app?vid=fb105f1c-1061-4a42-9142-cc604052e2db","ios":"levelo://app?vid=fb105f1c-1061-4a42-9142-cc604052e2db"},"vehicle_type_id":"4","last_reported":1687291613,"current_range_meters":0,"station_id":"ce4bh512rcd13ifvqe3g","pricing_plan_id":"free"},{"bike_id":"2cc9e888-3b58-4840-81b2-16d0db46d3da","system_id":"levelo_inurba_marseille","lat":43.29271,"lon":5.38437,"is_reserved":false,"is_disabled":false,"rental_uris":{"android":"levelo://app?vid=2cc9e888-3b58-4840-81b2-16d0db46d3da","ios":"levelo://app?vid=2cc9e888-3b58-4840-81b2-16d0db46d3da"},"vehicle_type_id":"4","last_reported":1687291613,"current_range_meters":16400,"station_id":"ce4bh692rcd13ifvqea0","pricing_plan_id":"free"},{"bike_id":"3d258297-ddda-432e-8354-ec6c47e89630","system_id":"levelo_inurba_marseille","lat":43.29268,"lon":5.38442,"is_reserved":false,"is_disabled":false,"rental_uris":{"android":"levelo://app?vid=3d258297-ddda-432e-8354-ec6c47e89630","ios":"levelo://app?vid=3d258297-ddda-432e-8354-ec6c47e89630"},"vehicle_type_id":"4","last_reported":1687291613,"current_range_meters":13200,"station_id":"ce4bh692rcd13ifvqea0","pricing_plan_id":"free"},{"bike_id":"27e78303-907e-42b2-b1ad-06ba1cbcc61f","system_id":"levelo_inurba_marseille","lat":43.304296,"lon":5.397513,"is_reserved":false,"is_disabled":false,"rental_uris":{"android":"levelo://app?vid=27e78303-907e-42b2-b1ad-06ba1cbcc61f","ios":"levelo://app?vid=27e78303-907e-42b2-b1ad-06ba1cbcc61f"},"vehicle_type_id":"4","last_reported":1687291613,"current_range_meters":21600,"station_id":"ce4bh092rcd13ifvqd20","pricing_plan_id":"free"},{"bike_id":"7a5001d0-4334-40f1-9012-8a6a3c2d844e","system_id":"levelo_inurba_marseille","lat":43.29263,"lon":5.38449,"is_reserved":false,"is_disabled":false,"rental_uris":{"android":"levelo://app?vid=7a5001d0-4334-40f1-9012-8a6a3c2d844e","ios":"levelo://app?vid=7a5001d0-4334-40f1-9012-8a6a3c2d844e"},"vehicle_type_id":"4","last_reported":1687291613,"current_range_meters":16000,"station_id":"ce4bh692rcd13ifvqea0","pricing_plan_id":"free"},{"bike_id":"38eb09af-7166-42b9-865e-84246929498f","system_id":"levelo_inurba_marseille","lat":43.29261,"lon":5.38447,"is_reserved":false,"is_disabled":false,"rental_uris":{"android":"levelo://app?vid=38eb09af-7166-42b9-865e-84246929498f","ios":"levelo://app?vid=38eb09af-7166-42b9-865e-84246929498f"},"vehicle_type_id":"4","last_reported":1687291613,"current_range_meters":31200,"station_id":"ce4bh692rcd13ifvqea0","pricing_plan_id":"free"},{"bike_id":"33a98ba2-79ab-4a17-aedb-bbb914df7a29","system_id":"levelo_inurba_marseille","lat":43.295169,"lon":5.390426,"is_reserved":false,"is_disabled":false,"rental_uris":{"android":"levelo://app?vid=33a98ba2-79ab-4a17-aedb-bbb914df7a29","ios":"levelo://app?vid=33a98ba2-79ab-4a17-aedb-bbb914df7a29"},"vehicle_type_id":"4","last_reported":1687291613,"current_range_meters":18000,"station_id":"ce4bh3p2rcd13ifvqdp0","pricing_plan_id":"free"},{"bike_id":"9dd688ce-4c78-4daf-85f5-24b6f40c889b","system_id":"levelo_inurba_marseille","lat":43.289741,"lon":5.378306,"is_reserved":false,"is_disabled":false,"rental_uris":{"android":"levelo://app?vid=9dd688ce-4c78-4daf-85f5-24b6f40c889b","ios":"levelo://app?vid=9dd688ce-4c78-4daf-85f5-24b6f40c889b"},"vehicle_type_id":"4","last_reported":1687291613,"current_range_meters":6800,"station_id":"ce4bh9p2rcd13ifvqed0","pricing_plan_id":"free"},{"bike_id":"415a70b5-4308-48c6-b10f-0593aac4c571","system_id":"levelo_inurba_marseille","lat":43.295169,"lon":5.390426,"is_reserved":false,"is_disabled":false,"rental_uris":{"android":"levelo://app?vid=415a70b5-4308-48c6-b10f-0593aac4c571","ios":"levelo://app?vid=415a70b5-4308-48c6-b10f-0593aac4c571"},"vehicle_type_id":"4","last_reported":1687291613,"current_range_meters":5200,"station_id":"ce4bh3p2rcd13ifvqdp0","pricing_plan_id":"free"},{"bike_id":"8ee7c206-0a5f-4f01-b955-4f809383abf7","system_id":"levelo_inurba_marseille","lat":43.29027,"lon":5.38127,"is_reserved":false,"is_disabled":false,"rental_uris":{"android":"levelo://app?vid=8ee7c206-0a5f-4f01-b955-4f809383abf7","ios":"levelo://app?vid=8ee7c206-0a5f-4f01-b955-4f809383abf7"},"vehicle_type_id":"4","last_reported":1687291613,"current_range_meters":31200,"station_id":"ce4bh4p2rcd13ifvqe1g","pricing_plan_id":"free"},{"bike_id":"6e73d602-93d7-494f-9afd-fe2c0d3d9594","system_id":"levelo_inurba_marseille","lat":43.29027,"lon":5.3813,"is_reserved":false,"is_disabled":false,"rental_uris":{"android":"levelo://app?vid=6e73d602-93d7-494f-9afd-fe2c0d3d9594","ios":"levelo://app?vid=6e73d602-93d7-494f-9afd-fe2c0d3d9594"},"vehicle_type_id":"4","last_reported":1687291613,"current_range_meters":31200,"station_id":"ce4bh4p2rcd13ifvqe1g","pricing_plan_id":"free"},{"bike_id":"63e231fc-75f0-419f-878a-183af92d2c29","system_id":"levelo_inurba_marseille","lat":43.29026,"lon":5.38142,"is_reserved":false,"is_disabled":false,"rental_uris":{"android":"levelo://app?vid=63e231fc-75f0-419f-878a-183af92d2c29","ios":"levelo://app?vid=63e231fc-75f0-419f-878a-183af92d2c29"},"vehicle_type_id":"4","last_reported":1687291613,"current_range_meters":16400,"station_id":"ce4bh4p2rcd13ifvqe1g","pricing_plan_id":"free"},{"bike_id":"9d2ad90a-f087-4ba0-afaf-8af3c85188f9","system_id":"levelo_inurba_marseille","lat":43.28853,"lon":5.35842,"is_reserved":false,"is_disabled":false,"rental_uris":{"android":"levelo://app?vid=9d2ad90a-f087-4ba0-afaf-8af3c85188f9","ios":"levelo://app?vid=9d2ad90a-f087-4ba0-afaf-8af3c85188f9"},"vehicle_type_id":"4","last_reported":1687291613,"current_range_meters":16000,"station_id":"ce4bhb12rcd13ifvqem0","pricing_plan_id":"free"},{"bike_id":"f80d5290-aa5d-4667-9b81-46910ad48ac6","system_id":"levelo_inurba_marseille","lat":43.309371,"lon":5.401449,"is_reserved":false,"is_disabled":false,"rental_uris":{"android":"levelo://app?vid=f80d5290-aa5d-4667-9b81-46910ad48ac6","ios":"levelo://app?vid=f80d5290-aa5d-4667-9b81-46910ad48ac6"},"vehicle_type_id":"4","last_reported":1687291613,"current_range_meters":1600,"station_id":"ce4bgvp2rcd13ifvqct0","pricing_plan_id":"free"},{"bike_id":"eb268c44-c68c-4665-8c77-86d6bb661179","system_id":"levelo_inurba_marseille","lat":43.301117,"lon":5.398795,"is_reserved":false,"is_disabled":false,"rental_uris":{"android":"levelo://app?vid=eb268c44-c68c-4665-8c77-86d6bb661179","ios":"levelo://app?vid=eb268c44-c68c-4665-8c77-86d6bb661179"},"vehicle_type_id":"4","last_reported":1687291613,"current_range_meters":30400,"station_id":"ce4bh0h2rcd13ifvqd40","pricing_plan_id":"free"},{"bike_id":"fa020c06-37eb-41fb-9859-3646690505db","system_id":"levelo_inurba_marseille","lat":43.286961,"lon":5.373785,"is_reserved":false,"is_disabled":false,"rental_uris":{"android":"levelo://app?vid=fa020c06-37eb-41fb-9859-3646690505db","ios":"levelo://app?vid=fa020c06-37eb-41fb-9859-3646690505db"},"vehicle_type_id":"4","last_reported":1687291613,"current_range_meters":14800,"station_id":"ce4bh3p2rcd13ifvqdq0","pricing_plan_id":"free"},{"bike_id":"f32cb309-ac5c-4bce-9b5e-565c2f998a59","system_id":"levelo_inurba_marseille","lat":43.29876,"lon":5.39737,"is_reserved":false,"is_disabled":false,"rental_uris":{"android":"levelo://app?vid=f32cb309-ac5c-4bce-9b5e-565c2f998a59","ios":"levelo://app?vid=f32cb309-ac5c-4bce-9b5e-565c2f998a59"},"vehicle_type_id":"4","last_reported":1687291613,"current_range_meters":30400,"station_id":"ce4bh0h2rcd13ifvqd50","pricing_plan_id":"free"},{"bike_id":"bd2ee7eb-7fa8-40be-a24b-26778be6e827","system_id":"levelo_inurba_marseille","lat":43.286591,"lon":5.363346,"is_reserved":false,"is_disabled":false,"rental_uris":{"android":"levelo://app?vid=bd2ee7eb-7fa8-40be-a24b-26778be6e827","ios":"levelo://app?vid=bd2ee7eb-7fa8-40be-a24b-26778be6e827"},"vehicle_type_id":"4","last_reported":1687291613,"current_range_meters":29200,"station_id":"ce4bhah2rcd13ifvqej0","pricing_plan_id":"free"},{"bike_id":"56c74675-01a4-45e4-bce8-c5c7335a422d","system_id":"levelo_inurba_marseille","lat":43.286593,"lon":5.363346,"is_reserved":false,"is_disabled":false,"rental_uris":{"android":"levelo://app?vid=56c74675-01a4-45e4-bce8-c5c7335a422d","ios":"levelo://app?vid=56c74675-01a4-45e4-bce8-c5c7335a422d"},"vehicle_type_id":"4","last_reported":1687291613,"current_range_meters":31200,"station_id":"ce4bhah2rcd13ifvqej0","pricing_plan_id":"free"},{"bike_id":"26a78582-e2ee-4495-bc9e-2daf0c692872","system_id":"levelo_inurba_marseille","lat":43.286593,"lon":5.363346,"is_reserved":false,"is_disabled":false,"rental_uris":{"android":"levelo://app?vid=26a78582-e2ee-4495-bc9e-2daf0c692872","ios":"levelo://app?vid=26a78582-e2ee-4495-bc9e-2daf0c692872"},"vehicle_type_id":"4","last_reported":1687291613,"current_range_meters":22000,"station_id":"ce4bhah2rcd13ifvqej0","pricing_plan_id":"free"},{"bike_id":"121785df-6b6a-4fbe-9eb3-c500b96f287f","system_id":"levelo_inurba_marseille","lat":43.286591,"lon":5.363346,"is_reserved":false,"is_disabled":false,"rental_uris":{"android":"levelo://app?vid=121785df-6b6a-4fbe-9eb3-c500b96f287f","ios":"levelo://app?vid=121785df-6b6a-4fbe-9eb3-c500b96f287f"},"vehicle_type_id":"4","last_reported":1687291613,"current_range_meters":5600,"station_id":"ce4bhah2rcd13ifvqej0","pricing_plan_id":"free"},{"bike_id":"222cbce9-7315-4a61-b40e-40b441f1422a","system_id":"levelo_inurba_marseille","lat":43.286591,"lon":5.363346,"is_reserved":false,"is_disabled":false,"rental_uris":{"android":"levelo://app?vid=222cbce9-7315-4a61-b40e-40b441f1422a","ios":"levelo://app?vid=222cbce9-7315-4a61-b40e-40b441f1422a"},"vehicle_type_id":"4","last_reported":1687291613,"current_range_meters":17600,"station_id":"ce4bhah2rcd13ifvqej0","pricing_plan_id":"free"},{"bike_id":"5054e3ca-0890-4b45-969a-d7115d72bb9a","system_id":"levelo_inurba_marseille","lat":43.286961,"lon":5.373785,"is_reserved":false,"is_disabled":false,"rental_uris":{"android":"levelo://app?vid=5054e3ca-0890-4b45-969a-d7115d72bb9a","ios":"levelo://app?vid=5054e3ca-0890-4b45-969a-d7115d72bb9a"},"vehicle_type_id":"4","last_reported":1687291613,"current_range_meters":26800,"station_id":"ce4bh3p2rcd13ifvqdq0","pricing_plan_id":"free"},{"bike_id":"9aeac4e5-4193-46f9-863f-b757ee72f6be","system_id":"levelo_inurba_marseille","lat":43.286593,"lon":5.363346,"is_reserved":false,"is_disabled":false,"rental_uris":{"android":"levelo://app?vid=9aeac4e5-4193-46f9-863f-b757ee72f6be","ios":"levelo://app?vid=9aeac4e5-4193-46f9-863f-b757ee72f6be"},"vehicle_type_id":"4","last_reported":1687291613,"current_range_meters":28800,"station_id":"ce4bhah2rcd13ifvqej0","pricing_plan_id":"free"},{"bike_id":"c76037a2-c80a-4d84-90f5-00474b839724","system_id":"levelo_inurba_marseille","lat":43.2869,"lon":5.37383,"is_reserved":false,"is_disabled":false,"rental_uris":{"android":"levelo://app?vid=c76037a2-c80a-4d84-90f5-00474b839724","ios":"levelo://app?vid=c76037a2-c80a-4d84-90f5-00474b839724"},"vehicle_type_id":"4","last_reported":1687291613,"current_range_meters":28800,"station_id":"ce4bh3p2rcd13ifvqdq0","pricing_plan_id":"free"},{"bike_id":"e3ec115b-dc29-4a3f-b07f-92adf2051303","system_id":"levelo_inurba_marseille","lat":43.286961,"lon":5.373785,"is_reserved":false,"is_disabled":false,"rental_uris":{"android":"levelo://app?vid=e3ec115b-dc29-4a3f-b07f-92adf2051303","ios":"levelo://app?vid=e3ec115b-dc29-4a3f-b07f-92adf2051303"},"vehicle_type_id":"4","last_reported":1687291613,"current_range_meters":26000,"station_id":"ce4bh3p2rcd13ifvqdq0","pricing_plan_id":"free"},{"bike_id":"24dd8793-369e-4711-bf0b-638c747f4be5","system_id":"levelo_inurba_marseille","lat":43.295194,"lon":5.39397,"is_reserved":false,"is_disabled":false,"rental_uris":{"android":"levelo://app?vid=24dd8793-369e-4711-bf0b-638c747f4be5","ios":"levelo://app?vid=24dd8793-369e-4711-bf0b-638c747f4be5"},"vehicle_type_id":"4","last_reported":1687291613,"current_range_meters":23600,"station_id":"ce4bh292rcd13ifvqdf0","pricing_plan_id":"free"},{"bike_id":"e4594a14-86fd-4fbf-a719-4558c61ba81c","system_id":"levelo_inurba_marseille","lat":43.290336,"lon":5.386425,"is_reserved":false,"is_disabled":false,"rental_uris":{"android":"levelo://app?vid=e4594a14-86fd-4fbf-a719-4558c61ba81c","ios":"levelo://app?vid=e4594a14-86fd-4fbf-a719-4558c61ba81c"},"vehicle_type_id":"4","last_reported":1687291613,"current_range_meters":18400,"station_id":"ce4bh4p2rcd13ifvqe0g","pricing_plan_id":"free"},{"bike_id":"7b03a45d-72c8-4712-9cc5-79e246b12ae2","system_id":"levelo_inurba_marseille","lat":43.290345,"lon":5.38646,"is_reserved":false,"is_disabled":false,"rental_uris":{"android":"levelo://app?vid=7b03a45d-72c8-4712-9cc5-79e246b12ae2","ios":"levelo://app?vid=7b03a45d-72c8-4712-9cc5-79e246b12ae2"},"vehicle_type_id":"4","last_reported":1687291613,"current_range_meters":29200,"station_id":"ce4bh4p2rcd13ifvqe0g","pricing_plan_id":"free"},{"bike_id":"3363c37b-0a64-46cd-a8de-3e8de3c03204","system_id":"levelo_inurba_marseille","lat":43.286591,"lon":5.363346,"is_reserved":false,"is_disabled":false,"rental_uris":{"android":"levelo://app?vid=3363c37b-0a64-46cd-a8de-3e8de3c03204","ios":"levelo://app?vid=3363c37b-0a64-46cd-a8de-3e8de3c03204"},"vehicle_type_id":"4","last_reported":1687291613,"current_range_meters":27600,"station_id":"ce4bhah2rcd13ifvqej0","pricing_plan_id":"free"},{"bike_id":"a28910c4-e313-4837-bda9-c0d593d61a7f","system_id":"levelo_inurba_marseille","lat":43.290336,"lon":5.386425,"is_reserved":false,"is_disabled":false,"rental_uris":{"android":"levelo://app?vid=a28910c4-e313-4837-bda9-c0d593d61a7f","ios":"levelo://app?vid=a28910c4-e313-4837-bda9-c0d593d61a7f"},"vehicle_type_id":"4","last_reported":1687291613,"current_range_meters":27600,"station_id":"ce4bh4p2rcd13ifvqe0g","pricing_plan_id":"free"},{"bike_id":"e9bfbcd4-ff0c-4a60-a7fe-f90d864174f3","system_id":"levelo_inurba_marseille","lat":43.286039,"lon":5.370679,"is_reserved":false,"is_disabled":false,"rental_uris":{"android":"levelo://app?vid=e9bfbcd4-ff0c-4a60-a7fe-f90d864174f3","ios":"levelo://app?vid=e9bfbcd4-ff0c-4a60-a7fe-f90d864174f3"},"vehicle_type_id":"4","last_reported":1687291613,"current_range_meters":26800,"station_id":"ce4bht12rcd13ifvqi60","pricing_plan_id":"free"},{"bike_id":"04581c80-bc8b-40c6-b51f-2e367874a667","system_id":"levelo_inurba_marseille","lat":43.286039,"lon":5.370679,"is_reserved":false,"is_disabled":false,"rental_uris":{"android":"levelo://app?vid=04581c80-bc8b-40c6-b51f-2e367874a667","ios":"levelo://app?vid=04581c80-bc8b-40c6-b51f-2e367874a667"},"vehicle_type_id":"4","last_reported":1687291613,"current_range_meters":31200,"station_id":"ce4bht12rcd13ifvqi60","pricing_plan_id":"free"},{"bike_id":"c5b3dfcf-7545-4dd0-af2c-140a135ff17b","system_id":"levelo_inurba_marseille","lat":43.286039,"lon":5.370679,"is_reserved":false,"is_disabled":false,"rental_uris":{"android":"levelo://app?vid=c5b3dfcf-7545-4dd0-af2c-140a135ff17b","ios":"levelo://app?vid=c5b3dfcf-7545-4dd0-af2c-140a135ff17b"},"vehicle_type_id":"4","last_reported":1687291613,"current_range_meters":13600,"station_id":"ce4bht12rcd13ifvqi60","pricing_plan_id":"free"},{"bike_id":"e98b1d69-bde9-457a-9287-1b24b6f85e96","system_id":"levelo_inurba_marseille","lat":43.286039,"lon":5.370679,"is_reserved":false,"is_disabled":false,"rental_uris":{"android":"levelo://app?vid=e98b1d69-bde9-457a-9287-1b24b6f85e96","ios":"levelo://app?vid=e98b1d69-bde9-457a-9287-1b24b6f85e96"},"vehicle_type_id":"4","last_reported":1687291613,"current_range_meters":27600,"station_id":"ce4bht12rcd13ifvqi60","pricing_plan_id":"free"},{"bike_id":"5626af29-9ded-4339-8a4f-ae5eb09432c3","system_id":"levelo_inurba_marseille","lat":43.286039,"lon":5.370679,"is_reserved":false,"is_disabled":false,"rental_uris":{"android":"levelo://app?vid=5626af29-9ded-4339-8a4f-ae5eb09432c3","ios":"levelo://app?vid=5626af29-9ded-4339-8a4f-ae5eb09432c3"},"vehicle_type_id":"4","last_reported":1687291613,"current_range_meters":31200,"station_id":"ce4bht12rcd13ifvqi60","pricing_plan_id":"free"},{"bike_id":"0d78731c-4958-412c-b8cb-4b6e0d2acd93","system_id":"levelo_inurba_marseille","lat":43.28728,"lon":5.37942,"is_reserved":false,"is_disabled":false,"rental_uris":{"android":"levelo://app?vid=0d78731c-4958-412c-b8cb-4b6e0d2acd93","ios":"levelo://app?vid=0d78731c-4958-412c-b8cb-4b6e0d2acd93"},"vehicle_type_id":"4","last_reported":1687291613,"current_range_meters":20800,"station_id":"ce4bh9p2rcd13ifvqec0","pricing_plan_id":"free"},{"bike_id":"51d029d5-41ff-49a3-a951-eb022aa7328d","system_id":"levelo_inurba_marseille","lat":43.2872,"lon":5.37938,"is_reserved":false,"is_disabled":false,"rental_uris":{"android":"levelo://app?vid=51d029d5-41ff-49a3-a951-eb022aa7328d","ios":"levelo://app?vid=51d029d5-41ff-49a3-a951-eb022aa7328d"},"vehicle_type_id":"4","last_reported":1687291613,"current_range_meters":0,"station_id":"ce4bh9p2rcd13ifvqec0","pricing_plan_id":"free"},{"bike_id":"c050a06d-2966-4981-ab84-274d645d1f95","system_id":"levelo_inurba_marseille","lat":43.287185,"lon":5.379373,"is_reserved":false,"is_disabled":false,"rental_uris":{"android":"levelo://app?vid=c050a06d-2966-4981-ab84-274d645d1f95","ios":"levelo://app?vid=c050a06d-2966-4981-ab84-274d645d1f95"},"vehicle_type_id":"4","last_reported":1687291613,"current_range_meters":13200,"station_id":"ce4bh9p2rcd13ifvqec0","pricing_plan_id":"free"},{"bike_id":"7fcda8f7-a34e-4c9e-aea9-952595232152","system_id":"levelo_inurba_marseille","lat":43.287185,"lon":5.379373,"is_reserved":false,"is_disabled":false,"rental_uris":{"android":"levelo://app?vid=7fcda8f7-a34e-4c9e-aea9-952595232152","ios":"levelo://app?vid=7fcda8f7-a34e-4c9e-aea9-952595232152"},"vehicle_type_id":"4","last_reported":1687291613,"current_range_meters":0,"station_id":"ce4bh9p2rcd13ifvqec0","pricing_plan_id":"free"},{"bike_id":"05b959b3-1b85-4dcd-b3e9-b1f6130da7d9","system_id":"levelo_inurba_marseille","lat":43.316517,"lon":5.404375,"is_reserved":false,"is_disabled":false,"rental_uris":{"android":"levelo://app?vid=05b959b3-1b85-4dcd-b3e9-b1f6130da7d9","ios":"levelo://app?vid=05b959b3-1b85-4dcd-b3e9-b1f6130da7d9"},"vehicle_type_id":"4","last_reported":1687291613,"current_range_meters":22000,"station_id":"ce4bh012rcd13ifvqd00","pricing_plan_id":"free"},{"bike_id":"8f54d320-cbea-4117-8aa0-1d7c4c1076ae","system_id":"levelo_inurba_marseille","lat":43.291994,"lon":5.392907,"is_reserved":false,"is_disabled":false,"rental_uris":{"android":"levelo://app?vid=8f54d320-cbea-4117-8aa0-1d7c4c1076ae","ios":"levelo://app?vid=8f54d320-cbea-4117-8aa0-1d7c4c1076ae"},"vehicle_type_id":"4","last_reported":1687291613,"current_range_meters":19600,"station_id":"ce4bh192rcd13ifvqdd0","pricing_plan_id":"free"},{"bike_id":"977ca164-b874-4cd1-b7a4-044a420377d1","system_id":"levelo_inurba_marseille","lat":43.29196,"lon":5.39313,"is_reserved":false,"is_disabled":false,"rental_uris":{"android":"levelo://app?vid=977ca164-b874-4cd1-b7a4-044a420377d1","ios":"levelo://app?vid=977ca164-b874-4cd1-b7a4-044a420377d1"},"vehicle_type_id":"4","last_reported":1687291613,"current_range_meters":22400,"station_id":"ce4bh192rcd13ifvqdd0","pricing_plan_id":"free"},{"bike_id":"f8e8a8f6-8f97-4b48-a547-24eba9468ec5","system_id":"levelo_inurba_marseille","lat":43.291994,"lon":5.392907,"is_reserved":false,"is_disabled":false,"rental_uris":{"android":"levelo://app?vid=f8e8a8f6-8f97-4b48-a547-24eba9468ec5","ios":"levelo://app?vid=f8e8a8f6-8f97-4b48-a547-24eba9468ec5"},"vehicle_type_id":"4","last_reported":1687291613,"current_range_meters":26400,"station_id":"ce4bh192rcd13ifvqdd0","pricing_plan_id":"free"},{"bike_id":"aaa6c642-961e-4394-a11c-1e020f3b51cb","system_id":"levelo_inurba_marseille","lat":43.291994,"lon":5.392907,"is_reserved":false,"is_disabled":false,"rental_uris":{"android":"levelo://app?vid=aaa6c642-961e-4394-a11c-1e020f3b51cb","ios":"levelo://app?vid=aaa6c642-961e-4394-a11c-1e020f3b51cb"},"vehicle_type_id":"4","last_reported":1687291613,"current_range_meters":28400,"station_id":"ce4bh192rcd13ifvqdd0","pricing_plan_id":"free"},{"bike_id":"0f55c3cb-1ae0-42b4-a61a-6ff08e997cee","system_id":"levelo_inurba_marseille","lat":43.291994,"lon":5.392907,"is_reserved":false,"is_disabled":false,"rental_uris":{"android":"levelo://app?vid=0f55c3cb-1ae0-42b4-a61a-6ff08e997cee","ios":"levelo://app?vid=0f55c3cb-1ae0-42b4-a61a-6ff08e997cee"},"vehicle_type_id":"4","last_reported":1687291613,"current_range_meters":13600,"station_id":"ce4bh192rcd13ifvqdd0","pricing_plan_id":"free"},{"bike_id":"a7fc1897-79df-49f5-b5a0-3a86b7ed938b","system_id":"levelo_inurba_marseille","lat":43.33348,"lon":5.39375,"is_reserved":false,"is_disabled":false,"rental_uris":{"android":"levelo://app?vid=a7fc1897-79df-49f5-b5a0-3a86b7ed938b","ios":"levelo://app?vid=a7fc1897-79df-49f5-b5a0-3a86b7ed938b"},"vehicle_type_id":"4","last_reported":1687291613,"current_range_meters":0,"station_id":"","pricing_plan_id":"free"},{"bike_id":"d2ee41f7-506f-45d6-81a9-b4b3e31a5812","system_id":"levelo_inurba_marseille","lat":43.28461,"lon":5.35894,"is_reserved":false,"is_disabled":false,"rental_uris":{"android":"levelo://app?vid=d2ee41f7-506f-45d6-81a9-b4b3e31a5812","ios":"levelo://app?vid=d2ee41f7-506f-45d6-81a9-b4b3e31a5812"},"vehicle_type_id":"4","last_reported":1687291613,"current_range_meters":26800,"station_id":"ce4bhah2rcd13ifvqei0","pricing_plan_id":"free"},{"bike_id":"f34775ed-3944-40dc-b7ce-25e6bce63d76","system_id":"levelo_inurba_marseille","lat":43.284534,"lon":5.358662,"is_reserved":false,"is_disabled":false,"rental_uris":{"android":"levelo://app?vid=f34775ed-3944-40dc-b7ce-25e6bce63d76","ios":"levelo://app?vid=f34775ed-3944-40dc-b7ce-25e6bce63d76"},"vehicle_type_id":"4","last_reported":1687291613,"current_range_meters":30800,"station_id":"ce4bhah2rcd13ifvqei0","pricing_plan_id":"free"},{"bike_id":"d647fc1f-ba57-4927-b2d6-f4aac7f53f35","system_id":"levelo_inurba_marseille","lat":43.28459,"lon":5.35894,"is_reserved":false,"is_disabled":false,"rental_uris":{"android":"levelo://app?vid=d647fc1f-ba57-4927-b2d6-f4aac7f53f35","ios":"levelo://app?vid=d647fc1f-ba57-4927-b2d6-f4aac7f53f35"},"vehicle_type_id":"4","last_reported":1687291613,"current_range_meters":31200,"station_id":"ce4bhah2rcd13ifvqei0","pricing_plan_id":"free"},{"bike_id":"06803be0-9b72-4d0b-a2b6-390e6a5c9ee3","system_id":"levelo_inurba_marseille","lat":43.28458,"lon":5.35889,"is_reserved":false,"is_disabled":false,"rental_uris":{"android":"levelo://app?vid=06803be0-9b72-4d0b-a2b6-390e6a5c9ee3","ios":"levelo://app?vid=06803be0-9b72-4d0b-a2b6-390e6a5c9ee3"},"vehicle_type_id":"4","last_reported":1687291613,"current_range_meters":21200,"station_id":"ce4bhah2rcd13ifvqei0","pricing_plan_id":"free"},{"bike_id":"3fd99d80-0a68-4688-9845-e694dcb9c3de","system_id":"levelo_inurba_marseille","lat":43.284534,"lon":5.358662,"is_reserved":false,"is_disabled":false,"rental_uris":{"android":"levelo://app?vid=3fd99d80-0a68-4688-9845-e694dcb9c3de","ios":"levelo://app?vid=3fd99d80-0a68-4688-9845-e694dcb9c3de"},"vehicle_type_id":"4","last_reported":1687291613,"current_range_meters":31200,"station_id":"ce4bhah2rcd13ifvqei0","pricing_plan_id":"free"},{"bike_id":"c45c133c-7e18-4892-ad2a-838c1064d748","system_id":"levelo_inurba_marseille","lat":43.28457,"lon":5.35888,"is_reserved":false,"is_disabled":false,"rental_uris":{"android":"levelo://app?vid=c45c133c-7e18-4892-ad2a-838c1064d748","ios":"levelo://app?vid=c45c133c-7e18-4892-ad2a-838c1064d748"},"vehicle_type_id":"4","last_reported":1687291613,"current_range_meters":18000,"station_id":"ce4bhah2rcd13ifvqei0","pricing_plan_id":"free"},{"bike_id":"4d4e3834-d37d-4bfd-876f-0f76b59978ec","system_id":"levelo_inurba_marseille","lat":43.284534,"lon":5.358662,"is_reserved":false,"is_disabled":false,"rental_uris":{"android":"levelo://app?vid=4d4e3834-d37d-4bfd-876f-0f76b59978ec","ios":"levelo://app?vid=4d4e3834-d37d-4bfd-876f-0f76b59978ec"},"vehicle_type_id":"4","last_reported":1687291613,"current_range_meters":0,"station_id":"ce4bhah2rcd13ifvqei0","pricing_plan_id":"free"},{"bike_id":"336e08fa-707d-410b-947d-ea4771c773bf","system_id":"levelo_inurba_marseille","lat":43.284534,"lon":5.358662,"is_reserved":false,"is_disabled":false,"rental_uris":{"android":"levelo://app?vid=336e08fa-707d-410b-947d-ea4771c773bf","ios":"levelo://app?vid=336e08fa-707d-410b-947d-ea4771c773bf"},"vehicle_type_id":"4","last_reported":1687291613,"current_range_meters":30800,"station_id":"ce4bhah2rcd13ifvqei0","pricing_plan_id":"free"},{"bike_id":"78e17254-29a2-4b88-9cf1-ae8e54ec40d5","system_id":"levelo_inurba_marseille","lat":43.284534,"lon":5.358662,"is_reserved":false,"is_disabled":false,"rental_uris":{"android":"levelo://app?vid=78e17254-29a2-4b88-9cf1-ae8e54ec40d5","ios":"levelo://app?vid=78e17254-29a2-4b88-9cf1-ae8e54ec40d5"},"vehicle_type_id":"4","last_reported":1687291613,"current_range_meters":27600,"station_id":"ce4bhah2rcd13ifvqei0","pricing_plan_id":"free"},{"bike_id":"e99097eb-c099-4640-93fa-3d7aeeeec55d","system_id":"levelo_inurba_marseille","lat":43.29437,"lon":5.39752,"is_reserved":false,"is_disabled":false,"rental_uris":{"android":"levelo://app?vid=e99097eb-c099-4640-93fa-3d7aeeeec55d","ios":"levelo://app?vid=e99097eb-c099-4640-93fa-3d7aeeeec55d"},"vehicle_type_id":"4","last_reported":1687291613,"current_range_meters":13600,"station_id":"ce4bh3h2rcd13ifvqdo0","pricing_plan_id":"free"},{"bike_id":"76927da2-6548-463a-a167-9f6b25d147cd","system_id":"levelo_inurba_marseille","lat":43.285856,"lon":5.350771,"is_reserved":false,"is_disabled":false,"rental_uris":{"android":"levelo://app?vid=76927da2-6548-463a-a167-9f6b25d147cd","ios":"levelo://app?vid=76927da2-6548-463a-a167-9f6b25d147cd"},"vehicle_type_id":"4","last_reported":1687291613,"current_range_meters":10400,"station_id":"ce4bhch2rcd13ifvqeug","pricing_plan_id":"free"},{"bike_id":"13bde7d5-8435-4740-9afa-696bbe4a2916","system_id":"levelo_inurba_marseille","lat":43.283998,"lon":5.375062,"is_reserved":false,"is_disabled":false,"rental_uris":{"android":"levelo://app?vid=13bde7d5-8435-4740-9afa-696bbe4a2916","ios":"levelo://app?vid=13bde7d5-8435-4740-9afa-696bbe4a2916"},"vehicle_type_id":"4","last_reported":1687291613,"current_range_meters":3200,"station_id":"ce4bh412rcd13ifvqds0","pricing_plan_id":"free"},{"bike_id":"52d18994-ae20-4817-b9d2-2ff0d8af7a5d","system_id":"levelo_inurba_marseille","lat":43.283998,"lon":5.375062,"is_reserved":false,"is_disabled":false,"rental_uris":{"android":"levelo://app?vid=52d18994-ae20-4817-b9d2-2ff0d8af7a5d","ios":"levelo://app?vid=52d18994-ae20-4817-b9d2-2ff0d8af7a5d"},"vehicle_type_id":"4","last_reported":1687291613,"current_range_meters":0,"station_id":"ce4bh412rcd13ifvqds0","pricing_plan_id":"free"},{"bike_id":"48ddc696-db94-402e-9a2d-6dd4324d67dc","system_id":"levelo_inurba_marseille","lat":43.28415,"lon":5.37508,"is_reserved":false,"is_disabled":false,"rental_uris":{"android":"levelo://app?vid=48ddc696-db94-402e-9a2d-6dd4324d67dc","ios":"levelo://app?vid=48ddc696-db94-402e-9a2d-6dd4324d67dc"},"vehicle_type_id":"4","last_reported":1687291613,"current_range_meters":5600,"station_id":"ce4bh412rcd13ifvqds0","pricing_plan_id":"free"},{"bike_id":"e145ee82-b278-441b-a5e7-00c4b1ffcf19","system_id":"levelo_inurba_marseille","lat":43.283998,"lon":5.375062,"is_reserved":false,"is_disabled":false,"rental_uris":{"android":"levelo://app?vid=e145ee82-b278-441b-a5e7-00c4b1ffcf19","ios":"levelo://app?vid=e145ee82-b278-441b-a5e7-00c4b1ffcf19"},"vehicle_type_id":"4","last_reported":1687291613,"current_range_meters":31200,"station_id":"ce4bh412rcd13ifvqds0","pricing_plan_id":"free"},{"bike_id":"f5787c12-6a88-4b38-9f12-3c37e574c1fc","system_id":"levelo_inurba_marseille","lat":43.295713,"lon":5.399639,"is_reserved":false,"is_disabled":false,"rental_uris":{"android":"levelo://app?vid=f5787c12-6a88-4b38-9f12-3c37e574c1fc","ios":"levelo://app?vid=f5787c12-6a88-4b38-9f12-3c37e574c1fc"},"vehicle_type_id":"4","last_reported":1687291613,"current_range_meters":19200,"station_id":"ce4bh312rcd13ifvqdj0","pricing_plan_id":"free"},{"bike_id":"3ff61a3c-e762-47d5-bc2b-f88eeefaa5b2","system_id":"levelo_inurba_marseille","lat":43.295713,"lon":5.399639,"is_reserved":false,"is_disabled":false,"rental_uris":{"android":"levelo://app?vid=3ff61a3c-e762-47d5-bc2b-f88eeefaa5b2","ios":"levelo://app?vid=3ff61a3c-e762-47d5-bc2b-f88eeefaa5b2"},"vehicle_type_id":"4","last_reported":1687291613,"current_range_meters":400,"station_id":"ce4bh312rcd13ifvqdj0","pricing_plan_id":"free"},{"bike_id":"ee2ab2f9-6c53-4df5-bac0-44411df2b3e9","system_id":"levelo_inurba_marseille","lat":43.28398,"lon":5.37526,"is_reserved":false,"is_disabled":false,"rental_uris":{"android":"levelo://app?vid=ee2ab2f9-6c53-4df5-bac0-44411df2b3e9","ios":"levelo://app?vid=ee2ab2f9-6c53-4df5-bac0-44411df2b3e9"},"vehicle_type_id":"4","last_reported":1687291613,"current_range_meters":4400,"station_id":"ce4bh412rcd13ifvqds0","pricing_plan_id":"free"},{"bike_id":"68094a04-bb1d-4c12-be79-ebead61d4cb8","system_id":"levelo_inurba_marseille","lat":43.28672,"lon":5.38662,"is_reserved":false,"is_disabled":false,"rental_uris":{"android":"levelo://app?vid=68094a04-bb1d-4c12-be79-ebead61d4cb8","ios":"levelo://app?vid=68094a04-bb1d-4c12-be79-ebead61d4cb8"},"vehicle_type_id":"4","last_reported":1687291613,"current_range_meters":31200,"station_id":"ce4bh492rcd13ifvqdug","pricing_plan_id":"free"},{"bike_id":"a0294cbe-ddff-445e-81c2-60a75d245509","system_id":"levelo_inurba_marseille","lat":43.32192,"lon":5.40581,"is_reserved":false,"is_disabled":false,"rental_uris":{"android":"levelo://app?vid=a0294cbe-ddff-445e-81c2-60a75d245509","ios":"levelo://app?vid=a0294cbe-ddff-445e-81c2-60a75d245509"},"vehicle_type_id":"4","last_reported":1687291613,"current_range_meters":17200,"station_id":"","pricing_plan_id":"free"},{"bike_id":"f6fda2f2-04f1-4377-bae3-2fc212d95c47","system_id":"levelo_inurba_marseille","lat":43.34233,"lon":5.36175,"is_reserved":false,"is_disabled":false,"rental_uris":{"android":"levelo://app?vid=f6fda2f2-04f1-4377-bae3-2fc212d95c47","ios":"levelo://app?vid=f6fda2f2-04f1-4377-bae3-2fc212d95c47"},"vehicle_type_id":"4","last_reported":1687291613,"current_range_meters":9600,"station_id":"","pricing_plan_id":"free"},{"bike_id":"1b5cab66-590b-460a-9914-864900fba592","system_id":"levelo_inurba_marseille","lat":43.33725,"lon":5.39179,"is_reserved":false,"is_disabled":false,"rental_uris":{"android":"levelo://app?vid=1b5cab66-590b-460a-9914-864900fba592","ios":"levelo://app?vid=1b5cab66-590b-460a-9914-864900fba592"},"vehicle_type_id":"4","last_reported":1687291613,"current_range_meters":7200,"station_id":"","pricing_plan_id":"free"},{"bike_id":"d7b29256-fc07-4272-a85c-ecffd4d1832a","system_id":"levelo_inurba_marseille","lat":43.33725,"lon":5.39189,"is_reserved":false,"is_disabled":false,"rental_uris":{"android":"levelo://app?vid=d7b29256-fc07-4272-a85c-ecffd4d1832a","ios":"levelo://app?vid=d7b29256-fc07-4272-a85c-ecffd4d1832a"},"vehicle_type_id":"4","last_reported":1687291613,"current_range_meters":10400,"station_id":"","pricing_plan_id":"free"},{"bike_id":"64766038-4d37-4bbb-8324-fdd09852a999","system_id":"levelo_inurba_marseille","lat":43.33725,"lon":5.39193,"is_reserved":false,"is_disabled":false,"rental_uris":{"android":"levelo://app?vid=64766038-4d37-4bbb-8324-fdd09852a999","ios":"levelo://app?vid=64766038-4d37-4bbb-8324-fdd09852a999"},"vehicle_type_id":"4","last_reported":1687291613,"current_range_meters":16800,"station_id":"","pricing_plan_id":"free"},{"bike_id":"b2625fd9-69e5-4d1a-a177-f312d4f731b6","system_id":"levelo_inurba_marseille","lat":43.284793,"lon":5.384113,"is_reserved":false,"is_disabled":false,"rental_uris":{"android":"levelo://app?vid=b2625fd9-69e5-4d1a-a177-f312d4f731b6","ios":"levelo://app?vid=b2625fd9-69e5-4d1a-a177-f312d4f731b6"},"vehicle_type_id":"4","last_reported":1687291613,"current_range_meters":10800,"station_id":"ce4bh512rcd13ifvqe3g","pricing_plan_id":"free"},{"bike_id":"80ff7286-f7ff-4410-80d4-2d890c218cb0","system_id":"levelo_inurba_marseille","lat":43.288497,"lon":5.393089,"is_reserved":false,"is_disabled":false,"rental_uris":{"android":"levelo://app?vid=80ff7286-f7ff-4410-80d4-2d890c218cb0","ios":"levelo://app?vid=80ff7286-f7ff-4410-80d4-2d890c218cb0"},"vehicle_type_id":"4","last_reported":1687291613,"current_range_meters":14000,"station_id":"ce4bh2p2rcd13ifvqdi0","pricing_plan_id":"free"},{"bike_id":"2eae0dbd-6c63-460c-9ba2-c173497daf8f","system_id":"levelo_inurba_marseille","lat":43.288497,"lon":5.393089,"is_reserved":false,"is_disabled":false,"rental_uris":{"android":"levelo://app?vid=2eae0dbd-6c63-460c-9ba2-c173497daf8f","ios":"levelo://app?vid=2eae0dbd-6c63-460c-9ba2-c173497daf8f"},"vehicle_type_id":"4","last_reported":1687291613,"current_range_meters":6000,"station_id":"ce4bh2p2rcd13ifvqdi0","pricing_plan_id":"free"},{"bike_id":"85872f53-07fe-43f3-b950-25871b3e5c16","system_id":"levelo_inurba_marseille","lat":43.288497,"lon":5.393089,"is_reserved":false,"is_disabled":false,"rental_uris":{"android":"levelo://app?vid=85872f53-07fe-43f3-b950-25871b3e5c16","ios":"levelo://app?vid=85872f53-07fe-43f3-b950-25871b3e5c16"},"vehicle_type_id":"4","last_reported":1687291613,"current_range_meters":7600,"station_id":"ce4bh2p2rcd13ifvqdi0","pricing_plan_id":"free"},{"bike_id":"00b4d942-d645-4a17-a320-9c02b5ecca68","system_id":"levelo_inurba_marseille","lat":43.288501,"lon":5.393087,"is_reserved":false,"is_disabled":false,"rental_uris":{"android":"levelo://app?vid=00b4d942-d645-4a17-a320-9c02b5ecca68","ios":"levelo://app?vid=00b4d942-d645-4a17-a320-9c02b5ecca68"},"vehicle_type_id":"4","last_reported":1687291613,"current_range_meters":13200,"station_id":"ce4bh2p2rcd13ifvqdi0","pricing_plan_id":"free"},{"bike_id":"98899a61-f263-46e0-898d-2dd9337c6c8c","system_id":"levelo_inurba_marseille","lat":43.288501,"lon":5.393087,"is_reserved":false,"is_disabled":false,"rental_uris":{"android":"levelo://app?vid=98899a61-f263-46e0-898d-2dd9337c6c8c","ios":"levelo://app?vid=98899a61-f263-46e0-898d-2dd9337c6c8c"},"vehicle_type_id":"4","last_reported":1687291613,"current_range_meters":8400,"station_id":"ce4bh2p2rcd13ifvqdi0","pricing_plan_id":"free"},{"bike_id":"7f6a3aad-7893-48ee-8a61-383b0da3bbdc","system_id":"levelo_inurba_marseille","lat":43.283498,"lon":5.380948,"is_reserved":false,"is_disabled":false,"rental_uris":{"android":"levelo://app?vid=7f6a3aad-7893-48ee-8a61-383b0da3bbdc","ios":"levelo://app?vid=7f6a3aad-7893-48ee-8a61-383b0da3bbdc"},"vehicle_type_id":"4","last_reported":1687291613,"current_range_meters":15200,"station_id":"ce4bh412rcd13ifvqdr0","pricing_plan_id":"free"},{"bike_id":"16e5fedd-6e86-436a-a0a2-72c7cd60a6ea","system_id":"levelo_inurba_marseille","lat":43.32173,"lon":5.40756,"is_reserved":false,"is_disabled":false,"rental_uris":{"android":"levelo://app?vid=16e5fedd-6e86-436a-a0a2-72c7cd60a6ea","ios":"levelo://app?vid=16e5fedd-6e86-436a-a0a2-72c7cd60a6ea"},"vehicle_type_id":"4","last_reported":1687291613,"current_range_meters":22800,"station_id":"","pricing_plan_id":"free"},{"bike_id":"3b0cc24b-6215-4276-8f7f-f15f2bb663ae","system_id":"levelo_inurba_marseille","lat":43.283498,"lon":5.380948,"is_reserved":false,"is_disabled":false,"rental_uris":{"android":"levelo://app?vid=3b0cc24b-6215-4276-8f7f-f15f2bb663ae","ios":"levelo://app?vid=3b0cc24b-6215-4276-8f7f-f15f2bb663ae"},"vehicle_type_id":"4","last_reported":1687291613,"current_range_meters":8000,"station_id":"ce4bh412rcd13ifvqdr0","pricing_plan_id":"free"},{"bike_id":"e9e2d1ba-de81-40b5-8285-9e3d6d18de7b","system_id":"levelo_inurba_marseille","lat":43.284217,"lon":5.349697,"is_reserved":false,"is_disabled":false,"rental_uris":{"android":"levelo://app?vid=e9e2d1ba-de81-40b5-8285-9e3d6d18de7b","ios":"levelo://app?vid=e9e2d1ba-de81-40b5-8285-9e3d6d18de7b"},"vehicle_type_id":"4","last_reported":1687291613,"current_range_meters":0,"station_id":"ce4bhbh2rcd13ifvqepg","pricing_plan_id":"free"},{"bike_id":"74a3c083-1e09-4ff1-bd4d-942d9d730cb3","system_id":"levelo_inurba_marseille","lat":43.292724,"lon":5.401131,"is_reserved":false,"is_disabled":false,"rental_uris":{"android":"levelo://app?vid=74a3c083-1e09-4ff1-bd4d-942d9d730cb3","ios":"levelo://app?vid=74a3c083-1e09-4ff1-bd4d-942d9d730cb3"},"vehicle_type_id":"4","last_reported":1687291613,"current_range_meters":17200,"station_id":"ce4bh312rcd13ifvqdk0","pricing_plan_id":"free"},{"bike_id":"46144e18-b871-4697-8c3c-00dd8ebc181e","system_id":"levelo_inurba_marseille","lat":43.28045,"lon":5.36933,"is_reserved":false,"is_disabled":false,"rental_uris":{"android":"levelo://app?vid=46144e18-b871-4697-8c3c-00dd8ebc181e","ios":"levelo://app?vid=46144e18-b871-4697-8c3c-00dd8ebc181e"},"vehicle_type_id":"4","last_reported":1687291613,"current_range_meters":4400,"station_id":"ce4bha12rcd13ifvqef0","pricing_plan_id":"free"},{"bike_id":"9b5b2857-ad1a-469c-9376-fc73b059d82e","system_id":"levelo_inurba_marseille","lat":43.28039,"lon":5.369297,"is_reserved":false,"is_disabled":false,"rental_uris":{"android":"levelo://app?vid=9b5b2857-ad1a-469c-9376-fc73b059d82e","ios":"levelo://app?vid=9b5b2857-ad1a-469c-9376-fc73b059d82e"},"vehicle_type_id":"4","last_reported":1687291613,"current_range_meters":28400,"station_id":"ce4bha12rcd13ifvqef0","pricing_plan_id":"free"},{"bike_id":"82109b48-f3fd-4236-9792-4f71056c66f1","system_id":"levelo_inurba_marseille","lat":43.283502,"lon":5.386471,"is_reserved":false,"is_disabled":false,"rental_uris":{"android":"levelo://app?vid=82109b48-f3fd-4236-9792-4f71056c66f1","ios":"levelo://app?vid=82109b48-f3fd-4236-9792-4f71056c66f1"},"vehicle_type_id":"4","last_reported":1687291613,"current_range_meters":20000,"station_id":"ce4bh492rcd13ifvqdvg","pricing_plan_id":"free"},{"bike_id":"434eff29-018c-411d-a07a-2e0ac2da6102","system_id":"levelo_inurba_marseille","lat":43.28039,"lon":5.369297,"is_reserved":false,"is_disabled":false,"rental_uris":{"android":"levelo://app?vid=434eff29-018c-411d-a07a-2e0ac2da6102","ios":"levelo://app?vid=434eff29-018c-411d-a07a-2e0ac2da6102"},"vehicle_type_id":"4","last_reported":1687291613,"current_range_meters":7200,"station_id":"ce4bha12rcd13ifvqef0","pricing_plan_id":"free"},{"bike_id":"b6013f3b-d0b8-485c-ab5b-dcefd2e7a15d","system_id":"levelo_inurba_marseille","lat":43.28039,"lon":5.369297,"is_reserved":false,"is_disabled":false,"rental_uris":{"android":"levelo://app?vid=b6013f3b-d0b8-485c-ab5b-dcefd2e7a15d","ios":"levelo://app?vid=b6013f3b-d0b8-485c-ab5b-dcefd2e7a15d"},"vehicle_type_id":"4","last_reported":1687291613,"current_range_meters":15200,"station_id":"ce4bha12rcd13ifvqef0","pricing_plan_id":"free"},{"bike_id":"b56869d9-cbaa-435c-8bf5-76c108000e3c","system_id":"levelo_inurba_marseille","lat":43.280382,"lon":5.369291,"is_reserved":false,"is_disabled":false,"rental_uris":{"android":"levelo://app?vid=b56869d9-cbaa-435c-8bf5-76c108000e3c","ios":"levelo://app?vid=b56869d9-cbaa-435c-8bf5-76c108000e3c"},"vehicle_type_id":"4","last_reported":1687291613,"current_range_meters":21600,"station_id":"ce4bha12rcd13ifvqef0","pricing_plan_id":"free"},{"bike_id":"89b9cae9-9606-4bbf-8de2-484f0b073f26","system_id":"levelo_inurba_marseille","lat":43.28039,"lon":5.369297,"is_reserved":false,"is_disabled":false,"rental_uris":{"android":"levelo://app?vid=89b9cae9-9606-4bbf-8de2-484f0b073f26","ios":"levelo://app?vid=89b9cae9-9606-4bbf-8de2-484f0b073f26"},"vehicle_type_id":"4","last_reported":1687291613,"current_range_meters":16400,"station_id":"ce4bha12rcd13ifvqef0","pricing_plan_id":"free"},{"bike_id":"7cf8e26e-c727-41af-88e5-f57da0423090","system_id":"levelo_inurba_marseille","lat":43.28039,"lon":5.369297,"is_reserved":false,"is_disabled":false,"rental_uris":{"android":"levelo://app?vid=7cf8e26e-c727-41af-88e5-f57da0423090","ios":"levelo://app?vid=7cf8e26e-c727-41af-88e5-f57da0423090"},"vehicle_type_id":"4","last_reported":1687291613,"current_range_meters":21600,"station_id":"ce4bha12rcd13ifvqef0","pricing_plan_id":"free"},{"bike_id":"9064fe79-f0b6-4203-84f4-698fe07fd37e","system_id":"levelo_inurba_marseille","lat":43.28031,"lon":5.36943,"is_reserved":false,"is_disabled":false,"rental_uris":{"android":"levelo://app?vid=9064fe79-f0b6-4203-84f4-698fe07fd37e","ios":"levelo://app?vid=9064fe79-f0b6-4203-84f4-698fe07fd37e"},"vehicle_type_id":"4","last_reported":1687291613,"current_range_meters":17200,"station_id":"ce4bha12rcd13ifvqef0","pricing_plan_id":"free"},{"bike_id":"4989b521-664d-4a8e-af69-f942665c60c0","system_id":"levelo_inurba_marseille","lat":43.280382,"lon":5.369291,"is_reserved":false,"is_disabled":false,"rental_uris":{"android":"levelo://app?vid=4989b521-664d-4a8e-af69-f942665c60c0","ios":"levelo://app?vid=4989b521-664d-4a8e-af69-f942665c60c0"},"vehicle_type_id":"4","last_reported":1687291613,"current_range_meters":30400,"station_id":"ce4bha12rcd13ifvqef0","pricing_plan_id":"free"},{"bike_id":"6489e7e3-d34f-49e8-999e-49aeabad95fc","system_id":"levelo_inurba_marseille","lat":43.28039,"lon":5.369297,"is_reserved":false,"is_disabled":false,"rental_uris":{"android":"levelo://app?vid=6489e7e3-d34f-49e8-999e-49aeabad95fc","ios":"levelo://app?vid=6489e7e3-d34f-49e8-999e-49aeabad95fc"},"vehicle_type_id":"4","last_reported":1687291613,"current_range_meters":31200,"station_id":"ce4bha12rcd13ifvqef0","pricing_plan_id":"free"},{"bike_id":"a0b29f5d-9167-42dd-bbc4-6e80ed59a6ce","system_id":"levelo_inurba_marseille","lat":43.28039,"lon":5.369297,"is_reserved":false,"is_disabled":false,"rental_uris":{"android":"levelo://app?vid=a0b29f5d-9167-42dd-bbc4-6e80ed59a6ce","ios":"levelo://app?vid=a0b29f5d-9167-42dd-bbc4-6e80ed59a6ce"},"vehicle_type_id":"4","last_reported":1687291613,"current_range_meters":24800,"station_id":"ce4bha12rcd13ifvqef0","pricing_plan_id":"free"},{"bike_id":"3c61871c-bd65-4380-8b62-f2187458c6cf","system_id":"levelo_inurba_marseille","lat":43.28026,"lon":5.36936,"is_reserved":false,"is_disabled":false,"rental_uris":{"android":"levelo://app?vid=3c61871c-bd65-4380-8b62-f2187458c6cf","ios":"levelo://app?vid=3c61871c-bd65-4380-8b62-f2187458c6cf"},"vehicle_type_id":"4","last_reported":1687291613,"current_range_meters":19200,"station_id":"ce4bha12rcd13ifvqef0","pricing_plan_id":"free"},{"bike_id":"d2640564-66fe-4f5d-8ed3-22e2d34428f4","system_id":"levelo_inurba_marseille","lat":43.290426,"lon":5.399584,"is_reserved":false,"is_disabled":false,"rental_uris":{"android":"levelo://app?vid=d2640564-66fe-4f5d-8ed3-22e2d34428f4","ios":"levelo://app?vid=d2640564-66fe-4f5d-8ed3-22e2d34428f4"},"vehicle_type_id":"4","last_reported":1687291613,"current_range_meters":6800,"station_id":"","pricing_plan_id":"free"},{"bike_id":"02a56d39-9758-4a2d-ac1c-41f404e77c51","system_id":"levelo_inurba_marseille","lat":43.281044,"lon":5.378308,"is_reserved":false,"is_disabled":false,"rental_uris":{"android":"levelo://app?vid=02a56d39-9758-4a2d-ac1c-41f404e77c51","ios":"levelo://app?vid=02a56d39-9758-4a2d-ac1c-41f404e77c51"},"vehicle_type_id":"4","last_reported":1687291613,"current_range_meters":20400,"station_id":"ce4bha12rcd13ifvqee0","pricing_plan_id":"free"},{"bike_id":"635948ee-0851-426c-8973-0a44d6357ae6","system_id":"levelo_inurba_marseille","lat":43.281044,"lon":5.378308,"is_reserved":false,"is_disabled":false,"rental_uris":{"android":"levelo://app?vid=635948ee-0851-426c-8973-0a44d6357ae6","ios":"levelo://app?vid=635948ee-0851-426c-8973-0a44d6357ae6"},"vehicle_type_id":"4","last_reported":1687291613,"current_range_meters":6800,"station_id":"ce4bha12rcd13ifvqee0","pricing_plan_id":"free"},{"bike_id":"0248db82-2b90-4533-b27c-f1125d5d5d14","system_id":"levelo_inurba_marseille","lat":43.281044,"lon":5.378308,"is_reserved":false,"is_disabled":false,"rental_uris":{"android":"levelo://app?vid=0248db82-2b90-4533-b27c-f1125d5d5d14","ios":"levelo://app?vid=0248db82-2b90-4533-b27c-f1125d5d5d14"},"vehicle_type_id":"4","last_reported":1687291613,"current_range_meters":5200,"station_id":"ce4bha12rcd13ifvqee0","pricing_plan_id":"free"},{"bike_id":"b6c391f1-8e92-47ce-8fcd-bf421f4bc93b","system_id":"levelo_inurba_marseille","lat":43.281044,"lon":5.378308,"is_reserved":false,"is_disabled":false,"rental_uris":{"android":"levelo://app?vid=b6c391f1-8e92-47ce-8fcd-bf421f4bc93b","ios":"levelo://app?vid=b6c391f1-8e92-47ce-8fcd-bf421f4bc93b"},"vehicle_type_id":"4","last_reported":1687291613,"current_range_meters":0,"station_id":"ce4bha12rcd13ifvqee0","pricing_plan_id":"free"},{"bike_id":"da9b3261-f1a2-44c8-92de-28a822933a5d","system_id":"levelo_inurba_marseille","lat":43.285742,"lon":5.395004,"is_reserved":false,"is_disabled":false,"rental_uris":{"android":"levelo://app?vid=da9b3261-f1a2-44c8-92de-28a822933a5d","ios":"levelo://app?vid=da9b3261-f1a2-44c8-92de-28a822933a5d"},"vehicle_type_id":"4","last_reported":1687291613,"current_range_meters":13600,"station_id":"ce4bh292rcd13ifvqdg0","pricing_plan_id":"free"},{"bike_id":"55d79d4c-c9ee-49b7-9443-b211e97801f0","system_id":"levelo_inurba_marseille","lat":43.28579,"lon":5.39494,"is_reserved":false,"is_disabled":false,"rental_uris":{"android":"levelo://app?vid=55d79d4c-c9ee-49b7-9443-b211e97801f0","ios":"levelo://app?vid=55d79d4c-c9ee-49b7-9443-b211e97801f0"},"vehicle_type_id":"4","last_reported":1687291613,"current_range_meters":6400,"station_id":"ce4bh292rcd13ifvqdg0","pricing_plan_id":"free"},{"bike_id":"95ac1b89-c415-4dca-a249-9b745880bab2","system_id":"levelo_inurba_marseille","lat":43.28567,"lon":5.39499,"is_reserved":false,"is_disabled":false,"rental_uris":{"android":"levelo://app?vid=95ac1b89-c415-4dca-a249-9b745880bab2","ios":"levelo://app?vid=95ac1b89-c415-4dca-a249-9b745880bab2"},"vehicle_type_id":"4","last_reported":1687291613,"current_range_meters":2800,"station_id":"ce4bh292rcd13ifvqdg0","pricing_plan_id":"free"},{"bike_id":"ff22564b-7f59-4dba-a7bd-0f1bc5689db1","system_id":"levelo_inurba_marseille","lat":43.3266,"lon":5.40979,"is_reserved":false,"is_disabled":false,"rental_uris":{"android":"levelo://app?vid=ff22564b-7f59-4dba-a7bd-0f1bc5689db1","ios":"levelo://app?vid=ff22564b-7f59-4dba-a7bd-0f1bc5689db1"},"vehicle_type_id":"4","last_reported":1687291613,"current_range_meters":25200,"station_id":"ce4bhpp2rcd13ifvqhgg","pricing_plan_id":"free"},{"bike_id":"7a5f1dab-0115-4817-9dc9-6580ff55f2fe","system_id":"levelo_inurba_marseille","lat":43.326605,"lon":5.409903,"is_reserved":false,"is_disabled":false,"rental_uris":{"android":"levelo://app?vid=7a5f1dab-0115-4817-9dc9-6580ff55f2fe","ios":"levelo://app?vid=7a5f1dab-0115-4817-9dc9-6580ff55f2fe"},"vehicle_type_id":"4","last_reported":1687291613,"current_range_meters":31200,"station_id":"ce4bhpp2rcd13ifvqhgg","pricing_plan_id":"free"},{"bike_id":"d8f3c599-98fd-483a-ab85-a78a5f5718ad","system_id":"levelo_inurba_marseille","lat":43.326605,"lon":5.409903,"is_reserved":false,"is_disabled":false,"rental_uris":{"android":"levelo://app?vid=d8f3c599-98fd-483a-ab85-a78a5f5718ad","ios":"levelo://app?vid=d8f3c599-98fd-483a-ab85-a78a5f5718ad"},"vehicle_type_id":"4","last_reported":1687291613,"current_range_meters":30800,"station_id":"ce4bhpp2rcd13ifvqhgg","pricing_plan_id":"free"},{"bike_id":"a48507aa-5cdd-4d59-885a-d6358068becf","system_id":"levelo_inurba_marseille","lat":43.287154,"lon":5.399979,"is_reserved":false,"is_disabled":false,"rental_uris":{"android":"levelo://app?vid=a48507aa-5cdd-4d59-885a-d6358068becf","ios":"levelo://app?vid=a48507aa-5cdd-4d59-885a-d6358068becf"},"vehicle_type_id":"4","last_reported":1687291613,"current_range_meters":26800,"station_id":"ce4bho92rcd13ifvqh3g","pricing_plan_id":"free"},{"bike_id":"423d89d0-8040-42a6-aba7-149da37cbe7d","system_id":"levelo_inurba_marseille","lat":43.279087,"lon":5.380114,"is_reserved":false,"is_disabled":false,"rental_uris":{"android":"levelo://app?vid=423d89d0-8040-42a6-aba7-149da37cbe7d","ios":"levelo://app?vid=423d89d0-8040-42a6-aba7-149da37cbe7d"},"vehicle_type_id":"4","last_reported":1687291613,"current_range_meters":27600,"station_id":"ce4bhf92rcd13ifvqf50","pricing_plan_id":"free"},{"bike_id":"07ef8b80-b17d-45c4-99e6-6a8689b8f178","system_id":"levelo_inurba_marseille","lat":43.279087,"lon":5.380114,"is_reserved":false,"is_disabled":false,"rental_uris":{"android":"levelo://app?vid=07ef8b80-b17d-45c4-99e6-6a8689b8f178","ios":"levelo://app?vid=07ef8b80-b17d-45c4-99e6-6a8689b8f178"},"vehicle_type_id":"4","last_reported":1687291613,"current_range_meters":7600,"station_id":"ce4bhf92rcd13ifvqf50","pricing_plan_id":"free"},{"bike_id":"8fddb7c9-7cdc-4ed5-a280-8ca0daa22a3d","system_id":"levelo_inurba_marseille","lat":43.287154,"lon":5.399979,"is_reserved":false,"is_disabled":false,"rental_uris":{"android":"levelo://app?vid=8fddb7c9-7cdc-4ed5-a280-8ca0daa22a3d","ios":"levelo://app?vid=8fddb7c9-7cdc-4ed5-a280-8ca0daa22a3d"},"vehicle_type_id":"4","last_reported":1687291613,"current_range_meters":800,"station_id":"ce4bho92rcd13ifvqh3g","pricing_plan_id":"free"},{"bike_id":"8c37c83b-be15-4ec7-bdee-9bedce37f6e4","system_id":"levelo_inurba_marseille","lat":43.287154,"lon":5.399979,"is_reserved":false,"is_disabled":false,"rental_uris":{"android":"levelo://app?vid=8c37c83b-be15-4ec7-bdee-9bedce37f6e4","ios":"levelo://app?vid=8c37c83b-be15-4ec7-bdee-9bedce37f6e4"},"vehicle_type_id":"4","last_reported":1687291613,"current_range_meters":8400,"station_id":"ce4bho92rcd13ifvqh3g","pricing_plan_id":"free"},{"bike_id":"ceff3334-1fc2-4c0a-8104-82b90331b81a","system_id":"levelo_inurba_marseille","lat":43.287154,"lon":5.399979,"is_reserved":false,"is_disabled":false,"rental_uris":{"android":"levelo://app?vid=ceff3334-1fc2-4c0a-8104-82b90331b81a","ios":"levelo://app?vid=ceff3334-1fc2-4c0a-8104-82b90331b81a"},"vehicle_type_id":"4","last_reported":1687291613,"current_range_meters":3600,"station_id":"ce4bho92rcd13ifvqh3g","pricing_plan_id":"free"},{"bike_id":"2deae69b-a9ee-451d-93b9-e7bfcc0acdc3","system_id":"levelo_inurba_marseille","lat":43.320045,"lon":5.415046,"is_reserved":false,"is_disabled":false,"rental_uris":{"android":"levelo://app?vid=2deae69b-a9ee-451d-93b9-e7bfcc0acdc3","ios":"levelo://app?vid=2deae69b-a9ee-451d-93b9-e7bfcc0acdc3"},"vehicle_type_id":"4","last_reported":1687291613,"current_range_meters":22400,"station_id":"ce4bhq92rcd13ifvqhkg","pricing_plan_id":"free"},{"bike_id":"9d6034ec-9774-4107-ab10-dc3f20b30c12","system_id":"levelo_inurba_marseille","lat":43.32038,"lon":5.41556,"is_reserved":false,"is_disabled":false,"rental_uris":{"android":"levelo://app?vid=9d6034ec-9774-4107-ab10-dc3f20b30c12","ios":"levelo://app?vid=9d6034ec-9774-4107-ab10-dc3f20b30c12"},"vehicle_type_id":"4","last_reported":1687291613,"current_range_meters":29600,"station_id":"ce4bhq92rcd13ifvqhkg","pricing_plan_id":"free"},{"bike_id":"820b8d6c-6a66-4f9e-9b25-92dc3cb21c59","system_id":"levelo_inurba_marseille","lat":43.32059,"lon":5.41554,"is_reserved":false,"is_disabled":false,"rental_uris":{"android":"levelo://app?vid=820b8d6c-6a66-4f9e-9b25-92dc3cb21c59","ios":"levelo://app?vid=820b8d6c-6a66-4f9e-9b25-92dc3cb21c59"},"vehicle_type_id":"4","last_reported":1687291613,"current_range_meters":31200,"station_id":"ce4bhq92rcd13ifvqhkg","pricing_plan_id":"free"},{"bike_id":"b0042454-bc86-4bef-bec7-089ef086b297","system_id":"levelo_inurba_marseille","lat":43.292571,"lon":5.409107,"is_reserved":false,"is_disabled":false,"rental_uris":{"android":"levelo://app?vid=b0042454-bc86-4bef-bec7-089ef086b297","ios":"levelo://app?vid=b0042454-bc86-4bef-bec7-089ef086b297"},"vehicle_type_id":"4","last_reported":1687291613,"current_range_meters":6800,"station_id":"ce4bh192rcd13ifvqdc0","pricing_plan_id":"free"},{"bike_id":"953d64fe-7262-435e-8ef1-c6eecadd002a","system_id":"levelo_inurba_marseille","lat":43.325362,"lon":5.414296,"is_reserved":false,"is_disabled":false,"rental_uris":{"android":"levelo://app?vid=953d64fe-7262-435e-8ef1-c6eecadd002a","ios":"levelo://app?vid=953d64fe-7262-435e-8ef1-c6eecadd002a"},"vehicle_type_id":"4","last_reported":1687291613,"current_range_meters":30000,"station_id":"","pricing_plan_id":"free"},