{"last_updated":1750194590,"ttl":60,"version":"2.2","data":{"bikes":[{"bike_id":"3da29fb8-fc97-44c6-b9ac-31dd456b2fd4","system_id":"levelo_inurba_marseille","lat":43.33771,"lon":5.37424,"is_reserved":false,"is_disabled":true,"rental_uris":{"android":"levelo://app?vid=3da29fb8-fc97-44c6-b9ac-31dd456b2fd4","ios":"levelo://app?vid=3da29fb8-fc97-44c6-b9ac-31dd456b2fd4"},"vehicle_type_id":"4","last_reported":1750194590,"current_range_meters":0,"station_id":"","pricing_plan_id":"cebpf4jnsgd1na2vs0mg"},{"bike_id":"01861ad8-a8d7-4be6-816e-651927c87584","system_id":"levelo_inurba_marseille","lat":43.33751,"lon":5.37456,"is_reserved":false,"is_disabled":true,"rental_uris":{"android":"levelo://app?vid=01861ad8-a8d7-4be6-816e-651927c87584","ios":"levelo://app?vid=01861ad8-a8d7-4be6-816e-651927c87584"},"vehicle_type_id":"4","last_reported":1750194590,"current_range_meters":0,"station_id":"","pricing_plan_id":"cebpf4jnsgd1na2vs0mg"},{"bike_id":"dbfce7a3-3423-4296-b193-a177dea644ac","system_id":"levelo_inurba_marseille","lat":43.27285,"lon":5.41609,"is_reserved":false,"is_disabled":true,"rental_uris":{"android":"levelo://app?vid=dbfce7a3-3423-4296-b193-a177dea644ac","ios":"levelo://app?vid=dbfce7a3-3423-4296-b193-a177dea644ac"},"vehicle_type_id":"4","last_reported":1750194590,"current_range_meters":0,"station_id":"","pricing_plan_id":"cebpf4jnsgd1na2vs0mg"},{"bike_id":"d2bd57c8-6b64-48db-ad24-5398eb3fd9d6","system_id":"levelo_inurba_marseille","lat":43.337444,"lon":5.374475,"is_reserved":false,"is_disabled":true,"rental_uris":{"android":"levelo://app?vid=d2bd57c8-6b64-48db-ad24-5398eb3fd9d6","ios":"levelo://app?vid=d2bd57c8-6b64-48db-ad24-5398eb3fd9d6"},"vehicle_type_id":"4","last_reported":1750194590,"current_range_meters":0,"station_id":"","pricing_plan_id":"cebpf4jnsgd1na2vs0mg"},{"bike_id":"62a493c7-4534-4419-ad43-0582de34a72a","system_id":"levelo_inurba_marseille","lat":43.21366,"lon":5.355183,"is_reserved":false,"is_disabled":true,"rental_uris":{"android":"levelo://app?vid=62a493c7-4534-4419-ad43-0582de34a72a","ios":"levelo://app?vid=62a493c7-4534-4419-ad43-0582de34a72a"},"vehicle_type_id":"4","last_reported":1750194590,"current_range_meters":0,"station_id":"","pricing_plan_id":"cebpf4jnsgd1na2vs0mg"},{"bike_id":"8ad9234e-001a-4549-8bba-9baf2ef98804","system_id":"levelo_inurba_marseille","lat":43.27463,"lon":5.39823,"is_reserved":false,"is_disabled":true,"rental_uris":{"android":"levelo://app?vid=8ad9234e-001a-4549-8bba-9baf2ef98804","ios":"levelo://app?vid=8ad9234e-001a-4549-8bba-9baf2ef98804"},"vehicle_type_id":"4","last_reported":1750194590,"current_range_meters":0,"station_id":"","pricing_plan_id":"cebpf4jnsgd1na2vs0mg"},{"bike_id":"93af304b-67b5-47b8-a3fd-e0775f7cde8c","system_id":"levelo_inurba_marseille","lat":43.21521,"lon":5.34736,"is_reserved":false,"is_disabled":true,"rental_uris":{"android":"levelo://app?vid=93af304b-67b5-47b8-a3fd-e0775f7cde8c","ios":"levelo://app?vid=93af304b-67b5-47b8-a3fd-e0775f7cde8c"},"vehicle_type_id":"4","last_reported":1750194590,"current_range_meters":0,"station_id":"","pricing_plan_id":"cebpf4jnsgd1na2vs0mg"},{"bike_id":"d6609b4f-333b-43c1-9ebe-8726f5e76e88","system_id":"levelo_inurba_marseille","lat":43.337444,"lon":5.374475,"is_reserved":false,"is_disabled":true,"rental_uris":{"android":"levelo://app?vid=d6609b4f-333b-43c1-9ebe-8726f5e76e88","ios":"levelo://app?vid=d6609b4f-333b-43c1-9ebe-8726f5e76e88"},"vehicle_type_id":"4","last_reported":1750194590,"current_range_meters":0,"station_id":"","pricing_plan_id":"cebpf4jnsgd1na2vs0mg"},{"bike_id":"57c83ce1-960e-466a-b6c5-d93bc130c53a","system_id":"levelo_inurba_marseille","lat":43.24899,"lon":5.38971,"is_reserved":false,"is_disabled":true,"rental_uris":{"android":"levelo://app?vid=57c83ce1-960e-466a-b6c5-d93bc130c53a","ios":"levelo://app?vid=57c83ce1-960e-466a-b6c5-d93bc130c53a"},"vehicle_type_id":"4","last_reported":1750194590,"current_range_meters":0,"station_id":"","pricing_plan_id":"cebpf4jnsgd1na2vs0mg"},{"bike_id":"4144044c-674a-4973-ac5e-019952cb56dd","system_id":"levelo_inurba_marseille","lat":43.306527,"lon":5.400864,"is_reserved":false,"is_disabled":true,"rental_uris":{"android":"levelo://app?vid=4144044c-674a-4973-ac5e-019952cb56dd","ios":"levelo://app?vid=4144044c-674a-4973-ac5e-019952cb56dd"},"vehicle_type_id":"4","last_reported":1750194590,"current_range_meters":0,"station_id":"","pricing_plan_id":"cebpf4jnsgd1na2vs0mg"},{"bike_id":"3ff455b1-5a91-4045-ad3d-d5e37b00e319","system_id":"levelo_inurba_marseille","lat":43.27618,"lon":5.36111,"is_reserved":false,"is_disabled":true,"rental_uris":{"android":"levelo://app?vid=3ff455b1-5a91-4045-ad3d-d5e37b00e319","ios":"levelo://app?vid=3ff455b1-5a91-4045-ad3d-d5e37b00e319"},"vehicle_type_id":"4","last_reported":1750194590,"current_range_meters":0,"station_id":"ce4bgj92rcd13ifvqbe0","pricing_plan_id":"cebpf4jnsgd1na2vs0mg"},{"bike_id":"0adbb95e-7cbe-48a0-85bf-f31338ba598b","system_id":"levelo_inurba_marseille","lat":43.26191,"lon":5.37448,"is_reserved":false,"is_disabled":true,"rental_uris":{"android":"levelo://app?vid=0adbb95e-7cbe-48a0-85bf-f31338ba598b","ios":"levelo://app?vid=0adbb95e-7cbe-48a0-85bf-f31338ba598b"},"vehicle_type_id":"4","last_reported":1750194590,"current_range_meters":0,"station_id":"ce4bhgp2rcd13ifvqfc0","pricing_plan_id":"cebpf4jnsgd1na2vs0mg"},{"bike_id":"d3148640-b051-410a-8210-050e134a0fe2","system_id":"levelo_inurba_marseille","lat":43.30418,"lon":5.41287,"is_reserved":false,"is_disabled":true,"rental_uris":{"android":"levelo://app?vid=d3148640-b051-410a-8210-050e134a0fe2","ios":"levelo://app?vid=d3148640-b051-410a-8210-050e134a0fe2"},"vehicle_type_id":"4","last_reported":1750194590,"current_range_meters":0,"station_id":"ce4bhop2rcd13ifvqh8g","pricing_plan_id":"cebpf4jnsgd1na2vs0mg"},{"bike_id":"b9e37238-9abe-4b8b-b932-edaee33a7e59","system_id":"levelo_inurba_marseille","lat":43.27467,"lon":5.39001,"is_reserved":false,"is_disabled":true,"rental_uris":{"android":"levelo://app?vid=b9e37238-9abe-4b8b-b932-edaee33a7e59","ios":"levelo://app?vid=b9e37238-9abe-4b8b-b932-edaee33a7e59"},"vehicle_type_id":"4","last_reported":1750194590,"current_range_meters":800,"station_id":"","pricing_plan_id":"cebpf4jnsgd1na2vs0mg"},{"bike_id":"770add1c-afc7-41ba-be87-5d8ab1630210","system_id":"levelo_inurba_marseille","lat":43.299677,"lon":5.37179,"is_reserved":false,"is_disabled":true,"rental_uris":{"android":"levelo://app?vid=770add1c-afc7-41ba-be87-5d8ab1630210","ios":"levelo://app?vid=770add1c-afc7-41ba-be87-5d8ab1630210"},"vehicle_type_id":"4","last_reported":1750194590,"current_range_meters":1200,"station_id":"ce4bgr92rcd13ifvqc7g","pricing_plan_id":"cebpf4jnsgd1na2vs0mg"},{"bike_id":"2d88495d-1c5b-47ae-aa36-6a78be888f03","system_id":"levelo_inurba_marseille","lat":43.25718,"lon":5.41112,"is_reserved":false,"is_disabled":true,"rental_uris":{"android":"levelo://app?vid=2d88495d-1c5b-47ae-aa36-6a78be888f03","ios":"levelo://app?vid=2d88495d-1c5b-47ae-aa36-6a78be888f03"},"vehicle_type_id":"4","last_reported":1750194590,"current_range_meters":1200,"station_id":"ce4bhkp2rcd13ifvqgd0","pricing_plan_id":"cebpf4jnsgd1na2vs0mg"},{"bike_id":"a253406a-f86b-4117-8567-fc71f13b51c7","system_id":"levelo_inurba_marseille","lat":43.31693,"lon":5.37706,"is_reserved":false,"is_disabled":true,"rental_uris":{"android":"levelo://app?vid=a253406a-f86b-4117-8567-fc71f13b51c7","ios":"levelo://app?vid=a253406a-f86b-4117-8567-fc71f13b51c7"},"vehicle_type_id":"4","last_reported":1750194590,"current_range_meters":1600,"station_id":"ce4bgth2rcd13ifvqch0","pricing_plan_id":"cebpf4jnsgd1na2vs0mg"},{"bike_id":"8d297b38-f666-4a46-9dee-0132f800019c","system_id":"levelo_inurba_marseille","lat":43.32188,"lon":5.38661,"is_reserved":false,"is_disabled":true,"rental_uris":{"android":"levelo://app?vid=8d297b38-f666-4a46-9dee-0132f800019c","ios":"levelo://app?vid=8d297b38-f666-4a46-9dee-0132f800019c"},"vehicle_type_id":"4","last_reported":1750194590,"current_range_meters":2000,"station_id":"","pricing_plan_id":"cebpf4jnsgd1na2vs0mg"},{"bike_id":"d93d6c59-6a6d-4a1d-b4e0-be24c37476a3","system_id":"levelo_inurba_marseille","lat":43.290344,"lon":5.375611,"is_reserved":false,"is_disabled":false,"rental_uris":{"android":"levelo://app?vid=d93d6c59-6a6d-4a1d-b4e0-be24c37476a3","ios":"levelo://app?vid=d93d6c59-6a6d-4a1d-b4e0-be24c37476a3"},"vehicle_type_id":"4","last_reported":1750194590,"current_range_meters":2000,"station_id":"ce4bh692rcd13ifvqe90","pricing_plan_id":"cebpf4jnsgd1na2vs0mg"},{"bike_id":"69af7404-5ec1-4810-9e8f-2b24aa559381","system_id":"levelo_inurba_marseille","lat":43.29346,"lon":5.3836,"is_reserved":false,"is_disabled":false,"rental_uris":{"android":"levelo://app?vid=69af7404-5ec1-4810-9e8f-2b24aa559381","ios":"levelo://app?vid=69af7404-5ec1-4810-9e8f-2b24aa559381"},"vehicle_type_id":"4","last_reported":1750194590,"current_range_meters":2800,"station_id":"","pricing_plan_id":"cebpf4jnsgd1na2vs0mg"},{"bike_id":"794fb512-5113-4784-886b-2cafef226a34","system_id":"levelo_inurba_marseille","lat":43.305996,"lon":5.393584,"is_reserved":false,"is_disabled":false,"rental_uris":{"android":"levelo://app?vid=794fb512-5113-4784-886b-2cafef226a34","ios":"levelo://app?vid=794fb512-5113-4784-886b-2cafef226a34"},"vehicle_type_id":"4","last_reported":1750194590,"current_range_meters":2800,"station_id":"ce4bh0p2rcd13ifvqd80","pricing_plan_id":"cebpf4jnsgd1na2vs0mg"},{"bike_id":"8de18e04-baaf-413e-8349-bf84935bbf3f","system_id":"levelo_inurba_marseille","lat":43.27676,"lon":5.38876,"is_reserved":false,"is_disabled":false,"rental_uris":{"android":"levelo://app?vid=8de18e04-baaf-413e-8349-bf84935bbf3f","ios":"levelo://app?vid=8de18e04-baaf-413e-8349-bf84935bbf3f"},"vehicle_type_id":"4","last_reported":1750194590,"current_range_meters":2800,"station_id":"ce4bhi12rcd13ifvqfo0","pricing_plan_id":"cebpf4jnsgd1na2vs0mg"},{"bike_id":"ed6e4815-e502-43db-8c1d-d33eef1d7785","system_id":"levelo_inurba_marseille","lat":43.290375,"lon":5.375608,"is_reserved":false,"is_disabled":false,"rental_uris":{"android":"levelo://app?vid=ed6e4815-e502-43db-8c1d-d33eef1d7785","ios":"levelo://app?vid=ed6e4815-e502-43db-8c1d-d33eef1d7785"},"vehicle_type_id":"4","last_reported":1750194590,"current_range_meters":3200,"station_id":"ce4bh692rcd13ifvqe90","pricing_plan_id":"cebpf4jnsgd1na2vs0mg"},{"bike_id":"47196f00-388f-4b3b-a4de-3dba126cd107","system_id":"levelo_inurba_marseille","lat":43.24352,"lon":5.41154,"is_reserved":false,"is_disabled":false,"rental_uris":{"android":"levelo://app?vid=47196f00-388f-4b3b-a4de-3dba126cd107","ios":"levelo://app?vid=47196f00-388f-4b3b-a4de-3dba126cd107"},"vehicle_type_id":"4","last_reported":1750194590,"current_range_meters":3600,"station_id":"","pricing_plan_id":"cebpf4jnsgd1na2vs0mg"},{"bike_id":"6e9a51b3-2400-4395-98cc-eb0e815e70f8","system_id":"levelo_inurba_marseille","lat":43.30539,"lon":5.38428,"is_reserved":false,"is_disabled":false,"rental_uris":{"android":"levelo://app?vid=6e9a51b3-2400-4395-98cc-eb0e815e70f8","ios":"levelo://app?vid=6e9a51b3-2400-4395-98cc-eb0e815e70f8"},"vehicle_type_id":"4","last_reported":1750194590,"current_range_meters":4000,"station_id":"ce4bgg92rcd13ifvqb30","pricing_plan_id":"cebpf4jnsgd1na2vs0mg"},{"bike_id":"c16bc9d0-e0af-407f-be1d-b74581c64c28","system_id":"levelo_inurba_marseille","lat":43.2953,"lon":5.38548,"is_reserved":false,"is_disabled":false,"rental_uris":{"android":"levelo://app?vid=c16bc9d0-e0af-407f-be1d-b74581c64c28","ios":"levelo://app?vid=c16bc9d0-e0af-407f-be1d-b74581c64c28"},"vehicle_type_id":"4","last_reported":1750194590,"current_range_meters":4000,"station_id":"ce4bgih2rcd13ifvqba0","pricing_plan_id":"cebpf4jnsgd1na2vs0mg"},{"bike_id":"6e93d8c0-a23e-4e9e-ac94-b73556ddfdc7","system_id":"levelo_inurba_marseille","lat":43.28692,"lon":5.37376,"is_reserved":false,"is_disabled":false,"rental_uris":{"android":"levelo://app?vid=6e93d8c0-a23e-4e9e-ac94-b73556ddfdc7","ios":"levelo://app?vid=6e93d8c0-a23e-4e9e-ac94-b73556ddfdc7"},"vehicle_type_id":"4","last_reported":1750194590,"current_range_meters":4400,"station_id":"ce4bh3p2rcd13ifvqdq0","pricing_plan_id":"cebpf4jnsgd1na2vs0mg"},{"bike_id":"9b83a8d6-0327-478b-b8a6-d7c2a965d539","system_id":"levelo_inurba_marseille","lat":43.28701,"lon":5.374,"is_reserved":false,"is_disabled":false,"rental_uris":{"android":"levelo://app?vid=9b83a8d6-0327-478b-b8a6-d7c2a965d539","ios":"levelo://app?vid=9b83a8d6-0327-478b-b8a6-d7c2a965d539"},"vehicle_type_id":"4","last_reported":1750194590,"current_range_meters":4400,"station_id":"ce4bh3p2rcd13ifvqdq0","pricing_plan_id":"cebpf4jnsgd1na2vs0mg"},{"bike_id":"67e144a2-3fde-4135-90c6-efb1e7d7e3f7","system_id":"levelo_inurba_marseille","lat":43.28935,"lon":5.3664,"is_reserved":false,"is_disabled":false,"rental_uris":{"android":"levelo://app?vid=67e144a2-3fde-4135-90c6-efb1e7d7e3f7","ios":"levelo://app?vid=67e144a2-3fde-4135-90c6-efb1e7d7e3f7"},"vehicle_type_id":"4","last_reported":1750194590,"current_range_meters":4400,"station_id":"ce4bhap2rcd13ifvqek0","pricing_plan_id":"cebpf4jnsgd1na2vs0mg"},{"bike_id":"1c8dd34b-9d03-492f-aa85-8944da27fde3","system_id":"levelo_inurba_marseille","lat":43.286047,"lon":5.370543,"is_reserved":false,"is_disabled":false,"rental_uris":{"android":"levelo://app?vid=1c8dd34b-9d03-492f-aa85-8944da27fde3","ios":"levelo://app?vid=1c8dd34b-9d03-492f-aa85-8944da27fde3"},"vehicle_type_id":"4","last_reported":1750194590,"current_range_meters":4800,"station_id":"","pricing_plan_id":"cebpf4jnsgd1na2vs0mg"},{"bike_id":"2f05273c-8105-4b4c-bb0e-462e5148e263","system_id":"levelo_inurba_marseille","lat":43.29528,"lon":5.39036,"is_reserved":false,"is_disabled":false,"rental_uris":{"android":"levelo://app?vid=2f05273c-8105-4b4c-bb0e-462e5148e263","ios":"levelo://app?vid=2f05273c-8105-4b4c-bb0e-462e5148e263"},"vehicle_type_id":"4","last_reported":1750194590,"current_range_meters":4800,"station_id":"ce4bh3p2rcd13ifvqdp0","pricing_plan_id":"cebpf4jnsgd1na2vs0mg"},{"bike_id":"51531d37-847d-44f0-8dd5-efc7fd82a2c2","system_id":"levelo_inurba_marseille","lat":43.26194,"lon":5.3744,"is_reserved":false,"is_disabled":false,"rental_uris":{"android":"levelo://app?vid=51531d37-847d-44f0-8dd5-efc7fd82a2c2","ios":"levelo://app?vid=51531d37-847d-44f0-8dd5-efc7fd82a2c2"},"vehicle_type_id":"4","last_reported":1750194590,"current_range_meters":6000,"station_id":"ce4bhgp2rcd13ifvqfc0","pricing_plan_id":"cebpf4jnsgd1na2vs0mg"},{"bike_id":"3e1d7624-cc64-4c31-9db6-b8fd06a642bb","system_id":"levelo_inurba_marseille","lat":43.27172,"lon":5.40992,"is_reserved":false,"is_disabled":false,"rental_uris":{"android":"levelo://app?vid=3e1d7624-cc64-4c31-9db6-b8fd06a642bb","ios":"levelo://app?vid=3e1d7624-cc64-4c31-9db6-b8fd06a642bb"},"vehicle_type_id":"4","last_reported":1750194590,"current_range_meters":6000,"station_id":"ce4bhl12rcd13ifvqgf0","pricing_plan_id":"cebpf4jnsgd1na2vs0mg"},{"bike_id":"75fdfcd2-26f0-49a2-b69f-30fb0e0921b5","system_id":"levelo_inurba_marseille","lat":43.28357,"lon":5.38099,"is_reserved":false,"is_disabled":false,"rental_uris":{"android":"levelo://app?vid=75fdfcd2-26f0-49a2-b69f-30fb0e0921b5","ios":"levelo://app?vid=75fdfcd2-26f0-49a2-b69f-30fb0e0921b5"},"vehicle_type_id":"4","last_reported":1750194590,"current_range_meters":6400,"station_id":"ce4bh412rcd13ifvqdr0","pricing_plan_id":"cebpf4jnsgd1na2vs0mg"},{"bike_id":"7615ef1d-5293-459a-9756-841d9e1995cf","system_id":"levelo_inurba_marseille","lat":43.3247,"lon":5.36567,"is_reserved":false,"is_disabled":false,"rental_uris":{"android":"levelo://app?vid=7615ef1d-5293-459a-9756-841d9e1995cf","ios":"levelo://app?vid=7615ef1d-5293-459a-9756-841d9e1995cf"},"vehicle_type_id":"4","last_reported":1750194590,"current_range_meters":6400,"station_id":"ce4bhs12rcd13ifvqhvg","pricing_plan_id":"cebpf4jnsgd1na2vs0mg"},{"bike_id":"cd0b271f-a2a4-4f5a-82cf-82bb357236cd","system_id":"levelo_inurba_marseille","lat":43.29652,"lon":5.37763,"is_reserved":false,"is_disabled":false,"rental_uris":{"android":"levelo://app?vid=cd0b271f-a2a4-4f5a-82cf-82bb357236cd","ios":"levelo://app?vid=cd0b271f-a2a4-4f5a-82cf-82bb357236cd"},"vehicle_type_id":"4","last_reported":1750194590,"current_range_meters":6800,"station_id":"ce4bgi92rcd13ifvqb90","pricing_plan_id":"cebpf4jnsgd1na2vs0mg"},{"bike_id":"105e6dd3-9999-46b5-af44-141fa0689273","system_id":"levelo_inurba_marseille","lat":43.27813,"lon":5.35413,"is_reserved":false,"is_disabled":false,"rental_uris":{"android":"levelo://app?vid=105e6dd3-9999-46b5-af44-141fa0689273","ios":"levelo://app?vid=105e6dd3-9999-46b5-af44-141fa0689273"},"vehicle_type_id":"4","last_reported":1750194590,"current_range_meters":7200,"station_id":"","pricing_plan_id":"cebpf4jnsgd1na2vs0mg"},{"bike_id":"ec6fe56b-ebeb-4beb-b937-ba4aa9901500","system_id":"levelo_inurba_marseille","lat":43.302979,"lon":5.392201,"is_reserved":false,"is_disabled":false,"rental_uris":{"android":"levelo://app?vid=ec6fe56b-ebeb-4beb-b937-ba4aa9901500","ios":"levelo://app?vid=ec6fe56b-ebeb-4beb-b937-ba4aa9901500"},"vehicle_type_id":"4","last_reported":1750194590,"current_range_meters":7200,"station_id":"ce4bgkh2rcd13ifvqbk0","pricing_plan_id":"cebpf4jnsgd1na2vs0mg"},{"bike_id":"7894dd9f-ed8a-4328-9d9f-3074e8767039","system_id":"levelo_inurba_marseille","lat":43.30913,"lon":5.36852,"is_reserved":false,"is_disabled":false,"rental_uris":{"android":"levelo://app?vid=7894dd9f-ed8a-4328-9d9f-3074e8767039","ios":"levelo://app?vid=7894dd9f-ed8a-4328-9d9f-3074e8767039"},"vehicle_type_id":"4","last_reported":1750194590,"current_range_meters":7200,"station_id":"ce4bgn92rcd13ifvqbvg","pricing_plan_id":"cebpf4jnsgd1na2vs0mg"},{"bike_id":"859ce7c7-20ed-43d7-8ee7-15c74cce7fbb","system_id":"levelo_inurba_marseille","lat":43.32271,"lon":5.38273,"is_reserved":false,"is_disabled":false,"rental_uris":{"android":"levelo://app?vid=859ce7c7-20ed-43d7-8ee7-15c74cce7fbb","ios":"levelo://app?vid=859ce7c7-20ed-43d7-8ee7-15c74cce7fbb"},"vehicle_type_id":"4","last_reported":1750194590,"current_range_meters":7200,"station_id":"ce4bhr12rcd13ifvqhqg","pricing_plan_id":"cebpf4jnsgd1na2vs0mg"},{"bike_id":"482fdd65-96b2-4e9f-9413-4155292d3120","system_id":"levelo_inurba_marseille","lat":43.29965,"lon":5.385,"is_reserved":false,"is_disabled":false,"rental_uris":{"android":"levelo://app?vid=482fdd65-96b2-4e9f-9413-4155292d3120","ios":"levelo://app?vid=482fdd65-96b2-4e9f-9413-4155292d3120"},"vehicle_type_id":"4","last_reported":1750194590,"current_range_meters":8000,"station_id":"ce4bgj92rcd13ifvqbd0","pricing_plan_id":"cebpf4jnsgd1na2vs0mg"},{"bike_id":"5a5794d3-2694-465e-8ad1-80a67bb37288","system_id":"levelo_inurba_marseille","lat":43.29569,"lon":5.39981,"is_reserved":false,"is_disabled":false,"rental_uris":{"android":"levelo://app?vid=5a5794d3-2694-465e-8ad1-80a67bb37288","ios":"levelo://app?vid=5a5794d3-2694-465e-8ad1-80a67bb37288"},"vehicle_type_id":"4","last_reported":1750194590,"current_range_meters":8000,"station_id":"ce4bh312rcd13ifvqdj0","pricing_plan_id":"cebpf4jnsgd1na2vs0mg"},{"bike_id":"26999c9a-428a-4892-bde0-0cf37d63a21f","system_id":"levelo_inurba_marseille","lat":43.29522,"lon":5.39049,"is_reserved":false,"is_disabled":false,"rental_uris":{"android":"levelo://app?vid=26999c9a-428a-4892-bde0-0cf37d63a21f","ios":"levelo://app?vid=26999c9a-428a-4892-bde0-0cf37d63a21f"},"vehicle_type_id":"4","last_reported":1750194590,"current_range_meters":8000,"station_id":"ce4bh3p2rcd13ifvqdp0","pricing_plan_id":"cebpf4jnsgd1na2vs0mg"},{"bike_id":"da3e1724-606c-4f9a-9130-d56dd48e22e0","system_id":"levelo_inurba_marseille","lat":43.32875,"lon":5.40641,"is_reserved":false,"is_disabled":false,"rental_uris":{"android":"levelo://app?vid=da3e1724-606c-4f9a-9130-d56dd48e22e0","ios":"levelo://app?vid=da3e1724-606c-4f9a-9130-d56dd48e22e0"},"vehicle_type_id":"4","last_reported":1750194590,"current_range_meters":8400,"station_id":"","pricing_plan_id":"cebpf4jnsgd1na2vs0mg"},{"bike_id":"6ba80795-26da-43fa-ab60-6831760385ff","system_id":"levelo_inurba_marseille","lat":43.32595,"lon":5.41971,"is_reserved":false,"is_disabled":false,"rental_uris":{"android":"levelo://app?vid=6ba80795-26da-43fa-ab60-6831760385ff","ios":"levelo://app?vid=6ba80795-26da-43fa-ab60-6831760385ff"},"vehicle_type_id":"4","last_reported":1750194590,"current_range_meters":8400,"station_id":"","pricing_plan_id":"cebpf4jnsgd1na2vs0mg"},{"bike_id":"b4ba5385-0294-4c30-aeeb-5eefadb7596b","system_id":"levelo_inurba_marseille","lat":43.29911,"lon":5.3815,"is_reserved":false,"is_disabled":false,"rental_uris":{"android":"levelo://app?vid=b4ba5385-0294-4c30-aeeb-5eefadb7596b","ios":"levelo://app?vid=b4ba5385-0294-4c30-aeeb-5eefadb7596b"},"vehicle_type_id":"4","last_reported":1750194590,"current_range_meters":8400,"station_id":"ce4bgj12rcd13ifvqbc0","pricing_plan_id":"cebpf4jnsgd1na2vs0mg"},{"bike_id":"e094c735-3101-4cc0-b96c-df9da2682a8d","system_id":"levelo_inurba_marseille","lat":43.29534,"lon":5.39047,"is_reserved":false,"is_disabled":false,"rental_uris":{"android":"levelo://app?vid=e094c735-3101-4cc0-b96c-df9da2682a8d","ios":"levelo://app?vid=e094c735-3101-4cc0-b96c-df9da2682a8d"},"vehicle_type_id":"4","last_reported":1750194590,"current_range_meters":8400,"station_id":"ce4bh3p2rcd13ifvqdp0","pricing_plan_id":"cebpf4jnsgd1na2vs0mg"},{"bike_id":"84b0c19d-3c6a-48c7-ae72-a22a51d91e69","system_id":"levelo_inurba_marseille","lat":43.28676,"lon":5.38653,"is_reserved":false,"is_disabled":false,"rental_uris":{"android":"levelo://app?vid=84b0c19d-3c6a-48c7-ae72-a22a51d91e69","ios":"levelo://app?vid=84b0c19d-3c6a-48c7-ae72-a22a51d91e69"},"vehicle_type_id":"4","last_reported":1750194590,"current_range_meters":8400,"station_id":"ce4bh492rcd13ifvqdug","pricing_plan_id":"cebpf4jnsgd1na2vs0mg"},{"bike_id":"e03a6d42-f362-4878-ab56-4b5afba95b0c","system_id":"levelo_inurba_marseille","lat":43.31489,"lon":5.36906,"is_reserved":false,"is_disabled":false,"rental_uris":{"android":"levelo://app?vid=e03a6d42-f362-4878-ab56-4b5afba95b0c","ios":"levelo://app?vid=e03a6d42-f362-4878-ab56-4b5afba95b0c"},"vehicle_type_id":"4","last_reported":1750194590,"current_range_meters":8800,"station_id":"","pricing_plan_id":"cebpf4jnsgd1na2vs0mg"},{"bike_id":"9715292b-b746-477d-bb18-e1b3ba29c005","system_id":"levelo_inurba_marseille","lat":43.29521,"lon":5.38538,"is_reserved":false,"is_disabled":false,"rental_uris":{"android":"levelo://app?vid=9715292b-b746-477d-bb18-e1b3ba29c005","ios":"levelo://app?vid=9715292b-b746-477d-bb18-e1b3ba29c005"},"vehicle_type_id":"4","last_reported":1750194590,"current_range_meters":8800,"station_id":"ce4bgih2rcd13ifvqba0","pricing_plan_id":"cebpf4jnsgd1na2vs0mg"},{"bike_id":"154c4af1-d704-46ac-9464-f440868ee324","system_id":"levelo_inurba_marseille","lat":43.29872,"lon":5.39733,"is_reserved":false,"is_disabled":false,"rental_uris":{"android":"levelo://app?vid=154c4af1-d704-46ac-9464-f440868ee324","ios":"levelo://app?vid=154c4af1-d704-46ac-9464-f440868ee324"},"vehicle_type_id":"4","last_reported":1750194590,"current_range_meters":8800,"station_id":"ce4bh0h2rcd13ifvqd50","pricing_plan_id":"cebpf4jnsgd1na2vs0mg"},{"bike_id":"de359bf3-5c30-4f40-b752-71017e83fcdf","system_id":"levelo_inurba_marseille","lat":43.3014,"lon":5.37423,"is_reserved":false,"is_disabled":false,"rental_uris":{"android":"levelo://app?vid=de359bf3-5c30-4f40-b752-71017e83fcdf","ios":"levelo://app?vid=de359bf3-5c30-4f40-b752-71017e83fcdf"},"vehicle_type_id":"4","last_reported":1750194590,"current_range_meters":9200,"station_id":"ce4bgs92rcd13ifvqcc0","pricing_plan_id":"cebpf4jnsgd1na2vs0mg"},{"bike_id":"21bb2fec-7b9f-48ef-a4e4-e5454ab22576","system_id":"levelo_inurba_marseille","lat":43.295197,"lon":5.393966,"is_reserved":false,"is_disabled":false,"rental_uris":{"android":"levelo://app?vid=21bb2fec-7b9f-48ef-a4e4-e5454ab22576","ios":"levelo://app?vid=21bb2fec-7b9f-48ef-a4e4-e5454ab22576"},"vehicle_type_id":"4","last_reported":1750194590,"current_range_meters":9200,"station_id":"ce4bh292rcd13ifvqdf0","pricing_plan_id":"cebpf4jnsgd1na2vs0mg"},{"bike_id":"0794b32c-2e69-405b-937d-531e8562ef48","system_id":"levelo_inurba_marseille","lat":43.29067,"lon":5.37213,"is_reserved":false,"is_disabled":false,"rental_uris":{"android":"levelo://app?vid=0794b32c-2e69-405b-937d-531e8562ef48","ios":"levelo://app?vid=0794b32c-2e69-405b-937d-531e8562ef48"},"vehicle_type_id":"4","last_reported":1750194590,"current_range_meters":9200,"station_id":"ce4bh5p2rcd13ifvqe4g","pricing_plan_id":"cebpf4jnsgd1na2vs0mg"},{"bike_id":"952a208c-8037-4306-b6db-e53040eff428","system_id":"levelo_inurba_marseille","lat":43.24386,"lon":5.37054,"is_reserved":false,"is_disabled":false,"rental_uris":{"android":"levelo://app?vid=952a208c-8037-4306-b6db-e53040eff428","ios":"levelo://app?vid=952a208c-8037-4306-b6db-e53040eff428"},"vehicle_type_id":"4","last_reported":1750194590,"current_range_meters":9200,"station_id":"ce4bhhh2rcd13ifvqfk0","pricing_plan_id":"cebpf4jnsgd1na2vs0mg"},{"bike_id":"d35e1bee-6cd1-4d4c-b8ec-d60cc69d2c6d","system_id":"levelo_inurba_marseille","lat":43.27835,"lon":5.39205,"is_reserved":false,"is_disabled":false,"rental_uris":{"android":"levelo://app?vid=d35e1bee-6cd1-4d4c-b8ec-d60cc69d2c6d","ios":"levelo://app?vid=d35e1bee-6cd1-4d4c-b8ec-d60cc69d2c6d"},"vehicle_type_id":"4","last_reported":1750194590,"current_range_meters":9200,"station_id":"ce4bhjp2rcd13ifvqga0","pricing_plan_id":"cebpf4jnsgd1na2vs0mg"},{"bike_id":"32ee6c4a-ccab-41cb-b4a7-863095ced63d","system_id":"levelo_inurba_marseille","lat":43.28706,"lon":5.399904,"is_reserved":false,"is_disabled":false,"rental_uris":{"android":"levelo://app?vid=32ee6c4a-ccab-41cb-b4a7-863095ced63d","ios":"levelo://app?vid=32ee6c4a-ccab-41cb-b4a7-863095ced63d"},"vehicle_type_id":"4","last_reported":1750194590,"current_range_meters":9200,"station_id":"ce4bho92rcd13ifvqh3g","pricing_plan_id":"cebpf4jnsgd1na2vs0mg"},{"bike_id":"58a3d38d-8dc9-4b6e-afbf-3f4a2c2ff384","system_id":"levelo_inurba_marseille","lat":43.32651,"lon":5.40993,"is_reserved":false,"is_disabled":false,"rental_uris":{"android":"levelo://app?vid=58a3d38d-8dc9-4b6e-afbf-3f4a2c2ff384","ios":"levelo://app?vid=58a3d38d-8dc9-4b6e-afbf-3f4a2c2ff384"},"vehicle_type_id":"4","last_reported":1750194590,"current_range_meters":9200,"station_id":"ce4bhpp2rcd13ifvqhgg","pricing_plan_id":"cebpf4jnsgd1na2vs0mg"},{"bike_id":"3b136301-d892-4bf1-aa15-695ec30464ca","system_id":"levelo_inurba_marseille","lat":43.32081,"lon":5.36771,"is_reserved":false,"is_disabled":false,"rental_uris":{"android":"levelo://app?vid=3b136301-d892-4bf1-aa15-695ec30464ca","ios":"levelo://app?vid=3b136301-d892-4bf1-aa15-695ec30464ca"},"vehicle_type_id":"4","last_reported":1750194590,"current_range_meters":9200,"station_id":"ce4bhrh2rcd13ifvqhug","pricing_plan_id":"cebpf4jnsgd1na2vs0mg"},{"bike_id":"ae8524c6-7b10-43ef-8ed4-b8035f1213c1","system_id":"levelo_inurba_marseille","lat":43.33438,"lon":5.40192,"is_reserved":false,"is_disabled":false,"rental_uris":{"android":"levelo://app?vid=ae8524c6-7b10-43ef-8ed4-b8035f1213c1","ios":"levelo://app?vid=ae8524c6-7b10-43ef-8ed4-b8035f1213c1"},"vehicle_type_id":"4","last_reported":1750194590,"current_range_meters":9600,"station_id":"","pricing_plan_id":"cebpf4jnsgd1na2vs0mg"},{"bike_id":"95e0d29a-fdad-45eb-a9e3-07866f4eac6d","system_id":"levelo_inurba_marseille","lat":43.29652,"lon":5.36245,"is_reserved":false,"is_disabled":false,"rental_uris":{"android":"levelo://app?vid=95e0d29a-fdad-45eb-a9e3-07866f4eac6d","ios":"levelo://app?vid=95e0d29a-fdad-45eb-a9e3-07866f4eac6d"},"vehicle_type_id":"4","last_reported":1750194590,"current_range_meters":9600,"station_id":"","pricing_plan_id":"cebpf4jnsgd1na2vs0mg"},{"bike_id":"99cad508-6ecc-4a68-9c2f-388d966e9df1","system_id":"levelo_inurba_marseille","lat":43.30726,"lon":5.42439,"is_reserved":false,"is_disabled":false,"rental_uris":{"android":"levelo://app?vid=99cad508-6ecc-4a68-9c2f-388d966e9df1","ios":"levelo://app?vid=99cad508-6ecc-4a68-9c2f-388d966e9df1"},"vehicle_type_id":"4","last_reported":1750194590,"current_range_meters":9600,"station_id":"st_cvj6ca6bvosntc0bfgr0","pricing_plan_id":"cebpf4jnsgd1na2vs0mg"},{"bike_id":"ad347c14-931f-4261-ab3b-a1807595d5e4","system_id":"levelo_inurba_marseille","lat":43.31693,"lon":5.40387,"is_reserved":false,"is_disabled":false,"rental_uris":{"android":"levelo://app?vid=ad347c14-931f-4261-ab3b-a1807595d5e4","ios":"levelo://app?vid=ad347c14-931f-4261-ab3b-a1807595d5e4"},"vehicle_type_id":"4","last_reported":1750194590,"current_range_meters":10000,"station_id":"","pricing_plan_id":"cebpf4jnsgd1na2vs0mg"},{"bike_id":"2474b6ae-2eff-4665-8a87-75eb4c6b5027","system_id":"levelo_inurba_marseille","lat":43.29066,"lon":5.37172,"is_reserved":false,"is_disabled":false,"rental_uris":{"android":"levelo://app?vid=2474b6ae-2eff-4665-8a87-75eb4c6b5027","ios":"levelo://app?vid=2474b6ae-2eff-4665-8a87-75eb4c6b5027"},"vehicle_type_id":"4","last_reported":1750194590,"current_range_meters":10000,"station_id":"ce4bh5p2rcd13ifvqe4g","pricing_plan_id":"cebpf4jnsgd1na2vs0mg"},{"bike_id":"92af7e0c-55a2-4063-a4fe-4e03bfde9c27","system_id":"levelo_inurba_marseille","lat":43.29034,"lon":5.37558,"is_reserved":false,"is_disabled":false,"rental_uris":{"android":"levelo://app?vid=92af7e0c-55a2-4063-a4fe-4e03bfde9c27","ios":"levelo://app?vid=92af7e0c-55a2-4063-a4fe-4e03bfde9c27"},"vehicle_type_id":"4","last_reported":1750194590,"current_range_meters":10000,"station_id":"ce4bh692rcd13ifvqe90","pricing_plan_id":"cebpf4jnsgd1na2vs0mg"},{"bike_id":"27628750-4e5c-4c1d-8092-05e1b3f19069","system_id":"levelo_inurba_marseille","lat":43.2408,"lon":5.37755,"is_reserved":false,"is_disabled":false,"rental_uris":{"android":"levelo://app?vid=27628750-4e5c-4c1d-8092-05e1b3f19069","ios":"levelo://app?vid=27628750-4e5c-4c1d-8092-05e1b3f19069"},"vehicle_type_id":"4","last_reported":1750194590,"current_range_meters":10000,"station_id":"ce4bhnp2rcd13ifvqgvg","pricing_plan_id":"cebpf4jnsgd1na2vs0mg"},{"bike_id":"0e27dafc-21df-4fb1-bd36-2450a7866702","system_id":"levelo_inurba_marseille","lat":43.27163,"lon":5.40005,"is_reserved":false,"is_disabled":false,"rental_uris":{"android":"levelo://app?vid=0e27dafc-21df-4fb1-bd36-2450a7866702","ios":"levelo://app?vid=0e27dafc-21df-4fb1-bd36-2450a7866702"},"vehicle_type_id":"4","last_reported":1750194590,"current_range_meters":10800,"station_id":"","pricing_plan_id":"cebpf4jnsgd1na2vs0mg"},{"bike_id":"a673f03b-b2ad-443d-b427-f173fca6bb7c","system_id":"levelo_inurba_marseille","lat":43.295165,"lon":5.39401,"is_reserved":false,"is_disabled":false,"rental_uris":{"android":"levelo://app?vid=a673f03b-b2ad-443d-b427-f173fca6bb7c","ios":"levelo://app?vid=a673f03b-b2ad-443d-b427-f173fca6bb7c"},"vehicle_type_id":"4","last_reported":1750194590,"current_range_meters":10800,"station_id":"ce4bh292rcd13ifvqdf0","pricing_plan_id":"cebpf4jnsgd1na2vs0mg"},{"bike_id":"cf913430-feb5-4614-9192-6a49c72b5a97","system_id":"levelo_inurba_marseille","lat":43.29573,"lon":5.39975,"is_reserved":false,"is_disabled":false,"rental_uris":{"android":"levelo://app?vid=cf913430-feb5-4614-9192-6a49c72b5a97","ios":"levelo://app?vid=cf913430-feb5-4614-9192-6a49c72b5a97"},"vehicle_type_id":"4","last_reported":1750194590,"current_range_meters":10800,"station_id":"ce4bh312rcd13ifvqdj0","pricing_plan_id":"cebpf4jnsgd1na2vs0mg"},{"bike_id":"eca1c8a5-c9b6-4bab-be69-ddc634ff405e","system_id":"levelo_inurba_marseille","lat":43.28712,"lon":5.37933,"is_reserved":false,"is_disabled":false,"rental_uris":{"android":"levelo://app?vid=eca1c8a5-c9b6-4bab-be69-ddc634ff405e","ios":"levelo://app?vid=eca1c8a5-c9b6-4bab-be69-ddc634ff405e"},"vehicle_type_id":"4","last_reported":1750194590,"current_range_meters":10800,"station_id":"ce4bh9p2rcd13ifvqec0","pricing_plan_id":"cebpf4jnsgd1na2vs0mg"},{"bike_id":"5e39d7cf-70b7-41d4-bd48-848418f12e06","system_id":"levelo_inurba_marseille","lat":43.2499,"lon":5.38937,"is_reserved":false,"is_disabled":false,"rental_uris":{"android":"levelo://app?vid=5e39d7cf-70b7-41d4-bd48-848418f12e06","ios":"levelo://app?vid=5e39d7cf-70b7-41d4-bd48-848418f12e06"},"vehicle_type_id":"4","last_reported":1750194590,"current_range_meters":10800,"station_id":"ce4bhgp2rcd13ifvqfd0","pricing_plan_id":"cebpf4jnsgd1na2vs0mg"},{"bike_id":"291e908c-dbad-4b5b-8d11-efbc9e25f64f","system_id":"levelo_inurba_marseille","lat":43.30262,"lon":5.40051,"is_reserved":false,"is_disabled":false,"rental_uris":{"android":"levelo://app?vid=291e908c-dbad-4b5b-8d11-efbc9e25f64f","ios":"levelo://app?vid=291e908c-dbad-4b5b-8d11-efbc9e25f64f"},"vehicle_type_id":"4","last_reported":1750194590,"current_range_meters":11200,"station_id":"ce4bgvh2rcd13ifvqcs0","pricing_plan_id":"cebpf4jnsgd1na2vs0mg"},{"bike_id":"b930fd9d-8e95-41a9-84cd-7009e2a8134d","system_id":"levelo_inurba_marseille","lat":43.29026,"lon":5.3865,"is_reserved":false,"is_disabled":false,"rental_uris":{"android":"levelo://app?vid=b930fd9d-8e95-41a9-84cd-7009e2a8134d","ios":"levelo://app?vid=b930fd9d-8e95-41a9-84cd-7009e2a8134d"},"vehicle_type_id":"4","last_reported":1750194590,"current_range_meters":11200,"station_id":"ce4bh4p2rcd13ifvqe0g","pricing_plan_id":"cebpf4jnsgd1na2vs0mg"},{"bike_id":"eca25bd6-1b44-4388-a7b0-074a85a4f502","system_id":"levelo_inurba_marseille","lat":43.31087,"lon":5.39755,"is_reserved":false,"is_disabled":false,"rental_uris":{"android":"levelo://app?vid=eca25bd6-1b44-4388-a7b0-074a85a4f502","ios":"levelo://app?vid=eca25bd6-1b44-4388-a7b0-074a85a4f502"},"vehicle_type_id":"4","last_reported":1750194590,"current_range_meters":11600,"station_id":"","pricing_plan_id":"cebpf4jnsgd1na2vs0mg"},{"bike_id":"43ddc85c-6dbd-4939-8877-b3b4c9f7fc35","system_id":"levelo_inurba_marseille","lat":43.30308,"lon":5.369,"is_reserved":false,"is_disabled":false,"rental_uris":{"android":"levelo://app?vid=43ddc85c-6dbd-4939-8877-b3b4c9f7fc35","ios":"levelo://app?vid=43ddc85c-6dbd-4939-8877-b3b4c9f7fc35"},"vehicle_type_id":"4","last_reported":1750194590,"current_range_meters":11600,"station_id":"ce4bgqh2rcd13ifvqc5g","pricing_plan_id":"cebpf4jnsgd1na2vs0mg"},{"bike_id":"17ee2537-59bd-4734-989c-fe3d841d4c23","system_id":"levelo_inurba_marseille","lat":43.29789,"lon":5.40407,"is_reserved":false,"is_disabled":false,"rental_uris":{"android":"levelo://app?vid=17ee2537-59bd-4734-989c-fe3d841d4c23","ios":"levelo://app?vid=17ee2537-59bd-4734-989c-fe3d841d4c23"},"vehicle_type_id":"4","last_reported":1750194590,"current_range_meters":11600,"station_id":"ce4bh112rcd13ifvqd90","pricing_plan_id":"cebpf4jnsgd1na2vs0mg"},{"bike_id":"7c7d8ab5-008b-47eb-a5ae-5a63a77e5f6a","system_id":"levelo_inurba_marseille","lat":43.292606,"lon":5.409008,"is_reserved":false,"is_disabled":false,"rental_uris":{"android":"levelo://app?vid=7c7d8ab5-008b-47eb-a5ae-5a63a77e5f6a","ios":"levelo://app?vid=7c7d8ab5-008b-47eb-a5ae-5a63a77e5f6a"},"vehicle_type_id":"4","last_reported":1750194590,"current_range_meters":11600,"station_id":"ce4bh192rcd13ifvqdc0","pricing_plan_id":"cebpf4jnsgd1na2vs0mg"},{"bike_id":"bdea8a26-915a-4d24-afa3-897c5b1c3c0d","system_id":"levelo_inurba_marseille","lat":43.282042,"lon":5.386404,"is_reserved":false,"is_disabled":false,"rental_uris":{"android":"levelo://app?vid=bdea8a26-915a-4d24-afa3-897c5b1c3c0d","ios":"levelo://app?vid=bdea8a26-915a-4d24-afa3-897c5b1c3c0d"},"vehicle_type_id":"4","last_reported":1750194590,"current_range_meters":11600,"station_id":"ce4bh492rcd13ifvqdug","pricing_plan_id":"cebpf4jnsgd1na2vs0mg"},{"bike_id":"f2ec4c27-661d-4c12-b15f-7f127341201d","system_id":"levelo_inurba_marseille","lat":43.31995,"lon":5.38143,"is_reserved":false,"is_disabled":false,"rental_uris":{"android":"levelo://app?vid=f2ec4c27-661d-4c12-b15f-7f127341201d","ios":"levelo://app?vid=f2ec4c27-661d-4c12-b15f-7f127341201d"},"vehicle_type_id":"4","last_reported":1750194590,"current_range_meters":11600,"station_id":"ce4bhr12rcd13ifvqhpg","pricing_plan_id":"cebpf4jnsgd1na2vs0mg"},{"bike_id":"a10a1a3e-9972-432e-986f-95f8c28f23bb","system_id":"levelo_inurba_marseille","lat":43.30426,"lon":5.39755,"is_reserved":false,"is_disabled":false,"rental_uris":{"android":"levelo://app?vid=a10a1a3e-9972-432e-986f-95f8c28f23bb","ios":"levelo://app?vid=a10a1a3e-9972-432e-986f-95f8c28f23bb"},"vehicle_type_id":"4","last_reported":1750194590,"current_range_meters":12000,"station_id":"ce4bh092rcd13ifvqd20","pricing_plan_id":"cebpf4jnsgd1na2vs0mg"},{"bike_id":"83cfee7d-980d-496a-98c8-745c7e44c68d","system_id":"levelo_inurba_marseille","lat":43.32872,"lon":5.39092,"is_reserved":false,"is_disabled":false,"rental_uris":{"android":"levelo://app?vid=83cfee7d-980d-496a-98c8-745c7e44c68d","ios":"levelo://app?vid=83cfee7d-980d-496a-98c8-745c7e44c68d"},"vehicle_type_id":"4","last_reported":1750194590,"current_range_meters":12400,"station_id":"","pricing_plan_id":"cebpf4jnsgd1na2vs0mg"},{"bike_id":"d31c5734-5db3-43fd-8bc4-31fce50e2834","system_id":"levelo_inurba_marseille","lat":43.30893,"lon":5.39627,"is_reserved":false,"is_disabled":false,"rental_uris":{"android":"levelo://app?vid=d31c5734-5db3-43fd-8bc4-31fce50e2834","ios":"levelo://app?vid=d31c5734-5db3-43fd-8bc4-31fce50e2834"},"vehicle_type_id":"4","last_reported":1750194590,"current_range_meters":12400,"station_id":"ce4bh012rcd13ifvqcv0","pricing_plan_id":"cebpf4jnsgd1na2vs0mg"},{"bike_id":"fe11c1dc-a136-451d-af30-133d8b116bb6","system_id":"levelo_inurba_marseille","lat":43.290986,"lon":5.381216,"is_reserved":false,"is_disabled":false,"rental_uris":{"android":"levelo://app?vid=fe11c1dc-a136-451d-af30-133d8b116bb6","ios":"levelo://app?vid=fe11c1dc-a136-451d-af30-133d8b116bb6"},"vehicle_type_id":"4","last_reported":1750194590,"current_range_meters":12400,"station_id":"ce4bh512rcd13ifvqe2g","pricing_plan_id":"cebpf4jnsgd1na2vs0mg"},{"bike_id":"9a16dbc6-ebaf-4118-9922-ee05af967049","system_id":"levelo_inurba_marseille","lat":43.28479,"lon":5.35868,"is_reserved":false,"is_disabled":false,"rental_uris":{"android":"levelo://app?vid=9a16dbc6-ebaf-4118-9922-ee05af967049","ios":"levelo://app?vid=9a16dbc6-ebaf-4118-9922-ee05af967049"},"vehicle_type_id":"4","last_reported":1750194590,"current_range_meters":12800,"station_id":"ce4bhah2rcd13ifvqei0","pricing_plan_id":"cebpf4jnsgd1na2vs0mg"},{"bike_id":"91f78cd6-38a2-44e7-86aa-18811c270d91","system_id":"levelo_inurba_marseille","lat":43.24671,"lon":5.38157,"is_reserved":false,"is_disabled":false,"rental_uris":{"android":"levelo://app?vid=91f78cd6-38a2-44e7-86aa-18811c270d91","ios":"levelo://app?vid=91f78cd6-38a2-44e7-86aa-18811c270d91"},"vehicle_type_id":"4","last_reported":1750194590,"current_range_meters":12800,"station_id":"ce4bhih2rcd13ifvqfr0","pricing_plan_id":"cebpf4jnsgd1na2vs0mg"},{"bike_id":"2090556a-ebe6-4fcd-b60b-df67d7c8e4f7","system_id":"levelo_inurba_marseille","lat":43.29902,"lon":5.43645,"is_reserved":false,"is_disabled":false,"rental_uris":{"android":"levelo://app?vid=2090556a-ebe6-4fcd-b60b-df67d7c8e4f7","ios":"levelo://app?vid=2090556a-ebe6-4fcd-b60b-df67d7c8e4f7"},"vehicle_type_id":"4","last_reported":1750194590,"current_range_meters":12800,"station_id":"ce4bhpp2rcd13ifvqhfg","pricing_plan_id":"cebpf4jnsgd1na2vs0mg"},{"bike_id":"251f731b-5c47-48df-9683-25878d565ef9","system_id":"levelo_inurba_marseille","lat":43.30726,"lon":5.42451,"is_reserved":false,"is_disabled":false,"rental_uris":{"android":"levelo://app?vid=251f731b-5c47-48df-9683-25878d565ef9","ios":"levelo://app?vid=251f731b-5c47-48df-9683-25878d565ef9"},"vehicle_type_id":"4","last_reported":1750194590,"current_range_meters":12800,"station_id":"st_cvj6ca6bvosntc0bfgr0","pricing_plan_id":"cebpf4jnsgd1na2vs0mg"},{"bike_id":"4327974e-c6ba-4e7a-a1e1-f8f810caee5e","system_id":"levelo_inurba_marseille","lat":43.29518,"lon":5.39044,"is_reserved":false,"is_disabled":false,"rental_uris":{"android":"levelo://app?vid=4327974e-c6ba-4e7a-a1e1-f8f810caee5e","ios":"levelo://app?vid=4327974e-c6ba-4e7a-a1e1-f8f810caee5e"},"vehicle_type_id":"4","last_reported":1750194590,"current_range_meters":13600,"station_id":"ce4bh3p2rcd13ifvqdp0","pricing_plan_id":"cebpf4jnsgd1na2vs0mg"},{"bike_id":"b61059b2-1211-4187-8450-84f1756eb79d","system_id":"levelo_inurba_marseille","lat":43.29032,"lon":5.3864,"is_reserved":false,"is_disabled":false,"rental_uris":{"android":"levelo://app?vid=b61059b2-1211-4187-8450-84f1756eb79d","ios":"levelo://app?vid=b61059b2-1211-4187-8450-84f1756eb79d"},"vehicle_type_id":"4","last_reported":1750194590,"current_range_meters":13600,"station_id":"ce4bh4p2rcd13ifvqe0g","pricing_plan_id":"cebpf4jnsgd1na2vs0mg"},{"bike_id":"d2d7458f-7d5d-4d60-9246-df58cc95a9ec","system_id":"levelo_inurba_marseille","lat":43.24664,"lon":5.38167,"is_reserved":false,"is_disabled":false,"rental_uris":{"android":"levelo://app?vid=d2d7458f-7d5d-4d60-9246-df58cc95a9ec","ios":"levelo://app?vid=d2d7458f-7d5d-4d60-9246-df58cc95a9ec"},"vehicle_type_id":"4","last_reported":1750194590,"current_range_meters":13600,"station_id":"ce4bhih2rcd13ifvqfr0","pricing_plan_id":"cebpf4jnsgd1na2vs0mg"},{"bike_id":"3d71d4df-44d5-4a43-b95c-ebb9fbdb915f","system_id":"levelo_inurba_marseille","lat":43.27938,"lon":5.41028,"is_reserved":false,"is_disabled":false,"rental_uris":{"android":"levelo://app?vid=3d71d4df-44d5-4a43-b95c-ebb9fbdb915f","ios":"levelo://app?vid=3d71d4df-44d5-4a43-b95c-ebb9fbdb915f"},"vehicle_type_id":"4","last_reported":1750194590,"current_range_meters":13600,"station_id":"ce4bhnp2rcd13ifvqh0g","pricing_plan_id":"cebpf4jnsgd1na2vs0mg"},{"bike_id":"a04805ef-8639-4380-8696-9dc1bf53343c","system_id":"levelo_inurba_marseille","lat":43.29515,"lon":5.38585,"is_reserved":false,"is_disabled":false,"rental_uris":{"android":"levelo://app?vid=a04805ef-8639-4380-8696-9dc1bf53343c","ios":"levelo://app?vid=a04805ef-8639-4380-8696-9dc1bf53343c"},"vehicle_type_id":"4","last_reported":1750194590,"current_range_meters":14000,"station_id":"ce4bgih2rcd13ifvqba0","pricing_plan_id":"cebpf4jnsgd1na2vs0mg"},{"bike_id":"f771e14a-9ea0-4dc9-af21-0012c5f351b7","system_id":"levelo_inurba_marseille","lat":43.32656,"lon":5.40988,"is_reserved":false,"is_disabled":false,"rental_uris":{"android":"levelo://app?vid=f771e14a-9ea0-4dc9-af21-0012c5f351b7","ios":"levelo://app?vid=f771e14a-9ea0-4dc9-af21-0012c5f351b7"},"vehicle_type_id":"4","last_reported":1750194590,"current_range_meters":14000,"station_id":"ce4bhpp2rcd13ifvqhgg","pricing_plan_id":"cebpf4jnsgd1na2vs0mg"},{"bike_id":"6ce443fe-f0a6-4d52-a83b-12f763e33cdc","system_id":"levelo_inurba_marseille","lat":43.336064,"lon":5.410354,"is_reserved":false,"is_disabled":false,"rental_uris":{"android":"levelo://app?vid=6ce443fe-f0a6-4d52-a83b-12f763e33cdc","ios":"levelo://app?vid=6ce443fe-f0a6-4d52-a83b-12f763e33cdc"},"vehicle_type_id":"4","last_reported":1750194590,"current_range_meters":14000,"station_id":"ce4bhqh2rcd13ifvqhmg","pricing_plan_id":"cebpf4jnsgd1na2vs0mg"},{"bike_id":"ec791070-eafa-4c06-b970-7958cef6417d","system_id":"levelo_inurba_marseille","lat":43.23191,"lon":5.35562,"is_reserved":false,"is_disabled":false,"rental_uris":{"android":"levelo://app?vid=ec791070-eafa-4c06-b970-7958cef6417d","ios":"levelo://app?vid=ec791070-eafa-4c06-b970-7958cef6417d"},"vehicle_type_id":"4","last_reported":1750194590,"current_range_meters":14000,"station_id":"ce4bhu92rcd13ifvqi70","pricing_plan_id":"cebpf4jnsgd1na2vs0mg"},{"bike_id":"2696f42d-34f7-4c94-a7b4-c480656e1e0a","system_id":"levelo_inurba_marseille","lat":43.2293,"lon":5.35376,"is_reserved":false,"is_disabled":false,"rental_uris":{"android":"levelo://app?vid=2696f42d-34f7-4c94-a7b4-c480656e1e0a","ios":"levelo://app?vid=2696f42d-34f7-4c94-a7b4-c480656e1e0a"},"vehicle_type_id":"4","last_reported":1750194590,"current_range_meters":14000,"station_id":"cpo3532slgdg3j2ikp40","pricing_plan_id":"cebpf4jnsgd1na2vs0mg"},{"bike_id":"1197e330-995f-4f41-954b-3eea58f2a4c0","system_id":"levelo_inurba_marseille","lat":43.21181,"lon":5.35077,"is_reserved":false,"is_disabled":false,"rental_uris":{"android":"levelo://app?vid=1197e330-995f-4f41-954b-3eea58f2a4c0","ios":"levelo://app?vid=1197e330-995f-4f41-954b-3eea58f2a4c0"},"vehicle_type_id":"4","last_reported":1750194590,"current_range_meters":14000,"station_id":"st_cvj6sg6p6f1abm77japg","pricing_plan_id":"cebpf4jnsgd1na2vs0mg"},{"bike_id":"1b12c646-b63f-42ff-a05d-e7c67b627dea","system_id":"levelo_inurba_marseille","lat":43.29607,"lon":5.38074,"is_reserved":false,"is_disabled":false,"rental_uris":{"android":"levelo://app?vid=1b12c646-b63f-42ff-a05d-e7c67b627dea","ios":"levelo://app?vid=1b12c646-b63f-42ff-a05d-e7c67b627dea"},"vehicle_type_id":"4","last_reported":1750194590,"current_range_meters":14400,"station_id":"ce4bgl12rcd13ifvqbo0","pricing_plan_id":"cebpf4jnsgd1na2vs0mg"},{"bike_id":"be314294-c027-4750-8947-558ae8f14279","system_id":"levelo_inurba_marseille","lat":43.29259,"lon":5.40898,"is_reserved":false,"is_disabled":false,"rental_uris":{"android":"levelo://app?vid=be314294-c027-4750-8947-558ae8f14279","ios":"levelo://app?vid=be314294-c027-4750-8947-558ae8f14279"},"vehicle_type_id":"4","last_reported":1750194590,"current_range_meters":14400,"station_id":"ce4bh192rcd13ifvqdc0","pricing_plan_id":"cebpf4jnsgd1na2vs0mg"},{"bike_id":"081f8872-cfaf-4e08-a52c-be911a87a8ce","system_id":"levelo_inurba_marseille","lat":43.29272,"lon":5.40153,"is_reserved":false,"is_disabled":false,"rental_uris":{"android":"levelo://app?vid=081f8872-cfaf-4e08-a52c-be911a87a8ce","ios":"levelo://app?vid=081f8872-cfaf-4e08-a52c-be911a87a8ce"},"vehicle_type_id":"4","last_reported":1750194590,"current_range_meters":14400,"station_id":"ce4bh312rcd13ifvqdk0","pricing_plan_id":"cebpf4jnsgd1na2vs0mg"},{"bike_id":"de0f7c2b-5974-4035-a240-8ed367c0e3f3","system_id":"levelo_inurba_marseille","lat":43.31972,"lon":5.37614,"is_reserved":false,"is_disabled":false,"rental_uris":{"android":"levelo://app?vid=de0f7c2b-5974-4035-a240-8ed367c0e3f3","ios":"levelo://app?vid=de0f7c2b-5974-4035-a240-8ed367c0e3f3"},"vehicle_type_id":"4","last_reported":1750194590,"current_range_meters":14800,"station_id":"","pricing_plan_id":"cebpf4jnsgd1na2vs0mg"},{"bike_id":"e0a889cf-2327-4278-9b67-453fc8c6ae2a","system_id":"levelo_inurba_marseille","lat":43.302563,"lon":5.374232,"is_reserved":false,"is_disabled":false,"rental_uris":{"android":"levelo://app?vid=e0a889cf-2327-4278-9b67-453fc8c6ae2a","ios":"levelo://app?vid=e0a889cf-2327-4278-9b67-453fc8c6ae2a"},"vehicle_type_id":"4","last_reported":1750194590,"current_range_meters":15200,"station_id":"","pricing_plan_id":"cebpf4jnsgd1na2vs0mg"},{"bike_id":"c12bc5d5-510b-405a-8de5-015de6e573a8","system_id":"levelo_inurba_marseille","lat":43.29523,"lon":5.38545,"is_reserved":false,"is_disabled":false,"rental_uris":{"android":"levelo://app?vid=c12bc5d5-510b-405a-8de5-015de6e573a8","ios":"levelo://app?vid=c12bc5d5-510b-405a-8de5-015de6e573a8"},"vehicle_type_id":"4","last_reported":1750194590,"current_range_meters":15200,"station_id":"ce4bgih2rcd13ifvqba0","pricing_plan_id":"cebpf4jnsgd1na2vs0mg"},{"bike_id":"0a49a4ae-60d8-4597-98b0-b45576998bd9","system_id":"levelo_inurba_marseille","lat":43.31162,"lon":5.38728,"is_reserved":false,"is_disabled":false,"rental_uris":{"android":"levelo://app?vid=0a49a4ae-60d8-4597-98b0-b45576998bd9","ios":"levelo://app?vid=0a49a4ae-60d8-4597-98b0-b45576998bd9"},"vehicle_type_id":"4","last_reported":1750194590,"current_range_meters":15200,"station_id":"ce4bgv12rcd13ifvqcp0","pricing_plan_id":"cebpf4jnsgd1na2vs0mg"},{"bike_id":"971507ea-bc7d-4294-bc79-e0abbd8b507b","system_id":"levelo_inurba_marseille","lat":43.30424,"lon":5.39743,"is_reserved":false,"is_disabled":false,"rental_uris":{"android":"levelo://app?vid=971507ea-bc7d-4294-bc79-e0abbd8b507b","ios":"levelo://app?vid=971507ea-bc7d-4294-bc79-e0abbd8b507b"},"vehicle_type_id":"4","last_reported":1750194590,"current_range_meters":15200,"station_id":"ce4bh092rcd13ifvqd20","pricing_plan_id":"cebpf4jnsgd1na2vs0mg"},{"bike_id":"1fe8e362-37a6-4b0d-9a21-44fa77771e5f","system_id":"levelo_inurba_marseille","lat":43.2868,"lon":5.38654,"is_reserved":false,"is_disabled":false,"rental_uris":{"android":"levelo://app?vid=1fe8e362-37a6-4b0d-9a21-44fa77771e5f","ios":"levelo://app?vid=1fe8e362-37a6-4b0d-9a21-44fa77771e5f"},"vehicle_type_id":"4","last_reported":1750194590,"current_range_meters":15200,"station_id":"ce4bh492rcd13ifvqdug","pricing_plan_id":"cebpf4jnsgd1na2vs0mg"},{"bike_id":"2f0f7865-53e4-4955-8eb9-1bb98bf95595","system_id":"levelo_inurba_marseille","lat":43.31791,"lon":5.37588,"is_reserved":false,"is_disabled":false,"rental_uris":{"android":"levelo://app?vid=2f0f7865-53e4-4955-8eb9-1bb98bf95595","ios":"levelo://app?vid=2f0f7865-53e4-4955-8eb9-1bb98bf95595"},"vehicle_type_id":"4","last_reported":1750194590,"current_range_meters":16000,"station_id":"","pricing_plan_id":"cebpf4jnsgd1na2vs0mg"},{"bike_id":"3518210a-6d90-482f-a11b-11cb7c94acd1","system_id":"levelo_inurba_marseille","lat":43.26474,"lon":5.392013,"is_reserved":false,"is_disabled":false,"rental_uris":{"android":"levelo://app?vid=3518210a-6d90-482f-a11b-11cb7c94acd1","ios":"levelo://app?vid=3518210a-6d90-482f-a11b-11cb7c94acd1"},"vehicle_type_id":"4","last_reported":1750194590,"current_range_meters":16000,"station_id":"","pricing_plan_id":"cebpf4jnsgd1na2vs0mg"},{"bike_id":"dcaab11e-05ec-400a-a2d8-db7fc69d73e3","system_id":"levelo_inurba_marseille","lat":43.28565,"lon":5.39505,"is_reserved":false,"is_disabled":false,"rental_uris":{"android":"levelo://app?vid=dcaab11e-05ec-400a-a2d8-db7fc69d73e3","ios":"levelo://app?vid=dcaab11e-05ec-400a-a2d8-db7fc69d73e3"},"vehicle_type_id":"4","last_reported":1750194590,"current_range_meters":16000,"station_id":"ce4bh292rcd13ifvqdg0","pricing_plan_id":"cebpf4jnsgd1na2vs0mg"},{"bike_id":"ae330978-dce9-4aed-84b0-2da41c4b2b70","system_id":"levelo_inurba_marseille","lat":43.294146,"lon":5.386282,"is_reserved":false,"is_disabled":false,"rental_uris":{"android":"levelo://app?vid=ae330978-dce9-4aed-84b0-2da41c4b2b70","ios":"levelo://app?vid=ae330978-dce9-4aed-84b0-2da41c4b2b70"},"vehicle_type_id":"4","last_reported":1750194590,"current_range_meters":16000,"station_id":"ce4bh2h2rcd13ifvqdh0","pricing_plan_id":"cebpf4jnsgd1na2vs0mg"},{"bike_id":"f0f47d63-d452-44e1-b1f1-3e753404e545","system_id":"levelo_inurba_marseille","lat":43.28703,"lon":5.3741,"is_reserved":false,"is_disabled":false,"rental_uris":{"android":"levelo://app?vid=f0f47d63-d452-44e1-b1f1-3e753404e545","ios":"levelo://app?vid=f0f47d63-d452-44e1-b1f1-3e753404e545"},"vehicle_type_id":"4","last_reported":1750194590,"current_range_meters":16000,"station_id":"ce4bh3p2rcd13ifvqdq0","pricing_plan_id":"cebpf4jnsgd1na2vs0mg"},{"bike_id":"cd636b84-fad8-4d21-b088-9638bd444090","system_id":"levelo_inurba_marseille","lat":43.28462,"lon":5.358893,"is_reserved":false,"is_disabled":false,"rental_uris":{"android":"levelo://app?vid=cd636b84-fad8-4d21-b088-9638bd444090","ios":"levelo://app?vid=cd636b84-fad8-4d21-b088-9638bd444090"},"vehicle_type_id":"4","last_reported":1750194590,"current_range_meters":16000,"station_id":"ce4bhah2rcd13ifvqei0","pricing_plan_id":"cebpf4jnsgd1na2vs0mg"},{"bike_id":"f732a0f9-c817-464a-9c5f-afbe2a9ba616","system_id":"levelo_inurba_marseille","lat":43.28457,"lon":5.358788,"is_reserved":false,"is_disabled":false,"rental_uris":{"android":"levelo://app?vid=f732a0f9-c817-464a-9c5f-afbe2a9ba616","ios":"levelo://app?vid=f732a0f9-c817-464a-9c5f-afbe2a9ba616"},"vehicle_type_id":"4","last_reported":1750194590,"current_range_meters":16000,"station_id":"ce4bhah2rcd13ifvqei0","pricing_plan_id":"cebpf4jnsgd1na2vs0mg"},{"bike_id":"c0c76d8c-289f-4f03-aced-dfb867450877","system_id":"levelo_inurba_marseille","lat":43.32003,"lon":5.38139,"is_reserved":false,"is_disabled":false,"rental_uris":{"android":"levelo://app?vid=c0c76d8c-289f-4f03-aced-dfb867450877","ios":"levelo://app?vid=c0c76d8c-289f-4f03-aced-dfb867450877"},"vehicle_type_id":"4","last_reported":1750194590,"current_range_meters":16000,"station_id":"ce4bhr12rcd13ifvqhpg","pricing_plan_id":"cebpf4jnsgd1na2vs0mg"},{"bike_id":"f7fa858e-b7ee-404f-8191-6184cc003e2b","system_id":"levelo_inurba_marseille","lat":43.23191,"lon":5.35543,"is_reserved":false,"is_disabled":false,"rental_uris":{"android":"levelo://app?vid=f7fa858e-b7ee-404f-8191-6184cc003e2b","ios":"levelo://app?vid=f7fa858e-b7ee-404f-8191-6184cc003e2b"},"vehicle_type_id":"4","last_reported":1750194590,"current_range_meters":16000,"station_id":"ce4bhu92rcd13ifvqi70","pricing_plan_id":"cebpf4jnsgd1na2vs0mg"},{"bike_id":"de0bda34-41a6-4231-8ed4-c93e07fc3176","system_id":"levelo_inurba_marseille","lat":43.32627,"lon":5.37491,"is_reserved":false,"is_disabled":false,"rental_uris":{"android":"levelo://app?vid=de0bda34-41a6-4231-8ed4-c93e07fc3176","ios":"levelo://app?vid=de0bda34-41a6-4231-8ed4-c93e07fc3176"},"vehicle_type_id":"4","last_reported":1750194590,"current_range_meters":16400,"station_id":"","pricing_plan_id":"cebpf4jnsgd1na2vs0mg"},{"bike_id":"428501cd-9397-464e-a923-67e392c36780","system_id":"levelo_inurba_marseille","lat":43.29921,"lon":5.37471,"is_reserved":false,"is_disabled":false,"rental_uris":{"android":"levelo://app?vid=428501cd-9397-464e-a923-67e392c36780","ios":"levelo://app?vid=428501cd-9397-464e-a923-67e392c36780"},"vehicle_type_id":"4","last_reported":1750194590,"current_range_meters":16400,"station_id":"ce4bgjh2rcd13ifvqbg0","pricing_plan_id":"cebpf4jnsgd1na2vs0mg"},{"bike_id":"a44a3524-f1dc-4af3-9a66-e4b6fe15df56","system_id":"levelo_inurba_marseille","lat":43.307805,"lon":5.395944,"is_reserved":false,"is_disabled":false,"rental_uris":{"android":"levelo://app?vid=a44a3524-f1dc-4af3-9a66-e4b6fe15df56","ios":"levelo://app?vid=a44a3524-f1dc-4af3-9a66-e4b6fe15df56"},"vehicle_type_id":"4","last_reported":1750194590,"current_range_meters":16400,"station_id":"ce4bh012rcd13ifvqcv0","pricing_plan_id":"cebpf4jnsgd1na2vs0mg"},{"bike_id":"883428ec-4af5-48ce-ab3d-8eb0a15f7bbd","system_id":"levelo_inurba_marseille","lat":43.29614,"lon":5.40588,"is_reserved":false,"is_disabled":false,"rental_uris":{"android":"levelo://app?vid=883428ec-4af5-48ce-ab3d-8eb0a15f7bbd","ios":"levelo://app?vid=883428ec-4af5-48ce-ab3d-8eb0a15f7bbd"},"vehicle_type_id":"4","last_reported":1750194590,"current_range_meters":16400,"station_id":"ce4bh0h2rcd13ifvqd60","pricing_plan_id":"cebpf4jnsgd1na2vs0mg"},{"bike_id":"1e3b7fbb-83bd-417f-a36f-f0d184150527","system_id":"levelo_inurba_marseille","lat":43.2903,"lon":5.39967,"is_reserved":false,"is_disabled":false,"rental_uris":{"android":"levelo://app?vid=1e3b7fbb-83bd-417f-a36f-f0d184150527","ios":"levelo://app?vid=1e3b7fbb-83bd-417f-a36f-f0d184150527"},"vehicle_type_id":"4","last_reported":1750194590,"current_range_meters":16400,"station_id":"ce4bh392rcd13ifvqdm0","pricing_plan_id":"cebpf4jnsgd1na2vs0mg"},{"bike_id":"f956b748-9002-473c-b052-ebc205f1d18d","system_id":"levelo_inurba_marseille","lat":43.28459,"lon":5.35876,"is_reserved":false,"is_disabled":false,"rental_uris":{"android":"levelo://app?vid=f956b748-9002-473c-b052-ebc205f1d18d","ios":"levelo://app?vid=f956b748-9002-473c-b052-ebc205f1d18d"},"vehicle_type_id":"4","last_reported":1750194590,"current_range_meters":16400,"station_id":"ce4bhah2rcd13ifvqei0","pricing_plan_id":"cebpf4jnsgd1na2vs0mg"},{"bike_id":"e2fff575-6455-49f0-9775-ae65d4dbf462","system_id":"levelo_inurba_marseille","lat":43.27567,"lon":5.38415,"is_reserved":false,"is_disabled":false,"rental_uris":{"android":"levelo://app?vid=e2fff575-6455-49f0-9775-ae65d4dbf462","ios":"levelo://app?vid=e2fff575-6455-49f0-9775-ae65d4dbf462"},"vehicle_type_id":"4","last_reported":1750194590,"current_range_meters":16400,"station_id":"ce4bhh92rcd13ifvqfi0","pricing_plan_id":"cebpf4jnsgd1na2vs0mg"},{"bike_id":"de85957c-1697-483e-9983-5209c5f0d764","system_id":"levelo_inurba_marseille","lat":43.23176,"lon":5.39988,"is_reserved":false,"is_disabled":false,"rental_uris":{"android":"levelo://app?vid=de85957c-1697-483e-9983-5209c5f0d764","ios":"levelo://app?vid=de85957c-1697-483e-9983-5209c5f0d764"},"vehicle_type_id":"4","last_reported":1750194590,"current_range_meters":16400,"station_id":"ce4bhn12rcd13ifvqgqg","pricing_plan_id":"cebpf4jnsgd1na2vs0mg"},{"bike_id":"4b8da722-ee9e-48a4-a5e5-3a8a10364708","system_id":"levelo_inurba_marseille","lat":43.31226,"lon":5.378091,"is_reserved":false,"is_disabled":false,"rental_uris":{"android":"levelo://app?vid=4b8da722-ee9e-48a4-a5e5-3a8a10364708","ios":"levelo://app?vid=4b8da722-ee9e-48a4-a5e5-3a8a10364708"},"vehicle_type_id":"4","last_reported":1750194590,"current_range_meters":16800,"station_id":"","pricing_plan_id":"cebpf4jnsgd1na2vs0mg"},{"bike_id":"4ce5b165-f22d-40cf-abd3-1cb294861955","system_id":"levelo_inurba_marseille","lat":43.21175,"lon":5.35081,"is_reserved":false,"is_disabled":false,"rental_uris":{"android":"levelo://app?vid=4ce5b165-f22d-40cf-abd3-1cb294861955","ios":"levelo://app?vid=4ce5b165-f22d-40cf-abd3-1cb294861955"},"vehicle_type_id":"4","last_reported":1750194590,"current_range_meters":16800,"station_id":"","pricing_plan_id":"cebpf4jnsgd1na2vs0mg"},{"bike_id":"bc0f80bb-70db-427a-8e9e-2e2a7c72e6d2","system_id":"levelo_inurba_marseille","lat":43.30614,"lon":5.37211,"is_reserved":false,"is_disabled":false,"rental_uris":{"android":"levelo://app?vid=bc0f80bb-70db-427a-8e9e-2e2a7c72e6d2","ios":"levelo://app?vid=bc0f80bb-70db-427a-8e9e-2e2a7c72e6d2"},"vehicle_type_id":"4","last_reported":1750194590,"current_range_meters":16800,"station_id":"ce4bgqh2rcd13ifvqc4g","pricing_plan_id":"cebpf4jnsgd1na2vs0mg"},{"bike_id":"6bbbc1ec-81ca-4516-a79f-791d22619392","system_id":"levelo_inurba_marseille","lat":43.314913,"lon":5.3731,"is_reserved":false,"is_disabled":false,"rental_uris":{"android":"levelo://app?vid=6bbbc1ec-81ca-4516-a79f-791d22619392","ios":"levelo://app?vid=6bbbc1ec-81ca-4516-a79f-791d22619392"},"vehicle_type_id":"4","last_reported":1750194590,"current_range_meters":16800,"station_id":"ce4bgt12rcd13ifvqcd0","pricing_plan_id":"cebpf4jnsgd1na2vs0mg"},{"bike_id":"5cbdd979-131e-4b0a-a5c9-96ef156802c9","system_id":"levelo_inurba_marseille","lat":43.284266,"lon":5.392127,"is_reserved":false,"is_disabled":false,"rental_uris":{"android":"levelo://app?vid=5cbdd979-131e-4b0a-a5c9-96ef156802c9","ios":"levelo://app?vid=5cbdd979-131e-4b0a-a5c9-96ef156802c9"},"vehicle_type_id":"4","last_reported":1750194590,"current_range_meters":16800,"station_id":"ce4bhoh2rcd13ifvqh5g","pricing_plan_id":"cebpf4jnsgd1na2vs0mg"},{"bike_id":"3a47c52e-32f1-41e5-85dc-d8e2c6b52c1a","system_id":"levelo_inurba_marseille","lat":43.30798,"lon":5.43511,"is_reserved":false,"is_disabled":false,"rental_uris":{"android":"levelo://app?vid=3a47c52e-32f1-41e5-85dc-d8e2c6b52c1a","ios":"levelo://app?vid=3a47c52e-32f1-41e5-85dc-d8e2c6b52c1a"},"vehicle_type_id":"4","last_reported":1750194590,"current_range_meters":16800,"station_id":"ce4bhph2rcd13ifvqheg","pricing_plan_id":"cebpf4jnsgd1na2vs0mg"},{"bike_id":"cc8086c3-023b-4662-b7ba-91199240f1a1","system_id":"levelo_inurba_marseille","lat":43.23055,"lon":5.35492,"is_reserved":false,"is_disabled":false,"rental_uris":{"android":"levelo://app?vid=cc8086c3-023b-4662-b7ba-91199240f1a1","ios":"levelo://app?vid=cc8086c3-023b-4662-b7ba-91199240f1a1"},"vehicle_type_id":"4","last_reported":1750194590,"current_range_meters":16800,"station_id":"cpo3342slgdg3j2ifvpg","pricing_plan_id":"cebpf4jnsgd1na2vs0mg"},{"bike_id":"4cda9327-46c6-426e-87dd-c291d5dc5ff7","system_id":"levelo_inurba_marseille","lat":43.21193,"lon":5.35063,"is_reserved":false,"is_disabled":false,"rental_uris":{"android":"levelo://app?vid=4cda9327-46c6-426e-87dd-c291d5dc5ff7","ios":"levelo://app?vid=4cda9327-46c6-426e-87dd-c291d5dc5ff7"},"vehicle_type_id":"4","last_reported":1750194590,"current_range_meters":16800,"station_id":"st_cvj6sg6p6f1abm77japg","pricing_plan_id":"cebpf4jnsgd1na2vs0mg"},{"bike_id":"653a05d9-205d-420f-b0c9-a638667f0917","system_id":"levelo_inurba_marseille","lat":43.21217,"lon":5.35105,"is_reserved":false,"is_disabled":false,"rental_uris":{"android":"levelo://app?vid=653a05d9-205d-420f-b0c9-a638667f0917","ios":"levelo://app?vid=653a05d9-205d-420f-b0c9-a638667f0917"},"vehicle_type_id":"4","last_reported":1750194590,"current_range_meters":16800,"station_id":"st_cvj6sg6p6f1abm77japg","pricing_plan_id":"cebpf4jnsgd1na2vs0mg"},{"bike_id":"a5a79088-044c-48cb-8217-fed9ec438992","system_id":"levelo_inurba_marseille","lat":43.302124,"lon":5.394785,"is_reserved":false,"is_disabled":false,"rental_uris":{"android":"levelo://app?vid=a5a79088-044c-48cb-8217-fed9ec438992","ios":"levelo://app?vid=a5a79088-044c-48cb-8217-fed9ec438992"},"vehicle_type_id":"4","last_reported":1750194590,"current_range_meters":17200,"station_id":"ce4bh0p2rcd13ifvqd70","pricing_plan_id":"cebpf4jnsgd1na2vs0mg"},{"bike_id":"faade479-00cd-43d7-afa5-1c4de86411bd","system_id":"levelo_inurba_marseille","lat":43.31723,"lon":5.423936,"is_reserved":false,"is_disabled":false,"rental_uris":{"android":"levelo://app?vid=faade479-00cd-43d7-afa5-1c4de86411bd","ios":"levelo://app?vid=faade479-00cd-43d7-afa5-1c4de86411bd"},"vehicle_type_id":"4","last_reported":1750194590,"current_range_meters":17200,"station_id":"ce4bhp92rcd13ifvqhbg","pricing_plan_id":"cebpf4jnsgd1na2vs0mg"},{"bike_id":"a08141f4-416b-4ca0-a6a8-ed9f076201e0","system_id":"levelo_inurba_marseille","lat":43.2807,"lon":5.39599,"is_reserved":false,"is_disabled":false,"rental_uris":{"android":"levelo://app?vid=a08141f4-416b-4ca0-a6a8-ed9f076201e0","ios":"levelo://app?vid=a08141f4-416b-4ca0-a6a8-ed9f076201e0"},"vehicle_type_id":"4","last_reported":1750194590,"current_range_meters":17600,"station_id":"","pricing_plan_id":"cebpf4jnsgd1na2vs0mg"},{"bike_id":"55ae95b9-8c12-4064-a3c7-8091a91caa3f","system_id":"levelo_inurba_marseille","lat":43.28362,"lon":5.39653,"is_reserved":false,"is_disabled":false,"rental_uris":{"android":"levelo://app?vid=55ae95b9-8c12-4064-a3c7-8091a91caa3f","ios":"levelo://app?vid=55ae95b9-8c12-4064-a3c7-8091a91caa3f"},"vehicle_type_id":"4","last_reported":1750194590,"current_range_meters":17600,"station_id":"","pricing_plan_id":"cebpf4jnsgd1na2vs0mg"},{"bike_id":"13c879f5-ff64-470c-ad46-d538b4c24ade","system_id":"levelo_inurba_marseille","lat":43.311087,"lon":5.377668,"is_reserved":false,"is_disabled":false,"rental_uris":{"android":"levelo://app?vid=13c879f5-ff64-470c-ad46-d538b4c24ade","ios":"levelo://app?vid=13c879f5-ff64-470c-ad46-d538b4c24ade"},"vehicle_type_id":"4","last_reported":1750194590,"current_range_meters":17600,"station_id":"ce4bgt92rcd13ifvqcg0","pricing_plan_id":"cebpf4jnsgd1na2vs0mg"},{"bike_id":"48151c28-6d9d-4f4e-9732-92e058fe246c","system_id":"levelo_inurba_marseille","lat":43.29446,"lon":5.3975,"is_reserved":false,"is_disabled":false,"rental_uris":{"android":"levelo://app?vid=48151c28-6d9d-4f4e-9732-92e058fe246c","ios":"levelo://app?vid=48151c28-6d9d-4f4e-9732-92e058fe246c"},"vehicle_type_id":"4","last_reported":1750194590,"current_range_meters":17600,"station_id":"ce4bh3h2rcd13ifvqdo0","pricing_plan_id":"cebpf4jnsgd1na2vs0mg"},{"bike_id":"6385d0af-1be7-48b0-82b8-4ff0b6b09d3c","system_id":"levelo_inurba_marseille","lat":43.270469,"lon":5.382107,"is_reserved":false,"is_disabled":false,"rental_uris":{"android":"levelo://app?vid=6385d0af-1be7-48b0-82b8-4ff0b6b09d3c","ios":"levelo://app?vid=6385d0af-1be7-48b0-82b8-4ff0b6b09d3c"},"vehicle_type_id":"4","last_reported":1750194590,"current_range_meters":17600,"station_id":"ce4bhg92rcd13ifvqf90","pricing_plan_id":"cebpf4jnsgd1na2vs0mg"},{"bike_id":"558d7a83-fc5d-42ed-9050-5b2a22741628","system_id":"levelo_inurba_marseille","lat":43.25109,"lon":5.40319,"is_reserved":false,"is_disabled":false,"rental_uris":{"android":"levelo://app?vid=558d7a83-fc5d-42ed-9050-5b2a22741628","ios":"levelo://app?vid=558d7a83-fc5d-42ed-9050-5b2a22741628"},"vehicle_type_id":"4","last_reported":1750194590,"current_range_meters":17600,"station_id":"ce4bhlh2rcd13ifvqgig","pricing_plan_id":"cebpf4jnsgd1na2vs0mg"},{"bike_id":"69391ca7-3f01-4e51-a628-257cf9ff7306","system_id":"levelo_inurba_marseille","lat":43.33781,"lon":5.37451,"is_reserved":false,"is_disabled":false,"rental_uris":{"android":"levelo://app?vid=69391ca7-3f01-4e51-a628-257cf9ff7306","ios":"levelo://app?vid=69391ca7-3f01-4e51-a628-257cf9ff7306"},"vehicle_type_id":"4","last_reported":1750194590,"current_range_meters":18000,"station_id":"","pricing_plan_id":"cebpf4jnsgd1na2vs0mg"},{"bike_id":"268aafb4-1331-426c-97bc-a7d6564caeb6","system_id":"levelo_inurba_marseille","lat":43.32933,"lon":5.37941,"is_reserved":false,"is_disabled":false,"rental_uris":{"android":"levelo://app?vid=268aafb4-1331-426c-97bc-a7d6564caeb6","ios":"levelo://app?vid=268aafb4-1331-426c-97bc-a7d6564caeb6"},"vehicle_type_id":"4","last_reported":1750194590,"current_range_meters":18000,"station_id":"","pricing_plan_id":"cebpf4jnsgd1na2vs0mg"},{"bike_id":"e92bd4cd-e5c6-40c9-80e9-52bc96a037f0","system_id":"levelo_inurba_marseille","lat":43.25486,"lon":5.41727,"is_reserved":false,"is_disabled":false,"rental_uris":{"android":"levelo://app?vid=e92bd4cd-e5c6-40c9-80e9-52bc96a037f0","ios":"levelo://app?vid=e92bd4cd-e5c6-40c9-80e9-52bc96a037f0"},"vehicle_type_id":"4","last_reported":1750194590,"current_range_meters":18000,"station_id":"","pricing_plan_id":"cebpf4jnsgd1na2vs0mg"},{"bike_id":"3151b431-ae3a-411c-8189-09c45ab38d79","system_id":"levelo_inurba_marseille","lat":43.30867,"lon":5.37192,"is_reserved":false,"is_disabled":false,"rental_uris":{"android":"levelo://app?vid=3151b431-ae3a-411c-8189-09c45ab38d79","ios":"levelo://app?vid=3151b431-ae3a-411c-8189-09c45ab38d79"},"vehicle_type_id":"4","last_reported":1750194590,"current_range_meters":18000,"station_id":"ce4bguh2rcd13ifvqckg","pricing_plan_id":"cebpf4jnsgd1na2vs0mg"},{"bike_id":"cd4cdb77-7950-43b8-9017-a4a2b1aa8ca4","system_id":"levelo_inurba_marseille","lat":43.29414,"lon":5.38629,"is_reserved":false,"is_disabled":false,"rental_uris":{"android":"levelo://app?vid=cd4cdb77-7950-43b8-9017-a4a2b1aa8ca4","ios":"levelo://app?vid=cd4cdb77-7950-43b8-9017-a4a2b1aa8ca4"},"vehicle_type_id":"4","last_reported":1750194590,"current_range_meters":18000,"station_id":"ce4bh2h2rcd13ifvqdh0","pricing_plan_id":"cebpf4jnsgd1na2vs0mg"},{"bike_id":"47707426-b460-46b3-8343-5b718b62504e","system_id":"levelo_inurba_marseille","lat":43.2927,"lon":5.38435,"is_reserved":false,"is_disabled":false,"rental_uris":{"android":"levelo://app?vid=47707426-b460-46b3-8343-5b718b62504e","ios":"levelo://app?vid=47707426-b460-46b3-8343-5b718b62504e"},"vehicle_type_id":"4","last_reported":1750194590,"current_range_meters":18000,"station_id":"ce4bh692rcd13ifvqea0","pricing_plan_id":"cebpf4jnsgd1na2vs0mg"},{"bike_id":"2d059e04-6ea7-4929-8c98-ee846d8a472a","system_id":"levelo_inurba_marseille","lat":43.28725,"lon":5.39976,"is_reserved":false,"is_disabled":false,"rental_uris":{"android":"levelo://app?vid=2d059e04-6ea7-4929-8c98-ee846d8a472a","ios":"levelo://app?vid=2d059e04-6ea7-4929-8c98-ee846d8a472a"},"vehicle_type_id":"4","last_reported":1750194590,"current_range_meters":18000,"station_id":"ce4bho92rcd13ifvqh3g","pricing_plan_id":"cebpf4jnsgd1na2vs0mg"},{"bike_id":"0b3b3f67-02be-45bc-b1e0-aea3d52ca341","system_id":"levelo_inurba_marseille","lat":43.3229,"lon":5.38261,"is_reserved":false,"is_disabled":false,"rental_uris":{"android":"levelo://app?vid=0b3b3f67-02be-45bc-b1e0-aea3d52ca341","ios":"levelo://app?vid=0b3b3f67-02be-45bc-b1e0-aea3d52ca341"},"vehicle_type_id":"4","last_reported":1750194590,"current_range_meters":18000,"station_id":"ce4bhr12rcd13ifvqhqg","pricing_plan_id":"cebpf4jnsgd1na2vs0mg"},{"bike_id":"e921cee3-b8ce-4c00-b7eb-8ab335b5e125","system_id":"levelo_inurba_marseille","lat":43.30196,"lon":5.42271,"is_reserved":false,"is_disabled":false,"rental_uris":{"android":"levelo://app?vid=e921cee3-b8ce-4c00-b7eb-8ab335b5e125","ios":"levelo://app?vid=e921cee3-b8ce-4c00-b7eb-8ab335b5e125"},"vehicle_type_id":"4","last_reported":1750194590,"current_range_meters":18800,"station_id":"","pricing_plan_id":"cebpf4jnsgd1na2vs0mg"},{"bike_id":"13a2aa04-5c4c-4d9e-94f4-7ba93089a9ed","system_id":"levelo_inurba_marseille","lat":43.279973,"lon":5.416717,"is_reserved":false,"is_disabled":false,"rental_uris":{"android":"levelo://app?vid=13a2aa04-5c4c-4d9e-94f4-7ba93089a9ed","ios":"levelo://app?vid=13a2aa04-5c4c-4d9e-94f4-7ba93089a9ed"},"vehicle_type_id":"4","last_reported":1750194590,"current_range_meters":18800,"station_id":"","pricing_plan_id":"cebpf4jnsgd1na2vs0mg"},{"bike_id":"3a79c9a9-99b3-4d00-8dcc-f494ffeec57e","system_id":"levelo_inurba_marseille","lat":43.31048,"lon":5.40068,"is_reserved":false,"is_disabled":false,"rental_uris":{"android":"levelo://app?vid=3a79c9a9-99b3-4d00-8dcc-f494ffeec57e","ios":"levelo://app?vid=3a79c9a9-99b3-4d00-8dcc-f494ffeec57e"},"vehicle_type_id":"4","last_reported":1750194590,"current_range_meters":18800,"station_id":"","pricing_plan_id":"cebpf4jnsgd1na2vs0mg"},{"bike_id":"82dee435-d01c-47a7-91d2-7c3e11af14cc","system_id":"levelo_inurba_marseille","lat":43.28105,"lon":5.37837,"is_reserved":false,"is_disabled":false,"rental_uris":{"android":"levelo://app?vid=82dee435-d01c-47a7-91d2-7c3e11af14cc","ios":"levelo://app?vid=82dee435-d01c-47a7-91d2-7c3e11af14cc"},"vehicle_type_id":"4","last_reported":1750194590,"current_range_meters":18800,"station_id":"ce4bha12rcd13ifvqee0","pricing_plan_id":"cebpf4jnsgd1na2vs0mg"},{"bike_id":"3faa1df7-77d0-45a7-af6e-06ad4b8865aa","system_id":"levelo_inurba_marseille","lat":43.25009,"lon":5.38922,"is_reserved":false,"is_disabled":false,"rental_uris":{"android":"levelo://app?vid=3faa1df7-77d0-45a7-af6e-06ad4b8865aa","ios":"levelo://app?vid=3faa1df7-77d0-45a7-af6e-06ad4b8865aa"},"vehicle_type_id":"4","last_reported":1750194590,"current_range_meters":18800,"station_id":"ce4bhgp2rcd13ifvqfd0","pricing_plan_id":"cebpf4jnsgd1na2vs0mg"},{"bike_id":"f8740bf3-e12e-4390-b043-792cf065f599","system_id":"levelo_inurba_marseille","lat":43.32539,"lon":5.41426,"is_reserved":false,"is_disabled":false,"rental_uris":{"android":"levelo://app?vid=f8740bf3-e12e-4390-b043-792cf065f599","ios":"levelo://app?vid=f8740bf3-e12e-4390-b043-792cf065f599"},"vehicle_type_id":"4","last_reported":1750194590,"current_range_meters":18800,"station_id":"ce4bhq12rcd13ifvqhhg","pricing_plan_id":"cebpf4jnsgd1na2vs0mg"},{"bike_id":"bfd66d41-fcdc-437b-9fb3-0322435e8918","system_id":"levelo_inurba_marseille","lat":43.33719,"lon":5.39185,"is_reserved":false,"is_disabled":false,"rental_uris":{"android":"levelo://app?vid=bfd66d41-fcdc-437b-9fb3-0322435e8918","ios":"levelo://app?vid=bfd66d41-fcdc-437b-9fb3-0322435e8918"},"vehicle_type_id":"4","last_reported":1750194590,"current_range_meters":18800,"station_id":"ce4bhr92rcd13ifvqhsg","pricing_plan_id":"cebpf4jnsgd1na2vs0mg"},{"bike_id":"65fe0c2e-fcc6-45c4-a172-8e2e81da84f7","system_id":"levelo_inurba_marseille","lat":43.33073,"lon":5.38072,"is_reserved":false,"is_disabled":false,"rental_uris":{"android":"levelo://app?vid=65fe0c2e-fcc6-45c4-a172-8e2e81da84f7","ios":"levelo://app?vid=65fe0c2e-fcc6-45c4-a172-8e2e81da84f7"},"vehicle_type_id":"4","last_reported":1750194590,"current_range_meters":19200,"station_id":"","pricing_plan_id":"cebpf4jnsgd1na2vs0mg"},{"bike_id":"8a369bfc-f632-4bda-8f63-cd6253b8f515","system_id":"levelo_inurba_marseille","lat":43.3127,"lon":5.40165,"is_reserved":false,"is_disabled":false,"rental_uris":{"android":"levelo://app?vid=8a369bfc-f632-4bda-8f63-cd6253b8f515","ios":"levelo://app?vid=8a369bfc-f632-4bda-8f63-cd6253b8f515"},"vehicle_type_id":"4","last_reported":1750194590,"current_range_meters":19200,"station_id":"ce4bh092rcd13ifvqd30","pricing_plan_id":"cebpf4jnsgd1na2vs0mg"},{"bike_id":"988b7ba5-92cd-4432-8465-d349dea1fdfa","system_id":"levelo_inurba_marseille","lat":43.26928,"lon":5.38916,"is_reserved":false,"is_disabled":false,"rental_uris":{"android":"levelo://app?vid=988b7ba5-92cd-4432-8465-d349dea1fdfa","ios":"levelo://app?vid=988b7ba5-92cd-4432-8465-d349dea1fdfa"},"vehicle_type_id":"4","last_reported":1750194590,"current_range_meters":19200,"station_id":"ce4bhhh2rcd13ifvqfl0","pricing_plan_id":"cebpf4jnsgd1na2vs0mg"},{"bike_id":"a3a65e20-72e8-4350-95e4-10108de6fbdb","system_id":"levelo_inurba_marseille","lat":43.25108,"lon":5.40322,"is_reserved":false,"is_disabled":false,"rental_uris":{"android":"levelo://app?vid=a3a65e20-72e8-4350-95e4-10108de6fbdb","ios":"levelo://app?vid=a3a65e20-72e8-4350-95e4-10108de6fbdb"},"vehicle_type_id":"4","last_reported":1750194590,"current_range_meters":19200,"station_id":"ce4bhlh2rcd13ifvqgig","pricing_plan_id":"cebpf4jnsgd1na2vs0mg"},{"bike_id":"67182dff-e855-49cd-80e3-2d4cc1bd98c0","system_id":"levelo_inurba_marseille","lat":43.28442,"lon":5.39201,"is_reserved":false,"is_disabled":false,"rental_uris":{"android":"levelo://app?vid=67182dff-e855-49cd-80e3-2d4cc1bd98c0","ios":"levelo://app?vid=67182dff-e855-49cd-80e3-2d4cc1bd98c0"},"vehicle_type_id":"4","last_reported":1750194590,"current_range_meters":19200,"station_id":"ce4bhoh2rcd13ifvqh5g","pricing_plan_id":"cebpf4jnsgd1na2vs0mg"},{"bike_id":"24f5b4c6-96a2-457b-a2e9-e92dd5b3e8de","system_id":"levelo_inurba_marseille","lat":43.3247,"lon":5.36557,"is_reserved":false,"is_disabled":false,"rental_uris":{"android":"levelo://app?vid=24f5b4c6-96a2-457b-a2e9-e92dd5b3e8de","ios":"levelo://app?vid=24f5b4c6-96a2-457b-a2e9-e92dd5b3e8de"},"vehicle_type_id":"4","last_reported":1750194590,"current_range_meters":19200,"station_id":"ce4bhs12rcd13ifvqhvg","pricing_plan_id":"cebpf4jnsgd1na2vs0mg"},{"bike_id":"3fb32369-1f25-46d2-9052-c30b5af8c776","system_id":"levelo_inurba_marseille","lat":43.2294,"lon":5.35369,"is_reserved":false,"is_disabled":false,"rental_uris":{"android":"levelo://app?vid=3fb32369-1f25-46d2-9052-c30b5af8c776","ios":"levelo://app?vid=3fb32369-1f25-46d2-9052-c30b5af8c776"},"vehicle_type_id":"4","last_reported":1750194590,"current_range_meters":19200,"station_id":"cpo3532slgdg3j2ikp40","pricing_plan_id":"cebpf4jnsgd1na2vs0mg"},{"bike_id":"4b6b2a2b-d3c4-4663-8ea1-de4eff39b7b2","system_id":"levelo_inurba_marseille","lat":43.212127,"lon":5.350601,"is_reserved":false,"is_disabled":false,"rental_uris":{"android":"levelo://app?vid=4b6b2a2b-d3c4-4663-8ea1-de4eff39b7b2","ios":"levelo://app?vid=4b6b2a2b-d3c4-4663-8ea1-de4eff39b7b2"},"vehicle_type_id":"4","last_reported":1750194590,"current_range_meters":19200,"station_id":"st_cvj6sg6p6f1abm77japg","pricing_plan_id":"cebpf4jnsgd1na2vs0mg"},{"bike_id":"54cebbad-17db-4f40-8141-8eedac83be3f","system_id":"levelo_inurba_marseille","lat":43.3376,"lon":5.37414,"is_reserved":false,"is_disabled":false,"rental_uris":{"android":"levelo://app?vid=54cebbad-17db-4f40-8141-8eedac83be3f","ios":"levelo://app?vid=54cebbad-17db-4f40-8141-8eedac83be3f"},"vehicle_type_id":"4","last_reported":1750194590,"current_range_meters":19600,"station_id":"","pricing_plan_id":"cebpf4jnsgd1na2vs0mg"},{"bike_id":"8863d02a-d108-4265-8509-dc36e3fb2967","system_id":"levelo_inurba_marseille","lat":43.30309,"lon":5.39211,"is_reserved":false,"is_disabled":false,"rental_uris":{"android":"levelo://app?vid=8863d02a-d108-4265-8509-dc36e3fb2967","ios":"levelo://app?vid=8863d02a-d108-4265-8509-dc36e3fb2967"},"vehicle_type_id":"4","last_reported":1750194590,"current_range_meters":19600,"station_id":"ce4bgkh2rcd13ifvqbk0","pricing_plan_id":"cebpf4jnsgd1na2vs0mg"},{"bike_id":"b389aa1c-cc22-4ef3-9a99-8ed0d0dc75a9","system_id":"levelo_inurba_marseille","lat":43.29252,"lon":5.40913,"is_reserved":false,"is_disabled":false,"rental_uris":{"android":"levelo://app?vid=b389aa1c-cc22-4ef3-9a99-8ed0d0dc75a9","ios":"levelo://app?vid=b389aa1c-cc22-4ef3-9a99-8ed0d0dc75a9"},"vehicle_type_id":"4","last_reported":1750194590,"current_range_meters":19600,"station_id":"ce4bh192rcd13ifvqdc0","pricing_plan_id":"cebpf4jnsgd1na2vs0mg"},{"bike_id":"622d020f-26f8-452d-bfb6-2c0650942bf5","system_id":"levelo_inurba_marseille","lat":43.29179,"lon":5.39346,"is_reserved":false,"is_disabled":false,"rental_uris":{"android":"levelo://app?vid=622d020f-26f8-452d-bfb6-2c0650942bf5","ios":"levelo://app?vid=622d020f-26f8-452d-bfb6-2c0650942bf5"},"vehicle_type_id":"4","last_reported":1750194590,"current_range_meters":19600,"station_id":"ce4bh192rcd13ifvqdd0","pricing_plan_id":"cebpf4jnsgd1na2vs0mg"},{"bike_id":"f9847d29-4d99-4fe2-bfbf-6a40d1669921","system_id":"levelo_inurba_marseille","lat":43.29421,"lon":5.38599,"is_reserved":false,"is_disabled":false,"rental_uris":{"android":"levelo://app?vid=f9847d29-4d99-4fe2-bfbf-6a40d1669921","ios":"levelo://app?vid=f9847d29-4d99-4fe2-bfbf-6a40d1669921"},"vehicle_type_id":"4","last_reported":1750194590,"current_range_meters":19600,"station_id":"ce4bh2h2rcd13ifvqdh0","pricing_plan_id":"cebpf4jnsgd1na2vs0mg"},{"bike_id":"f95266b3-a158-4d7a-bf2e-521b7cd25173","system_id":"levelo_inurba_marseille","lat":43.28943,"lon":5.39627,"is_reserved":false,"is_disabled":false,"rental_uris":{"android":"levelo://app?vid=f95266b3-a158-4d7a-bf2e-521b7cd25173","ios":"levelo://app?vid=f95266b3-a158-4d7a-bf2e-521b7cd25173"},"vehicle_type_id":"4","last_reported":1750194590,"current_range_meters":19600,"station_id":"ce4bh3h2rcd13ifvqdn0","pricing_plan_id":"cebpf4jnsgd1na2vs0mg"},{"bike_id":"e66146e1-ce73-4786-959b-0b2df533f56d","system_id":"levelo_inurba_marseille","lat":43.25107,"lon":5.40321,"is_reserved":false,"is_disabled":false,"rental_uris":{"android":"levelo://app?vid=e66146e1-ce73-4786-959b-0b2df533f56d","ios":"levelo://app?vid=e66146e1-ce73-4786-959b-0b2df533f56d"},"vehicle_type_id":"4","last_reported":1750194590,"current_range_meters":19600,"station_id":"ce4bhlh2rcd13ifvqgig","pricing_plan_id":"cebpf4jnsgd1na2vs0mg"},{"bike_id":"a85b2000-e3ea-4c9d-8512-f632fbae13d6","system_id":"levelo_inurba_marseille","lat":43.30161,"lon":5.40086,"is_reserved":false,"is_disabled":false,"rental_uris":{"android":"levelo://app?vid=a85b2000-e3ea-4c9d-8512-f632fbae13d6","ios":"levelo://app?vid=a85b2000-e3ea-4c9d-8512-f632fbae13d6"},"vehicle_type_id":"4","last_reported":1750194590,"current_range_meters":20000,"station_id":"","pricing_plan_id":"cebpf4jnsgd1na2vs0mg"},{"bike_id":"c8243327-4e5a-42c3-9927-7ef97787b9f3","system_id":"levelo_inurba_marseille","lat":43.30243,"lon":5.400525,"is_reserved":false,"is_disabled":false,"rental_uris":{"android":"levelo://app?vid=c8243327-4e5a-42c3-9927-7ef97787b9f3","ios":"levelo://app?vid=c8243327-4e5a-42c3-9927-7ef97787b9f3"},"vehicle_type_id":"4","last_reported":1750194590,"current_range_meters":20000,"station_id":"ce4bgvh2rcd13ifvqcs0","pricing_plan_id":"cebpf4jnsgd1na2vs0mg"},{"bike_id":"60665a56-44ba-40a8-8764-45ef02f7b2fe","system_id":"levelo_inurba_marseille","lat":43.29866,"lon":5.39725,"is_reserved":false,"is_disabled":false,"rental_uris":{"android":"levelo://app?vid=60665a56-44ba-40a8-8764-45ef02f7b2fe","ios":"levelo://app?vid=60665a56-44ba-40a8-8764-45ef02f7b2fe"},"vehicle_type_id":"4","last_reported":1750194590,"current_range_meters":20000,"station_id":"ce4bh0h2rcd13ifvqd50","pricing_plan_id":"cebpf4jnsgd1na2vs0mg"},{"bike_id":"59d96fa7-bc6a-4221-b8db-1ffd9be759e5","system_id":"levelo_inurba_marseille","lat":43.29627,"lon":5.40594,"is_reserved":false,"is_disabled":false,"rental_uris":{"android":"levelo://app?vid=59d96fa7-bc6a-4221-b8db-1ffd9be759e5","ios":"levelo://app?vid=59d96fa7-bc6a-4221-b8db-1ffd9be759e5"},"vehicle_type_id":"4","last_reported":1750194590,"current_range_meters":20000,"station_id":"ce4bh0h2rcd13ifvqd60","pricing_plan_id":"cebpf4jnsgd1na2vs0mg"},{"bike_id":"85928def-1a37-43ea-9429-e23fb7a1aa0b","system_id":"levelo_inurba_marseille","lat":43.29191,"lon":5.39328,"is_reserved":false,"is_disabled":false,"rental_uris":{"android":"levelo://app?vid=85928def-1a37-43ea-9429-e23fb7a1aa0b","ios":"levelo://app?vid=85928def-1a37-43ea-9429-e23fb7a1aa0b"},"vehicle_type_id":"4","last_reported":1750194590,"current_range_meters":20000,"station_id":"ce4bh192rcd13ifvqdd0","pricing_plan_id":"cebpf4jnsgd1na2vs0mg"},{"bike_id":"0becc9fe-14ae-45f1-b1e9-0b3951dbc7a9","system_id":"levelo_inurba_marseille","lat":43.29017,"lon":5.38627,"is_reserved":false,"is_disabled":false,"rental_uris":{"android":"levelo://app?vid=0becc9fe-14ae-45f1-b1e9-0b3951dbc7a9","ios":"levelo://app?vid=0becc9fe-14ae-45f1-b1e9-0b3951dbc7a9"},"vehicle_type_id":"4","last_reported":1750194590,"current_range_meters":20000,"station_id":"ce4bh4p2rcd13ifvqe0g","pricing_plan_id":"cebpf4jnsgd1na2vs0mg"},{"bike_id":"f2ef0063-0206-46d5-8f05-c1ad5f8537b8","system_id":"levelo_inurba_marseille","lat":43.28453,"lon":5.35893,"is_reserved":false,"is_disabled":false,"rental_uris":{"android":"levelo://app?vid=f2ef0063-0206-46d5-8f05-c1ad5f8537b8","ios":"levelo://app?vid=f2ef0063-0206-46d5-8f05-c1ad5f8537b8"},"vehicle_type_id":"4","last_reported":1750194590,"current_range_meters":20000,"station_id":"ce4bhah2rcd13ifvqei0","pricing_plan_id":"cebpf4jnsgd1na2vs0mg"},{"bike_id":"e6de5e50-4873-4a56-8d3b-b8f3ded22ca3","system_id":"levelo_inurba_marseille","lat":43.28934,"lon":5.36636,"is_reserved":false,"is_disabled":false,"rental_uris":{"android":"levelo://app?vid=e6de5e50-4873-4a56-8d3b-b8f3ded22ca3","ios":"levelo://app?vid=e6de5e50-4873-4a56-8d3b-b8f3ded22ca3"},"vehicle_type_id":"4","last_reported":1750194590,"current_range_meters":20000,"station_id":"ce4bhap2rcd13ifvqek0","pricing_plan_id":"cebpf4jnsgd1na2vs0mg"},{"bike_id":"89602a63-801b-4cb9-9d2c-c3ebb46ef0c3","system_id":"levelo_inurba_marseille","lat":43.29001,"lon":5.35612,"is_reserved":false,"is_disabled":false,"rental_uris":{"android":"levelo://app?vid=89602a63-801b-4cb9-9d2c-c3ebb46ef0c3","ios":"levelo://app?vid=89602a63-801b-4cb9-9d2c-c3ebb46ef0c3"},"vehicle_type_id":"4","last_reported":1750194590,"current_range_meters":20000,"station_id":"ce4bhb92rcd13ifvqen0","pricing_plan_id":"cebpf4jnsgd1na2vs0mg"},{"bike_id":"84aa799d-57dd-4d89-9db1-82042a4b0d4e","system_id":"levelo_inurba_marseille","lat":43.27579,"lon":5.38394,"is_reserved":false,"is_disabled":false,"rental_uris":{"android":"levelo://app?vid=84aa799d-57dd-4d89-9db1-82042a4b0d4e","ios":"levelo://app?vid=84aa799d-57dd-4d89-9db1-82042a4b0d4e"},"vehicle_type_id":"4","last_reported":1750194590,"current_range_meters":20000,"station_id":"ce4bhh92rcd13ifvqfi0","pricing_plan_id":"cebpf4jnsgd1na2vs0mg"},{"bike_id":"a7269e3f-e2c4-4028-b2ed-51436c8cf697","system_id":"levelo_inurba_marseille","lat":43.21201,"lon":5.35078,"is_reserved":false,"is_disabled":false,"rental_uris":{"android":"levelo://app?vid=a7269e3f-e2c4-4028-b2ed-51436c8cf697","ios":"levelo://app?vid=a7269e3f-e2c4-4028-b2ed-51436c8cf697"},"vehicle_type_id":"4","last_reported":1750194590,"current_range_meters":20000,"station_id":"st_cvj6sg6p6f1abm77japg","pricing_plan_id":"cebpf4jnsgd1na2vs0mg"},{"bike_id":"ec88a63c-2bbf-4b25-8b16-f42d5431d3f5","system_id":"levelo_inurba_marseille","lat":43.3013,"lon":5.398747,"is_reserved":false,"is_disabled":false,"rental_uris":{"android":"levelo://app?vid=ec88a63c-2bbf-4b25-8b16-f42d5431d3f5","ios":"levelo://app?vid=ec88a63c-2bbf-4b25-8b16-f42d5431d3f5"},"vehicle_type_id":"4","last_reported":1750194590,"current_range_meters":20400,"station_id":"ce4bh0h2rcd13ifvqd40","pricing_plan_id":"cebpf4jnsgd1na2vs0mg"},{"bike_id":"93a35b42-d0f4-423d-ac00-e923fd097ace","system_id":"levelo_inurba_marseille","lat":43.30588,"lon":5.39346,"is_reserved":false,"is_disabled":false,"rental_uris":{"android":"levelo://app?vid=93a35b42-d0f4-423d-ac00-e923fd097ace","ios":"levelo://app?vid=93a35b42-d0f4-423d-ac00-e923fd097ace"},"vehicle_type_id":"4","last_reported":1750194590,"current_range_meters":20400,"station_id":"ce4bh0p2rcd13ifvqd80","pricing_plan_id":"cebpf4jnsgd1na2vs0mg"},{"bike_id":"7143332e-c0cd-44ae-a7bc-b535460f6b05","system_id":"levelo_inurba_marseille","lat":43.29679,"lon":5.37278,"is_reserved":false,"is_disabled":false,"rental_uris":{"android":"levelo://app?vid=7143332e-c0cd-44ae-a7bc-b535460f6b05","ios":"levelo://app?vid=7143332e-c0cd-44ae-a7bc-b535460f6b05"},"vehicle_type_id":"4","last_reported":1750194590,"current_range_meters":20800,"station_id":"ce4bgk12rcd13ifvqbj0","pricing_plan_id":"cebpf4jnsgd1na2vs0mg"},{"bike_id":"b9cff743-12b8-4b4f-93ba-97355753215b","system_id":"levelo_inurba_marseille","lat":43.28934,"lon":5.39615,"is_reserved":false,"is_disabled":false,"rental_uris":{"android":"levelo://app?vid=b9cff743-12b8-4b4f-93ba-97355753215b","ios":"levelo://app?vid=b9cff743-12b8-4b4f-93ba-97355753215b"},"vehicle_type_id":"4","last_reported":1750194590,"current_range_meters":20800,"station_id":"ce4bh3h2rcd13ifvqdn0","pricing_plan_id":"cebpf4jnsgd1na2vs0mg"},{"bike_id":"da2b1be7-b47d-4595-8ac6-6aa6fe37b6ae","system_id":"levelo_inurba_marseille","lat":43.29029,"lon":5.386372,"is_reserved":false,"is_disabled":false,"rental_uris":{"android":"levelo://app?vid=da2b1be7-b47d-4595-8ac6-6aa6fe37b6ae","ios":"levelo://app?vid=da2b1be7-b47d-4595-8ac6-6aa6fe37b6ae"},"vehicle_type_id":"4","last_reported":1750194590,"current_range_meters":20800,"station_id":"ce4bh4p2rcd13ifvqe0g","pricing_plan_id":"cebpf4jnsgd1na2vs0mg"},{"bike_id":"e884db7f-7bd3-4f07-aaba-023f42ed92f3","system_id":"levelo_inurba_marseille","lat":43.2508,"lon":5.39513,"is_reserved":false,"is_disabled":false,"rental_uris":{"android":"levelo://app?vid=e884db7f-7bd3-4f07-aaba-023f42ed92f3","ios":"levelo://app?vid=e884db7f-7bd3-4f07-aaba-023f42ed92f3"},"vehicle_type_id":"4","last_reported":1750194590,"current_range_meters":20800,"station_id":"ce4bhm12rcd13ifvqgkg","pricing_plan_id":"cebpf4jnsgd1na2vs0mg"},{"bike_id":"e5863b13-0bb4-41ee-a7a1-72091c1036b5","system_id":"levelo_inurba_marseille","lat":43.316127,"lon":5.383933,"is_reserved":false,"is_disabled":false,"rental_uris":{"android":"levelo://app?vid=e5863b13-0bb4-41ee-a7a1-72091c1036b5","ios":"levelo://app?vid=e5863b13-0bb4-41ee-a7a1-72091c1036b5"},"vehicle_type_id":"4","last_reported":1750194590,"current_range_meters":21600,"station_id":"","pricing_plan_id":"cebpf4jnsgd1na2vs0mg"},{"bike_id":"1bf29589-d74f-4149-a148-2ed86c60dd54","system_id":"levelo_inurba_marseille","lat":43.29532,"lon":5.38539,"is_reserved":false,"is_disabled":false,"rental_uris":{"android":"levelo://app?vid=1bf29589-d74f-4149-a148-2ed86c60dd54","ios":"levelo://app?vid=1bf29589-d74f-4149-a148-2ed86c60dd54"},"vehicle_type_id":"4","last_reported":1750194590,"current_range_meters":21600,"station_id":"ce4bgih2rcd13ifvqba0","pricing_plan_id":"cebpf4jnsgd1na2vs0mg"},{"bike_id":"3a3229fb-204b-410a-b611-002a32436710","system_id":"levelo_inurba_marseille","lat":43.2954,"lon":5.38526,"is_reserved":false,"is_disabled":false,"rental_uris":{"android":"levelo://app?vid=3a3229fb-204b-410a-b611-002a32436710","ios":"levelo://app?vid=3a3229fb-204b-410a-b611-002a32436710"},"vehicle_type_id":"4","last_reported":1750194590,"current_range_meters":21600,"station_id":"ce4bgih2rcd13ifvqba0","pricing_plan_id":"cebpf4jnsgd1na2vs0mg"},{"bike_id":"477685ac-0bb5-479d-89ce-dccb30ed17e7","system_id":"levelo_inurba_marseille","lat":43.30932,"lon":5.40137,"is_reserved":false,"is_disabled":false,"rental_uris":{"android":"levelo://app?vid=477685ac-0bb5-479d-89ce-dccb30ed17e7","ios":"levelo://app?vid=477685ac-0bb5-479d-89ce-dccb30ed17e7"},"vehicle_type_id":"4","last_reported":1750194590,"current_range_meters":21600,"station_id":"ce4bgvp2rcd13ifvqct0","pricing_plan_id":"cebpf4jnsgd1na2vs0mg"},{"bike_id":"5b2007c3-4e2d-4142-beec-2024a3ffa612","system_id":"levelo_inurba_marseille","lat":43.29256,"lon":5.40916,"is_reserved":false,"is_disabled":false,"rental_uris":{"android":"levelo://app?vid=5b2007c3-4e2d-4142-beec-2024a3ffa612","ios":"levelo://app?vid=5b2007c3-4e2d-4142-beec-2024a3ffa612"},"vehicle_type_id":"4","last_reported":1750194590,"current_range_meters":21600,"station_id":"ce4bh192rcd13ifvqdc0","pricing_plan_id":"cebpf4jnsgd1na2vs0mg"},{"bike_id":"d4709bef-30c7-47e1-acb0-b62d446b415c","system_id":"levelo_inurba_marseille","lat":43.2928,"lon":5.40118,"is_reserved":false,"is_disabled":false,"rental_uris":{"android":"levelo://app?vid=d4709bef-30c7-47e1-acb0-b62d446b415c","ios":"levelo://app?vid=d4709bef-30c7-47e1-acb0-b62d446b415c"},"vehicle_type_id":"4","last_reported":1750194590,"current_range_meters":21600,"station_id":"ce4bh312rcd13ifvqdk0","pricing_plan_id":"cebpf4jnsgd1na2vs0mg"},{"bike_id":"d76239d1-e4d9-4e67-8f93-8c01457b1fc9","system_id":"levelo_inurba_marseille","lat":43.2835,"lon":5.38106,"is_reserved":false,"is_disabled":false,"rental_uris":{"android":"levelo://app?vid=d76239d1-e4d9-4e67-8f93-8c01457b1fc9","ios":"levelo://app?vid=d76239d1-e4d9-4e67-8f93-8c01457b1fc9"},"vehicle_type_id":"4","last_reported":1750194590,"current_range_meters":21600,"station_id":"ce4bh412rcd13ifvqdr0","pricing_plan_id":"cebpf4jnsgd1na2vs0mg"},{"bike_id":"4367ac4b-b50c-459a-a32a-3e13fbd66187","system_id":"levelo_inurba_marseille","lat":43.29034,"lon":5.38648,"is_reserved":false,"is_disabled":false,"rental_uris":{"android":"levelo://app?vid=4367ac4b-b50c-459a-a32a-3e13fbd66187","ios":"levelo://app?vid=4367ac4b-b50c-459a-a32a-3e13fbd66187"},"vehicle_type_id":"4","last_reported":1750194590,"current_range_meters":21600,"station_id":"ce4bh4p2rcd13ifvqe0g","pricing_plan_id":"cebpf4jnsgd1na2vs0mg"},{"bike_id":"a467ebe4-f3cd-423b-9299-08e87fbefb68","system_id":"levelo_inurba_marseille","lat":43.28457,"lon":5.35876,"is_reserved":false,"is_disabled":false,"rental_uris":{"android":"levelo://app?vid=a467ebe4-f3cd-423b-9299-08e87fbefb68","ios":"levelo://app?vid=a467ebe4-f3cd-423b-9299-08e87fbefb68"},"vehicle_type_id":"4","last_reported":1750194590,"current_range_meters":21600,"station_id":"ce4bhah2rcd13ifvqei0","pricing_plan_id":"cebpf4jnsgd1na2vs0mg"},{"bike_id":"272c5f27-8173-4535-b3a3-6a315d61c27f","system_id":"levelo_inurba_marseille","lat":43.28696,"lon":5.39983,"is_reserved":false,"is_disabled":false,"rental_uris":{"android":"levelo://app?vid=272c5f27-8173-4535-b3a3-6a315d61c27f","ios":"levelo://app?vid=272c5f27-8173-4535-b3a3-6a315d61c27f"},"vehicle_type_id":"4","last_reported":1750194590,"current_range_meters":21600,"station_id":"ce4bho92rcd13ifvqh3g","pricing_plan_id":"cebpf4jnsgd1na2vs0mg"},{"bike_id":"c8d970ef-20d6-4656-91db-56b2f39018a0","system_id":"levelo_inurba_marseille","lat":43.32365,"lon":5.38875,"is_reserved":false,"is_disabled":false,"rental_uris":{"android":"levelo://app?vid=c8d970ef-20d6-4656-91db-56b2f39018a0","ios":"levelo://app?vid=c8d970ef-20d6-4656-91db-56b2f39018a0"},"vehicle_type_id":"4","last_reported":1750194590,"current_range_meters":21600,"station_id":"ce4bhqp2rcd13ifvqhog","pricing_plan_id":"cebpf4jnsgd1na2vs0mg"},{"bike_id":"1c6ad65b-4f1d-4c81-8793-78eba647b4f2","system_id":"levelo_inurba_marseille","lat":43.29909,"lon":5.37477,"is_reserved":false,"is_disabled":false,"rental_uris":{"android":"levelo://app?vid=1c6ad65b-4f1d-4c81-8793-78eba647b4f2","ios":"levelo://app?vid=1c6ad65b-4f1d-4c81-8793-78eba647b4f2"},"vehicle_type_id":"4","last_reported":1750194590,"current_range_meters":22000,"station_id":"ce4bgjh2rcd13ifvqbg0","pricing_plan_id":"cebpf4jnsgd1na2vs0mg"},{"bike_id":"91708bb6-1a25-4d23-808d-4886eef65a03","system_id":"levelo_inurba_marseille","lat":43.30305,"lon":5.39208,"is_reserved":false,"is_disabled":false,"rental_uris":{"android":"levelo://app?vid=91708bb6-1a25-4d23-808d-4886eef65a03","ios":"levelo://app?vid=91708bb6-1a25-4d23-808d-4886eef65a03"},"vehicle_type_id":"4","last_reported":1750194590,"current_range_meters":22000,"station_id":"ce4bgkh2rcd13ifvqbk0","pricing_plan_id":"cebpf4jnsgd1na2vs0mg"},{"bike_id":"df2e8972-a65f-482b-b3f3-44e90aeaeecb","system_id":"levelo_inurba_marseille","lat":43.29526,"lon":5.394,"is_reserved":false,"is_disabled":false,"rental_uris":{"android":"levelo://app?vid=df2e8972-a65f-482b-b3f3-44e90aeaeecb","ios":"levelo://app?vid=df2e8972-a65f-482b-b3f3-44e90aeaeecb"},"vehicle_type_id":"4","last_reported":1750194590,"current_range_meters":22000,"station_id":"ce4bh292rcd13ifvqdf0","pricing_plan_id":"cebpf4jnsgd1na2vs0mg"},{"bike_id":"fe0b6211-d49a-4737-9305-3eac0fcf8549","system_id":"levelo_inurba_marseille","lat":43.24544,"lon":5.39521,"is_reserved":false,"is_disabled":false,"rental_uris":{"android":"levelo://app?vid=fe0b6211-d49a-4737-9305-3eac0fcf8549","ios":"levelo://app?vid=fe0b6211-d49a-4737-9305-3eac0fcf8549"},"vehicle_type_id":"4","last_reported":1750194590,"current_range_meters":22000,"station_id":"ce4bhlp2rcd13ifvqgjg","pricing_plan_id":"cebpf4jnsgd1na2vs0mg"},{"bike_id":"f2aa2567-d6aa-4c09-ad07-2442163d1351","system_id":"levelo_inurba_marseille","lat":43.31886,"lon":5.4074,"is_reserved":false,"is_disabled":false,"rental_uris":{"android":"levelo://app?vid=f2aa2567-d6aa-4c09-ad07-2442163d1351","ios":"levelo://app?vid=f2aa2567-d6aa-4c09-ad07-2442163d1351"},"vehicle_type_id":"4","last_reported":1750194590,"current_range_meters":22000,"station_id":"ce4bhq12rcd13ifvqhig","pricing_plan_id":"cebpf4jnsgd1na2vs0mg"},{"bike_id":"97dbe3d4-f5f1-4df9-9c22-2c7c2edf12c9","system_id":"levelo_inurba_marseille","lat":43.32333,"lon":5.40614,"is_reserved":false,"is_disabled":false,"rental_uris":{"android":"levelo://app?vid=97dbe3d4-f5f1-4df9-9c22-2c7c2edf12c9","ios":"levelo://app?vid=97dbe3d4-f5f1-4df9-9c22-2c7c2edf12c9"},"vehicle_type_id":"4","last_reported":1750194590,"current_range_meters":22000,"station_id":"ce4bhq92rcd13ifvqhjg","pricing_plan_id":"cebpf4jnsgd1na2vs0mg"},{"bike_id":"452de6f5-dcc4-40e6-91d1-27952aacbf43","system_id":"levelo_inurba_marseille","lat":43.23211,"lon":5.39957,"is_reserved":false,"is_disabled":false,"rental_uris":{"android":"levelo://app?vid=452de6f5-dcc4-40e6-91d1-27952aacbf43","ios":"levelo://app?vid=452de6f5-dcc4-40e6-91d1-27952aacbf43"},"vehicle_type_id":"4","last_reported":1750194590,"current_range_meters":22400,"station_id":"","pricing_plan_id":"cebpf4jnsgd1na2vs0mg"},{"bike_id":"27cd7138-8b58-4d27-b6bb-d957b614e63b","system_id":"levelo_inurba_marseille","lat":43.30158,"lon":5.3699,"is_reserved":false,"is_disabled":false,"rental_uris":{"android":"levelo://app?vid=27cd7138-8b58-4d27-b6bb-d957b614e63b","ios":"levelo://app?vid=27cd7138-8b58-4d27-b6bb-d957b614e63b"},"vehicle_type_id":"4","last_reported":1750194590,"current_range_meters":22400,"station_id":"","pricing_plan_id":"cebpf4jnsgd1na2vs0mg"},{"bike_id":"a600afcf-ec78-475d-9bf9-ae7ca7a90b55","system_id":"levelo_inurba_marseille","lat":43.29034,"lon":5.38633,"is_reserved":false,"is_disabled":false,"rental_uris":{"android":"levelo://app?vid=a600afcf-ec78-475d-9bf9-ae7ca7a90b55","ios":"levelo://app?vid=a600afcf-ec78-475d-9bf9-ae7ca7a90b55"},"vehicle_type_id":"4","last_reported":1750194590,"current_range_meters":22400,"station_id":"ce4bh4p2rcd13ifvqe0g","pricing_plan_id":"cebpf4jnsgd1na2vs0mg"},{"bike_id":"2add1516-f549-446f-8505-806c7e04f273","system_id":"levelo_inurba_marseille","lat":43.29549,"lon":5.38515,"is_reserved":false,"is_disabled":false,"rental_uris":{"android":"levelo://app?vid=2add1516-f549-446f-8505-806c7e04f273","ios":"levelo://app?vid=2add1516-f549-446f-8505-806c7e04f273"},"vehicle_type_id":"4","last_reported":1750194590,"current_range_meters":22800,"station_id":"ce4bgih2rcd13ifvqba0","pricing_plan_id":"cebpf4jnsgd1na2vs0mg"},{"bike_id":"bd589e6e-34ad-40b4-8c78-9b76d4c1e08a","system_id":"levelo_inurba_marseille","lat":43.303,"lon":5.39209,"is_reserved":false,"is_disabled":false,"rental_uris":{"android":"levelo://app?vid=bd589e6e-34ad-40b4-8c78-9b76d4c1e08a","ios":"levelo://app?vid=bd589e6e-34ad-40b4-8c78-9b76d4c1e08a"},"vehicle_type_id":"4","last_reported":1750194590,"current_range_meters":22800,"station_id":"ce4bgkh2rcd13ifvqbk0","pricing_plan_id":"cebpf4jnsgd1na2vs0mg"},{"bike_id":"75de2ca1-b9f7-44d5-a799-6e124ea062bb","system_id":"levelo_inurba_marseille","lat":43.28938,"lon":5.39625,"is_reserved":false,"is_disabled":false,"rental_uris":{"android":"levelo://app?vid=75de2ca1-b9f7-44d5-a799-6e124ea062bb","ios":"levelo://app?vid=75de2ca1-b9f7-44d5-a799-6e124ea062bb"},"vehicle_type_id":"4","last_reported":1750194590,"current_range_meters":22800,"station_id":"ce4bh3h2rcd13ifvqdn0","pricing_plan_id":"cebpf4jnsgd1na2vs0mg"},{"bike_id":"157fd7d0-8ea7-43d3-9fe6-54c2ebb9413e","system_id":"levelo_inurba_marseille","lat":43.28369,"lon":5.38643,"is_reserved":false,"is_disabled":false,"rental_uris":{"android":"levelo://app?vid=157fd7d0-8ea7-43d3-9fe6-54c2ebb9413e","ios":"levelo://app?vid=157fd7d0-8ea7-43d3-9fe6-54c2ebb9413e"},"vehicle_type_id":"4","last_reported":1750194590,"current_range_meters":22800,"station_id":"ce4bh492rcd13ifvqdvg","pricing_plan_id":"cebpf4jnsgd1na2vs0mg"},{"bike_id":"18b789dc-40ab-4e5c-904a-4ac04efaabae","system_id":"levelo_inurba_marseille","lat":43.25501,"lon":5.37647,"is_reserved":false,"is_disabled":false,"rental_uris":{"android":"levelo://app?vid=18b789dc-40ab-4e5c-904a-4ac04efaabae","ios":"levelo://app?vid=18b789dc-40ab-4e5c-904a-4ac04efaabae"},"vehicle_type_id":"4","last_reported":1750194590,"current_range_meters":22800,"station_id":"ce4bhh12rcd13ifvqff0","pricing_plan_id":"cebpf4jnsgd1na2vs0mg"},{"bike_id":"63d9a791-dd33-406c-8733-97144b75a22a","system_id":"levelo_inurba_marseille","lat":43.26494,"lon":5.39535,"is_reserved":false,"is_disabled":false,"rental_uris":{"android":"levelo://app?vid=63d9a791-dd33-406c-8733-97144b75a22a","ios":"levelo://app?vid=63d9a791-dd33-406c-8733-97144b75a22a"},"vehicle_type_id":"4","last_reported":1750194590,"current_range_meters":22800,"station_id":"ce4bhi12rcd13ifvqfq0","pricing_plan_id":"cebpf4jnsgd1na2vs0mg"},{"bike_id":"b2758a50-ade0-4094-b512-08c479116e55","system_id":"levelo_inurba_marseille","lat":43.32288,"lon":5.38261,"is_reserved":false,"is_disabled":false,"rental_uris":{"android":"levelo://app?vid=b2758a50-ade0-4094-b512-08c479116e55","ios":"levelo://app?vid=b2758a50-ade0-4094-b512-08c479116e55"},"vehicle_type_id":"4","last_reported":1750194590,"current_range_meters":22800,"station_id":"ce4bhr12rcd13ifvqhqg","pricing_plan_id":"cebpf4jnsgd1na2vs0mg"},{"bike_id":"94776d2d-cf16-44d7-819b-81ad99f26220","system_id":"levelo_inurba_marseille","lat":43.30143,"lon":5.3878,"is_reserved":false,"is_disabled":false,"rental_uris":{"android":"levelo://app?vid=94776d2d-cf16-44d7-819b-81ad99f26220","ios":"levelo://app?vid=94776d2d-cf16-44d7-819b-81ad99f26220"},"vehicle_type_id":"4","last_reported":1750194590,"current_range_meters":23200,"station_id":"ce4bghh2rcd13ifvqb60","pricing_plan_id":"cebpf4jnsgd1na2vs0mg"},{"bike_id":"24787603-114d-4d1f-b484-38a9efdacf06","system_id":"levelo_inurba_marseille","lat":43.29531,"lon":5.38539,"is_reserved":false,"is_disabled":false,"rental_uris":{"android":"levelo://app?vid=24787603-114d-4d1f-b484-38a9efdacf06","ios":"levelo://app?vid=24787603-114d-4d1f-b484-38a9efdacf06"},"vehicle_type_id":"4","last_reported":1750194590,"current_range_meters":23200,"station_id":"ce4bgih2rcd13ifvqba0","pricing_plan_id":"cebpf4jnsgd1na2vs0mg"},{"bike_id":"8687b4be-302c-464d-90af-a8baa8e82893","system_id":"levelo_inurba_marseille","lat":43.30881,"lon":5.39656,"is_reserved":false,"is_disabled":false,"rental_uris":{"android":"levelo://app?vid=8687b4be-302c-464d-90af-a8baa8e82893","ios":"levelo://app?vid=8687b4be-302c-464d-90af-a8baa8e82893"},"vehicle_type_id":"4","last_reported":1750194590,"current_range_meters":23200,"station_id":"ce4bh012rcd13ifvqcv0","pricing_plan_id":"cebpf4jnsgd1na2vs0mg"},{"bike_id":"30ea9c58-b180-4dcb-ba62-5cbe0aff3645","system_id":"levelo_inurba_marseille","lat":43.30882,"lon":5.39639,"is_reserved":false,"is_disabled":false,"rental_uris":{"android":"levelo://app?vid=30ea9c58-b180-4dcb-ba62-5cbe0aff3645","ios":"levelo://app?vid=30ea9c58-b180-4dcb-ba62-5cbe0aff3645"},"vehicle_type_id":"4","last_reported":1750194590,"current_range_meters":23200,"station_id":"ce4bh012rcd13ifvqcv0","pricing_plan_id":"cebpf4jnsgd1na2vs0mg"},{"bike_id":"dba75895-388c-4652-86bf-29c5596fe0f3","system_id":"levelo_inurba_marseille","lat":43.3042,"lon":5.39748,"is_reserved":false,"is_disabled":false,"rental_uris":{"android":"levelo://app?vid=dba75895-388c-4652-86bf-29c5596fe0f3","ios":"levelo://app?vid=dba75895-388c-4652-86bf-29c5596fe0f3"},"vehicle_type_id":"4","last_reported":1750194590,"current_range_meters":23200,"station_id":"ce4bh092rcd13ifvqd20","pricing_plan_id":"cebpf4jnsgd1na2vs0mg"},{"bike_id":"5654a528-9f83-4e01-8cee-bed7de331b3f","system_id":"levelo_inurba_marseille","lat":43.309453,"lon":5.390322,"is_reserved":false,"is_disabled":false,"rental_uris":{"android":"levelo://app?vid=5654a528-9f83-4e01-8cee-bed7de331b3f","ios":"levelo://app?vid=5654a528-9f83-4e01-8cee-bed7de331b3f"},"vehicle_type_id":"4","last_reported":1750194590,"current_range_meters":23200,"station_id":"ce4bh0p2rcd13ifvqd80","pricing_plan_id":"cebpf4jnsgd1na2vs0mg"},{"bike_id":"f1b0941c-57e8-4e36-b7b0-2092f848c587","system_id":"levelo_inurba_marseille","lat":43.29095,"lon":5.3814,"is_reserved":false,"is_disabled":false,"rental_uris":{"android":"levelo://app?vid=f1b0941c-57e8-4e36-b7b0-2092f848c587","ios":"levelo://app?vid=f1b0941c-57e8-4e36-b7b0-2092f848c587"},