{"last_updated":1745497183,"ttl":60,"version":"2.2","data":{"bikes":[{"bike_id":"86d635d4-6f1e-4591-846d-264524747d0c","system_id":"levelo_inurba_marseille","lat":43.27373,"lon":5.36259,"is_reserved":false,"is_disabled":false,"rental_uris":{"android":"levelo://app?vid=86d635d4-6f1e-4591-846d-264524747d0c","ios":"levelo://app?vid=86d635d4-6f1e-4591-846d-264524747d0c"},"vehicle_type_id":"4","last_reported":1745497184,"current_range_meters":2800,"station_id":"ce4bhbh2rcd13ifvqeo0","pricing_plan_id":"cebpf4jnsgd1na2vs0mg"},{"bike_id":"6040a4a1-4dc3-4bc0-8be5-cf8bdf35c793","system_id":"levelo_inurba_marseille","lat":43.29537,"lon":5.38547,"is_reserved":false,"is_disabled":false,"rental_uris":{"android":"levelo://app?vid=6040a4a1-4dc3-4bc0-8be5-cf8bdf35c793","ios":"levelo://app?vid=6040a4a1-4dc3-4bc0-8be5-cf8bdf35c793"},"vehicle_type_id":"4","last_reported":1745497184,"current_range_meters":2800,"station_id":"ce4bgih2rcd13ifvqba0","pricing_plan_id":"cebpf4jnsgd1na2vs0mg"},{"bike_id":"3100679f-26e6-4724-bb7d-ba0c6408b3a8","system_id":"levelo_inurba_marseille","lat":43.30897,"lon":5.37212,"is_reserved":false,"is_disabled":false,"rental_uris":{"android":"levelo://app?vid=3100679f-26e6-4724-bb7d-ba0c6408b3a8","ios":"levelo://app?vid=3100679f-26e6-4724-bb7d-ba0c6408b3a8"},"vehicle_type_id":"4","last_reported":1745497184,"current_range_meters":2800,"station_id":"ce4bguh2rcd13ifvqckg","pricing_plan_id":"cebpf4jnsgd1na2vs0mg"},{"bike_id":"fcd6ec44-9ee9-41df-b87f-e5b3055bd1a6","system_id":"levelo_inurba_marseille","lat":43.33605,"lon":5.41035,"is_reserved":false,"is_disabled":false,"rental_uris":{"android":"levelo://app?vid=fcd6ec44-9ee9-41df-b87f-e5b3055bd1a6","ios":"levelo://app?vid=fcd6ec44-9ee9-41df-b87f-e5b3055bd1a6"},"vehicle_type_id":"4","last_reported":1745497184,"current_range_meters":2800,"station_id":"ce4bhqh2rcd13ifvqhmg","pricing_plan_id":"cebpf4jnsgd1na2vs0mg"},{"bike_id":"017dfc77-b82f-41dc-a430-65593c9daccf","system_id":"levelo_inurba_marseille","lat":43.29623,"lon":5.37151,"is_reserved":false,"is_disabled":false,"rental_uris":{"android":"levelo://app?vid=017dfc77-b82f-41dc-a430-65593c9daccf","ios":"levelo://app?vid=017dfc77-b82f-41dc-a430-65593c9daccf"},"vehicle_type_id":"4","last_reported":1745497184,"current_range_meters":3200,"station_id":"ce4bgnh2rcd13ifvqc0g","pricing_plan_id":"cebpf4jnsgd1na2vs0mg"},{"bike_id":"10170729-50a8-4ed5-84dd-0265207f9016","system_id":"levelo_inurba_marseille","lat":43.29904,"lon":5.43642,"is_reserved":false,"is_disabled":false,"rental_uris":{"android":"levelo://app?vid=10170729-50a8-4ed5-84dd-0265207f9016","ios":"levelo://app?vid=10170729-50a8-4ed5-84dd-0265207f9016"},"vehicle_type_id":"4","last_reported":1745497184,"current_range_meters":3200,"station_id":"ce4bhpp2rcd13ifvqhfg","pricing_plan_id":"cebpf4jnsgd1na2vs0mg"},{"bike_id":"b05bac0d-207f-4595-9c45-323d38b35b60","system_id":"levelo_inurba_marseille","lat":43.27619,"lon":5.36099,"is_reserved":false,"is_disabled":false,"rental_uris":{"android":"levelo://app?vid=b05bac0d-207f-4595-9c45-323d38b35b60","ios":"levelo://app?vid=b05bac0d-207f-4595-9c45-323d38b35b60"},"vehicle_type_id":"4","last_reported":1745497184,"current_range_meters":3200,"station_id":"ce4bgj92rcd13ifvqbe0","pricing_plan_id":"cebpf4jnsgd1na2vs0mg"},{"bike_id":"dbc2f881-70e8-4c56-bb20-02d381d69e9b","system_id":"levelo_inurba_marseille","lat":43.30462,"lon":5.37901,"is_reserved":false,"is_disabled":false,"rental_uris":{"android":"levelo://app?vid=dbc2f881-70e8-4c56-bb20-02d381d69e9b","ios":"levelo://app?vid=dbc2f881-70e8-4c56-bb20-02d381d69e9b"},"vehicle_type_id":"4","last_reported":1745497184,"current_range_meters":3200,"station_id":"ce4bgup2rcd13ifvqcn0","pricing_plan_id":"cebpf4jnsgd1na2vs0mg"},{"bike_id":"32b423f7-d628-4384-8400-496e8ff728dd","system_id":"levelo_inurba_marseille","lat":43.30464,"lon":5.37906,"is_reserved":false,"is_disabled":false,"rental_uris":{"android":"levelo://app?vid=32b423f7-d628-4384-8400-496e8ff728dd","ios":"levelo://app?vid=32b423f7-d628-4384-8400-496e8ff728dd"},"vehicle_type_id":"4","last_reported":1745497184,"current_range_meters":4000,"station_id":"ce4bgup2rcd13ifvqcn0","pricing_plan_id":"cebpf4jnsgd1na2vs0mg"},{"bike_id":"83307196-80f9-413b-898c-fd66dddd8f2b","system_id":"levelo_inurba_marseille","lat":43.28349,"lon":5.38098,"is_reserved":false,"is_disabled":false,"rental_uris":{"android":"levelo://app?vid=83307196-80f9-413b-898c-fd66dddd8f2b","ios":"levelo://app?vid=83307196-80f9-413b-898c-fd66dddd8f2b"},"vehicle_type_id":"4","last_reported":1745497184,"current_range_meters":4000,"station_id":"ce4bh412rcd13ifvqdr0","pricing_plan_id":"cebpf4jnsgd1na2vs0mg"},{"bike_id":"1c5ec038-935d-45d4-ab05-1768d5c6745a","system_id":"levelo_inurba_marseille","lat":43.24051,"lon":5.37743,"is_reserved":false,"is_disabled":true,"rental_uris":{"android":"levelo://app?vid=1c5ec038-935d-45d4-ab05-1768d5c6745a","ios":"levelo://app?vid=1c5ec038-935d-45d4-ab05-1768d5c6745a"},"vehicle_type_id":"4","last_reported":1745497184,"current_range_meters":4000,"station_id":"ce4bhnp2rcd13ifvqgvg","pricing_plan_id":"cebpf4jnsgd1na2vs0mg"},{"bike_id":"920bf113-b774-4a9f-9115-fb994586a61f","system_id":"levelo_inurba_marseille","lat":43.32662,"lon":5.40986,"is_reserved":false,"is_disabled":false,"rental_uris":{"android":"levelo://app?vid=920bf113-b774-4a9f-9115-fb994586a61f","ios":"levelo://app?vid=920bf113-b774-4a9f-9115-fb994586a61f"},"vehicle_type_id":"4","last_reported":1745497184,"current_range_meters":4000,"station_id":"ce4bhpp2rcd13ifvqhgg","pricing_plan_id":"cebpf4jnsgd1na2vs0mg"},{"bike_id":"bcba519d-95fe-4bb8-9cb0-f89e7378fd50","system_id":"levelo_inurba_marseille","lat":43.32286,"lon":5.38279,"is_reserved":false,"is_disabled":false,"rental_uris":{"android":"levelo://app?vid=bcba519d-95fe-4bb8-9cb0-f89e7378fd50","ios":"levelo://app?vid=bcba519d-95fe-4bb8-9cb0-f89e7378fd50"},"vehicle_type_id":"4","last_reported":1745497184,"current_range_meters":4000,"station_id":"ce4bhr12rcd13ifvqhqg","pricing_plan_id":"cebpf4jnsgd1na2vs0mg"},{"bike_id":"48067728-59d1-4fbf-9df3-180572ad8cdd","system_id":"levelo_inurba_marseille","lat":43.31228,"lon":5.36831,"is_reserved":false,"is_disabled":false,"rental_uris":{"android":"levelo://app?vid=48067728-59d1-4fbf-9df3-180572ad8cdd","ios":"levelo://app?vid=48067728-59d1-4fbf-9df3-180572ad8cdd"},"vehicle_type_id":"4","last_reported":1745497184,"current_range_meters":4400,"station_id":"ce4bgl92rcd13ifvqbq0","pricing_plan_id":"cebpf4jnsgd1na2vs0mg"},{"bike_id":"705552a9-06c2-4604-8598-3ce053bc3b3e","system_id":"levelo_inurba_marseille","lat":43.305598,"lon":5.367355,"is_reserved":false,"is_disabled":false,"rental_uris":{"android":"levelo://app?vid=705552a9-06c2-4604-8598-3ce053bc3b3e","ios":"levelo://app?vid=705552a9-06c2-4604-8598-3ce053bc3b3e"},"vehicle_type_id":"4","last_reported":1745497184,"current_range_meters":4800,"station_id":"ce4bgrp2rcd13ifvqc9g","pricing_plan_id":"cebpf4jnsgd1na2vs0mg"},{"bike_id":"a780ef0c-c2a8-4441-bbb2-e9e417239541","system_id":"levelo_inurba_marseille","lat":43.288605,"lon":5.358451,"is_reserved":false,"is_disabled":false,"rental_uris":{"android":"levelo://app?vid=a780ef0c-c2a8-4441-bbb2-e9e417239541","ios":"levelo://app?vid=a780ef0c-c2a8-4441-bbb2-e9e417239541"},"vehicle_type_id":"4","last_reported":1745497184,"current_range_meters":5600,"station_id":"ce4bhb12rcd13ifvqem0","pricing_plan_id":"cebpf4jnsgd1na2vs0mg"},{"bike_id":"1f9af8b5-4927-43e3-a30d-9a59e23afc91","system_id":"levelo_inurba_marseille","lat":43.336,"lon":5.41032,"is_reserved":false,"is_disabled":false,"rental_uris":{"android":"levelo://app?vid=1f9af8b5-4927-43e3-a30d-9a59e23afc91","ios":"levelo://app?vid=1f9af8b5-4927-43e3-a30d-9a59e23afc91"},"vehicle_type_id":"4","last_reported":1745497184,"current_range_meters":5600,"station_id":"ce4bhqh2rcd13ifvqhmg","pricing_plan_id":"cebpf4jnsgd1na2vs0mg"},{"bike_id":"35ee1e7a-ed4b-489a-ad85-a78f3746e5e7","system_id":"levelo_inurba_marseille","lat":43.23145,"lon":5.43706,"is_reserved":false,"is_disabled":false,"rental_uris":{"android":"levelo://app?vid=35ee1e7a-ed4b-489a-ad85-a78f3746e5e7","ios":"levelo://app?vid=35ee1e7a-ed4b-489a-ad85-a78f3746e5e7"},"vehicle_type_id":"4","last_reported":1745497184,"current_range_meters":6000,"station_id":"ce4bhmp2rcd13ifvqgog","pricing_plan_id":"cebpf4jnsgd1na2vs0mg"},{"bike_id":"49c0f902-eac7-4a79-adf0-d142aff51e11","system_id":"levelo_inurba_marseille","lat":43.24156,"lon":5.36404,"is_reserved":false,"is_disabled":false,"rental_uris":{"android":"levelo://app?vid=49c0f902-eac7-4a79-adf0-d142aff51e11","ios":"levelo://app?vid=49c0f902-eac7-4a79-adf0-d142aff51e11"},"vehicle_type_id":"4","last_reported":1745497184,"current_range_meters":6000,"station_id":"cpo36qri1sfpv3e86is0","pricing_plan_id":"cebpf4jnsgd1na2vs0mg"},{"bike_id":"ecd45a17-8d1d-42dd-ada1-769f1f9a47b3","system_id":"levelo_inurba_marseille","lat":43.28267,"lon":5.35082,"is_reserved":false,"is_disabled":false,"rental_uris":{"android":"levelo://app?vid=ecd45a17-8d1d-42dd-ada1-769f1f9a47b3","ios":"levelo://app?vid=ecd45a17-8d1d-42dd-ada1-769f1f9a47b3"},"vehicle_type_id":"4","last_reported":1745497184,"current_range_meters":6000,"station_id":"ce4bhbp2rcd13ifvqerg","pricing_plan_id":"cebpf4jnsgd1na2vs0mg"},{"bike_id":"31f2d27f-3cd8-4d23-bf0b-e1ebbd67da1c","system_id":"levelo_inurba_marseille","lat":43.33603,"lon":5.41038,"is_reserved":false,"is_disabled":false,"rental_uris":{"android":"levelo://app?vid=31f2d27f-3cd8-4d23-bf0b-e1ebbd67da1c","ios":"levelo://app?vid=31f2d27f-3cd8-4d23-bf0b-e1ebbd67da1c"},"vehicle_type_id":"4","last_reported":1745497184,"current_range_meters":6400,"station_id":"ce4bhqh2rcd13ifvqhmg","pricing_plan_id":"cebpf4jnsgd1na2vs0mg"},{"bike_id":"d51c8099-d05c-4f78-9f75-05fa54aace70","system_id":"levelo_inurba_marseille","lat":43.33722,"lon":5.39194,"is_reserved":false,"is_disabled":false,"rental_uris":{"android":"levelo://app?vid=d51c8099-d05c-4f78-9f75-05fa54aace70","ios":"levelo://app?vid=d51c8099-d05c-4f78-9f75-05fa54aace70"},"vehicle_type_id":"4","last_reported":1745497184,"current_range_meters":6400,"station_id":"ce4bhr92rcd13ifvqhsg","pricing_plan_id":"cebpf4jnsgd1na2vs0mg"},{"bike_id":"eb9d3f48-fc68-427d-b278-f623173ecfb8","system_id":"levelo_inurba_marseille","lat":43.29974,"lon":5.3849,"is_reserved":false,"is_disabled":false,"rental_uris":{"android":"levelo://app?vid=eb9d3f48-fc68-427d-b278-f623173ecfb8","ios":"levelo://app?vid=eb9d3f48-fc68-427d-b278-f623173ecfb8"},"vehicle_type_id":"4","last_reported":1745497184,"current_range_meters":6400,"station_id":"ce4bgj92rcd13ifvqbd0","pricing_plan_id":"cebpf4jnsgd1na2vs0mg"},{"bike_id":"d59c32f9-98f2-484f-8b7f-58acf5c060cc","system_id":"levelo_inurba_marseille","lat":43.24172,"lon":5.39732,"is_reserved":false,"is_disabled":false,"rental_uris":{"android":"levelo://app?vid=d59c32f9-98f2-484f-8b7f-58acf5c060cc","ios":"levelo://app?vid=d59c32f9-98f2-484f-8b7f-58acf5c060cc"},"vehicle_type_id":"4","last_reported":1745497184,"current_range_meters":6800,"station_id":"ce4bhn12rcd13ifvqgpg","pricing_plan_id":"cebpf4jnsgd1na2vs0mg"},{"bike_id":"764e21a9-e570-41ae-aceb-dfc2d4027b0f","system_id":"levelo_inurba_marseille","lat":43.2315,"lon":5.4372,"is_reserved":false,"is_disabled":false,"rental_uris":{"android":"levelo://app?vid=764e21a9-e570-41ae-aceb-dfc2d4027b0f","ios":"levelo://app?vid=764e21a9-e570-41ae-aceb-dfc2d4027b0f"},"vehicle_type_id":"4","last_reported":1745497184,"current_range_meters":6800,"station_id":"ce4bhmp2rcd13ifvqgog","pricing_plan_id":"cebpf4jnsgd1na2vs0mg"},{"bike_id":"22081fd7-51eb-49d9-b714-7e3f99161bc4","system_id":"levelo_inurba_marseille","lat":43.30953,"lon":5.39029,"is_reserved":false,"is_disabled":false,"rental_uris":{"android":"levelo://app?vid=22081fd7-51eb-49d9-b714-7e3f99161bc4","ios":"levelo://app?vid=22081fd7-51eb-49d9-b714-7e3f99161bc4"},"vehicle_type_id":"4","last_reported":1745497184,"current_range_meters":6800,"station_id":"ce4bgup2rcd13ifvqco0","pricing_plan_id":"cebpf4jnsgd1na2vs0mg"},{"bike_id":"4272e66c-b06c-41e9-9707-c24d63b2bec5","system_id":"levelo_inurba_marseille","lat":43.29798,"lon":5.38097,"is_reserved":false,"is_disabled":false,"rental_uris":{"android":"levelo://app?vid=4272e66c-b06c-41e9-9707-c24d63b2bec5","ios":"levelo://app?vid=4272e66c-b06c-41e9-9707-c24d63b2bec5"},"vehicle_type_id":"4","last_reported":1745497184,"current_range_meters":6800,"station_id":"ce4bgip2rcd13ifvqbb0","pricing_plan_id":"cebpf4jnsgd1na2vs0mg"},{"bike_id":"8928d194-ec65-49ff-b383-415b8ab66e9d","system_id":"levelo_inurba_marseille","lat":43.28266,"lon":5.3507,"is_reserved":false,"is_disabled":false,"rental_uris":{"android":"levelo://app?vid=8928d194-ec65-49ff-b383-415b8ab66e9d","ios":"levelo://app?vid=8928d194-ec65-49ff-b383-415b8ab66e9d"},"vehicle_type_id":"4","last_reported":1745497184,"current_range_meters":6800,"station_id":"ce4bhbp2rcd13ifvqerg","pricing_plan_id":"cebpf4jnsgd1na2vs0mg"},{"bike_id":"81d52766-4322-4f31-ad8f-acdd72f79f76","system_id":"levelo_inurba_marseille","lat":43.27317,"lon":5.39078,"is_reserved":false,"is_disabled":false,"rental_uris":{"android":"levelo://app?vid=81d52766-4322-4f31-ad8f-acdd72f79f76","ios":"levelo://app?vid=81d52766-4322-4f31-ad8f-acdd72f79f76"},"vehicle_type_id":"4","last_reported":1745497184,"current_range_meters":6800,"station_id":"ce4bhgp2rcd13ifvqfe0","pricing_plan_id":"cebpf4jnsgd1na2vs0mg"},{"bike_id":"eff413d0-5ff3-4a1c-bb23-52a3cf0a8d6b","system_id":"levelo_inurba_marseille","lat":43.28463,"lon":5.3589,"is_reserved":false,"is_disabled":false,"rental_uris":{"android":"levelo://app?vid=eff413d0-5ff3-4a1c-bb23-52a3cf0a8d6b","ios":"levelo://app?vid=eff413d0-5ff3-4a1c-bb23-52a3cf0a8d6b"},"vehicle_type_id":"4","last_reported":1745497184,"current_range_meters":6800,"station_id":"ce4bhah2rcd13ifvqei0","pricing_plan_id":"cebpf4jnsgd1na2vs0mg"},{"bike_id":"b308c3a0-4879-4f61-9812-f7fea42ee0cd","system_id":"levelo_inurba_marseille","lat":43.30324,"lon":5.40438,"is_reserved":false,"is_disabled":false,"rental_uris":{"android":"levelo://app?vid=b308c3a0-4879-4f61-9812-f7fea42ee0cd","ios":"levelo://app?vid=b308c3a0-4879-4f61-9812-f7fea42ee0cd"},"vehicle_type_id":"4","last_reported":1745497184,"current_range_meters":7200,"station_id":"ce4bh012rcd13ifvqd10","pricing_plan_id":"cebpf4jnsgd1na2vs0mg"},{"bike_id":"7e9d26b8-b748-4e10-b3e2-977d9fd05087","system_id":"levelo_inurba_marseille","lat":43.32574,"lon":5.36154,"is_reserved":false,"is_disabled":false,"rental_uris":{"android":"levelo://app?vid=7e9d26b8-b748-4e10-b3e2-977d9fd05087","ios":"levelo://app?vid=7e9d26b8-b748-4e10-b3e2-977d9fd05087"},"vehicle_type_id":"4","last_reported":1745497184,"current_range_meters":7200,"station_id":"","pricing_plan_id":"cebpf4jnsgd1na2vs0mg"},{"bike_id":"dbf431ee-370e-44ce-8240-f1e565355740","system_id":"levelo_inurba_marseille","lat":43.28461,"lon":5.3589,"is_reserved":false,"is_disabled":false,"rental_uris":{"android":"levelo://app?vid=dbf431ee-370e-44ce-8240-f1e565355740","ios":"levelo://app?vid=dbf431ee-370e-44ce-8240-f1e565355740"},"vehicle_type_id":"4","last_reported":1745497184,"current_range_meters":7200,"station_id":"ce4bhah2rcd13ifvqei0","pricing_plan_id":"cebpf4jnsgd1na2vs0mg"},{"bike_id":"5209edca-48a6-4251-8f01-5b857eace412","system_id":"levelo_inurba_marseille","lat":43.29254,"lon":5.37641,"is_reserved":false,"is_disabled":false,"rental_uris":{"android":"levelo://app?vid=5209edca-48a6-4251-8f01-5b857eace412","ios":"levelo://app?vid=5209edca-48a6-4251-8f01-5b857eace412"},"vehicle_type_id":"4","last_reported":1745497184,"current_range_meters":7200,"station_id":"ce4bgi12rcd13ifvqb80","pricing_plan_id":"cebpf4jnsgd1na2vs0mg"},{"bike_id":"30704823-7a9c-4b12-af5d-93db18bfd3b9","system_id":"levelo_inurba_marseille","lat":43.28828,"lon":5.3993,"is_reserved":false,"is_disabled":false,"rental_uris":{"android":"levelo://app?vid=30704823-7a9c-4b12-af5d-93db18bfd3b9","ios":"levelo://app?vid=30704823-7a9c-4b12-af5d-93db18bfd3b9"},"vehicle_type_id":"4","last_reported":1745497184,"current_range_meters":7200,"station_id":"","pricing_plan_id":"cebpf4jnsgd1na2vs0mg"},{"bike_id":"3764156a-4b9b-46fa-b011-e581b1160bdf","system_id":"levelo_inurba_marseille","lat":43.25928,"lon":5.40904,"is_reserved":false,"is_disabled":true,"rental_uris":{"android":"levelo://app?vid=3764156a-4b9b-46fa-b011-e581b1160bdf","ios":"levelo://app?vid=3764156a-4b9b-46fa-b011-e581b1160bdf"},"vehicle_type_id":"4","last_reported":1745497184,"current_range_meters":8000,"station_id":"ce4bhm92rcd13ifvqglg","pricing_plan_id":"cebpf4jnsgd1na2vs0mg"},{"bike_id":"799c3be9-a85e-41b5-9c0f-733a51ef4fcf","system_id":"levelo_inurba_marseille","lat":43.29806,"lon":5.38098,"is_reserved":false,"is_disabled":false,"rental_uris":{"android":"levelo://app?vid=799c3be9-a85e-41b5-9c0f-733a51ef4fcf","ios":"levelo://app?vid=799c3be9-a85e-41b5-9c0f-733a51ef4fcf"},"vehicle_type_id":"4","last_reported":1745497184,"current_range_meters":8000,"station_id":"ce4bgip2rcd13ifvqbb0","pricing_plan_id":"cebpf4jnsgd1na2vs0mg"},{"bike_id":"c7ba963a-ceec-4d21-81fd-30c671e1b7c3","system_id":"levelo_inurba_marseille","lat":43.28428,"lon":5.34987,"is_reserved":false,"is_disabled":false,"rental_uris":{"android":"levelo://app?vid=c7ba963a-ceec-4d21-81fd-30c671e1b7c3","ios":"levelo://app?vid=c7ba963a-ceec-4d21-81fd-30c671e1b7c3"},"vehicle_type_id":"4","last_reported":1745497184,"current_range_meters":8000,"station_id":"ce4bhbh2rcd13ifvqepg","pricing_plan_id":"cebpf4jnsgd1na2vs0mg"},{"bike_id":"e1b4d34a-4393-42aa-a2df-f7472dad4eae","system_id":"levelo_inurba_marseille","lat":43.25058,"lon":5.39511,"is_reserved":false,"is_disabled":false,"rental_uris":{"android":"levelo://app?vid=e1b4d34a-4393-42aa-a2df-f7472dad4eae","ios":"levelo://app?vid=e1b4d34a-4393-42aa-a2df-f7472dad4eae"},"vehicle_type_id":"4","last_reported":1745497184,"current_range_meters":8000,"station_id":"ce4bhm12rcd13ifvqgkg","pricing_plan_id":"cebpf4jnsgd1na2vs0mg"},{"bike_id":"0d8f3bdb-07ba-4f75-aa57-02bafddd56d8","system_id":"levelo_inurba_marseille","lat":43.28494,"lon":5.38404,"is_reserved":false,"is_disabled":false,"rental_uris":{"android":"levelo://app?vid=0d8f3bdb-07ba-4f75-aa57-02bafddd56d8","ios":"levelo://app?vid=0d8f3bdb-07ba-4f75-aa57-02bafddd56d8"},"vehicle_type_id":"4","last_reported":1745497184,"current_range_meters":8000,"station_id":"ce4bh512rcd13ifvqe3g","pricing_plan_id":"cebpf4jnsgd1na2vs0mg"},{"bike_id":"70789a83-72c6-40ed-9de1-36266c05cba1","system_id":"levelo_inurba_marseille","lat":43.28414,"lon":5.34981,"is_reserved":false,"is_disabled":false,"rental_uris":{"android":"levelo://app?vid=70789a83-72c6-40ed-9de1-36266c05cba1","ios":"levelo://app?vid=70789a83-72c6-40ed-9de1-36266c05cba1"},"vehicle_type_id":"4","last_reported":1745497184,"current_range_meters":8000,"station_id":"ce4bhbh2rcd13ifvqepg","pricing_plan_id":"cebpf4jnsgd1na2vs0mg"},{"bike_id":"09d2c752-9a74-40fe-82d6-7b682260b252","system_id":"levelo_inurba_marseille","lat":43.32549,"lon":5.41431,"is_reserved":false,"is_disabled":false,"rental_uris":{"android":"levelo://app?vid=09d2c752-9a74-40fe-82d6-7b682260b252","ios":"levelo://app?vid=09d2c752-9a74-40fe-82d6-7b682260b252"},"vehicle_type_id":"4","last_reported":1745497184,"current_range_meters":8000,"station_id":"ce4bhq12rcd13ifvqhhg","pricing_plan_id":"cebpf4jnsgd1na2vs0mg"},{"bike_id":"5619e18e-1619-4dd2-ac7f-6607b4205237","system_id":"levelo_inurba_marseille","lat":43.28714,"lon":5.37939,"is_reserved":false,"is_disabled":false,"rental_uris":{"android":"levelo://app?vid=5619e18e-1619-4dd2-ac7f-6607b4205237","ios":"levelo://app?vid=5619e18e-1619-4dd2-ac7f-6607b4205237"},"vehicle_type_id":"4","last_reported":1745497184,"current_range_meters":8000,"station_id":"ce4bh9p2rcd13ifvqec0","pricing_plan_id":"cebpf4jnsgd1na2vs0mg"},{"bike_id":"3eff23ee-89f3-43e1-83a5-5a12bb1fc857","system_id":"levelo_inurba_marseille","lat":43.265581,"lon":5.380178,"is_reserved":false,"is_disabled":false,"rental_uris":{"android":"levelo://app?vid=3eff23ee-89f3-43e1-83a5-5a12bb1fc857","ios":"levelo://app?vid=3eff23ee-89f3-43e1-83a5-5a12bb1fc857"},"vehicle_type_id":"4","last_reported":1745497184,"current_range_meters":8000,"station_id":"ce4bhgp2rcd13ifvqfd0","pricing_plan_id":"cebpf4jnsgd1na2vs0mg"},{"bike_id":"3c5013bb-f9d8-412c-bab2-0845823285ee","system_id":"levelo_inurba_marseille","lat":43.29801,"lon":5.38132,"is_reserved":false,"is_disabled":false,"rental_uris":{"android":"levelo://app?vid=3c5013bb-f9d8-412c-bab2-0845823285ee","ios":"levelo://app?vid=3c5013bb-f9d8-412c-bab2-0845823285ee"},"vehicle_type_id":"4","last_reported":1745497184,"current_range_meters":8000,"station_id":"ce4bgip2rcd13ifvqbb0","pricing_plan_id":"cebpf4jnsgd1na2vs0mg"},{"bike_id":"048a15f1-eb3b-4725-ab98-391803942460","system_id":"levelo_inurba_marseille","lat":43.29359,"lon":5.37846,"is_reserved":false,"is_disabled":false,"rental_uris":{"android":"levelo://app?vid=048a15f1-eb3b-4725-ab98-391803942460","ios":"levelo://app?vid=048a15f1-eb3b-4725-ab98-391803942460"},"vehicle_type_id":"4","last_reported":1745497184,"current_range_meters":8000,"station_id":"ce4bgjh2rcd13ifvqbf0","pricing_plan_id":"cebpf4jnsgd1na2vs0mg"},{"bike_id":"92c3b340-d069-4f1c-b55b-44c52f19597b","system_id":"levelo_inurba_marseille","lat":43.28251,"lon":5.37792,"is_reserved":false,"is_disabled":false,"rental_uris":{"android":"levelo://app?vid=92c3b340-d069-4f1c-b55b-44c52f19597b","ios":"levelo://app?vid=92c3b340-d069-4f1c-b55b-44c52f19597b"},"vehicle_type_id":"4","last_reported":1745497184,"current_range_meters":8400,"station_id":"","pricing_plan_id":"cebpf4jnsgd1na2vs0mg"},{"bike_id":"d06313d5-82ac-46ed-8543-bc470e18d86f","system_id":"levelo_inurba_marseille","lat":43.30209,"lon":5.39476,"is_reserved":false,"is_disabled":false,"rental_uris":{"android":"levelo://app?vid=d06313d5-82ac-46ed-8543-bc470e18d86f","ios":"levelo://app?vid=d06313d5-82ac-46ed-8543-bc470e18d86f"},"vehicle_type_id":"4","last_reported":1745497184,"current_range_meters":8400,"station_id":"ce4bh0p2rcd13ifvqd70","pricing_plan_id":"cebpf4jnsgd1na2vs0mg"},{"bike_id":"30c39418-1cc5-4f80-8e65-7f8140ab4e06","system_id":"levelo_inurba_marseille","lat":43.30327,"lon":5.40446,"is_reserved":false,"is_disabled":false,"rental_uris":{"android":"levelo://app?vid=30c39418-1cc5-4f80-8e65-7f8140ab4e06","ios":"levelo://app?vid=30c39418-1cc5-4f80-8e65-7f8140ab4e06"},"vehicle_type_id":"4","last_reported":1745497184,"current_range_meters":8400,"station_id":"ce4bh012rcd13ifvqd10","pricing_plan_id":"cebpf4jnsgd1na2vs0mg"},{"bike_id":"71d43591-6c55-43f1-b9fe-cd9e903a2e61","system_id":"levelo_inurba_marseille","lat":43.21197,"lon":5.35069,"is_reserved":false,"is_disabled":false,"rental_uris":{"android":"levelo://app?vid=71d43591-6c55-43f1-b9fe-cd9e903a2e61","ios":"levelo://app?vid=71d43591-6c55-43f1-b9fe-cd9e903a2e61"},"vehicle_type_id":"4","last_reported":1745497184,"current_range_meters":8400,"station_id":"st_cvj6sg6p6f1abm77japg","pricing_plan_id":"cebpf4jnsgd1na2vs0mg"},{"bike_id":"bad3ac07-3371-4cc2-b0de-a90ae47ecbf6","system_id":"levelo_inurba_marseille","lat":43.26221,"lon":5.37439,"is_reserved":false,"is_disabled":false,"rental_uris":{"android":"levelo://app?vid=bad3ac07-3371-4cc2-b0de-a90ae47ecbf6","ios":"levelo://app?vid=bad3ac07-3371-4cc2-b0de-a90ae47ecbf6"},"vehicle_type_id":"4","last_reported":1745497184,"current_range_meters":8400,"station_id":"ce4bhgp2rcd13ifvqfc0","pricing_plan_id":"cebpf4jnsgd1na2vs0mg"},{"bike_id":"64050abf-7ebd-48ea-b089-1ad6b27b521d","system_id":"levelo_inurba_marseille","lat":43.30108,"lon":5.39843,"is_reserved":false,"is_disabled":false,"rental_uris":{"android":"levelo://app?vid=64050abf-7ebd-48ea-b089-1ad6b27b521d","ios":"levelo://app?vid=64050abf-7ebd-48ea-b089-1ad6b27b521d"},"vehicle_type_id":"4","last_reported":1745497184,"current_range_meters":8400,"station_id":"ce4bh0h2rcd13ifvqd40","pricing_plan_id":"cebpf4jnsgd1na2vs0mg"},{"bike_id":"c97a8321-d4b7-4562-8ef3-855a605e6cf6","system_id":"levelo_inurba_marseille","lat":43.25916,"lon":5.40868,"is_reserved":false,"is_disabled":false,"rental_uris":{"android":"levelo://app?vid=c97a8321-d4b7-4562-8ef3-855a605e6cf6","ios":"levelo://app?vid=c97a8321-d4b7-4562-8ef3-855a605e6cf6"},"vehicle_type_id":"4","last_reported":1745497184,"current_range_meters":8400,"station_id":"ce4bhm92rcd13ifvqglg","pricing_plan_id":"cebpf4jnsgd1na2vs0mg"},{"bike_id":"57822371-88df-4121-ae8e-494b238d35e6","system_id":"levelo_inurba_marseille","lat":43.29801,"lon":5.38121,"is_reserved":false,"is_disabled":false,"rental_uris":{"android":"levelo://app?vid=57822371-88df-4121-ae8e-494b238d35e6","ios":"levelo://app?vid=57822371-88df-4121-ae8e-494b238d35e6"},"vehicle_type_id":"4","last_reported":1745497184,"current_range_meters":8400,"station_id":"ce4bgip2rcd13ifvqbb0","pricing_plan_id":"cebpf4jnsgd1na2vs0mg"},{"bike_id":"db8498af-1299-4aeb-a21e-0e40af99e9a0","system_id":"levelo_inurba_marseille","lat":43.2657,"lon":5.39001,"is_reserved":false,"is_disabled":false,"rental_uris":{"android":"levelo://app?vid=db8498af-1299-4aeb-a21e-0e40af99e9a0","ios":"levelo://app?vid=db8498af-1299-4aeb-a21e-0e40af99e9a0"},"vehicle_type_id":"4","last_reported":1745497184,"current_range_meters":8400,"station_id":"ce4bhe12rcd13ifvqf30","pricing_plan_id":"cebpf4jnsgd1na2vs0mg"},{"bike_id":"673bfb13-b1cb-4792-b115-817faf3c208f","system_id":"levelo_inurba_marseille","lat":43.30448,"lon":5.37869,"is_reserved":false,"is_disabled":false,"rental_uris":{"android":"levelo://app?vid=673bfb13-b1cb-4792-b115-817faf3c208f","ios":"levelo://app?vid=673bfb13-b1cb-4792-b115-817faf3c208f"},"vehicle_type_id":"4","last_reported":1745497184,"current_range_meters":8800,"station_id":"ce4bgup2rcd13ifvqcn0","pricing_plan_id":"cebpf4jnsgd1na2vs0mg"},{"bike_id":"f7204dbe-aaf9-4564-8c1a-52cfb9b35b31","system_id":"levelo_inurba_marseille","lat":43.29843,"lon":5.3627,"is_reserved":false,"is_disabled":false,"rental_uris":{"android":"levelo://app?vid=f7204dbe-aaf9-4564-8c1a-52cfb9b35b31","ios":"levelo://app?vid=f7204dbe-aaf9-4564-8c1a-52cfb9b35b31"},"vehicle_type_id":"4","last_reported":1745497184,"current_range_meters":8800,"station_id":"ce4bgpp2rcd13ifvqc3g","pricing_plan_id":"cebpf4jnsgd1na2vs0mg"},{"bike_id":"0fcda528-fe2b-4793-b6ac-ce16fbdf6f82","system_id":"levelo_inurba_marseille","lat":43.25574,"lon":5.3825,"is_reserved":false,"is_disabled":false,"rental_uris":{"android":"levelo://app?vid=0fcda528-fe2b-4793-b6ac-ce16fbdf6f82","ios":"levelo://app?vid=0fcda528-fe2b-4793-b6ac-ce16fbdf6f82"},"vehicle_type_id":"4","last_reported":1745497184,"current_range_meters":8800,"station_id":"ce4bhih2rcd13ifvqfs0","pricing_plan_id":"cebpf4jnsgd1na2vs0mg"},{"bike_id":"21d6dfda-1f1e-40b5-a34f-4655caea0f83","system_id":"levelo_inurba_marseille","lat":43.23154,"lon":5.43705,"is_reserved":false,"is_disabled":false,"rental_uris":{"android":"levelo://app?vid=21d6dfda-1f1e-40b5-a34f-4655caea0f83","ios":"levelo://app?vid=21d6dfda-1f1e-40b5-a34f-4655caea0f83"},"vehicle_type_id":"4","last_reported":1745497184,"current_range_meters":8800,"station_id":"ce4bhmp2rcd13ifvqgog","pricing_plan_id":"cebpf4jnsgd1na2vs0mg"},{"bike_id":"a8ff2014-be25-4781-a8a6-610748bb63c4","system_id":"levelo_inurba_marseille","lat":43.292027,"lon":5.393092,"is_reserved":false,"is_disabled":false,"rental_uris":{"android":"levelo://app?vid=a8ff2014-be25-4781-a8a6-610748bb63c4","ios":"levelo://app?vid=a8ff2014-be25-4781-a8a6-610748bb63c4"},"vehicle_type_id":"4","last_reported":1745497184,"current_range_meters":9200,"station_id":"ce4bh192rcd13ifvqdd0","pricing_plan_id":"cebpf4jnsgd1na2vs0mg"},{"bike_id":"def8e2d8-9ee9-4bb7-a5bd-2cd5c9567aa3","system_id":"levelo_inurba_marseille","lat":43.273712,"lon":5.36245,"is_reserved":false,"is_disabled":false,"rental_uris":{"android":"levelo://app?vid=def8e2d8-9ee9-4bb7-a5bd-2cd5c9567aa3","ios":"levelo://app?vid=def8e2d8-9ee9-4bb7-a5bd-2cd5c9567aa3"},"vehicle_type_id":"4","last_reported":1745497184,"current_range_meters":9200,"station_id":"ce4bhbh2rcd13ifvqeo0","pricing_plan_id":"cebpf4jnsgd1na2vs0mg"},{"bike_id":"18508b20-be95-4d9e-81b7-38fb90a79b6f","system_id":"levelo_inurba_marseille","lat":43.211945,"lon":5.35071,"is_reserved":false,"is_disabled":false,"rental_uris":{"android":"levelo://app?vid=18508b20-be95-4d9e-81b7-38fb90a79b6f","ios":"levelo://app?vid=18508b20-be95-4d9e-81b7-38fb90a79b6f"},"vehicle_type_id":"4","last_reported":1745497184,"current_range_meters":9200,"station_id":"st_cvj6sg6p6f1abm77japg","pricing_plan_id":"cebpf4jnsgd1na2vs0mg"},{"bike_id":"5196f781-43e7-4106-be7c-d885b89970a8","system_id":"levelo_inurba_marseille","lat":43.30135,"lon":5.38787,"is_reserved":false,"is_disabled":false,"rental_uris":{"android":"levelo://app?vid=5196f781-43e7-4106-be7c-d885b89970a8","ios":"levelo://app?vid=5196f781-43e7-4106-be7c-d885b89970a8"},"vehicle_type_id":"4","last_reported":1745497184,"current_range_meters":9200,"station_id":"ce4bghh2rcd13ifvqb60","pricing_plan_id":"cebpf4jnsgd1na2vs0mg"},{"bike_id":"38cd91d6-6906-4699-8241-165313322078","system_id":"levelo_inurba_marseille","lat":43.21756,"lon":5.34609,"is_reserved":false,"is_disabled":false,"rental_uris":{"android":"levelo://app?vid=38cd91d6-6906-4699-8241-165313322078","ios":"levelo://app?vid=38cd91d6-6906-4699-8241-165313322078"},"vehicle_type_id":"4","last_reported":1745497184,"current_range_meters":9200,"station_id":"","pricing_plan_id":"cebpf4jnsgd1na2vs0mg"},{"bike_id":"2bc67e3d-5d90-40dd-8eff-0b952e9ce2fe","system_id":"levelo_inurba_marseille","lat":43.29919,"lon":5.37485,"is_reserved":false,"is_disabled":false,"rental_uris":{"android":"levelo://app?vid=2bc67e3d-5d90-40dd-8eff-0b952e9ce2fe","ios":"levelo://app?vid=2bc67e3d-5d90-40dd-8eff-0b952e9ce2fe"},"vehicle_type_id":"4","last_reported":1745497184,"current_range_meters":9600,"station_id":"ce4bgjh2rcd13ifvqbg0","pricing_plan_id":"cebpf4jnsgd1na2vs0mg"},{"bike_id":"ad6876a6-33a2-4502-8d1a-45a1749dc578","system_id":"levelo_inurba_marseille","lat":43.30945,"lon":5.36857,"is_reserved":false,"is_disabled":false,"rental_uris":{"android":"levelo://app?vid=ad6876a6-33a2-4502-8d1a-45a1749dc578","ios":"levelo://app?vid=ad6876a6-33a2-4502-8d1a-45a1749dc578"},"vehicle_type_id":"4","last_reported":1745497184,"current_range_meters":9600,"station_id":"ce4bgn92rcd13ifvqbvg","pricing_plan_id":"cebpf4jnsgd1na2vs0mg"},{"bike_id":"132aa97a-20ce-44ac-a4e2-503201da8888","system_id":"levelo_inurba_marseille","lat":43.29536,"lon":5.37485,"is_reserved":false,"is_disabled":false,"rental_uris":{"android":"levelo://app?vid=132aa97a-20ce-44ac-a4e2-503201da8888","ios":"levelo://app?vid=132aa97a-20ce-44ac-a4e2-503201da8888"},"vehicle_type_id":"4","last_reported":1745497184,"current_range_meters":9600,"station_id":"ce4bgkp2rcd13ifvqbmg","pricing_plan_id":"cebpf4jnsgd1na2vs0mg"},{"bike_id":"15aae559-93f3-42c9-9820-7aa209e6c098","system_id":"levelo_inurba_marseille","lat":43.28953,"lon":5.36623,"is_reserved":false,"is_disabled":false,"rental_uris":{"android":"levelo://app?vid=15aae559-93f3-42c9-9820-7aa209e6c098","ios":"levelo://app?vid=15aae559-93f3-42c9-9820-7aa209e6c098"},"vehicle_type_id":"4","last_reported":1745497184,"current_range_meters":9600,"station_id":"ce4bhap2rcd13ifvqek0","pricing_plan_id":"cebpf4jnsgd1na2vs0mg"},{"bike_id":"17735294-3d7e-43b1-8a66-2885426421db","system_id":"levelo_inurba_marseille","lat":43.23142,"lon":5.43746,"is_reserved":false,"is_disabled":false,"rental_uris":{"android":"levelo://app?vid=17735294-3d7e-43b1-8a66-2885426421db","ios":"levelo://app?vid=17735294-3d7e-43b1-8a66-2885426421db"},"vehicle_type_id":"4","last_reported":1745497184,"current_range_meters":9600,"station_id":"ce4bhmp2rcd13ifvqgog","pricing_plan_id":"cebpf4jnsgd1na2vs0mg"},{"bike_id":"b67dc979-01d9-41ff-9a39-77585706d560","system_id":"levelo_inurba_marseille","lat":43.30943,"lon":5.39038,"is_reserved":false,"is_disabled":false,"rental_uris":{"android":"levelo://app?vid=b67dc979-01d9-41ff-9a39-77585706d560","ios":"levelo://app?vid=b67dc979-01d9-41ff-9a39-77585706d560"},"vehicle_type_id":"4","last_reported":1745497184,"current_range_meters":9600,"station_id":"ce4bgup2rcd13ifvqco0","pricing_plan_id":"cebpf4jnsgd1na2vs0mg"},{"bike_id":"7269da80-93c7-401d-b3cc-bd5d3ba0c7ed","system_id":"levelo_inurba_marseille","lat":43.27373,"lon":5.36254,"is_reserved":false,"is_disabled":false,"rental_uris":{"android":"levelo://app?vid=7269da80-93c7-401d-b3cc-bd5d3ba0c7ed","ios":"levelo://app?vid=7269da80-93c7-401d-b3cc-bd5d3ba0c7ed"},"vehicle_type_id":"4","last_reported":1745497184,"current_range_meters":9600,"station_id":"ce4bhbh2rcd13ifvqeo0","pricing_plan_id":"cebpf4jnsgd1na2vs0mg"},{"bike_id":"a26be27c-222a-46fa-a454-67d9a0505c04","system_id":"levelo_inurba_marseille","lat":43.27553,"lon":5.359765,"is_reserved":false,"is_disabled":false,"rental_uris":{"android":"levelo://app?vid=a26be27c-222a-46fa-a454-67d9a0505c04","ios":"levelo://app?vid=a26be27c-222a-46fa-a454-67d9a0505c04"},"vehicle_type_id":"4","last_reported":1745497184,"current_range_meters":8800,"station_id":"ce4bgj92rcd13ifvqbe0","pricing_plan_id":"cebpf4jnsgd1na2vs0mg"},{"bike_id":"f8836fcd-096b-4113-9a2f-5e7062b1fff8","system_id":"levelo_inurba_marseille","lat":43.27206,"lon":5.39173,"is_reserved":false,"is_disabled":false,"rental_uris":{"android":"levelo://app?vid=f8836fcd-096b-4113-9a2f-5e7062b1fff8","ios":"levelo://app?vid=f8836fcd-096b-4113-9a2f-5e7062b1fff8"},"vehicle_type_id":"4","last_reported":1745497184,"current_range_meters":10000,"station_id":"ce4bhhp2rcd13ifvqfm0","pricing_plan_id":"cebpf4jnsgd1na2vs0mg"},{"bike_id":"d7458de1-1305-4b5e-bf79-4cb3ee26db41","system_id":"levelo_inurba_marseille","lat":43.3095,"lon":5.39034,"is_reserved":false,"is_disabled":false,"rental_uris":{"android":"levelo://app?vid=d7458de1-1305-4b5e-bf79-4cb3ee26db41","ios":"levelo://app?vid=d7458de1-1305-4b5e-bf79-4cb3ee26db41"},"vehicle_type_id":"4","last_reported":1745497184,"current_range_meters":10000,"station_id":"ce4bgup2rcd13ifvqco0","pricing_plan_id":"cebpf4jnsgd1na2vs0mg"},{"bike_id":"ced371fa-238b-403c-9072-4d8b458dcd45","system_id":"levelo_inurba_marseille","lat":43.26566,"lon":5.3901,"is_reserved":false,"is_disabled":false,"rental_uris":{"android":"levelo://app?vid=ced371fa-238b-403c-9072-4d8b458dcd45","ios":"levelo://app?vid=ced371fa-238b-403c-9072-4d8b458dcd45"},"vehicle_type_id":"4","last_reported":1745497184,"current_range_meters":10000,"station_id":"ce4bhe12rcd13ifvqf30","pricing_plan_id":"cebpf4jnsgd1na2vs0mg"},{"bike_id":"9f95d46a-0977-4965-ba5e-33e037edd5b9","system_id":"levelo_inurba_marseille","lat":43.28835,"lon":5.35836,"is_reserved":false,"is_disabled":false,"rental_uris":{"android":"levelo://app?vid=9f95d46a-0977-4965-ba5e-33e037edd5b9","ios":"levelo://app?vid=9f95d46a-0977-4965-ba5e-33e037edd5b9"},"vehicle_type_id":"4","last_reported":1745497184,"current_range_meters":10000,"station_id":"ce4bhb12rcd13ifvqem0","pricing_plan_id":"cebpf4jnsgd1na2vs0mg"},{"bike_id":"8d053f54-8181-4367-a214-b0fb306bf8ed","system_id":"levelo_inurba_marseille","lat":43.289511,"lon":5.381746,"is_reserved":false,"is_disabled":false,"rental_uris":{"android":"levelo://app?vid=8d053f54-8181-4367-a214-b0fb306bf8ed","ios":"levelo://app?vid=8d053f54-8181-4367-a214-b0fb306bf8ed"},"vehicle_type_id":"4","last_reported":1745497184,"current_range_meters":10000,"station_id":"ce4bhoh2rcd13ifvqh5g","pricing_plan_id":"cebpf4jnsgd1na2vs0mg"},{"bike_id":"84ee360e-59d5-4990-bc4c-daa5bd2eb46b","system_id":"levelo_inurba_marseille","lat":43.265,"lon":5.39532,"is_reserved":false,"is_disabled":false,"rental_uris":{"android":"levelo://app?vid=84ee360e-59d5-4990-bc4c-daa5bd2eb46b","ios":"levelo://app?vid=84ee360e-59d5-4990-bc4c-daa5bd2eb46b"},"vehicle_type_id":"4","last_reported":1745497184,"current_range_meters":10800,"station_id":"ce4bhi12rcd13ifvqfq0","pricing_plan_id":"cebpf4jnsgd1na2vs0mg"},{"bike_id":"e81cd03a-2402-4b30-bbe8-c9f6895e04fb","system_id":"levelo_inurba_marseille","lat":43.2953,"lon":5.37502,"is_reserved":false,"is_disabled":false,"rental_uris":{"android":"levelo://app?vid=e81cd03a-2402-4b30-bbe8-c9f6895e04fb","ios":"levelo://app?vid=e81cd03a-2402-4b30-bbe8-c9f6895e04fb"},"vehicle_type_id":"4","last_reported":1745497184,"current_range_meters":10800,"station_id":"ce4bgkp2rcd13ifvqbmg","pricing_plan_id":"cebpf4jnsgd1na2vs0mg"},{"bike_id":"0a819f92-1b9b-4543-8059-7c0bac1c79a9","system_id":"levelo_inurba_marseille","lat":43.27489,"lon":5.42463,"is_reserved":false,"is_disabled":false,"rental_uris":{"android":"levelo://app?vid=0a819f92-1b9b-4543-8059-7c0bac1c79a9","ios":"levelo://app?vid=0a819f92-1b9b-4543-8059-7c0bac1c79a9"},"vehicle_type_id":"4","last_reported":1745497184,"current_range_meters":10800,"station_id":"ce4bhn92rcd13ifvqgrg","pricing_plan_id":"cebpf4jnsgd1na2vs0mg"},{"bike_id":"530dfa93-faa5-4010-8c00-fa566dabe2a2","system_id":"levelo_inurba_marseille","lat":43.23146,"lon":5.43716,"is_reserved":false,"is_disabled":false,"rental_uris":{"android":"levelo://app?vid=530dfa93-faa5-4010-8c00-fa566dabe2a2","ios":"levelo://app?vid=530dfa93-faa5-4010-8c00-fa566dabe2a2"},"vehicle_type_id":"4","last_reported":1745497184,"current_range_meters":11200,"station_id":"ce4bhmp2rcd13ifvqgog","pricing_plan_id":"cebpf4jnsgd1na2vs0mg"},{"bike_id":"87750f4d-a4d6-404c-97e5-b28f83b1ee50","system_id":"levelo_inurba_marseille","lat":43.30429,"lon":5.3975,"is_reserved":false,"is_disabled":false,"rental_uris":{"android":"levelo://app?vid=87750f4d-a4d6-404c-97e5-b28f83b1ee50","ios":"levelo://app?vid=87750f4d-a4d6-404c-97e5-b28f83b1ee50"},"vehicle_type_id":"4","last_reported":1745497184,"current_range_meters":11200,"station_id":"ce4bh092rcd13ifvqd20","pricing_plan_id":"cebpf4jnsgd1na2vs0mg"},{"bike_id":"11ce02ec-5de1-4d28-b35b-b9d2498a4135","system_id":"levelo_inurba_marseille","lat":43.23073,"lon":5.35482,"is_reserved":false,"is_disabled":false,"rental_uris":{"android":"levelo://app?vid=11ce02ec-5de1-4d28-b35b-b9d2498a4135","ios":"levelo://app?vid=11ce02ec-5de1-4d28-b35b-b9d2498a4135"},"vehicle_type_id":"4","last_reported":1745497184,"current_range_meters":11200,"station_id":"cpo3342slgdg3j2ifvpg","pricing_plan_id":"cebpf4jnsgd1na2vs0mg"},{"bike_id":"c0525dd3-6761-46de-888f-ffa7b994ee85","system_id":"levelo_inurba_marseille","lat":43.23152,"lon":5.43706,"is_reserved":false,"is_disabled":false,"rental_uris":{"android":"levelo://app?vid=c0525dd3-6761-46de-888f-ffa7b994ee85","ios":"levelo://app?vid=c0525dd3-6761-46de-888f-ffa7b994ee85"},"vehicle_type_id":"4","last_reported":1745497184,"current_range_meters":11200,"station_id":"ce4bhmp2rcd13ifvqgog","pricing_plan_id":"cebpf4jnsgd1na2vs0mg"},{"bike_id":"9473a7e5-675f-4a4b-8c17-4cf3d6ab370e","system_id":"levelo_inurba_marseille","lat":43.32366,"lon":5.42058,"is_reserved":false,"is_disabled":false,"rental_uris":{"android":"levelo://app?vid=9473a7e5-675f-4a4b-8c17-4cf3d6ab370e","ios":"levelo://app?vid=9473a7e5-675f-4a4b-8c17-4cf3d6ab370e"},"vehicle_type_id":"4","last_reported":1745497184,"current_range_meters":11200,"station_id":"","pricing_plan_id":"cebpf4jnsgd1na2vs0mg"},{"bike_id":"30e08c8c-a2b6-45d6-9704-9460af4f4d07","system_id":"levelo_inurba_marseille","lat":43.3109,"lon":5.42431,"is_reserved":false,"is_disabled":false,"rental_uris":{"android":"levelo://app?vid=30e08c8c-a2b6-45d6-9704-9460af4f4d07","ios":"levelo://app?vid=30e08c8c-a2b6-45d6-9704-9460af4f4d07"},"vehicle_type_id":"4","last_reported":1745497184,"current_range_meters":11200,"station_id":"ce4bhp92rcd13ifvqhag","pricing_plan_id":"cebpf4jnsgd1na2vs0mg"},{"bike_id":"d29fa7f7-0526-43fc-9c27-0ab1ad381822","system_id":"levelo_inurba_marseille","lat":43.27506,"lon":5.42446,"is_reserved":false,"is_disabled":false,"rental_uris":{"android":"levelo://app?vid=d29fa7f7-0526-43fc-9c27-0ab1ad381822","ios":"levelo://app?vid=d29fa7f7-0526-43fc-9c27-0ab1ad381822"},"vehicle_type_id":"4","last_reported":1745497184,"current_range_meters":11600,"station_id":"ce4bhn92rcd13ifvqgrg","pricing_plan_id":"cebpf4jnsgd1na2vs0mg"},{"bike_id":"9c384374-ba27-49f8-a6e4-2c78b2db4c5a","system_id":"levelo_inurba_marseille","lat":43.27495,"lon":5.42445,"is_reserved":false,"is_disabled":false,"rental_uris":{"android":"levelo://app?vid=9c384374-ba27-49f8-a6e4-2c78b2db4c5a","ios":"levelo://app?vid=9c384374-ba27-49f8-a6e4-2c78b2db4c5a"},"vehicle_type_id":"4","last_reported":1745497184,"current_range_meters":11600,"station_id":"ce4bhn92rcd13ifvqgrg","pricing_plan_id":"cebpf4jnsgd1na2vs0mg"},{"bike_id":"3e051254-b354-41de-8314-f45869cba3a1","system_id":"levelo_inurba_marseille","lat":43.278327,"lon":5.392027,"is_reserved":false,"is_disabled":false,"rental_uris":{"android":"levelo://app?vid=3e051254-b354-41de-8314-f45869cba3a1","ios":"levelo://app?vid=3e051254-b354-41de-8314-f45869cba3a1"},"vehicle_type_id":"4","last_reported":1745497184,"current_range_meters":11600,"station_id":"ce4bhjp2rcd13ifvqga0","pricing_plan_id":"cebpf4jnsgd1na2vs0mg"},{"bike_id":"8e06b416-2126-4dce-89a4-57b4a377f349","system_id":"levelo_inurba_marseille","lat":43.28372,"lon":5.38621,"is_reserved":false,"is_disabled":false,"rental_uris":{"android":"levelo://app?vid=8e06b416-2126-4dce-89a4-57b4a377f349","ios":"levelo://app?vid=8e06b416-2126-4dce-89a4-57b4a377f349"},"vehicle_type_id":"4","last_reported":1745497184,"current_range_meters":11600,"station_id":"ce4bh492rcd13ifvqdvg","pricing_plan_id":"cebpf4jnsgd1na2vs0mg"},{"bike_id":"0a4aab9f-8a71-4fe1-9d7a-a1171198a2d7","system_id":"levelo_inurba_marseille","lat":43.23127,"lon":5.43736,"is_reserved":false,"is_disabled":false,"rental_uris":{"android":"levelo://app?vid=0a4aab9f-8a71-4fe1-9d7a-a1171198a2d7","ios":"levelo://app?vid=0a4aab9f-8a71-4fe1-9d7a-a1171198a2d7"},"vehicle_type_id":"4","last_reported":1745497184,"current_range_meters":11600,"station_id":"ce4bhmp2rcd13ifvqgog","pricing_plan_id":"cebpf4jnsgd1na2vs0mg"},{"bike_id":"f599c4ec-d29f-4100-8139-bbc984a84ac3","system_id":"levelo_inurba_marseille","lat":43.29279,"lon":5.36847,"is_reserved":false,"is_disabled":false,"rental_uris":{"android":"levelo://app?vid=f599c4ec-d29f-4100-8139-bbc984a84ac3","ios":"levelo://app?vid=f599c4ec-d29f-4100-8139-bbc984a84ac3"},"vehicle_type_id":"4","last_reported":1745497184,"current_range_meters":11600,"station_id":"ce4bhbp2rcd13ifvqesg","pricing_plan_id":"cebpf4jnsgd1na2vs0mg"},{"bike_id":"cc8867db-8fb6-425a-82c1-702bef47e548","system_id":"levelo_inurba_marseille","lat":43.28104,"lon":5.37846,"is_reserved":false,"is_disabled":false,"rental_uris":{"android":"levelo://app?vid=cc8867db-8fb6-425a-82c1-702bef47e548","ios":"levelo://app?vid=cc8867db-8fb6-425a-82c1-702bef47e548"},"vehicle_type_id":"4","last_reported":1745497184,"current_range_meters":11600,"station_id":"ce4bha12rcd13ifvqee0","pricing_plan_id":"cebpf4jnsgd1na2vs0mg"},{"bike_id":"96cf37f8-73a7-4ad6-9c89-428bbe32ac5c","system_id":"levelo_inurba_marseille","lat":43.24075,"lon":5.377524,"is_reserved":false,"is_disabled":false,"rental_uris":{"android":"levelo://app?vid=96cf37f8-73a7-4ad6-9c89-428bbe32ac5c","ios":"levelo://app?vid=96cf37f8-73a7-4ad6-9c89-428bbe32ac5c"},"vehicle_type_id":"4","last_reported":1745497184,"current_range_meters":12000,"station_id":"ce4bhnp2rcd13ifvqgvg","pricing_plan_id":"cebpf4jnsgd1na2vs0mg"},{"bike_id":"df11b469-c9ef-41ef-a3ff-e21b4cfee7c7","system_id":"levelo_inurba_marseille","lat":43.32355,"lon":5.36752,"is_reserved":false,"is_disabled":false,"rental_uris":{"android":"levelo://app?vid=df11b469-c9ef-41ef-a3ff-e21b4cfee7c7","ios":"levelo://app?vid=df11b469-c9ef-41ef-a3ff-e21b4cfee7c7"},"vehicle_type_id":"4","last_reported":1745497184,"current_range_meters":12000,"station_id":"ce4bhsh2rcd13ifvqi2g","pricing_plan_id":"cebpf4jnsgd1na2vs0mg"},{"bike_id":"46374c49-3adc-4c5a-8966-e00f056c0d57","system_id":"levelo_inurba_marseille","lat":43.27846,"lon":5.35442,"is_reserved":false,"is_disabled":false,"rental_uris":{"android":"levelo://app?vid=46374c49-3adc-4c5a-8966-e00f056c0d57","ios":"levelo://app?vid=46374c49-3adc-4c5a-8966-e00f056c0d57"},"vehicle_type_id":"4","last_reported":1745497184,"current_range_meters":12000,"station_id":"","pricing_plan_id":"cebpf4jnsgd1na2vs0mg"},{"bike_id":"be5e58a9-7f56-4b08-b6be-fbd16fd90ace","system_id":"levelo_inurba_marseille","lat":43.26574,"lon":5.37287,"is_reserved":false,"is_disabled":false,"rental_uris":{"android":"levelo://app?vid=be5e58a9-7f56-4b08-b6be-fbd16fd90ace","ios":"levelo://app?vid=be5e58a9-7f56-4b08-b6be-fbd16fd90ace"},"vehicle_type_id":"4","last_reported":1745497184,"current_range_meters":12000,"station_id":"ce4bhg12rcd13ifvqf70","pricing_plan_id":"cebpf4jnsgd1na2vs0mg"},{"bike_id":"92633533-3c99-4307-84fa-d0b92a57a4e4","system_id":"levelo_inurba_marseille","lat":43.26952,"lon":5.38634,"is_reserved":false,"is_disabled":false,"rental_uris":{"android":"levelo://app?vid=92633533-3c99-4307-84fa-d0b92a57a4e4","ios":"levelo://app?vid=92633533-3c99-4307-84fa-d0b92a57a4e4"},"vehicle_type_id":"4","last_reported":1745497184,"current_range_meters":12000,"station_id":"ce4bhh92rcd13ifvqfh0","pricing_plan_id":"cebpf4jnsgd1na2vs0mg"},{"bike_id":"8ce0a39b-9ed2-441d-ba13-a72e12d838d7","system_id":"levelo_inurba_marseille","lat":43.28262,"lon":5.35069,"is_reserved":false,"is_disabled":false,"rental_uris":{"android":"levelo://app?vid=8ce0a39b-9ed2-441d-ba13-a72e12d838d7","ios":"levelo://app?vid=8ce0a39b-9ed2-441d-ba13-a72e12d838d7"},"vehicle_type_id":"4","last_reported":1745497184,"current_range_meters":12000,"station_id":"ce4bhbp2rcd13ifvqerg","pricing_plan_id":"cebpf4jnsgd1na2vs0mg"},{"bike_id":"149f1143-584c-41e3-a9d4-95839f6bb2c7","system_id":"levelo_inurba_marseille","lat":43.28929,"lon":5.36391,"is_reserved":false,"is_disabled":false,"rental_uris":{"android":"levelo://app?vid=149f1143-584c-41e3-a9d4-95839f6bb2c7","ios":"levelo://app?vid=149f1143-584c-41e3-a9d4-95839f6bb2c7"},"vehicle_type_id":"4","last_reported":1745497184,"current_range_meters":12400,"station_id":"ce4bhc92rcd13ifvqetg","pricing_plan_id":"cebpf4jnsgd1na2vs0mg"},{"bike_id":"7f654538-8166-4a99-8138-0df949e14937","system_id":"levelo_inurba_marseille","lat":43.23139,"lon":5.43708,"is_reserved":false,"is_disabled":false,"rental_uris":{"android":"levelo://app?vid=7f654538-8166-4a99-8138-0df949e14937","ios":"levelo://app?vid=7f654538-8166-4a99-8138-0df949e14937"},"vehicle_type_id":"4","last_reported":1745497184,"current_range_meters":12800,"station_id":"ce4bhmp2rcd13ifvqgog","pricing_plan_id":"cebpf4jnsgd1na2vs0mg"},{"bike_id":"863b5ef1-eed9-48d0-92ec-38cf1e9dde79","system_id":"levelo_inurba_marseille","lat":43.286163,"lon":5.384141,"is_reserved":false,"is_disabled":false,"rental_uris":{"android":"levelo://app?vid=863b5ef1-eed9-48d0-92ec-38cf1e9dde79","ios":"levelo://app?vid=863b5ef1-eed9-48d0-92ec-38cf1e9dde79"},"vehicle_type_id":"4","last_reported":1745497184,"current_range_meters":12800,"station_id":"ce4bhih2rcd13ifvqfs0","pricing_plan_id":"cebpf4jnsgd1na2vs0mg"},{"bike_id":"5f967cb6-c47b-4b44-8f0e-72b15865b00e","system_id":"levelo_inurba_marseille","lat":43.32546,"lon":5.41429,"is_reserved":false,"is_disabled":false,"rental_uris":{"android":"levelo://app?vid=5f967cb6-c47b-4b44-8f0e-72b15865b00e","ios":"levelo://app?vid=5f967cb6-c47b-4b44-8f0e-72b15865b00e"},"vehicle_type_id":"4","last_reported":1745497184,"current_range_meters":12800,"station_id":"ce4bhq12rcd13ifvqhhg","pricing_plan_id":"cebpf4jnsgd1na2vs0mg"},{"bike_id":"0005a61e-63e4-4aeb-a7d9-095140d941fd","system_id":"levelo_inurba_marseille","lat":43.27506,"lon":5.42448,"is_reserved":false,"is_disabled":false,"rental_uris":{"android":"levelo://app?vid=0005a61e-63e4-4aeb-a7d9-095140d941fd","ios":"levelo://app?vid=0005a61e-63e4-4aeb-a7d9-095140d941fd"},"vehicle_type_id":"4","last_reported":1745497184,"current_range_meters":12800,"station_id":"ce4bhn92rcd13ifvqgrg","pricing_plan_id":"cebpf4jnsgd1na2vs0mg"},{"bike_id":"2ec52c7c-6667-4c8b-8e2d-2e10535d8f22","system_id":"levelo_inurba_marseille","lat":43.30953,"lon":5.39021,"is_reserved":false,"is_disabled":false,"rental_uris":{"android":"levelo://app?vid=2ec52c7c-6667-4c8b-8e2d-2e10535d8f22","ios":"levelo://app?vid=2ec52c7c-6667-4c8b-8e2d-2e10535d8f22"},"vehicle_type_id":"4","last_reported":1745497184,"current_range_meters":12800,"station_id":"ce4bgup2rcd13ifvqco0","pricing_plan_id":"cebpf4jnsgd1na2vs0mg"},{"bike_id":"218b0a43-6262-4797-94c1-690f51dbfbae","system_id":"levelo_inurba_marseille","lat":43.29274,"lon":5.36842,"is_reserved":false,"is_disabled":false,"rental_uris":{"android":"levelo://app?vid=218b0a43-6262-4797-94c1-690f51dbfbae","ios":"levelo://app?vid=218b0a43-6262-4797-94c1-690f51dbfbae"},"vehicle_type_id":"4","last_reported":1745497184,"current_range_meters":12800,"station_id":"ce4bhbp2rcd13ifvqesg","pricing_plan_id":"cebpf4jnsgd1na2vs0mg"},{"bike_id":"758a3d12-066c-4cef-b22c-0460d41b2afa","system_id":"levelo_inurba_marseille","lat":43.24069,"lon":5.3776,"is_reserved":false,"is_disabled":false,"rental_uris":{"android":"levelo://app?vid=758a3d12-066c-4cef-b22c-0460d41b2afa","ios":"levelo://app?vid=758a3d12-066c-4cef-b22c-0460d41b2afa"},"vehicle_type_id":"4","last_reported":1745497184,"current_range_meters":12800,"station_id":"ce4bhnp2rcd13ifvqgvg","pricing_plan_id":"cebpf4jnsgd1na2vs0mg"},{"bike_id":"afdd0b02-6624-44bd-b490-699183899279","system_id":"levelo_inurba_marseille","lat":43.297174,"lon":5.376878,"is_reserved":false,"is_disabled":false,"rental_uris":{"android":"levelo://app?vid=afdd0b02-6624-44bd-b490-699183899279","ios":"levelo://app?vid=afdd0b02-6624-44bd-b490-699183899279"},"vehicle_type_id":"4","last_reported":1745497184,"current_range_meters":13600,"station_id":"ce4bgkh2rcd13ifvqbl0","pricing_plan_id":"cebpf4jnsgd1na2vs0mg"},{"bike_id":"de03353b-15cc-40d1-ac54-4b214b27c5ac","system_id":"levelo_inurba_marseille","lat":43.29415,"lon":5.38609,"is_reserved":false,"is_disabled":false,"rental_uris":{"android":"levelo://app?vid=de03353b-15cc-40d1-ac54-4b214b27c5ac","ios":"levelo://app?vid=de03353b-15cc-40d1-ac54-4b214b27c5ac"},"vehicle_type_id":"4","last_reported":1745497184,"current_range_meters":13600,"station_id":"ce4bh2h2rcd13ifvqdh0","pricing_plan_id":"cebpf4jnsgd1na2vs0mg"},{"bike_id":"a8ba7006-e63e-4b0f-9b2c-ade0d4dbb324","system_id":"levelo_inurba_marseille","lat":43.30143,"lon":5.38827,"is_reserved":false,"is_disabled":false,"rental_uris":{"android":"levelo://app?vid=a8ba7006-e63e-4b0f-9b2c-ade0d4dbb324","ios":"levelo://app?vid=a8ba7006-e63e-4b0f-9b2c-ade0d4dbb324"},"vehicle_type_id":"4","last_reported":1745497184,"current_range_meters":13600,"station_id":"ce4bghh2rcd13ifvqb60","pricing_plan_id":"cebpf4jnsgd1na2vs0mg"},{"bike_id":"d4a8fafa-88a7-48bf-b5a7-839e5bc03db8","system_id":"levelo_inurba_marseille","lat":43.25011,"lon":5.38912,"is_reserved":false,"is_disabled":true,"rental_uris":{"android":"levelo://app?vid=d4a8fafa-88a7-48bf-b5a7-839e5bc03db8","ios":"levelo://app?vid=d4a8fafa-88a7-48bf-b5a7-839e5bc03db8"},"vehicle_type_id":"4","last_reported":1745497184,"current_range_meters":13600,"station_id":"ce4bhgp2rcd13ifvqfd0","pricing_plan_id":"cebpf4jnsgd1na2vs0mg"},{"bike_id":"62a73758-9c6a-4a3b-8355-fb689f035292","system_id":"levelo_inurba_marseille","lat":43.28612,"lon":5.37062,"is_reserved":false,"is_disabled":false,"rental_uris":{"android":"levelo://app?vid=62a73758-9c6a-4a3b-8355-fb689f035292","ios":"levelo://app?vid=62a73758-9c6a-4a3b-8355-fb689f035292"},"vehicle_type_id":"4","last_reported":1745497184,"current_range_meters":14000,"station_id":"ce4bht12rcd13ifvqi60","pricing_plan_id":"cebpf4jnsgd1na2vs0mg"},{"bike_id":"cace3382-a466-428d-8150-1da3867c46b2","system_id":"levelo_inurba_marseille","lat":43.28612,"lon":5.37059,"is_reserved":false,"is_disabled":false,"rental_uris":{"android":"levelo://app?vid=cace3382-a466-428d-8150-1da3867c46b2","ios":"levelo://app?vid=cace3382-a466-428d-8150-1da3867c46b2"},"vehicle_type_id":"4","last_reported":1745497184,"current_range_meters":14000,"station_id":"ce4bht12rcd13ifvqi60","pricing_plan_id":"cebpf4jnsgd1na2vs0mg"},{"bike_id":"5d598f50-0289-4d7e-b163-7f0386e0682b","system_id":"levelo_inurba_marseille","lat":43.23147,"lon":5.43707,"is_reserved":false,"is_disabled":false,"rental_uris":{"android":"levelo://app?vid=5d598f50-0289-4d7e-b163-7f0386e0682b","ios":"levelo://app?vid=5d598f50-0289-4d7e-b163-7f0386e0682b"},"vehicle_type_id":"4","last_reported":1745497184,"current_range_meters":14000,"station_id":"ce4bhmp2rcd13ifvqgog","pricing_plan_id":"cebpf4jnsgd1na2vs0mg"},{"bike_id":"382baf77-1a90-4a91-807e-68d00c31fc76","system_id":"levelo_inurba_marseille","lat":43.298431,"lon":5.362732,"is_reserved":false,"is_disabled":false,"rental_uris":{"android":"levelo://app?vid=382baf77-1a90-4a91-807e-68d00c31fc76","ios":"levelo://app?vid=382baf77-1a90-4a91-807e-68d00c31fc76"},"vehicle_type_id":"4","last_reported":1745497184,"current_range_meters":14400,"station_id":"ce4bgpp2rcd13ifvqc3g","pricing_plan_id":"cebpf4jnsgd1na2vs0mg"},{"bike_id":"4dc988ed-8ee9-46eb-bdf9-99a0528c2b34","system_id":"levelo_inurba_marseille","lat":43.282668,"lon":5.350599,"is_reserved":false,"is_disabled":false,"rental_uris":{"android":"levelo://app?vid=4dc988ed-8ee9-46eb-bdf9-99a0528c2b34","ios":"levelo://app?vid=4dc988ed-8ee9-46eb-bdf9-99a0528c2b34"},"vehicle_type_id":"4","last_reported":1745497184,"current_range_meters":14400,"station_id":"ce4bhbp2rcd13ifvqerg","pricing_plan_id":"cebpf4jnsgd1na2vs0mg"},{"bike_id":"675b1ea0-08b3-4aa5-9717-2219b24d649a","system_id":"levelo_inurba_marseille","lat":43.278303,"lon":5.392128,"is_reserved":false,"is_disabled":false,"rental_uris":{"android":"levelo://app?vid=675b1ea0-08b3-4aa5-9717-2219b24d649a","ios":"levelo://app?vid=675b1ea0-08b3-4aa5-9717-2219b24d649a"},"vehicle_type_id":"4","last_reported":1745497184,"current_range_meters":14400,"station_id":"ce4bhjp2rcd13ifvqga0","pricing_plan_id":"cebpf4jnsgd1na2vs0mg"},{"bike_id":"48325411-4071-4291-95ad-8c1b2fd74bac","system_id":"levelo_inurba_marseille","lat":43.24073,"lon":5.37759,"is_reserved":false,"is_disabled":false,"rental_uris":{"android":"levelo://app?vid=48325411-4071-4291-95ad-8c1b2fd74bac","ios":"levelo://app?vid=48325411-4071-4291-95ad-8c1b2fd74bac"},"vehicle_type_id":"4","last_reported":1745497184,"current_range_meters":14400,"station_id":"ce4bhnp2rcd13ifvqgvg","pricing_plan_id":"cebpf4jnsgd1na2vs0mg"},{"bike_id":"fa8a552a-d2d3-4e8d-8d8e-02bdba037836","system_id":"levelo_inurba_marseille","lat":43.23077,"lon":5.35494,"is_reserved":false,"is_disabled":false,"rental_uris":{"android":"levelo://app?vid=fa8a552a-d2d3-4e8d-8d8e-02bdba037836","ios":"levelo://app?vid=fa8a552a-d2d3-4e8d-8d8e-02bdba037836"},"vehicle_type_id":"4","last_reported":1745497184,"current_range_meters":14400,"station_id":"cpo3342slgdg3j2ifvpg","pricing_plan_id":"cebpf4jnsgd1na2vs0mg"},{"bike_id":"8834a389-03ad-4d96-9678-661e64e37b6b","system_id":"levelo_inurba_marseille","lat":43.313321,"lon":5.396876,"is_reserved":false,"is_disabled":false,"rental_uris":{"android":"levelo://app?vid=8834a389-03ad-4d96-9678-661e64e37b6b","ios":"levelo://app?vid=8834a389-03ad-4d96-9678-661e64e37b6b"},"vehicle_type_id":"4","last_reported":1745497184,"current_range_meters":14800,"station_id":"ce4bgvp2rcd13ifvqcu0","pricing_plan_id":"cebpf4jnsgd1na2vs0mg"},{"bike_id":"5c8001ef-c531-490f-b793-cd3ce7ffc3a8","system_id":"levelo_inurba_marseille","lat":43.33023,"lon":5.39052,"is_reserved":false,"is_disabled":false,"rental_uris":{"android":"levelo://app?vid=5c8001ef-c531-490f-b793-cd3ce7ffc3a8","ios":"levelo://app?vid=5c8001ef-c531-490f-b793-cd3ce7ffc3a8"},"vehicle_type_id":"4","last_reported":1745497184,"current_range_meters":14800,"station_id":"ce4bhr92rcd13ifvqhrg","pricing_plan_id":"cebpf4jnsgd1na2vs0mg"},{"bike_id":"6a12e3c8-9423-4362-855b-2f638963feb0","system_id":"levelo_inurba_marseille","lat":43.28369,"lon":5.38624,"is_reserved":false,"is_disabled":false,"rental_uris":{"android":"levelo://app?vid=6a12e3c8-9423-4362-855b-2f638963feb0","ios":"levelo://app?vid=6a12e3c8-9423-4362-855b-2f638963feb0"},"vehicle_type_id":"4","last_reported":1745497184,"current_range_meters":14800,"station_id":"ce4bh492rcd13ifvqdvg","pricing_plan_id":"cebpf4jnsgd1na2vs0mg"},{"bike_id":"3efd02ce-7fc3-4bf0-8304-a73de373b271","system_id":"levelo_inurba_marseille","lat":43.30325,"lon":5.40448,"is_reserved":false,"is_disabled":false,"rental_uris":{"android":"levelo://app?vid=3efd02ce-7fc3-4bf0-8304-a73de373b271","ios":"levelo://app?vid=3efd02ce-7fc3-4bf0-8304-a73de373b271"},"vehicle_type_id":"4","last_reported":1745497184,"current_range_meters":15200,"station_id":"ce4bh012rcd13ifvqd10","pricing_plan_id":"cebpf4jnsgd1na2vs0mg"},{"bike_id":"3a47051e-883e-41a0-bb7c-9deb37da3fd5","system_id":"levelo_inurba_marseille","lat":43.28936,"lon":5.36616,"is_reserved":false,"is_disabled":false,"rental_uris":{"android":"levelo://app?vid=3a47051e-883e-41a0-bb7c-9deb37da3fd5","ios":"levelo://app?vid=3a47051e-883e-41a0-bb7c-9deb37da3fd5"},"vehicle_type_id":"4","last_reported":1745497184,"current_range_meters":16000,"station_id":"ce4bhap2rcd13ifvqek0","pricing_plan_id":"cebpf4jnsgd1na2vs0mg"},{"bike_id":"b70180eb-a032-4af9-a856-57b2d770a3c3","system_id":"levelo_inurba_marseille","lat":43.28351,"lon":5.38107,"is_reserved":false,"is_disabled":false,"rental_uris":{"android":"levelo://app?vid=b70180eb-a032-4af9-a856-57b2d770a3c3","ios":"levelo://app?vid=b70180eb-a032-4af9-a856-57b2d770a3c3"},"vehicle_type_id":"4","last_reported":1745497184,"current_range_meters":16000,"station_id":"ce4bh412rcd13ifvqdr0","pricing_plan_id":"cebpf4jnsgd1na2vs0mg"},{"bike_id":"63c1e8b7-e07a-4e12-9884-50afc3dbd62e","system_id":"levelo_inurba_marseille","lat":43.21195,"lon":5.35061,"is_reserved":false,"is_disabled":false,"rental_uris":{"android":"levelo://app?vid=63c1e8b7-e07a-4e12-9884-50afc3dbd62e","ios":"levelo://app?vid=63c1e8b7-e07a-4e12-9884-50afc3dbd62e"},"vehicle_type_id":"4","last_reported":1745497184,"current_range_meters":16000,"station_id":"st_cvj6sg6p6f1abm77japg","pricing_plan_id":"cebpf4jnsgd1na2vs0mg"},{"bike_id":"5a6bc7f1-6093-4da2-acbf-d4c750efb49d","system_id":"levelo_inurba_marseille","lat":43.23152,"lon":5.43713,"is_reserved":false,"is_disabled":false,"rental_uris":{"android":"levelo://app?vid=5a6bc7f1-6093-4da2-acbf-d4c750efb49d","ios":"levelo://app?vid=5a6bc7f1-6093-4da2-acbf-d4c750efb49d"},"vehicle_type_id":"4","last_reported":1745497184,"current_range_meters":16000,"station_id":"ce4bhmp2rcd13ifvqgog","pricing_plan_id":"cebpf4jnsgd1na2vs0mg"},{"bike_id":"fcbcd00e-d97b-4582-881d-a7ce0d452f21","system_id":"levelo_inurba_marseille","lat":43.2984,"lon":5.36264,"is_reserved":false,"is_disabled":false,"rental_uris":{"android":"levelo://app?vid=fcbcd00e-d97b-4582-881d-a7ce0d452f21","ios":"levelo://app?vid=fcbcd00e-d97b-4582-881d-a7ce0d452f21"},"vehicle_type_id":"4","last_reported":1745497184,"current_range_meters":16000,"station_id":"ce4bgpp2rcd13ifvqc3g","pricing_plan_id":"cebpf4jnsgd1na2vs0mg"},{"bike_id":"5775c389-82c9-4eee-ab37-088fc99527c4","system_id":"levelo_inurba_marseille","lat":43.32664,"lon":5.36712,"is_reserved":false,"is_disabled":false,"rental_uris":{"android":"levelo://app?vid=5775c389-82c9-4eee-ab37-088fc99527c4","ios":"levelo://app?vid=5775c389-82c9-4eee-ab37-088fc99527c4"},"vehicle_type_id":"4","last_reported":1745497184,"current_range_meters":16000,"station_id":"","pricing_plan_id":"cebpf4jnsgd1na2vs0mg"},{"bike_id":"3ac7a256-bc93-444a-b034-fb7fdc853f81","system_id":"levelo_inurba_marseille","lat":43.26213,"lon":5.40456,"is_reserved":false,"is_disabled":false,"rental_uris":{"android":"levelo://app?vid=3ac7a256-bc93-444a-b034-fb7fdc853f81","ios":"levelo://app?vid=3ac7a256-bc93-444a-b034-fb7fdc853f81"},"vehicle_type_id":"4","last_reported":1745497184,"current_range_meters":16000,"station_id":"ce4bhmh2rcd13ifvqgmg","pricing_plan_id":"cebpf4jnsgd1na2vs0mg"},{"bike_id":"db201d1a-c647-4b1b-98d9-342a583fbb0d","system_id":"levelo_inurba_marseille","lat":43.33735,"lon":5.39189,"is_reserved":false,"is_disabled":false,"rental_uris":{"android":"levelo://app?vid=db201d1a-c647-4b1b-98d9-342a583fbb0d","ios":"levelo://app?vid=db201d1a-c647-4b1b-98d9-342a583fbb0d"},"vehicle_type_id":"4","last_reported":1745497184,"current_range_meters":16000,"station_id":"ce4bhr92rcd13ifvqhsg","pricing_plan_id":"cebpf4jnsgd1na2vs0mg"},{"bike_id":"cd906bce-52be-45be-8f08-cdeb623de131","system_id":"levelo_inurba_marseille","lat":43.28197,"lon":5.40352,"is_reserved":false,"is_disabled":false,"rental_uris":{"android":"levelo://app?vid=cd906bce-52be-45be-8f08-cdeb623de131","ios":"levelo://app?vid=cd906bce-52be-45be-8f08-cdeb623de131"},"vehicle_type_id":"4","last_reported":1745497184,"current_range_meters":16400,"station_id":"","pricing_plan_id":"cebpf4jnsgd1na2vs0mg"},{"bike_id":"e3aefe08-db6b-49d0-90d3-788cfc6a45db","system_id":"levelo_inurba_marseille","lat":43.32281,"lon":5.38281,"is_reserved":false,"is_disabled":false,"rental_uris":{"android":"levelo://app?vid=e3aefe08-db6b-49d0-90d3-788cfc6a45db","ios":"levelo://app?vid=e3aefe08-db6b-49d0-90d3-788cfc6a45db"},"vehicle_type_id":"4","last_reported":1745497184,"current_range_meters":16400,"station_id":"ce4bhr12rcd13ifvqhqg","pricing_plan_id":"cebpf4jnsgd1na2vs0mg"},{"bike_id":"4e259911-67c1-4742-976c-ddc411ce90fd","system_id":"levelo_inurba_marseille","lat":43.24065,"lon":5.37721,"is_reserved":false,"is_disabled":false,"rental_uris":{"android":"levelo://app?vid=4e259911-67c1-4742-976c-ddc411ce90fd","ios":"levelo://app?vid=4e259911-67c1-4742-976c-ddc411ce90fd"},"vehicle_type_id":"4","last_reported":1745497184,"current_range_meters":16400,"station_id":"ce4bhnp2rcd13ifvqgvg","pricing_plan_id":"cebpf4jnsgd1na2vs0mg"},{"bike_id":"4162c0a1-4cf1-434c-9893-a2c884dafabd","system_id":"levelo_inurba_marseille","lat":43.25086,"lon":5.39521,"is_reserved":false,"is_disabled":false,"rental_uris":{"android":"levelo://app?vid=4162c0a1-4cf1-434c-9893-a2c884dafabd","ios":"levelo://app?vid=4162c0a1-4cf1-434c-9893-a2c884dafabd"},"vehicle_type_id":"4","last_reported":1745497184,"current_range_meters":16400,"station_id":"ce4bhm12rcd13ifvqgkg","pricing_plan_id":"cebpf4jnsgd1na2vs0mg"},{"bike_id":"d802d433-91f5-46da-9a5b-42a725289286","system_id":"levelo_inurba_marseille","lat":43.30922,"lon":5.36855,"is_reserved":false,"is_disabled":false,"rental_uris":{"android":"levelo://app?vid=d802d433-91f5-46da-9a5b-42a725289286","ios":"levelo://app?vid=d802d433-91f5-46da-9a5b-42a725289286"},"vehicle_type_id":"4","last_reported":1745497184,"current_range_meters":16400,"station_id":"ce4bgn92rcd13ifvqbvg","pricing_plan_id":"cebpf4jnsgd1na2vs0mg"},{"bike_id":"9d6e8721-f1f0-479a-9825-7bc1e2ffe4d5","system_id":"levelo_inurba_marseille","lat":43.30259,"lon":5.40075,"is_reserved":false,"is_disabled":false,"rental_uris":{"android":"levelo://app?vid=9d6e8721-f1f0-479a-9825-7bc1e2ffe4d5","ios":"levelo://app?vid=9d6e8721-f1f0-479a-9825-7bc1e2ffe4d5"},"vehicle_type_id":"4","last_reported":1745497184,"current_range_meters":16400,"station_id":"ce4bgvh2rcd13ifvqcs0","pricing_plan_id":"cebpf4jnsgd1na2vs0mg"},{"bike_id":"5f528a70-11c3-4ed6-9679-49bf0a4b1205","system_id":"levelo_inurba_marseille","lat":43.25495,"lon":5.37644,"is_reserved":false,"is_disabled":false,"rental_uris":{"android":"levelo://app?vid=5f528a70-11c3-4ed6-9679-49bf0a4b1205","ios":"levelo://app?vid=5f528a70-11c3-4ed6-9679-49bf0a4b1205"},"vehicle_type_id":"4","last_reported":1745497184,"current_range_meters":16400,"station_id":"ce4bhh12rcd13ifvqff0","pricing_plan_id":"cebpf4jnsgd1na2vs0mg"},{"bike_id":"6a8ce0d7-44c9-4192-a61a-a9f45ca222d9","system_id":"levelo_inurba_marseille","lat":43.29813,"lon":5.40403,"is_reserved":false,"is_disabled":false,"rental_uris":{"android":"levelo://app?vid=6a8ce0d7-44c9-4192-a61a-a9f45ca222d9","ios":"levelo://app?vid=6a8ce0d7-44c9-4192-a61a-a9f45ca222d9"},"vehicle_type_id":"4","last_reported":1745497184,"current_range_meters":16800,"station_id":"ce4bh112rcd13ifvqd90","pricing_plan_id":"cebpf4jnsgd1na2vs0mg"},{"bike_id":"e340c6d2-e968-4ce0-b1fc-990ae5dc9286","system_id":"levelo_inurba_marseille","lat":43.30538,"lon":5.36555,"is_reserved":false,"is_disabled":false,"rental_uris":{"android":"levelo://app?vid=e340c6d2-e968-4ce0-b1fc-990ae5dc9286","ios":"levelo://app?vid=e340c6d2-e968-4ce0-b1fc-990ae5dc9286"},"vehicle_type_id":"4","last_reported":1745497184,"current_range_meters":16800,"station_id":"ce4bgs12rcd13ifvqcag","pricing_plan_id":"cebpf4jnsgd1na2vs0mg"},{"bike_id":"bfec813c-7a10-4394-8849-d3c300d58a05","system_id":"levelo_inurba_marseille","lat":43.30546,"lon":5.36739,"is_reserved":false,"is_disabled":false,"rental_uris":{"android":"levelo://app?vid=bfec813c-7a10-4394-8849-d3c300d58a05","ios":"levelo://app?vid=bfec813c-7a10-4394-8849-d3c300d58a05"},"vehicle_type_id":"4","last_reported":1745497184,"current_range_meters":16800,"station_id":"ce4bgrp2rcd13ifvqc9g","pricing_plan_id":"cebpf4jnsgd1na2vs0mg"},{"bike_id":"398ad060-4baa-40ea-8815-1ae030e65094","system_id":"levelo_inurba_marseille","lat":43.28944,"lon":5.3664,"is_reserved":false,"is_disabled":false,"rental_uris":{"android":"levelo://app?vid=398ad060-4baa-40ea-8815-1ae030e65094","ios":"levelo://app?vid=398ad060-4baa-40ea-8815-1ae030e65094"},"vehicle_type_id":"4","last_reported":1745497184,"current_range_meters":16800,"station_id":"ce4bhap2rcd13ifvqek0","pricing_plan_id":"cebpf4jnsgd1na2vs0mg"},{"bike_id":"d2551370-740b-4767-bbbc-c02161e12ec3","system_id":"levelo_inurba_marseille","lat":43.32473,"lon":5.36555,"is_reserved":false,"is_disabled":false,"rental_uris":{"android":"levelo://app?vid=d2551370-740b-4767-bbbc-c02161e12ec3","ios":"levelo://app?vid=d2551370-740b-4767-bbbc-c02161e12ec3"},"vehicle_type_id":"4","last_reported":1745497184,"current_range_meters":17200,"station_id":"ce4bhs12rcd13ifvqhvg","pricing_plan_id":"cebpf4jnsgd1na2vs0mg"},{"bike_id":"97f00e91-4a81-4998-8f3d-60d5de3cea7c","system_id":"levelo_inurba_marseille","lat":43.305406,"lon":5.366965,"is_reserved":false,"is_disabled":false,"rental_uris":{"android":"levelo://app?vid=97f00e91-4a81-4998-8f3d-60d5de3cea7c","ios":"levelo://app?vid=97f00e91-4a81-4998-8f3d-60d5de3cea7c"},"vehicle_type_id":"4","last_reported":1745497184,"current_range_meters":17200,"station_id":"ce4bgrp2rcd13ifvqc9g","pricing_plan_id":"cebpf4jnsgd1na2vs0mg"},{"bike_id":"1989820e-d8ad-43d5-acc4-485a29b2036b","system_id":"levelo_inurba_marseille","lat":43.21197,"lon":5.35074,"is_reserved":false,"is_disabled":false,"rental_uris":{"android":"levelo://app?vid=1989820e-d8ad-43d5-acc4-485a29b2036b","ios":"levelo://app?vid=1989820e-d8ad-43d5-acc4-485a29b2036b"},"vehicle_type_id":"4","last_reported":1745497184,"current_range_meters":17200,"station_id":"st_cvj6sg6p6f1abm77japg","pricing_plan_id":"cebpf4jnsgd1na2vs0mg"},{"bike_id":"df57c83c-b9c8-49e0-a5de-e22be45844e8","system_id":"levelo_inurba_marseille","lat":43.30378,"lon":5.42489,"is_reserved":false,"is_disabled":false,"rental_uris":{"android":"levelo://app?vid=df57c83c-b9c8-49e0-a5de-e22be45844e8","ios":"levelo://app?vid=df57c83c-b9c8-49e0-a5de-e22be45844e8"},"vehicle_type_id":"4","last_reported":1745497184,"current_range_meters":17200,"station_id":"ce4bhoh2rcd13ifvqh6g","pricing_plan_id":"cebpf4jnsgd1na2vs0mg"},{"bike_id":"ba50385b-0033-4603-a45d-11d105d6b7b7","system_id":"levelo_inurba_marseille","lat":43.26683,"lon":5.38275,"is_reserved":false,"is_disabled":false,"rental_uris":{"android":"levelo://app?vid=ba50385b-0033-4603-a45d-11d105d6b7b7","ios":"levelo://app?vid=ba50385b-0033-4603-a45d-11d105d6b7b7"},"vehicle_type_id":"4","last_reported":1745497184,"current_range_meters":17200,"station_id":"ce4bhdp2rcd13ifvqf20","pricing_plan_id":"cebpf4jnsgd1na2vs0mg"},{"bike_id":"5dcc6d51-b9bc-4ed1-a1b7-47429c217104","system_id":"levelo_inurba_marseille","lat":43.305435,"lon":5.367179,"is_reserved":false,"is_disabled":false,"rental_uris":{"android":"levelo://app?vid=5dcc6d51-b9bc-4ed1-a1b7-47429c217104","ios":"levelo://app?vid=5dcc6d51-b9bc-4ed1-a1b7-47429c217104"},"vehicle_type_id":"4","last_reported":1745497184,"current_range_meters":17200,"station_id":"ce4bgrp2rcd13ifvqc9g","pricing_plan_id":"cebpf4jnsgd1na2vs0mg"},{"bike_id":"f0bcda56-475c-44db-856f-5ada6d66ed59","system_id":"levelo_inurba_marseille","lat":43.29898,"lon":5.38897,"is_reserved":false,"is_disabled":false,"rental_uris":{"android":"levelo://app?vid=f0bcda56-475c-44db-856f-5ada6d66ed59","ios":"levelo://app?vid=f0bcda56-475c-44db-856f-5ada6d66ed59"},"vehicle_type_id":"4","last_reported":1745497184,"current_range_meters":17600,"station_id":"ce4bh392rcd13ifvqdl0","pricing_plan_id":"cebpf4jnsgd1na2vs0mg"},{"bike_id":"30da752e-5450-4da3-965e-773778ce5d7d","system_id":"levelo_inurba_marseille","lat":43.24164,"lon":5.3639,"is_reserved":false,"is_disabled":false,"rental_uris":{"android":"levelo://app?vid=30da752e-5450-4da3-965e-773778ce5d7d","ios":"levelo://app?vid=30da752e-5450-4da3-965e-773778ce5d7d"},"vehicle_type_id":"4","last_reported":1745497184,"current_range_meters":17600,"station_id":"cpo36qri1sfpv3e86is0","pricing_plan_id":"cebpf4jnsgd1na2vs0mg"},{"bike_id":"91e1d1ce-8293-41d3-b494-845d17f9c6b8","system_id":"levelo_inurba_marseille","lat":43.28454,"lon":5.35884,"is_reserved":false,"is_disabled":false,"rental_uris":{"android":"levelo://app?vid=91e1d1ce-8293-41d3-b494-845d17f9c6b8","ios":"levelo://app?vid=91e1d1ce-8293-41d3-b494-845d17f9c6b8"},"vehicle_type_id":"4","last_reported":1745497184,"current_range_meters":17600,"station_id":"ce4bhah2rcd13ifvqei0","pricing_plan_id":"cebpf4jnsgd1na2vs0mg"},{"bike_id":"5efb0c5c-88bc-4b99-8f7a-8b10625ea8f5","system_id":"levelo_inurba_marseille","lat":43.32477,"lon":5.3655,"is_reserved":false,"is_disabled":false,"rental_uris":{"android":"levelo://app?vid=5efb0c5c-88bc-4b99-8f7a-8b10625ea8f5","ios":"levelo://app?vid=5efb0c5c-88bc-4b99-8f7a-8b10625ea8f5"},"vehicle_type_id":"4","last_reported":1745497184,"current_range_meters":17600,"station_id":"ce4bhs12rcd13ifvqhvg","pricing_plan_id":"cebpf4jnsgd1na2vs0mg"},{"bike_id":"4b0ada37-3caa-4bc6-ba95-da3d07fb1c36","system_id":"levelo_inurba_marseille","lat":43.2592,"lon":5.40891,"is_reserved":false,"is_disabled":false,"rental_uris":{"android":"levelo://app?vid=4b0ada37-3caa-4bc6-ba95-da3d07fb1c36","ios":"levelo://app?vid=4b0ada37-3caa-4bc6-ba95-da3d07fb1c36"},"vehicle_type_id":"4","last_reported":1745497184,"current_range_meters":18000,"station_id":"ce4bhm92rcd13ifvqglg","pricing_plan_id":"cebpf4jnsgd1na2vs0mg"},{"bike_id":"e2dcabcf-64d8-4394-bb9a-ff877bee611a","system_id":"levelo_inurba_marseille","lat":43.32047,"lon":5.41514,"is_reserved":false,"is_disabled":false,"rental_uris":{"android":"levelo://app?vid=e2dcabcf-64d8-4394-bb9a-ff877bee611a","ios":"levelo://app?vid=e2dcabcf-64d8-4394-bb9a-ff877bee611a"},"vehicle_type_id":"4","last_reported":1745497184,"current_range_meters":18000,"station_id":"ce4bhq92rcd13ifvqhkg","pricing_plan_id":"cebpf4jnsgd1na2vs0mg"},{"bike_id":"75c54774-60c3-4a5a-9d9a-e318535acfa8","system_id":"levelo_inurba_marseille","lat":43.28416,"lon":5.34986,"is_reserved":false,"is_disabled":false,"rental_uris":{"android":"levelo://app?vid=75c54774-60c3-4a5a-9d9a-e318535acfa8","ios":"levelo://app?vid=75c54774-60c3-4a5a-9d9a-e318535acfa8"},"vehicle_type_id":"4","last_reported":1745497184,"current_range_meters":18000,"station_id":"ce4bhbh2rcd13ifvqepg","pricing_plan_id":"cebpf4jnsgd1na2vs0mg"},{"bike_id":"6267ef1d-28cd-43af-8556-05a0ce748888","system_id":"levelo_inurba_marseille","lat":43.284612,"lon":5.358778,"is_reserved":false,"is_disabled":false,"rental_uris":{"android":"levelo://app?vid=6267ef1d-28cd-43af-8556-05a0ce748888","ios":"levelo://app?vid=6267ef1d-28cd-43af-8556-05a0ce748888"},"vehicle_type_id":"4","last_reported":1745497184,"current_range_meters":18800,"station_id":"ce4bhah2rcd13ifvqei0","pricing_plan_id":"cebpf4jnsgd1na2vs0mg"},{"bike_id":"d26691ad-eb04-46c6-ac7a-e471272f54e2","system_id":"levelo_inurba_marseille","lat":43.26223,"lon":5.40434,"is_reserved":false,"is_disabled":false,"rental_uris":{"android":"levelo://app?vid=d26691ad-eb04-46c6-ac7a-e471272f54e2","ios":"levelo://app?vid=d26691ad-eb04-46c6-ac7a-e471272f54e2"},"vehicle_type_id":"4","last_reported":1745497184,"current_range_meters":18800,"station_id":"ce4bhmh2rcd13ifvqgmg","pricing_plan_id":"cebpf4jnsgd1na2vs0mg"},{"bike_id":"f577c520-0907-4453-975b-4f68ddb3f606","system_id":"levelo_inurba_marseille","lat":43.28417,"lon":5.34987,"is_reserved":false,"is_disabled":false,"rental_uris":{"android":"levelo://app?vid=f577c520-0907-4453-975b-4f68ddb3f606","ios":"levelo://app?vid=f577c520-0907-4453-975b-4f68ddb3f606"},"vehicle_type_id":"4","last_reported":1745497184,"current_range_meters":18800,"station_id":"ce4bhbh2rcd13ifvqepg","pricing_plan_id":"cebpf4jnsgd1na2vs0mg"},{"bike_id":"c245a664-a422-48d9-8a91-81180a37198e","system_id":"levelo_inurba_marseille","lat":43.30882,"lon":5.37178,"is_reserved":false,"is_disabled":false,"rental_uris":{"android":"levelo://app?vid=c245a664-a422-48d9-8a91-81180a37198e","ios":"levelo://app?vid=c245a664-a422-48d9-8a91-81180a37198e"},"vehicle_type_id":"4","last_reported":1745497184,"current_range_meters":18800,"station_id":"ce4bguh2rcd13ifvqckg","pricing_plan_id":"cebpf4jnsgd1na2vs0mg"},{"bike_id":"d517b521-37c1-4380-9600-6e69fd78877b","system_id":"levelo_inurba_marseille","lat":43.21189,"lon":5.35079,"is_reserved":false,"is_disabled":false,"rental_uris":{"android":"levelo://app?vid=d517b521-37c1-4380-9600-6e69fd78877b","ios":"levelo://app?vid=d517b521-37c1-4380-9600-6e69fd78877b"},"vehicle_type_id":"4","last_reported":1745497184,"current_range_meters":18800,"station_id":"st_cvj6sg6p6f1abm77japg","pricing_plan_id":"cebpf4jnsgd1na2vs0mg"},{"bike_id":"d27239a0-26df-413f-b8e8-6abb5c127cb2","system_id":"levelo_inurba_marseille","lat":43.263459,"lon":5.389268,"is_reserved":false,"is_disabled":false,"rental_uris":{"android":"levelo://app?vid=d27239a0-26df-413f-b8e8-6abb5c127cb2","ios":"levelo://app?vid=d27239a0-26df-413f-b8e8-6abb5c127cb2"},"vehicle_type_id":"4","last_reported":1745497184,"current_range_meters":18800,"station_id":"ce4bhih2rcd13ifvqfs0","pricing_plan_id":"cebpf4jnsgd1na2vs0mg"},{"bike_id":"81c822d8-ebbe-4d24-aa97-095046fd1c36","system_id":"levelo_inurba_marseille","lat":43.23149,"lon":5.43711,"is_reserved":false,"is_disabled":false,"rental_uris":{"android":"levelo://app?vid=81c822d8-ebbe-4d24-aa97-095046fd1c36","ios":"levelo://app?vid=81c822d8-ebbe-4d24-aa97-095046fd1c36"},"vehicle_type_id":"4","last_reported":1745497184,"current_range_meters":18800,"station_id":"ce4bhmp2rcd13ifvqgog","pricing_plan_id":"cebpf4jnsgd1na2vs0mg"},{"bike_id":"e93a5d48-8225-4dba-b054-f06381b47cb3","system_id":"levelo_inurba_marseille","lat":43.28933,"lon":5.36367,"is_reserved":false,"is_disabled":false,"rental_uris":{"android":"levelo://app?vid=e93a5d48-8225-4dba-b054-f06381b47cb3","ios":"levelo://app?vid=e93a5d48-8225-4dba-b054-f06381b47cb3"},"vehicle_type_id":"4","last_reported":1745497184,"current_range_meters":18800,"station_id":"ce4bhc92rcd13ifvqetg","pricing_plan_id":"cebpf4jnsgd1na2vs0mg"},{"bike_id":"93ff58e2-3490-4a2d-9067-ff3871e212f6","system_id":"levelo_inurba_marseille","lat":43.2794,"lon":5.41048,"is_reserved":false,"is_disabled":false,"rental_uris":{"android":"levelo://app?vid=93ff58e2-3490-4a2d-9067-ff3871e212f6","ios":"levelo://app?vid=93ff58e2-3490-4a2d-9067-ff3871e212f6"},"vehicle_type_id":"4","last_reported":1745497184,"current_range_meters":18800,"station_id":"ce4bhnp2rcd13ifvqh0g","pricing_plan_id":"cebpf4jnsgd1na2vs0mg"},{"bike_id":"608ba1a3-195e-4f0a-b4fb-d5670fe2992b","system_id":"levelo_inurba_marseille","lat":43.27497,"lon":5.42451,"is_reserved":false,"is_disabled":false,"rental_uris":{"android":"levelo://app?vid=608ba1a3-195e-4f0a-b4fb-d5670fe2992b","ios":"levelo://app?vid=608ba1a3-195e-4f0a-b4fb-d5670fe2992b"},"vehicle_type_id":"4","last_reported":1745497184,"current_range_meters":18800,"station_id":"ce4bhn92rcd13ifvqgrg","pricing_plan_id":"cebpf4jnsgd1na2vs0mg"},{"bike_id":"182c21d1-6640-4877-94e8-fcc4818cadc0","system_id":"levelo_inurba_marseille","lat":43.28443,"lon":5.391968,"is_reserved":false,"is_disabled":false,"rental_uris":{"android":"levelo://app?vid=182c21d1-6640-4877-94e8-fcc4818cadc0","ios":"levelo://app?vid=182c21d1-6640-4877-94e8-fcc4818cadc0"},"vehicle_type_id":"4","last_reported":1745497184,"current_range_meters":18800,"station_id":"ce4bhoh2rcd13ifvqh5g","pricing_plan_id":"cebpf4jnsgd1na2vs0mg"},{"bike_id":"d8925320-1963-4829-9874-490506e6f0b4","system_id":"levelo_inurba_marseille","lat":43.290158,"lon":5.381146,"is_reserved":false,"is_disabled":false,"rental_uris":{"android":"levelo://app?vid=d8925320-1963-4829-9874-490506e6f0b4","ios":"levelo://app?vid=d8925320-1963-4829-9874-490506e6f0b4"},"vehicle_type_id":"4","last_reported":1745497184,"current_range_meters":18800,"station_id":"ce4bhg12rcd13ifvqf80","pricing_plan_id":"cebpf4jnsgd1na2vs0mg"},{"bike_id":"3fba5f74-525b-418f-8732-0a804d6d7b0d","system_id":"levelo_inurba_marseille","lat":43.29277,"lon":5.36844,"is_reserved":false,"is_disabled":false,"rental_uris":{"android":"levelo://app?vid=3fba5f74-525b-418f-8732-0a804d6d7b0d","ios":"levelo://app?vid=3fba5f74-525b-418f-8732-0a804d6d7b0d"},"vehicle_type_id":"4","last_reported":1745497184,"current_range_meters":18800,"station_id":"ce4bhbp2rcd13ifvqesg","pricing_plan_id":"cebpf4jnsgd1na2vs0mg"},{"bike_id":"1fad0618-6d26-4697-9bee-ec5e0a80c437","system_id":"levelo_inurba_marseille","lat":43.313356,"lon":5.36715,"is_reserved":false,"is_disabled":false,"rental_uris":{"android":"levelo://app?vid=1fad0618-6d26-4697-9bee-ec5e0a80c437","ios":"levelo://app?vid=1fad0618-6d26-4697-9bee-ec5e0a80c437"},"vehicle_type_id":"4","last_reported":1745497184,"current_range_meters":18800,"station_id":"ce4bgr92rcd13ifvqc6g","pricing_plan_id":"cebpf4jnsgd1na2vs0mg"},{"bike_id":"ecc2bb2b-d522-48c7-ba6c-7294d73b8bd4","system_id":"levelo_inurba_marseille","lat":43.297223,"lon":5.405002,"is_reserved":false,"is_disabled":false,"rental_uris":{"android":"levelo://app?vid=ecc2bb2b-d522-48c7-ba6c-7294d73b8bd4","ios":"levelo://app?vid=ecc2bb2b-d522-48c7-ba6c-7294d73b8bd4"},"vehicle_type_id":"4","last_reported":1745497184,"current_range_meters":19200,"station_id":"","pricing_plan_id":"cebpf4jnsgd1na2vs0mg"},{"bike_id":"8cd89945-3452-402d-b186-42ab94aa749d","system_id":"levelo_inurba_marseille","lat":43.29229,"lon":5.36052,"is_reserved":false,"is_disabled":true,"rental_uris":{"android":"levelo://app?vid=8cd89945-3452-402d-b186-42ab94aa749d","ios":"levelo://app?vid=8cd89945-3452-402d-b186-42ab94aa749d"},"vehicle_type_id":"4","last_reported":1745497184,"current_range_meters":19200,"station_id":"ce4bhbh2rcd13ifvqeqg","pricing_plan_id":"cebpf4jnsgd1na2vs0mg"},{"bike_id":"0b49a38f-9b3a-426f-a4e1-a2e23b00ec58","system_id":"levelo_inurba_marseille","lat":43.3032,"lon":5.36898,"is_reserved":false,"is_disabled":false,"rental_uris":{"android":"levelo://app?vid=0b49a38f-9b3a-426f-a4e1-a2e23b00ec58","ios":"levelo://app?vid=0b49a38f-9b3a-426f-a4e1-a2e23b00ec58"},"vehicle_type_id":"4","last_reported":1745497184,"current_range_meters":19200,"station_id":"ce4bgqh2rcd13ifvqc5g","pricing_plan_id":"cebpf4jnsgd1na2vs0mg"},{"bike_id":"22b25eb4-7ddc-4303-89d0-5b5cb78ec229","system_id":"levelo_inurba_marseille","lat":43.29629,"lon":5.37728,"is_reserved":false,"is_disabled":false,"rental_uris":{"android":"levelo://app?vid=22b25eb4-7ddc-4303-89d0-5b5cb78ec229","ios":"levelo://app?vid=22b25eb4-7ddc-4303-89d0-5b5cb78ec229"},"vehicle_type_id":"4","last_reported":1745497184,"current_range_meters":19200,"station_id":"ce4bgi92rcd13ifvqb90","pricing_plan_id":"cebpf4jnsgd1na2vs0mg"},{"bike_id":"81bd717f-78e4-4bbe-a32d-6b5884b6a673","system_id":"levelo_inurba_marseille","lat":43.28936,"lon":5.36398,"is_reserved":false,"is_disabled":false,"rental_uris":{"android":"levelo://app?vid=81bd717f-78e4-4bbe-a32d-6b5884b6a673","ios":"levelo://app?vid=81bd717f-78e4-4bbe-a32d-6b5884b6a673"},"vehicle_type_id":"4","last_reported":1745497184,"current_range_meters":19200,"station_id":"ce4bhc92rcd13ifvqetg","pricing_plan_id":"cebpf4jnsgd1na2vs0mg"},{"bike_id":"58727b13-3ca0-4842-baa1-1faeff5caa77","system_id":"levelo_inurba_marseille","lat":43.23152,"lon":5.43714,"is_reserved":false,"is_disabled":true,"rental_uris":{"android":"levelo://app?vid=58727b13-3ca0-4842-baa1-1faeff5caa77","ios":"levelo://app?vid=58727b13-3ca0-4842-baa1-1faeff5caa77"},"vehicle_type_id":"4","last_reported":1745497184,"current_range_meters":19200,"station_id":"ce4bhmp2rcd13ifvqgog","pricing_plan_id":"cebpf4jnsgd1na2vs0mg"},{"bike_id":"b060a5cb-7521-4f42-826a-df832facd15e","system_id":"levelo_inurba_marseille","lat":43.28417,"lon":5.34979,"is_reserved":false,"is_disabled":false,"rental_uris":{"android":"levelo://app?vid=b060a5cb-7521-4f42-826a-df832facd15e","ios":"levelo://app?vid=b060a5cb-7521-4f42-826a-df832facd15e"},"vehicle_type_id":"4","last_reported":1745497184,"current_range_meters":19200,"station_id":"ce4bhbh2rcd13ifvqepg","pricing_plan_id":"cebpf4jnsgd1na2vs0mg"},{"bike_id":"0bfff189-ec6a-4439-b345-e9dd168ab867","system_id":"levelo_inurba_marseille","lat":43.33725,"lon":5.3918,"is_reserved":false,"is_disabled":false,"rental_uris":{"android":"levelo://app?vid=0bfff189-ec6a-4439-b345-e9dd168ab867","ios":"levelo://app?vid=0bfff189-ec6a-4439-b345-e9dd168ab867"},"vehicle_type_id":"4","last_reported":1745497184,"current_range_meters":19200,"station_id":"ce4bhr92rcd13ifvqhsg","pricing_plan_id":"cebpf4jnsgd1na2vs0mg"},{"bike_id":"b0566229-a09e-43bb-bac9-fb0a04fd43e7","system_id":"levelo_inurba_marseille","lat":43.283576,"lon":5.381138,"is_reserved":false,"is_disabled":false,"rental_uris":{"android":"levelo://app?vid=b0566229-a09e-43bb-bac9-fb0a04fd43e7","ios":"levelo://app?vid=b0566229-a09e-43bb-bac9-fb0a04fd43e7"},"vehicle_type_id":"4","last_reported":1745497184,"current_range_meters":19600,"station_id":"ce4bh412rcd13ifvqdr0","pricing_plan_id":"cebpf4jnsgd1na2vs0mg"},{"bike_id":"3694eb2b-b977-4952-affb-2db2d69f62aa","system_id":"levelo_inurba_marseille","lat":43.24165,"lon":5.39716,"is_reserved":false,"is_disabled":false,"rental_uris":{"android":"levelo://app?vid=3694eb2b-b977-4952-affb-2db2d69f62aa","ios":"levelo://app?vid=3694eb2b-b977-4952-affb-2db2d69f62aa"},"vehicle_type_id":"4","last_reported":1745497184,"current_range_meters":19600,"station_id":"ce4bhn12rcd13ifvqgpg","pricing_plan_id":"cebpf4jnsgd1na2vs0mg"},{"bike_id":"713e340d-4155-4de4-a5a1-7868887bc224","system_id":"levelo_inurba_marseille","lat":43.22927,"lon":5.35373,"is_reserved":false,"is_disabled":true,"rental_uris":{"android":"levelo://app?vid=713e340d-4155-4de4-a5a1-7868887bc224","ios":"levelo://app?vid=713e340d-4155-4de4-a5a1-7868887bc224"},"vehicle_type_id":"4","last_reported":1745497184,"current_range_meters":19600,"station_id":"cpo3532slgdg3j2ikp40","pricing_plan_id":"cebpf4jnsgd1na2vs0mg"},{"bike_id":"cfbb1ad7-ce0e-4486-9d63-44ff58f014c7","system_id":"levelo_inurba_marseille","lat":43.27842,"lon":5.39207,"is_reserved":false,"is_disabled":false,"rental_uris":{"android":"levelo://app?vid=cfbb1ad7-ce0e-4486-9d63-44ff58f014c7","ios":"levelo://app?vid=cfbb1ad7-ce0e-4486-9d63-44ff58f014c7"},"vehicle_type_id":"4","last_reported":1745497184,"current_range_meters":19600,"station_id":"ce4bhjp2rcd13ifvqga0","pricing_plan_id":"cebpf4jnsgd1na2vs0mg"},{"bike_id":"19b11be7-78b1-48be-b808-0b3d6bdb74c1","system_id":"levelo_inurba_marseille","lat":43.275,"lon":5.42456,"is_reserved":false,"is_disabled":false,"rental_uris":{"android":"levelo://app?vid=19b11be7-78b1-48be-b808-0b3d6bdb74c1","ios":"levelo://app?vid=19b11be7-78b1-48be-b808-0b3d6bdb74c1"},"vehicle_type_id":"4","last_reported":1745497184,"current_range_meters":19600,"station_id":"ce4bhn92rcd13ifvqgrg","pricing_plan_id":"cebpf4jnsgd1na2vs0mg"},{"bike_id":"6ab6d7b2-3290-448f-84a4-8ebdbe70ab9b","system_id":"levelo_inurba_marseille","lat":43.2656,"lon":5.37276,"is_reserved":false,"is_disabled":false,"rental_uris":{"android":"levelo://app?vid=6ab6d7b2-3290-448f-84a4-8ebdbe70ab9b","ios":"levelo://app?vid=6ab6d7b2-3290-448f-84a4-8ebdbe70ab9b"},"vehicle_type_id":"4","last_reported":1745497184,"current_range_meters":19600,"station_id":"ce4bhg12rcd13ifvqf70","pricing_plan_id":"cebpf4jnsgd1na2vs0mg"},{"bike_id":"52b16f60-500b-4e88-86ea-fff73c04845c","system_id":"levelo_inurba_marseille","lat":43.29415,"lon":5.38628,"is_reserved":false,"is_disabled":false,"rental_uris":{"android":"levelo://app?vid=52b16f60-500b-4e88-86ea-fff73c04845c","ios":"levelo://app?vid=52b16f60-500b-4e88-86ea-fff73c04845c"},"vehicle_type_id":"4","last_reported":1745497184,"current_range_meters":20000,"station_id":"chh1huq6cuj3fo74tm60","pricing_plan_id":"cebpf4jnsgd1na2vs0mg"},{"bike_id":"83bd89cc-ebaf-4adc-9f71-c39370c709f8","system_id":"levelo_inurba_marseille","lat":43.28445,"lon":5.39197,"is_reserved":false,"is_disabled":false,"rental_uris":{"android":"levelo://app?vid=83bd89cc-ebaf-4adc-9f71-c39370c709f8","ios":"levelo://app?vid=83bd89cc-ebaf-4adc-9f71-c39370c709f8"},"vehicle_type_id":"4","last_reported":1745497184,"current_range_meters":20000,"station_id":"ce4bhoh2rcd13ifvqh5g","pricing_plan_id":"cebpf4jnsgd1na2vs0mg"},{"bike_id":"5582e915-18c1-45ef-9037-af7dd7e64427","system_id":"levelo_inurba_marseille","lat":43.21194,"lon":5.35073,"is_reserved":false,"is_disabled":false,"rental_uris":{"android":"levelo://app?vid=5582e915-18c1-45ef-9037-af7dd7e64427","ios":"levelo://app?vid=5582e915-18c1-45ef-9037-af7dd7e64427"},"vehicle_type_id":"4","last_reported":1745497184,"current_range_meters":20000,"station_id":"st_cvj6sg6p6f1abm77japg","pricing_plan_id":"cebpf4jnsgd1na2vs0mg"},{"bike_id":"1f4946d5-59d7-4602-bdf6-47b34e4ea10f","system_id":"levelo_inurba_marseille","lat":43.29022,"lon":5.3559,"is_reserved":false,"is_disabled":false,"rental_uris":{"android":"levelo://app?vid=1f4946d5-59d7-4602-bdf6-47b34e4ea10f","ios":"levelo://app?vid=1f4946d5-59d7-4602-bdf6-47b34e4ea10f"},"vehicle_type_id":"4","last_reported":1745497184,"current_range_meters":20000,"station_id":"ce4bhb92rcd13ifvqen0","pricing_plan_id":"cebpf4jnsgd1na2vs0mg"},{"bike_id":"9a1c0be7-bd1a-4081-ab84-3ef05258b407","system_id":"levelo_inurba_marseille","lat":43.2119,"lon":5.3507,"is_reserved":false,"is_disabled":false,"rental_uris":{"android":"levelo://app?vid=9a1c0be7-bd1a-4081-ab84-3ef05258b407","ios":"levelo://app?vid=9a1c0be7-bd1a-4081-ab84-3ef05258b407"},"vehicle_type_id":"4","last_reported":1745497184,"current_range_meters":20000,"station_id":"st_cvj6sg6p6f1abm77japg","pricing_plan_id":"cebpf4jnsgd1na2vs0mg"},{"bike_id":"55330b42-44c7-48c2-bee6-596033dde04b","system_id":"levelo_inurba_marseille","lat":43.28458,"lon":5.35885,"is_reserved":false,"is_disabled":false,"rental_uris":{"android":"levelo://app?vid=55330b42-44c7-48c2-bee6-596033dde04b","ios":"levelo://app?vid=55330b42-44c7-48c2-bee6-596033dde04b"},"vehicle_type_id":"4","last_reported":1745497184,"current_range_meters":20000,"station_id":"ce4bhah2rcd13ifvqei0","pricing_plan_id":"cebpf4jnsgd1na2vs0mg"},{"bike_id":"bd57df41-1db6-4e0e-a3b0-bad1f18821af","system_id":"levelo_inurba_marseille","lat":43.28353,"lon":5.38088,"is_reserved":false,"is_disabled":false,"rental_uris":{"android":"levelo://app?vid=bd57df41-1db6-4e0e-a3b0-bad1f18821af","ios":"levelo://app?vid=bd57df41-1db6-4e0e-a3b0-bad1f18821af"},"vehicle_type_id":"4","last_reported":1745497184,"current_range_meters":20400,"station_id":"ce4bh412rcd13ifvqdr0","pricing_plan_id":"cebpf4jnsgd1na2vs0mg"},{"bike_id":"d6d22954-a5ae-40e5-bfdb-266dc9e9ef2c","system_id":"levelo_inurba_marseille","lat":43.31526,"lon":5.38033,"is_reserved":false,"is_disabled":false,"rental_uris":{"android":"levelo://app?vid=d6d22954-a5ae-40e5-bfdb-266dc9e9ef2c","ios":"levelo://app?vid=d6d22954-a5ae-40e5-bfdb-266dc9e9ef2c"},"vehicle_type_id":"4","last_reported":1745497184,"current_range_meters":20400,"station_id":"ce4bhsp2rcd13ifvqi50","pricing_plan_id":"cebpf4jnsgd1na2vs0mg"},{"bike_id":"3f23e552-bcb6-4c0a-932a-e31a469f8a85","system_id":"levelo_inurba_marseille","lat":43.298815,"lon":5.389027,"is_reserved":false,"is_disabled":false,"rental_uris":{"android":"levelo://app?vid=3f23e552-bcb6-4c0a-932a-e31a469f8a85","ios":"levelo://app?vid=3f23e552-bcb6-4c0a-932a-e31a469f8a85"},"vehicle_type_id":"4","last_reported":1745497184,"current_range_meters":20400,"station_id":"ce4bgqh2rcd13ifvqc5g","pricing_plan_id":"cebpf4jnsgd1na2vs0mg"},{"bike_id":"a192092f-dfec-47a0-b539-c02660f03067","system_id":"levelo_inurba_marseille","lat":43.29031,"lon":5.38132,"is_reserved":false,"is_disabled":false,"rental_uris":{"android":"levelo://app?vid=a192092f-dfec-47a0-b539-c02660f03067","ios":"levelo://app?vid=a192092f-dfec-47a0-b539-c02660f03067"},"vehicle_type_id":"4","last_reported":1745497184,"current_range_meters":20400,"station_id":"ce4bh4p2rcd13ifvqe1g","pricing_plan_id":"cebpf4jnsgd1na2vs0mg"},{"bike_id":"e6bd335f-2061-430a-a060-7778e4a1c8a4","system_id":"levelo_inurba_marseille","lat":43.26571,"lon":5.37259,"is_reserved":false,"is_disabled":false,"rental_uris":{"android":"levelo://app?vid=e6bd335f-2061-430a-a060-7778e4a1c8a4","ios":"levelo://app?vid=e6bd335f-2061-430a-a060-7778e4a1c8a4"},"vehicle_type_id":"4","last_reported":1745497184,"current_range_meters":20400,"station_id":"ce4bhg12rcd13ifvqf70","pricing_plan_id":"cebpf4jnsgd1na2vs0mg"},{"bike_id":"28c655a4-6907-4d6b-b598-69019c264ec2","system_id":"levelo_inurba_marseille","lat":43.337444,"lon":5.374475,"is_reserved":false,"is_disabled":false,"rental_uris":{"android":"levelo://app?vid=28c655a4-6907-4d6b-b598-69019c264ec2","ios":"levelo://app?vid=28c655a4-6907-4d6b-b598-69019c264ec2"},"vehicle_type_id":"4","last_reported":1745497184,"current_range_meters":20800,"station_id":"","pricing_plan_id":"cebpf4jnsgd1na2vs0mg"},{"bike_id":"876e96ed-c484-4d79-94a4-9cc8ef47a119","system_id":"levelo_inurba_marseille","lat":43.306045,"lon":5.38459,"is_reserved":false,"is_disabled":false,"rental_uris":{"android":"levelo://app?vid=876e96ed-c484-4d79-94a4-9cc8ef47a119","ios":"levelo://app?vid=876e96ed-c484-4d79-94a4-9cc8ef47a119"},"vehicle_type_id":"4","last_reported":1745497184,"current_range_meters":20800,"station_id":"ce4bh092rcd13ifvqd20","pricing_plan_id":"cebpf4jnsgd1na2vs0mg"},{"bike_id":"17e400d4-98c9-4388-acaa-fbcd0ea34c42","system_id":"levelo_inurba_marseille","lat":43.27312,"lon":5.39095,"is_reserved":false,"is_disabled":false,"rental_uris":{"android":"levelo://app?vid=17e400d4-98c9-4388-acaa-fbcd0ea34c42","ios":"levelo://app?vid=17e400d4-98c9-4388-acaa-fbcd0ea34c42"},"vehicle_type_id":"4","last_reported":1745497184,"current_range_meters":20800,"station_id":"ce4bhgp2rcd13ifvqfe0","pricing_plan_id":"cebpf4jnsgd1na2vs0mg"},{"bike_id":"3978f42b-81db-4347-85e5-35d80e7f730e","system_id":"levelo_inurba_marseille","lat":43.29979,"lon":5.38482,"is_reserved":false,"is_disabled":false,"rental_uris":{"android":"levelo://app?vid=3978f42b-81db-4347-85e5-35d80e7f730e","ios":"levelo://app?vid=3978f42b-81db-4347-85e5-35d80e7f730e"},"vehicle_type_id":"4","last_reported":1745497184,"current_range_meters":20800,"station_id":"ce4bgj92rcd13ifvqbd0","pricing_plan_id":"cebpf4jnsgd1na2vs0mg"},{"bike_id":"4e746044-2a18-414b-8527-d6d4d53945be","system_id":"levelo_inurba_marseille","lat":43.28868,"lon":5.35851,"is_reserved":false,"is_disabled":false,"rental_uris":{"android":"levelo://app?vid=4e746044-2a18-414b-8527-d6d4d53945be","ios":"levelo://app?vid=4e746044-2a18-414b-8527-d6d4d53945be"},"vehicle_type_id":"4","last_reported":1745497184,"current_range_meters":20800,"station_id":"ce4bhb12rcd13ifvqem0","pricing_plan_id":"cebpf4jnsgd1na2vs0mg"},{"bike_id":"25c3e919-a227-4f46-9b6a-55bb7466da8a","system_id":"levelo_inurba_marseille","lat":43.25576,"lon":5.38243,"is_reserved":false,"is_disabled":false,"rental_uris":{"android":"levelo://app?vid=25c3e919-a227-4f46-9b6a-55bb7466da8a","ios":"levelo://app?vid=25c3e919-a227-4f46-9b6a-55bb7466da8a"},"vehicle_type_id":"4","last_reported":1745497184,"current_range_meters":20800,"station_id":"ce4bhih2rcd13ifvqfs0","pricing_plan_id":"cebpf4jnsgd1na2vs0mg"},{"bike_id":"2841ca94-5f25-4305-9fc3-784580d2129f","system_id":"levelo_inurba_marseille","lat":43.28274,"lon":5.35067,"is_reserved":false,"is_disabled":false,"rental_uris":{"android":"levelo://app?vid=2841ca94-5f25-4305-9fc3-784580d2129f","ios":"levelo://app?vid=2841ca94-5f25-4305-9fc3-784580d2129f"},"vehicle_type_id":"4","last_reported":1745497184,"current_range_meters":20800,"station_id":"ce4bhbp2rcd13ifvqerg","pricing_plan_id":"cebpf4jnsgd1na2vs0mg"},{"bike_id":"f5222fbb-aed5-4ae0-a798-77557f4cc313","system_id":"levelo_inurba_marseille","lat":43.29838,"lon":5.36265,"is_reserved":false,"is_disabled":false,"rental_uris":{"android":"levelo://app?vid=f5222fbb-aed5-4ae0-a798-77557f4cc313","ios":"levelo://app?vid=f5222fbb-aed5-4ae0-a798-77557f4cc313"},"vehicle_type_id":"4","last_reported":1745497184,"current_range_meters":20800,"station_id":"ce4bgpp2rcd13ifvqc3g","pricing_plan_id":"cebpf4jnsgd1na2vs0mg"},{"bike_id":"987d7900-bb2a-45cb-bed7-6d69f6fd4fa3","system_id":"levelo_inurba_marseille","lat":43.28495,"lon":5.38445,"is_reserved":false,"is_disabled":false,"rental_uris":{"android":"levelo://app?vid=987d7900-bb2a-45cb-bed7-6d69f6fd4fa3","ios":"levelo://app?vid=987d7900-bb2a-45cb-bed7-6d69f6fd4fa3"},"vehicle_type_id":"4","last_reported":1745497184,"current_range_meters":20800,"station_id":"ce4bh512rcd13ifvqe3g","pricing_plan_id":"cebpf4jnsgd1na2vs0mg"},{"bike_id":"f2314f08-cf4a-4d8c-bd3d-b9b8baea6582","system_id":"levelo_inurba_marseille","lat":43.25932,"lon":5.40902,"is_reserved":false,"is_disabled":false,"rental_uris":{"android":"levelo://app?vid=f2314f08-cf4a-4d8c-bd3d-b9b8baea6582","ios":"levelo://app?vid=f2314f08-cf4a-4d8c-bd3d-b9b8baea6582"},"vehicle_type_id":"4","last_reported":1745497184,"current_range_meters":20800,"station_id":"ce4bhm92rcd13ifvqglg","pricing_plan_id":"cebpf4jnsgd1na2vs0mg"},{"bike_id":"829e6027-c98c-4052-9336-7fe801b0bc22","system_id":"levelo_inurba_marseille","lat":43.23162,"lon":5.43694,"is_reserved":false,"is_disabled":true,"rental_uris":{"android":"levelo://app?vid=829e6027-c98c-4052-9336-7fe801b0bc22","ios":"levelo://app?vid=829e6027-c98c-4052-9336-7fe801b0bc22"},"vehicle_type_id":"4","last_reported":1745497184,"current_range_meters":21600,"station_id":"ce4bhmp2rcd13ifvqgog","pricing_plan_id":"cebpf4jnsgd1na2vs0mg"},{"bike_id":"cc39e7b2-a0a9-4aa2-b00a-dec7442908f9","system_id":"levelo_inurba_marseille","lat":43.30932,"lon":5.4016,"is_reserved":false,"is_disabled":false,"rental_uris":{"android":"levelo://app?vid=cc39e7b2-a0a9-4aa2-b00a-dec7442908f9","ios":"levelo://app?vid=cc39e7b2-a0a9-4aa2-b00a-dec7442908f9"},"vehicle_type_id":"4","last_reported":1745497184,"current_range_meters":21600,"station_id":"ce4bgvp2rcd13ifvqct0","pricing_plan_id":"cebpf4jnsgd1na2vs0mg"},{"bike_id":"b7b393f0-b786-42df-989c-4a6cb72210f4","system_id":"levelo_inurba_marseille","lat":43.3236,"lon":5.36747,"is_reserved":false,"is_disabled":false,"rental_uris":{"android":"levelo://app?vid=b7b393f0-b786-42df-989c-4a6cb72210f4","ios":"levelo://app?vid=b7b393f0-b786-42df-989c-4a6cb72210f4"},"vehicle_type_id":"4","last_reported":1745497184,"current_range_meters":22000,"station_id":"ce4bhsh2rcd13ifvqi2g","pricing_plan_id":"cebpf4jnsgd1na2vs0mg"},{"bike_id":"183bb44a-cd53-46d9-99be-6e047a2595e3","system_id":"levelo_inurba_marseille","lat":43.28415,"lon":5.34994,"is_reserved":false,"is_disabled":false,"rental_uris":{"android":"levelo://app?vid=183bb44a-cd53-46d9-99be-6e047a2595e3","ios":"levelo://app?vid=183bb44a-cd53-46d9-99be-6e047a2595e3"},"vehicle_type_id":"4","last_reported":1745497184,"current_range_meters":22000,"station_id":"ce4bhbh2rcd13ifvqepg","pricing_plan_id":"cebpf4jnsgd1na2vs0mg"},{"bike_id":"bec7778a-1536-4dec-ad95-60587ca3f25c","system_id":"levelo_inurba_marseille","lat":43.29796,"lon":5.40397,"is_reserved":false,"is_disabled":false,"rental_uris":{"android":"levelo://app?vid=bec7778a-1536-4dec-ad95-60587ca3f25c","ios":"levelo://app?vid=bec7778a-1536-4dec-ad95-60587ca3f25c"},"vehicle_type_id":"4","last_reported":1745497184,"current_range_meters":22000,"station_id":"ce4bh112rcd13ifvqd90","pricing_plan_id":"cebpf4jnsgd1na2vs0mg"},{"bike_id":"dc6a92ef-8c68-42b4-a12c-798b73063006","system_id":"levelo_inurba_marseille","lat":43.28344,"lon":5.38099,"is_reserved":false,"is_disabled":false,"rental_uris":{"android":"levelo://app?vid=dc6a92ef-8c68-42b4-a12c-798b73063006","ios":"levelo://app?vid=dc6a92ef-8c68-42b4-a12c-798b73063006"},"vehicle_type_id":"4","last_reported":1745497184,"current_range_meters":22000,"station_id":"ce4bh412rcd13ifvqdr0","pricing_plan_id":"cebpf4jnsgd1na2vs0mg"},{"bike_id":"b75f9071-788c-491e-a3a4-51d09ccce4bd","system_id":"levelo_inurba_marseille","lat":43.29172,"lon":5.37164,"is_reserved":false,"is_disabled":false,"rental_uris":{"android":"levelo://app?vid=b75f9071-788c-491e-a3a4-51d09ccce4bd","ios":"levelo://app?vid=b75f9071-788c-491e-a3a4-51d09ccce4bd"},"vehicle_type_id":"4","last_reported":1745497184,"current_range_meters":22000,"station_id":"ce4bha92rcd13ifvqeh0","pricing_plan_id":"cebpf4jnsgd1na2vs0mg"},{"bike_id":"9f2041d7-ec10-42ab-b6a6-c989f85cff69","system_id":"levelo_inurba_marseille","lat":43.28103,"lon":5.37846,"is_reserved":false,"is_disabled":false,"rental_uris":{"android":"levelo://app?vid=9f2041d7-ec10-42ab-b6a6-c989f85cff69","ios":"levelo://app?vid=9f2041d7-ec10-42ab-b6a6-c989f85cff69"},"vehicle_type_id":"4","last_reported":1745497184,"current_range_meters":22400,"station_id":"ce4bha12rcd13ifvqee0","pricing_plan_id":"cebpf4jnsgd1na2vs0mg"},{"bike_id":"b5718bc8-d207-457d-891b-21da743d7248","system_id":"levelo_inurba_marseille","lat":43.28613,"lon":5.37042,"is_reserved":false,"is_disabled":false,"rental_uris":{"android":"levelo://app?vid=b5718bc8-d207-457d-891b-21da743d7248","ios":"levelo://app?vid=b5718bc8-d207-457d-891b-21da743d7248"},"vehicle_type_id":"4","last_reported":1745497184,"current_range_meters":22400,"station_id":"ce4bht12rcd13ifvqi60","pricing_plan_id":"cebpf4jnsgd1na2vs0mg"},{"bike_id":"3003173e-d5b4-46a0-a517-c64db09eb2a6","system_id":"levelo_inurba_marseille","lat":43.28255,"lon":5.35063,"is_reserved":false,"is_disabled":false,"rental_uris":{"android":"levelo://app?vid=3003173e-d5b4-46a0-a517-c64db09eb2a6","ios":"levelo://app?vid=3003173e-d5b4-46a0-a517-c64db09eb2a6"},"vehicle_type_id":"4","last_reported":1745497184,"current_range_meters":22400,"station_id":"ce4bhbp2rcd13ifvqerg","pricing_plan_id":"cebpf4jnsgd1na2vs0mg"},{"bike_id":"d7eaf6e7-e4f9-48ea-b04b-e6807d8c2055","system_id":"levelo_inurba_marseille","lat":43.28364,"lon":5.38612,"is_reserved":false,"is_disabled":false,"rental_uris":{"android":"levelo://app?vid=d7eaf6e7-e4f9-48ea-b04b-e6807d8c2055","ios":"levelo://app?vid=d7eaf6e7-e4f9-48ea-b04b-e6807d8c2055"},"vehicle_type_id":"4","last_reported":1745497184,"current_range_meters":22400,"station_id":"ce4bh492rcd13ifvqdvg","pricing_plan_id":"cebpf4jnsgd1na2vs0mg"},{"bike_id":"cca02057-be85-4dbc-b033-ab10e8d969fc","system_id":"levelo_inurba_marseille","lat":43.21191,"lon":5.350756,"is_reserved":false,"is_disabled":false,"rental_uris":{"android":"levelo://app?vid=cca02057-be85-4dbc-b033-ab10e8d969fc","ios":"levelo://app?vid=cca02057-be85-4dbc-b033-ab10e8d969fc"},"vehicle_type_id":"4","last_reported":1745497184,"current_range_meters":22400,"station_id":"ce4bhap2rcd13ifvqek0","pricing_plan_id":"cebpf4jnsgd1na2vs0mg"},{"bike_id":"42264658-4f23-432b-86d8-33cb8e06325e","system_id":"levelo_inurba_marseille","lat":43.31083,"lon":5.42428,"is_reserved":false,"is_disabled":false,"rental_uris":{"android":"levelo://app?vid=42264658-4f23-432b-86d8-33cb8e06325e","ios":"levelo://app?vid=42264658-4f23-432b-86d8-33cb8e06325e"},"vehicle_type_id":"4","last_reported":1745497184,"current_range_meters":22400,"station_id":"ce4bhp92rcd13ifvqhag","pricing_plan_id":"cebpf4jnsgd1na2vs0mg"},{"bike_id":"bd079e72-0129-4d1e-9b32-c8e9991a3f84","system_id":"levelo_inurba_marseille","lat":43.30469,"lon":5.37904,"is_reserved":false,"is_disabled":false,"rental_uris":{"android":"levelo://app?vid=bd079e72-0129-4d1e-9b32-c8e9991a3f84","ios":"levelo://app?vid=bd079e72-0129-4d1e-9b32-c8e9991a3f84"},"vehicle_type_id":"4","last_reported":1745497184,"current_range_meters":22400,"station_id":"ce4bgup2rcd13ifvqcn0","pricing_plan_id":"cebpf4jnsgd1na2vs0mg"},{"bike_id":"e52c446e-7707-4bfd-9696-9aa8c9e8bb18","system_id":"levelo_inurba_marseille","lat":43.28616,"lon":5.35103,"is_reserved":false,"is_disabled":false,"rental_uris":{"android":"levelo://app?vid=e52c446e-7707-4bfd-9696-9aa8c9e8bb18","ios":"levelo://app?vid=e52c446e-7707-4bfd-9696-9aa8c9e8bb18"},"vehicle_type_id":"4","last_reported":1745497184,"current_range_meters":22400,"station_id":"ce4bhch2rcd13ifvqeug","pricing_plan_id":"cebpf4jnsgd1na2vs0mg"},