{"last_updated":1737018558,"ttl":60,"version":"2.2","data":{"bikes":[{"bike_id":"139d2bf6-4119-438e-9824-dc456f36ce4d","system_id":"levelo_inurba_marseille","lat":43.30303,"lon":5.36896,"is_reserved":false,"is_disabled":false,"rental_uris":{"android":"levelo://app?vid=139d2bf6-4119-438e-9824-dc456f36ce4d","ios":"levelo://app?vid=139d2bf6-4119-438e-9824-dc456f36ce4d"},"vehicle_type_id":"4","last_reported":1737018558,"current_range_meters":30000,"station_id":"ce4bgqh2rcd13ifvqc5g","pricing_plan_id":"cebpf4jnsgd1na2vs0mg"},{"bike_id":"b21098d7-eecb-4a66-8acd-8f412d3266eb","system_id":"levelo_inurba_marseille","lat":43.25498,"lon":5.37652,"is_reserved":false,"is_disabled":false,"rental_uris":{"android":"levelo://app?vid=b21098d7-eecb-4a66-8acd-8f412d3266eb","ios":"levelo://app?vid=b21098d7-eecb-4a66-8acd-8f412d3266eb"},"vehicle_type_id":"4","last_reported":1737018558,"current_range_meters":20000,"station_id":"ce4bhh12rcd13ifvqff0","pricing_plan_id":"cebpf4jnsgd1na2vs0mg"},{"bike_id":"70a87767-5fd0-433c-aac6-675eb4693413","system_id":"levelo_inurba_marseille","lat":43.32543,"lon":5.41495,"is_reserved":false,"is_disabled":false,"rental_uris":{"android":"levelo://app?vid=70a87767-5fd0-433c-aac6-675eb4693413","ios":"levelo://app?vid=70a87767-5fd0-433c-aac6-675eb4693413"},"vehicle_type_id":"4","last_reported":1737018558,"current_range_meters":28000,"station_id":"ce4bhq12rcd13ifvqhhg","pricing_plan_id":"cebpf4jnsgd1na2vs0mg"},{"bike_id":"10f8bc90-c2cf-4afd-9c42-f6a7949371ba","system_id":"levelo_inurba_marseille","lat":43.28355,"lon":5.38637,"is_reserved":false,"is_disabled":false,"rental_uris":{"android":"levelo://app?vid=10f8bc90-c2cf-4afd-9c42-f6a7949371ba","ios":"levelo://app?vid=10f8bc90-c2cf-4afd-9c42-f6a7949371ba"},"vehicle_type_id":"4","last_reported":1737018558,"current_range_meters":38800,"station_id":"ce4bh492rcd13ifvqdvg","pricing_plan_id":"cebpf4jnsgd1na2vs0mg"},{"bike_id":"481bda0e-fe18-4926-a202-e5913cf32d5b","system_id":"levelo_inurba_marseille","lat":43.24648,"lon":5.38904,"is_reserved":false,"is_disabled":false,"rental_uris":{"android":"levelo://app?vid=481bda0e-fe18-4926-a202-e5913cf32d5b","ios":"levelo://app?vid=481bda0e-fe18-4926-a202-e5913cf32d5b"},"vehicle_type_id":"4","last_reported":1737018558,"current_range_meters":28800,"station_id":"ce4bhg12rcd13ifvqf60","pricing_plan_id":"cebpf4jnsgd1na2vs0mg"},{"bike_id":"231531ce-159c-430d-a73a-34d518b1b8d8","system_id":"levelo_inurba_marseille","lat":43.259301,"lon":5.408936,"is_reserved":false,"is_disabled":false,"rental_uris":{"android":"levelo://app?vid=231531ce-159c-430d-a73a-34d518b1b8d8","ios":"levelo://app?vid=231531ce-159c-430d-a73a-34d518b1b8d8"},"vehicle_type_id":"4","last_reported":1737018558,"current_range_meters":37600,"station_id":"ce4bhm92rcd13ifvqglg","pricing_plan_id":"cebpf4jnsgd1na2vs0mg"},{"bike_id":"7e630d10-5abb-4c05-b4a6-74f3b559e769","system_id":"levelo_inurba_marseille","lat":43.3053,"lon":5.36706,"is_reserved":false,"is_disabled":false,"rental_uris":{"android":"levelo://app?vid=7e630d10-5abb-4c05-b4a6-74f3b559e769","ios":"levelo://app?vid=7e630d10-5abb-4c05-b4a6-74f3b559e769"},"vehicle_type_id":"4","last_reported":1737018558,"current_range_meters":34800,"station_id":"ce4bgrp2rcd13ifvqc9g","pricing_plan_id":"cebpf4jnsgd1na2vs0mg"},{"bike_id":"6d540c0f-98a4-4311-9d97-d8f4a0c4b88a","system_id":"levelo_inurba_marseille","lat":43.23184,"lon":5.39992,"is_reserved":false,"is_disabled":false,"rental_uris":{"android":"levelo://app?vid=6d540c0f-98a4-4311-9d97-d8f4a0c4b88a","ios":"levelo://app?vid=6d540c0f-98a4-4311-9d97-d8f4a0c4b88a"},"vehicle_type_id":"4","last_reported":1737018558,"current_range_meters":19200,"station_id":"ce4bhn12rcd13ifvqgqg","pricing_plan_id":"cebpf4jnsgd1na2vs0mg"},{"bike_id":"fa2a03be-b9a8-4a7b-bcf6-bdd836cf0e2e","system_id":"levelo_inurba_marseille","lat":43.293,"lon":5.37463,"is_reserved":false,"is_disabled":false,"rental_uris":{"android":"levelo://app?vid=fa2a03be-b9a8-4a7b-bcf6-bdd836cf0e2e","ios":"levelo://app?vid=fa2a03be-b9a8-4a7b-bcf6-bdd836cf0e2e"},"vehicle_type_id":"4","last_reported":1737018558,"current_range_meters":17200,"station_id":"ce4bgi12rcd13ifvqb70","pricing_plan_id":"cebpf4jnsgd1na2vs0mg"},{"bike_id":"03519357-cc71-4610-a101-c7e9590195a2","system_id":"levelo_inurba_marseille","lat":43.23153,"lon":5.4371,"is_reserved":false,"is_disabled":false,"rental_uris":{"android":"levelo://app?vid=03519357-cc71-4610-a101-c7e9590195a2","ios":"levelo://app?vid=03519357-cc71-4610-a101-c7e9590195a2"},"vehicle_type_id":"4","last_reported":1737018558,"current_range_meters":23200,"station_id":"ce4bhmp2rcd13ifvqgog","pricing_plan_id":"cebpf4jnsgd1na2vs0mg"},{"bike_id":"59590efe-7589-4f56-8017-b47e9dc1601a","system_id":"levelo_inurba_marseille","lat":43.27484,"lon":5.42476,"is_reserved":false,"is_disabled":false,"rental_uris":{"android":"levelo://app?vid=59590efe-7589-4f56-8017-b47e9dc1601a","ios":"levelo://app?vid=59590efe-7589-4f56-8017-b47e9dc1601a"},"vehicle_type_id":"4","last_reported":1737018558,"current_range_meters":35600,"station_id":"ce4bhn92rcd13ifvqgrg","pricing_plan_id":"cebpf4jnsgd1na2vs0mg"},{"bike_id":"4fa358ca-b741-467a-a03f-b8033021b471","system_id":"levelo_inurba_marseille","lat":43.337525,"lon":5.374502,"is_reserved":false,"is_disabled":false,"rental_uris":{"android":"levelo://app?vid=4fa358ca-b741-467a-a03f-b8033021b471","ios":"levelo://app?vid=4fa358ca-b741-467a-a03f-b8033021b471"},"vehicle_type_id":"4","last_reported":1737018558,"current_range_meters":38400,"station_id":"","pricing_plan_id":"cebpf4jnsgd1na2vs0mg"},{"bike_id":"3eed1e72-6bde-493b-a16e-11b3c61adb92","system_id":"levelo_inurba_marseille","lat":43.28445,"lon":5.3918,"is_reserved":false,"is_disabled":true,"rental_uris":{"android":"levelo://app?vid=3eed1e72-6bde-493b-a16e-11b3c61adb92","ios":"levelo://app?vid=3eed1e72-6bde-493b-a16e-11b3c61adb92"},"vehicle_type_id":"4","last_reported":1737018558,"current_range_meters":38800,"station_id":"ce4bhoh2rcd13ifvqh5g","pricing_plan_id":"cebpf4jnsgd1na2vs0mg"},{"bike_id":"2b2cb29b-656b-412b-b107-6e49fdf15518","system_id":"levelo_inurba_marseille","lat":43.27486,"lon":5.42463,"is_reserved":false,"is_disabled":true,"rental_uris":{"android":"levelo://app?vid=2b2cb29b-656b-412b-b107-6e49fdf15518","ios":"levelo://app?vid=2b2cb29b-656b-412b-b107-6e49fdf15518"},"vehicle_type_id":"4","last_reported":1737018558,"current_range_meters":0,"station_id":"ce4bhn92rcd13ifvqgrg","pricing_plan_id":"cebpf4jnsgd1na2vs0mg"},{"bike_id":"c8cfc202-d733-4989-9330-14558b81f152","system_id":"levelo_inurba_marseille","lat":43.30945,"lon":5.39056,"is_reserved":false,"is_disabled":false,"rental_uris":{"android":"levelo://app?vid=c8cfc202-d733-4989-9330-14558b81f152","ios":"levelo://app?vid=c8cfc202-d733-4989-9330-14558b81f152"},"vehicle_type_id":"4","last_reported":1737018558,"current_range_meters":24000,"station_id":"ce4bgup2rcd13ifvqco0","pricing_plan_id":"cebpf4jnsgd1na2vs0mg"},{"bike_id":"b9d506f3-d5fd-4d37-904a-7c52215a265a","system_id":"levelo_inurba_marseille","lat":43.24162,"lon":5.39709,"is_reserved":false,"is_disabled":false,"rental_uris":{"android":"levelo://app?vid=b9d506f3-d5fd-4d37-904a-7c52215a265a","ios":"levelo://app?vid=b9d506f3-d5fd-4d37-904a-7c52215a265a"},"vehicle_type_id":"4","last_reported":1737018558,"current_range_meters":30000,"station_id":"ce4bhn12rcd13ifvqgpg","pricing_plan_id":"cebpf4jnsgd1na2vs0mg"},{"bike_id":"e36edd0e-87b1-44c2-adc6-29c5e51a215d","system_id":"levelo_inurba_marseille","lat":43.3053,"lon":5.36697,"is_reserved":false,"is_disabled":false,"rental_uris":{"android":"levelo://app?vid=e36edd0e-87b1-44c2-adc6-29c5e51a215d","ios":"levelo://app?vid=e36edd0e-87b1-44c2-adc6-29c5e51a215d"},"vehicle_type_id":"4","last_reported":1737018558,"current_range_meters":20000,"station_id":"ce4bgrp2rcd13ifvqc9g","pricing_plan_id":"cebpf4jnsgd1na2vs0mg"},{"bike_id":"db994bbe-09a7-416d-80a4-fb3c0589b258","system_id":"levelo_inurba_marseille","lat":43.2847,"lon":5.38427,"is_reserved":false,"is_disabled":false,"rental_uris":{"android":"levelo://app?vid=db994bbe-09a7-416d-80a4-fb3c0589b258","ios":"levelo://app?vid=db994bbe-09a7-416d-80a4-fb3c0589b258"},"vehicle_type_id":"4","last_reported":1737018558,"current_range_meters":38400,"station_id":"ce4bh512rcd13ifvqe3g","pricing_plan_id":"cebpf4jnsgd1na2vs0mg"},{"bike_id":"3dd0ce35-84cf-4b64-aab3-9d39b950bf85","system_id":"levelo_inurba_marseille","lat":43.2977,"lon":5.37104,"is_reserved":false,"is_disabled":false,"rental_uris":{"android":"levelo://app?vid=3dd0ce35-84cf-4b64-aab3-9d39b950bf85","ios":"levelo://app?vid=3dd0ce35-84cf-4b64-aab3-9d39b950bf85"},"vehicle_type_id":"4","last_reported":1737018558,"current_range_meters":38800,"station_id":"ce4bgop2rcd13ifvqc1g","pricing_plan_id":"cebpf4jnsgd1na2vs0mg"},{"bike_id":"25c1508c-26f0-454d-aa37-9e0fab8979cc","system_id":"levelo_inurba_marseille","lat":43.25582,"lon":5.38234,"is_reserved":false,"is_disabled":false,"rental_uris":{"android":"levelo://app?vid=25c1508c-26f0-454d-aa37-9e0fab8979cc","ios":"levelo://app?vid=25c1508c-26f0-454d-aa37-9e0fab8979cc"},"vehicle_type_id":"4","last_reported":1737018558,"current_range_meters":38800,"station_id":"ce4bhih2rcd13ifvqfs0","pricing_plan_id":"cebpf4jnsgd1na2vs0mg"},{"bike_id":"05dcce0a-1f30-4267-9930-c165e5e4ea9d","system_id":"levelo_inurba_marseille","lat":43.24084,"lon":5.37769,"is_reserved":false,"is_disabled":false,"rental_uris":{"android":"levelo://app?vid=05dcce0a-1f30-4267-9930-c165e5e4ea9d","ios":"levelo://app?vid=05dcce0a-1f30-4267-9930-c165e5e4ea9d"},"vehicle_type_id":"4","last_reported":1737018558,"current_range_meters":38800,"station_id":"ce4bhnp2rcd13ifvqgvg","pricing_plan_id":"cebpf4jnsgd1na2vs0mg"},{"bike_id":"0e842b39-329d-48e2-b781-7e3babc96cf4","system_id":"levelo_inurba_marseille","lat":43.22933,"lon":5.353772,"is_reserved":false,"is_disabled":false,"rental_uris":{"android":"levelo://app?vid=0e842b39-329d-48e2-b781-7e3babc96cf4","ios":"levelo://app?vid=0e842b39-329d-48e2-b781-7e3babc96cf4"},"vehicle_type_id":"4","last_reported":1737018558,"current_range_meters":16400,"station_id":"cpo3532slgdg3j2ikp40","pricing_plan_id":"cebpf4jnsgd1na2vs0mg"},{"bike_id":"66d86647-f3d9-43c2-8067-2511dcc8853d","system_id":"levelo_inurba_marseille","lat":43.26938,"lon":5.40275,"is_reserved":false,"is_disabled":true,"rental_uris":{"android":"levelo://app?vid=66d86647-f3d9-43c2-8067-2511dcc8853d","ios":"levelo://app?vid=66d86647-f3d9-43c2-8067-2511dcc8853d"},"vehicle_type_id":"4","last_reported":1737018558,"current_range_meters":0,"station_id":"cjm6bp8fraef2m0cb0m0","pricing_plan_id":"cebpf4jnsgd1na2vs0mg"},{"bike_id":"d083a596-468f-49e0-b75d-d8e094f72423","system_id":"levelo_inurba_marseille","lat":43.31354,"lon":5.36737,"is_reserved":false,"is_disabled":false,"rental_uris":{"android":"levelo://app?vid=d083a596-468f-49e0-b75d-d8e094f72423","ios":"levelo://app?vid=d083a596-468f-49e0-b75d-d8e094f72423"},"vehicle_type_id":"4","last_reported":1737018558,"current_range_meters":25200,"station_id":"ce4bgr92rcd13ifvqc6g","pricing_plan_id":"cebpf4jnsgd1na2vs0mg"},{"bike_id":"0e7c3373-583a-438f-8dea-9a5760a26114","system_id":"levelo_inurba_marseille","lat":43.3091,"lon":5.37197,"is_reserved":false,"is_disabled":false,"rental_uris":{"android":"levelo://app?vid=0e7c3373-583a-438f-8dea-9a5760a26114","ios":"levelo://app?vid=0e7c3373-583a-438f-8dea-9a5760a26114"},"vehicle_type_id":"4","last_reported":1737018558,"current_range_meters":22000,"station_id":"ce4bguh2rcd13ifvqckg","pricing_plan_id":"cebpf4jnsgd1na2vs0mg"},{"bike_id":"8b6182c3-3c5e-4a05-80f5-f25cf3a13217","system_id":"levelo_inurba_marseille","lat":43.24542,"lon":5.39524,"is_reserved":false,"is_disabled":false,"rental_uris":{"android":"levelo://app?vid=8b6182c3-3c5e-4a05-80f5-f25cf3a13217","ios":"levelo://app?vid=8b6182c3-3c5e-4a05-80f5-f25cf3a13217"},"vehicle_type_id":"4","last_reported":1737018558,"current_range_meters":24800,"station_id":"ce4bhlp2rcd13ifvqgjg","pricing_plan_id":"cebpf4jnsgd1na2vs0mg"},{"bike_id":"b3888c95-de46-4170-b14f-9aa1dba6db78","system_id":"levelo_inurba_marseille","lat":43.25935,"lon":5.40901,"is_reserved":false,"is_disabled":false,"rental_uris":{"android":"levelo://app?vid=b3888c95-de46-4170-b14f-9aa1dba6db78","ios":"levelo://app?vid=b3888c95-de46-4170-b14f-9aa1dba6db78"},"vehicle_type_id":"4","last_reported":1737018558,"current_range_meters":30000,"station_id":"ce4bhm92rcd13ifvqglg","pricing_plan_id":"cebpf4jnsgd1na2vs0mg"},{"bike_id":"a56a5d73-b81b-4d86-9035-5b5f2dcab68b","system_id":"levelo_inurba_marseille","lat":43.32537,"lon":5.41436,"is_reserved":false,"is_disabled":false,"rental_uris":{"android":"levelo://app?vid=a56a5d73-b81b-4d86-9035-5b5f2dcab68b","ios":"levelo://app?vid=a56a5d73-b81b-4d86-9035-5b5f2dcab68b"},"vehicle_type_id":"4","last_reported":1737018558,"current_range_meters":27600,"station_id":"ce4bhq12rcd13ifvqhhg","pricing_plan_id":"cebpf4jnsgd1na2vs0mg"},{"bike_id":"62b62dd0-c110-403e-8ffe-32b7132fcedd","system_id":"levelo_inurba_marseille","lat":43.30538,"lon":5.3669,"is_reserved":false,"is_disabled":false,"rental_uris":{"android":"levelo://app?vid=62b62dd0-c110-403e-8ffe-32b7132fcedd","ios":"levelo://app?vid=62b62dd0-c110-403e-8ffe-32b7132fcedd"},"vehicle_type_id":"4","last_reported":1737018558,"current_range_meters":27200,"station_id":"ce4bgrp2rcd13ifvqc9g","pricing_plan_id":"cebpf4jnsgd1na2vs0mg"},{"bike_id":"21991245-c0ed-460a-96c0-efd1586188d9","system_id":"levelo_inurba_marseille","lat":43.26025,"lon":5.37566,"is_reserved":false,"is_disabled":false,"rental_uris":{"android":"levelo://app?vid=21991245-c0ed-460a-96c0-efd1586188d9","ios":"levelo://app?vid=21991245-c0ed-460a-96c0-efd1586188d9"},"vehicle_type_id":"4","last_reported":1737018558,"current_range_meters":35600,"station_id":"ce4bhgh2rcd13ifvqfa0","pricing_plan_id":"cebpf4jnsgd1na2vs0mg"},{"bike_id":"9f8eb278-f5b8-4fa4-9a97-4a9550cd3b91","system_id":"levelo_inurba_marseille","lat":43.3136,"lon":5.38491,"is_reserved":false,"is_disabled":false,"rental_uris":{"android":"levelo://app?vid=9f8eb278-f5b8-4fa4-9a97-4a9550cd3b91","ios":"levelo://app?vid=9f8eb278-f5b8-4fa4-9a97-4a9550cd3b91"},"vehicle_type_id":"4","last_reported":1737018558,"current_range_meters":13600,"station_id":"ce4bgt92rcd13ifvqcf0","pricing_plan_id":"cebpf4jnsgd1na2vs0mg"},{"bike_id":"b96abaf4-0fa5-4720-8999-93f7ce59d4e6","system_id":"levelo_inurba_marseille","lat":43.270676,"lon":5.422739,"is_reserved":false,"is_disabled":false,"rental_uris":{"android":"levelo://app?vid=b96abaf4-0fa5-4720-8999-93f7ce59d4e6","ios":"levelo://app?vid=b96abaf4-0fa5-4720-8999-93f7ce59d4e6"},"vehicle_type_id":"4","last_reported":1737018558,"current_range_meters":35600,"station_id":"ce4bhk92rcd13ifvqgb0","pricing_plan_id":"cebpf4jnsgd1na2vs0mg"},{"bike_id":"43fd6972-8b77-49c4-9232-69d397e2e1ec","system_id":"levelo_inurba_marseille","lat":43.2408,"lon":5.37757,"is_reserved":false,"is_disabled":false,"rental_uris":{"android":"levelo://app?vid=43fd6972-8b77-49c4-9232-69d397e2e1ec","ios":"levelo://app?vid=43fd6972-8b77-49c4-9232-69d397e2e1ec"},"vehicle_type_id":"4","last_reported":1737018558,"current_range_meters":38800,"station_id":"ce4bhnp2rcd13ifvqgvg","pricing_plan_id":"cebpf4jnsgd1na2vs0mg"},{"bike_id":"b6cd1048-f554-4c7f-b0ce-69b94038b7b1","system_id":"levelo_inurba_marseille","lat":43.29037,"lon":5.39955,"is_reserved":false,"is_disabled":true,"rental_uris":{"android":"levelo://app?vid=b6cd1048-f554-4c7f-b0ce-69b94038b7b1","ios":"levelo://app?vid=b6cd1048-f554-4c7f-b0ce-69b94038b7b1"},"vehicle_type_id":"4","last_reported":1737018558,"current_range_meters":400,"station_id":"ce4bh392rcd13ifvqdm0","pricing_plan_id":"cebpf4jnsgd1na2vs0mg"},{"bike_id":"2cfc22a4-e5c0-4451-bb47-6db034e1f29d","system_id":"levelo_inurba_marseille","lat":43.31083,"lon":5.42434,"is_reserved":false,"is_disabled":false,"rental_uris":{"android":"levelo://app?vid=2cfc22a4-e5c0-4451-bb47-6db034e1f29d","ios":"levelo://app?vid=2cfc22a4-e5c0-4451-bb47-6db034e1f29d"},"vehicle_type_id":"4","last_reported":1737018558,"current_range_meters":16000,"station_id":"ce4bhp92rcd13ifvqhag","pricing_plan_id":"cebpf4jnsgd1na2vs0mg"},{"bike_id":"78a6905b-a0bc-410a-86bd-574d88fa653d","system_id":"levelo_inurba_marseille","lat":43.29565,"lon":5.37489,"is_reserved":false,"is_disabled":false,"rental_uris":{"android":"levelo://app?vid=78a6905b-a0bc-410a-86bd-574d88fa653d","ios":"levelo://app?vid=78a6905b-a0bc-410a-86bd-574d88fa653d"},"vehicle_type_id":"4","last_reported":1737018558,"current_range_meters":20000,"station_id":"ce4bgh92rcd13ifvqb50","pricing_plan_id":"cebpf4jnsgd1na2vs0mg"},{"bike_id":"c8e997c0-8580-4d0f-8d9f-0766596381e1","system_id":"levelo_inurba_marseille","lat":43.33918,"lon":5.37562,"is_reserved":false,"is_disabled":true,"rental_uris":{"android":"levelo://app?vid=c8e997c0-8580-4d0f-8d9f-0766596381e1","ios":"levelo://app?vid=c8e997c0-8580-4d0f-8d9f-0766596381e1"},"vehicle_type_id":"4","last_reported":1737018558,"current_range_meters":0,"station_id":"","pricing_plan_id":"cebpf4jnsgd1na2vs0mg"},{"bike_id":"e340e917-c270-4e31-8f27-90652c6718cd","system_id":"levelo_inurba_marseille","lat":43.3141,"lon":5.36721,"is_reserved":false,"is_disabled":false,"rental_uris":{"android":"levelo://app?vid=e340e917-c270-4e31-8f27-90652c6718cd","ios":"levelo://app?vid=e340e917-c270-4e31-8f27-90652c6718cd"},"vehicle_type_id":"4","last_reported":1737018558,"current_range_meters":29600,"station_id":"ce4bgr92rcd13ifvqc6g","pricing_plan_id":"cebpf4jnsgd1na2vs0mg"},{"bike_id":"3ded76a8-388a-45a9-8e5f-d9e35103059f","system_id":"levelo_inurba_marseille","lat":43.30343,"lon":5.37719,"is_reserved":false,"is_disabled":false,"rental_uris":{"android":"levelo://app?vid=3ded76a8-388a-45a9-8e5f-d9e35103059f","ios":"levelo://app?vid=3ded76a8-388a-45a9-8e5f-d9e35103059f"},"vehicle_type_id":"4","last_reported":1737018558,"current_range_meters":16800,"station_id":"ce4bguh2rcd13ifvqcj0","pricing_plan_id":"cebpf4jnsgd1na2vs0mg"},{"bike_id":"20a1526a-6b93-4b78-8a18-19c12791dc6f","system_id":"levelo_inurba_marseille","lat":43.30299,"lon":5.37709,"is_reserved":false,"is_disabled":false,"rental_uris":{"android":"levelo://app?vid=20a1526a-6b93-4b78-8a18-19c12791dc6f","ios":"levelo://app?vid=20a1526a-6b93-4b78-8a18-19c12791dc6f"},"vehicle_type_id":"4","last_reported":1737018558,"current_range_meters":26000,"station_id":"ce4bguh2rcd13ifvqcj0","pricing_plan_id":"cebpf4jnsgd1na2vs0mg"},{"bike_id":"0cc1f27d-1035-40fd-ba3f-5de5429ce598","system_id":"levelo_inurba_marseille","lat":43.30201,"lon":5.36628,"is_reserved":false,"is_disabled":false,"rental_uris":{"android":"levelo://app?vid=0cc1f27d-1035-40fd-ba3f-5de5429ce598","ios":"levelo://app?vid=0cc1f27d-1035-40fd-ba3f-5de5429ce598"},"vehicle_type_id":"4","last_reported":1737018558,"current_range_meters":11200,"station_id":"ce4bgrh2rcd13ifvqc8g","pricing_plan_id":"cebpf4jnsgd1na2vs0mg"},{"bike_id":"bef5c741-75bd-4f8f-a849-078d09ab7470","system_id":"levelo_inurba_marseille","lat":43.29878,"lon":5.4367,"is_reserved":false,"is_disabled":false,"rental_uris":{"android":"levelo://app?vid=bef5c741-75bd-4f8f-a849-078d09ab7470","ios":"levelo://app?vid=bef5c741-75bd-4f8f-a849-078d09ab7470"},"vehicle_type_id":"4","last_reported":1737018558,"current_range_meters":38400,"station_id":"ce4bhpp2rcd13ifvqhfg","pricing_plan_id":"cebpf4jnsgd1na2vs0mg"},{"bike_id":"b534ccb6-81fc-4913-b8ef-77c66e2ace0a","system_id":"levelo_inurba_marseille","lat":43.29193,"lon":5.39334,"is_reserved":false,"is_disabled":false,"rental_uris":{"android":"levelo://app?vid=b534ccb6-81fc-4913-b8ef-77c66e2ace0a","ios":"levelo://app?vid=b534ccb6-81fc-4913-b8ef-77c66e2ace0a"},"vehicle_type_id":"4","last_reported":1737018558,"current_range_meters":6000,"station_id":"ce4bh192rcd13ifvqdd0","pricing_plan_id":"cebpf4jnsgd1na2vs0mg"},{"bike_id":"426b760b-5b29-4f7d-aca9-7a9b7c2cd94a","system_id":"levelo_inurba_marseille","lat":43.24085,"lon":5.37753,"is_reserved":false,"is_disabled":false,"rental_uris":{"android":"levelo://app?vid=426b760b-5b29-4f7d-aca9-7a9b7c2cd94a","ios":"levelo://app?vid=426b760b-5b29-4f7d-aca9-7a9b7c2cd94a"},"vehicle_type_id":"4","last_reported":1737018558,"current_range_meters":27600,"station_id":"ce4bhnp2rcd13ifvqgvg","pricing_plan_id":"cebpf4jnsgd1na2vs0mg"},{"bike_id":"5dc5ff4a-6f97-4551-b16e-6accac849217","system_id":"levelo_inurba_marseille","lat":43.30532,"lon":5.36702,"is_reserved":false,"is_disabled":false,"rental_uris":{"android":"levelo://app?vid=5dc5ff4a-6f97-4551-b16e-6accac849217","ios":"levelo://app?vid=5dc5ff4a-6f97-4551-b16e-6accac849217"},"vehicle_type_id":"4","last_reported":1737018558,"current_range_meters":38400,"station_id":"ce4bgrp2rcd13ifvqc9g","pricing_plan_id":"cebpf4jnsgd1na2vs0mg"},{"bike_id":"98c7bc0d-8afd-478f-8269-b861dff04add","system_id":"levelo_inurba_marseille","lat":43.28717,"lon":5.37934,"is_reserved":false,"is_disabled":false,"rental_uris":{"android":"levelo://app?vid=98c7bc0d-8afd-478f-8269-b861dff04add","ios":"levelo://app?vid=98c7bc0d-8afd-478f-8269-b861dff04add"},"vehicle_type_id":"4","last_reported":1737018558,"current_range_meters":24400,"station_id":"ce4bh9p2rcd13ifvqec0","pricing_plan_id":"cebpf4jnsgd1na2vs0mg"},{"bike_id":"47f0faf5-7021-46f2-868a-2604e74f7115","system_id":"levelo_inurba_marseille","lat":43.341411,"lon":5.409069,"is_reserved":false,"is_disabled":false,"rental_uris":{"android":"levelo://app?vid=47f0faf5-7021-46f2-868a-2604e74f7115","ios":"levelo://app?vid=47f0faf5-7021-46f2-868a-2604e74f7115"},"vehicle_type_id":"4","last_reported":1737018558,"current_range_meters":38800,"station_id":"ce4bhqh2rcd13ifvqhlg","pricing_plan_id":"cebpf4jnsgd1na2vs0mg"},{"bike_id":"ee28e867-21e8-4831-b259-c94c83f948c2","system_id":"levelo_inurba_marseille","lat":43.29563,"lon":5.36749,"is_reserved":false,"is_disabled":false,"rental_uris":{"android":"levelo://app?vid=ee28e867-21e8-4831-b259-c94c83f948c2","ios":"levelo://app?vid=ee28e867-21e8-4831-b259-c94c83f948c2"},"vehicle_type_id":"4","last_reported":1737018558,"current_range_meters":28800,"station_id":"ce4bgph2rcd13ifvqc2g","pricing_plan_id":"cebpf4jnsgd1na2vs0mg"},{"bike_id":"47ae10c4-1543-4d0c-bb81-d1f7a87b175c","system_id":"levelo_inurba_marseille","lat":43.29573,"lon":5.37524,"is_reserved":false,"is_disabled":false,"rental_uris":{"android":"levelo://app?vid=47ae10c4-1543-4d0c-bb81-d1f7a87b175c","ios":"levelo://app?vid=47ae10c4-1543-4d0c-bb81-d1f7a87b175c"},"vehicle_type_id":"4","last_reported":1737018558,"current_range_meters":38400,"station_id":"ce4bgh92rcd13ifvqb50","pricing_plan_id":"cebpf4jnsgd1na2vs0mg"},{"bike_id":"fa53afd0-c3c0-46c2-be7e-d056eb14f6b8","system_id":"levelo_inurba_marseille","lat":43.24059,"lon":5.37774,"is_reserved":false,"is_disabled":false,"rental_uris":{"android":"levelo://app?vid=fa53afd0-c3c0-46c2-be7e-d056eb14f6b8","ios":"levelo://app?vid=fa53afd0-c3c0-46c2-be7e-d056eb14f6b8"},"vehicle_type_id":"4","last_reported":1737018558,"current_range_meters":38800,"station_id":"ce4bhnp2rcd13ifvqgvg","pricing_plan_id":"cebpf4jnsgd1na2vs0mg"},{"bike_id":"2fb6d3ea-bbe7-46b6-bd6c-8defdff1cb3a","system_id":"levelo_inurba_marseille","lat":43.31321,"lon":5.36749,"is_reserved":false,"is_disabled":false,"rental_uris":{"android":"levelo://app?vid=2fb6d3ea-bbe7-46b6-bd6c-8defdff1cb3a","ios":"levelo://app?vid=2fb6d3ea-bbe7-46b6-bd6c-8defdff1cb3a"},"vehicle_type_id":"4","last_reported":1737018558,"current_range_meters":39200,"station_id":"ce4bgr92rcd13ifvqc6g","pricing_plan_id":"cebpf4jnsgd1na2vs0mg"},{"bike_id":"d0667ff6-79fe-403d-86e3-e40bf5a92767","system_id":"levelo_inurba_marseille","lat":43.28708,"lon":5.37396,"is_reserved":false,"is_disabled":true,"rental_uris":{"android":"levelo://app?vid=d0667ff6-79fe-403d-86e3-e40bf5a92767","ios":"levelo://app?vid=d0667ff6-79fe-403d-86e3-e40bf5a92767"},"vehicle_type_id":"4","last_reported":1737018558,"current_range_meters":33600,"station_id":"ce4bh3p2rcd13ifvqdq0","pricing_plan_id":"cebpf4jnsgd1na2vs0mg"},{"bike_id":"1b8cc952-4975-4cc8-a6b4-ff9566cbb0d7","system_id":"levelo_inurba_marseille","lat":43.29039,"lon":5.37577,"is_reserved":false,"is_disabled":false,"rental_uris":{"android":"levelo://app?vid=1b8cc952-4975-4cc8-a6b4-ff9566cbb0d7","ios":"levelo://app?vid=1b8cc952-4975-4cc8-a6b4-ff9566cbb0d7"},"vehicle_type_id":"4","last_reported":1737018558,"current_range_meters":28000,"station_id":"ce4bh692rcd13ifvqe90","pricing_plan_id":"cebpf4jnsgd1na2vs0mg"},{"bike_id":"155dbf4b-d6fe-46aa-9097-9994452a5158","system_id":"levelo_inurba_marseille","lat":43.230633,"lon":5.354981,"is_reserved":false,"is_disabled":false,"rental_uris":{"android":"levelo://app?vid=155dbf4b-d6fe-46aa-9097-9994452a5158","ios":"levelo://app?vid=155dbf4b-d6fe-46aa-9097-9994452a5158"},"vehicle_type_id":"4","last_reported":1737018558,"current_range_meters":9200,"station_id":"cpo3342slgdg3j2ifvpg","pricing_plan_id":"cebpf4jnsgd1na2vs0mg"},{"bike_id":"d28eb562-9401-4c73-a785-28169d8131d7","system_id":"levelo_inurba_marseille","lat":43.29874,"lon":5.37622,"is_reserved":false,"is_disabled":false,"rental_uris":{"android":"levelo://app?vid=d28eb562-9401-4c73-a785-28169d8131d7","ios":"levelo://app?vid=d28eb562-9401-4c73-a785-28169d8131d7"},"vehicle_type_id":"4","last_reported":1737018558,"current_range_meters":28000,"station_id":"","pricing_plan_id":"cebpf4jnsgd1na2vs0mg"},{"bike_id":"c1123218-c0ac-44cb-8bfc-d351322f52d0","system_id":"levelo_inurba_marseille","lat":43.27051,"lon":5.42285,"is_reserved":false,"is_disabled":false,"rental_uris":{"android":"levelo://app?vid=c1123218-c0ac-44cb-8bfc-d351322f52d0","ios":"levelo://app?vid=c1123218-c0ac-44cb-8bfc-d351322f52d0"},"vehicle_type_id":"4","last_reported":1737018558,"current_range_meters":14400,"station_id":"ce4bhk92rcd13ifvqgb0","pricing_plan_id":"cebpf4jnsgd1na2vs0mg"},{"bike_id":"fedfa1a7-997d-435d-b7b7-1cdfb17634c4","system_id":"levelo_inurba_marseille","lat":43.31243,"lon":5.36897,"is_reserved":false,"is_disabled":false,"rental_uris":{"android":"levelo://app?vid=fedfa1a7-997d-435d-b7b7-1cdfb17634c4","ios":"levelo://app?vid=fedfa1a7-997d-435d-b7b7-1cdfb17634c4"},"vehicle_type_id":"4","last_reported":1737018558,"current_range_meters":27200,"station_id":"ce4bgl92rcd13ifvqbq0","pricing_plan_id":"cebpf4jnsgd1na2vs0mg"},{"bike_id":"98342f93-7bf2-4304-817a-494cc685e2f4","system_id":"levelo_inurba_marseille","lat":43.33744,"lon":5.39173,"is_reserved":false,"is_disabled":false,"rental_uris":{"android":"levelo://app?vid=98342f93-7bf2-4304-817a-494cc685e2f4","ios":"levelo://app?vid=98342f93-7bf2-4304-817a-494cc685e2f4"},"vehicle_type_id":"4","last_reported":1737018558,"current_range_meters":38800,"station_id":"ce4bhr92rcd13ifvqhsg","pricing_plan_id":"cebpf4jnsgd1na2vs0mg"},{"bike_id":"23afad0c-16f6-49d8-8b43-d30f324c737a","system_id":"levelo_inurba_marseille","lat":43.30916,"lon":5.36859,"is_reserved":false,"is_disabled":false,"rental_uris":{"android":"levelo://app?vid=23afad0c-16f6-49d8-8b43-d30f324c737a","ios":"levelo://app?vid=23afad0c-16f6-49d8-8b43-d30f324c737a"},"vehicle_type_id":"4","last_reported":1737018558,"current_range_meters":39200,"station_id":"ce4bgn92rcd13ifvqbvg","pricing_plan_id":"cebpf4jnsgd1na2vs0mg"},{"bike_id":"0e148415-5fb7-4b85-bd8d-2efc964f268e","system_id":"levelo_inurba_marseille","lat":43.33722,"lon":5.39187,"is_reserved":false,"is_disabled":false,"rental_uris":{"android":"levelo://app?vid=0e148415-5fb7-4b85-bd8d-2efc964f268e","ios":"levelo://app?vid=0e148415-5fb7-4b85-bd8d-2efc964f268e"},"vehicle_type_id":"4","last_reported":1737018558,"current_range_meters":32000,"station_id":"ce4bhr92rcd13ifvqhsg","pricing_plan_id":"cebpf4jnsgd1na2vs0mg"},{"bike_id":"c7437ba1-2911-4673-a9b2-52800ffe0f0b","system_id":"levelo_inurba_marseille","lat":43.3095,"lon":5.39058,"is_reserved":false,"is_disabled":false,"rental_uris":{"android":"levelo://app?vid=c7437ba1-2911-4673-a9b2-52800ffe0f0b","ios":"levelo://app?vid=c7437ba1-2911-4673-a9b2-52800ffe0f0b"},"vehicle_type_id":"4","last_reported":1737018558,"current_range_meters":36000,"station_id":"ce4bgup2rcd13ifvqco0","pricing_plan_id":"cebpf4jnsgd1na2vs0mg"},{"bike_id":"0de1c0c3-224c-470c-9c40-92abbb1e542e","system_id":"levelo_inurba_marseille","lat":43.27436,"lon":5.39408,"is_reserved":false,"is_disabled":true,"rental_uris":{"android":"levelo://app?vid=0de1c0c3-224c-470c-9c40-92abbb1e542e","ios":"levelo://app?vid=0de1c0c3-224c-470c-9c40-92abbb1e542e"},"vehicle_type_id":"4","last_reported":1737018558,"current_range_meters":25200,"station_id":"ce4bhdp2rcd13ifvqf20","pricing_plan_id":"cebpf4jnsgd1na2vs0mg"},{"bike_id":"0a6661bf-02cb-451f-81c8-20de10981cd4","system_id":"levelo_inurba_marseille","lat":43.29194,"lon":5.35803,"is_reserved":false,"is_disabled":false,"rental_uris":{"android":"levelo://app?vid=0a6661bf-02cb-451f-81c8-20de10981cd4","ios":"levelo://app?vid=0a6661bf-02cb-451f-81c8-20de10981cd4"},"vehicle_type_id":"4","last_reported":1737018558,"current_range_meters":38800,"station_id":"ce4bhb12rcd13ifvqel0","pricing_plan_id":"cebpf4jnsgd1na2vs0mg"},{"bike_id":"1f149e26-9d4e-4970-96ec-1b76430b914b","system_id":"levelo_inurba_marseille","lat":43.24394,"lon":5.3706,"is_reserved":false,"is_disabled":false,"rental_uris":{"android":"levelo://app?vid=1f149e26-9d4e-4970-96ec-1b76430b914b","ios":"levelo://app?vid=1f149e26-9d4e-4970-96ec-1b76430b914b"},"vehicle_type_id":"4","last_reported":1737018558,"current_range_meters":38000,"station_id":"ce4bhhh2rcd13ifvqfk0","pricing_plan_id":"cebpf4jnsgd1na2vs0mg"},{"bike_id":"744c23c8-8276-47c8-8fe8-773da9c08368","system_id":"levelo_inurba_marseille","lat":43.34152,"lon":5.40929,"is_reserved":false,"is_disabled":false,"rental_uris":{"android":"levelo://app?vid=744c23c8-8276-47c8-8fe8-773da9c08368","ios":"levelo://app?vid=744c23c8-8276-47c8-8fe8-773da9c08368"},"vehicle_type_id":"4","last_reported":1737018558,"current_range_meters":38800,"station_id":"ce4bhqh2rcd13ifvqhlg","pricing_plan_id":"cebpf4jnsgd1na2vs0mg"},{"bike_id":"e052f47d-c314-4142-a490-846c18d74eff","system_id":"levelo_inurba_marseille","lat":43.28692,"lon":5.37929,"is_reserved":false,"is_disabled":true,"rental_uris":{"android":"levelo://app?vid=e052f47d-c314-4142-a490-846c18d74eff","ios":"levelo://app?vid=e052f47d-c314-4142-a490-846c18d74eff"},"vehicle_type_id":"4","last_reported":1737018558,"current_range_meters":27600,"station_id":"ce4bh9p2rcd13ifvqec0","pricing_plan_id":"cebpf4jnsgd1na2vs0mg"},{"bike_id":"42387eda-6a96-44c7-931c-125d67339d07","system_id":"levelo_inurba_marseille","lat":43.30909,"lon":5.36868,"is_reserved":false,"is_disabled":false,"rental_uris":{"android":"levelo://app?vid=42387eda-6a96-44c7-931c-125d67339d07","ios":"levelo://app?vid=42387eda-6a96-44c7-931c-125d67339d07"},"vehicle_type_id":"4","last_reported":1737018558,"current_range_meters":39200,"station_id":"ce4bgn92rcd13ifvqbvg","pricing_plan_id":"cebpf4jnsgd1na2vs0mg"},{"bike_id":"51a867de-4072-4eed-982d-a9c5581da22e","system_id":"levelo_inurba_marseille","lat":43.28018,"lon":5.36959,"is_reserved":false,"is_disabled":false,"rental_uris":{"android":"levelo://app?vid=51a867de-4072-4eed-982d-a9c5581da22e","ios":"levelo://app?vid=51a867de-4072-4eed-982d-a9c5581da22e"},"vehicle_type_id":"4","last_reported":1737018558,"current_range_meters":23200,"station_id":"ce4bha12rcd13ifvqef0","pricing_plan_id":"cebpf4jnsgd1na2vs0mg"},{"bike_id":"a3be0020-a5b1-43f7-b7fb-1b88f0d142ef","system_id":"levelo_inurba_marseille","lat":43.29879,"lon":5.39724,"is_reserved":false,"is_disabled":true,"rental_uris":{"android":"levelo://app?vid=a3be0020-a5b1-43f7-b7fb-1b88f0d142ef","ios":"levelo://app?vid=a3be0020-a5b1-43f7-b7fb-1b88f0d142ef"},"vehicle_type_id":"4","last_reported":1737018558,"current_range_meters":14400,"station_id":"ce4bh0h2rcd13ifvqd50","pricing_plan_id":"cebpf4jnsgd1na2vs0mg"},{"bike_id":"2de2eb04-8b58-4120-afdb-74ffab188c24","system_id":"levelo_inurba_marseille","lat":43.31197,"lon":5.36711,"is_reserved":false,"is_disabled":false,"rental_uris":{"android":"levelo://app?vid=2de2eb04-8b58-4120-afdb-74ffab188c24","ios":"levelo://app?vid=2de2eb04-8b58-4120-afdb-74ffab188c24"},"vehicle_type_id":"4","last_reported":1737018558,"current_range_meters":27200,"station_id":"ce4bgr92rcd13ifvqc6g","pricing_plan_id":"cebpf4jnsgd1na2vs0mg"},{"bike_id":"2c839bfc-228b-4afd-9c45-0e54b8f36672","system_id":"levelo_inurba_marseille","lat":43.24658,"lon":5.38915,"is_reserved":false,"is_disabled":false,"rental_uris":{"android":"levelo://app?vid=2c839bfc-228b-4afd-9c45-0e54b8f36672","ios":"levelo://app?vid=2c839bfc-228b-4afd-9c45-0e54b8f36672"},"vehicle_type_id":"4","last_reported":1737018558,"current_range_meters":38800,"station_id":"ce4bhg12rcd13ifvqf60","pricing_plan_id":"cebpf4jnsgd1na2vs0mg"},{"bike_id":"4d8eb31b-74b2-47f2-be20-308942dd430c","system_id":"levelo_inurba_marseille","lat":43.27915,"lon":5.39586,"is_reserved":false,"is_disabled":false,"rental_uris":{"android":"levelo://app?vid=4d8eb31b-74b2-47f2-be20-308942dd430c","ios":"levelo://app?vid=4d8eb31b-74b2-47f2-be20-308942dd430c"},"vehicle_type_id":"4","last_reported":1737018558,"current_range_meters":23200,"station_id":"ce4bhf92rcd13ifvqf40","pricing_plan_id":"cebpf4jnsgd1na2vs0mg"},{"bike_id":"fc1893eb-8966-4fd8-95bb-a878d4a8cff3","system_id":"levelo_inurba_marseille","lat":43.29551,"lon":5.37551,"is_reserved":false,"is_disabled":false,"rental_uris":{"android":"levelo://app?vid=fc1893eb-8966-4fd8-95bb-a878d4a8cff3","ios":"levelo://app?vid=fc1893eb-8966-4fd8-95bb-a878d4a8cff3"},"vehicle_type_id":"4","last_reported":1737018558,"current_range_meters":23200,"station_id":"ce4bgh92rcd13ifvqb50","pricing_plan_id":"cebpf4jnsgd1na2vs0mg"},{"bike_id":"66b56f08-fab5-426f-8379-641f3b5b887c","system_id":"levelo_inurba_marseille","lat":43.30904,"lon":5.36854,"is_reserved":false,"is_disabled":false,"rental_uris":{"android":"levelo://app?vid=66b56f08-fab5-426f-8379-641f3b5b887c","ios":"levelo://app?vid=66b56f08-fab5-426f-8379-641f3b5b887c"},"vehicle_type_id":"4","last_reported":1737018558,"current_range_meters":6800,"station_id":"ce4bgn92rcd13ifvqbvg","pricing_plan_id":"cebpf4jnsgd1na2vs0mg"},{"bike_id":"2766686f-7696-4a1d-bceb-e3abea7dd924","system_id":"levelo_inurba_marseille","lat":43.31232,"lon":5.36897,"is_reserved":false,"is_disabled":false,"rental_uris":{"android":"levelo://app?vid=2766686f-7696-4a1d-bceb-e3abea7dd924","ios":"levelo://app?vid=2766686f-7696-4a1d-bceb-e3abea7dd924"},"vehicle_type_id":"4","last_reported":1737018558,"current_range_meters":34000,"station_id":"ce4bgl92rcd13ifvqbq0","pricing_plan_id":"cebpf4jnsgd1na2vs0mg"},{"bike_id":"b87489c6-3402-4768-a2bb-581eef60194a","system_id":"levelo_inurba_marseille","lat":43.30917,"lon":5.36874,"is_reserved":false,"is_disabled":false,"rental_uris":{"android":"levelo://app?vid=b87489c6-3402-4768-a2bb-581eef60194a","ios":"levelo://app?vid=b87489c6-3402-4768-a2bb-581eef60194a"},"vehicle_type_id":"4","last_reported":1737018558,"current_range_meters":36800,"station_id":"ce4bgn92rcd13ifvqbvg","pricing_plan_id":"cebpf4jnsgd1na2vs0mg"},{"bike_id":"606799db-5e8b-47d5-abc5-26aa5a54e18c","system_id":"levelo_inurba_marseille","lat":43.33624,"lon":5.40998,"is_reserved":false,"is_disabled":true,"rental_uris":{"android":"levelo://app?vid=606799db-5e8b-47d5-abc5-26aa5a54e18c","ios":"levelo://app?vid=606799db-5e8b-47d5-abc5-26aa5a54e18c"},"vehicle_type_id":"4","last_reported":1737018558,"current_range_meters":0,"station_id":"ce4bhqh2rcd13ifvqhmg","pricing_plan_id":"cebpf4jnsgd1na2vs0mg"},{"bike_id":"a15980ac-c225-4e68-8982-6cc8c4cbfd79","system_id":"levelo_inurba_marseille","lat":43.23189,"lon":5.35562,"is_reserved":false,"is_disabled":false,"rental_uris":{"android":"levelo://app?vid=a15980ac-c225-4e68-8982-6cc8c4cbfd79","ios":"levelo://app?vid=a15980ac-c225-4e68-8982-6cc8c4cbfd79"},"vehicle_type_id":"4","last_reported":1737018558,"current_range_meters":38800,"station_id":"ce4bhu92rcd13ifvqi70","pricing_plan_id":"cebpf4jnsgd1na2vs0mg"},{"bike_id":"11f60f36-9e59-4934-b741-a49d23b7f137","system_id":"levelo_inurba_marseille","lat":43.274944,"lon":5.424606,"is_reserved":false,"is_disabled":false,"rental_uris":{"android":"levelo://app?vid=11f60f36-9e59-4934-b741-a49d23b7f137","ios":"levelo://app?vid=11f60f36-9e59-4934-b741-a49d23b7f137"},"vehicle_type_id":"4","last_reported":1737018558,"current_range_meters":33200,"station_id":"ce4bhn92rcd13ifvqgrg","pricing_plan_id":"cebpf4jnsgd1na2vs0mg"},{"bike_id":"be0c2a2c-43f5-46f9-944c-645c14335250","system_id":"levelo_inurba_marseille","lat":43.28477,"lon":5.38408,"is_reserved":false,"is_disabled":false,"rental_uris":{"android":"levelo://app?vid=be0c2a2c-43f5-46f9-944c-645c14335250","ios":"levelo://app?vid=be0c2a2c-43f5-46f9-944c-645c14335250"},"vehicle_type_id":"4","last_reported":1737018558,"current_range_meters":38000,"station_id":"ce4bh512rcd13ifvqe3g","pricing_plan_id":"cebpf4jnsgd1na2vs0mg"},{"bike_id":"7f8df54c-82f8-4382-9b0b-6f9a4457ad6f","system_id":"levelo_inurba_marseille","lat":43.29579,"lon":5.37507,"is_reserved":false,"is_disabled":false,"rental_uris":{"android":"levelo://app?vid=7f8df54c-82f8-4382-9b0b-6f9a4457ad6f","ios":"levelo://app?vid=7f8df54c-82f8-4382-9b0b-6f9a4457ad6f"},"vehicle_type_id":"4","last_reported":1737018558,"current_range_meters":22800,"station_id":"ce4bgh92rcd13ifvqb50","pricing_plan_id":"cebpf4jnsgd1na2vs0mg"},{"bike_id":"770e1908-ef37-49c9-a1dc-cb73d389845e","system_id":"levelo_inurba_marseille","lat":43.32534,"lon":5.41467,"is_reserved":false,"is_disabled":false,"rental_uris":{"android":"levelo://app?vid=770e1908-ef37-49c9-a1dc-cb73d389845e","ios":"levelo://app?vid=770e1908-ef37-49c9-a1dc-cb73d389845e"},"vehicle_type_id":"4","last_reported":1737018558,"current_range_meters":28000,"station_id":"ce4bhq12rcd13ifvqhhg","pricing_plan_id":"cebpf4jnsgd1na2vs0mg"},{"bike_id":"74033fc6-8e66-4d5b-ada4-e41e70dd4583","system_id":"levelo_inurba_marseille","lat":43.287173,"lon":5.379353,"is_reserved":false,"is_disabled":false,"rental_uris":{"android":"levelo://app?vid=74033fc6-8e66-4d5b-ada4-e41e70dd4583","ios":"levelo://app?vid=74033fc6-8e66-4d5b-ada4-e41e70dd4583"},"vehicle_type_id":"4","last_reported":1737018558,"current_range_meters":28400,"station_id":"ce4bh9p2rcd13ifvqec0","pricing_plan_id":"cebpf4jnsgd1na2vs0mg"},{"bike_id":"418f8723-2e14-4eba-8d60-c8fef43a1a0c","system_id":"levelo_inurba_marseille","lat":43.29711,"lon":5.37695,"is_reserved":false,"is_disabled":false,"rental_uris":{"android":"levelo://app?vid=418f8723-2e14-4eba-8d60-c8fef43a1a0c","ios":"levelo://app?vid=418f8723-2e14-4eba-8d60-c8fef43a1a0c"},"vehicle_type_id":"4","last_reported":1737018558,"current_range_meters":20400,"station_id":"ce4bgkh2rcd13ifvqbl0","pricing_plan_id":"cebpf4jnsgd1na2vs0mg"},{"bike_id":"0e3ed56c-7c3e-45fd-93ad-34ae823f72d2","system_id":"levelo_inurba_marseille","lat":43.3054,"lon":5.36526,"is_reserved":false,"is_disabled":false,"rental_uris":{"android":"levelo://app?vid=0e3ed56c-7c3e-45fd-93ad-34ae823f72d2","ios":"levelo://app?vid=0e3ed56c-7c3e-45fd-93ad-34ae823f72d2"},"vehicle_type_id":"4","last_reported":1737018558,"current_range_meters":38000,"station_id":"ce4bgs12rcd13ifvqcag","pricing_plan_id":"cebpf4jnsgd1na2vs0mg"},{"bike_id":"51bb6953-dea8-4e82-96bf-52696267905f","system_id":"levelo_inurba_marseille","lat":43.23051,"lon":5.35497,"is_reserved":false,"is_disabled":false,"rental_uris":{"android":"levelo://app?vid=51bb6953-dea8-4e82-96bf-52696267905f","ios":"levelo://app?vid=51bb6953-dea8-4e82-96bf-52696267905f"},"vehicle_type_id":"4","last_reported":1737018558,"current_range_meters":37600,"station_id":"cpo3342slgdg3j2ifvpg","pricing_plan_id":"cebpf4jnsgd1na2vs0mg"},{"bike_id":"cdfd57cf-5e09-408c-85a1-5ced938a7819","system_id":"levelo_inurba_marseille","lat":43.336103,"lon":5.410282,"is_reserved":false,"is_disabled":false,"rental_uris":{"android":"levelo://app?vid=cdfd57cf-5e09-408c-85a1-5ced938a7819","ios":"levelo://app?vid=cdfd57cf-5e09-408c-85a1-5ced938a7819"},"vehicle_type_id":"4","last_reported":1737018558,"current_range_meters":39200,"station_id":"ce4bhqh2rcd13ifvqhmg","pricing_plan_id":"cebpf4jnsgd1na2vs0mg"},{"bike_id":"bcaf1888-0e72-497a-935f-c6ecf67bfe31","system_id":"levelo_inurba_marseille","lat":43.3073,"lon":5.39575,"is_reserved":false,"is_disabled":false,"rental_uris":{"android":"levelo://app?vid=bcaf1888-0e72-497a-935f-c6ecf67bfe31","ios":"levelo://app?vid=bcaf1888-0e72-497a-935f-c6ecf67bfe31"},"vehicle_type_id":"4","last_reported":1737018558,"current_range_meters":28000,"station_id":"","pricing_plan_id":"cebpf4jnsgd1na2vs0mg"},{"bike_id":"f592dfb4-775e-4e71-85c5-87c8e4a9408d","system_id":"levelo_inurba_marseille","lat":43.24077,"lon":5.37757,"is_reserved":false,"is_disabled":false,"rental_uris":{"android":"levelo://app?vid=f592dfb4-775e-4e71-85c5-87c8e4a9408d","ios":"levelo://app?vid=f592dfb4-775e-4e71-85c5-87c8e4a9408d"},"vehicle_type_id":"4","last_reported":1737018558,"current_range_meters":39200,"station_id":"ce4bhnp2rcd13ifvqgvg","pricing_plan_id":"cebpf4jnsgd1na2vs0mg"},{"bike_id":"f1c04f9d-9228-4985-8935-9541b807fb5a","system_id":"levelo_inurba_marseille","lat":43.24078,"lon":5.37751,"is_reserved":false,"is_disabled":false,"rental_uris":{"android":"levelo://app?vid=f1c04f9d-9228-4985-8935-9541b807fb5a","ios":"levelo://app?vid=f1c04f9d-9228-4985-8935-9541b807fb5a"},"vehicle_type_id":"4","last_reported":1737018558,"current_range_meters":26000,"station_id":"ce4bhnp2rcd13ifvqgvg","pricing_plan_id":"cebpf4jnsgd1na2vs0mg"},{"bike_id":"9ba2974b-252f-405a-82ea-0cc04cb2cc50","system_id":"levelo_inurba_marseille","lat":43.24085,"lon":5.37737,"is_reserved":false,"is_disabled":false,"rental_uris":{"android":"levelo://app?vid=9ba2974b-252f-405a-82ea-0cc04cb2cc50","ios":"levelo://app?vid=9ba2974b-252f-405a-82ea-0cc04cb2cc50"},"vehicle_type_id":"4","last_reported":1737018558,"current_range_meters":38800,"station_id":"ce4bhnp2rcd13ifvqgvg","pricing_plan_id":"cebpf4jnsgd1na2vs0mg"},{"bike_id":"3bea599d-9d1d-4ce1-a78c-b94821d3e8a3","system_id":"levelo_inurba_marseille","lat":43.24998,"lon":5.38935,"is_reserved":false,"is_disabled":false,"rental_uris":{"android":"levelo://app?vid=3bea599d-9d1d-4ce1-a78c-b94821d3e8a3","ios":"levelo://app?vid=3bea599d-9d1d-4ce1-a78c-b94821d3e8a3"},"vehicle_type_id":"4","last_reported":1737018558,"current_range_meters":38000,"station_id":"ce4bhgp2rcd13ifvqfd0","pricing_plan_id":"cebpf4jnsgd1na2vs0mg"},{"bike_id":"434e2c9e-fc85-454d-a96d-4707fa997f6b","system_id":"levelo_inurba_marseille","lat":43.29062,"lon":5.39943,"is_reserved":false,"is_disabled":false,"rental_uris":{"android":"levelo://app?vid=434e2c9e-fc85-454d-a96d-4707fa997f6b","ios":"levelo://app?vid=434e2c9e-fc85-454d-a96d-4707fa997f6b"},"vehicle_type_id":"4","last_reported":1737018558,"current_range_meters":27200,"station_id":"ce4bh392rcd13ifvqdm0","pricing_plan_id":"cebpf4jnsgd1na2vs0mg"},{"bike_id":"1138afb6-7b08-4774-a64e-6b88dcacb042","system_id":"levelo_inurba_marseille","lat":43.30926,"lon":5.40143,"is_reserved":false,"is_disabled":false,"rental_uris":{"android":"levelo://app?vid=1138afb6-7b08-4774-a64e-6b88dcacb042","ios":"levelo://app?vid=1138afb6-7b08-4774-a64e-6b88dcacb042"},"vehicle_type_id":"4","last_reported":1737018558,"current_range_meters":35200,"station_id":"ce4bgvp2rcd13ifvqct0","pricing_plan_id":"cebpf4jnsgd1na2vs0mg"},{"bike_id":"e6f6b306-9caa-4f51-a088-b98b38ddd7c3","system_id":"levelo_inurba_marseille","lat":43.28967,"lon":5.37836,"is_reserved":false,"is_disabled":false,"rental_uris":{"android":"levelo://app?vid=e6f6b306-9caa-4f51-a088-b98b38ddd7c3","ios":"levelo://app?vid=e6f6b306-9caa-4f51-a088-b98b38ddd7c3"},"vehicle_type_id":"4","last_reported":1737018558,"current_range_meters":16000,"station_id":"ce4bh9p2rcd13ifvqed0","pricing_plan_id":"cebpf4jnsgd1na2vs0mg"},{"bike_id":"f6b5a21b-caca-4bab-9767-62a516c88435","system_id":"levelo_inurba_marseille","lat":43.24652,"lon":5.3891,"is_reserved":false,"is_disabled":false,"rental_uris":{"android":"levelo://app?vid=f6b5a21b-caca-4bab-9767-62a516c88435","ios":"levelo://app?vid=f6b5a21b-caca-4bab-9767-62a516c88435"},"vehicle_type_id":"4","last_reported":1737018558,"current_range_meters":39200,"station_id":"ce4bhg12rcd13ifvqf60","pricing_plan_id":"cebpf4jnsgd1na2vs0mg"},{"bike_id":"51bc0f76-1623-4024-ac29-280ab84e5697","system_id":"levelo_inurba_marseille","lat":43.31324,"lon":5.39697,"is_reserved":false,"is_disabled":false,"rental_uris":{"android":"levelo://app?vid=51bc0f76-1623-4024-ac29-280ab84e5697","ios":"levelo://app?vid=51bc0f76-1623-4024-ac29-280ab84e5697"},"vehicle_type_id":"4","last_reported":1737018558,"current_range_meters":36400,"station_id":"ce4bgvp2rcd13ifvqcu0","pricing_plan_id":"cebpf4jnsgd1na2vs0mg"},{"bike_id":"26bf88bc-9ab6-4d8a-bd3b-8823091c5a70","system_id":"levelo_inurba_marseille","lat":43.28164,"lon":5.42668,"is_reserved":false,"is_disabled":true,"rental_uris":{"android":"levelo://app?vid=26bf88bc-9ab6-4d8a-bd3b-8823091c5a70","ios":"levelo://app?vid=26bf88bc-9ab6-4d8a-bd3b-8823091c5a70"},"vehicle_type_id":"4","last_reported":1737018558,"current_range_meters":18800,"station_id":"ce4bhnh2rcd13ifvqgug","pricing_plan_id":"cebpf4jnsgd1na2vs0mg"},{"bike_id":"00650814-c228-44bd-9f52-9d4f86ad033e","system_id":"levelo_inurba_marseille","lat":43.309093,"lon":5.36835,"is_reserved":false,"is_disabled":false,"rental_uris":{"android":"levelo://app?vid=00650814-c228-44bd-9f52-9d4f86ad033e","ios":"levelo://app?vid=00650814-c228-44bd-9f52-9d4f86ad033e"},"vehicle_type_id":"4","last_reported":1737018558,"current_range_meters":28400,"station_id":"ce4bgn92rcd13ifvqbvg","pricing_plan_id":"cebpf4jnsgd1na2vs0mg"},{"bike_id":"cf3a1bbf-8ad7-4510-a0f4-df45d4403fdc","system_id":"levelo_inurba_marseille","lat":43.24754,"lon":5.40034,"is_reserved":false,"is_disabled":true,"rental_uris":{"android":"levelo://app?vid=cf3a1bbf-8ad7-4510-a0f4-df45d4403fdc","ios":"levelo://app?vid=cf3a1bbf-8ad7-4510-a0f4-df45d4403fdc"},"vehicle_type_id":"4","last_reported":1737018558,"current_range_meters":38000,"station_id":"","pricing_plan_id":"cebpf4jnsgd1na2vs0mg"},{"bike_id":"fed0e57e-1d07-4c94-b8ec-712ffa544c47","system_id":"levelo_inurba_marseille","lat":43.2395,"lon":5.36648,"is_reserved":false,"is_disabled":false,"rental_uris":{"android":"levelo://app?vid=fed0e57e-1d07-4c94-b8ec-712ffa544c47","ios":"levelo://app?vid=fed0e57e-1d07-4c94-b8ec-712ffa544c47"},"vehicle_type_id":"4","last_reported":1737018558,"current_range_meters":20400,"station_id":"ce4bhi12rcd13ifvqfp0","pricing_plan_id":"cebpf4jnsgd1na2vs0mg"},{"bike_id":"cb57f13e-0f96-498a-b9ca-57c0b42e7a64","system_id":"levelo_inurba_marseille","lat":43.23966,"lon":5.36625,"is_reserved":false,"is_disabled":false,"rental_uris":{"android":"levelo://app?vid=cb57f13e-0f96-498a-b9ca-57c0b42e7a64","ios":"levelo://app?vid=cb57f13e-0f96-498a-b9ca-57c0b42e7a64"},"vehicle_type_id":"4","last_reported":1737018558,"current_range_meters":19600,"station_id":"ce4bhi12rcd13ifvqfp0","pricing_plan_id":"cebpf4jnsgd1na2vs0mg"},{"bike_id":"b597ad07-6de1-40dd-84d5-b7a5e82d58bb","system_id":"levelo_inurba_marseille","lat":43.25827,"lon":5.39439,"is_reserved":false,"is_disabled":false,"rental_uris":{"android":"levelo://app?vid=b597ad07-6de1-40dd-84d5-b7a5e82d58bb","ios":"levelo://app?vid=b597ad07-6de1-40dd-84d5-b7a5e82d58bb"},"vehicle_type_id":"4","last_reported":1737018558,"current_range_meters":24400,"station_id":"ce4bhip2rcd13ifvqft0","pricing_plan_id":"cebpf4jnsgd1na2vs0mg"},{"bike_id":"c448dab3-b529-43d7-a0d3-3cb863fa618c","system_id":"levelo_inurba_marseille","lat":43.2931,"lon":5.37182,"is_reserved":false,"is_disabled":false,"rental_uris":{"android":"levelo://app?vid=c448dab3-b529-43d7-a0d3-3cb863fa618c","ios":"levelo://app?vid=c448dab3-b529-43d7-a0d3-3cb863fa618c"},"vehicle_type_id":"4","last_reported":1737018558,"current_range_meters":8000,"station_id":"ce4bgh92rcd13ifvqb40","pricing_plan_id":"cebpf4jnsgd1na2vs0mg"},{"bike_id":"e5b9252e-eebf-4c90-b028-b53cc4934330","system_id":"levelo_inurba_marseille","lat":43.30362,"lon":5.41894,"is_reserved":false,"is_disabled":true,"rental_uris":{"android":"levelo://app?vid=e5b9252e-eebf-4c90-b028-b53cc4934330","ios":"levelo://app?vid=e5b9252e-eebf-4c90-b028-b53cc4934330"},"vehicle_type_id":"4","last_reported":1737018558,"current_range_meters":14400,"station_id":"ce4bhop2rcd13ifvqh7g","pricing_plan_id":"cebpf4jnsgd1na2vs0mg"},{"bike_id":"b0d9cfb0-5a2b-4f25-8ec3-d507abc35283","system_id":"levelo_inurba_marseille","lat":43.25933,"lon":5.40899,"is_reserved":false,"is_disabled":false,"rental_uris":{"android":"levelo://app?vid=b0d9cfb0-5a2b-4f25-8ec3-d507abc35283","ios":"levelo://app?vid=b0d9cfb0-5a2b-4f25-8ec3-d507abc35283"},"vehicle_type_id":"4","last_reported":1737018558,"current_range_meters":28800,"station_id":"ce4bhm92rcd13ifvqglg","pricing_plan_id":"cebpf4jnsgd1na2vs0mg"},{"bike_id":"4bd88fd0-87a8-497a-be11-41c0f13234dc","system_id":"levelo_inurba_marseille","lat":43.24995,"lon":5.38944,"is_reserved":false,"is_disabled":true,"rental_uris":{"android":"levelo://app?vid=4bd88fd0-87a8-497a-be11-41c0f13234dc","ios":"levelo://app?vid=4bd88fd0-87a8-497a-be11-41c0f13234dc"},"vehicle_type_id":"4","last_reported":1737018558,"current_range_meters":1600,"station_id":"ce4bhgp2rcd13ifvqfd0","pricing_plan_id":"cebpf4jnsgd1na2vs0mg"},{"bike_id":"93af35ad-738e-40e4-afcb-6d3589d7e732","system_id":"levelo_inurba_marseille","lat":43.23151,"lon":5.43692,"is_reserved":false,"is_disabled":false,"rental_uris":{"android":"levelo://app?vid=93af35ad-738e-40e4-afcb-6d3589d7e732","ios":"levelo://app?vid=93af35ad-738e-40e4-afcb-6d3589d7e732"},"vehicle_type_id":"4","last_reported":1737018558,"current_range_meters":24000,"station_id":"ce4bhmp2rcd13ifvqgog","pricing_plan_id":"cebpf4jnsgd1na2vs0mg"},{"bike_id":"7933f2f0-2e0f-422d-873c-ec932075e5a3","system_id":"levelo_inurba_marseille","lat":43.26184,"lon":5.3747,"is_reserved":false,"is_disabled":false,"rental_uris":{"android":"levelo://app?vid=7933f2f0-2e0f-422d-873c-ec932075e5a3","ios":"levelo://app?vid=7933f2f0-2e0f-422d-873c-ec932075e5a3"},"vehicle_type_id":"4","last_reported":1737018558,"current_range_meters":6800,"station_id":"ce4bhgp2rcd13ifvqfc0","pricing_plan_id":"cebpf4jnsgd1na2vs0mg"},{"bike_id":"d1b53a96-266e-4b04-a3ed-285008bed597","system_id":"levelo_inurba_marseille","lat":43.25949,"lon":5.40895,"is_reserved":false,"is_disabled":false,"rental_uris":{"android":"levelo://app?vid=d1b53a96-266e-4b04-a3ed-285008bed597","ios":"levelo://app?vid=d1b53a96-266e-4b04-a3ed-285008bed597"},"vehicle_type_id":"4","last_reported":1737018558,"current_range_meters":32000,"station_id":"ce4bhm92rcd13ifvqglg","pricing_plan_id":"cebpf4jnsgd1na2vs0mg"},{"bike_id":"694c8607-ec28-4cae-ab91-6356b18201b5","system_id":"levelo_inurba_marseille","lat":43.32542,"lon":5.41442,"is_reserved":false,"is_disabled":false,"rental_uris":{"android":"levelo://app?vid=694c8607-ec28-4cae-ab91-6356b18201b5","ios":"levelo://app?vid=694c8607-ec28-4cae-ab91-6356b18201b5"},"vehicle_type_id":"4","last_reported":1737018558,"current_range_meters":38800,"station_id":"ce4bhq12rcd13ifvqhhg","pricing_plan_id":"cebpf4jnsgd1na2vs0mg"},{"bike_id":"003a4c06-ebcc-49a0-b035-9252517a7aaa","system_id":"levelo_inurba_marseille","lat":43.25937,"lon":5.40908,"is_reserved":false,"is_disabled":false,"rental_uris":{"android":"levelo://app?vid=003a4c06-ebcc-49a0-b035-9252517a7aaa","ios":"levelo://app?vid=003a4c06-ebcc-49a0-b035-9252517a7aaa"},"vehicle_type_id":"4","last_reported":1737018558,"current_range_meters":28800,"station_id":"ce4bhm92rcd13ifvqglg","pricing_plan_id":"cebpf4jnsgd1na2vs0mg"},{"bike_id":"cd61c03b-d4f0-48f7-b777-75cd85668d7f","system_id":"levelo_inurba_marseille","lat":43.3136,"lon":5.36735,"is_reserved":false,"is_disabled":false,"rental_uris":{"android":"levelo://app?vid=cd61c03b-d4f0-48f7-b777-75cd85668d7f","ios":"levelo://app?vid=cd61c03b-d4f0-48f7-b777-75cd85668d7f"},"vehicle_type_id":"4","last_reported":1737018558,"current_range_meters":16000,"station_id":"ce4bgr92rcd13ifvqc6g","pricing_plan_id":"cebpf4jnsgd1na2vs0mg"},{"bike_id":"f48fed5d-594b-4b57-bf81-a12fe4b8761e","system_id":"levelo_inurba_marseille","lat":43.29201,"lon":5.39329,"is_reserved":false,"is_disabled":false,"rental_uris":{"android":"levelo://app?vid=f48fed5d-594b-4b57-bf81-a12fe4b8761e","ios":"levelo://app?vid=f48fed5d-594b-4b57-bf81-a12fe4b8761e"},"vehicle_type_id":"4","last_reported":1737018558,"current_range_meters":21600,"station_id":"ce4bh192rcd13ifvqdd0","pricing_plan_id":"cebpf4jnsgd1na2vs0mg"},{"bike_id":"001dbcb9-52ae-40c7-940b-0cf504e0a3a9","system_id":"levelo_inurba_marseille","lat":43.28721,"lon":5.3794,"is_reserved":false,"is_disabled":false,"rental_uris":{"android":"levelo://app?vid=001dbcb9-52ae-40c7-940b-0cf504e0a3a9","ios":"levelo://app?vid=001dbcb9-52ae-40c7-940b-0cf504e0a3a9"},"vehicle_type_id":"4","last_reported":1737018558,"current_range_meters":29600,"station_id":"ce4bh9p2rcd13ifvqec0","pricing_plan_id":"cebpf4jnsgd1na2vs0mg"},{"bike_id":"677a97a2-66c9-4a76-8afb-120370db4982","system_id":"levelo_inurba_marseille","lat":43.30466,"lon":5.37908,"is_reserved":false,"is_disabled":false,"rental_uris":{"android":"levelo://app?vid=677a97a2-66c9-4a76-8afb-120370db4982","ios":"levelo://app?vid=677a97a2-66c9-4a76-8afb-120370db4982"},"vehicle_type_id":"4","last_reported":1737018558,"current_range_meters":39200,"station_id":"ce4bgup2rcd13ifvqcn0","pricing_plan_id":"cebpf4jnsgd1na2vs0mg"},{"bike_id":"ef7adbc7-f956-407a-a3eb-ebdd3e60d992","system_id":"levelo_inurba_marseille","lat":43.30557,"lon":5.36549,"is_reserved":false,"is_disabled":true,"rental_uris":{"android":"levelo://app?vid=ef7adbc7-f956-407a-a3eb-ebdd3e60d992","ios":"levelo://app?vid=ef7adbc7-f956-407a-a3eb-ebdd3e60d992"},"vehicle_type_id":"4","last_reported":1737018558,"current_range_meters":3600,"station_id":"ce4bgs12rcd13ifvqcag","pricing_plan_id":"cebpf4jnsgd1na2vs0mg"},{"bike_id":"4aa3f937-cdd8-4b4c-a839-f6f2b47e8b14","system_id":"levelo_inurba_marseille","lat":43.30519,"lon":5.36729,"is_reserved":false,"is_disabled":false,"rental_uris":{"android":"levelo://app?vid=4aa3f937-cdd8-4b4c-a839-f6f2b47e8b14","ios":"levelo://app?vid=4aa3f937-cdd8-4b4c-a839-f6f2b47e8b14"},"vehicle_type_id":"4","last_reported":1737018558,"current_range_meters":20400,"station_id":"ce4bgrp2rcd13ifvqc9g","pricing_plan_id":"cebpf4jnsgd1na2vs0mg"},{"bike_id":"a09a941d-cd7f-4a74-ae80-30df2fc74a04","system_id":"levelo_inurba_marseille","lat":43.27177,"lon":5.40984,"is_reserved":false,"is_disabled":false,"rental_uris":{"android":"levelo://app?vid=a09a941d-cd7f-4a74-ae80-30df2fc74a04","ios":"levelo://app?vid=a09a941d-cd7f-4a74-ae80-30df2fc74a04"},"vehicle_type_id":"4","last_reported":1737018558,"current_range_meters":38000,"station_id":"ce4bhl12rcd13ifvqgf0","pricing_plan_id":"cebpf4jnsgd1na2vs0mg"},{"bike_id":"3ae3fff5-cd50-4c9a-a90e-9c1dc8f43fa0","system_id":"levelo_inurba_marseille","lat":43.30141,"lon":5.37425,"is_reserved":false,"is_disabled":false,"rental_uris":{"android":"levelo://app?vid=3ae3fff5-cd50-4c9a-a90e-9c1dc8f43fa0","ios":"levelo://app?vid=3ae3fff5-cd50-4c9a-a90e-9c1dc8f43fa0"},"vehicle_type_id":"4","last_reported":1737018558,"current_range_meters":10800,"station_id":"ce4bgs92rcd13ifvqcc0","pricing_plan_id":"cebpf4jnsgd1na2vs0mg"},{"bike_id":"f93041c6-1736-4b0d-b922-6dcbe2f6ad5e","system_id":"levelo_inurba_marseille","lat":43.29301,"lon":5.37451,"is_reserved":false,"is_disabled":false,"rental_uris":{"android":"levelo://app?vid=f93041c6-1736-4b0d-b922-6dcbe2f6ad5e","ios":"levelo://app?vid=f93041c6-1736-4b0d-b922-6dcbe2f6ad5e"},"vehicle_type_id":"4","last_reported":1737018558,"current_range_meters":33200,"station_id":"ce4bgi12rcd13ifvqb70","pricing_plan_id":"cebpf4jnsgd1na2vs0mg"},{"bike_id":"cca7fd62-78f5-405f-9185-7346c0067ca2","system_id":"levelo_inurba_marseille","lat":43.30957,"lon":5.39042,"is_reserved":false,"is_disabled":false,"rental_uris":{"android":"levelo://app?vid=cca7fd62-78f5-405f-9185-7346c0067ca2","ios":"levelo://app?vid=cca7fd62-78f5-405f-9185-7346c0067ca2"},"vehicle_type_id":"4","last_reported":1737018558,"current_range_meters":27200,"station_id":"ce4bgup2rcd13ifvqco0","pricing_plan_id":"cebpf4jnsgd1na2vs0mg"},{"bike_id":"90dbfedc-860d-438e-81a3-e09e891509ec","system_id":"levelo_inurba_marseille","lat":43.26935,"lon":5.38905,"is_reserved":false,"is_disabled":false,"rental_uris":{"android":"levelo://app?vid=90dbfedc-860d-438e-81a3-e09e891509ec","ios":"levelo://app?vid=90dbfedc-860d-438e-81a3-e09e891509ec"},"vehicle_type_id":"4","last_reported":1737018558,"current_range_meters":16400,"station_id":"ce4bhhh2rcd13ifvqfl0","pricing_plan_id":"cebpf4jnsgd1na2vs0mg"},{"bike_id":"1a17a578-cbbc-4dd9-8ec3-8d2b87bc098c","system_id":"levelo_inurba_marseille","lat":43.29042,"lon":5.39958,"is_reserved":false,"is_disabled":true,"rental_uris":{"android":"levelo://app?vid=1a17a578-cbbc-4dd9-8ec3-8d2b87bc098c","ios":"levelo://app?vid=1a17a578-cbbc-4dd9-8ec3-8d2b87bc098c"},"vehicle_type_id":"4","last_reported":1737018558,"current_range_meters":1200,"station_id":"ce4bh392rcd13ifvqdm0","pricing_plan_id":"cebpf4jnsgd1na2vs0mg"},{"bike_id":"5c0536eb-387d-4225-838c-63b2e1da4fd5","system_id":"levelo_inurba_marseille","lat":43.24085,"lon":5.37737,"is_reserved":false,"is_disabled":false,"rental_uris":{"android":"levelo://app?vid=5c0536eb-387d-4225-838c-63b2e1da4fd5","ios":"levelo://app?vid=5c0536eb-387d-4225-838c-63b2e1da4fd5"},"vehicle_type_id":"4","last_reported":1737018558,"current_range_meters":27600,"station_id":"ce4bhnp2rcd13ifvqgvg","pricing_plan_id":"cebpf4jnsgd1na2vs0mg"},{"bike_id":"7a26b63c-652f-4d2d-8353-1a9dfb4e945a","system_id":"levelo_inurba_marseille","lat":43.337288,"lon":5.391854,"is_reserved":false,"is_disabled":false,"rental_uris":{"android":"levelo://app?vid=7a26b63c-652f-4d2d-8353-1a9dfb4e945a","ios":"levelo://app?vid=7a26b63c-652f-4d2d-8353-1a9dfb4e945a"},"vehicle_type_id":"4","last_reported":1737018558,"current_range_meters":39200,"station_id":"ce4bhr92rcd13ifvqhsg","pricing_plan_id":"cebpf4jnsgd1na2vs0mg"},{"bike_id":"6816f2cb-ba75-43f5-8f74-1ecf534e9e80","system_id":"levelo_inurba_marseille","lat":43.30548,"lon":5.36556,"is_reserved":false,"is_disabled":false,"rental_uris":{"android":"levelo://app?vid=6816f2cb-ba75-43f5-8f74-1ecf534e9e80","ios":"levelo://app?vid=6816f2cb-ba75-43f5-8f74-1ecf534e9e80"},"vehicle_type_id":"4","last_reported":1737018558,"current_range_meters":36800,"station_id":"ce4bgs12rcd13ifvqcag","pricing_plan_id":"cebpf4jnsgd1na2vs0mg"},{"bike_id":"5e5fc1d6-193c-4267-9b79-66f1a3263221","system_id":"levelo_inurba_marseille","lat":43.24598,"lon":5.38058,"is_reserved":false,"is_disabled":false,"rental_uris":{"android":"levelo://app?vid=5e5fc1d6-193c-4267-9b79-66f1a3263221","ios":"levelo://app?vid=5e5fc1d6-193c-4267-9b79-66f1a3263221"},"vehicle_type_id":"4","last_reported":1737018558,"current_range_meters":35600,"station_id":"","pricing_plan_id":"cebpf4jnsgd1na2vs0mg"},{"bike_id":"56b8e9bc-f750-4815-bc98-9098414d16db","system_id":"levelo_inurba_marseille","lat":43.23182,"lon":5.35576,"is_reserved":false,"is_disabled":true,"rental_uris":{"android":"levelo://app?vid=56b8e9bc-f750-4815-bc98-9098414d16db","ios":"levelo://app?vid=56b8e9bc-f750-4815-bc98-9098414d16db"},"vehicle_type_id":"4","last_reported":1737018558,"current_range_meters":0,"station_id":"ce4bhu92rcd13ifvqi70","pricing_plan_id":"cebpf4jnsgd1na2vs0mg"},{"bike_id":"f2ac1cd4-34fc-43b6-85b9-ad77cbc9ae3c","system_id":"levelo_inurba_marseille","lat":43.30162,"lon":5.37417,"is_reserved":false,"is_disabled":false,"rental_uris":{"android":"levelo://app?vid=f2ac1cd4-34fc-43b6-85b9-ad77cbc9ae3c","ios":"levelo://app?vid=f2ac1cd4-34fc-43b6-85b9-ad77cbc9ae3c"},"vehicle_type_id":"4","last_reported":1737018558,"current_range_meters":38800,"station_id":"ce4bgs92rcd13ifvqcc0","pricing_plan_id":"cebpf4jnsgd1na2vs0mg"},{"bike_id":"886c2bbb-1b99-4795-80cb-99bf8240c559","system_id":"levelo_inurba_marseille","lat":43.24643,"lon":5.38904,"is_reserved":false,"is_disabled":false,"rental_uris":{"android":"levelo://app?vid=886c2bbb-1b99-4795-80cb-99bf8240c559","ios":"levelo://app?vid=886c2bbb-1b99-4795-80cb-99bf8240c559"},"vehicle_type_id":"4","last_reported":1737018558,"current_range_meters":24000,"station_id":"ce4bhg12rcd13ifvqf60","pricing_plan_id":"cebpf4jnsgd1na2vs0mg"},{"bike_id":"a8e08195-1ddf-43fc-8bb9-bba25eadbe4a","system_id":"levelo_inurba_marseille","lat":43.26195,"lon":5.37926,"is_reserved":false,"is_disabled":false,"rental_uris":{"android":"levelo://app?vid=a8e08195-1ddf-43fc-8bb9-bba25eadbe4a","ios":"levelo://app?vid=a8e08195-1ddf-43fc-8bb9-bba25eadbe4a"},"vehicle_type_id":"4","last_reported":1737018558,"current_range_meters":26800,"station_id":"ce4bhjp2rcd13ifvqg90","pricing_plan_id":"cebpf4jnsgd1na2vs0mg"},{"bike_id":"cf2a2e47-db42-4605-af65-636b2a31864b","system_id":"levelo_inurba_marseille","lat":43.26201,"lon":5.37928,"is_reserved":false,"is_disabled":false,"rental_uris":{"android":"levelo://app?vid=cf2a2e47-db42-4605-af65-636b2a31864b","ios":"levelo://app?vid=cf2a2e47-db42-4605-af65-636b2a31864b"},"vehicle_type_id":"4","last_reported":1737018558,"current_range_meters":22400,"station_id":"ce4bhjp2rcd13ifvqg90","pricing_plan_id":"cebpf4jnsgd1na2vs0mg"},{"bike_id":"76a20230-0b5d-4af2-b16e-e247b44b3b1d","system_id":"levelo_inurba_marseille","lat":43.27496,"lon":5.42452,"is_reserved":false,"is_disabled":false,"rental_uris":{"android":"levelo://app?vid=76a20230-0b5d-4af2-b16e-e247b44b3b1d","ios":"levelo://app?vid=76a20230-0b5d-4af2-b16e-e247b44b3b1d"},"vehicle_type_id":"4","last_reported":1737018558,"current_range_meters":30800,"station_id":"ce4bhn92rcd13ifvqgrg","pricing_plan_id":"cebpf4jnsgd1na2vs0mg"},{"bike_id":"26425482-ac11-4df9-94c9-77bac75c56a7","system_id":"levelo_inurba_marseille","lat":43.2903,"lon":5.40008,"is_reserved":false,"is_disabled":false,"rental_uris":{"android":"levelo://app?vid=26425482-ac11-4df9-94c9-77bac75c56a7","ios":"levelo://app?vid=26425482-ac11-4df9-94c9-77bac75c56a7"},"vehicle_type_id":"4","last_reported":1737018558,"current_range_meters":36400,"station_id":"ce4bh392rcd13ifvqdm0","pricing_plan_id":"cebpf4jnsgd1na2vs0mg"},{"bike_id":"59f3abb6-fbe8-40f7-8cc3-02afc5558257","system_id":"levelo_inurba_marseille","lat":43.337444,"lon":5.374475,"is_reserved":false,"is_disabled":false,"rental_uris":{"android":"levelo://app?vid=59f3abb6-fbe8-40f7-8cc3-02afc5558257","ios":"levelo://app?vid=59f3abb6-fbe8-40f7-8cc3-02afc5558257"},"vehicle_type_id":"4","last_reported":1737018558,"current_range_meters":17200,"station_id":"","pricing_plan_id":"cebpf4jnsgd1na2vs0mg"},{"bike_id":"995c884a-0499-46b1-9a44-bb0a781664c5","system_id":"levelo_inurba_marseille","lat":43.25922,"lon":5.40912,"is_reserved":false,"is_disabled":false,"rental_uris":{"android":"levelo://app?vid=995c884a-0499-46b1-9a44-bb0a781664c5","ios":"levelo://app?vid=995c884a-0499-46b1-9a44-bb0a781664c5"},"vehicle_type_id":"4","last_reported":1737018558,"current_range_meters":38800,"station_id":"ce4bhm92rcd13ifvqglg","pricing_plan_id":"cebpf4jnsgd1na2vs0mg"},{"bike_id":"60c48e84-151f-4edd-83cd-789ff87c7f63","system_id":"levelo_inurba_marseille","lat":43.28707,"lon":5.37423,"is_reserved":false,"is_disabled":true,"rental_uris":{"android":"levelo://app?vid=60c48e84-151f-4edd-83cd-789ff87c7f63","ios":"levelo://app?vid=60c48e84-151f-4edd-83cd-789ff87c7f63"},"vehicle_type_id":"4","last_reported":1737018558,"current_range_meters":25600,"station_id":"ce4bh3p2rcd13ifvqdq0","pricing_plan_id":"cebpf4jnsgd1na2vs0mg"},{"bike_id":"481cee32-82a6-4a8e-a1ae-a36563605970","system_id":"levelo_inurba_marseille","lat":43.28852,"lon":5.39348,"is_reserved":false,"is_disabled":false,"rental_uris":{"android":"levelo://app?vid=481cee32-82a6-4a8e-a1ae-a36563605970","ios":"levelo://app?vid=481cee32-82a6-4a8e-a1ae-a36563605970"},"vehicle_type_id":"4","last_reported":1737018558,"current_range_meters":8400,"station_id":"ce4bh2p2rcd13ifvqdi0","pricing_plan_id":"cebpf4jnsgd1na2vs0mg"},{"bike_id":"7eb33b08-969b-4d1e-b1a6-89a0f841df57","system_id":"levelo_inurba_marseille","lat":43.29102,"lon":5.3816,"is_reserved":false,"is_disabled":false,"rental_uris":{"android":"levelo://app?vid=7eb33b08-969b-4d1e-b1a6-89a0f841df57","ios":"levelo://app?vid=7eb33b08-969b-4d1e-b1a6-89a0f841df57"},"vehicle_type_id":"4","last_reported":1737018558,"current_range_meters":28800,"station_id":"ce4bh512rcd13ifvqe2g","pricing_plan_id":"cebpf4jnsgd1na2vs0mg"},{"bike_id":"6a347207-180d-4e7c-93f5-4bea3bb7b491","system_id":"levelo_inurba_marseille","lat":43.32369,"lon":5.38885,"is_reserved":false,"is_disabled":false,"rental_uris":{"android":"levelo://app?vid=6a347207-180d-4e7c-93f5-4bea3bb7b491","ios":"levelo://app?vid=6a347207-180d-4e7c-93f5-4bea3bb7b491"},"vehicle_type_id":"4","last_reported":1737018558,"current_range_meters":34000,"station_id":"ce4bhqp2rcd13ifvqhog","pricing_plan_id":"cebpf4jnsgd1na2vs0mg"},{"bike_id":"8877e7a6-4aa2-4c5a-ac5a-26bcf6368000","system_id":"levelo_inurba_marseille","lat":43.28036,"lon":5.36953,"is_reserved":false,"is_disabled":false,"rental_uris":{"android":"levelo://app?vid=8877e7a6-4aa2-4c5a-ac5a-26bcf6368000","ios":"levelo://app?vid=8877e7a6-4aa2-4c5a-ac5a-26bcf6368000"},"vehicle_type_id":"4","last_reported":1737018558,"current_range_meters":38400,"station_id":"ce4bha12rcd13ifvqef0","pricing_plan_id":"cebpf4jnsgd1na2vs0mg"},{"bike_id":"8ea1e7e9-0f2a-4dd7-89ec-43af818b1ec4","system_id":"levelo_inurba_marseille","lat":43.31896,"lon":5.4074,"is_reserved":false,"is_disabled":false,"rental_uris":{"android":"levelo://app?vid=8ea1e7e9-0f2a-4dd7-89ec-43af818b1ec4","ios":"levelo://app?vid=8ea1e7e9-0f2a-4dd7-89ec-43af818b1ec4"},"vehicle_type_id":"4","last_reported":1737018558,"current_range_meters":10000,"station_id":"ce4bhq12rcd13ifvqhig","pricing_plan_id":"cebpf4jnsgd1na2vs0mg"},{"bike_id":"8949aca5-2f6e-45b7-8bc9-20e9801a8a4e","system_id":"levelo_inurba_marseille","lat":43.27976,"lon":5.38632,"is_reserved":false,"is_disabled":true,"rental_uris":{"android":"levelo://app?vid=8949aca5-2f6e-45b7-8bc9-20e9801a8a4e","ios":"levelo://app?vid=8949aca5-2f6e-45b7-8bc9-20e9801a8a4e"},"vehicle_type_id":"4","last_reported":1737018558,"current_range_meters":1600,"station_id":"","pricing_plan_id":"cebpf4jnsgd1na2vs0mg"},{"bike_id":"0c74b65d-6a6b-4f50-a23b-6454b7a923c5","system_id":"levelo_inurba_marseille","lat":43.30523,"lon":5.36721,"is_reserved":false,"is_disabled":false,"rental_uris":{"android":"levelo://app?vid=0c74b65d-6a6b-4f50-a23b-6454b7a923c5","ios":"levelo://app?vid=0c74b65d-6a6b-4f50-a23b-6454b7a923c5"},"vehicle_type_id":"4","last_reported":1737018558,"current_range_meters":28000,"station_id":"ce4bgrp2rcd13ifvqc9g","pricing_plan_id":"cebpf4jnsgd1na2vs0mg"},{"bike_id":"10fb2b2a-7eb6-4dfc-8833-9b37ae43939e","system_id":"levelo_inurba_marseille","lat":43.3254,"lon":5.41428,"is_reserved":false,"is_disabled":false,"rental_uris":{"android":"levelo://app?vid=10fb2b2a-7eb6-4dfc-8833-9b37ae43939e","ios":"levelo://app?vid=10fb2b2a-7eb6-4dfc-8833-9b37ae43939e"},"vehicle_type_id":"4","last_reported":1737018558,"current_range_meters":39200,"station_id":"ce4bhq12rcd13ifvqhhg","pricing_plan_id":"cebpf4jnsgd1na2vs0mg"},{"bike_id":"f809b967-2784-43cf-b701-086760991854","system_id":"levelo_inurba_marseille","lat":43.29711,"lon":5.37694,"is_reserved":false,"is_disabled":false,"rental_uris":{"android":"levelo://app?vid=f809b967-2784-43cf-b701-086760991854","ios":"levelo://app?vid=f809b967-2784-43cf-b701-086760991854"},"vehicle_type_id":"4","last_reported":1737018558,"current_range_meters":38800,"station_id":"ce4bgkh2rcd13ifvqbl0","pricing_plan_id":"cebpf4jnsgd1na2vs0mg"},{"bike_id":"8b270a27-56d2-4c12-911a-d18adeedec80","system_id":"levelo_inurba_marseille","lat":43.24647,"lon":5.38908,"is_reserved":false,"is_disabled":false,"rental_uris":{"android":"levelo://app?vid=8b270a27-56d2-4c12-911a-d18adeedec80","ios":"levelo://app?vid=8b270a27-56d2-4c12-911a-d18adeedec80"},"vehicle_type_id":"4","last_reported":1737018558,"current_range_meters":24800,"station_id":"ce4bhg12rcd13ifvqf60","pricing_plan_id":"cebpf4jnsgd1na2vs0mg"},{"bike_id":"917148ce-4c9d-450a-97ee-d2deee4d50c3","system_id":"levelo_inurba_marseille","lat":43.32456,"lon":5.36594,"is_reserved":false,"is_disabled":false,"rental_uris":{"android":"levelo://app?vid=917148ce-4c9d-450a-97ee-d2deee4d50c3","ios":"levelo://app?vid=917148ce-4c9d-450a-97ee-d2deee4d50c3"},"vehicle_type_id":"4","last_reported":1737018558,"current_range_meters":11600,"station_id":"ce4bhs12rcd13ifvqhvg","pricing_plan_id":"cebpf4jnsgd1na2vs0mg"},{"bike_id":"1789f462-080f-4ca8-a4cc-e0a2cc6279ff","system_id":"levelo_inurba_marseille","lat":43.30953,"lon":5.39028,"is_reserved":false,"is_disabled":true,"rental_uris":{"android":"levelo://app?vid=1789f462-080f-4ca8-a4cc-e0a2cc6279ff","ios":"levelo://app?vid=1789f462-080f-4ca8-a4cc-e0a2cc6279ff"},"vehicle_type_id":"4","last_reported":1737018558,"current_range_meters":0,"station_id":"ce4bgup2rcd13ifvqco0","pricing_plan_id":"cebpf4jnsgd1na2vs0mg"},{"bike_id":"5f73b1c5-bb2a-4fac-9eb7-14c830fab3ce","system_id":"levelo_inurba_marseille","lat":43.29873,"lon":5.36292,"is_reserved":false,"is_disabled":false,"rental_uris":{"android":"levelo://app?vid=5f73b1c5-bb2a-4fac-9eb7-14c830fab3ce","ios":"levelo://app?vid=5f73b1c5-bb2a-4fac-9eb7-14c830fab3ce"},"vehicle_type_id":"4","last_reported":1737018558,"current_range_meters":18000,"station_id":"ce4bgpp2rcd13ifvqc3g","pricing_plan_id":"cebpf4jnsgd1na2vs0mg"},{"bike_id":"6a659847-122d-47d9-885f-953b98bda704","system_id":"levelo_inurba_marseille","lat":43.24054,"lon":5.37782,"is_reserved":false,"is_disabled":false,"rental_uris":{"android":"levelo://app?vid=6a659847-122d-47d9-885f-953b98bda704","ios":"levelo://app?vid=6a659847-122d-47d9-885f-953b98bda704"},"vehicle_type_id":"4","last_reported":1737018558,"current_range_meters":35600,"station_id":"ce4bhnp2rcd13ifvqgvg","pricing_plan_id":"cebpf4jnsgd1na2vs0mg"},{"bike_id":"586589f0-7d1b-4401-9dc3-944e1bf7fb78","system_id":"levelo_inurba_marseille","lat":43.29277,"lon":5.40118,"is_reserved":false,"is_disabled":true,"rental_uris":{"android":"levelo://app?vid=586589f0-7d1b-4401-9dc3-944e1bf7fb78","ios":"levelo://app?vid=586589f0-7d1b-4401-9dc3-944e1bf7fb78"},"vehicle_type_id":"4","last_reported":1737018558,"current_range_meters":1600,"station_id":"ce4bh312rcd13ifvqdk0","pricing_plan_id":"cebpf4jnsgd1na2vs0mg"},{"bike_id":"6a7366d7-ed8c-4629-bf0c-70c2abcda36d","system_id":"levelo_inurba_marseille","lat":43.23191,"lon":5.3555,"is_reserved":false,"is_disabled":false,"rental_uris":{"android":"levelo://app?vid=6a7366d7-ed8c-4629-bf0c-70c2abcda36d","ios":"levelo://app?vid=6a7366d7-ed8c-4629-bf0c-70c2abcda36d"},"vehicle_type_id":"4","last_reported":1737018558,"current_range_meters":13600,"station_id":"ce4bhu92rcd13ifvqi70","pricing_plan_id":"cebpf4jnsgd1na2vs0mg"},{"bike_id":"2cd1a3d0-753f-4c8e-8963-07f6e8977e10","system_id":"levelo_inurba_marseille","lat":43.30421,"lon":5.38887,"is_reserved":false,"is_disabled":false,"rental_uris":{"android":"levelo://app?vid=2cd1a3d0-753f-4c8e-8963-07f6e8977e10","ios":"levelo://app?vid=2cd1a3d0-753f-4c8e-8963-07f6e8977e10"},"vehicle_type_id":"4","last_reported":1737018558,"current_range_meters":17200,"station_id":"ce4bgk12rcd13ifvqbi0","pricing_plan_id":"cebpf4jnsgd1na2vs0mg"},{"bike_id":"2d7f3353-743b-41e1-85f2-e32181d4ae48","system_id":"levelo_inurba_marseille","lat":43.32004,"lon":5.38157,"is_reserved":false,"is_disabled":false,"rental_uris":{"android":"levelo://app?vid=2d7f3353-743b-41e1-85f2-e32181d4ae48","ios":"levelo://app?vid=2d7f3353-743b-41e1-85f2-e32181d4ae48"},"vehicle_type_id":"4","last_reported":1737018558,"current_range_meters":34000,"station_id":"ce4bhr12rcd13ifvqhpg","pricing_plan_id":"cebpf4jnsgd1na2vs0mg"},{"bike_id":"7e3ee2e7-7482-4133-a472-006dba3905fa","system_id":"levelo_inurba_marseille","lat":43.25526,"lon":5.37691,"is_reserved":false,"is_disabled":false,"rental_uris":{"android":"levelo://app?vid=7e3ee2e7-7482-4133-a472-006dba3905fa","ios":"levelo://app?vid=7e3ee2e7-7482-4133-a472-006dba3905fa"},"vehicle_type_id":"4","last_reported":1737018558,"current_range_meters":28000,"station_id":"ce4bhh12rcd13ifvqff0","pricing_plan_id":"cebpf4jnsgd1na2vs0mg"},{"bike_id":"d6248787-bad6-4726-aab8-dd8572187026","system_id":"levelo_inurba_marseille","lat":43.30289,"lon":5.37701,"is_reserved":false,"is_disabled":false,"rental_uris":{"android":"levelo://app?vid=d6248787-bad6-4726-aab8-dd8572187026","ios":"levelo://app?vid=d6248787-bad6-4726-aab8-dd8572187026"},"vehicle_type_id":"4","last_reported":1737018558,"current_range_meters":34800,"station_id":"ce4bguh2rcd13ifvqcj0","pricing_plan_id":"cebpf4jnsgd1na2vs0mg"},{"bike_id":"51fa486b-5e31-483c-be2f-a8ad4efb10e7","system_id":"levelo_inurba_marseille","lat":43.25936,"lon":5.40902,"is_reserved":false,"is_disabled":false,"rental_uris":{"android":"levelo://app?vid=51fa486b-5e31-483c-be2f-a8ad4efb10e7","ios":"levelo://app?vid=51fa486b-5e31-483c-be2f-a8ad4efb10e7"},"vehicle_type_id":"4","last_reported":1737018558,"current_range_meters":36000,"station_id":"ce4bhm92rcd13ifvqglg","pricing_plan_id":"cebpf4jnsgd1na2vs0mg"},{"bike_id":"19b366c0-09f8-4786-9878-33708b14c753","system_id":"levelo_inurba_marseille","lat":43.33621,"lon":5.40958,"is_reserved":false,"is_disabled":false,"rental_uris":{"android":"levelo://app?vid=19b366c0-09f8-4786-9878-33708b14c753","ios":"levelo://app?vid=19b366c0-09f8-4786-9878-33708b14c753"},"vehicle_type_id":"4","last_reported":1737018558,"current_range_meters":7200,"station_id":"","pricing_plan_id":"cebpf4jnsgd1na2vs0mg"},{"bike_id":"469e191a-6cd4-423d-823f-56893a533861","system_id":"levelo_inurba_marseille","lat":43.28702,"lon":5.39989,"is_reserved":false,"is_disabled":false,"rental_uris":{"android":"levelo://app?vid=469e191a-6cd4-423d-823f-56893a533861","ios":"levelo://app?vid=469e191a-6cd4-423d-823f-56893a533861"},"vehicle_type_id":"4","last_reported":1737018558,"current_range_meters":21600,"station_id":"ce4bho92rcd13ifvqh3g","pricing_plan_id":"cebpf4jnsgd1na2vs0mg"},{"bike_id":"a991e04d-002f-479e-8e12-bbae3959f3c4","system_id":"levelo_inurba_marseille","lat":43.29695,"lon":5.36594,"is_reserved":false,"is_disabled":false,"rental_uris":{"android":"levelo://app?vid=a991e04d-002f-479e-8e12-bbae3959f3c4","ios":"levelo://app?vid=a991e04d-002f-479e-8e12-bbae3959f3c4"},"vehicle_type_id":"4","last_reported":1737018558,"current_range_meters":27200,"station_id":"ce4bgn12rcd13ifvqbt0","pricing_plan_id":"cebpf4jnsgd1na2vs0mg"},{"bike_id":"c40afdff-6fe4-4536-972a-1fa0ea1bddfe","system_id":"levelo_inurba_marseille","lat":43.28351,"lon":5.38107,"is_reserved":false,"is_disabled":false,"rental_uris":{"android":"levelo://app?vid=c40afdff-6fe4-4536-972a-1fa0ea1bddfe","ios":"levelo://app?vid=c40afdff-6fe4-4536-972a-1fa0ea1bddfe"},"vehicle_type_id":"4","last_reported":1737018558,"current_range_meters":36400,"station_id":"ce4bh412rcd13ifvqdr0","pricing_plan_id":"cebpf4jnsgd1na2vs0mg"},{"bike_id":"b583689d-4b3b-4fec-a4c3-0358dd755494","system_id":"levelo_inurba_marseille","lat":43.26685,"lon":5.38276,"is_reserved":false,"is_disabled":false,"rental_uris":{"android":"levelo://app?vid=b583689d-4b3b-4fec-a4c3-0358dd755494","ios":"levelo://app?vid=b583689d-4b3b-4fec-a4c3-0358dd755494"},"vehicle_type_id":"4","last_reported":1737018558,"current_range_meters":30800,"station_id":"ce4bhg92rcd13ifvqf90","pricing_plan_id":"cebpf4jnsgd1na2vs0mg"},{"bike_id":"dea3269e-c582-4518-b6dc-a1267fdb2cd6","system_id":"levelo_inurba_marseille","lat":43.30528,"lon":5.36704,"is_reserved":false,"is_disabled":false,"rental_uris":{"android":"levelo://app?vid=dea3269e-c582-4518-b6dc-a1267fdb2cd6","ios":"levelo://app?vid=dea3269e-c582-4518-b6dc-a1267fdb2cd6"},"vehicle_type_id":"4","last_reported":1737018558,"current_range_meters":23200,"station_id":"ce4bgrp2rcd13ifvqc9g","pricing_plan_id":"cebpf4jnsgd1na2vs0mg"},{"bike_id":"ef8de47d-f7f1-47b7-98c3-b86e4c7c1ce0","system_id":"levelo_inurba_marseille","lat":43.31086,"lon":5.42444,"is_reserved":false,"is_disabled":false,"rental_uris":{"android":"levelo://app?vid=ef8de47d-f7f1-47b7-98c3-b86e4c7c1ce0","ios":"levelo://app?vid=ef8de47d-f7f1-47b7-98c3-b86e4c7c1ce0"},"vehicle_type_id":"4","last_reported":1737018558,"current_range_meters":20000,"station_id":"ce4bhp92rcd13ifvqhag","pricing_plan_id":"cebpf4jnsgd1na2vs0mg"},{"bike_id":"8534aaf4-535f-4db5-8998-0f97ef68ef36","system_id":"levelo_inurba_marseille","lat":43.24405,"lon":5.37058,"is_reserved":false,"is_disabled":false,"rental_uris":{"android":"levelo://app?vid=8534aaf4-535f-4db5-8998-0f97ef68ef36","ios":"levelo://app?vid=8534aaf4-535f-4db5-8998-0f97ef68ef36"},"vehicle_type_id":"4","last_reported":1737018558,"current_range_meters":39200,"station_id":"ce4bhhh2rcd13ifvqfk0","pricing_plan_id":"cebpf4jnsgd1na2vs0mg"},{"bike_id":"5d42a98e-bef8-43af-946e-751274f82d4c","system_id":"levelo_inurba_marseille","lat":43.23658,"lon":5.43608,"is_reserved":false,"is_disabled":true,"rental_uris":{"android":"levelo://app?vid=5d42a98e-bef8-43af-946e-751274f82d4c","ios":"levelo://app?vid=5d42a98e-bef8-43af-946e-751274f82d4c"},"vehicle_type_id":"4","last_reported":1737018558,"current_range_meters":32400,"station_id":"","pricing_plan_id":"cebpf4jnsgd1na2vs0mg"},{"bike_id":"b71cb508-0b8e-4e4f-bed8-38d98b2efa2d","system_id":"levelo_inurba_marseille","lat":43.29842,"lon":5.36265,"is_reserved":false,"is_disabled":false,"rental_uris":{"android":"levelo://app?vid=b71cb508-0b8e-4e4f-bed8-38d98b2efa2d","ios":"levelo://app?vid=b71cb508-0b8e-4e4f-bed8-38d98b2efa2d"},"vehicle_type_id":"4","last_reported":1737018558,"current_range_meters":36000,"station_id":"ce4bgpp2rcd13ifvqc3g","pricing_plan_id":"cebpf4jnsgd1na2vs0mg"},{"bike_id":"a2908b4f-e283-49c6-a08d-76ce2a17372d","system_id":"levelo_inurba_marseille","lat":43.29968,"lon":5.38492,"is_reserved":false,"is_disabled":true,"rental_uris":{"android":"levelo://app?vid=a2908b4f-e283-49c6-a08d-76ce2a17372d","ios":"levelo://app?vid=a2908b4f-e283-49c6-a08d-76ce2a17372d"},"vehicle_type_id":"4","last_reported":1737018558,"current_range_meters":37600,"station_id":"ce4bgj92rcd13ifvqbd0","pricing_plan_id":"cebpf4jnsgd1na2vs0mg"},{"bike_id":"6bb0c2df-6198-4645-b80a-340391eb447c","system_id":"levelo_inurba_marseille","lat":43.28162,"lon":5.42611,"is_reserved":false,"is_disabled":false,"rental_uris":{"android":"levelo://app?vid=6bb0c2df-6198-4645-b80a-340391eb447c","ios":"levelo://app?vid=6bb0c2df-6198-4645-b80a-340391eb447c"},"vehicle_type_id":"4","last_reported":1737018558,"current_range_meters":30800,"station_id":"ce4bhnh2rcd13ifvqgug","pricing_plan_id":"cebpf4jnsgd1na2vs0mg"},{"bike_id":"6c02ae22-4e33-4b73-a0d5-7fa499611cc2","system_id":"levelo_inurba_marseille","lat":43.23214,"lon":5.43761,"is_reserved":false,"is_disabled":false,"rental_uris":{"android":"levelo://app?vid=6c02ae22-4e33-4b73-a0d5-7fa499611cc2","ios":"levelo://app?vid=6c02ae22-4e33-4b73-a0d5-7fa499611cc2"},"vehicle_type_id":"4","last_reported":1737018558,"current_range_meters":35600,"station_id":"ce4bhmp2rcd13ifvqgog","pricing_plan_id":"cebpf4jnsgd1na2vs0mg"},{"bike_id":"b5505f35-094b-4e20-8a01-2b2cbb437537","system_id":"levelo_inurba_marseille","lat":43.26953,"lon":5.38641,"is_reserved":false,"is_disabled":false,"rental_uris":{"android":"levelo://app?vid=b5505f35-094b-4e20-8a01-2b2cbb437537","ios":"levelo://app?vid=b5505f35-094b-4e20-8a01-2b2cbb437537"},"vehicle_type_id":"4","last_reported":1737018558,"current_range_meters":37600,"station_id":"ce4bhh92rcd13ifvqfh0","pricing_plan_id":"cebpf4jnsgd1na2vs0mg"},{"bike_id":"f3000f12-d78d-46d5-99ca-8a4e13f94f9e","system_id":"levelo_inurba_marseille","lat":43.25509,"lon":5.37633,"is_reserved":false,"is_disabled":false,"rental_uris":{"android":"levelo://app?vid=f3000f12-d78d-46d5-99ca-8a4e13f94f9e","ios":"levelo://app?vid=f3000f12-d78d-46d5-99ca-8a4e13f94f9e"},"vehicle_type_id":"4","last_reported":1737018558,"current_range_meters":39200,"station_id":"ce4bhh12rcd13ifvqff0","pricing_plan_id":"cebpf4jnsgd1na2vs0mg"},{"bike_id":"133cc338-2cd1-4934-acb9-fb687e9c6d5f","system_id":"levelo_inurba_marseille","lat":43.29686,"lon":5.37291,"is_reserved":false,"is_disabled":false,"rental_uris":{"android":"levelo://app?vid=133cc338-2cd1-4934-acb9-fb687e9c6d5f","ios":"levelo://app?vid=133cc338-2cd1-4934-acb9-fb687e9c6d5f"},"vehicle_type_id":"4","last_reported":1737018558,"current_range_meters":22400,"station_id":"ce4bgk12rcd13ifvqbj0","pricing_plan_id":"cebpf4jnsgd1na2vs0mg"},{"bike_id":"b311f074-4836-490a-90ca-8d042c3078fa","system_id":"levelo_inurba_marseille","lat":43.28136,"lon":5.42647,"is_reserved":false,"is_disabled":false,"rental_uris":{"android":"levelo://app?vid=b311f074-4836-490a-90ca-8d042c3078fa","ios":"levelo://app?vid=b311f074-4836-490a-90ca-8d042c3078fa"},"vehicle_type_id":"4","last_reported":1737018558,"current_range_meters":24400,"station_id":"ce4bhnh2rcd13ifvqgug","pricing_plan_id":"cebpf4jnsgd1na2vs0mg"},{"bike_id":"6003524c-18e4-4d25-8fc7-903f93c12173","system_id":"levelo_inurba_marseille","lat":43.30134,"lon":5.38788,"is_reserved":false,"is_disabled":true,"rental_uris":{"android":"levelo://app?vid=6003524c-18e4-4d25-8fc7-903f93c12173","ios":"levelo://app?vid=6003524c-18e4-4d25-8fc7-903f93c12173"},"vehicle_type_id":"4","last_reported":1737018558,"current_range_meters":38800,"station_id":"ce4bghh2rcd13ifvqb60","pricing_plan_id":"cebpf4jnsgd1na2vs0mg"},{"bike_id":"581cc440-8117-4ff6-be05-02046e19d4fc","system_id":"levelo_inurba_marseille","lat":43.29039,"lon":5.39963,"is_reserved":false,"is_disabled":false,"rental_uris":{"android":"levelo://app?vid=581cc440-8117-4ff6-be05-02046e19d4fc","ios":"levelo://app?vid=581cc440-8117-4ff6-be05-02046e19d4fc"},"vehicle_type_id":"4","last_reported":1737018558,"current_range_meters":12400,"station_id":"ce4bh392rcd13ifvqdm0","pricing_plan_id":"cebpf4jnsgd1na2vs0mg"},{"bike_id":"f7311a1f-e113-44dd-bd96-0d07219d4eec","system_id":"levelo_inurba_marseille","lat":43.29367,"lon":5.37838,"is_reserved":false,"is_disabled":false,"rental_uris":{"android":"levelo://app?vid=f7311a1f-e113-44dd-bd96-0d07219d4eec","ios":"levelo://app?vid=f7311a1f-e113-44dd-bd96-0d07219d4eec"},"vehicle_type_id":"4","last_reported":1737018558,"current_range_meters":17200,"station_id":"ce4bgjh2rcd13ifvqbf0","pricing_plan_id":"cebpf4jnsgd1na2vs0mg"},{"bike_id":"e21a33db-4ff7-44b2-a73f-b5c05a38c476","system_id":"levelo_inurba_marseille","lat":43.25491,"lon":5.37648,"is_reserved":false,"is_disabled":false,"rental_uris":{"android":"levelo://app?vid=e21a33db-4ff7-44b2-a73f-b5c05a38c476","ios":"levelo://app?vid=e21a33db-4ff7-44b2-a73f-b5c05a38c476"},"vehicle_type_id":"4","last_reported":1737018558,"current_range_meters":38400,"station_id":"ce4bhh12rcd13ifvqff0","pricing_plan_id":"cebpf4jnsgd1na2vs0mg"},{"bike_id":"b6cc3290-8d97-4a09-b52c-61d9cb4c3b4e","system_id":"levelo_inurba_marseille","lat":43.30549,"lon":5.36694,"is_reserved":false,"is_disabled":false,"rental_uris":{"android":"levelo://app?vid=b6cc3290-8d97-4a09-b52c-61d9cb4c3b4e","ios":"levelo://app?vid=b6cc3290-8d97-4a09-b52c-61d9cb4c3b4e"},"vehicle_type_id":"4","last_reported":1737018558,"current_range_meters":33200,"station_id":"ce4bgrp2rcd13ifvqc9g","pricing_plan_id":"cebpf4jnsgd1na2vs0mg"},{"bike_id":"30279267-2c15-4b66-8941-f3b2637bc5b8","system_id":"levelo_inurba_marseille","lat":43.24181,"lon":5.39726,"is_reserved":false,"is_disabled":false,"rental_uris":{"android":"levelo://app?vid=30279267-2c15-4b66-8941-f3b2637bc5b8","ios":"levelo://app?vid=30279267-2c15-4b66-8941-f3b2637bc5b8"},"vehicle_type_id":"4","last_reported":1737018558,"current_range_meters":27600,"station_id":"ce4bhn12rcd13ifvqgpg","pricing_plan_id":"cebpf4jnsgd1na2vs0mg"},{"bike_id":"436208d9-22ee-4b59-8ade-7d37f5f818f8","system_id":"levelo_inurba_marseille","lat":43.30351,"lon":5.391003,"is_reserved":false,"is_disabled":true,"rental_uris":{"android":"levelo://app?vid=436208d9-22ee-4b59-8ade-7d37f5f818f8","ios":"levelo://app?vid=436208d9-22ee-4b59-8ade-7d37f5f818f8"},"vehicle_type_id":"4","last_reported":1737018558,"current_range_meters":4000,"station_id":"ce4bgkh2rcd13ifvqbk0","pricing_plan_id":"cebpf4jnsgd1na2vs0mg"},{"bike_id":"ba1008a8-8bd4-4cbd-ad17-281945b98710","system_id":"levelo_inurba_marseille","lat":43.26587,"lon":5.39059,"is_reserved":false,"is_disabled":false,"rental_uris":{"android":"levelo://app?vid=ba1008a8-8bd4-4cbd-ad17-281945b98710","ios":"levelo://app?vid=ba1008a8-8bd4-4cbd-ad17-281945b98710"},"vehicle_type_id":"4","last_reported":1737018558,"current_range_meters":38000,"station_id":"ce4bhe12rcd13ifvqf30","pricing_plan_id":"cebpf4jnsgd1na2vs0mg"},{"bike_id":"96bc5ab3-f858-464a-b4af-68940b7ae460","system_id":"levelo_inurba_marseille","lat":43.30532,"lon":5.36704,"is_reserved":false,"is_disabled":false,"rental_uris":{"android":"levelo://app?vid=96bc5ab3-f858-464a-b4af-68940b7ae460","ios":"levelo://app?vid=96bc5ab3-f858-464a-b4af-68940b7ae460"},"vehicle_type_id":"4","last_reported":1737018558,"current_range_meters":38800,"station_id":"ce4bgrp2rcd13ifvqc9g","pricing_plan_id":"cebpf4jnsgd1na2vs0mg"},{"bike_id":"2aecd2f7-382e-41e1-a751-45dc704f3b47","system_id":"levelo_inurba_marseille","lat":43.26678,"lon":5.38265,"is_reserved":false,"is_disabled":false,"rental_uris":{"android":"levelo://app?vid=2aecd2f7-382e-41e1-a751-45dc704f3b47","ios":"levelo://app?vid=2aecd2f7-382e-41e1-a751-45dc704f3b47"},"vehicle_type_id":"4","last_reported":1737018558,"current_range_meters":25600,"station_id":"ce4bhg92rcd13ifvqf90","pricing_plan_id":"cebpf4jnsgd1na2vs0mg"},{"bike_id":"b66c8a7c-98ac-480c-a383-f54813a2d5aa","system_id":"levelo_inurba_marseille","lat":43.25823,"lon":5.39429,"is_reserved":false,"is_disabled":false,"rental_uris":{"android":"levelo://app?vid=b66c8a7c-98ac-480c-a383-f54813a2d5aa","ios":"levelo://app?vid=b66c8a7c-98ac-480c-a383-f54813a2d5aa"},"vehicle_type_id":"4","last_reported":1737018558,"current_range_meters":38800,"station_id":"ce4bhip2rcd13ifvqft0","pricing_plan_id":"cebpf4jnsgd1na2vs0mg"},{"bike_id":"e17b6980-3f7c-4d79-b8d3-f4bf7717c3e6","system_id":"levelo_inurba_marseille","lat":43.24676,"lon":5.38156,"is_reserved":false,"is_disabled":false,"rental_uris":{"android":"levelo://app?vid=e17b6980-3f7c-4d79-b8d3-f4bf7717c3e6","ios":"levelo://app?vid=e17b6980-3f7c-4d79-b8d3-f4bf7717c3e6"},"vehicle_type_id":"4","last_reported":1737018558,"current_range_meters":22400,"station_id":"ce4bhih2rcd13ifvqfr0","pricing_plan_id":"cebpf4jnsgd1na2vs0mg"},{"bike_id":"ccfe53f0-8dfd-4f5f-b4c7-b77b106d12b3","system_id":"levelo_inurba_marseille","lat":43.24668,"lon":5.3817,"is_reserved":false,"is_disabled":false,"rental_uris":{"android":"levelo://app?vid=ccfe53f0-8dfd-4f5f-b4c7-b77b106d12b3","ios":"levelo://app?vid=ccfe53f0-8dfd-4f5f-b4c7-b77b106d12b3"},"vehicle_type_id":"4","last_reported":1737018558,"current_range_meters":39200,"station_id":"ce4bhih2rcd13ifvqfr0","pricing_plan_id":"cebpf4jnsgd1na2vs0mg"},{"bike_id":"e2f55b26-1113-4621-a73a-ac2e3efff16f","system_id":"levelo_inurba_marseille","lat":43.29863,"lon":5.39732,"is_reserved":false,"is_disabled":false,"rental_uris":{"android":"levelo://app?vid=e2f55b26-1113-4621-a73a-ac2e3efff16f","ios":"levelo://app?vid=e2f55b26-1113-4621-a73a-ac2e3efff16f"},"vehicle_type_id":"4","last_reported":1737018558,"current_range_meters":33600,"station_id":"ce4bh0h2rcd13ifvqd50","pricing_plan_id":"cebpf4jnsgd1na2vs0mg"},{"bike_id":"d8816fd9-61eb-4316-8ee5-3781fc5785a2","system_id":"levelo_inurba_marseille","lat":43.24072,"lon":5.3777,"is_reserved":false,"is_disabled":false,"rental_uris":{"android":"levelo://app?vid=d8816fd9-61eb-4316-8ee5-3781fc5785a2","ios":"levelo://app?vid=d8816fd9-61eb-4316-8ee5-3781fc5785a2"},"vehicle_type_id":"4","last_reported":1737018558,"current_range_meters":28800,"station_id":"ce4bhnp2rcd13ifvqgvg","pricing_plan_id":"cebpf4jnsgd1na2vs0mg"},{"bike_id":"dfa82dd5-ef08-4ffd-9d8f-0029ad66c886","system_id":"levelo_inurba_marseille","lat":43.26568,"lon":5.3901,"is_reserved":false,"is_disabled":false,"rental_uris":{"android":"levelo://app?vid=dfa82dd5-ef08-4ffd-9d8f-0029ad66c886","ios":"levelo://app?vid=dfa82dd5-ef08-4ffd-9d8f-0029ad66c886"},"vehicle_type_id":"4","last_reported":1737018558,"current_range_meters":23200,"station_id":"ce4bhe12rcd13ifvqf30","pricing_plan_id":"cebpf4jnsgd1na2vs0mg"},{"bike_id":"0b63f676-b98b-409b-ab55-aa70c557f731","system_id":"levelo_inurba_marseille","lat":43.28975,"lon":5.37842,"is_reserved":false,"is_disabled":false,"rental_uris":{"android":"levelo://app?vid=0b63f676-b98b-409b-ab55-aa70c557f731","ios":"levelo://app?vid=0b63f676-b98b-409b-ab55-aa70c557f731"},"vehicle_type_id":"4","last_reported":1737018558,"current_range_meters":35200,"station_id":"ce4bh9p2rcd13ifvqed0","pricing_plan_id":"cebpf4jnsgd1na2vs0mg"},{"bike_id":"c101e9d6-6586-4057-bcf2-225072af234f","system_id":"levelo_inurba_marseille","lat":43.30883,"lon":5.37201,"is_reserved":false,"is_disabled":false,"rental_uris":{"android":"levelo://app?vid=c101e9d6-6586-4057-bcf2-225072af234f","ios":"levelo://app?vid=c101e9d6-6586-4057-bcf2-225072af234f"},"vehicle_type_id":"4","last_reported":1737018558,"current_range_meters":28800,"station_id":"ce4bguh2rcd13ifvqckg","pricing_plan_id":"cebpf4jnsgd1na2vs0mg"},{"bike_id":"c3add43b-bf52-4193-b880-0d78478473f5","system_id":"levelo_inurba_marseille","lat":43.23194,"lon":5.35549,"is_reserved":false,"is_disabled":false,"rental_uris":{"android":"levelo://app?vid=c3add43b-bf52-4193-b880-0d78478473f5","ios":"levelo://app?vid=c3add43b-bf52-4193-b880-0d78478473f5"},"vehicle_type_id":"4","last_reported":1737018558,"current_range_meters":35200,"station_id":"ce4bhu92rcd13ifvqi70","pricing_plan_id":"cebpf4jnsgd1na2vs0mg"},{"bike_id":"24170ccc-3bf5-420f-8934-aaa38745f2ac","system_id":"levelo_inurba_marseille","lat":43.27496,"lon":5.42451,"is_reserved":false,"is_disabled":true,"rental_uris":{"android":"levelo://app?vid=24170ccc-3bf5-420f-8934-aaa38745f2ac","ios":"levelo://app?vid=24170ccc-3bf5-420f-8934-aaa38745f2ac"},"vehicle_type_id":"4","last_reported":1737018558,"current_range_meters":0,"station_id":"ce4bhn92rcd13ifvqgrg","pricing_plan_id":"cebpf4jnsgd1na2vs0mg"},{"bike_id":"5d48a0a6-c1d7-4848-98aa-39b09efe2a2a","system_id":"levelo_inurba_marseille","lat":43.30142,"lon":5.37415,"is_reserved":false,"is_disabled":false,"rental_uris":{"android":"levelo://app?vid=5d48a0a6-c1d7-4848-98aa-39b09efe2a2a","ios":"levelo://app?vid=5d48a0a6-c1d7-4848-98aa-39b09efe2a2a"},"vehicle_type_id":"4","last_reported":1737018558,"current_range_meters":8000,"station_id":"ce4bgs92rcd13ifvqcc0","pricing_plan_id":"cebpf4jnsgd1na2vs0mg"},{"bike_id":"10d63d3b-bb2f-4537-a896-0576b6ef4ec0","system_id":"levelo_inurba_marseille","lat":43.290794,"lon":5.371588,"is_reserved":false,"is_disabled":false,"rental_uris":{"android":"levelo://app?vid=10d63d3b-bb2f-4537-a896-0576b6ef4ec0","ios":"levelo://app?vid=10d63d3b-bb2f-4537-a896-0576b6ef4ec0"},"vehicle_type_id":"4","last_reported":1737018558,"current_range_meters":4000,"station_id":"ce4bh5p2rcd13ifvqe4g","pricing_plan_id":"cebpf4jnsgd1na2vs0mg"},{"bike_id":"cdaad3f4-277a-4f8c-98ff-d90d4eb032cc","system_id":"levelo_inurba_marseille","lat":43.31248,"lon":5.36891,"is_reserved":false,"is_disabled":false,"rental_uris":{"android":"levelo://app?vid=cdaad3f4-277a-4f8c-98ff-d90d4eb032cc","ios":"levelo://app?vid=cdaad3f4-277a-4f8c-98ff-d90d4eb032cc"},"vehicle_type_id":"4","last_reported":1737018558,"current_range_meters":10800,"station_id":"ce4bgl92rcd13ifvqbq0","pricing_plan_id":"cebpf4jnsgd1na2vs0mg"},{"bike_id":"5565ba63-8c08-4156-ad24-a446e77f076d","system_id":"levelo_inurba_marseille","lat":43.25502,"lon":5.37655,"is_reserved":false,"is_disabled":false,"rental_uris":{"android":"levelo://app?vid=5565ba63-8c08-4156-ad24-a446e77f076d","ios":"levelo://app?vid=5565ba63-8c08-4156-ad24-a446e77f076d"},"vehicle_type_id":"4","last_reported":1737018558,"current_range_meters":36000,"station_id":"ce4bhh12rcd13ifvqff0","pricing_plan_id":"cebpf4jnsgd1na2vs0mg"},{"bike_id":"4ae5cf8c-749c-469c-9df4-d134cf204ff4","system_id":"levelo_inurba_marseille","lat":43.24073,"lon":5.3775,"is_reserved":false,"is_disabled":false,"rental_uris":{"android":"levelo://app?vid=4ae5cf8c-749c-469c-9df4-d134cf204ff4","ios":"levelo://app?vid=4ae5cf8c-749c-469c-9df4-d134cf204ff4"},"vehicle_type_id":"4","last_reported":1737018558,"current_range_meters":28400,"station_id":"ce4bhnp2rcd13ifvqgvg","pricing_plan_id":"cebpf4jnsgd1na2vs0mg"},{"bike_id":"3677afbf-68f9-4979-899f-7e1aaf00ce96","system_id":"levelo_inurba_marseille","lat":43.27948,"lon":5.41059,"is_reserved":false,"is_disabled":true,"rental_uris":{"android":"levelo://app?vid=3677afbf-68f9-4979-899f-7e1aaf00ce96","ios":"levelo://app?vid=3677afbf-68f9-4979-899f-7e1aaf00ce96"},"vehicle_type_id":"4","last_reported":1737018558,"current_range_meters":28800,"station_id":"ce4bhnp2rcd13ifvqh0g","pricing_plan_id":"cebpf4jnsgd1na2vs0mg"},{"bike_id":"7a81038e-cbf9-4926-9650-afeb9de48e27","system_id":"levelo_inurba_marseille","lat":43.31243,"lon":5.36888,"is_reserved":false,"is_disabled":false,"rental_uris":{"android":"levelo://app?vid=7a81038e-cbf9-4926-9650-afeb9de48e27","ios":"levelo://app?vid=7a81038e-cbf9-4926-9650-afeb9de48e27"},"vehicle_type_id":"4","last_reported":1737018558,"current_range_meters":22400,"station_id":"ce4bgl92rcd13ifvqbq0","pricing_plan_id":"cebpf4jnsgd1na2vs0mg"},{"bike_id":"e1f9a0b5-1419-4e67-ab24-a72ee45dfd85","system_id":"levelo_inurba_marseille","lat":43.24169,"lon":5.36397,"is_reserved":false,"is_disabled":false,"rental_uris":{"android":"levelo://app?vid=e1f9a0b5-1419-4e67-ab24-a72ee45dfd85","ios":"levelo://app?vid=e1f9a0b5-1419-4e67-ab24-a72ee45dfd85"},"vehicle_type_id":"4","last_reported":1737018558,"current_range_meters":22400,"station_id":"cpo36qri1sfpv3e86is0","pricing_plan_id":"cebpf4jnsgd1na2vs0mg"},{"bike_id":"e14fe674-d6e2-440f-88d5-ccc7cbea8f91","system_id":"levelo_inurba_marseille","lat":43.27486,"lon":5.4246,"is_reserved":false,"is_disabled":false,"rental_uris":{"android":"levelo://app?vid=e14fe674-d6e2-440f-88d5-ccc7cbea8f91","ios":"levelo://app?vid=e14fe674-d6e2-440f-88d5-ccc7cbea8f91"},"vehicle_type_id":"4","last_reported":1737018558,"current_range_meters":28400,"station_id":"ce4bhn92rcd13ifvqgrg","pricing_plan_id":"cebpf4jnsgd1na2vs0mg"},{"bike_id":"93bc7e9d-3047-482e-a396-1037e95fe874","system_id":"levelo_inurba_marseille","lat":43.32305,"lon":5.38322,"is_reserved":false,"is_disabled":false,"rental_uris":{"android":"levelo://app?vid=93bc7e9d-3047-482e-a396-1037e95fe874","ios":"levelo://app?vid=93bc7e9d-3047-482e-a396-1037e95fe874"},"vehicle_type_id":"4","last_reported":1737018558,"current_range_meters":18000,"station_id":"ce4bhr12rcd13ifvqhqg","pricing_plan_id":"cebpf4jnsgd1na2vs0mg"},{"bike_id":"1f0594a4-3ffd-4d41-80fb-d6812ea0d488","system_id":"levelo_inurba_marseille","lat":43.32479,"lon":5.36573,"is_reserved":false,"is_disabled":false,"rental_uris":{"android":"levelo://app?vid=1f0594a4-3ffd-4d41-80fb-d6812ea0d488","ios":"levelo://app?vid=1f0594a4-3ffd-4d41-80fb-d6812ea0d488"},"vehicle_type_id":"4","last_reported":1737018558,"current_range_meters":24400,"station_id":"ce4bhs12rcd13ifvqhvg","pricing_plan_id":"cebpf4jnsgd1na2vs0mg"},{"bike_id":"f7a93299-4b31-44c2-976e-82f7878bc418","system_id":"levelo_inurba_marseille","lat":43.2548,"lon":5.37677,"is_reserved":false,"is_disabled":false,"rental_uris":{"android":"levelo://app?vid=f7a93299-4b31-44c2-976e-82f7878bc418","ios":"levelo://app?vid=f7a93299-4b31-44c2-976e-82f7878bc418"},"vehicle_type_id":"4","last_reported":1737018558,"current_range_meters":39200,"station_id":"ce4bhh12rcd13ifvqff0","pricing_plan_id":"cebpf4jnsgd1na2vs0mg"},{"bike_id":"31f00ed0-b0ca-427a-9039-ac29c940ea2c","system_id":"levelo_inurba_marseille","lat":43.231947,"lon":5.355481,"is_reserved":false,"is_disabled":false,"rental_uris":{"android":"levelo://app?vid=31f00ed0-b0ca-427a-9039-ac29c940ea2c","ios":"levelo://app?vid=31f00ed0-b0ca-427a-9039-ac29c940ea2c"},"vehicle_type_id":"4","last_reported":1737018558,"current_range_meters":19600,"station_id":"ce4bhu92rcd13ifvqi70","pricing_plan_id":"cebpf4jnsgd1na2vs0mg"},{"bike_id":"3b9622b7-ea47-45eb-8408-979a7102fc58","system_id":"levelo_inurba_marseille","lat":43.297,"lon":5.37303,"is_reserved":false,"is_disabled":false,"rental_uris":{"android":"levelo://app?vid=3b9622b7-ea47-45eb-8408-979a7102fc58","ios":"levelo://app?vid=3b9622b7-ea47-45eb-8408-979a7102fc58"},"vehicle_type_id":"4","last_reported":1737018558,"current_range_meters":34800,"station_id":"ce4bgk12rcd13ifvqbj0","pricing_plan_id":"cebpf4jnsgd1na2vs0mg"},{"bike_id":"fc0fba9a-52e3-4564-ac9d-ade21d828db4","system_id":"levelo_inurba_marseille","lat":43.26783,"lon":5.39446,"is_reserved":false,"is_disabled":true,"rental_uris":{"android":"levelo://app?vid=fc0fba9a-52e3-4564-ac9d-ade21d828db4","ios":"levelo://app?vid=fc0fba9a-52e3-4564-ac9d-ade21d828db4"},"vehicle_type_id":"4","last_reported":1737018558,"current_range_meters":1200,"station_id":"ce4bhh12rcd13ifvqfg0","pricing_plan_id":"cebpf4jnsgd1na2vs0mg"},{"bike_id":"f4f9016c-8c85-4d85-a48f-08592c344b92","system_id":"levelo_inurba_marseille","lat":43.33765,"lon":5.37443,"is_reserved":false,"is_disabled":false,"rental_uris":{"android":"levelo://app?vid=f4f9016c-8c85-4d85-a48f-08592c344b92","ios":"levelo://app?vid=f4f9016c-8c85-4d85-a48f-08592c344b92"},"vehicle_type_id":"4","last_reported":1737018558,"current_range_meters":36800,"station_id":"","pricing_plan_id":"cebpf4jnsgd1na2vs0mg"},{"bike_id":"8ccdb8e3-5350-4cab-8a81-1bd6181a6c06","system_id":"levelo_inurba_marseille","lat":43.23199,"lon":5.3555,"is_reserved":false,"is_disabled":false,"rental_uris":{"android":"levelo://app?vid=8ccdb8e3-5350-4cab-8a81-1bd6181a6c06","ios":"levelo://app?vid=8ccdb8e3-5350-4cab-8a81-1bd6181a6c06"},"vehicle_type_id":"4","last_reported":1737018558,"current_range_meters":30400,"station_id":"ce4bhu92rcd13ifvqi70","pricing_plan_id":"cebpf4jnsgd1na2vs0mg"},{"bike_id":"bdf48d39-671d-4935-85fe-4c0ef8237f4f","system_id":"levelo_inurba_marseille","lat":43.29597,"lon":5.38101,"is_reserved":false,"is_disabled":false,"rental_uris":{"android":"levelo://app?vid=bdf48d39-671d-4935-85fe-4c0ef8237f4f","ios":"levelo://app?vid=bdf48d39-671d-4935-85fe-4c0ef8237f4f"},"vehicle_type_id":"4","last_reported":1737018558,"current_range_meters":28400,"station_id":"ce4bgl12rcd13ifvqbo0","pricing_plan_id":"cebpf4jnsgd1na2vs0mg"},{"bike_id":"994e0d74-55d0-4db8-901b-eaca136c9cbf","system_id":"levelo_inurba_marseille","lat":43.30158,"lon":5.37402,"is_reserved":false,"is_disabled":false,"rental_uris":{"android":"levelo://app?vid=994e0d74-55d0-4db8-901b-eaca136c9cbf","ios":"levelo://app?vid=994e0d74-55d0-4db8-901b-eaca136c9cbf"},"vehicle_type_id":"4","last_reported":1737018558,"current_range_meters":21600,"station_id":"ce4bgs92rcd13ifvqcc0","pricing_plan_id":"cebpf4jnsgd1na2vs0mg"},{"bike_id":"b8785224-7deb-4578-98d9-cb5f108e380c","system_id":"levelo_inurba_marseille","lat":43.33607,"lon":5.41036,"is_reserved":false,"is_disabled":false,"rental_uris":{"android":"levelo://app?vid=b8785224-7deb-4578-98d9-cb5f108e380c","ios":"levelo://app?vid=b8785224-7deb-4578-98d9-cb5f108e380c"},"vehicle_type_id":"4","last_reported":1737018558,"current_range_meters":9200,"station_id":"ce4bhqh2rcd13ifvqhmg","pricing_plan_id":"cebpf4jnsgd1na2vs0mg"},{"bike_id":"f5863b18-13a1-4c6e-92de-5668ea912ad3","system_id":"levelo_inurba_marseille","lat":43.26227,"lon":5.4045,"is_reserved":false,"is_disabled":true,"rental_uris":{"android":"levelo://app?vid=f5863b18-13a1-4c6e-92de-5668ea912ad3","ios":"levelo://app?vid=f5863b18-13a1-4c6e-92de-5668ea912ad3"},"vehicle_type_id":"4","last_reported":1737018558,"current_range_meters":0,"station_id":"","pricing_plan_id":"cebpf4jnsgd1na2vs0mg"},{"bike_id":"a8fad254-19bb-48fe-801d-9e93d4767cef","system_id":"levelo_inurba_marseille","lat":43.31426,"lon":5.37397,"is_reserved":false,"is_disabled":false,"rental_uris":{"android":"levelo://app?vid=a8fad254-19bb-48fe-801d-9e93d4767cef","ios":"levelo://app?vid=a8fad254-19bb-48fe-801d-9e93d4767cef"},"vehicle_type_id":"4","last_reported":1737018558,"current_range_meters":4000,"station_id":"","pricing_plan_id":"cebpf4jnsgd1na2vs0mg"},{"bike_id":"4f80b95a-af01-475b-97c0-2f920f8b927c","system_id":"levelo_inurba_marseille","lat":43.34148,"lon":5.40931,"is_reserved":false,"is_disabled":false,"rental_uris":{"android":"levelo://app?vid=4f80b95a-af01-475b-97c0-2f920f8b927c","ios":"levelo://app?vid=4f80b95a-af01-475b-97c0-2f920f8b927c"},"vehicle_type_id":"4","last_reported":1737018558,"current_range_meters":38800,"station_id":"ce4bhqh2rcd13ifvqhlg","pricing_plan_id":"cebpf4jnsgd1na2vs0mg"},