{"last_updated":1700593575,"ttl":30,"version":"2.2","data":{"bikes":[{"bike_id":"eeef4dbc-7602-4f26-b2c1-c3771c9b5dae","system_id":"levelo_inurba_marseille","lat":43.3115,"lon":5.36889,"is_reserved":false,"is_disabled":false,"rental_uris":{"android":"levelo://app?vid=eeef4dbc-7602-4f26-b2c1-c3771c9b5dae","ios":"levelo://app?vid=eeef4dbc-7602-4f26-b2c1-c3771c9b5dae"},"vehicle_type_id":"4","last_reported":1700593576,"current_range_meters":0,"station_id":"","pricing_plan_id":"free"},{"bike_id":"14ead429-c547-47ed-a35b-85841b61ca40","system_id":"levelo_inurba_marseille","lat":43.30858,"lon":5.368772,"is_reserved":false,"is_disabled":false,"rental_uris":{"android":"levelo://app?vid=14ead429-c547-47ed-a35b-85841b61ca40","ios":"levelo://app?vid=14ead429-c547-47ed-a35b-85841b61ca40"},"vehicle_type_id":"4","last_reported":1700593576,"current_range_meters":15200,"station_id":"","pricing_plan_id":"free"},{"bike_id":"19f43f17-b8ad-43de-a6cd-d499c2e08192","system_id":"levelo_inurba_marseille","lat":43.309039,"lon":5.371797,"is_reserved":false,"is_disabled":false,"rental_uris":{"android":"levelo://app?vid=19f43f17-b8ad-43de-a6cd-d499c2e08192","ios":"levelo://app?vid=19f43f17-b8ad-43de-a6cd-d499c2e08192"},"vehicle_type_id":"4","last_reported":1700593576,"current_range_meters":3600,"station_id":"ce4bguh2rcd13ifvqckg","pricing_plan_id":"free"},{"bike_id":"2bc311dc-da0b-403e-8cae-84f8764bc67c","system_id":"levelo_inurba_marseille","lat":43.30679,"lon":5.3679,"is_reserved":false,"is_disabled":false,"rental_uris":{"android":"levelo://app?vid=2bc311dc-da0b-403e-8cae-84f8764bc67c","ios":"levelo://app?vid=2bc311dc-da0b-403e-8cae-84f8764bc67c"},"vehicle_type_id":"4","last_reported":1700593576,"current_range_meters":2000,"station_id":"","pricing_plan_id":"free"},{"bike_id":"f90d717e-eb0f-467a-b5b7-a7a2d0324328","system_id":"levelo_inurba_marseille","lat":43.305714,"lon":5.365633,"is_reserved":false,"is_disabled":false,"rental_uris":{"android":"levelo://app?vid=f90d717e-eb0f-467a-b5b7-a7a2d0324328","ios":"levelo://app?vid=f90d717e-eb0f-467a-b5b7-a7a2d0324328"},"vehicle_type_id":"4","last_reported":1700593576,"current_range_meters":0,"station_id":"ce4bgs12rcd13ifvqcag","pricing_plan_id":"free"},{"bike_id":"790d8068-0ca3-4ee2-ac94-5b1995eb78d3","system_id":"levelo_inurba_marseille","lat":43.319634,"lon":5.370771,"is_reserved":false,"is_disabled":false,"rental_uris":{"android":"levelo://app?vid=790d8068-0ca3-4ee2-ac94-5b1995eb78d3","ios":"levelo://app?vid=790d8068-0ca3-4ee2-ac94-5b1995eb78d3"},"vehicle_type_id":"4","last_reported":1700593576,"current_range_meters":0,"station_id":"","pricing_plan_id":"free"},{"bike_id":"06284047-1e80-4933-bc3c-a8606f20a4a9","system_id":"levelo_inurba_marseille","lat":43.308216,"lon":5.376546,"is_reserved":false,"is_disabled":false,"rental_uris":{"android":"levelo://app?vid=06284047-1e80-4933-bc3c-a8606f20a4a9","ios":"levelo://app?vid=06284047-1e80-4933-bc3c-a8606f20a4a9"},"vehicle_type_id":"4","last_reported":1700593576,"current_range_meters":19200,"station_id":"ce4bgv92rcd13ifvqcq0","pricing_plan_id":"free"},{"bike_id":"1e6a44ed-1e48-4442-b4d6-de44a703ed67","system_id":"levelo_inurba_marseille","lat":43.31719,"lon":5.37702,"is_reserved":false,"is_disabled":false,"rental_uris":{"android":"levelo://app?vid=1e6a44ed-1e48-4442-b4d6-de44a703ed67","ios":"levelo://app?vid=1e6a44ed-1e48-4442-b4d6-de44a703ed67"},"vehicle_type_id":"4","last_reported":1700593576,"current_range_meters":26800,"station_id":"ce4bgth2rcd13ifvqch0","pricing_plan_id":"free"},{"bike_id":"027cf318-e52c-4a6e-9e0b-b88d7d96a26e","system_id":"levelo_inurba_marseille","lat":43.317075,"lon":5.377367,"is_reserved":false,"is_disabled":false,"rental_uris":{"android":"levelo://app?vid=027cf318-e52c-4a6e-9e0b-b88d7d96a26e","ios":"levelo://app?vid=027cf318-e52c-4a6e-9e0b-b88d7d96a26e"},"vehicle_type_id":"4","last_reported":1700593576,"current_range_meters":28400,"station_id":"ce4bgth2rcd13ifvqch0","pricing_plan_id":"free"},{"bike_id":"9b62c805-35a2-4d51-83fe-c1f48c97a4d8","system_id":"levelo_inurba_marseille","lat":43.317075,"lon":5.377367,"is_reserved":false,"is_disabled":false,"rental_uris":{"android":"levelo://app?vid=9b62c805-35a2-4d51-83fe-c1f48c97a4d8","ios":"levelo://app?vid=9b62c805-35a2-4d51-83fe-c1f48c97a4d8"},"vehicle_type_id":"4","last_reported":1700593576,"current_range_meters":11600,"station_id":"ce4bgth2rcd13ifvqch0","pricing_plan_id":"free"},{"bike_id":"3945d327-32f8-41bd-b092-c0068ad5c957","system_id":"levelo_inurba_marseille","lat":43.303046,"lon":5.368981,"is_reserved":false,"is_disabled":false,"rental_uris":{"android":"levelo://app?vid=3945d327-32f8-41bd-b092-c0068ad5c957","ios":"levelo://app?vid=3945d327-32f8-41bd-b092-c0068ad5c957"},"vehicle_type_id":"4","last_reported":1700593576,"current_range_meters":1600,"station_id":"ce4bgqh2rcd13ifvqc5g","pricing_plan_id":"free"},{"bike_id":"9b9ee4cd-4677-40c5-8afc-a110839814eb","system_id":"levelo_inurba_marseille","lat":43.31536,"lon":5.38037,"is_reserved":false,"is_disabled":false,"rental_uris":{"android":"levelo://app?vid=9b9ee4cd-4677-40c5-8afc-a110839814eb","ios":"levelo://app?vid=9b9ee4cd-4677-40c5-8afc-a110839814eb"},"vehicle_type_id":"4","last_reported":1700593576,"current_range_meters":13600,"station_id":"ce4bhsp2rcd13ifvqi50","pricing_plan_id":"free"},{"bike_id":"65d0661a-1a1b-4639-bb28-4807f1680ce8","system_id":"levelo_inurba_marseille","lat":43.301811,"lon":5.366198,"is_reserved":false,"is_disabled":false,"rental_uris":{"android":"levelo://app?vid=65d0661a-1a1b-4639-bb28-4807f1680ce8","ios":"levelo://app?vid=65d0661a-1a1b-4639-bb28-4807f1680ce8"},"vehicle_type_id":"4","last_reported":1700593576,"current_range_meters":0,"station_id":"ce4bgt12rcd13ifvqce0","pricing_plan_id":"free"},{"bike_id":"0327687b-f51e-4077-bf49-2ec73a6de092","system_id":"levelo_inurba_marseille","lat":43.3224,"lon":5.37572,"is_reserved":false,"is_disabled":false,"rental_uris":{"android":"levelo://app?vid=0327687b-f51e-4077-bf49-2ec73a6de092","ios":"levelo://app?vid=0327687b-f51e-4077-bf49-2ec73a6de092"},"vehicle_type_id":"4","last_reported":1700593576,"current_range_meters":19600,"station_id":"","pricing_plan_id":"free"},{"bike_id":"aeabe074-028f-4678-9067-3bc4cfad8f4a","system_id":"levelo_inurba_marseille","lat":43.295748,"lon":5.37522,"is_reserved":false,"is_disabled":false,"rental_uris":{"android":"levelo://app?vid=aeabe074-028f-4678-9067-3bc4cfad8f4a","ios":"levelo://app?vid=aeabe074-028f-4678-9067-3bc4cfad8f4a"},"vehicle_type_id":"4","last_reported":1700593576,"current_range_meters":2800,"station_id":"ce4bgh92rcd13ifvqb50","pricing_plan_id":"free"},{"bike_id":"23804b00-b733-49be-8067-5722c57978d6","system_id":"levelo_inurba_marseille","lat":43.324756,"lon":5.365763,"is_reserved":false,"is_disabled":false,"rental_uris":{"android":"levelo://app?vid=23804b00-b733-49be-8067-5722c57978d6","ios":"levelo://app?vid=23804b00-b733-49be-8067-5722c57978d6"},"vehicle_type_id":"4","last_reported":1700593576,"current_range_meters":30000,"station_id":"ce4bhs12rcd13ifvqhvg","pricing_plan_id":"free"},{"bike_id":"a037806c-504f-410e-8380-5102d23eea79","system_id":"levelo_inurba_marseille","lat":43.324776,"lon":5.365686,"is_reserved":false,"is_disabled":false,"rental_uris":{"android":"levelo://app?vid=a037806c-504f-410e-8380-5102d23eea79","ios":"levelo://app?vid=a037806c-504f-410e-8380-5102d23eea79"},"vehicle_type_id":"4","last_reported":1700593576,"current_range_meters":30000,"station_id":"ce4bhs12rcd13ifvqhvg","pricing_plan_id":"free"},{"bike_id":"a0c175c7-8763-48b2-96c0-ee3535174374","system_id":"levelo_inurba_marseille","lat":43.324771,"lon":5.36557,"is_reserved":false,"is_disabled":false,"rental_uris":{"android":"levelo://app?vid=a0c175c7-8763-48b2-96c0-ee3535174374","ios":"levelo://app?vid=a0c175c7-8763-48b2-96c0-ee3535174374"},"vehicle_type_id":"4","last_reported":1700593576,"current_range_meters":29200,"station_id":"ce4bhs12rcd13ifvqhvg","pricing_plan_id":"free"},{"bike_id":"6ae17ab5-e1e8-4115-a6d5-de855a8905f3","system_id":"levelo_inurba_marseille","lat":43.32486,"lon":5.36576,"is_reserved":false,"is_disabled":false,"rental_uris":{"android":"levelo://app?vid=6ae17ab5-e1e8-4115-a6d5-de855a8905f3","ios":"levelo://app?vid=6ae17ab5-e1e8-4115-a6d5-de855a8905f3"},"vehicle_type_id":"4","last_reported":1700593576,"current_range_meters":22800,"station_id":"ce4bhs12rcd13ifvqhvg","pricing_plan_id":"free"},{"bike_id":"510d0105-b866-48bb-8bdb-59b0079c0d7a","system_id":"levelo_inurba_marseille","lat":43.31997,"lon":5.38156,"is_reserved":false,"is_disabled":false,"rental_uris":{"android":"levelo://app?vid=510d0105-b866-48bb-8bdb-59b0079c0d7a","ios":"levelo://app?vid=510d0105-b866-48bb-8bdb-59b0079c0d7a"},"vehicle_type_id":"4","last_reported":1700593576,"current_range_meters":26000,"station_id":"ce4bhr12rcd13ifvqhpg","pricing_plan_id":"free"},{"bike_id":"4b4fe3d7-722a-45a1-81fc-9a019167f268","system_id":"levelo_inurba_marseille","lat":43.31998,"lon":5.38157,"is_reserved":false,"is_disabled":false,"rental_uris":{"android":"levelo://app?vid=4b4fe3d7-722a-45a1-81fc-9a019167f268","ios":"levelo://app?vid=4b4fe3d7-722a-45a1-81fc-9a019167f268"},"vehicle_type_id":"4","last_reported":1700593576,"current_range_meters":25200,"station_id":"ce4bhr12rcd13ifvqhpg","pricing_plan_id":"free"},{"bike_id":"b6bef19b-9ba8-4d51-8b70-c38bf53a3315","system_id":"levelo_inurba_marseille","lat":43.31999,"lon":5.38157,"is_reserved":false,"is_disabled":false,"rental_uris":{"android":"levelo://app?vid=b6bef19b-9ba8-4d51-8b70-c38bf53a3315","ios":"levelo://app?vid=b6bef19b-9ba8-4d51-8b70-c38bf53a3315"},"vehicle_type_id":"4","last_reported":1700593576,"current_range_meters":11600,"station_id":"ce4bhr12rcd13ifvqhpg","pricing_plan_id":"free"},{"bike_id":"56d030c5-d85e-48a6-b3a0-aad31267b0ab","system_id":"levelo_inurba_marseille","lat":43.313571,"lon":5.384829,"is_reserved":false,"is_disabled":false,"rental_uris":{"android":"levelo://app?vid=56d030c5-d85e-48a6-b3a0-aad31267b0ab","ios":"levelo://app?vid=56d030c5-d85e-48a6-b3a0-aad31267b0ab"},"vehicle_type_id":"4","last_reported":1700593576,"current_range_meters":1600,"station_id":"ce4bgt92rcd13ifvqcf0","pricing_plan_id":"free"},{"bike_id":"b4e7e8a5-429b-4fa9-b969-621639380068","system_id":"levelo_inurba_marseille","lat":43.31369,"lon":5.3849,"is_reserved":false,"is_disabled":false,"rental_uris":{"android":"levelo://app?vid=b4e7e8a5-429b-4fa9-b969-621639380068","ios":"levelo://app?vid=b4e7e8a5-429b-4fa9-b969-621639380068"},"vehicle_type_id":"4","last_reported":1700593576,"current_range_meters":0,"station_id":"ce4bgt92rcd13ifvqcf0","pricing_plan_id":"free"},{"bike_id":"d44db64d-89f3-4e22-bc23-cdbd9c34a2b1","system_id":"levelo_inurba_marseille","lat":43.313571,"lon":5.384829,"is_reserved":false,"is_disabled":false,"rental_uris":{"android":"levelo://app?vid=d44db64d-89f3-4e22-bc23-cdbd9c34a2b1","ios":"levelo://app?vid=d44db64d-89f3-4e22-bc23-cdbd9c34a2b1"},"vehicle_type_id":"4","last_reported":1700593576,"current_range_meters":0,"station_id":"ce4bgt92rcd13ifvqcf0","pricing_plan_id":"free"},{"bike_id":"0045b0ce-7b0e-41b0-bbaf-443572242097","system_id":"levelo_inurba_marseille","lat":43.311722,"lon":5.387247,"is_reserved":false,"is_disabled":false,"rental_uris":{"android":"levelo://app?vid=0045b0ce-7b0e-41b0-bbaf-443572242097","ios":"levelo://app?vid=0045b0ce-7b0e-41b0-bbaf-443572242097"},"vehicle_type_id":"4","last_reported":1700593576,"current_range_meters":30400,"station_id":"ce4bgv12rcd13ifvqcp0","pricing_plan_id":"free"},{"bike_id":"973a4e6e-a552-40bc-ac57-6639662419e5","system_id":"levelo_inurba_marseille","lat":43.31169,"lon":5.387145,"is_reserved":false,"is_disabled":false,"rental_uris":{"android":"levelo://app?vid=973a4e6e-a552-40bc-ac57-6639662419e5","ios":"levelo://app?vid=973a4e6e-a552-40bc-ac57-6639662419e5"},"vehicle_type_id":"4","last_reported":1700593576,"current_range_meters":2800,"station_id":"ce4bgv12rcd13ifvqcp0","pricing_plan_id":"free"},{"bike_id":"e6e6d7d8-d37a-4d0f-afb1-d9b7d0e04609","system_id":"levelo_inurba_marseille","lat":43.31161,"lon":5.38732,"is_reserved":false,"is_disabled":false,"rental_uris":{"android":"levelo://app?vid=e6e6d7d8-d37a-4d0f-afb1-d9b7d0e04609","ios":"levelo://app?vid=e6e6d7d8-d37a-4d0f-afb1-d9b7d0e04609"},"vehicle_type_id":"4","last_reported":1700593576,"current_range_meters":11200,"station_id":"ce4bgv12rcd13ifvqcp0","pricing_plan_id":"free"},{"bike_id":"d9a95eb2-3ca7-4d5c-ae71-fae5be7a5a02","system_id":"levelo_inurba_marseille","lat":43.29811,"lon":5.37099,"is_reserved":false,"is_disabled":false,"rental_uris":{"android":"levelo://app?vid=d9a95eb2-3ca7-4d5c-ae71-fae5be7a5a02","ios":"levelo://app?vid=d9a95eb2-3ca7-4d5c-ae71-fae5be7a5a02"},"vehicle_type_id":"4","last_reported":1700593576,"current_range_meters":15200,"station_id":"ce4bgop2rcd13ifvqc1g","pricing_plan_id":"free"},{"bike_id":"24256210-dd9b-4e06-8284-ac9b4520be6f","system_id":"levelo_inurba_marseille","lat":43.32826,"lon":5.36685,"is_reserved":false,"is_disabled":false,"rental_uris":{"android":"levelo://app?vid=24256210-dd9b-4e06-8284-ac9b4520be6f","ios":"levelo://app?vid=24256210-dd9b-4e06-8284-ac9b4520be6f"},"vehicle_type_id":"4","last_reported":1700593576,"current_range_meters":0,"station_id":"ce4bhs92rcd13ifvqi0g","pricing_plan_id":"free"},{"bike_id":"e59fc54f-a92f-4227-8cff-78ea995ebde0","system_id":"levelo_inurba_marseille","lat":43.297163,"lon":5.365866,"is_reserved":false,"is_disabled":false,"rental_uris":{"android":"levelo://app?vid=e59fc54f-a92f-4227-8cff-78ea995ebde0","ios":"levelo://app?vid=e59fc54f-a92f-4227-8cff-78ea995ebde0"},"vehicle_type_id":"4","last_reported":1700593576,"current_range_meters":16400,"station_id":"ce4bgn12rcd13ifvqbt0","pricing_plan_id":"free"},{"bike_id":"655a0e64-0f94-4c1a-b63e-7534bd0b4fbc","system_id":"levelo_inurba_marseille","lat":43.2968,"lon":5.37291,"is_reserved":false,"is_disabled":false,"rental_uris":{"android":"levelo://app?vid=655a0e64-0f94-4c1a-b63e-7534bd0b4fbc","ios":"levelo://app?vid=655a0e64-0f94-4c1a-b63e-7534bd0b4fbc"},"vehicle_type_id":"4","last_reported":1700593576,"current_range_meters":19600,"station_id":"ce4bgk12rcd13ifvqbj0","pricing_plan_id":"free"},{"bike_id":"22b41367-a170-400d-b8b1-9ed70cd672ae","system_id":"levelo_inurba_marseille","lat":43.296131,"lon":5.370773,"is_reserved":false,"is_disabled":false,"rental_uris":{"android":"levelo://app?vid=22b41367-a170-400d-b8b1-9ed70cd672ae","ios":"levelo://app?vid=22b41367-a170-400d-b8b1-9ed70cd672ae"},"vehicle_type_id":"4","last_reported":1700593576,"current_range_meters":30000,"station_id":"ce4bgnh2rcd13ifvqc0g","pricing_plan_id":"free"},{"bike_id":"7c662b68-ab30-46a9-9eb5-16b6c91be44b","system_id":"levelo_inurba_marseille","lat":43.299028,"lon":5.381509,"is_reserved":false,"is_disabled":false,"rental_uris":{"android":"levelo://app?vid=7c662b68-ab30-46a9-9eb5-16b6c91be44b","ios":"levelo://app?vid=7c662b68-ab30-46a9-9eb5-16b6c91be44b"},"vehicle_type_id":"4","last_reported":1700593576,"current_range_meters":0,"station_id":"ce4bgj12rcd13ifvqbc0","pricing_plan_id":"free"},{"bike_id":"2c8a55dc-ce35-431b-9533-fc4315b5693c","system_id":"levelo_inurba_marseille","lat":43.29696,"lon":5.37695,"is_reserved":false,"is_disabled":false,"rental_uris":{"android":"levelo://app?vid=2c8a55dc-ce35-431b-9533-fc4315b5693c","ios":"levelo://app?vid=2c8a55dc-ce35-431b-9533-fc4315b5693c"},"vehicle_type_id":"4","last_reported":1700593576,"current_range_meters":0,"station_id":"ce4bgkh2rcd13ifvqbl0","pricing_plan_id":"free"},{"bike_id":"9fb402a7-7a41-4473-81d2-1fec663a6035","system_id":"levelo_inurba_marseille","lat":43.305577,"lon":5.38872,"is_reserved":false,"is_disabled":false,"rental_uris":{"android":"levelo://app?vid=9fb402a7-7a41-4473-81d2-1fec663a6035","ios":"levelo://app?vid=9fb402a7-7a41-4473-81d2-1fec663a6035"},"vehicle_type_id":"4","last_reported":1700593576,"current_range_meters":28000,"station_id":"","pricing_plan_id":"free"},{"bike_id":"79dacdf6-a1f2-4eb4-8209-f5e43bda8af7","system_id":"levelo_inurba_marseille","lat":43.317557,"lon":5.390173,"is_reserved":false,"is_disabled":false,"rental_uris":{"android":"levelo://app?vid=79dacdf6-a1f2-4eb4-8209-f5e43bda8af7","ios":"levelo://app?vid=79dacdf6-a1f2-4eb4-8209-f5e43bda8af7"},"vehicle_type_id":"4","last_reported":1700593576,"current_range_meters":7200,"station_id":"ce4bhqp2rcd13ifvqhng","pricing_plan_id":"free"},{"bike_id":"3059d4c1-3d42-4321-a339-0fea9a03ef82","system_id":"levelo_inurba_marseille","lat":43.328154,"lon":5.380034,"is_reserved":false,"is_disabled":false,"rental_uris":{"android":"levelo://app?vid=3059d4c1-3d42-4321-a339-0fea9a03ef82","ios":"levelo://app?vid=3059d4c1-3d42-4321-a339-0fea9a03ef82"},"vehicle_type_id":"4","last_reported":1700593576,"current_range_meters":0,"station_id":"","pricing_plan_id":"free"},{"bike_id":"740734f0-9713-4b8a-8810-5364172e83f2","system_id":"levelo_inurba_marseille","lat":43.29763,"lon":5.38102,"is_reserved":false,"is_disabled":false,"rental_uris":{"android":"levelo://app?vid=740734f0-9713-4b8a-8810-5364172e83f2","ios":"levelo://app?vid=740734f0-9713-4b8a-8810-5364172e83f2"},"vehicle_type_id":"4","last_reported":1700593576,"current_range_meters":0,"station_id":"","pricing_plan_id":"free"},{"bike_id":"b9692723-b6d5-4ce7-a0b8-8983b7ee10a8","system_id":"levelo_inurba_marseille","lat":43.29534,"lon":5.37493,"is_reserved":false,"is_disabled":false,"rental_uris":{"android":"levelo://app?vid=b9692723-b6d5-4ce7-a0b8-8983b7ee10a8","ios":"levelo://app?vid=b9692723-b6d5-4ce7-a0b8-8983b7ee10a8"},"vehicle_type_id":"4","last_reported":1700593576,"current_range_meters":29600,"station_id":"","pricing_plan_id":"free"},{"bike_id":"6b621983-5e9e-42f7-990d-ad5a093820d2","system_id":"levelo_inurba_marseille","lat":43.293801,"lon":5.363066,"is_reserved":false,"is_disabled":false,"rental_uris":{"android":"levelo://app?vid=6b621983-5e9e-42f7-990d-ad5a093820d2","ios":"levelo://app?vid=6b621983-5e9e-42f7-990d-ad5a093820d2"},"vehicle_type_id":"4","last_reported":1700593576,"current_range_meters":15200,"station_id":"","pricing_plan_id":"free"},{"bike_id":"4e4fe3b3-1944-48b4-b9da-2069b851783e","system_id":"levelo_inurba_marseille","lat":43.32367,"lon":5.38881,"is_reserved":false,"is_disabled":false,"rental_uris":{"android":"levelo://app?vid=4e4fe3b3-1944-48b4-b9da-2069b851783e","ios":"levelo://app?vid=4e4fe3b3-1944-48b4-b9da-2069b851783e"},"vehicle_type_id":"4","last_reported":1700593576,"current_range_meters":15200,"station_id":"ce4bhqp2rcd13ifvqhog","pricing_plan_id":"free"},{"bike_id":"9848a84a-e002-4f14-90ee-18e4e6536af8","system_id":"levelo_inurba_marseille","lat":43.32367,"lon":5.388836,"is_reserved":false,"is_disabled":false,"rental_uris":{"android":"levelo://app?vid=9848a84a-e002-4f14-90ee-18e4e6536af8","ios":"levelo://app?vid=9848a84a-e002-4f14-90ee-18e4e6536af8"},"vehicle_type_id":"4","last_reported":1700593576,"current_range_meters":0,"station_id":"ce4bhqp2rcd13ifvqhog","pricing_plan_id":"free"},{"bike_id":"18d12119-6832-40e8-a839-85af965c5a22","system_id":"levelo_inurba_marseille","lat":43.32369,"lon":5.38885,"is_reserved":false,"is_disabled":false,"rental_uris":{"android":"levelo://app?vid=18d12119-6832-40e8-a839-85af965c5a22","ios":"levelo://app?vid=18d12119-6832-40e8-a839-85af965c5a22"},"vehicle_type_id":"4","last_reported":1700593576,"current_range_meters":0,"station_id":"ce4bhqp2rcd13ifvqhog","pricing_plan_id":"free"},{"bike_id":"d08f04bf-d1cb-49fb-9aa7-04e7f7676b3c","system_id":"levelo_inurba_marseille","lat":43.32337,"lon":5.38974,"is_reserved":false,"is_disabled":false,"rental_uris":{"android":"levelo://app?vid=d08f04bf-d1cb-49fb-9aa7-04e7f7676b3c","ios":"levelo://app?vid=d08f04bf-d1cb-49fb-9aa7-04e7f7676b3c"},"vehicle_type_id":"4","last_reported":1700593576,"current_range_meters":0,"station_id":"","pricing_plan_id":"free"},{"bike_id":"56976b36-0d06-4b7b-9507-582ab8ce8f96","system_id":"levelo_inurba_marseille","lat":43.29299,"lon":5.37458,"is_reserved":false,"is_disabled":false,"rental_uris":{"android":"levelo://app?vid=56976b36-0d06-4b7b-9507-582ab8ce8f96","ios":"levelo://app?vid=56976b36-0d06-4b7b-9507-582ab8ce8f96"},"vehicle_type_id":"4","last_reported":1700593576,"current_range_meters":13200,"station_id":"ce4bgi12rcd13ifvqb70","pricing_plan_id":"free"},{"bike_id":"c18f0680-8d1a-4a3c-9590-087344973afc","system_id":"levelo_inurba_marseille","lat":43.292311,"lon":5.360731,"is_reserved":false,"is_disabled":false,"rental_uris":{"android":"levelo://app?vid=c18f0680-8d1a-4a3c-9590-087344973afc","ios":"levelo://app?vid=c18f0680-8d1a-4a3c-9590-087344973afc"},"vehicle_type_id":"4","last_reported":1700593576,"current_range_meters":7200,"station_id":"ce4bhbh2rcd13ifvqeqg","pricing_plan_id":"free"},{"bike_id":"bb2fe627-c71b-4e6e-9916-63b96047c8a4","system_id":"levelo_inurba_marseille","lat":43.292663,"lon":5.376389,"is_reserved":false,"is_disabled":false,"rental_uris":{"android":"levelo://app?vid=bb2fe627-c71b-4e6e-9916-63b96047c8a4","ios":"levelo://app?vid=bb2fe627-c71b-4e6e-9916-63b96047c8a4"},"vehicle_type_id":"4","last_reported":1700593576,"current_range_meters":6000,"station_id":"ce4bgi12rcd13ifvqb80","pricing_plan_id":"free"},{"bike_id":"ec61b3f8-c3d5-491b-b67c-5e25baf1f569","system_id":"levelo_inurba_marseille","lat":43.291675,"lon":5.371583,"is_reserved":false,"is_disabled":false,"rental_uris":{"android":"levelo://app?vid=ec61b3f8-c3d5-491b-b67c-5e25baf1f569","ios":"levelo://app?vid=ec61b3f8-c3d5-491b-b67c-5e25baf1f569"},"vehicle_type_id":"4","last_reported":1700593576,"current_range_meters":0,"station_id":"ce4bha92rcd13ifvqeh0","pricing_plan_id":"free"},{"bike_id":"37ab55f5-51ad-45ed-9208-5cb865bbdb27","system_id":"levelo_inurba_marseille","lat":43.29195,"lon":5.35807,"is_reserved":false,"is_disabled":false,"rental_uris":{"android":"levelo://app?vid=37ab55f5-51ad-45ed-9208-5cb865bbdb27","ios":"levelo://app?vid=37ab55f5-51ad-45ed-9208-5cb865bbdb27"},"vehicle_type_id":"4","last_reported":1700593576,"current_range_meters":14800,"station_id":"ce4bhb12rcd13ifvqel0","pricing_plan_id":"free"},{"bike_id":"764af471-e076-4c7b-836c-ec0f1a6cc104","system_id":"levelo_inurba_marseille","lat":43.31331,"lon":5.39688,"is_reserved":false,"is_disabled":false,"rental_uris":{"android":"levelo://app?vid=764af471-e076-4c7b-836c-ec0f1a6cc104","ios":"levelo://app?vid=764af471-e076-4c7b-836c-ec0f1a6cc104"},"vehicle_type_id":"4","last_reported":1700593576,"current_range_meters":18000,"station_id":"ce4bgvp2rcd13ifvqcu0","pricing_plan_id":"free"},{"bike_id":"2b48f807-3d81-4e4c-aba9-11fff2258b5c","system_id":"levelo_inurba_marseille","lat":43.313291,"lon":5.396838,"is_reserved":false,"is_disabled":false,"rental_uris":{"android":"levelo://app?vid=2b48f807-3d81-4e4c-aba9-11fff2258b5c","ios":"levelo://app?vid=2b48f807-3d81-4e4c-aba9-11fff2258b5c"},"vehicle_type_id":"4","last_reported":1700593576,"current_range_meters":0,"station_id":"ce4bgvp2rcd13ifvqcu0","pricing_plan_id":"free"},{"bike_id":"1592a241-f8f0-4177-8ed8-3bddd43c6599","system_id":"levelo_inurba_marseille","lat":43.291994,"lon":5.357886,"is_reserved":false,"is_disabled":false,"rental_uris":{"android":"levelo://app?vid=1592a241-f8f0-4177-8ed8-3bddd43c6599","ios":"levelo://app?vid=1592a241-f8f0-4177-8ed8-3bddd43c6599"},"vehicle_type_id":"4","last_reported":1700593576,"current_range_meters":0,"station_id":"ce4bhb12rcd13ifvqel0","pricing_plan_id":"free"},{"bike_id":"b21c3816-4a43-436c-96e5-ea2e98c071d4","system_id":"levelo_inurba_marseille","lat":43.313291,"lon":5.396838,"is_reserved":false,"is_disabled":false,"rental_uris":{"android":"levelo://app?vid=b21c3816-4a43-436c-96e5-ea2e98c071d4","ios":"levelo://app?vid=b21c3816-4a43-436c-96e5-ea2e98c071d4"},"vehicle_type_id":"4","last_reported":1700593576,"current_range_meters":18000,"station_id":"ce4bgvp2rcd13ifvqcu0","pricing_plan_id":"free"},{"bike_id":"adb8bb2c-89c8-487e-a5a9-6bfcb53c6edd","system_id":"levelo_inurba_marseille","lat":43.291994,"lon":5.357886,"is_reserved":false,"is_disabled":false,"rental_uris":{"android":"levelo://app?vid=adb8bb2c-89c8-487e-a5a9-6bfcb53c6edd","ios":"levelo://app?vid=adb8bb2c-89c8-487e-a5a9-6bfcb53c6edd"},"vehicle_type_id":"4","last_reported":1700593576,"current_range_meters":6000,"station_id":"ce4bhb12rcd13ifvqel0","pricing_plan_id":"free"},{"bike_id":"c6591405-597b-4a84-9753-4d8dabd9b307","system_id":"levelo_inurba_marseille","lat":43.29188,"lon":5.35795,"is_reserved":false,"is_disabled":false,"rental_uris":{"android":"levelo://app?vid=c6591405-597b-4a84-9753-4d8dabd9b307","ios":"levelo://app?vid=c6591405-597b-4a84-9753-4d8dabd9b307"},"vehicle_type_id":"4","last_reported":1700593576,"current_range_meters":0,"station_id":"ce4bhb12rcd13ifvqel0","pricing_plan_id":"free"},{"bike_id":"c97c518b-be57-4af7-849e-2bbc2e971522","system_id":"levelo_inurba_marseille","lat":43.31332,"lon":5.39699,"is_reserved":false,"is_disabled":false,"rental_uris":{"android":"levelo://app?vid=c97c518b-be57-4af7-849e-2bbc2e971522","ios":"levelo://app?vid=c97c518b-be57-4af7-849e-2bbc2e971522"},"vehicle_type_id":"4","last_reported":1700593576,"current_range_meters":0,"station_id":"ce4bgvp2rcd13ifvqcu0","pricing_plan_id":"free"},{"bike_id":"1d10a1b1-d55f-4279-928a-9c6858f32ca9","system_id":"levelo_inurba_marseille","lat":43.33231,"lon":5.380687,"is_reserved":false,"is_disabled":false,"rental_uris":{"android":"levelo://app?vid=1d10a1b1-d55f-4279-928a-9c6858f32ca9","ios":"levelo://app?vid=1d10a1b1-d55f-4279-928a-9c6858f32ca9"},"vehicle_type_id":"4","last_reported":1700593576,"current_range_meters":2800,"station_id":"","pricing_plan_id":"free"},{"bike_id":"cc92e53c-d11a-437c-9bae-329d0212d740","system_id":"levelo_inurba_marseille","lat":43.29529,"lon":5.385581,"is_reserved":false,"is_disabled":false,"rental_uris":{"android":"levelo://app?vid=cc92e53c-d11a-437c-9bae-329d0212d740","ios":"levelo://app?vid=cc92e53c-d11a-437c-9bae-329d0212d740"},"vehicle_type_id":"4","last_reported":1700593576,"current_range_meters":5600,"station_id":"ce4bgih2rcd13ifvqba0","pricing_plan_id":"free"},{"bike_id":"cd63bd97-25cb-476d-8a38-bb0762ed3229","system_id":"levelo_inurba_marseille","lat":43.29529,"lon":5.385581,"is_reserved":false,"is_disabled":false,"rental_uris":{"android":"levelo://app?vid=cd63bd97-25cb-476d-8a38-bb0762ed3229","ios":"levelo://app?vid=cd63bd97-25cb-476d-8a38-bb0762ed3229"},"vehicle_type_id":"4","last_reported":1700593576,"current_range_meters":0,"station_id":"ce4bgih2rcd13ifvqba0","pricing_plan_id":"free"},{"bike_id":"e8ae8422-2a6c-46f9-b171-6b47ab517277","system_id":"levelo_inurba_marseille","lat":43.293432,"lon":5.38246,"is_reserved":false,"is_disabled":false,"rental_uris":{"android":"levelo://app?vid=e8ae8422-2a6c-46f9-b171-6b47ab517277","ios":"levelo://app?vid=e8ae8422-2a6c-46f9-b171-6b47ab517277"},"vehicle_type_id":"4","last_reported":1700593576,"current_range_meters":0,"station_id":"","pricing_plan_id":"free"},{"bike_id":"c39f390f-7c37-47fd-8ebb-9052c6a523a8","system_id":"levelo_inurba_marseille","lat":43.302008,"lon":5.394694,"is_reserved":false,"is_disabled":false,"rental_uris":{"android":"levelo://app?vid=c39f390f-7c37-47fd-8ebb-9052c6a523a8","ios":"levelo://app?vid=c39f390f-7c37-47fd-8ebb-9052c6a523a8"},"vehicle_type_id":"4","last_reported":1700593576,"current_range_meters":2000,"station_id":"ce4bh0p2rcd13ifvqd70","pricing_plan_id":"free"},{"bike_id":"77ba2dc2-b91c-46df-a023-0c99da0aa18e","system_id":"levelo_inurba_marseille","lat":43.294153,"lon":5.386305,"is_reserved":false,"is_disabled":false,"rental_uris":{"android":"levelo://app?vid=77ba2dc2-b91c-46df-a023-0c99da0aa18e","ios":"levelo://app?vid=77ba2dc2-b91c-46df-a023-0c99da0aa18e"},"vehicle_type_id":"4","last_reported":1700593576,"current_range_meters":3600,"station_id":"ce4bh2h2rcd13ifvqdh0","pricing_plan_id":"free"},{"bike_id":"e6d73ad7-955b-4d54-8d38-f115ee2a811f","system_id":"levelo_inurba_marseille","lat":43.29414,"lon":5.38626,"is_reserved":false,"is_disabled":false,"rental_uris":{"android":"levelo://app?vid=e6d73ad7-955b-4d54-8d38-f115ee2a811f","ios":"levelo://app?vid=e6d73ad7-955b-4d54-8d38-f115ee2a811f"},"vehicle_type_id":"4","last_reported":1700593576,"current_range_meters":0,"station_id":"ce4bh2h2rcd13ifvqdh0","pricing_plan_id":"free"},{"bike_id":"72bf5588-cc89-413e-b76f-d3a3b2a6f58b","system_id":"levelo_inurba_marseille","lat":43.289184,"lon":5.366408,"is_reserved":false,"is_disabled":false,"rental_uris":{"android":"levelo://app?vid=72bf5588-cc89-413e-b76f-d3a3b2a6f58b","ios":"levelo://app?vid=72bf5588-cc89-413e-b76f-d3a3b2a6f58b"},"vehicle_type_id":"4","last_reported":1700593576,"current_range_meters":27600,"station_id":"ce4bhap2rcd13ifvqek0","pricing_plan_id":"free"},{"bike_id":"7ef5133c-a510-442b-b4e0-362388e7dc22","system_id":"levelo_inurba_marseille","lat":43.28931,"lon":5.36635,"is_reserved":false,"is_disabled":false,"rental_uris":{"android":"levelo://app?vid=7ef5133c-a510-442b-b4e0-362388e7dc22","ios":"levelo://app?vid=7ef5133c-a510-442b-b4e0-362388e7dc22"},"vehicle_type_id":"4","last_reported":1700593576,"current_range_meters":0,"station_id":"ce4bhap2rcd13ifvqek0","pricing_plan_id":"free"},{"bike_id":"4f39850b-636c-4dc6-916f-96f08be9cf93","system_id":"levelo_inurba_marseille","lat":43.289468,"lon":5.363719,"is_reserved":false,"is_disabled":false,"rental_uris":{"android":"levelo://app?vid=4f39850b-636c-4dc6-916f-96f08be9cf93","ios":"levelo://app?vid=4f39850b-636c-4dc6-916f-96f08be9cf93"},"vehicle_type_id":"4","last_reported":1700593576,"current_range_meters":0,"station_id":"ce4bhc92rcd13ifvqetg","pricing_plan_id":"free"},{"bike_id":"09bb978b-5eef-4c6b-b35c-3a905a9e7abb","system_id":"levelo_inurba_marseille","lat":43.290103,"lon":5.356114,"is_reserved":false,"is_disabled":false,"rental_uris":{"android":"levelo://app?vid=09bb978b-5eef-4c6b-b35c-3a905a9e7abb","ios":"levelo://app?vid=09bb978b-5eef-4c6b-b35c-3a905a9e7abb"},"vehicle_type_id":"4","last_reported":1700593576,"current_range_meters":6800,"station_id":"ce4bhb92rcd13ifvqen0","pricing_plan_id":"free"},{"bike_id":"5ac25269-9ac5-4807-98bb-ce8dbcb4652b","system_id":"levelo_inurba_marseille","lat":43.290104,"lon":5.356111,"is_reserved":false,"is_disabled":false,"rental_uris":{"android":"levelo://app?vid=5ac25269-9ac5-4807-98bb-ce8dbcb4652b","ios":"levelo://app?vid=5ac25269-9ac5-4807-98bb-ce8dbcb4652b"},"vehicle_type_id":"4","last_reported":1700593576,"current_range_meters":10000,"station_id":"ce4bhb92rcd13ifvqen0","pricing_plan_id":"free"},{"bike_id":"c7882023-4d8b-4bbb-adc6-515c2e2b08dc","system_id":"levelo_inurba_marseille","lat":43.33043,"lon":5.38922,"is_reserved":false,"is_disabled":false,"rental_uris":{"android":"levelo://app?vid=c7882023-4d8b-4bbb-adc6-515c2e2b08dc","ios":"levelo://app?vid=c7882023-4d8b-4bbb-adc6-515c2e2b08dc"},"vehicle_type_id":"4","last_reported":1700593576,"current_range_meters":0,"station_id":"ce4bhr92rcd13ifvqhrg","pricing_plan_id":"free"},{"bike_id":"87cfa309-842e-40a2-a7f1-a21f6dc94823","system_id":"levelo_inurba_marseille","lat":43.289743,"lon":5.378304,"is_reserved":false,"is_disabled":false,"rental_uris":{"android":"levelo://app?vid=87cfa309-842e-40a2-a7f1-a21f6dc94823","ios":"levelo://app?vid=87cfa309-842e-40a2-a7f1-a21f6dc94823"},"vehicle_type_id":"4","last_reported":1700593576,"current_range_meters":2800,"station_id":"ce4bh9p2rcd13ifvqed0","pricing_plan_id":"free"},{"bike_id":"c0691913-4d43-42af-9fa5-975aa1a8621b","system_id":"levelo_inurba_marseille","lat":43.290927,"lon":5.38155,"is_reserved":false,"is_disabled":false,"rental_uris":{"android":"levelo://app?vid=c0691913-4d43-42af-9fa5-975aa1a8621b","ios":"levelo://app?vid=c0691913-4d43-42af-9fa5-975aa1a8621b"},"vehicle_type_id":"4","last_reported":1700593576,"current_range_meters":0,"station_id":"ce4bh512rcd13ifvqe2g","pricing_plan_id":"free"},{"bike_id":"6ffcc270-b8c3-448c-b29a-c483a3e1e879","system_id":"levelo_inurba_marseille","lat":43.29787,"lon":5.39341,"is_reserved":false,"is_disabled":false,"rental_uris":{"android":"levelo://app?vid=6ffcc270-b8c3-448c-b29a-c483a3e1e879","ios":"levelo://app?vid=6ffcc270-b8c3-448c-b29a-c483a3e1e879"},"vehicle_type_id":"4","last_reported":1700593576,"current_range_meters":800,"station_id":"chh1huq6cuj3fo74tm60","pricing_plan_id":"free"},{"bike_id":"ae3c2954-9e98-4e4d-90d9-02b823d33852","system_id":"levelo_inurba_marseille","lat":43.29522,"lon":5.39036,"is_reserved":false,"is_disabled":false,"rental_uris":{"android":"levelo://app?vid=ae3c2954-9e98-4e4d-90d9-02b823d33852","ios":"levelo://app?vid=ae3c2954-9e98-4e4d-90d9-02b823d33852"},"vehicle_type_id":"4","last_reported":1700593576,"current_range_meters":15600,"station_id":"ce4bh3p2rcd13ifvqdp0","pricing_plan_id":"free"},{"bike_id":"c6aebcf1-9924-4688-8956-4725818c5258","system_id":"levelo_inurba_marseille","lat":43.29521,"lon":5.39036,"is_reserved":false,"is_disabled":false,"rental_uris":{"android":"levelo://app?vid=c6aebcf1-9924-4688-8956-4725818c5258","ios":"levelo://app?vid=c6aebcf1-9924-4688-8956-4725818c5258"},"vehicle_type_id":"4","last_reported":1700593576,"current_range_meters":0,"station_id":"ce4bh3p2rcd13ifvqdp0","pricing_plan_id":"free"},{"bike_id":"886df1cf-655b-4ec0-947f-4495a97391fd","system_id":"levelo_inurba_marseille","lat":43.28856,"lon":5.358371,"is_reserved":false,"is_disabled":false,"rental_uris":{"android":"levelo://app?vid=886df1cf-655b-4ec0-947f-4495a97391fd","ios":"levelo://app?vid=886df1cf-655b-4ec0-947f-4495a97391fd"},"vehicle_type_id":"4","last_reported":1700593576,"current_range_meters":8800,"station_id":"ce4bhb12rcd13ifvqem0","pricing_plan_id":"free"},{"bike_id":"56ae1ae3-2366-4a70-8b2d-f5360d93553f","system_id":"levelo_inurba_marseille","lat":43.28856,"lon":5.358371,"is_reserved":false,"is_disabled":false,"rental_uris":{"android":"levelo://app?vid=56ae1ae3-2366-4a70-8b2d-f5360d93553f","ios":"levelo://app?vid=56ae1ae3-2366-4a70-8b2d-f5360d93553f"},"vehicle_type_id":"4","last_reported":1700593576,"current_range_meters":4800,"station_id":"ce4bhb12rcd13ifvqem0","pricing_plan_id":"free"},{"bike_id":"aad9a792-6976-4183-919a-aef819ff2e25","system_id":"levelo_inurba_marseille","lat":43.31251,"lon":5.40162,"is_reserved":false,"is_disabled":false,"rental_uris":{"android":"levelo://app?vid=aad9a792-6976-4183-919a-aef819ff2e25","ios":"levelo://app?vid=aad9a792-6976-4183-919a-aef819ff2e25"},"vehicle_type_id":"4","last_reported":1700593576,"current_range_meters":2400,"station_id":"","pricing_plan_id":"free"},{"bike_id":"8251cbdf-6fc9-4ed4-bf87-0d2448849ada","system_id":"levelo_inurba_marseille","lat":43.33749,"lon":5.37443,"is_reserved":false,"is_disabled":false,"rental_uris":{"android":"levelo://app?vid=8251cbdf-6fc9-4ed4-bf87-0d2448849ada","ios":"levelo://app?vid=8251cbdf-6fc9-4ed4-bf87-0d2448849ada"},"vehicle_type_id":"4","last_reported":1700593576,"current_range_meters":30400,"station_id":"","pricing_plan_id":"free"},{"bike_id":"dd4a5c04-d4fe-4299-8ed6-d16e50ecee2c","system_id":"levelo_inurba_marseille","lat":43.33754,"lon":5.37453,"is_reserved":false,"is_disabled":false,"rental_uris":{"android":"levelo://app?vid=dd4a5c04-d4fe-4299-8ed6-d16e50ecee2c","ios":"levelo://app?vid=dd4a5c04-d4fe-4299-8ed6-d16e50ecee2c"},"vehicle_type_id":"4","last_reported":1700593576,"current_range_meters":30400,"station_id":"","pricing_plan_id":"free"},{"bike_id":"906843f4-dafc-4a00-8562-af0cc52b2c6b","system_id":"levelo_inurba_marseille","lat":43.30652,"lon":5.40105,"is_reserved":false,"is_disabled":false,"rental_uris":{"android":"levelo://app?vid=906843f4-dafc-4a00-8562-af0cc52b2c6b","ios":"levelo://app?vid=906843f4-dafc-4a00-8562-af0cc52b2c6b"},"vehicle_type_id":"4","last_reported":1700593576,"current_range_meters":0,"station_id":"ce4bh112rcd13ifvqda0","pricing_plan_id":"free"},{"bike_id":"2b3f4cef-d88a-414c-b2cc-9d2a98e793f1","system_id":"levelo_inurba_marseille","lat":43.3377,"lon":5.3749,"is_reserved":false,"is_disabled":false,"rental_uris":{"android":"levelo://app?vid=2b3f4cef-d88a-414c-b2cc-9d2a98e793f1","ios":"levelo://app?vid=2b3f4cef-d88a-414c-b2cc-9d2a98e793f1"},"vehicle_type_id":"4","last_reported":1700593576,"current_range_meters":10000,"station_id":"","pricing_plan_id":"free"},{"bike_id":"c23a038d-8fe5-437f-bbe5-513359d786e1","system_id":"levelo_inurba_marseille","lat":43.33771,"lon":5.37487,"is_reserved":false,"is_disabled":false,"rental_uris":{"android":"levelo://app?vid=c23a038d-8fe5-437f-bbe5-513359d786e1","ios":"levelo://app?vid=c23a038d-8fe5-437f-bbe5-513359d786e1"},"vehicle_type_id":"4","last_reported":1700593576,"current_range_meters":29200,"station_id":"","pricing_plan_id":"free"},{"bike_id":"dedd3e4f-e4e1-4fe0-afd5-fc320bdd5588","system_id":"levelo_inurba_marseille","lat":43.33772,"lon":5.37486,"is_reserved":false,"is_disabled":false,"rental_uris":{"android":"levelo://app?vid=dedd3e4f-e4e1-4fe0-afd5-fc320bdd5588","ios":"levelo://app?vid=dedd3e4f-e4e1-4fe0-afd5-fc320bdd5588"},"vehicle_type_id":"4","last_reported":1700593576,"current_range_meters":27200,"station_id":"","pricing_plan_id":"free"},{"bike_id":"1e5f9b7c-ce69-4d52-80d0-edbd66d45f4f","system_id":"levelo_inurba_marseille","lat":43.28727,"lon":5.36078,"is_reserved":false,"is_disabled":false,"rental_uris":{"android":"levelo://app?vid=1e5f9b7c-ce69-4d52-80d0-edbd66d45f4f","ios":"levelo://app?vid=1e5f9b7c-ce69-4d52-80d0-edbd66d45f4f"},"vehicle_type_id":"4","last_reported":1700593576,"current_range_meters":26000,"station_id":"cki0cbj6b192h4jlfktg","pricing_plan_id":"free"},{"bike_id":"70bf1fd8-c051-4161-a10e-c760b71856cd","system_id":"levelo_inurba_marseille","lat":43.28727,"lon":5.36078,"is_reserved":false,"is_disabled":false,"rental_uris":{"android":"levelo://app?vid=70bf1fd8-c051-4161-a10e-c760b71856cd","ios":"levelo://app?vid=70bf1fd8-c051-4161-a10e-c760b71856cd"},"vehicle_type_id":"4","last_reported":1700593576,"current_range_meters":19600,"station_id":"cki0cbj6b192h4jlfktg","pricing_plan_id":"free"},{"bike_id":"7f3c6d53-e83a-4eb5-8a75-71e541b013a2","system_id":"levelo_inurba_marseille","lat":43.28727,"lon":5.36078,"is_reserved":false,"is_disabled":false,"rental_uris":{"android":"levelo://app?vid=7f3c6d53-e83a-4eb5-8a75-71e541b013a2","ios":"levelo://app?vid=7f3c6d53-e83a-4eb5-8a75-71e541b013a2"},"vehicle_type_id":"4","last_reported":1700593576,"current_range_meters":12000,"station_id":"cki0cbj6b192h4jlfktg","pricing_plan_id":"free"},{"bike_id":"54bafbc3-ecf7-48c0-a614-f8ace818ec52","system_id":"levelo_inurba_marseille","lat":43.28727,"lon":5.36078,"is_reserved":false,"is_disabled":false,"rental_uris":{"android":"levelo://app?vid=54bafbc3-ecf7-48c0-a614-f8ace818ec52","ios":"levelo://app?vid=54bafbc3-ecf7-48c0-a614-f8ace818ec52"},"vehicle_type_id":"4","last_reported":1700593576,"current_range_meters":4000,"station_id":"cki0cbj6b192h4jlfktg","pricing_plan_id":"free"},{"bike_id":"39708262-1435-437e-ad5e-1d060b4fbaa0","system_id":"levelo_inurba_marseille","lat":43.28727,"lon":5.36078,"is_reserved":false,"is_disabled":false,"rental_uris":{"android":"levelo://app?vid=39708262-1435-437e-ad5e-1d060b4fbaa0","ios":"levelo://app?vid=39708262-1435-437e-ad5e-1d060b4fbaa0"},"vehicle_type_id":"4","last_reported":1700593576,"current_range_meters":5200,"station_id":"cki0cbj6b192h4jlfktg","pricing_plan_id":"free"},{"bike_id":"5aa8ff98-98bc-4b95-a8fc-ba24aab95f38","system_id":"levelo_inurba_marseille","lat":43.28727,"lon":5.36078,"is_reserved":false,"is_disabled":false,"rental_uris":{"android":"levelo://app?vid=5aa8ff98-98bc-4b95-a8fc-ba24aab95f38","ios":"levelo://app?vid=5aa8ff98-98bc-4b95-a8fc-ba24aab95f38"},"vehicle_type_id":"4","last_reported":1700593576,"current_range_meters":11200,"station_id":"cki0cbj6b192h4jlfktg","pricing_plan_id":"free"},{"bike_id":"b863e321-f076-4886-aef1-9d79143f63df","system_id":"levelo_inurba_marseille","lat":43.29868,"lon":5.39733,"is_reserved":false,"is_disabled":false,"rental_uris":{"android":"levelo://app?vid=b863e321-f076-4886-aef1-9d79143f63df","ios":"levelo://app?vid=b863e321-f076-4886-aef1-9d79143f63df"},"vehicle_type_id":"4","last_reported":1700593576,"current_range_meters":0,"station_id":"ce4bh0h2rcd13ifvqd50","pricing_plan_id":"free"},{"bike_id":"22ea8213-4d84-400c-aece-3f6fd6226cb1","system_id":"levelo_inurba_marseille","lat":43.286591,"lon":5.363346,"is_reserved":false,"is_disabled":false,"rental_uris":{"android":"levelo://app?vid=22ea8213-4d84-400c-aece-3f6fd6226cb1","ios":"levelo://app?vid=22ea8213-4d84-400c-aece-3f6fd6226cb1"},"vehicle_type_id":"4","last_reported":1700593576,"current_range_meters":6800,"station_id":"ce4bhah2rcd13ifvqej0","pricing_plan_id":"free"},{"bike_id":"8c6b3110-a5f5-40e3-b758-954a0637dbb6","system_id":"levelo_inurba_marseille","lat":43.295196,"lon":5.39397,"is_reserved":false,"is_disabled":false,"rental_uris":{"android":"levelo://app?vid=8c6b3110-a5f5-40e3-b758-954a0637dbb6","ios":"levelo://app?vid=8c6b3110-a5f5-40e3-b758-954a0637dbb6"},"vehicle_type_id":"4","last_reported":1700593576,"current_range_meters":800,"station_id":"ce4bh292rcd13ifvqdf0","pricing_plan_id":"free"},{"bike_id":"2a0afa31-e67a-41ce-9e11-555b618b2de2","system_id":"levelo_inurba_marseille","lat":43.289307,"lon":5.38406,"is_reserved":false,"is_disabled":false,"rental_uris":{"android":"levelo://app?vid=2a0afa31-e67a-41ce-9e11-555b618b2de2","ios":"levelo://app?vid=2a0afa31-e67a-41ce-9e11-555b618b2de2"},"vehicle_type_id":"4","last_reported":1700593576,"current_range_meters":24800,"station_id":"ce4bh612rcd13ifvqe6g","pricing_plan_id":"free"},{"bike_id":"7f747f99-2551-4a7d-91bc-bd240437708e","system_id":"levelo_inurba_marseille","lat":43.290265,"lon":5.38636,"is_reserved":false,"is_disabled":false,"rental_uris":{"android":"levelo://app?vid=7f747f99-2551-4a7d-91bc-bd240437708e","ios":"levelo://app?vid=7f747f99-2551-4a7d-91bc-bd240437708e"},"vehicle_type_id":"4","last_reported":1700593576,"current_range_meters":17600,"station_id":"","pricing_plan_id":"free"},{"bike_id":"e014dcec-1670-451f-b81d-496ef8d2b9c6","system_id":"levelo_inurba_marseille","lat":43.289307,"lon":5.38406,"is_reserved":false,"is_disabled":false,"rental_uris":{"android":"levelo://app?vid=e014dcec-1670-451f-b81d-496ef8d2b9c6","ios":"levelo://app?vid=e014dcec-1670-451f-b81d-496ef8d2b9c6"},"vehicle_type_id":"4","last_reported":1700593576,"current_range_meters":4400,"station_id":"ce4bh612rcd13ifvqe6g","pricing_plan_id":"free"},{"bike_id":"587797ad-7dfe-49a2-9404-a32255c8619a","system_id":"levelo_inurba_marseille","lat":43.286152,"lon":5.370623,"is_reserved":false,"is_disabled":false,"rental_uris":{"android":"levelo://app?vid=587797ad-7dfe-49a2-9404-a32255c8619a","ios":"levelo://app?vid=587797ad-7dfe-49a2-9404-a32255c8619a"},"vehicle_type_id":"4","last_reported":1700593576,"current_range_meters":23200,"station_id":"ce4bht12rcd13ifvqi60","pricing_plan_id":"free"},{"bike_id":"e20842cd-8eea-4741-8c73-0475dbb8d81a","system_id":"levelo_inurba_marseille","lat":43.286039,"lon":5.370681,"is_reserved":false,"is_disabled":false,"rental_uris":{"android":"levelo://app?vid=e20842cd-8eea-4741-8c73-0475dbb8d81a","ios":"levelo://app?vid=e20842cd-8eea-4741-8c73-0475dbb8d81a"},"vehicle_type_id":"4","last_reported":1700593576,"current_range_meters":31200,"station_id":"ce4bht12rcd13ifvqi60","pricing_plan_id":"free"},{"bike_id":"103037f0-b8c2-4b7e-bb4e-0c3ed55d65e6","system_id":"levelo_inurba_marseille","lat":43.28609,"lon":5.37061,"is_reserved":false,"is_disabled":false,"rental_uris":{"android":"levelo://app?vid=103037f0-b8c2-4b7e-bb4e-0c3ed55d65e6","ios":"levelo://app?vid=103037f0-b8c2-4b7e-bb4e-0c3ed55d65e6"},"vehicle_type_id":"4","last_reported":1700593576,"current_range_meters":18000,"station_id":"ce4bht12rcd13ifvqi60","pricing_plan_id":"free"},{"bike_id":"9190d375-98bf-487f-b305-f6a237d451a5","system_id":"levelo_inurba_marseille","lat":43.283998,"lon":5.375062,"is_reserved":false,"is_disabled":false,"rental_uris":{"android":"levelo://app?vid=9190d375-98bf-487f-b305-f6a237d451a5","ios":"levelo://app?vid=9190d375-98bf-487f-b305-f6a237d451a5"},"vehicle_type_id":"4","last_reported":1700593576,"current_range_meters":0,"station_id":"ce4bh412rcd13ifvqds0","pricing_plan_id":"free"},{"bike_id":"754f807e-4c2e-4619-b547-e913c1a8c1ec","system_id":"levelo_inurba_marseille","lat":43.287184,"lon":5.37937,"is_reserved":false,"is_disabled":false,"rental_uris":{"android":"levelo://app?vid=754f807e-4c2e-4619-b547-e913c1a8c1ec","ios":"levelo://app?vid=754f807e-4c2e-4619-b547-e913c1a8c1ec"},"vehicle_type_id":"4","last_reported":1700593576,"current_range_meters":7600,"station_id":"ce4bh9p2rcd13ifvqec0","pricing_plan_id":"free"},{"bike_id":"a71cff63-28b4-4b9b-8812-cc83a8c33294","system_id":"levelo_inurba_marseille","lat":43.287184,"lon":5.37937,"is_reserved":false,"is_disabled":false,"rental_uris":{"android":"levelo://app?vid=a71cff63-28b4-4b9b-8812-cc83a8c33294","ios":"levelo://app?vid=a71cff63-28b4-4b9b-8812-cc83a8c33294"},"vehicle_type_id":"4","last_reported":1700593576,"current_range_meters":28400,"station_id":"ce4bh9p2rcd13ifvqec0","pricing_plan_id":"free"},{"bike_id":"6330ae62-b664-4e6f-b2b3-0c89ac44e1b5","system_id":"levelo_inurba_marseille","lat":43.316447,"lon":5.40437,"is_reserved":false,"is_disabled":false,"rental_uris":{"android":"levelo://app?vid=6330ae62-b664-4e6f-b2b3-0c89ac44e1b5","ios":"levelo://app?vid=6330ae62-b664-4e6f-b2b3-0c89ac44e1b5"},"vehicle_type_id":"4","last_reported":1700593576,"current_range_meters":21600,"station_id":"ce4bh012rcd13ifvqd00","pricing_plan_id":"free"},{"bike_id":"eee285e4-1788-47a6-8d06-b90ba3f1eeb4","system_id":"levelo_inurba_marseille","lat":43.3165,"lon":5.40437,"is_reserved":false,"is_disabled":false,"rental_uris":{"android":"levelo://app?vid=eee285e4-1788-47a6-8d06-b90ba3f1eeb4","ios":"levelo://app?vid=eee285e4-1788-47a6-8d06-b90ba3f1eeb4"},"vehicle_type_id":"4","last_reported":1700593576,"current_range_meters":2400,"station_id":"ce4bh012rcd13ifvqd00","pricing_plan_id":"free"},{"bike_id":"a23c57ea-021f-4199-8b91-a2921f0050d0","system_id":"levelo_inurba_marseille","lat":43.316523,"lon":5.404367,"is_reserved":false,"is_disabled":false,"rental_uris":{"android":"levelo://app?vid=a23c57ea-021f-4199-8b91-a2921f0050d0","ios":"levelo://app?vid=a23c57ea-021f-4199-8b91-a2921f0050d0"},"vehicle_type_id":"4","last_reported":1700593576,"current_range_meters":15200,"station_id":"ce4bh012rcd13ifvqd00","pricing_plan_id":"free"},{"bike_id":"6e5daa10-e27e-40ce-b551-0318deaa4f63","system_id":"levelo_inurba_marseille","lat":43.29205,"lon":5.3932,"is_reserved":false,"is_disabled":false,"rental_uris":{"android":"levelo://app?vid=6e5daa10-e27e-40ce-b551-0318deaa4f63","ios":"levelo://app?vid=6e5daa10-e27e-40ce-b551-0318deaa4f63"},"vehicle_type_id":"4","last_reported":1700593576,"current_range_meters":0,"station_id":"ce4bh192rcd13ifvqdd0","pricing_plan_id":"free"},{"bike_id":"abad332f-ebca-438b-8361-9a38f4a5681c","system_id":"levelo_inurba_marseille","lat":43.283998,"lon":5.375062,"is_reserved":false,"is_disabled":false,"rental_uris":{"android":"levelo://app?vid=abad332f-ebca-438b-8361-9a38f4a5681c","ios":"levelo://app?vid=abad332f-ebca-438b-8361-9a38f4a5681c"},"vehicle_type_id":"4","last_reported":1700593576,"current_range_meters":400,"station_id":"ce4bh412rcd13ifvqds0","pricing_plan_id":"free"},{"bike_id":"c4899c4c-8199-4647-bf2c-fc8c8282ade6","system_id":"levelo_inurba_marseille","lat":43.28463,"lon":5.35898,"is_reserved":false,"is_disabled":false,"rental_uris":{"android":"levelo://app?vid=c4899c4c-8199-4647-bf2c-fc8c8282ade6","ios":"levelo://app?vid=c4899c4c-8199-4647-bf2c-fc8c8282ade6"},"vehicle_type_id":"4","last_reported":1700593576,"current_range_meters":18000,"station_id":"ce4bhah2rcd13ifvqei0","pricing_plan_id":"free"},{"bike_id":"c657ac86-030e-435d-9dcb-b0f1c15fc09d","system_id":"levelo_inurba_marseille","lat":43.28463,"lon":5.35893,"is_reserved":false,"is_disabled":false,"rental_uris":{"android":"levelo://app?vid=c657ac86-030e-435d-9dcb-b0f1c15fc09d","ios":"levelo://app?vid=c657ac86-030e-435d-9dcb-b0f1c15fc09d"},"vehicle_type_id":"4","last_reported":1700593576,"current_range_meters":4000,"station_id":"ce4bhah2rcd13ifvqei0","pricing_plan_id":"free"},{"bike_id":"32d0c4b3-4975-4c54-b911-a5834e4d69b1","system_id":"levelo_inurba_marseille","lat":43.28461,"lon":5.35894,"is_reserved":false,"is_disabled":false,"rental_uris":{"android":"levelo://app?vid=32d0c4b3-4975-4c54-b911-a5834e4d69b1","ios":"levelo://app?vid=32d0c4b3-4975-4c54-b911-a5834e4d69b1"},"vehicle_type_id":"4","last_reported":1700593576,"current_range_meters":3600,"station_id":"ce4bhah2rcd13ifvqei0","pricing_plan_id":"free"},{"bike_id":"3c7792f7-7e92-4b8f-bd4a-9b98fdfc5346","system_id":"levelo_inurba_marseille","lat":43.28459,"lon":5.35895,"is_reserved":false,"is_disabled":false,"rental_uris":{"android":"levelo://app?vid=3c7792f7-7e92-4b8f-bd4a-9b98fdfc5346","ios":"levelo://app?vid=3c7792f7-7e92-4b8f-bd4a-9b98fdfc5346"},"vehicle_type_id":"4","last_reported":1700593576,"current_range_meters":12800,"station_id":"ce4bhah2rcd13ifvqei0","pricing_plan_id":"free"},{"bike_id":"453fab20-5e89-48c3-b143-9d8335682de2","system_id":"levelo_inurba_marseille","lat":43.2846,"lon":5.35886,"is_reserved":false,"is_disabled":false,"rental_uris":{"android":"levelo://app?vid=453fab20-5e89-48c3-b143-9d8335682de2","ios":"levelo://app?vid=453fab20-5e89-48c3-b143-9d8335682de2"},"vehicle_type_id":"4","last_reported":1700593576,"current_range_meters":4800,"station_id":"ce4bhah2rcd13ifvqei0","pricing_plan_id":"free"},{"bike_id":"1230b657-e005-4dad-b234-311363cb0927","system_id":"levelo_inurba_marseille","lat":43.284534,"lon":5.358662,"is_reserved":false,"is_disabled":false,"rental_uris":{"android":"levelo://app?vid=1230b657-e005-4dad-b234-311363cb0927","ios":"levelo://app?vid=1230b657-e005-4dad-b234-311363cb0927"},"vehicle_type_id":"4","last_reported":1700593576,"current_range_meters":8400,"station_id":"ce4bhah2rcd13ifvqei0","pricing_plan_id":"free"},{"bike_id":"247453bf-9601-4c68-8056-2e285eb082ab","system_id":"levelo_inurba_marseille","lat":43.294314,"lon":5.397498,"is_reserved":false,"is_disabled":false,"rental_uris":{"android":"levelo://app?vid=247453bf-9601-4c68-8056-2e285eb082ab","ios":"levelo://app?vid=247453bf-9601-4c68-8056-2e285eb082ab"},"vehicle_type_id":"4","last_reported":1700593576,"current_range_meters":0,"station_id":"ce4bh3h2rcd13ifvqdo0","pricing_plan_id":"free"},{"bike_id":"a61e0212-d13d-491d-a18c-e6206cd538c0","system_id":"levelo_inurba_marseille","lat":43.284534,"lon":5.358662,"is_reserved":false,"is_disabled":false,"rental_uris":{"android":"levelo://app?vid=a61e0212-d13d-491d-a18c-e6206cd538c0","ios":"levelo://app?vid=a61e0212-d13d-491d-a18c-e6206cd538c0"},"vehicle_type_id":"4","last_reported":1700593576,"current_range_meters":20400,"station_id":"ce4bhah2rcd13ifvqei0","pricing_plan_id":"free"},{"bike_id":"278e215b-8d4d-4543-a0fb-76752307b930","system_id":"levelo_inurba_marseille","lat":43.28458,"lon":5.3589,"is_reserved":false,"is_disabled":false,"rental_uris":{"android":"levelo://app?vid=278e215b-8d4d-4543-a0fb-76752307b930","ios":"levelo://app?vid=278e215b-8d4d-4543-a0fb-76752307b930"},"vehicle_type_id":"4","last_reported":1700593576,"current_range_meters":10800,"station_id":"ce4bhah2rcd13ifvqei0","pricing_plan_id":"free"},{"bike_id":"6bd1dedc-2142-4319-b653-150235947691","system_id":"levelo_inurba_marseille","lat":43.294314,"lon":5.397498,"is_reserved":false,"is_disabled":false,"rental_uris":{"android":"levelo://app?vid=6bd1dedc-2142-4319-b653-150235947691","ios":"levelo://app?vid=6bd1dedc-2142-4319-b653-150235947691"},"vehicle_type_id":"4","last_reported":1700593576,"current_range_meters":20800,"station_id":"ce4bh3h2rcd13ifvqdo0","pricing_plan_id":"free"},{"bike_id":"694ff464-eb3b-4c89-8df4-34b07b568c2f","system_id":"levelo_inurba_marseille","lat":43.294314,"lon":5.397498,"is_reserved":false,"is_disabled":false,"rental_uris":{"android":"levelo://app?vid=694ff464-eb3b-4c89-8df4-34b07b568c2f","ios":"levelo://app?vid=694ff464-eb3b-4c89-8df4-34b07b568c2f"},"vehicle_type_id":"4","last_reported":1700593576,"current_range_meters":2400,"station_id":"ce4bh3h2rcd13ifvqdo0","pricing_plan_id":"free"},{"bike_id":"9ad725ba-8857-4107-98f3-7efac68c7d1d","system_id":"levelo_inurba_marseille","lat":43.285848,"lon":5.350787,"is_reserved":false,"is_disabled":false,"rental_uris":{"android":"levelo://app?vid=9ad725ba-8857-4107-98f3-7efac68c7d1d","ios":"levelo://app?vid=9ad725ba-8857-4107-98f3-7efac68c7d1d"},"vehicle_type_id":"4","last_reported":1700593576,"current_range_meters":15600,"station_id":"ce4bhch2rcd13ifvqeug","pricing_plan_id":"free"},{"bike_id":"ce6948d1-e0ba-432a-8972-6a74ab291470","system_id":"levelo_inurba_marseille","lat":43.28617,"lon":5.35108,"is_reserved":false,"is_disabled":false,"rental_uris":{"android":"levelo://app?vid=ce6948d1-e0ba-432a-8972-6a74ab291470","ios":"levelo://app?vid=ce6948d1-e0ba-432a-8972-6a74ab291470"},"vehicle_type_id":"4","last_reported":1700593576,"current_range_meters":30800,"station_id":"ce4bhch2rcd13ifvqeug","pricing_plan_id":"free"},{"bike_id":"36043778-724e-41cd-9ad0-4790e36fb65d","system_id":"levelo_inurba_marseille","lat":43.286176,"lon":5.351035,"is_reserved":false,"is_disabled":false,"rental_uris":{"android":"levelo://app?vid=36043778-724e-41cd-9ad0-4790e36fb65d","ios":"levelo://app?vid=36043778-724e-41cd-9ad0-4790e36fb65d"},"vehicle_type_id":"4","last_reported":1700593576,"current_range_meters":1200,"station_id":"ce4bhch2rcd13ifvqeug","pricing_plan_id":"free"},{"bike_id":"7754355b-46aa-47c2-8444-ad6d06bda7d9","system_id":"levelo_inurba_marseille","lat":43.28617,"lon":5.35104,"is_reserved":false,"is_disabled":false,"rental_uris":{"android":"levelo://app?vid=7754355b-46aa-47c2-8444-ad6d06bda7d9","ios":"levelo://app?vid=7754355b-46aa-47c2-8444-ad6d06bda7d9"},"vehicle_type_id":"4","last_reported":1700593576,"current_range_meters":1600,"station_id":"ce4bhch2rcd13ifvqeug","pricing_plan_id":"free"},{"bike_id":"93591452-78a8-4deb-aa6d-58319e661151","system_id":"levelo_inurba_marseille","lat":43.286086,"lon":5.351127,"is_reserved":false,"is_disabled":false,"rental_uris":{"android":"levelo://app?vid=93591452-78a8-4deb-aa6d-58319e661151","ios":"levelo://app?vid=93591452-78a8-4deb-aa6d-58319e661151"},"vehicle_type_id":"4","last_reported":1700593576,"current_range_meters":26000,"station_id":"ce4bhch2rcd13ifvqeug","pricing_plan_id":"free"},{"bike_id":"47d82943-55b7-4d5f-81f3-ba919299497b","system_id":"levelo_inurba_marseille","lat":43.28611,"lon":5.35103,"is_reserved":false,"is_disabled":false,"rental_uris":{"android":"levelo://app?vid=47d82943-55b7-4d5f-81f3-ba919299497b","ios":"levelo://app?vid=47d82943-55b7-4d5f-81f3-ba919299497b"},"vehicle_type_id":"4","last_reported":1700593576,"current_range_meters":2000,"station_id":"ce4bhch2rcd13ifvqeug","pricing_plan_id":"free"},{"bike_id":"048c235f-0c9d-48d0-a580-8c9e0281cf7a","system_id":"levelo_inurba_marseille","lat":43.285848,"lon":5.350787,"is_reserved":false,"is_disabled":false,"rental_uris":{"android":"levelo://app?vid=048c235f-0c9d-48d0-a580-8c9e0281cf7a","ios":"levelo://app?vid=048c235f-0c9d-48d0-a580-8c9e0281cf7a"},"vehicle_type_id":"4","last_reported":1700593576,"current_range_meters":8400,"station_id":"ce4bhch2rcd13ifvqeug","pricing_plan_id":"free"},{"bike_id":"84fabaa6-2d80-4027-9b22-1b4413e1bcd9","system_id":"levelo_inurba_marseille","lat":43.286595,"lon":5.386795,"is_reserved":false,"is_disabled":false,"rental_uris":{"android":"levelo://app?vid=84fabaa6-2d80-4027-9b22-1b4413e1bcd9","ios":"levelo://app?vid=84fabaa6-2d80-4027-9b22-1b4413e1bcd9"},"vehicle_type_id":"4","last_reported":1700593576,"current_range_meters":12800,"station_id":"ce4bh492rcd13ifvqdug","pricing_plan_id":"free"},{"bike_id":"a8fb5720-f466-49e5-b4cf-5fc2845ab241","system_id":"levelo_inurba_marseille","lat":43.286595,"lon":5.386795,"is_reserved":false,"is_disabled":false,"rental_uris":{"android":"levelo://app?vid=a8fb5720-f466-49e5-b4cf-5fc2845ab241","ios":"levelo://app?vid=a8fb5720-f466-49e5-b4cf-5fc2845ab241"},"vehicle_type_id":"4","last_reported":1700593576,"current_range_meters":2800,"station_id":"ce4bh492rcd13ifvqdug","pricing_plan_id":"free"},{"bike_id":"be2e9053-6a07-4690-b43a-c38c714fe3c5","system_id":"levelo_inurba_marseille","lat":43.31888,"lon":5.40729,"is_reserved":false,"is_disabled":false,"rental_uris":{"android":"levelo://app?vid=be2e9053-6a07-4690-b43a-c38c714fe3c5","ios":"levelo://app?vid=be2e9053-6a07-4690-b43a-c38c714fe3c5"},"vehicle_type_id":"4","last_reported":1700593576,"current_range_meters":6800,"station_id":"ce4bhq12rcd13ifvqhig","pricing_plan_id":"free"},{"bike_id":"35b19955-8c3e-4374-b999-0b151664b0e8","system_id":"levelo_inurba_marseille","lat":43.33237,"lon":5.3985,"is_reserved":false,"is_disabled":false,"rental_uris":{"android":"levelo://app?vid=35b19955-8c3e-4374-b999-0b151664b0e8","ios":"levelo://app?vid=35b19955-8c3e-4374-b999-0b151664b0e8"},"vehicle_type_id":"4","last_reported":1700593576,"current_range_meters":0,"station_id":"","pricing_plan_id":"free"},{"bike_id":"641932c5-19e2-4901-9c84-b288f7cafb16","system_id":"levelo_inurba_marseille","lat":43.323464,"lon":5.406297,"is_reserved":false,"is_disabled":false,"rental_uris":{"android":"levelo://app?vid=641932c5-19e2-4901-9c84-b288f7cafb16","ios":"levelo://app?vid=641932c5-19e2-4901-9c84-b288f7cafb16"},"vehicle_type_id":"4","last_reported":1700593576,"current_range_meters":26400,"station_id":"ce4bhq92rcd13ifvqhjg","pricing_plan_id":"free"},{"bike_id":"518f8349-77de-4086-a57b-fc5a8d9348e2","system_id":"levelo_inurba_marseille","lat":43.33717,"lon":5.391857,"is_reserved":false,"is_disabled":false,"rental_uris":{"android":"levelo://app?vid=518f8349-77de-4086-a57b-fc5a8d9348e2","ios":"levelo://app?vid=518f8349-77de-4086-a57b-fc5a8d9348e2"},"vehicle_type_id":"4","last_reported":1700593576,"current_range_meters":20400,"station_id":"ce4bhr92rcd13ifvqhsg","pricing_plan_id":"free"},{"bike_id":"b4319b18-5548-4691-90e2-2eac47989fae","system_id":"levelo_inurba_marseille","lat":43.323464,"lon":5.406297,"is_reserved":false,"is_disabled":false,"rental_uris":{"android":"levelo://app?vid=b4319b18-5548-4691-90e2-2eac47989fae","ios":"levelo://app?vid=b4319b18-5548-4691-90e2-2eac47989fae"},"vehicle_type_id":"4","last_reported":1700593576,"current_range_meters":30400,"station_id":"ce4bhq92rcd13ifvqhjg","pricing_plan_id":"free"},{"bike_id":"e57c9540-512f-4490-8f63-010ef0e8c825","system_id":"levelo_inurba_marseille","lat":43.284219,"lon":5.3497,"is_reserved":false,"is_disabled":false,"rental_uris":{"android":"levelo://app?vid=e57c9540-512f-4490-8f63-010ef0e8c825","ios":"levelo://app?vid=e57c9540-512f-4490-8f63-010ef0e8c825"},"vehicle_type_id":"4","last_reported":1700593576,"current_range_meters":28000,"station_id":"ce4bhbh2rcd13ifvqepg","pricing_plan_id":"free"},{"bike_id":"a915fd1c-9128-4c2f-bc4f-b0c446622785","system_id":"levelo_inurba_marseille","lat":43.284217,"lon":5.349697,"is_reserved":false,"is_disabled":false,"rental_uris":{"android":"levelo://app?vid=a915fd1c-9128-4c2f-bc4f-b0c446622785","ios":"levelo://app?vid=a915fd1c-9128-4c2f-bc4f-b0c446622785"},"vehicle_type_id":"4","last_reported":1700593576,"current_range_meters":25200,"station_id":"ce4bhbh2rcd13ifvqepg","pricing_plan_id":"free"},{"bike_id":"c8cfd9ab-d3bf-4c62-a1f3-f8793f300892","system_id":"levelo_inurba_marseille","lat":43.284175,"lon":5.349925,"is_reserved":false,"is_disabled":false,"rental_uris":{"android":"levelo://app?vid=c8cfd9ab-d3bf-4c62-a1f3-f8793f300892","ios":"levelo://app?vid=c8cfd9ab-d3bf-4c62-a1f3-f8793f300892"},"vehicle_type_id":"4","last_reported":1700593576,"current_range_meters":30000,"station_id":"ce4bhbh2rcd13ifvqepg","pricing_plan_id":"free"},{"bike_id":"74e481aa-25b5-4f5b-b8cd-79b4a634f242","system_id":"levelo_inurba_marseille","lat":43.28279,"lon":5.35059,"is_reserved":false,"is_disabled":false,"rental_uris":{"android":"levelo://app?vid=74e481aa-25b5-4f5b-b8cd-79b4a634f242","ios":"levelo://app?vid=74e481aa-25b5-4f5b-b8cd-79b4a634f242"},"vehicle_type_id":"4","last_reported":1700593576,"current_range_meters":31200,"station_id":"ce4bhbp2rcd13ifvqerg","pricing_plan_id":"free"},{"bike_id":"02da29a8-e1ab-40e6-8ac0-4c103dc1f888","system_id":"levelo_inurba_marseille","lat":43.282744,"lon":5.350533,"is_reserved":false,"is_disabled":false,"rental_uris":{"android":"levelo://app?vid=02da29a8-e1ab-40e6-8ac0-4c103dc1f888","ios":"levelo://app?vid=02da29a8-e1ab-40e6-8ac0-4c103dc1f888"},"vehicle_type_id":"4","last_reported":1700593576,"current_range_meters":20000,"station_id":"ce4bhbp2rcd13ifvqerg","pricing_plan_id":"free"},{"bike_id":"49b4c011-618e-45f7-b321-5a2afe0f4e49","system_id":"levelo_inurba_marseille","lat":43.282754,"lon":5.350519,"is_reserved":false,"is_disabled":false,"rental_uris":{"android":"levelo://app?vid=49b4c011-618e-45f7-b321-5a2afe0f4e49","ios":"levelo://app?vid=49b4c011-618e-45f7-b321-5a2afe0f4e49"},"vehicle_type_id":"4","last_reported":1700593576,"current_range_meters":18800,"station_id":"ce4bhbp2rcd13ifvqerg","pricing_plan_id":"free"},{"bike_id":"6d068ae4-8aba-4958-a002-11c2ac3f318a","system_id":"levelo_inurba_marseille","lat":43.282754,"lon":5.350519,"is_reserved":false,"is_disabled":false,"rental_uris":{"android":"levelo://app?vid=6d068ae4-8aba-4958-a002-11c2ac3f318a","ios":"levelo://app?vid=6d068ae4-8aba-4958-a002-11c2ac3f318a"},"vehicle_type_id":"4","last_reported":1700593576,"current_range_meters":3600,"station_id":"ce4bhbp2rcd13ifvqerg","pricing_plan_id":"free"},{"bike_id":"eace2be8-2781-4338-ba7d-44b9df37bcb4","system_id":"levelo_inurba_marseille","lat":43.280382,"lon":5.369291,"is_reserved":false,"is_disabled":false,"rental_uris":{"android":"levelo://app?vid=eace2be8-2781-4338-ba7d-44b9df37bcb4","ios":"levelo://app?vid=eace2be8-2781-4338-ba7d-44b9df37bcb4"},"vehicle_type_id":"4","last_reported":1700593576,"current_range_meters":31200,"station_id":"ce4bha12rcd13ifvqef0","pricing_plan_id":"free"},{"bike_id":"29b2d1ae-72bd-4a6b-9046-838ae37f2595","system_id":"levelo_inurba_marseille","lat":43.282754,"lon":5.350519,"is_reserved":false,"is_disabled":false,"rental_uris":{"android":"levelo://app?vid=29b2d1ae-72bd-4a6b-9046-838ae37f2595","ios":"levelo://app?vid=29b2d1ae-72bd-4a6b-9046-838ae37f2595"},"vehicle_type_id":"4","last_reported":1700593576,"current_range_meters":400,"station_id":"ce4bhbp2rcd13ifvqerg","pricing_plan_id":"free"},{"bike_id":"5e4ef7db-4482-4feb-8b0a-cd6d841e2690","system_id":"levelo_inurba_marseille","lat":43.280364,"lon":5.369417,"is_reserved":false,"is_disabled":false,"rental_uris":{"android":"levelo://app?vid=5e4ef7db-4482-4feb-8b0a-cd6d841e2690","ios":"levelo://app?vid=5e4ef7db-4482-4feb-8b0a-cd6d841e2690"},"vehicle_type_id":"4","last_reported":1700593576,"current_range_meters":31200,"station_id":"ce4bha12rcd13ifvqef0","pricing_plan_id":"free"},{"bike_id":"aa4139f5-27aa-49e1-a8f1-fc54a1da2de8","system_id":"levelo_inurba_marseille","lat":43.280382,"lon":5.369291,"is_reserved":false,"is_disabled":false,"rental_uris":{"android":"levelo://app?vid=aa4139f5-27aa-49e1-a8f1-fc54a1da2de8","ios":"levelo://app?vid=aa4139f5-27aa-49e1-a8f1-fc54a1da2de8"},"vehicle_type_id":"4","last_reported":1700593576,"current_range_meters":15600,"station_id":"ce4bha12rcd13ifvqef0","pricing_plan_id":"free"},{"bike_id":"06267415-e8dd-4c36-96d9-6e6954d1f05b","system_id":"levelo_inurba_marseille","lat":43.280382,"lon":5.369291,"is_reserved":false,"is_disabled":false,"rental_uris":{"android":"levelo://app?vid=06267415-e8dd-4c36-96d9-6e6954d1f05b","ios":"levelo://app?vid=06267415-e8dd-4c36-96d9-6e6954d1f05b"},"vehicle_type_id":"4","last_reported":1700593576,"current_range_meters":0,"station_id":"ce4bha12rcd13ifvqef0","pricing_plan_id":"free"},{"bike_id":"2eb0bb5e-e090-4ce4-a4ed-477020595d05","system_id":"levelo_inurba_marseille","lat":43.29041,"lon":5.399634,"is_reserved":false,"is_disabled":false,"rental_uris":{"android":"levelo://app?vid=2eb0bb5e-e090-4ce4-a4ed-477020595d05","ios":"levelo://app?vid=2eb0bb5e-e090-4ce4-a4ed-477020595d05"},"vehicle_type_id":"4","last_reported":1700593576,"current_range_meters":0,"station_id":"ce4bh392rcd13ifvqdm0","pricing_plan_id":"free"},{"bike_id":"15c37d9f-ad9f-4b2e-a894-6fdc82fe94a9","system_id":"levelo_inurba_marseille","lat":43.29041,"lon":5.399634,"is_reserved":false,"is_disabled":false,"rental_uris":{"android":"levelo://app?vid=15c37d9f-ad9f-4b2e-a894-6fdc82fe94a9","ios":"levelo://app?vid=15c37d9f-ad9f-4b2e-a894-6fdc82fe94a9"},"vehicle_type_id":"4","last_reported":1700593576,"current_range_meters":0,"station_id":"ce4bh392rcd13ifvqdm0","pricing_plan_id":"free"},{"bike_id":"5eba4dee-ffd0-43cd-9b11-aff5fe48a5b6","system_id":"levelo_inurba_marseille","lat":43.281044,"lon":5.378308,"is_reserved":false,"is_disabled":false,"rental_uris":{"android":"levelo://app?vid=5eba4dee-ffd0-43cd-9b11-aff5fe48a5b6","ios":"levelo://app?vid=5eba4dee-ffd0-43cd-9b11-aff5fe48a5b6"},"vehicle_type_id":"4","last_reported":1700593576,"current_range_meters":22000,"station_id":"ce4bha12rcd13ifvqee0","pricing_plan_id":"free"},{"bike_id":"db03c58f-c714-42f2-b6f7-238814af3b2a","system_id":"levelo_inurba_marseille","lat":43.28438,"lon":5.39198,"is_reserved":false,"is_disabled":false,"rental_uris":{"android":"levelo://app?vid=db03c58f-c714-42f2-b6f7-238814af3b2a","ios":"levelo://app?vid=db03c58f-c714-42f2-b6f7-238814af3b2a"},"vehicle_type_id":"4","last_reported":1700593576,"current_range_meters":15200,"station_id":"ce4bhoh2rcd13ifvqh5g","pricing_plan_id":"free"},{"bike_id":"951ddd70-982b-4034-b967-38ec419c9aff","system_id":"levelo_inurba_marseille","lat":43.281976,"lon":5.386327,"is_reserved":false,"is_disabled":false,"rental_uris":{"android":"levelo://app?vid=951ddd70-982b-4034-b967-38ec419c9aff","ios":"levelo://app?vid=951ddd70-982b-4034-b967-38ec419c9aff"},"vehicle_type_id":"4","last_reported":1700593576,"current_range_meters":0,"station_id":"","pricing_plan_id":"free"},{"bike_id":"c3e1946b-516c-454c-87a5-72a7cae0e647","system_id":"levelo_inurba_marseille","lat":43.326605,"lon":5.409903,"is_reserved":false,"is_disabled":false,"rental_uris":{"android":"levelo://app?vid=c3e1946b-516c-454c-87a5-72a7cae0e647","ios":"levelo://app?vid=c3e1946b-516c-454c-87a5-72a7cae0e647"},"vehicle_type_id":"4","last_reported":1700593576,"current_range_meters":4800,"station_id":"ce4bhpp2rcd13ifvqhgg","pricing_plan_id":"free"},{"bike_id":"3727cb34-759e-44bd-b596-9545a84c188e","system_id":"levelo_inurba_marseille","lat":43.304188,"lon":5.412904,"is_reserved":false,"is_disabled":false,"rental_uris":{"android":"levelo://app?vid=3727cb34-759e-44bd-b596-9545a84c188e","ios":"levelo://app?vid=3727cb34-759e-44bd-b596-9545a84c188e"},"vehicle_type_id":"4","last_reported":1700593576,"current_range_meters":16800,"station_id":"ce4bhop2rcd13ifvqh8g","pricing_plan_id":"free"},{"bike_id":"d3c07fde-c632-4dfd-861c-e698dff6df64","system_id":"levelo_inurba_marseille","lat":43.28709,"lon":5.399947,"is_reserved":false,"is_disabled":false,"rental_uris":{"android":"levelo://app?vid=d3c07fde-c632-4dfd-861c-e698dff6df64","ios":"levelo://app?vid=d3c07fde-c632-4dfd-861c-e698dff6df64"},"vehicle_type_id":"4","last_reported":1700593576,"current_range_meters":16400,"station_id":"ce4bho92rcd13ifvqh3g","pricing_plan_id":"free"},{"bike_id":"fe4f2622-67eb-4df5-bc6c-a369a8c5642f","system_id":"levelo_inurba_marseille","lat":43.287154,"lon":5.399979,"is_reserved":false,"is_disabled":false,"rental_uris":{"android":"levelo://app?vid=fe4f2622-67eb-4df5-bc6c-a369a8c5642f","ios":"levelo://app?vid=fe4f2622-67eb-4df5-bc6c-a369a8c5642f"},"vehicle_type_id":"4","last_reported":1700593576,"current_range_meters":4000,"station_id":"ce4bho92rcd13ifvqh3g","pricing_plan_id":"free"},{"bike_id":"e77cac7e-f7ed-46c2-969a-15c5079679ef","system_id":"levelo_inurba_marseille","lat":43.320045,"lon":5.415046,"is_reserved":false,"is_disabled":false,"rental_uris":{"android":"levelo://app?vid=e77cac7e-f7ed-46c2-969a-15c5079679ef","ios":"levelo://app?vid=e77cac7e-f7ed-46c2-969a-15c5079679ef"},"vehicle_type_id":"4","last_reported":1700593576,"current_range_meters":22000,"station_id":"ce4bhq92rcd13ifvqhkg","pricing_plan_id":"free"},{"bike_id":"cf7c6503-d761-4e4a-b826-f55f74848caf","system_id":"levelo_inurba_marseille","lat":43.34879,"lon":5.37515,"is_reserved":false,"is_disabled":false,"rental_uris":{"android":"levelo://app?vid=cf7c6503-d761-4e4a-b826-f55f74848caf","ios":"levelo://app?vid=cf7c6503-d761-4e4a-b826-f55f74848caf"},"vehicle_type_id":"4","last_reported":1700593576,"current_range_meters":8400,"station_id":"","pricing_plan_id":"free"},{"bike_id":"fc59d73e-08c5-4314-8a50-83953dfb7866","system_id":"levelo_inurba_marseille","lat":43.27618,"lon":5.361009,"is_reserved":false,"is_disabled":false,"rental_uris":{"android":"levelo://app?vid=fc59d73e-08c5-4314-8a50-83953dfb7866","ios":"levelo://app?vid=fc59d73e-08c5-4314-8a50-83953dfb7866"},"vehicle_type_id":"4","last_reported":1700593576,"current_range_meters":0,"station_id":"ce4bgj92rcd13ifvqbe0","pricing_plan_id":"free"},{"bike_id":"f313f674-141e-4b36-a0a4-4dc9d1563e08","system_id":"levelo_inurba_marseille","lat":43.278399,"lon":5.392139,"is_reserved":false,"is_disabled":false,"rental_uris":{"android":"levelo://app?vid=f313f674-141e-4b36-a0a4-4dc9d1563e08","ios":"levelo://app?vid=f313f674-141e-4b36-a0a4-4dc9d1563e08"},"vehicle_type_id":"4","last_reported":1700593576,"current_range_meters":15600,"station_id":"ce4bhjp2rcd13ifvqga0","pricing_plan_id":"free"},{"bike_id":"2d25c479-2096-4677-8796-3bf4195db5ff","system_id":"levelo_inurba_marseille","lat":43.278399,"lon":5.392139,"is_reserved":false,"is_disabled":false,"rental_uris":{"android":"levelo://app?vid=2d25c479-2096-4677-8796-3bf4195db5ff","ios":"levelo://app?vid=2d25c479-2096-4677-8796-3bf4195db5ff"},"vehicle_type_id":"4","last_reported":1700593576,"current_range_meters":0,"station_id":"ce4bhjp2rcd13ifvqga0","pricing_plan_id":"free"},{"bike_id":"391ac1ca-871c-4e5c-af0b-afd4200a4f56","system_id":"levelo_inurba_marseille","lat":43.275625,"lon":5.384392,"is_reserved":false,"is_disabled":false,"rental_uris":{"android":"levelo://app?vid=391ac1ca-871c-4e5c-af0b-afd4200a4f56","ios":"levelo://app?vid=391ac1ca-871c-4e5c-af0b-afd4200a4f56"},"vehicle_type_id":"4","last_reported":1700593576,"current_range_meters":20000,"station_id":"ce4bhh92rcd13ifvqfi0","pricing_plan_id":"free"},{"bike_id":"85bf9ec3-1169-48ae-88be-8caa8f1c3fa7","system_id":"levelo_inurba_marseille","lat":43.28002,"lon":5.40008,"is_reserved":false,"is_disabled":false,"rental_uris":{"android":"levelo://app?vid=85bf9ec3-1169-48ae-88be-8caa8f1c3fa7","ios":"levelo://app?vid=85bf9ec3-1169-48ae-88be-8caa8f1c3fa7"},"vehicle_type_id":"4","last_reported":1700593576,"current_range_meters":4000,"station_id":"ce4bho92rcd13ifvqh4g","pricing_plan_id":"free"},{"bike_id":"57c3f3f4-0cd5-4104-9546-deca7ce974c9","system_id":"levelo_inurba_marseille","lat":43.28008,"lon":5.40023,"is_reserved":false,"is_disabled":false,"rental_uris":{"android":"levelo://app?vid=57c3f3f4-0cd5-4104-9546-deca7ce974c9","ios":"levelo://app?vid=57c3f3f4-0cd5-4104-9546-deca7ce974c9"},"vehicle_type_id":"4","last_reported":1700593576,"current_range_meters":11200,"station_id":"ce4bho92rcd13ifvqh4g","pricing_plan_id":"free"},{"bike_id":"dedd9891-c9b4-49e9-ace9-7c9c3068a2fe","system_id":"levelo_inurba_marseille","lat":43.279952,"lon":5.400085,"is_reserved":false,"is_disabled":false,"rental_uris":{"android":"levelo://app?vid=dedd9891-c9b4-49e9-ace9-7c9c3068a2fe","ios":"levelo://app?vid=dedd9891-c9b4-49e9-ace9-7c9c3068a2fe"},"vehicle_type_id":"4","last_reported":1700593576,"current_range_meters":6400,"station_id":"ce4bho92rcd13ifvqh4g","pricing_plan_id":"free"},{"bike_id":"9f0c418d-62e7-45d4-87d2-6c8423eebd87","system_id":"levelo_inurba_marseille","lat":43.28001,"lon":5.40022,"is_reserved":false,"is_disabled":false,"rental_uris":{"android":"levelo://app?vid=9f0c418d-62e7-45d4-87d2-6c8423eebd87","ios":"levelo://app?vid=9f0c418d-62e7-45d4-87d2-6c8423eebd87"},"vehicle_type_id":"4","last_reported":1700593576,"current_range_meters":6800,"station_id":"ce4bho92rcd13ifvqh4g","pricing_plan_id":"free"},{"bike_id":"132963d4-79cc-40f4-81e8-9df7bcbc3078","system_id":"levelo_inurba_marseille","lat":43.27998,"lon":5.40018,"is_reserved":false,"is_disabled":false,"rental_uris":{"android":"levelo://app?vid=132963d4-79cc-40f4-81e8-9df7bcbc3078","ios":"levelo://app?vid=132963d4-79cc-40f4-81e8-9df7bcbc3078"},"vehicle_type_id":"4","last_reported":1700593576,"current_range_meters":0,"station_id":"ce4bho92rcd13ifvqh4g","pricing_plan_id":"free"},{"bike_id":"3bfa0976-7f7d-4d39-9c8b-5307944446d6","system_id":"levelo_inurba_marseille","lat":43.27996,"lon":5.40015,"is_reserved":false,"is_disabled":false,"rental_uris":{"android":"levelo://app?vid=3bfa0976-7f7d-4d39-9c8b-5307944446d6","ios":"levelo://app?vid=3bfa0976-7f7d-4d39-9c8b-5307944446d6"},"vehicle_type_id":"4","last_reported":1700593576,"current_range_meters":22000,"station_id":"ce4bho92rcd13ifvqh4g","pricing_plan_id":"free"},{"bike_id":"b41d3944-bf97-4e30-8da0-36b4be7a9429","system_id":"levelo_inurba_marseille","lat":43.279952,"lon":5.400085,"is_reserved":false,"is_disabled":false,"rental_uris":{"android":"levelo://app?vid=b41d3944-bf97-4e30-8da0-36b4be7a9429","ios":"levelo://app?vid=b41d3944-bf97-4e30-8da0-36b4be7a9429"},"vehicle_type_id":"4","last_reported":1700593576,"current_range_meters":15600,"station_id":"ce4bho92rcd13ifvqh4g","pricing_plan_id":"free"},{"bike_id":"b5205dcc-29c6-40b2-8ad9-7dccfb0e095a","system_id":"levelo_inurba_marseille","lat":43.279952,"lon":5.400085,"is_reserved":false,"is_disabled":false,"rental_uris":{"android":"levelo://app?vid=b5205dcc-29c6-40b2-8ad9-7dccfb0e095a","ios":"levelo://app?vid=b5205dcc-29c6-40b2-8ad9-7dccfb0e095a"},"vehicle_type_id":"4","last_reported":1700593576,"current_range_meters":0,"station_id":"ce4bho92rcd13ifvqh4g","pricing_plan_id":"free"},{"bike_id":"114187af-32af-4dba-9a5b-7cf8db15d20c","system_id":"levelo_inurba_marseille","lat":43.31083,"lon":5.42431,"is_reserved":false,"is_disabled":false,"rental_uris":{"android":"levelo://app?vid=114187af-32af-4dba-9a5b-7cf8db15d20c","ios":"levelo://app?vid=114187af-32af-4dba-9a5b-7cf8db15d20c"},"vehicle_type_id":"4","last_reported":1700593576,"current_range_meters":26000,"station_id":"ce4bhp92rcd13ifvqhag","pricing_plan_id":"free"},{"bike_id":"ac9bf6a1-c96f-4133-87a6-52d4b07e03ea","system_id":"levelo_inurba_marseille","lat":43.317121,"lon":5.423936,"is_reserved":false,"is_disabled":false,"rental_uris":{"android":"levelo://app?vid=ac9bf6a1-c96f-4133-87a6-52d4b07e03ea","ios":"levelo://app?vid=ac9bf6a1-c96f-4133-87a6-52d4b07e03ea"},"vehicle_type_id":"4","last_reported":1700593576,"current_range_meters":13600,"station_id":"ce4bhp92rcd13ifvqhbg","pricing_plan_id":"free"},{"bike_id":"ee05c0dc-360e-478e-b9c4-5d74eaf21720","system_id":"levelo_inurba_marseille","lat":43.273032,"lon":5.390699,"is_reserved":false,"is_disabled":false,"rental_uris":{"android":"levelo://app?vid=ee05c0dc-360e-478e-b9c4-5d74eaf21720","ios":"levelo://app?vid=ee05c0dc-360e-478e-b9c4-5d74eaf21720"},"vehicle_type_id":"4","last_reported":1700593576,"current_range_meters":2800,"station_id":"ce4bhgp2rcd13ifvqfe0","pricing_plan_id":"free"},{"bike_id":"b578f1a0-7d1a-40b9-af66-426db036cd1e","system_id":"levelo_inurba_marseille","lat":43.274103,"lon":5.394016,"is_reserved":false,"is_disabled":false,"rental_uris":{"android":"levelo://app?vid=b578f1a0-7d1a-40b9-af66-426db036cd1e","ios":"levelo://app?vid=b578f1a0-7d1a-40b9-af66-426db036cd1e"},"vehicle_type_id":"4","last_reported":1700593576,"current_range_meters":22800,"station_id":"ce4bhdp2rcd13ifvqf20","pricing_plan_id":"free"},{"bike_id":"2e782566-b68d-457e-a61b-0e85a264cbc4","system_id":"levelo_inurba_marseille","lat":43.304096,"lon":5.425385,"is_reserved":false,"is_disabled":false,"rental_uris":{"android":"levelo://app?vid=2e782566-b68d-457e-a61b-0e85a264cbc4","ios":"levelo://app?vid=2e782566-b68d-457e-a61b-0e85a264cbc4"},"vehicle_type_id":"4","last_reported":1700593576,"current_range_meters":0,"station_id":"ce4bhoh2rcd13ifvqh6g","pricing_plan_id":"free"},{"bike_id":"d63f0213-db4d-4ade-9fb5-b0161bcbc51a","system_id":"levelo_inurba_marseille","lat":43.272544,"lon":5.392213,"is_reserved":false,"is_disabled":false,"rental_uris":{"android":"levelo://app?vid=d63f0213-db4d-4ade-9fb5-b0161bcbc51a","ios":"levelo://app?vid=d63f0213-db4d-4ade-9fb5-b0161bcbc51a"},"vehicle_type_id":"4","last_reported":1700593576,"current_range_meters":0,"station_id":"","pricing_plan_id":"free"},{"bike_id":"d0bb53f7-f1b8-4609-a668-27efdac67f66","system_id":"levelo_inurba_marseille","lat":43.27198,"lon":5.3925,"is_reserved":false,"is_disabled":false,"rental_uris":{"android":"levelo://app?vid=d0bb53f7-f1b8-4609-a668-27efdac67f66","ios":"levelo://app?vid=d0bb53f7-f1b8-4609-a668-27efdac67f66"},"vehicle_type_id":"4","last_reported":1700593576,"current_range_meters":0,"station_id":"","pricing_plan_id":"free"},{"bike_id":"cbc2fb9f-e1d7-438a-87af-611b36f7eeb3","system_id":"levelo_inurba_marseille","lat":43.271891,"lon":5.392412,"is_reserved":false,"is_disabled":false,"rental_uris":{"android":"levelo://app?vid=cbc2fb9f-e1d7-438a-87af-611b36f7eeb3","ios":"levelo://app?vid=cbc2fb9f-e1d7-438a-87af-611b36f7eeb3"},"vehicle_type_id":"4","last_reported":1700593576,"current_range_meters":0,"station_id":"","pricing_plan_id":"free"},{"bike_id":"32d94b9f-116c-4ef2-8fde-7564ce1f654f","system_id":"levelo_inurba_marseille","lat":43.278128,"lon":5.407195,"is_reserved":false,"is_disabled":false,"rental_uris":{"android":"levelo://app?vid=32d94b9f-116c-4ef2-8fde-7564ce1f654f","ios":"levelo://app?vid=32d94b9f-116c-4ef2-8fde-7564ce1f654f"},"vehicle_type_id":"4","last_reported":1700593576,"current_range_meters":0,"station_id":"ce4bhnh2rcd13ifvqgtg","pricing_plan_id":"free"},{"bike_id":"18a837ea-f98a-4cf6-b999-cc3d39290238","system_id":"levelo_inurba_marseille","lat":43.269467,"lon":5.386439,"is_reserved":false,"is_disabled":false,"rental_uris":{"android":"levelo://app?vid=18a837ea-f98a-4cf6-b999-cc3d39290238","ios":"levelo://app?vid=18a837ea-f98a-4cf6-b999-cc3d39290238"},"vehicle_type_id":"4","last_reported":1700593576,"current_range_meters":17200,"station_id":"ce4bhh92rcd13ifvqfh0","pricing_plan_id":"free"},{"bike_id":"40ea8d20-e1e8-4699-9b63-d1b183b7bf9f","system_id":"levelo_inurba_marseille","lat":43.269467,"lon":5.386439,"is_reserved":false,"is_disabled":false,"rental_uris":{"android":"levelo://app?vid=40ea8d20-e1e8-4699-9b63-d1b183b7bf9f","ios":"levelo://app?vid=40ea8d20-e1e8-4699-9b63-d1b183b7bf9f"},"vehicle_type_id":"4","last_reported":1700593576,"current_range_meters":21200,"station_id":"ce4bhh92rcd13ifvqfh0","pricing_plan_id":"free"},{"bike_id":"c13e2750-848c-4c20-84c3-fa5884a2c374","system_id":"levelo_inurba_marseille","lat":43.27953,"lon":5.41047,"is_reserved":false,"is_disabled":false,"rental_uris":{"android":"levelo://app?vid=c13e2750-848c-4c20-84c3-fa5884a2c374","ios":"levelo://app?vid=c13e2750-848c-4c20-84c3-fa5884a2c374"},"vehicle_type_id":"4","last_reported":1700593576,"current_range_meters":1200,"station_id":"ce4bhnp2rcd13ifvqh0g","pricing_plan_id":"free"},{"bike_id":"be19b6bc-3f21-490e-92b7-2ed7d476706b","system_id":"levelo_inurba_marseille","lat":43.26565,"lon":5.37287,"is_reserved":false,"is_disabled":false,"rental_uris":{"android":"levelo://app?vid=be19b6bc-3f21-490e-92b7-2ed7d476706b","ios":"levelo://app?vid=be19b6bc-3f21-490e-92b7-2ed7d476706b"},"vehicle_type_id":"4","last_reported":1700593576,"current_range_meters":22800,"station_id":"ce4bhg12rcd13ifvqf70","pricing_plan_id":"free"},{"bike_id":"a6f1d0fe-57ac-4cb4-b1f3-6d4a6a8ed399","system_id":"levelo_inurba_marseille","lat":43.26556,"lon":5.37289,"is_reserved":false,"is_disabled":false,"rental_uris":{"android":"levelo://app?vid=a6f1d0fe-57ac-4cb4-b1f3-6d4a6a8ed399","ios":"levelo://app?vid=a6f1d0fe-57ac-4cb4-b1f3-6d4a6a8ed399"},"vehicle_type_id":"4","last_reported":1700593576,"current_range_meters":24800,"station_id":"ce4bhg12rcd13ifvqf70","pricing_plan_id":"free"},{"bike_id":"28e8ce00-6b21-4e06-9930-c7c4408cc650","system_id":"levelo_inurba_marseille","lat":43.326174,"lon":5.430584,"is_reserved":false,"is_disabled":false,"rental_uris":{"android":"levelo://app?vid=28e8ce00-6b21-4e06-9930-c7c4408cc650","ios":"levelo://app?vid=28e8ce00-6b21-4e06-9930-c7c4408cc650"},"vehicle_type_id":"4","last_reported":1700593576,"current_range_meters":9600,"station_id":"","pricing_plan_id":"free"},{"bike_id":"6e8b6b42-7a90-488e-a979-5fdede71a9f7","system_id":"levelo_inurba_marseille","lat":43.27996,"lon":5.416624,"is_reserved":false,"is_disabled":false,"rental_uris":{"android":"levelo://app?vid=6e8b6b42-7a90-488e-a979-5fdede71a9f7","ios":"levelo://app?vid=6e8b6b42-7a90-488e-a979-5fdede71a9f7"},"vehicle_type_id":"4","last_reported":1700593576,"current_range_meters":14000,"station_id":"ce4bho12rcd13ifvqh1g","pricing_plan_id":"free"},{"bike_id":"04bcb6df-bb21-45d0-b2a0-827a6c5e8f55","system_id":"levelo_inurba_marseille","lat":43.265734,"lon":5.39013,"is_reserved":false,"is_disabled":false,"rental_uris":{"android":"levelo://app?vid=04bcb6df-bb21-45d0-b2a0-827a6c5e8f55","ios":"levelo://app?vid=04bcb6df-bb21-45d0-b2a0-827a6c5e8f55"},"vehicle_type_id":"4","last_reported":1700593576,"current_range_meters":22800,"station_id":"ce4bhe12rcd13ifvqf30","pricing_plan_id":"free"},{"bike_id":"1f6b953e-5841-4f5b-9a7b-9e601ebef2cc","system_id":"levelo_inurba_marseille","lat":43.30798,"lon":5.4353,"is_reserved":false,"is_disabled":false,"rental_uris":{"android":"levelo://app?vid=1f6b953e-5841-4f5b-9a7b-9e601ebef2cc","ios":"levelo://app?vid=1f6b953e-5841-4f5b-9a7b-9e601ebef2cc"},"vehicle_type_id":"4","last_reported":1700593576,"current_range_meters":24000,"station_id":"ce4bhph2rcd13ifvqheg","pricing_plan_id":"free"},{"bike_id":"219abeb8-d7d5-4fe0-ba05-6b678f7b2ea9","system_id":"levelo_inurba_marseille","lat":43.26566,"lon":5.39011,"is_reserved":false,"is_disabled":false,"rental_uris":{"android":"levelo://app?vid=219abeb8-d7d5-4fe0-ba05-6b678f7b2ea9","ios":"levelo://app?vid=219abeb8-d7d5-4fe0-ba05-6b678f7b2ea9"},"vehicle_type_id":"4","last_reported":1700593576,"current_range_meters":7200,"station_id":"ce4bhe12rcd13ifvqf30","pricing_plan_id":"free"},{"bike_id":"b43af751-b90e-4f3d-a38e-1cb48838cfbf","system_id":"levelo_inurba_marseille","lat":43.265593,"lon":5.390108,"is_reserved":false,"is_disabled":false,"rental_uris":{"android":"levelo://app?vid=b43af751-b90e-4f3d-a38e-1cb48838cfbf","ios":"levelo://app?vid=b43af751-b90e-4f3d-a38e-1cb48838cfbf"},"vehicle_type_id":"4","last_reported":1700593576,"current_range_meters":22800,"station_id":"ce4bhe12rcd13ifvqf30","pricing_plan_id":"free"},{"bike_id":"49854118-5235-44c4-a940-6bfdc7c147ce","system_id":"levelo_inurba_marseille","lat":43.265599,"lon":5.390213,"is_reserved":false,"is_disabled":false,"rental_uris":{"android":"levelo://app?vid=49854118-5235-44c4-a940-6bfdc7c147ce","ios":"levelo://app?vid=49854118-5235-44c4-a940-6bfdc7c147ce"},"vehicle_type_id":"4","last_reported":1700593576,"current_range_meters":9600,"station_id":"ce4bhe12rcd13ifvqf30","pricing_plan_id":"free"},{"bike_id":"956326c6-e30a-4174-9ebf-c5d16986009b","system_id":"levelo_inurba_marseille","lat":43.269097,"lon":5.402696,"is_reserved":false,"is_disabled":false,"rental_uris":{"android":"levelo://app?vid=956326c6-e30a-4174-9ebf-c5d16986009b","ios":"levelo://app?vid=956326c6-e30a-4174-9ebf-c5d16986009b"},"vehicle_type_id":"4","last_reported":1700593576,"current_range_meters":0,"station_id":"cjm6bp8fraef2m0cb0m0","pricing_plan_id":"free"},{"bike_id":"0308a83d-2772-4a0a-8d51-b0f224382097","system_id":"levelo_inurba_marseille","lat":43.261782,"lon":5.374515,"is_reserved":false,"is_disabled":false,"rental_uris":{"android":"levelo://app?vid=0308a83d-2772-4a0a-8d51-b0f224382097","ios":"levelo://app?vid=0308a83d-2772-4a0a-8d51-b0f224382097"},"vehicle_type_id":"4","last_reported":1700593576,"current_range_meters":10000,"station_id":"ce4bhgp2rcd13ifvqfc0","pricing_plan_id":"free"},{"bike_id":"728a19e6-72e6-4282-a441-7449a88937fb","system_id":"levelo_inurba_marseille","lat":43.261782,"lon":5.374515,"is_reserved":false,"is_disabled":false,"rental_uris":{"android":"levelo://app?vid=728a19e6-72e6-4282-a441-7449a88937fb","ios":"levelo://app?vid=728a19e6-72e6-4282-a441-7449a88937fb"},"vehicle_type_id":"4","last_reported":1700593576,"current_range_meters":24400,"station_id":"ce4bhgp2rcd13ifvqfc0","pricing_plan_id":"free"},{"bike_id":"2cddf8b2-a10b-4074-9577-abfff0401706","system_id":"levelo_inurba_marseille","lat":43.317104,"lon":5.436818,"is_reserved":false,"is_disabled":false,"rental_uris":{"android":"levelo://app?vid=2cddf8b2-a10b-4074-9577-abfff0401706","ios":"levelo://app?vid=2cddf8b2-a10b-4074-9577-abfff0401706"},"vehicle_type_id":"4","last_reported":1700593576,"current_range_meters":16400,"station_id":"ce4bhp92rcd13ifvqhcg","pricing_plan_id":"free"},{"bike_id":"d5d21d9f-534b-4ecf-b092-ea0f0a9db776","system_id":"levelo_inurba_marseille","lat":43.317104,"lon":5.436818,"is_reserved":false,"is_disabled":false,"rental_uris":{"android":"levelo://app?vid=d5d21d9f-534b-4ecf-b092-ea0f0a9db776","ios":"levelo://app?vid=d5d21d9f-534b-4ecf-b092-ea0f0a9db776"},"vehicle_type_id":"4","last_reported":1700593576,"current_range_meters":20400,"station_id":"ce4bhp92rcd13ifvqhcg","pricing_plan_id":"free"},{"bike_id":"6a42fa04-2878-449c-be86-79695d941b1c","system_id":"levelo_inurba_marseille","lat":43.262012,"lon":5.379307,"is_reserved":false,"is_disabled":false,"rental_uris":{"android":"levelo://app?vid=6a42fa04-2878-449c-be86-79695d941b1c","ios":"levelo://app?vid=6a42fa04-2878-449c-be86-79695d941b1c"},"vehicle_type_id":"4","last_reported":1700593576,"current_range_meters":19600,"station_id":"ce4bhjp2rcd13ifvqg90","pricing_plan_id":"free"},{"bike_id":"1b901329-a95c-4dd3-a509-146900733f8b","system_id":"levelo_inurba_marseille","lat":43.26202,"lon":5.379299,"is_reserved":false,"is_disabled":false,"rental_uris":{"android":"levelo://app?vid=1b901329-a95c-4dd3-a509-146900733f8b","ios":"levelo://app?vid=1b901329-a95c-4dd3-a509-146900733f8b"},"vehicle_type_id":"4","last_reported":1700593576,"current_range_meters":2000,"station_id":"ce4bhjp2rcd13ifvqg90","pricing_plan_id":"free"},{"bike_id":"31acfcd2-6041-4410-a6ba-d68151b89e57","system_id":"levelo_inurba_marseille","lat":43.26202,"lon":5.379299,"is_reserved":false,"is_disabled":false,"rental_uris":{"android":"levelo://app?vid=31acfcd2-6041-4410-a6ba-d68151b89e57","ios":"levelo://app?vid=31acfcd2-6041-4410-a6ba-d68151b89e57"},"vehicle_type_id":"4","last_reported":1700593576,"current_range_meters":10400,"station_id":"ce4bhjp2rcd13ifvqg90","pricing_plan_id":"free"},{"bike_id":"cb16d7ee-4d8d-44c4-bc7a-142b1234ab63","system_id":"levelo_inurba_marseille","lat":43.31725,"lon":5.43786,"is_reserved":false,"is_disabled":false,"rental_uris":{"android":"levelo://app?vid=cb16d7ee-4d8d-44c4-bc7a-142b1234ab63","ios":"levelo://app?vid=cb16d7ee-4d8d-44c4-bc7a-142b1234ab63"},"vehicle_type_id":"4","last_reported":1700593576,"current_range_meters":6000,"station_id":"","pricing_plan_id":"free"},{"bike_id":"04bb3993-7df0-4611-b671-63861d1ec3cc","system_id":"levelo_inurba_marseille","lat":43.26419,"lon":5.39216,"is_reserved":false,"is_disabled":false,"rental_uris":{"android":"levelo://app?vid=04bb3993-7df0-4611-b671-63861d1ec3cc","ios":"levelo://app?vid=04bb3993-7df0-4611-b671-63861d1ec3cc"},"vehicle_type_id":"4","last_reported":1700593576,"current_range_meters":26800,"station_id":"","pricing_plan_id":"free"},{"bike_id":"49a31422-5d81-4e67-953b-55705c98f239","system_id":"levelo_inurba_marseille","lat":43.279688,"lon":5.422398,"is_reserved":false,"is_disabled":false,"rental_uris":{"android":"levelo://app?vid=49a31422-5d81-4e67-953b-55705c98f239","ios":"levelo://app?vid=49a31422-5d81-4e67-953b-55705c98f239"},"vehicle_type_id":"4","last_reported":1700593576,"current_range_meters":28400,"station_id":"","pricing_plan_id":"free"},{"bike_id":"6b8cd555-dbb1-421d-b9b4-a57dcb241750","system_id":"levelo_inurba_marseille","lat":43.26032,"lon":5.37549,"is_reserved":false,"is_disabled":false,"rental_uris":{"android":"levelo://app?vid=6b8cd555-dbb1-421d-b9b4-a57dcb241750","ios":"levelo://app?vid=6b8cd555-dbb1-421d-b9b4-a57dcb241750"},"vehicle_type_id":"4","last_reported":1700593576,"current_range_meters":0,"station_id":"ce4bhgh2rcd13ifvqfa0","pricing_plan_id":"free"},{"bike_id":"14cc22df-10e8-431a-b9ea-3a6a35542e1e","system_id":"levelo_inurba_marseille","lat":43.28157,"lon":5.42644,"is_reserved":false,"is_disabled":false,"rental_uris":{"android":"levelo://app?vid=14cc22df-10e8-431a-b9ea-3a6a35542e1e","ios":"levelo://app?vid=14cc22df-10e8-431a-b9ea-3a6a35542e1e"},"vehicle_type_id":"4","last_reported":1700593576,"current_range_meters":4800,"station_id":"ce4bhnh2rcd13ifvqgug","pricing_plan_id":"free"},{"bike_id":"5acbf7cb-ea00-464e-8128-9afe6083c939","system_id":"levelo_inurba_marseille","lat":43.281548,"lon":5.42643,"is_reserved":false,"is_disabled":false,"rental_uris":{"android":"levelo://app?vid=5acbf7cb-ea00-464e-8128-9afe6083c939","ios":"levelo://app?vid=5acbf7cb-ea00-464e-8128-9afe6083c939"},"vehicle_type_id":"4","last_reported":1700593576,"current_range_meters":31200,"station_id":"ce4bhnh2rcd13ifvqgug","pricing_plan_id":"free"},{"bike_id":"ab35eb20-0e8d-4239-a5be-9256346146d4","system_id":"levelo_inurba_marseille","lat":43.2607,"lon":5.393983,"is_reserved":false,"is_disabled":false,"rental_uris":{"android":"levelo://app?vid=ab35eb20-0e8d-4239-a5be-9256346146d4","ios":"levelo://app?vid=ab35eb20-0e8d-4239-a5be-9256346146d4"},"vehicle_type_id":"4","last_reported":1700593576,"current_range_meters":19600,"station_id":"ce4bhh92rcd13ifvqfj0","pricing_plan_id":"free"},{"bike_id":"852f279e-fc4a-44c5-81d1-301450d2845f","system_id":"levelo_inurba_marseille","lat":43.2607,"lon":5.393983,"is_reserved":false,"is_disabled":false,"rental_uris":{"android":"levelo://app?vid=852f279e-fc4a-44c5-81d1-301450d2845f","ios":"levelo://app?vid=852f279e-fc4a-44c5-81d1-301450d2845f"},"vehicle_type_id":"4","last_reported":1700593576,"current_range_meters":31200,"station_id":"ce4bhh92rcd13ifvqfj0","pricing_plan_id":"free"},{"bike_id":"6556250c-cbc9-480b-9850-f58687691026","system_id":"levelo_inurba_marseille","lat":43.2607,"lon":5.393983,"is_reserved":false,"is_disabled":false,"rental_uris":{"android":"levelo://app?vid=6556250c-cbc9-480b-9850-f58687691026","ios":"levelo://app?vid=6556250c-cbc9-480b-9850-f58687691026"},"vehicle_type_id":"4","last_reported":1700593576,"current_range_meters":26800,"station_id":"ce4bhh92rcd13ifvqfj0","pricing_plan_id":"free"},{"bike_id":"97920773-5280-4204-a22f-713ac82f3ed3","system_id":"levelo_inurba_marseille","lat":43.275028,"lon":5.424534,"is_reserved":false,"is_disabled":false,"rental_uris":{"android":"levelo://app?vid=97920773-5280-4204-a22f-713ac82f3ed3","ios":"levelo://app?vid=97920773-5280-4204-a22f-713ac82f3ed3"},"vehicle_type_id":"4","last_reported":1700593576,"current_range_meters":6800,"station_id":"ce4bhn92rcd13ifvqgrg","pricing_plan_id":"free"},{"bike_id":"6b188708-9907-4cc6-a7fa-bcdecbd5a74b","system_id":"levelo_inurba_marseille","lat":43.27495,"lon":5.42454,"is_reserved":false,"is_disabled":false,"rental_uris":{"android":"levelo://app?vid=6b188708-9907-4cc6-a7fa-bcdecbd5a74b","ios":"levelo://app?vid=6b188708-9907-4cc6-a7fa-bcdecbd5a74b"},"vehicle_type_id":"4","last_reported":1700593576,"current_range_meters":4800,"station_id":"ce4bhn92rcd13ifvqgrg","pricing_plan_id":"free"},{"bike_id":"95101c20-e4ab-45b6-ad05-40b3d1e87165","system_id":"levelo_inurba_marseille","lat":43.26083,"lon":5.39767,"is_reserved":false,"is_disabled":false,"rental_uris":{"android":"levelo://app?vid=95101c20-e4ab-45b6-ad05-40b3d1e87165","ios":"levelo://app?vid=95101c20-e4ab-45b6-ad05-40b3d1e87165"},"vehicle_type_id":"4","last_reported":1700593576,"current_range_meters":0,"station_id":"ce4bhi12rcd13ifvqfq0","pricing_plan_id":"free"},{"bike_id":"bb8bd311-8509-474d-a45a-e9263ac43b24","system_id":"levelo_inurba_marseille","lat":43.25587,"lon":5.38231,"is_reserved":false,"is_disabled":false,"rental_uris":{"android":"levelo://app?vid=bb8bd311-8509-474d-a45a-e9263ac43b24","ios":"levelo://app?vid=bb8bd311-8509-474d-a45a-e9263ac43b24"},"vehicle_type_id":"4","last_reported":1700593576,"current_range_meters":8400,"station_id":"ce4bhih2rcd13ifvqfs0","pricing_plan_id":"free"},{"bike_id":"5ec0f2b8-e609-4ba3-a090-631fee48e481","system_id":"levelo_inurba_marseille","lat":43.25584,"lon":5.38242,"is_reserved":false,"is_disabled":false,"rental_uris":{"android":"levelo://app?vid=5ec0f2b8-e609-4ba3-a090-631fee48e481","ios":"levelo://app?vid=5ec0f2b8-e609-4ba3-a090-631fee48e481"},"vehicle_type_id":"4","last_reported":1700593576,"current_range_meters":25600,"station_id":"ce4bhih2rcd13ifvqfs0","pricing_plan_id":"free"},{"bike_id":"83f83ba7-1db3-4b0b-a523-87f8cd4b49c1","system_id":"levelo_inurba_marseille","lat":43.25584,"lon":5.38246,"is_reserved":false,"is_disabled":false,"rental_uris":{"android":"levelo://app?vid=83f83ba7-1db3-4b0b-a523-87f8cd4b49c1","ios":"levelo://app?vid=83f83ba7-1db3-4b0b-a523-87f8cd4b49c1"},"vehicle_type_id":"4","last_reported":1700593576,"current_range_meters":15200,"station_id":"ce4bhih2rcd13ifvqfs0","pricing_plan_id":"free"},{"bike_id":"9fb33827-24d6-460c-83e1-62ba6447884a","system_id":"levelo_inurba_marseille","lat":43.25827,"lon":5.39436,"is_reserved":false,"is_disabled":false,"rental_uris":{"android":"levelo://app?vid=9fb33827-24d6-460c-83e1-62ba6447884a","ios":"levelo://app?vid=9fb33827-24d6-460c-83e1-62ba6447884a"},"vehicle_type_id":"4","last_reported":1700593576,"current_range_meters":24400,"station_id":"ce4bhip2rcd13ifvqft0","pricing_plan_id":"free"},{"bike_id":"72fee5f0-f3dd-4ab9-b919-6c8b76837eb4","system_id":"levelo_inurba_marseille","lat":43.25582,"lon":5.38243,"is_reserved":false,"is_disabled":false,"rental_uris":{"android":"levelo://app?vid=72fee5f0-f3dd-4ab9-b919-6c8b76837eb4","ios":"levelo://app?vid=72fee5f0-f3dd-4ab9-b919-6c8b76837eb4"},"vehicle_type_id":"4","last_reported":1700593576,"current_range_meters":24000,"station_id":"ce4bhih2rcd13ifvqfs0","pricing_plan_id":"free"},{"bike_id":"eb6a2f95-23fa-49ba-857a-6c67855d5597","system_id":"levelo_inurba_marseille","lat":43.255803,"lon":5.382343,"is_reserved":false,"is_disabled":false,"rental_uris":{"android":"levelo://app?vid=eb6a2f95-23fa-49ba-857a-6c67855d5597","ios":"levelo://app?vid=eb6a2f95-23fa-49ba-857a-6c67855d5597"},"vehicle_type_id":"4","last_reported":1700593576,"current_range_meters":26400,"station_id":"ce4bhih2rcd13ifvqfs0","pricing_plan_id":"free"},{"bike_id":"9648f353-bf58-4aaf-859a-6e0479e4429f","system_id":"levelo_inurba_marseille","lat":43.25581,"lon":5.38242,"is_reserved":false,"is_disabled":false,"rental_uris":{"android":"levelo://app?vid=9648f353-bf58-4aaf-859a-6e0479e4429f","ios":"levelo://app?vid=9648f353-bf58-4aaf-859a-6e0479e4429f"},"vehicle_type_id":"4","last_reported":1700593576,"current_range_meters":8800,"station_id":"ce4bhih2rcd13ifvqfs0","pricing_plan_id":"free"},{"bike_id":"1d555075-2e4c-4be9-bf12-7adb9f58e1e0","system_id":"levelo_inurba_marseille","lat":43.258224,"lon":5.394369,"is_reserved":false,"is_disabled":false,"rental_uris":{"android":"levelo://app?vid=1d555075-2e4c-4be9-bf12-7adb9f58e1e0","ios":"levelo://app?vid=1d555075-2e4c-4be9-bf12-7adb9f58e1e0"},"vehicle_type_id":"4","last_reported":1700593576,"current_range_meters":15200,"station_id":"ce4bhip2rcd13ifvqft0","pricing_plan_id":"free"},{"bike_id":"9285388a-945f-454f-9a16-7d04ca86359d","system_id":"levelo_inurba_marseille","lat":43.25579,"lon":5.38241,"is_reserved":false,"is_disabled":false,"rental_uris":{"android":"levelo://app?vid=9285388a-945f-454f-9a16-7d04ca86359d","ios":"levelo://app?vid=9285388a-945f-454f-9a16-7d04ca86359d"},"vehicle_type_id":"4","last_reported":1700593576,"current_range_meters":14800,"station_id":"ce4bhih2rcd13ifvqfs0","pricing_plan_id":"free"},{"bike_id":"1b4dd9ba-0d6d-4fb0-8a0d-76bcc3c6a51a","system_id":"levelo_inurba_marseille","lat":43.25578,"lon":5.38243,"is_reserved":false,"is_disabled":false,"rental_uris":{"android":"levelo://app?vid=1b4dd9ba-0d6d-4fb0-8a0d-76bcc3c6a51a","ios":"levelo://app?vid=1b4dd9ba-0d6d-4fb0-8a0d-76bcc3c6a51a"},"vehicle_type_id":"4","last_reported":1700593576,"current_range_meters":22400,"station_id":"ce4bhih2rcd13ifvqfs0","pricing_plan_id":"free"},{"bike_id":"6eab341d-91d4-4d61-9ba7-852e641561a0","system_id":"levelo_inurba_marseille","lat":43.258224,"lon":5.394369,"is_reserved":false,"is_disabled":false,"rental_uris":{"android":"levelo://app?vid=6eab341d-91d4-4d61-9ba7-852e641561a0","ios":"levelo://app?vid=6eab341d-91d4-4d61-9ba7-852e641561a0"},"vehicle_type_id":"4","last_reported":1700593576,"current_range_meters":30000,"station_id":"ce4bhip2rcd13ifvqft0","pricing_plan_id":"free"},{"bike_id":"a89bbdc1-4a69-4b9c-a476-c3622c27e7ea","system_id":"levelo_inurba_marseille","lat":43.270721,"lon":5.422764,"is_reserved":false,"is_disabled":false,"rental_uris":{"android":"levelo://app?vid=a89bbdc1-4a69-4b9c-a476-c3622c27e7ea","ios":"levelo://app?vid=a89bbdc1-4a69-4b9c-a476-c3622c27e7ea"},"vehicle_type_id":"4","last_reported":1700593576,"current_range_meters":400,"station_id":"ce4bhk92rcd13ifvqgb0","pricing_plan_id":"free"},{"bike_id":"6d910da9-9008-4276-bac5-b2703e7d9ef0","system_id":"levelo_inurba_marseille","lat":43.270721,"lon":5.422764,"is_reserved":false,"is_disabled":false,"rental_uris":{"android":"levelo://app?vid=6d910da9-9008-4276-bac5-b2703e7d9ef0","ios":"levelo://app?vid=6d910da9-9008-4276-bac5-b2703e7d9ef0"},"vehicle_type_id":"4","last_reported":1700593576,"current_range_meters":18800,"station_id":"ce4bhk92rcd13ifvqgb0","pricing_plan_id":"free"},{"bike_id":"0b1864fd-bb54-4e71-a69a-988e0a4658d9","system_id":"levelo_inurba_marseille","lat":43.2707,"lon":5.42284,"is_reserved":false,"is_disabled":false,"rental_uris":{"android":"levelo://app?vid=0b1864fd-bb54-4e71-a69a-988e0a4658d9","ios":"levelo://app?vid=0b1864fd-bb54-4e71-a69a-988e0a4658d9"},"vehicle_type_id":"4","last_reported":1700593576,"current_range_meters":400,"station_id":"ce4bhk92rcd13ifvqgb0","pricing_plan_id":"free"},{"bike_id":"cfdc423c-18ac-4b18-badc-13e244b42e4a","system_id":"levelo_inurba_marseille","lat":43.269663,"lon":5.42154,"is_reserved":false,"is_disabled":false,"rental_uris":{"android":"levelo://app?vid=cfdc423c-18ac-4b18-badc-13e244b42e4a","ios":"levelo://app?vid=cfdc423c-18ac-4b18-badc-13e244b42e4a"},"vehicle_type_id":"4","last_reported":1700593576,"current_range_meters":14800,"station_id":"","pricing_plan_id":"free"},{"bike_id":"1c21622e-8f5e-49ae-b48f-a3aef927f94e","system_id":"levelo_inurba_marseille","lat":43.258658,"lon":5.398935,"is_reserved":false,"is_disabled":false,"rental_uris":{"android":"levelo://app?vid=1c21622e-8f5e-49ae-b48f-a3aef927f94e","ios":"levelo://app?vid=1c21622e-8f5e-49ae-b48f-a3aef927f94e"},"vehicle_type_id":"4","last_reported":1700593576,"current_range_meters":12000,"station_id":"ce4bhl92rcd13ifvqghg","pricing_plan_id":"free"},{"bike_id":"2b082f02-bd7b-45f7-a402-0ea0e3d029d4","system_id":"levelo_inurba_marseille","lat":43.25932,"lon":5.40909,"is_reserved":false,"is_disabled":false,"rental_uris":{"android":"levelo://app?vid=2b082f02-bd7b-45f7-a402-0ea0e3d029d4","ios":"levelo://app?vid=2b082f02-bd7b-45f7-a402-0ea0e3d029d4"},"vehicle_type_id":"4","last_reported":1700593576,"current_range_meters":0,"station_id":"ce4bhm92rcd13ifvqglg","pricing_plan_id":"free"},{"bike_id":"dde4d43f-1d61-4c9c-94ab-061d06f6d1bb","system_id":"levelo_inurba_marseille","lat":43.259013,"lon":5.409301,"is_reserved":false,"is_disabled":false,"rental_uris":{"android":"levelo://app?vid=dde4d43f-1d61-4c9c-94ab-061d06f6d1bb","ios":"levelo://app?vid=dde4d43f-1d61-4c9c-94ab-061d06f6d1bb"},"vehicle_type_id":"4","last_reported":1700593576,"current_range_meters":7600,"station_id":"ce4bhm92rcd13ifvqglg","pricing_plan_id":"free"},{"bike_id":"cd3b204d-6773-4aa6-91b4-d0cfb0d8a37b","system_id":"levelo_inurba_marseille","lat":43.27967,"lon":5.44203,"is_reserved":false,"is_disabled":false,"rental_uris":{"android":"levelo://app?vid=cd3b204d-6773-4aa6-91b4-d0cfb0d8a37b","ios":"levelo://app?vid=cd3b204d-6773-4aa6-91b4-d0cfb0d8a37b"},"vehicle_type_id":"4","last_reported":1700593576,"current_range_meters":9600,"station_id":"","pricing_plan_id":"free"},{"bike_id":"eedf2e51-beb6-448c-9be8-f02e29717301","system_id":"levelo_inurba_marseille","lat":43.257079,"lon":5.411051,"is_reserved":false,"is_disabled":false,"rental_uris":{"android":"levelo://app?vid=eedf2e51-beb6-448c-9be8-f02e29717301","ios":"levelo://app?vid=eedf2e51-beb6-448c-9be8-f02e29717301"},"vehicle_type_id":"4","last_reported":1700593576,"current_range_meters":32000,"station_id":"ce4bhkp2rcd13ifvqgd0","pricing_plan_id":"free"},