{"last_updated":1753254980,"ttl":60,"version":"2.2","data":{"bikes":[{"bike_id":"f966c54a-c1c8-483c-aa9c-d4a51425ed75","system_id":"levelo_inurba_marseille","lat":43.29567,"lon":5.37503,"is_reserved":false,"is_disabled":false,"rental_uris":{"android":"levelo://app?vid=f966c54a-c1c8-483c-aa9c-d4a51425ed75","ios":"levelo://app?vid=f966c54a-c1c8-483c-aa9c-d4a51425ed75"},"vehicle_type_id":"4","last_reported":1753254980,"current_range_meters":2800,"station_id":"ce4bgh92rcd13ifvqb50","pricing_plan_id":"cebpf4jnsgd1na2vs0mg"},{"bike_id":"aa279ece-9864-4a7e-8c2f-ee7d01548ac4","system_id":"levelo_inurba_marseille","lat":43.26507,"lon":5.39533,"is_reserved":false,"is_disabled":false,"rental_uris":{"android":"levelo://app?vid=aa279ece-9864-4a7e-8c2f-ee7d01548ac4","ios":"levelo://app?vid=aa279ece-9864-4a7e-8c2f-ee7d01548ac4"},"vehicle_type_id":"4","last_reported":1753254980,"current_range_meters":2800,"station_id":"ce4bhi12rcd13ifvqfq0","pricing_plan_id":"cebpf4jnsgd1na2vs0mg"},{"bike_id":"cf44af78-d4e0-4e8c-b0fe-5f5a03fff5c6","system_id":"levelo_inurba_marseille","lat":43.31363,"lon":5.36689,"is_reserved":false,"is_disabled":false,"rental_uris":{"android":"levelo://app?vid=cf44af78-d4e0-4e8c-b0fe-5f5a03fff5c6","ios":"levelo://app?vid=cf44af78-d4e0-4e8c-b0fe-5f5a03fff5c6"},"vehicle_type_id":"4","last_reported":1753254980,"current_range_meters":2800,"station_id":"ce4bgr92rcd13ifvqc6g","pricing_plan_id":"cebpf4jnsgd1na2vs0mg"},{"bike_id":"d38fe89e-551a-4c70-a09e-96485c5ee847","system_id":"levelo_inurba_marseille","lat":43.24789,"lon":5.37444,"is_reserved":false,"is_disabled":false,"rental_uris":{"android":"levelo://app?vid=d38fe89e-551a-4c70-a09e-96485c5ee847","ios":"levelo://app?vid=d38fe89e-551a-4c70-a09e-96485c5ee847"},"vehicle_type_id":"4","last_reported":1753254980,"current_range_meters":2800,"station_id":"ce4bhgh2rcd13ifvqfb0","pricing_plan_id":"cebpf4jnsgd1na2vs0mg"},{"bike_id":"88282109-afe5-4285-8ab8-2e2400ae19e6","system_id":"levelo_inurba_marseille","lat":43.29495,"lon":5.38178,"is_reserved":false,"is_disabled":false,"rental_uris":{"android":"levelo://app?vid=88282109-afe5-4285-8ab8-2e2400ae19e6","ios":"levelo://app?vid=88282109-afe5-4285-8ab8-2e2400ae19e6"},"vehicle_type_id":"4","last_reported":1753254980,"current_range_meters":3200,"station_id":"","pricing_plan_id":"cebpf4jnsgd1na2vs0mg"},{"bike_id":"a8155146-4065-4d00-9b0b-caf6ce38fc0e","system_id":"levelo_inurba_marseille","lat":43.3014,"lon":5.37416,"is_reserved":false,"is_disabled":false,"rental_uris":{"android":"levelo://app?vid=a8155146-4065-4d00-9b0b-caf6ce38fc0e","ios":"levelo://app?vid=a8155146-4065-4d00-9b0b-caf6ce38fc0e"},"vehicle_type_id":"4","last_reported":1753254980,"current_range_meters":3600,"station_id":"ce4bgs92rcd13ifvqcc0","pricing_plan_id":"cebpf4jnsgd1na2vs0mg"},{"bike_id":"374764e9-1483-4c39-a939-2017d46b717a","system_id":"levelo_inurba_marseille","lat":43.280406,"lon":5.350099,"is_reserved":false,"is_disabled":false,"rental_uris":{"android":"levelo://app?vid=374764e9-1483-4c39-a939-2017d46b717a","ios":"levelo://app?vid=374764e9-1483-4c39-a939-2017d46b717a"},"vehicle_type_id":"4","last_reported":1753254980,"current_range_meters":3600,"station_id":"","pricing_plan_id":"cebpf4jnsgd1na2vs0mg"},{"bike_id":"fdc68a9e-7acb-4258-9c62-81770066d1bc","system_id":"levelo_inurba_marseille","lat":43.27916,"lon":5.39577,"is_reserved":false,"is_disabled":false,"rental_uris":{"android":"levelo://app?vid=fdc68a9e-7acb-4258-9c62-81770066d1bc","ios":"levelo://app?vid=fdc68a9e-7acb-4258-9c62-81770066d1bc"},"vehicle_type_id":"4","last_reported":1753254980,"current_range_meters":4000,"station_id":"ce4bhf92rcd13ifvqf40","pricing_plan_id":"cebpf4jnsgd1na2vs0mg"},{"bike_id":"0f69e67c-2f40-4806-9a1c-0b483e2d5ccd","system_id":"levelo_inurba_marseille","lat":43.23209,"lon":5.35552,"is_reserved":false,"is_disabled":false,"rental_uris":{"android":"levelo://app?vid=0f69e67c-2f40-4806-9a1c-0b483e2d5ccd","ios":"levelo://app?vid=0f69e67c-2f40-4806-9a1c-0b483e2d5ccd"},"vehicle_type_id":"4","last_reported":1753254980,"current_range_meters":4400,"station_id":"ce4bhu92rcd13ifvqi70","pricing_plan_id":"cebpf4jnsgd1na2vs0mg"},{"bike_id":"a30c148c-f24d-4612-ae4a-81b167aeb00f","system_id":"levelo_inurba_marseille","lat":43.24386,"lon":5.37054,"is_reserved":false,"is_disabled":false,"rental_uris":{"android":"levelo://app?vid=a30c148c-f24d-4612-ae4a-81b167aeb00f","ios":"levelo://app?vid=a30c148c-f24d-4612-ae4a-81b167aeb00f"},"vehicle_type_id":"4","last_reported":1753254980,"current_range_meters":4400,"station_id":"ce4bhhh2rcd13ifvqfk0","pricing_plan_id":"cebpf4jnsgd1na2vs0mg"},{"bike_id":"42413a25-16d1-4419-b44a-45580e0c6ac6","system_id":"levelo_inurba_marseille","lat":43.33752,"lon":5.37487,"is_reserved":false,"is_disabled":false,"rental_uris":{"android":"levelo://app?vid=42413a25-16d1-4419-b44a-45580e0c6ac6","ios":"levelo://app?vid=42413a25-16d1-4419-b44a-45580e0c6ac6"},"vehicle_type_id":"4","last_reported":1753254980,"current_range_meters":4800,"station_id":"","pricing_plan_id":"cebpf4jnsgd1na2vs0mg"},{"bike_id":"2c0ed704-b5ff-4cc7-adcc-63eb55bed452","system_id":"levelo_inurba_marseille","lat":43.30528,"lon":5.36709,"is_reserved":false,"is_disabled":false,"rental_uris":{"android":"levelo://app?vid=2c0ed704-b5ff-4cc7-adcc-63eb55bed452","ios":"levelo://app?vid=2c0ed704-b5ff-4cc7-adcc-63eb55bed452"},"vehicle_type_id":"4","last_reported":1753254980,"current_range_meters":4800,"station_id":"ce4bgrp2rcd13ifvqc9g","pricing_plan_id":"cebpf4jnsgd1na2vs0mg"},{"bike_id":"4b369bbe-c828-4ced-9b4a-f483aec235a9","system_id":"levelo_inurba_marseille","lat":43.2927,"lon":5.36841,"is_reserved":false,"is_disabled":false,"rental_uris":{"android":"levelo://app?vid=4b369bbe-c828-4ced-9b4a-f483aec235a9","ios":"levelo://app?vid=4b369bbe-c828-4ced-9b4a-f483aec235a9"},"vehicle_type_id":"4","last_reported":1753254980,"current_range_meters":4800,"station_id":"ce4bhbp2rcd13ifvqesg","pricing_plan_id":"cebpf4jnsgd1na2vs0mg"},{"bike_id":"0efa8085-4f4f-4aa3-97f0-c4307636d2d1","system_id":"levelo_inurba_marseille","lat":43.2731,"lon":5.3907,"is_reserved":false,"is_disabled":false,"rental_uris":{"android":"levelo://app?vid=0efa8085-4f4f-4aa3-97f0-c4307636d2d1","ios":"levelo://app?vid=0efa8085-4f4f-4aa3-97f0-c4307636d2d1"},"vehicle_type_id":"4","last_reported":1753254980,"current_range_meters":4400,"station_id":"ce4bhgp2rcd13ifvqfe0","pricing_plan_id":"cebpf4jnsgd1na2vs0mg"},{"bike_id":"288e40f1-8fbf-4748-a95b-1be5b48bdbe8","system_id":"levelo_inurba_marseille","lat":43.28934,"lon":5.36624,"is_reserved":false,"is_disabled":true,"rental_uris":{"android":"levelo://app?vid=288e40f1-8fbf-4748-a95b-1be5b48bdbe8","ios":"levelo://app?vid=288e40f1-8fbf-4748-a95b-1be5b48bdbe8"},"vehicle_type_id":"4","last_reported":1753254980,"current_range_meters":4800,"station_id":"ce4bhap2rcd13ifvqek0","pricing_plan_id":"cebpf4jnsgd1na2vs0mg"},{"bike_id":"41183c52-af6f-4429-980d-37966852a9a8","system_id":"levelo_inurba_marseille","lat":43.29046,"lon":5.39949,"is_reserved":false,"is_disabled":false,"rental_uris":{"android":"levelo://app?vid=41183c52-af6f-4429-980d-37966852a9a8","ios":"levelo://app?vid=41183c52-af6f-4429-980d-37966852a9a8"},"vehicle_type_id":"4","last_reported":1753254980,"current_range_meters":5600,"station_id":"ce4bh392rcd13ifvqdm0","pricing_plan_id":"cebpf4jnsgd1na2vs0mg"},{"bike_id":"51102329-c7ca-45fd-8362-598a7c7fd5fd","system_id":"levelo_inurba_marseille","lat":43.31368,"lon":5.36718,"is_reserved":false,"is_disabled":false,"rental_uris":{"android":"levelo://app?vid=51102329-c7ca-45fd-8362-598a7c7fd5fd","ios":"levelo://app?vid=51102329-c7ca-45fd-8362-598a7c7fd5fd"},"vehicle_type_id":"4","last_reported":1753254980,"current_range_meters":6000,"station_id":"ce4bgr92rcd13ifvqc6g","pricing_plan_id":"cebpf4jnsgd1na2vs0mg"},{"bike_id":"3808bbbc-bf71-4de1-97ee-2481d526b56a","system_id":"levelo_inurba_marseille","lat":43.270687,"lon":5.422765,"is_reserved":false,"is_disabled":true,"rental_uris":{"android":"levelo://app?vid=3808bbbc-bf71-4de1-97ee-2481d526b56a","ios":"levelo://app?vid=3808bbbc-bf71-4de1-97ee-2481d526b56a"},"vehicle_type_id":"4","last_reported":1753254980,"current_range_meters":6000,"station_id":"ce4bhk92rcd13ifvqgb0","pricing_plan_id":"cebpf4jnsgd1na2vs0mg"},{"bike_id":"291026d9-5e70-4457-9891-0439b760e53a","system_id":"levelo_inurba_marseille","lat":43.262157,"lon":5.374383,"is_reserved":false,"is_disabled":false,"rental_uris":{"android":"levelo://app?vid=291026d9-5e70-4457-9891-0439b760e53a","ios":"levelo://app?vid=291026d9-5e70-4457-9891-0439b760e53a"},"vehicle_type_id":"4","last_reported":1753254980,"current_range_meters":6000,"station_id":"ce4bhgp2rcd13ifvqfc0","pricing_plan_id":"cebpf4jnsgd1na2vs0mg"},{"bike_id":"f81d648c-1981-4daf-be99-4792234208b2","system_id":"levelo_inurba_marseille","lat":43.26263,"lon":5.37176,"is_reserved":false,"is_disabled":false,"rental_uris":{"android":"levelo://app?vid=f81d648c-1981-4daf-be99-4792234208b2","ios":"levelo://app?vid=f81d648c-1981-4daf-be99-4792234208b2"},"vehicle_type_id":"4","last_reported":1753254980,"current_range_meters":6400,"station_id":"","pricing_plan_id":"cebpf4jnsgd1na2vs0mg"},{"bike_id":"e3844eda-b7bf-461d-993c-5a8b250c5763","system_id":"levelo_inurba_marseille","lat":43.29788,"lon":5.37099,"is_reserved":false,"is_disabled":false,"rental_uris":{"android":"levelo://app?vid=e3844eda-b7bf-461d-993c-5a8b250c5763","ios":"levelo://app?vid=e3844eda-b7bf-461d-993c-5a8b250c5763"},"vehicle_type_id":"4","last_reported":1753254980,"current_range_meters":6400,"station_id":"ce4bgop2rcd13ifvqc1g","pricing_plan_id":"cebpf4jnsgd1na2vs0mg"},{"bike_id":"64507030-c9df-4d6f-9cfb-3f98a21eb09f","system_id":"levelo_inurba_marseille","lat":43.280349,"lon":5.369367,"is_reserved":false,"is_disabled":false,"rental_uris":{"android":"levelo://app?vid=64507030-c9df-4d6f-9cfb-3f98a21eb09f","ios":"levelo://app?vid=64507030-c9df-4d6f-9cfb-3f98a21eb09f"},"vehicle_type_id":"4","last_reported":1753254980,"current_range_meters":6800,"station_id":"ce4bha12rcd13ifvqef0","pricing_plan_id":"cebpf4jnsgd1na2vs0mg"},{"bike_id":"f0829748-f23c-40ad-827c-e9f4c956263d","system_id":"levelo_inurba_marseille","lat":43.3091,"lon":5.36842,"is_reserved":false,"is_disabled":false,"rental_uris":{"android":"levelo://app?vid=f0829748-f23c-40ad-827c-e9f4c956263d","ios":"levelo://app?vid=f0829748-f23c-40ad-827c-e9f4c956263d"},"vehicle_type_id":"4","last_reported":1753254980,"current_range_meters":6800,"station_id":"ce4bgn92rcd13ifvqbvg","pricing_plan_id":"cebpf4jnsgd1na2vs0mg"},{"bike_id":"bbeb59ee-7469-4891-af32-15a7fdc6bd8a","system_id":"levelo_inurba_marseille","lat":43.290405,"lon":5.39966,"is_reserved":false,"is_disabled":false,"rental_uris":{"android":"levelo://app?vid=bbeb59ee-7469-4891-af32-15a7fdc6bd8a","ios":"levelo://app?vid=bbeb59ee-7469-4891-af32-15a7fdc6bd8a"},"vehicle_type_id":"4","last_reported":1753254980,"current_range_meters":6800,"station_id":"ce4bh392rcd13ifvqdm0","pricing_plan_id":"cebpf4jnsgd1na2vs0mg"},{"bike_id":"bc8e8184-a6af-4eda-9557-7e503f0c793c","system_id":"levelo_inurba_marseille","lat":43.24169,"lon":5.39698,"is_reserved":false,"is_disabled":true,"rental_uris":{"android":"levelo://app?vid=bc8e8184-a6af-4eda-9557-7e503f0c793c","ios":"levelo://app?vid=bc8e8184-a6af-4eda-9557-7e503f0c793c"},"vehicle_type_id":"4","last_reported":1753254980,"current_range_meters":6800,"station_id":"ce4bhn12rcd13ifvqgpg","pricing_plan_id":"cebpf4jnsgd1na2vs0mg"},{"bike_id":"e4761578-ae86-4dfa-b146-0428e5d8cca7","system_id":"levelo_inurba_marseille","lat":43.24174,"lon":5.36408,"is_reserved":false,"is_disabled":false,"rental_uris":{"android":"levelo://app?vid=e4761578-ae86-4dfa-b146-0428e5d8cca7","ios":"levelo://app?vid=e4761578-ae86-4dfa-b146-0428e5d8cca7"},"vehicle_type_id":"4","last_reported":1753254980,"current_range_meters":7200,"station_id":"cpo36qri1sfpv3e86is0","pricing_plan_id":"cebpf4jnsgd1na2vs0mg"},{"bike_id":"d10de997-bbcb-4803-822f-9e6da8fb6ea5","system_id":"levelo_inurba_marseille","lat":43.310361,"lon":5.367658,"is_reserved":false,"is_disabled":false,"rental_uris":{"android":"levelo://app?vid=d10de997-bbcb-4803-822f-9e6da8fb6ea5","ios":"levelo://app?vid=d10de997-bbcb-4803-822f-9e6da8fb6ea5"},"vehicle_type_id":"4","last_reported":1753254980,"current_range_meters":7200,"station_id":"ce4bgr92rcd13ifvqc6g","pricing_plan_id":"cebpf4jnsgd1na2vs0mg"},{"bike_id":"02af0b2a-e558-4a5f-b0a7-0d930f359c78","system_id":"levelo_inurba_marseille","lat":43.26685,"lon":5.38265,"is_reserved":false,"is_disabled":false,"rental_uris":{"android":"levelo://app?vid=02af0b2a-e558-4a5f-b0a7-0d930f359c78","ios":"levelo://app?vid=02af0b2a-e558-4a5f-b0a7-0d930f359c78"},"vehicle_type_id":"4","last_reported":1753254980,"current_range_meters":7200,"station_id":"ce4bhg92rcd13ifvqf90","pricing_plan_id":"cebpf4jnsgd1na2vs0mg"},{"bike_id":"0f78d90b-d3e6-4c57-ae4b-8c63e5d0cdd1","system_id":"levelo_inurba_marseille","lat":43.24181,"lon":5.39724,"is_reserved":false,"is_disabled":false,"rental_uris":{"android":"levelo://app?vid=0f78d90b-d3e6-4c57-ae4b-8c63e5d0cdd1","ios":"levelo://app?vid=0f78d90b-d3e6-4c57-ae4b-8c63e5d0cdd1"},"vehicle_type_id":"4","last_reported":1753254980,"current_range_meters":7200,"station_id":"ce4bhn12rcd13ifvqgpg","pricing_plan_id":"cebpf4jnsgd1na2vs0mg"},{"bike_id":"05970a07-fdcf-4afc-a5d3-cebe37e8443f","system_id":"levelo_inurba_marseille","lat":43.29305,"lon":5.37463,"is_reserved":false,"is_disabled":false,"rental_uris":{"android":"levelo://app?vid=05970a07-fdcf-4afc-a5d3-cebe37e8443f","ios":"levelo://app?vid=05970a07-fdcf-4afc-a5d3-cebe37e8443f"},"vehicle_type_id":"4","last_reported":1753254980,"current_range_meters":7200,"station_id":"ce4bgi12rcd13ifvqb70","pricing_plan_id":"cebpf4jnsgd1na2vs0mg"},{"bike_id":"fd4c22dc-14e4-41ef-b4ab-1e3070a8a020","system_id":"levelo_inurba_marseille","lat":43.24179,"lon":5.39718,"is_reserved":false,"is_disabled":false,"rental_uris":{"android":"levelo://app?vid=fd4c22dc-14e4-41ef-b4ab-1e3070a8a020","ios":"levelo://app?vid=fd4c22dc-14e4-41ef-b4ab-1e3070a8a020"},"vehicle_type_id":"4","last_reported":1753254980,"current_range_meters":7200,"station_id":"ce4bhn12rcd13ifvqgpg","pricing_plan_id":"cebpf4jnsgd1na2vs0mg"},{"bike_id":"86a3842f-7981-4146-a317-41b1fbe0b311","system_id":"levelo_inurba_marseille","lat":43.27969,"lon":5.38736,"is_reserved":false,"is_disabled":false,"rental_uris":{"android":"levelo://app?vid=86a3842f-7981-4146-a317-41b1fbe0b311","ios":"levelo://app?vid=86a3842f-7981-4146-a317-41b1fbe0b311"},"vehicle_type_id":"4","last_reported":1753254980,"current_range_meters":8000,"station_id":"ce4bhg12rcd13ifvqf80","pricing_plan_id":"cebpf4jnsgd1na2vs0mg"},{"bike_id":"f3ad7f3f-05ef-4976-a8bd-7743271afd02","system_id":"levelo_inurba_marseille","lat":43.231513,"lon":5.437245,"is_reserved":false,"is_disabled":false,"rental_uris":{"android":"levelo://app?vid=f3ad7f3f-05ef-4976-a8bd-7743271afd02","ios":"levelo://app?vid=f3ad7f3f-05ef-4976-a8bd-7743271afd02"},"vehicle_type_id":"4","last_reported":1753254980,"current_range_meters":8400,"station_id":"ce4bhmp2rcd13ifvqgog","pricing_plan_id":"cebpf4jnsgd1na2vs0mg"},{"bike_id":"358213a5-d7a0-4003-8fd0-34394a34b3c7","system_id":"levelo_inurba_marseille","lat":43.26794,"lon":5.39401,"is_reserved":false,"is_disabled":false,"rental_uris":{"android":"levelo://app?vid=358213a5-d7a0-4003-8fd0-34394a34b3c7","ios":"levelo://app?vid=358213a5-d7a0-4003-8fd0-34394a34b3c7"},"vehicle_type_id":"4","last_reported":1753254980,"current_range_meters":8400,"station_id":"ce4bhh12rcd13ifvqfg0","pricing_plan_id":"cebpf4jnsgd1na2vs0mg"},{"bike_id":"8a506cc2-c126-4b3c-b7e7-9ac01ab6d622","system_id":"levelo_inurba_marseille","lat":43.29992,"lon":5.3719,"is_reserved":false,"is_disabled":false,"rental_uris":{"android":"levelo://app?vid=8a506cc2-c126-4b3c-b7e7-9ac01ab6d622","ios":"levelo://app?vid=8a506cc2-c126-4b3c-b7e7-9ac01ab6d622"},"vehicle_type_id":"4","last_reported":1753254980,"current_range_meters":8800,"station_id":"ce4bgr92rcd13ifvqc7g","pricing_plan_id":"cebpf4jnsgd1na2vs0mg"},{"bike_id":"510e1d6f-5725-4768-b8fc-942d80656133","system_id":"levelo_inurba_marseille","lat":43.26584,"lon":5.37306,"is_reserved":false,"is_disabled":false,"rental_uris":{"android":"levelo://app?vid=510e1d6f-5725-4768-b8fc-942d80656133","ios":"levelo://app?vid=510e1d6f-5725-4768-b8fc-942d80656133"},"vehicle_type_id":"4","last_reported":1753254980,"current_range_meters":8800,"station_id":"ce4bhg12rcd13ifvqf70","pricing_plan_id":"cebpf4jnsgd1na2vs0mg"},{"bike_id":"4263f32b-49be-41b5-b20b-7f70214bf96f","system_id":"levelo_inurba_marseille","lat":43.24182,"lon":5.3972,"is_reserved":false,"is_disabled":false,"rental_uris":{"android":"levelo://app?vid=4263f32b-49be-41b5-b20b-7f70214bf96f","ios":"levelo://app?vid=4263f32b-49be-41b5-b20b-7f70214bf96f"},"vehicle_type_id":"4","last_reported":1753254980,"current_range_meters":8800,"station_id":"ce4bhn12rcd13ifvqgpg","pricing_plan_id":"cebpf4jnsgd1na2vs0mg"},{"bike_id":"1b4feda5-1ce3-45ae-bfa7-054f9c354453","system_id":"levelo_inurba_marseille","lat":43.23153,"lon":5.43707,"is_reserved":false,"is_disabled":false,"rental_uris":{"android":"levelo://app?vid=1b4feda5-1ce3-45ae-bfa7-054f9c354453","ios":"levelo://app?vid=1b4feda5-1ce3-45ae-bfa7-054f9c354453"},"vehicle_type_id":"4","last_reported":1753254980,"current_range_meters":9200,"station_id":"ce4bhmp2rcd13ifvqgog","pricing_plan_id":"cebpf4jnsgd1na2vs0mg"},{"bike_id":"4fc33585-04ba-469c-a0e8-068dbf745b2a","system_id":"levelo_inurba_marseille","lat":43.24807,"lon":5.37455,"is_reserved":false,"is_disabled":false,"rental_uris":{"android":"levelo://app?vid=4fc33585-04ba-469c-a0e8-068dbf745b2a","ios":"levelo://app?vid=4fc33585-04ba-469c-a0e8-068dbf745b2a"},"vehicle_type_id":"4","last_reported":1753254980,"current_range_meters":9200,"station_id":"ce4bhgh2rcd13ifvqfb0","pricing_plan_id":"cebpf4jnsgd1na2vs0mg"},{"bike_id":"9ae7d50c-a3ea-4136-8080-315c191e000a","system_id":"levelo_inurba_marseille","lat":43.28754,"lon":5.38411,"is_reserved":false,"is_disabled":false,"rental_uris":{"android":"levelo://app?vid=9ae7d50c-a3ea-4136-8080-315c191e000a","ios":"levelo://app?vid=9ae7d50c-a3ea-4136-8080-315c191e000a"},"vehicle_type_id":"4","last_reported":1753254980,"current_range_meters":9200,"station_id":"","pricing_plan_id":"cebpf4jnsgd1na2vs0mg"},{"bike_id":"038c56df-4e5d-4f28-b016-dd05624ceb0f","system_id":"levelo_inurba_marseille","lat":43.30549,"lon":5.36559,"is_reserved":false,"is_disabled":false,"rental_uris":{"android":"levelo://app?vid=038c56df-4e5d-4f28-b016-dd05624ceb0f","ios":"levelo://app?vid=038c56df-4e5d-4f28-b016-dd05624ceb0f"},"vehicle_type_id":"4","last_reported":1753254980,"current_range_meters":9200,"station_id":"ce4bgs12rcd13ifvqcag","pricing_plan_id":"cebpf4jnsgd1na2vs0mg"},{"bike_id":"b9a2dd08-3450-4b4a-bfc0-549be426188c","system_id":"levelo_inurba_marseille","lat":43.28619,"lon":5.42696,"is_reserved":false,"is_disabled":false,"rental_uris":{"android":"levelo://app?vid=b9a2dd08-3450-4b4a-bfc0-549be426188c","ios":"levelo://app?vid=b9a2dd08-3450-4b4a-bfc0-549be426188c"},"vehicle_type_id":"4","last_reported":1753254980,"current_range_meters":9200,"station_id":"","pricing_plan_id":"cebpf4jnsgd1na2vs0mg"},{"bike_id":"f7d24d79-fb73-44fe-a579-eccbe39a5e1e","system_id":"levelo_inurba_marseille","lat":43.241688,"lon":5.364026,"is_reserved":false,"is_disabled":false,"rental_uris":{"android":"levelo://app?vid=f7d24d79-fb73-44fe-a579-eccbe39a5e1e","ios":"levelo://app?vid=f7d24d79-fb73-44fe-a579-eccbe39a5e1e"},"vehicle_type_id":"4","last_reported":1753254980,"current_range_meters":9600,"station_id":"cpo36qri1sfpv3e86is0","pricing_plan_id":"cebpf4jnsgd1na2vs0mg"},{"bike_id":"81f48beb-cba8-4a10-929a-d7834448108c","system_id":"levelo_inurba_marseille","lat":43.33242,"lon":5.39899,"is_reserved":false,"is_disabled":false,"rental_uris":{"android":"levelo://app?vid=81f48beb-cba8-4a10-929a-d7834448108c","ios":"levelo://app?vid=81f48beb-cba8-4a10-929a-d7834448108c"},"vehicle_type_id":"4","last_reported":1753254980,"current_range_meters":9600,"station_id":"","pricing_plan_id":"cebpf4jnsgd1na2vs0mg"},{"bike_id":"a5f1f0d6-c678-45f4-9b29-96eaa29a3e36","system_id":"levelo_inurba_marseille","lat":43.25138,"lon":5.3733,"is_reserved":false,"is_disabled":false,"rental_uris":{"android":"levelo://app?vid=a5f1f0d6-c678-45f4-9b29-96eaa29a3e36","ios":"levelo://app?vid=a5f1f0d6-c678-45f4-9b29-96eaa29a3e36"},"vehicle_type_id":"4","last_reported":1753254980,"current_range_meters":9600,"station_id":"","pricing_plan_id":"cebpf4jnsgd1na2vs0mg"},{"bike_id":"d1e5a911-1108-4fe0-8049-e12bf0257b80","system_id":"levelo_inurba_marseille","lat":43.30906,"lon":5.36841,"is_reserved":false,"is_disabled":false,"rental_uris":{"android":"levelo://app?vid=d1e5a911-1108-4fe0-8049-e12bf0257b80","ios":"levelo://app?vid=d1e5a911-1108-4fe0-8049-e12bf0257b80"},"vehicle_type_id":"4","last_reported":1753254980,"current_range_meters":10000,"station_id":"ce4bgn92rcd13ifvqbvg","pricing_plan_id":"cebpf4jnsgd1na2vs0mg"},{"bike_id":"52289c8f-2dc9-4c80-8d92-272e145c2039","system_id":"levelo_inurba_marseille","lat":43.217527,"lon":5.345931,"is_reserved":false,"is_disabled":false,"rental_uris":{"android":"levelo://app?vid=52289c8f-2dc9-4c80-8d92-272e145c2039","ios":"levelo://app?vid=52289c8f-2dc9-4c80-8d92-272e145c2039"},"vehicle_type_id":"4","last_reported":1753254980,"current_range_meters":10000,"station_id":"st_cvj6r9ubvosntc0bgbag","pricing_plan_id":"cebpf4jnsgd1na2vs0mg"},{"bike_id":"331d957c-8364-49e8-ac7c-ace81aa0cfd4","system_id":"levelo_inurba_marseille","lat":43.323795,"lon":5.388841,"is_reserved":false,"is_disabled":false,"rental_uris":{"android":"levelo://app?vid=331d957c-8364-49e8-ac7c-ace81aa0cfd4","ios":"levelo://app?vid=331d957c-8364-49e8-ac7c-ace81aa0cfd4"},"vehicle_type_id":"4","last_reported":1753254980,"current_range_meters":10000,"station_id":"ce4bhqp2rcd13ifvqhog","pricing_plan_id":"cebpf4jnsgd1na2vs0mg"},{"bike_id":"8a8c67ff-0285-441e-afaf-3eac3565f663","system_id":"levelo_inurba_marseille","lat":43.32352,"lon":5.36729,"is_reserved":false,"is_disabled":false,"rental_uris":{"android":"levelo://app?vid=8a8c67ff-0285-441e-afaf-3eac3565f663","ios":"levelo://app?vid=8a8c67ff-0285-441e-afaf-3eac3565f663"},"vehicle_type_id":"4","last_reported":1753254980,"current_range_meters":10000,"station_id":"ce4bhsh2rcd13ifvqi2g","pricing_plan_id":"cebpf4jnsgd1na2vs0mg"},{"bike_id":"7cd6f57f-050a-49ae-b455-cc918ad9f337","system_id":"levelo_inurba_marseille","lat":43.31354,"lon":5.36731,"is_reserved":false,"is_disabled":false,"rental_uris":{"android":"levelo://app?vid=7cd6f57f-050a-49ae-b455-cc918ad9f337","ios":"levelo://app?vid=7cd6f57f-050a-49ae-b455-cc918ad9f337"},"vehicle_type_id":"4","last_reported":1753254980,"current_range_meters":10000,"station_id":"ce4bgr92rcd13ifvqc6g","pricing_plan_id":"cebpf4jnsgd1na2vs0mg"},{"bike_id":"47b8aae7-f1c0-4dfa-bc2e-f1264bdba72b","system_id":"levelo_inurba_marseille","lat":43.312961,"lon":5.390124,"is_reserved":false,"is_disabled":false,"rental_uris":{"android":"levelo://app?vid=47b8aae7-f1c0-4dfa-bc2e-f1264bdba72b","ios":"levelo://app?vid=47b8aae7-f1c0-4dfa-bc2e-f1264bdba72b"},"vehicle_type_id":"4","last_reported":1753254980,"current_range_meters":10000,"station_id":"","pricing_plan_id":"cebpf4jnsgd1na2vs0mg"},{"bike_id":"7dbbb529-7a14-4c15-91b2-36294d397550","system_id":"levelo_inurba_marseille","lat":43.23189,"lon":5.35543,"is_reserved":false,"is_disabled":false,"rental_uris":{"android":"levelo://app?vid=7dbbb529-7a14-4c15-91b2-36294d397550","ios":"levelo://app?vid=7dbbb529-7a14-4c15-91b2-36294d397550"},"vehicle_type_id":"4","last_reported":1753254980,"current_range_meters":10000,"station_id":"ce4bhu92rcd13ifvqi70","pricing_plan_id":"cebpf4jnsgd1na2vs0mg"},{"bike_id":"cd5138c7-5e5f-4332-9e08-fb60bf8c26c1","system_id":"levelo_inurba_marseille","lat":43.29048,"lon":5.39948,"is_reserved":false,"is_disabled":false,"rental_uris":{"android":"levelo://app?vid=cd5138c7-5e5f-4332-9e08-fb60bf8c26c1","ios":"levelo://app?vid=cd5138c7-5e5f-4332-9e08-fb60bf8c26c1"},"vehicle_type_id":"4","last_reported":1753254980,"current_range_meters":10800,"station_id":"ce4bh392rcd13ifvqdm0","pricing_plan_id":"cebpf4jnsgd1na2vs0mg"},{"bike_id":"3cef1158-540c-4055-a46b-73e02d1c17f7","system_id":"levelo_inurba_marseille","lat":43.313758,"lon":5.374544,"is_reserved":false,"is_disabled":false,"rental_uris":{"android":"levelo://app?vid=3cef1158-540c-4055-a46b-73e02d1c17f7","ios":"levelo://app?vid=3cef1158-540c-4055-a46b-73e02d1c17f7"},"vehicle_type_id":"4","last_reported":1753254980,"current_range_meters":10800,"station_id":"","pricing_plan_id":"cebpf4jnsgd1na2vs0mg"},{"bike_id":"b1700b43-437b-46f9-ad6c-b53dec15791d","system_id":"levelo_inurba_marseille","lat":43.26583,"lon":5.39002,"is_reserved":false,"is_disabled":true,"rental_uris":{"android":"levelo://app?vid=b1700b43-437b-46f9-ad6c-b53dec15791d","ios":"levelo://app?vid=b1700b43-437b-46f9-ad6c-b53dec15791d"},"vehicle_type_id":"4","last_reported":1753254980,"current_range_meters":10800,"station_id":"ce4bhe12rcd13ifvqf30","pricing_plan_id":"cebpf4jnsgd1na2vs0mg"},{"bike_id":"05d42747-d0a7-485b-804a-c208d042127e","system_id":"levelo_inurba_marseille","lat":43.24175,"lon":5.36408,"is_reserved":false,"is_disabled":false,"rental_uris":{"android":"levelo://app?vid=05d42747-d0a7-485b-804a-c208d042127e","ios":"levelo://app?vid=05d42747-d0a7-485b-804a-c208d042127e"},"vehicle_type_id":"4","last_reported":1753254980,"current_range_meters":10800,"station_id":"cpo36qri1sfpv3e86is0","pricing_plan_id":"cebpf4jnsgd1na2vs0mg"},{"bike_id":"aa5097b6-6968-4aec-b711-e7780938924b","system_id":"levelo_inurba_marseille","lat":43.32962,"lon":5.35887,"is_reserved":false,"is_disabled":false,"rental_uris":{"android":"levelo://app?vid=aa5097b6-6968-4aec-b711-e7780938924b","ios":"levelo://app?vid=aa5097b6-6968-4aec-b711-e7780938924b"},"vehicle_type_id":"4","last_reported":1753254980,"current_range_meters":10800,"station_id":"","pricing_plan_id":"cebpf4jnsgd1na2vs0mg"},{"bike_id":"14dce4ef-3cdb-4379-9358-4a1fbdce8f93","system_id":"levelo_inurba_marseille","lat":43.287241,"lon":5.352087,"is_reserved":false,"is_disabled":false,"rental_uris":{"android":"levelo://app?vid=14dce4ef-3cdb-4379-9358-4a1fbdce8f93","ios":"levelo://app?vid=14dce4ef-3cdb-4379-9358-4a1fbdce8f93"},"vehicle_type_id":"4","last_reported":1753254980,"current_range_meters":11200,"station_id":"","pricing_plan_id":"cebpf4jnsgd1na2vs0mg"},{"bike_id":"fcc50560-1ae4-4bac-9e1c-f3150027f874","system_id":"levelo_inurba_marseille","lat":43.28465,"lon":5.38544,"is_reserved":false,"is_disabled":true,"rental_uris":{"android":"levelo://app?vid=fcc50560-1ae4-4bac-9e1c-f3150027f874","ios":"levelo://app?vid=fcc50560-1ae4-4bac-9e1c-f3150027f874"},"vehicle_type_id":"4","last_reported":1753254980,"current_range_meters":11200,"station_id":"ce4bh8p2rcd13ifvqeb0","pricing_plan_id":"cebpf4jnsgd1na2vs0mg"},{"bike_id":"47861ee3-c2fb-4a23-bd66-32fcd0b0ef8f","system_id":"levelo_inurba_marseille","lat":43.30472,"lon":5.379,"is_reserved":false,"is_disabled":false,"rental_uris":{"android":"levelo://app?vid=47861ee3-c2fb-4a23-bd66-32fcd0b0ef8f","ios":"levelo://app?vid=47861ee3-c2fb-4a23-bd66-32fcd0b0ef8f"},"vehicle_type_id":"4","last_reported":1753254980,"current_range_meters":11200,"station_id":"ce4bgup2rcd13ifvqcn0","pricing_plan_id":"cebpf4jnsgd1na2vs0mg"},{"bike_id":"3c21b9e1-b296-4844-a6d5-b8d19c7f36c9","system_id":"levelo_inurba_marseille","lat":43.29174,"lon":5.38444,"is_reserved":false,"is_disabled":false,"rental_uris":{"android":"levelo://app?vid=3c21b9e1-b296-4844-a6d5-b8d19c7f36c9","ios":"levelo://app?vid=3c21b9e1-b296-4844-a6d5-b8d19c7f36c9"},"vehicle_type_id":"4","last_reported":1753254980,"current_range_meters":11200,"station_id":"","pricing_plan_id":"cebpf4jnsgd1na2vs0mg"},{"bike_id":"14ccb160-29ff-436c-b37f-91da99a35cc9","system_id":"levelo_inurba_marseille","lat":43.31063,"lon":5.38346,"is_reserved":false,"is_disabled":false,"rental_uris":{"android":"levelo://app?vid=14ccb160-29ff-436c-b37f-91da99a35cc9","ios":"levelo://app?vid=14ccb160-29ff-436c-b37f-91da99a35cc9"},"vehicle_type_id":"4","last_reported":1753254980,"current_range_meters":11200,"station_id":"ce4bgv92rcd13ifvqcr0","pricing_plan_id":"cebpf4jnsgd1na2vs0mg"},{"bike_id":"c035a6d5-e58f-4061-a0d4-454485ad131f","system_id":"levelo_inurba_marseille","lat":43.27307,"lon":5.39078,"is_reserved":false,"is_disabled":false,"rental_uris":{"android":"levelo://app?vid=c035a6d5-e58f-4061-a0d4-454485ad131f","ios":"levelo://app?vid=c035a6d5-e58f-4061-a0d4-454485ad131f"},"vehicle_type_id":"4","last_reported":1753254980,"current_range_meters":11200,"station_id":"ce4bhgp2rcd13ifvqfe0","pricing_plan_id":"cebpf4jnsgd1na2vs0mg"},{"bike_id":"29c741f5-4cb9-45d9-a398-c95e390d8223","system_id":"levelo_inurba_marseille","lat":43.278367,"lon":5.407263,"is_reserved":false,"is_disabled":false,"rental_uris":{"android":"levelo://app?vid=29c741f5-4cb9-45d9-a398-c95e390d8223","ios":"levelo://app?vid=29c741f5-4cb9-45d9-a398-c95e390d8223"},"vehicle_type_id":"4","last_reported":1753254980,"current_range_meters":11200,"station_id":"ce4bhnh2rcd13ifvqgtg","pricing_plan_id":"cebpf4jnsgd1na2vs0mg"},{"bike_id":"dfb70569-575b-4627-ace4-b72c9d7227f9","system_id":"levelo_inurba_marseille","lat":43.24052,"lon":5.37727,"is_reserved":false,"is_disabled":false,"rental_uris":{"android":"levelo://app?vid=dfb70569-575b-4627-ace4-b72c9d7227f9","ios":"levelo://app?vid=dfb70569-575b-4627-ace4-b72c9d7227f9"},"vehicle_type_id":"4","last_reported":1753254980,"current_range_meters":11600,"station_id":"ce4bhnp2rcd13ifvqgvg","pricing_plan_id":"cebpf4jnsgd1na2vs0mg"},{"bike_id":"c9dbd36b-479c-4a5c-b200-3aa7673340d9","system_id":"levelo_inurba_marseille","lat":43.241448,"lon":5.363743,"is_reserved":false,"is_disabled":false,"rental_uris":{"android":"levelo://app?vid=c9dbd36b-479c-4a5c-b200-3aa7673340d9","ios":"levelo://app?vid=c9dbd36b-479c-4a5c-b200-3aa7673340d9"},"vehicle_type_id":"4","last_reported":1753254980,"current_range_meters":11600,"station_id":"","pricing_plan_id":"cebpf4jnsgd1na2vs0mg"},{"bike_id":"fe50cf1d-fc61-4e48-98f2-ea42037cc2b3","system_id":"levelo_inurba_marseille","lat":43.22907,"lon":5.35373,"is_reserved":false,"is_disabled":false,"rental_uris":{"android":"levelo://app?vid=fe50cf1d-fc61-4e48-98f2-ea42037cc2b3","ios":"levelo://app?vid=fe50cf1d-fc61-4e48-98f2-ea42037cc2b3"},"vehicle_type_id":"4","last_reported":1753254980,"current_range_meters":11600,"station_id":"cpo3532slgdg3j2ikp40","pricing_plan_id":"cebpf4jnsgd1na2vs0mg"},{"bike_id":"add9499e-5500-47a8-81a2-1576bf87a6d6","system_id":"levelo_inurba_marseille","lat":43.26682,"lon":5.38275,"is_reserved":false,"is_disabled":false,"rental_uris":{"android":"levelo://app?vid=add9499e-5500-47a8-81a2-1576bf87a6d6","ios":"levelo://app?vid=add9499e-5500-47a8-81a2-1576bf87a6d6"},"vehicle_type_id":"4","last_reported":1753254980,"current_range_meters":12000,"station_id":"ce4bhg92rcd13ifvqf90","pricing_plan_id":"cebpf4jnsgd1na2vs0mg"},{"bike_id":"c7961dde-1f83-4665-ba7f-9fad410e721e","system_id":"levelo_inurba_marseille","lat":43.31066,"lon":5.38338,"is_reserved":false,"is_disabled":false,"rental_uris":{"android":"levelo://app?vid=c7961dde-1f83-4665-ba7f-9fad410e721e","ios":"levelo://app?vid=c7961dde-1f83-4665-ba7f-9fad410e721e"},"vehicle_type_id":"4","last_reported":1753254980,"current_range_meters":12000,"station_id":"ce4bgv92rcd13ifvqcr0","pricing_plan_id":"cebpf4jnsgd1na2vs0mg"},{"bike_id":"7efcf337-4140-49e9-92b0-3f0aa143c851","system_id":"levelo_inurba_marseille","lat":43.298412,"lon":5.362658,"is_reserved":false,"is_disabled":false,"rental_uris":{"android":"levelo://app?vid=7efcf337-4140-49e9-92b0-3f0aa143c851","ios":"levelo://app?vid=7efcf337-4140-49e9-92b0-3f0aa143c851"},"vehicle_type_id":"4","last_reported":1753254980,"current_range_meters":12000,"station_id":"ce4bgpp2rcd13ifvqc3g","pricing_plan_id":"cebpf4jnsgd1na2vs0mg"},{"bike_id":"d06ab90f-a874-448a-a474-627fdbbed94d","system_id":"levelo_inurba_marseille","lat":43.24182,"lon":5.39716,"is_reserved":false,"is_disabled":false,"rental_uris":{"android":"levelo://app?vid=d06ab90f-a874-448a-a474-627fdbbed94d","ios":"levelo://app?vid=d06ab90f-a874-448a-a474-627fdbbed94d"},"vehicle_type_id":"4","last_reported":1753254980,"current_range_meters":12000,"station_id":"ce4bhn12rcd13ifvqgpg","pricing_plan_id":"cebpf4jnsgd1na2vs0mg"},{"bike_id":"a3a311b4-31d7-4ed3-a5ac-f3d9a357eca4","system_id":"levelo_inurba_marseille","lat":43.2668,"lon":5.38268,"is_reserved":false,"is_disabled":false,"rental_uris":{"android":"levelo://app?vid=a3a311b4-31d7-4ed3-a5ac-f3d9a357eca4","ios":"levelo://app?vid=a3a311b4-31d7-4ed3-a5ac-f3d9a357eca4"},"vehicle_type_id":"4","last_reported":1753254980,"current_range_meters":12000,"station_id":"ce4bhg92rcd13ifvqf90","pricing_plan_id":"cebpf4jnsgd1na2vs0mg"},{"bike_id":"b8157e49-d09e-4d5e-90fd-5d667c09b9a5","system_id":"levelo_inurba_marseille","lat":43.29058,"lon":5.3717,"is_reserved":false,"is_disabled":false,"rental_uris":{"android":"levelo://app?vid=b8157e49-d09e-4d5e-90fd-5d667c09b9a5","ios":"levelo://app?vid=b8157e49-d09e-4d5e-90fd-5d667c09b9a5"},"vehicle_type_id":"4","last_reported":1753254980,"current_range_meters":12000,"station_id":"ce4bgh92rcd13ifvqb40","pricing_plan_id":"cebpf4jnsgd1na2vs0mg"},{"bike_id":"e44893bb-5cdf-4921-b4e8-39ee578180a1","system_id":"levelo_inurba_marseille","lat":43.24138,"lon":5.37776,"is_reserved":false,"is_disabled":false,"rental_uris":{"android":"levelo://app?vid=e44893bb-5cdf-4921-b4e8-39ee578180a1","ios":"levelo://app?vid=e44893bb-5cdf-4921-b4e8-39ee578180a1"},"vehicle_type_id":"4","last_reported":1753254980,"current_range_meters":12000,"station_id":"","pricing_plan_id":"cebpf4jnsgd1na2vs0mg"},{"bike_id":"c4ee3487-c16b-44ca-8298-494c3d643291","system_id":"levelo_inurba_marseille","lat":43.248074,"lon":5.3746,"is_reserved":false,"is_disabled":false,"rental_uris":{"android":"levelo://app?vid=c4ee3487-c16b-44ca-8298-494c3d643291","ios":"levelo://app?vid=c4ee3487-c16b-44ca-8298-494c3d643291"},"vehicle_type_id":"4","last_reported":1753254980,"current_range_meters":12400,"station_id":"ce4bhk92rcd13ifvqgb0","pricing_plan_id":"cebpf4jnsgd1na2vs0mg"},{"bike_id":"1e6792f6-e23b-4a70-9f0d-cfc180638578","system_id":"levelo_inurba_marseille","lat":43.27413,"lon":5.39416,"is_reserved":false,"is_disabled":false,"rental_uris":{"android":"levelo://app?vid=1e6792f6-e23b-4a70-9f0d-cfc180638578","ios":"levelo://app?vid=1e6792f6-e23b-4a70-9f0d-cfc180638578"},"vehicle_type_id":"4","last_reported":1753254980,"current_range_meters":12400,"station_id":"ce4bhgp2rcd13ifvqfe0","pricing_plan_id":"cebpf4jnsgd1na2vs0mg"},{"bike_id":"d3eea4a0-76ba-4059-ba6b-c1ecd6270925","system_id":"levelo_inurba_marseille","lat":43.21222,"lon":5.35048,"is_reserved":false,"is_disabled":false,"rental_uris":{"android":"levelo://app?vid=d3eea4a0-76ba-4059-ba6b-c1ecd6270925","ios":"levelo://app?vid=d3eea4a0-76ba-4059-ba6b-c1ecd6270925"},"vehicle_type_id":"4","last_reported":1753254980,"current_range_meters":12800,"station_id":"","pricing_plan_id":"cebpf4jnsgd1na2vs0mg"},{"bike_id":"69c5dba0-7886-486a-be58-5f7a61008b6d","system_id":"levelo_inurba_marseille","lat":43.305576,"lon":5.389483,"is_reserved":false,"is_disabled":false,"rental_uris":{"android":"levelo://app?vid=69c5dba0-7886-486a-be58-5f7a61008b6d","ios":"levelo://app?vid=69c5dba0-7886-486a-be58-5f7a61008b6d"},"vehicle_type_id":"4","last_reported":1753254980,"current_range_meters":12800,"station_id":"","pricing_plan_id":"cebpf4jnsgd1na2vs0mg"},{"bike_id":"f5b17375-bc8d-4769-a175-f59af270f718","system_id":"levelo_inurba_marseille","lat":43.30963,"lon":5.3904,"is_reserved":false,"is_disabled":false,"rental_uris":{"android":"levelo://app?vid=f5b17375-bc8d-4769-a175-f59af270f718","ios":"levelo://app?vid=f5b17375-bc8d-4769-a175-f59af270f718"},"vehicle_type_id":"4","last_reported":1753254980,"current_range_meters":12800,"station_id":"ce4bgup2rcd13ifvqco0","pricing_plan_id":"cebpf4jnsgd1na2vs0mg"},{"bike_id":"0ea7a10a-9a1f-48d6-ba0c-cd300cee1999","system_id":"levelo_inurba_marseille","lat":43.27078,"lon":5.42266,"is_reserved":false,"is_disabled":false,"rental_uris":{"android":"levelo://app?vid=0ea7a10a-9a1f-48d6-ba0c-cd300cee1999","ios":"levelo://app?vid=0ea7a10a-9a1f-48d6-ba0c-cd300cee1999"},"vehicle_type_id":"4","last_reported":1753254980,"current_range_meters":12800,"station_id":"ce4bhk92rcd13ifvqgb0","pricing_plan_id":"cebpf4jnsgd1na2vs0mg"},{"bike_id":"1d012236-37bb-41f4-8ff6-7e0b5c5ab6a6","system_id":"levelo_inurba_marseille","lat":43.30544,"lon":5.36699,"is_reserved":false,"is_disabled":false,"rental_uris":{"android":"levelo://app?vid=1d012236-37bb-41f4-8ff6-7e0b5c5ab6a6","ios":"levelo://app?vid=1d012236-37bb-41f4-8ff6-7e0b5c5ab6a6"},"vehicle_type_id":"4","last_reported":1753254980,"current_range_meters":13600,"station_id":"ce4bgrp2rcd13ifvqc9g","pricing_plan_id":"cebpf4jnsgd1na2vs0mg"},{"bike_id":"7f63f9a0-7ea4-40f1-844d-1425837a99f2","system_id":"levelo_inurba_marseille","lat":43.29643,"lon":5.38037,"is_reserved":false,"is_disabled":false,"rental_uris":{"android":"levelo://app?vid=7f63f9a0-7ea4-40f1-844d-1425837a99f2","ios":"levelo://app?vid=7f63f9a0-7ea4-40f1-844d-1425837a99f2"},"vehicle_type_id":"4","last_reported":1753254980,"current_range_meters":13600,"station_id":"","pricing_plan_id":"cebpf4jnsgd1na2vs0mg"},{"bike_id":"9a143ed1-a3c7-421c-a22c-84e79d27e230","system_id":"levelo_inurba_marseille","lat":43.28419,"lon":5.34981,"is_reserved":false,"is_disabled":true,"rental_uris":{"android":"levelo://app?vid=9a143ed1-a3c7-421c-a22c-84e79d27e230","ios":"levelo://app?vid=9a143ed1-a3c7-421c-a22c-84e79d27e230"},"vehicle_type_id":"4","last_reported":1753254980,"current_range_meters":13600,"station_id":"ce4bhbh2rcd13ifvqepg","pricing_plan_id":"cebpf4jnsgd1na2vs0mg"},{"bike_id":"f1cf59e8-34e9-45d1-9251-126ca6ce8f3c","system_id":"levelo_inurba_marseille","lat":43.280726,"lon":5.386705,"is_reserved":false,"is_disabled":false,"rental_uris":{"android":"levelo://app?vid=f1cf59e8-34e9-45d1-9251-126ca6ce8f3c","ios":"levelo://app?vid=f1cf59e8-34e9-45d1-9251-126ca6ce8f3c"},"vehicle_type_id":"4","last_reported":1753254980,"current_range_meters":13600,"station_id":"ce4bhjp2rcd13ifvqga0","pricing_plan_id":"cebpf4jnsgd1na2vs0mg"},{"bike_id":"4355f60b-bb67-4c5e-a729-7d6782d7e997","system_id":"levelo_inurba_marseille","lat":43.27933,"lon":5.41028,"is_reserved":false,"is_disabled":false,"rental_uris":{"android":"levelo://app?vid=4355f60b-bb67-4c5e-a729-7d6782d7e997","ios":"levelo://app?vid=4355f60b-bb67-4c5e-a729-7d6782d7e997"},"vehicle_type_id":"4","last_reported":1753254980,"current_range_meters":13600,"station_id":"ce4bhnp2rcd13ifvqh0g","pricing_plan_id":"cebpf4jnsgd1na2vs0mg"},{"bike_id":"2474ea6b-360b-4966-8546-322af4cc5978","system_id":"levelo_inurba_marseille","lat":43.29049,"lon":5.39932,"is_reserved":false,"is_disabled":false,"rental_uris":{"android":"levelo://app?vid=2474ea6b-360b-4966-8546-322af4cc5978","ios":"levelo://app?vid=2474ea6b-360b-4966-8546-322af4cc5978"},"vehicle_type_id":"4","last_reported":1753254980,"current_range_meters":13600,"station_id":"ce4bh392rcd13ifvqdm0","pricing_plan_id":"cebpf4jnsgd1na2vs0mg"},{"bike_id":"79d8793a-8b06-4e58-8302-800b5d3a8256","system_id":"levelo_inurba_marseille","lat":43.241919,"lon":5.396986,"is_reserved":false,"is_disabled":false,"rental_uris":{"android":"levelo://app?vid=79d8793a-8b06-4e58-8302-800b5d3a8256","ios":"levelo://app?vid=79d8793a-8b06-4e58-8302-800b5d3a8256"},"vehicle_type_id":"4","last_reported":1753254980,"current_range_meters":13600,"station_id":"ce4bhn12rcd13ifvqgpg","pricing_plan_id":"cebpf4jnsgd1na2vs0mg"},{"bike_id":"f9c41163-5ecd-4c1a-8ac0-2a6141a12633","system_id":"levelo_inurba_marseille","lat":43.310754,"lon":5.383531,"is_reserved":false,"is_disabled":false,"rental_uris":{"android":"levelo://app?vid=f9c41163-5ecd-4c1a-8ac0-2a6141a12633","ios":"levelo://app?vid=f9c41163-5ecd-4c1a-8ac0-2a6141a12633"},"vehicle_type_id":"4","last_reported":1753254980,"current_range_meters":14000,"station_id":"ce4bgv92rcd13ifvqcr0","pricing_plan_id":"cebpf4jnsgd1na2vs0mg"},{"bike_id":"e4ed7ce2-a223-4e8e-968a-d024369c857c","system_id":"levelo_inurba_marseille","lat":43.24993,"lon":5.38939,"is_reserved":false,"is_disabled":false,"rental_uris":{"android":"levelo://app?vid=e4ed7ce2-a223-4e8e-968a-d024369c857c","ios":"levelo://app?vid=e4ed7ce2-a223-4e8e-968a-d024369c857c"},"vehicle_type_id":"4","last_reported":1753254980,"current_range_meters":14000,"station_id":"ce4bhgp2rcd13ifvqfd0","pricing_plan_id":"cebpf4jnsgd1na2vs0mg"},{"bike_id":"b692ffec-bbac-4f9b-bd1a-8933518c8001","system_id":"levelo_inurba_marseille","lat":43.24251,"lon":5.39716,"is_reserved":false,"is_disabled":false,"rental_uris":{"android":"levelo://app?vid=b692ffec-bbac-4f9b-bd1a-8933518c8001","ios":"levelo://app?vid=b692ffec-bbac-4f9b-bd1a-8933518c8001"},"vehicle_type_id":"4","last_reported":1753254980,"current_range_meters":14000,"station_id":"","pricing_plan_id":"cebpf4jnsgd1na2vs0mg"},{"bike_id":"bfd7e908-297b-4fb3-954a-c8cd06553c6a","system_id":"levelo_inurba_marseille","lat":43.30917,"lon":5.36846,"is_reserved":false,"is_disabled":false,"rental_uris":{"android":"levelo://app?vid=bfd7e908-297b-4fb3-954a-c8cd06553c6a","ios":"levelo://app?vid=bfd7e908-297b-4fb3-954a-c8cd06553c6a"},"vehicle_type_id":"4","last_reported":1753254980,"current_range_meters":14000,"station_id":"ce4bgn92rcd13ifvqbvg","pricing_plan_id":"cebpf4jnsgd1na2vs0mg"},{"bike_id":"cc926983-7496-48df-9677-b8723ddc96b9","system_id":"levelo_inurba_marseille","lat":43.22931,"lon":5.35357,"is_reserved":false,"is_disabled":false,"rental_uris":{"android":"levelo://app?vid=cc926983-7496-48df-9677-b8723ddc96b9","ios":"levelo://app?vid=cc926983-7496-48df-9677-b8723ddc96b9"},"vehicle_type_id":"4","last_reported":1753254980,"current_range_meters":14400,"station_id":"cpo3532slgdg3j2ikp40","pricing_plan_id":"cebpf4jnsgd1na2vs0mg"},{"bike_id":"fb81ee79-6688-4d05-be53-1ac881d0c7b8","system_id":"levelo_inurba_marseille","lat":43.231926,"lon":5.355399,"is_reserved":false,"is_disabled":false,"rental_uris":{"android":"levelo://app?vid=fb81ee79-6688-4d05-be53-1ac881d0c7b8","ios":"levelo://app?vid=fb81ee79-6688-4d05-be53-1ac881d0c7b8"},"vehicle_type_id":"4","last_reported":1753254980,"current_range_meters":14400,"station_id":"ce4bhu92rcd13ifvqi70","pricing_plan_id":"cebpf4jnsgd1na2vs0mg"},{"bike_id":"db4f7d16-4447-4752-b9fa-314b60a317e8","system_id":"levelo_inurba_marseille","lat":43.29917,"lon":5.37919,"is_reserved":false,"is_disabled":false,"rental_uris":{"android":"levelo://app?vid=db4f7d16-4447-4752-b9fa-314b60a317e8","ios":"levelo://app?vid=db4f7d16-4447-4752-b9fa-314b60a317e8"},"vehicle_type_id":"4","last_reported":1753254980,"current_range_meters":14400,"station_id":"","pricing_plan_id":"cebpf4jnsgd1na2vs0mg"},{"bike_id":"6a102a90-f6e0-499a-a8df-486cf33a7ee2","system_id":"levelo_inurba_marseille","lat":43.211897,"lon":5.350796,"is_reserved":false,"is_disabled":false,"rental_uris":{"android":"levelo://app?vid=6a102a90-f6e0-499a-a8df-486cf33a7ee2","ios":"levelo://app?vid=6a102a90-f6e0-499a-a8df-486cf33a7ee2"},"vehicle_type_id":"4","last_reported":1753254980,"current_range_meters":14400,"station_id":"st_cvj6sg6p6f1abm77japg","pricing_plan_id":"cebpf4jnsgd1na2vs0mg"},{"bike_id":"fe07410f-2ac3-4d42-a644-c798c7a25a84","system_id":"levelo_inurba_marseille","lat":43.26571,"lon":5.372879,"is_reserved":false,"is_disabled":false,"rental_uris":{"android":"levelo://app?vid=fe07410f-2ac3-4d42-a644-c798c7a25a84","ios":"levelo://app?vid=fe07410f-2ac3-4d42-a644-c798c7a25a84"},"vehicle_type_id":"4","last_reported":1753254980,"current_range_meters":14400,"station_id":"","pricing_plan_id":"cebpf4jnsgd1na2vs0mg"},{"bike_id":"4f07190e-caac-415f-b780-172edb0f66b7","system_id":"levelo_inurba_marseille","lat":43.31227,"lon":5.36865,"is_reserved":false,"is_disabled":false,"rental_uris":{"android":"levelo://app?vid=4f07190e-caac-415f-b780-172edb0f66b7","ios":"levelo://app?vid=4f07190e-caac-415f-b780-172edb0f66b7"},"vehicle_type_id":"4","last_reported":1753254980,"current_range_meters":14400,"station_id":"ce4bgl92rcd13ifvqbq0","pricing_plan_id":"cebpf4jnsgd1na2vs0mg"},{"bike_id":"9fa0f6a0-6f14-43c0-9ada-2d061d637090","system_id":"levelo_inurba_marseille","lat":43.24387,"lon":5.37056,"is_reserved":false,"is_disabled":false,"rental_uris":{"android":"levelo://app?vid=9fa0f6a0-6f14-43c0-9ada-2d061d637090","ios":"levelo://app?vid=9fa0f6a0-6f14-43c0-9ada-2d061d637090"},"vehicle_type_id":"4","last_reported":1753254980,"current_range_meters":14400,"station_id":"ce4bhhh2rcd13ifvqfk0","pricing_plan_id":"cebpf4jnsgd1na2vs0mg"},{"bike_id":"64135585-4d0e-4628-ba93-734f6a1bd1b8","system_id":"levelo_inurba_marseille","lat":43.24181,"lon":5.39729,"is_reserved":false,"is_disabled":false,"rental_uris":{"android":"levelo://app?vid=64135585-4d0e-4628-ba93-734f6a1bd1b8","ios":"levelo://app?vid=64135585-4d0e-4628-ba93-734f6a1bd1b8"},"vehicle_type_id":"4","last_reported":1753254980,"current_range_meters":14800,"station_id":"ce4bhn12rcd13ifvqgpg","pricing_plan_id":"cebpf4jnsgd1na2vs0mg"},{"bike_id":"1a2751da-031a-4246-8d2c-dd848ee0e802","system_id":"levelo_inurba_marseille","lat":43.29556,"lon":5.38546,"is_reserved":false,"is_disabled":true,"rental_uris":{"android":"levelo://app?vid=1a2751da-031a-4246-8d2c-dd848ee0e802","ios":"levelo://app?vid=1a2751da-031a-4246-8d2c-dd848ee0e802"},"vehicle_type_id":"4","last_reported":1753254980,"current_range_meters":14800,"station_id":"ce4bgih2rcd13ifvqba0","pricing_plan_id":"cebpf4jnsgd1na2vs0mg"},{"bike_id":"bbc2b271-396f-4875-9f1d-0fcc163d87b6","system_id":"levelo_inurba_marseille","lat":43.29126,"lon":5.3969,"is_reserved":false,"is_disabled":false,"rental_uris":{"android":"levelo://app?vid=bbc2b271-396f-4875-9f1d-0fcc163d87b6","ios":"levelo://app?vid=bbc2b271-396f-4875-9f1d-0fcc163d87b6"},"vehicle_type_id":"4","last_reported":1753254980,"current_range_meters":14800,"station_id":"","pricing_plan_id":"cebpf4jnsgd1na2vs0mg"},{"bike_id":"2b6ee741-340a-47e8-ad83-0b60ca783518","system_id":"levelo_inurba_marseille","lat":43.23155,"lon":5.43706,"is_reserved":false,"is_disabled":false,"rental_uris":{"android":"levelo://app?vid=2b6ee741-340a-47e8-ad83-0b60ca783518","ios":"levelo://app?vid=2b6ee741-340a-47e8-ad83-0b60ca783518"},"vehicle_type_id":"4","last_reported":1753254980,"current_range_meters":14800,"station_id":"ce4bhmp2rcd13ifvqgog","pricing_plan_id":"cebpf4jnsgd1na2vs0mg"},{"bike_id":"5b47a81d-ead0-4c4b-8864-c63aeb4bcd3d","system_id":"levelo_inurba_marseille","lat":43.21184,"lon":5.35064,"is_reserved":false,"is_disabled":false,"rental_uris":{"android":"levelo://app?vid=5b47a81d-ead0-4c4b-8864-c63aeb4bcd3d","ios":"levelo://app?vid=5b47a81d-ead0-4c4b-8864-c63aeb4bcd3d"},"vehicle_type_id":"4","last_reported":1753254980,"current_range_meters":14800,"station_id":"st_cvj6sg6p6f1abm77japg","pricing_plan_id":"cebpf4jnsgd1na2vs0mg"},{"bike_id":"99145286-903e-4392-876d-cccb7746f888","system_id":"levelo_inurba_marseille","lat":43.3136,"lon":5.36701,"is_reserved":false,"is_disabled":false,"rental_uris":{"android":"levelo://app?vid=99145286-903e-4392-876d-cccb7746f888","ios":"levelo://app?vid=99145286-903e-4392-876d-cccb7746f888"},"vehicle_type_id":"4","last_reported":1753254980,"current_range_meters":14800,"station_id":"ce4bgr92rcd13ifvqc6g","pricing_plan_id":"cebpf4jnsgd1na2vs0mg"},{"bike_id":"4ab27091-1662-4811-87b9-a886b076324d","system_id":"levelo_inurba_marseille","lat":43.32492,"lon":5.36541,"is_reserved":false,"is_disabled":false,"rental_uris":{"android":"levelo://app?vid=4ab27091-1662-4811-87b9-a886b076324d","ios":"levelo://app?vid=4ab27091-1662-4811-87b9-a886b076324d"},"vehicle_type_id":"4","last_reported":1753254980,"current_range_meters":15200,"station_id":"ce4bhs12rcd13ifvqhvg","pricing_plan_id":"cebpf4jnsgd1na2vs0mg"},{"bike_id":"d5817091-b137-48a2-bafd-9cfa08d68bfa","system_id":"levelo_inurba_marseille","lat":43.29296,"lon":5.40108,"is_reserved":false,"is_disabled":false,"rental_uris":{"android":"levelo://app?vid=d5817091-b137-48a2-bafd-9cfa08d68bfa","ios":"levelo://app?vid=d5817091-b137-48a2-bafd-9cfa08d68bfa"},"vehicle_type_id":"4","last_reported":1753254980,"current_range_meters":15200,"station_id":"ce4bh312rcd13ifvqdk0","pricing_plan_id":"cebpf4jnsgd1na2vs0mg"},{"bike_id":"ea731c2a-e1c3-44a2-becb-45da31f72b6f","system_id":"levelo_inurba_marseille","lat":43.31361,"lon":5.36699,"is_reserved":false,"is_disabled":false,"rental_uris":{"android":"levelo://app?vid=ea731c2a-e1c3-44a2-becb-45da31f72b6f","ios":"levelo://app?vid=ea731c2a-e1c3-44a2-becb-45da31f72b6f"},"vehicle_type_id":"4","last_reported":1753254980,"current_range_meters":16000,"station_id":"ce4bgr92rcd13ifvqc6g","pricing_plan_id":"cebpf4jnsgd1na2vs0mg"},{"bike_id":"bd4053fb-a507-47f8-b050-a61dab05872e","system_id":"levelo_inurba_marseille","lat":43.255647,"lon":5.382307,"is_reserved":false,"is_disabled":false,"rental_uris":{"android":"levelo://app?vid=bd4053fb-a507-47f8-b050-a61dab05872e","ios":"levelo://app?vid=bd4053fb-a507-47f8-b050-a61dab05872e"},"vehicle_type_id":"4","last_reported":1753254980,"current_range_meters":16000,"station_id":"ce4bhih2rcd13ifvqfs0","pricing_plan_id":"cebpf4jnsgd1na2vs0mg"},{"bike_id":"e3a9e6d1-788b-4774-babe-289560a0bee7","system_id":"levelo_inurba_marseille","lat":43.29982,"lon":5.37426,"is_reserved":false,"is_disabled":false,"rental_uris":{"android":"levelo://app?vid=e3a9e6d1-788b-4774-babe-289560a0bee7","ios":"levelo://app?vid=e3a9e6d1-788b-4774-babe-289560a0bee7"},"vehicle_type_id":"4","last_reported":1753254980,"current_range_meters":16000,"station_id":"","pricing_plan_id":"cebpf4jnsgd1na2vs0mg"},{"bike_id":"f3217e35-0bb5-43ab-beb0-dd5e233a7114","system_id":"levelo_inurba_marseille","lat":43.25583,"lon":5.38222,"is_reserved":false,"is_disabled":false,"rental_uris":{"android":"levelo://app?vid=f3217e35-0bb5-43ab-beb0-dd5e233a7114","ios":"levelo://app?vid=f3217e35-0bb5-43ab-beb0-dd5e233a7114"},"vehicle_type_id":"4","last_reported":1753254980,"current_range_meters":16000,"station_id":"ce4bhih2rcd13ifvqfs0","pricing_plan_id":"cebpf4jnsgd1na2vs0mg"},{"bike_id":"d509b331-e799-4503-90e7-40b1e687c26f","system_id":"levelo_inurba_marseille","lat":43.28608,"lon":5.37054,"is_reserved":false,"is_disabled":true,"rental_uris":{"android":"levelo://app?vid=d509b331-e799-4503-90e7-40b1e687c26f","ios":"levelo://app?vid=d509b331-e799-4503-90e7-40b1e687c26f"},"vehicle_type_id":"4","last_reported":1753254980,"current_range_meters":16000,"station_id":"ce4bht12rcd13ifvqi60","pricing_plan_id":"cebpf4jnsgd1na2vs0mg"},{"bike_id":"fedc9b46-f587-4e6b-b1ec-5adbe36a6c96","system_id":"levelo_inurba_marseille","lat":43.25926,"lon":5.40908,"is_reserved":false,"is_disabled":false,"rental_uris":{"android":"levelo://app?vid=fedc9b46-f587-4e6b-b1ec-5adbe36a6c96","ios":"levelo://app?vid=fedc9b46-f587-4e6b-b1ec-5adbe36a6c96"},"vehicle_type_id":"4","last_reported":1753254980,"current_range_meters":16000,"station_id":"ce4bhm92rcd13ifvqglg","pricing_plan_id":"cebpf4jnsgd1na2vs0mg"},{"bike_id":"9b5baf63-d843-4090-808c-7461a839e99a","system_id":"levelo_inurba_marseille","lat":43.23198,"lon":5.35543,"is_reserved":false,"is_disabled":false,"rental_uris":{"android":"levelo://app?vid=9b5baf63-d843-4090-808c-7461a839e99a","ios":"levelo://app?vid=9b5baf63-d843-4090-808c-7461a839e99a"},"vehicle_type_id":"4","last_reported":1753254980,"current_range_meters":16000,"station_id":"ce4bhu92rcd13ifvqi70","pricing_plan_id":"cebpf4jnsgd1na2vs0mg"},{"bike_id":"4a54f3cd-17b6-405a-9f4b-69930ec5e097","system_id":"levelo_inurba_marseille","lat":43.29617,"lon":5.37138,"is_reserved":false,"is_disabled":false,"rental_uris":{"android":"levelo://app?vid=4a54f3cd-17b6-405a-9f4b-69930ec5e097","ios":"levelo://app?vid=4a54f3cd-17b6-405a-9f4b-69930ec5e097"},"vehicle_type_id":"4","last_reported":1753254980,"current_range_meters":16000,"station_id":"ce4bgnh2rcd13ifvqc0g","pricing_plan_id":"cebpf4jnsgd1na2vs0mg"},{"bike_id":"b147d87d-ad6b-4ee0-89e1-f2e85a2edd30","system_id":"levelo_inurba_marseille","lat":43.32128,"lon":5.36718,"is_reserved":false,"is_disabled":false,"rental_uris":{"android":"levelo://app?vid=b147d87d-ad6b-4ee0-89e1-f2e85a2edd30","ios":"levelo://app?vid=b147d87d-ad6b-4ee0-89e1-f2e85a2edd30"},"vehicle_type_id":"4","last_reported":1753254980,"current_range_meters":16000,"station_id":"ce4bhrh2rcd13ifvqhug","pricing_plan_id":"cebpf4jnsgd1na2vs0mg"},{"bike_id":"74667481-5f03-4636-8b5a-495e4f40157d","system_id":"levelo_inurba_marseille","lat":43.31355,"lon":5.36743,"is_reserved":false,"is_disabled":false,"rental_uris":{"android":"levelo://app?vid=74667481-5f03-4636-8b5a-495e4f40157d","ios":"levelo://app?vid=74667481-5f03-4636-8b5a-495e4f40157d"},"vehicle_type_id":"4","last_reported":1753254980,"current_range_meters":16400,"station_id":"ce4bgr92rcd13ifvqc6g","pricing_plan_id":"cebpf4jnsgd1na2vs0mg"},{"bike_id":"cef7c436-6927-42e9-aa9f-de28d427e1f2","system_id":"levelo_inurba_marseille","lat":43.250042,"lon":5.389464,"is_reserved":false,"is_disabled":false,"rental_uris":{"android":"levelo://app?vid=cef7c436-6927-42e9-aa9f-de28d427e1f2","ios":"levelo://app?vid=cef7c436-6927-42e9-aa9f-de28d427e1f2"},"vehicle_type_id":"4","last_reported":1753254980,"current_range_meters":16400,"station_id":"ce4bhgp2rcd13ifvqfd0","pricing_plan_id":"cebpf4jnsgd1na2vs0mg"},{"bike_id":"87efb87e-9c1b-48bc-9816-65bf93d44e2c","system_id":"levelo_inurba_marseille","lat":43.276176,"lon":5.361005,"is_reserved":false,"is_disabled":false,"rental_uris":{"android":"levelo://app?vid=87efb87e-9c1b-48bc-9816-65bf93d44e2c","ios":"levelo://app?vid=87efb87e-9c1b-48bc-9816-65bf93d44e2c"},"vehicle_type_id":"4","last_reported":1753254980,"current_range_meters":16400,"station_id":"","pricing_plan_id":"cebpf4jnsgd1na2vs0mg"},{"bike_id":"5a8a5e3c-7612-4cba-a65b-cf12cd9d7eb5","system_id":"levelo_inurba_marseille","lat":43.30796,"lon":5.379577,"is_reserved":false,"is_disabled":false,"rental_uris":{"android":"levelo://app?vid=5a8a5e3c-7612-4cba-a65b-cf12cd9d7eb5","ios":"levelo://app?vid=5a8a5e3c-7612-4cba-a65b-cf12cd9d7eb5"},"vehicle_type_id":"4","last_reported":1753254980,"current_range_meters":16400,"station_id":"ce4bgg92rcd13ifvqb30","pricing_plan_id":"cebpf4jnsgd1na2vs0mg"},{"bike_id":"2c22247d-1389-400d-b031-f1238ba909b9","system_id":"levelo_inurba_marseille","lat":43.29907,"lon":5.38118,"is_reserved":false,"is_disabled":false,"rental_uris":{"android":"levelo://app?vid=2c22247d-1389-400d-b031-f1238ba909b9","ios":"levelo://app?vid=2c22247d-1389-400d-b031-f1238ba909b9"},"vehicle_type_id":"4","last_reported":1753254980,"current_range_meters":16400,"station_id":"ce4bgj12rcd13ifvqbc0","pricing_plan_id":"cebpf4jnsgd1na2vs0mg"},{"bike_id":"f9c9ff83-8548-4acb-a33b-495af4adeef4","system_id":"levelo_inurba_marseille","lat":43.32353,"lon":5.36734,"is_reserved":false,"is_disabled":false,"rental_uris":{"android":"levelo://app?vid=f9c9ff83-8548-4acb-a33b-495af4adeef4","ios":"levelo://app?vid=f9c9ff83-8548-4acb-a33b-495af4adeef4"},"vehicle_type_id":"4","last_reported":1753254980,"current_range_meters":16800,"station_id":"ce4bhsh2rcd13ifvqi2g","pricing_plan_id":"cebpf4jnsgd1na2vs0mg"},{"bike_id":"b5ce8d93-17c0-45a5-b2b1-eefce45c2d79","system_id":"levelo_inurba_marseille","lat":43.31814,"lon":5.43519,"is_reserved":false,"is_disabled":false,"rental_uris":{"android":"levelo://app?vid=b5ce8d93-17c0-45a5-b2b1-eefce45c2d79","ios":"levelo://app?vid=b5ce8d93-17c0-45a5-b2b1-eefce45c2d79"},"vehicle_type_id":"4","last_reported":1753254980,"current_range_meters":16800,"station_id":"","pricing_plan_id":"cebpf4jnsgd1na2vs0mg"},{"bike_id":"c7fb7bc9-cce5-4dbe-9d25-1adaba45ad0d","system_id":"levelo_inurba_marseille","lat":43.28689,"lon":5.37381,"is_reserved":false,"is_disabled":false,"rental_uris":{"android":"levelo://app?vid=c7fb7bc9-cce5-4dbe-9d25-1adaba45ad0d","ios":"levelo://app?vid=c7fb7bc9-cce5-4dbe-9d25-1adaba45ad0d"},"vehicle_type_id":"4","last_reported":1753254980,"current_range_meters":16800,"station_id":"ce4bh3p2rcd13ifvqdq0","pricing_plan_id":"cebpf4jnsgd1na2vs0mg"},{"bike_id":"8e0f3023-0c39-4aee-a3ef-6288d27beb68","system_id":"levelo_inurba_marseille","lat":43.29291,"lon":5.40141,"is_reserved":false,"is_disabled":false,"rental_uris":{"android":"levelo://app?vid=8e0f3023-0c39-4aee-a3ef-6288d27beb68","ios":"levelo://app?vid=8e0f3023-0c39-4aee-a3ef-6288d27beb68"},"vehicle_type_id":"4","last_reported":1753254980,"current_range_meters":16800,"station_id":"ce4bh312rcd13ifvqdk0","pricing_plan_id":"cebpf4jnsgd1na2vs0mg"},{"bike_id":"5f8fe7ff-e6a2-47ba-87da-c8d0c45f591c","system_id":"levelo_inurba_marseille","lat":43.23146,"lon":5.43716,"is_reserved":false,"is_disabled":false,"rental_uris":{"android":"levelo://app?vid=5f8fe7ff-e6a2-47ba-87da-c8d0c45f591c","ios":"levelo://app?vid=5f8fe7ff-e6a2-47ba-87da-c8d0c45f591c"},"vehicle_type_id":"4","last_reported":1753254980,"current_range_meters":16800,"station_id":"ce4bhmp2rcd13ifvqgog","pricing_plan_id":"cebpf4jnsgd1na2vs0mg"},{"bike_id":"5f140933-6e5c-4c26-91e1-3b7250b0978a","system_id":"levelo_inurba_marseille","lat":43.30953,"lon":5.39032,"is_reserved":false,"is_disabled":false,"rental_uris":{"android":"levelo://app?vid=5f140933-6e5c-4c26-91e1-3b7250b0978a","ios":"levelo://app?vid=5f140933-6e5c-4c26-91e1-3b7250b0978a"},"vehicle_type_id":"4","last_reported":1753254980,"current_range_meters":16800,"station_id":"ce4bgup2rcd13ifvqco0","pricing_plan_id":"cebpf4jnsgd1na2vs0mg"},{"bike_id":"5984b2a9-df08-472f-9972-51a1ce9935d3","system_id":"levelo_inurba_marseille","lat":43.21732,"lon":5.34589,"is_reserved":false,"is_disabled":false,"rental_uris":{"android":"levelo://app?vid=5984b2a9-df08-472f-9972-51a1ce9935d3","ios":"levelo://app?vid=5984b2a9-df08-472f-9972-51a1ce9935d3"},"vehicle_type_id":"4","last_reported":1753254980,"current_range_meters":16800,"station_id":"st_cvj6r9ubvosntc0bgbag","pricing_plan_id":"cebpf4jnsgd1na2vs0mg"},{"bike_id":"40003ce9-0410-467e-8a20-fc80535a1e4d","system_id":"levelo_inurba_marseille","lat":43.28071,"lon":5.39643,"is_reserved":false,"is_disabled":false,"rental_uris":{"android":"levelo://app?vid=40003ce9-0410-467e-8a20-fc80535a1e4d","ios":"levelo://app?vid=40003ce9-0410-467e-8a20-fc80535a1e4d"},"vehicle_type_id":"4","last_reported":1753254980,"current_range_meters":16800,"station_id":"ce4bho12rcd13ifvqh2g","pricing_plan_id":"cebpf4jnsgd1na2vs0mg"},{"bike_id":"ed189939-8cb6-4782-929d-f2f7add8d8c9","system_id":"levelo_inurba_marseille","lat":43.31063,"lon":5.38346,"is_reserved":false,"is_disabled":false,"rental_uris":{"android":"levelo://app?vid=ed189939-8cb6-4782-929d-f2f7add8d8c9","ios":"levelo://app?vid=ed189939-8cb6-4782-929d-f2f7add8d8c9"},"vehicle_type_id":"4","last_reported":1753254980,"current_range_meters":17200,"station_id":"ce4bgv92rcd13ifvqcr0","pricing_plan_id":"cebpf4jnsgd1na2vs0mg"},{"bike_id":"a23358b8-822c-4058-9e04-77660322b4dc","system_id":"levelo_inurba_marseille","lat":43.30906,"lon":5.36846,"is_reserved":false,"is_disabled":false,"rental_uris":{"android":"levelo://app?vid=a23358b8-822c-4058-9e04-77660322b4dc","ios":"levelo://app?vid=a23358b8-822c-4058-9e04-77660322b4dc"},"vehicle_type_id":"4","last_reported":1753254980,"current_range_meters":17200,"station_id":"ce4bgn92rcd13ifvqbvg","pricing_plan_id":"cebpf4jnsgd1na2vs0mg"},{"bike_id":"ad88a7b3-e0b1-4e08-ab7d-28d2c2d92c18","system_id":"levelo_inurba_marseille","lat":43.30523,"lon":5.36687,"is_reserved":false,"is_disabled":false,"rental_uris":{"android":"levelo://app?vid=ad88a7b3-e0b1-4e08-ab7d-28d2c2d92c18","ios":"levelo://app?vid=ad88a7b3-e0b1-4e08-ab7d-28d2c2d92c18"},"vehicle_type_id":"4","last_reported":1753254980,"current_range_meters":17200,"station_id":"ce4bgrp2rcd13ifvqc9g","pricing_plan_id":"cebpf4jnsgd1na2vs0mg"},{"bike_id":"82ac67a4-f160-4183-8787-791e1e658c64","system_id":"levelo_inurba_marseille","lat":43.2925,"lon":5.37623,"is_reserved":false,"is_disabled":false,"rental_uris":{"android":"levelo://app?vid=82ac67a4-f160-4183-8787-791e1e658c64","ios":"levelo://app?vid=82ac67a4-f160-4183-8787-791e1e658c64"},"vehicle_type_id":"4","last_reported":1753254980,"current_range_meters":17200,"station_id":"ce4bgi12rcd13ifvqb80","pricing_plan_id":"cebpf4jnsgd1na2vs0mg"},{"bike_id":"a0de01aa-cd68-4a4d-8bab-65fa167b8610","system_id":"levelo_inurba_marseille","lat":43.23194,"lon":5.3557,"is_reserved":false,"is_disabled":false,"rental_uris":{"android":"levelo://app?vid=a0de01aa-cd68-4a4d-8bab-65fa167b8610","ios":"levelo://app?vid=a0de01aa-cd68-4a4d-8bab-65fa167b8610"},"vehicle_type_id":"4","last_reported":1753254980,"current_range_meters":17200,"station_id":"ce4bhu92rcd13ifvqi70","pricing_plan_id":"cebpf4jnsgd1na2vs0mg"},{"bike_id":"9e7bef7c-53f8-4848-95ce-ebad9a02dd2f","system_id":"levelo_inurba_marseille","lat":43.258663,"lon":5.398908,"is_reserved":false,"is_disabled":false,"rental_uris":{"android":"levelo://app?vid=9e7bef7c-53f8-4848-95ce-ebad9a02dd2f","ios":"levelo://app?vid=9e7bef7c-53f8-4848-95ce-ebad9a02dd2f"},"vehicle_type_id":"4","last_reported":1753254980,"current_range_meters":17200,"station_id":"ce4bhl92rcd13ifvqghg","pricing_plan_id":"cebpf4jnsgd1na2vs0mg"},{"bike_id":"15764a2d-4dc5-45e2-a0da-be3a32d790d4","system_id":"levelo_inurba_marseille","lat":43.32342,"lon":5.40623,"is_reserved":false,"is_disabled":false,"rental_uris":{"android":"levelo://app?vid=15764a2d-4dc5-45e2-a0da-be3a32d790d4","ios":"levelo://app?vid=15764a2d-4dc5-45e2-a0da-be3a32d790d4"},"vehicle_type_id":"4","last_reported":1753254980,"current_range_meters":17200,"station_id":"","pricing_plan_id":"cebpf4jnsgd1na2vs0mg"},{"bike_id":"e8404a02-06ac-4381-bbb2-1247e5f5c9f1","system_id":"levelo_inurba_marseille","lat":43.25927,"lon":5.40887,"is_reserved":false,"is_disabled":false,"rental_uris":{"android":"levelo://app?vid=e8404a02-06ac-4381-bbb2-1247e5f5c9f1","ios":"levelo://app?vid=e8404a02-06ac-4381-bbb2-1247e5f5c9f1"},"vehicle_type_id":"4","last_reported":1753254980,"current_range_meters":17200,"station_id":"ce4bhm92rcd13ifvqglg","pricing_plan_id":"cebpf4jnsgd1na2vs0mg"},{"bike_id":"ca596fb2-e834-445b-810f-77a9ad4fe942","system_id":"levelo_inurba_marseille","lat":43.30536,"lon":5.36694,"is_reserved":false,"is_disabled":false,"rental_uris":{"android":"levelo://app?vid=ca596fb2-e834-445b-810f-77a9ad4fe942","ios":"levelo://app?vid=ca596fb2-e834-445b-810f-77a9ad4fe942"},"vehicle_type_id":"4","last_reported":1753254980,"current_range_meters":17200,"station_id":"ce4bgrp2rcd13ifvqc9g","pricing_plan_id":"cebpf4jnsgd1na2vs0mg"},{"bike_id":"9ce312f1-cb07-4159-91d6-c11a68a5ee71","system_id":"levelo_inurba_marseille","lat":43.21185,"lon":5.35069,"is_reserved":false,"is_disabled":false,"rental_uris":{"android":"levelo://app?vid=9ce312f1-cb07-4159-91d6-c11a68a5ee71","ios":"levelo://app?vid=9ce312f1-cb07-4159-91d6-c11a68a5ee71"},"vehicle_type_id":"4","last_reported":1753254980,"current_range_meters":17200,"station_id":"st_cvj6sg6p6f1abm77japg","pricing_plan_id":"cebpf4jnsgd1na2vs0mg"},{"bike_id":"540bf034-f01c-40e5-a779-10bbd6856c25","system_id":"levelo_inurba_marseille","lat":43.241789,"lon":5.396971,"is_reserved":false,"is_disabled":false,"rental_uris":{"android":"levelo://app?vid=540bf034-f01c-40e5-a779-10bbd6856c25","ios":"levelo://app?vid=540bf034-f01c-40e5-a779-10bbd6856c25"},"vehicle_type_id":"4","last_reported":1753254980,"current_range_meters":17600,"station_id":"ce4bhn12rcd13ifvqgpg","pricing_plan_id":"cebpf4jnsgd1na2vs0mg"},{"bike_id":"826ad3ca-199d-4c2e-8ff1-03bdee665765","system_id":"levelo_inurba_marseille","lat":43.29929,"lon":5.37466,"is_reserved":false,"is_disabled":false,"rental_uris":{"android":"levelo://app?vid=826ad3ca-199d-4c2e-8ff1-03bdee665765","ios":"levelo://app?vid=826ad3ca-199d-4c2e-8ff1-03bdee665765"},"vehicle_type_id":"4","last_reported":1753254980,"current_range_meters":17600,"station_id":"ce4bgjh2rcd13ifvqbg0","pricing_plan_id":"cebpf4jnsgd1na2vs0mg"},{"bike_id":"bef9de9b-8181-4e34-abd3-b52922ba8dcd","system_id":"levelo_inurba_marseille","lat":43.29044,"lon":5.39944,"is_reserved":false,"is_disabled":false,"rental_uris":{"android":"levelo://app?vid=bef9de9b-8181-4e34-abd3-b52922ba8dcd","ios":"levelo://app?vid=bef9de9b-8181-4e34-abd3-b52922ba8dcd"},"vehicle_type_id":"4","last_reported":1753254980,"current_range_meters":17600,"station_id":"ce4bh392rcd13ifvqdm0","pricing_plan_id":"cebpf4jnsgd1na2vs0mg"},{"bike_id":"65b83cf6-e1fd-46dd-a05c-15dae51d0249","system_id":"levelo_inurba_marseille","lat":43.309484,"lon":5.390292,"is_reserved":false,"is_disabled":false,"rental_uris":{"android":"levelo://app?vid=65b83cf6-e1fd-46dd-a05c-15dae51d0249","ios":"levelo://app?vid=65b83cf6-e1fd-46dd-a05c-15dae51d0249"},"vehicle_type_id":"4","last_reported":1753254980,"current_range_meters":18000,"station_id":"ce4bgup2rcd13ifvqco0","pricing_plan_id":"cebpf4jnsgd1na2vs0mg"},{"bike_id":"be86b9e4-581e-473c-a164-8875b1e01b29","system_id":"levelo_inurba_marseille","lat":43.32478,"lon":5.36556,"is_reserved":false,"is_disabled":false,"rental_uris":{"android":"levelo://app?vid=be86b9e4-581e-473c-a164-8875b1e01b29","ios":"levelo://app?vid=be86b9e4-581e-473c-a164-8875b1e01b29"},"vehicle_type_id":"4","last_reported":1753254980,"current_range_meters":18000,"station_id":"ce4bhs12rcd13ifvqhvg","pricing_plan_id":"cebpf4jnsgd1na2vs0mg"},{"bike_id":"a0de36d3-8aa8-40a9-98b1-436371544f65","system_id":"levelo_inurba_marseille","lat":43.292085,"lon":5.393092,"is_reserved":false,"is_disabled":true,"rental_uris":{"android":"levelo://app?vid=a0de36d3-8aa8-40a9-98b1-436371544f65","ios":"levelo://app?vid=a0de36d3-8aa8-40a9-98b1-436371544f65"},"vehicle_type_id":"4","last_reported":1753254980,"current_range_meters":18000,"station_id":"ce4bh192rcd13ifvqdd0","pricing_plan_id":"cebpf4jnsgd1na2vs0mg"},{"bike_id":"f493a3a9-7f6b-470e-bce7-7019418af039","system_id":"levelo_inurba_marseille","lat":43.27897,"lon":5.37991,"is_reserved":false,"is_disabled":false,"rental_uris":{"android":"levelo://app?vid=f493a3a9-7f6b-470e-bce7-7019418af039","ios":"levelo://app?vid=f493a3a9-7f6b-470e-bce7-7019418af039"},"vehicle_type_id":"4","last_reported":1753254980,"current_range_meters":18000,"station_id":"ce4bhf92rcd13ifvqf50","pricing_plan_id":"cebpf4jnsgd1na2vs0mg"},{"bike_id":"0a7e2862-d8ec-4c77-89d9-cfcdd51f8d75","system_id":"levelo_inurba_marseille","lat":43.31466,"lon":5.37309,"is_reserved":false,"is_disabled":false,"rental_uris":{"android":"levelo://app?vid=0a7e2862-d8ec-4c77-89d9-cfcdd51f8d75","ios":"levelo://app?vid=0a7e2862-d8ec-4c77-89d9-cfcdd51f8d75"},"vehicle_type_id":"4","last_reported":1753254980,"current_range_meters":18000,"station_id":"ce4bgt12rcd13ifvqcd0","pricing_plan_id":"cebpf4jnsgd1na2vs0mg"},{"bike_id":"d2df07f1-284d-4afd-bf89-88f9dfd7e15c","system_id":"levelo_inurba_marseille","lat":43.27872,"lon":5.405702,"is_reserved":false,"is_disabled":false,"rental_uris":{"android":"levelo://app?vid=d2df07f1-284d-4afd-bf89-88f9dfd7e15c","ios":"levelo://app?vid=d2df07f1-284d-4afd-bf89-88f9dfd7e15c"},"vehicle_type_id":"4","last_reported":1753254980,"current_range_meters":18800,"station_id":"ce4bhnh2rcd13ifvqgtg","pricing_plan_id":"cebpf4jnsgd1na2vs0mg"},{"bike_id":"4b7b5be6-0a5b-41a1-8516-a13df95ad868","system_id":"levelo_inurba_marseille","lat":43.33772,"lon":5.37432,"is_reserved":false,"is_disabled":false,"rental_uris":{"android":"levelo://app?vid=4b7b5be6-0a5b-41a1-8516-a13df95ad868","ios":"levelo://app?vid=4b7b5be6-0a5b-41a1-8516-a13df95ad868"},"vehicle_type_id":"4","last_reported":1753254980,"current_range_meters":18800,"station_id":"","pricing_plan_id":"cebpf4jnsgd1na2vs0mg"},{"bike_id":"6ab0a592-0c64-4461-a14c-30b5246d5275","system_id":"levelo_inurba_marseille","lat":43.313786,"lon":5.384974,"is_reserved":false,"is_disabled":false,"rental_uris":{"android":"levelo://app?vid=6ab0a592-0c64-4461-a14c-30b5246d5275","ios":"levelo://app?vid=6ab0a592-0c64-4461-a14c-30b5246d5275"},"vehicle_type_id":"4","last_reported":1753254980,"current_range_meters":18800,"station_id":"ce4bgt92rcd13ifvqcf0","pricing_plan_id":"cebpf4jnsgd1na2vs0mg"},{"bike_id":"534286dc-7eb9-4ebf-998c-69cff5dfbc5c","system_id":"levelo_inurba_marseille","lat":43.31074,"lon":5.38341,"is_reserved":false,"is_disabled":false,"rental_uris":{"android":"levelo://app?vid=534286dc-7eb9-4ebf-998c-69cff5dfbc5c","ios":"levelo://app?vid=534286dc-7eb9-4ebf-998c-69cff5dfbc5c"},"vehicle_type_id":"4","last_reported":1753254980,"current_range_meters":18800,"station_id":"ce4bgv92rcd13ifvqcr0","pricing_plan_id":"cebpf4jnsgd1na2vs0mg"},{"bike_id":"5ac85406-65d0-4336-aa89-4b04b2e6689e","system_id":"levelo_inurba_marseille","lat":43.332715,"lon":5.420099,"is_reserved":false,"is_disabled":false,"rental_uris":{"android":"levelo://app?vid=5ac85406-65d0-4336-aa89-4b04b2e6689e","ios":"levelo://app?vid=5ac85406-65d0-4336-aa89-4b04b2e6689e"},"vehicle_type_id":"4","last_reported":1753254980,"current_range_meters":18800,"station_id":"","pricing_plan_id":"cebpf4jnsgd1na2vs0mg"},{"bike_id":"c056311f-78c9-4e18-8685-91c659ddb125","system_id":"levelo_inurba_marseille","lat":43.316145,"lon":5.389693,"is_reserved":false,"is_disabled":false,"rental_uris":{"android":"levelo://app?vid=c056311f-78c9-4e18-8685-91c659ddb125","ios":"levelo://app?vid=c056311f-78c9-4e18-8685-91c659ddb125"},"vehicle_type_id":"4","last_reported":1753254980,"current_range_meters":18800,"station_id":"","pricing_plan_id":"cebpf4jnsgd1na2vs0mg"},{"bike_id":"ae131367-d818-44a0-9e1d-4aa65dcdb16a","system_id":"levelo_inurba_marseille","lat":43.27509,"lon":5.39644,"is_reserved":false,"is_disabled":false,"rental_uris":{"android":"levelo://app?vid=ae131367-d818-44a0-9e1d-4aa65dcdb16a","ios":"levelo://app?vid=ae131367-d818-44a0-9e1d-4aa65dcdb16a"},"vehicle_type_id":"4","last_reported":1753254980,"current_range_meters":18800,"station_id":"","pricing_plan_id":"cebpf4jnsgd1na2vs0mg"},{"bike_id":"bd7e28ff-0f0d-4b11-9366-0a66c0d9ce27","system_id":"levelo_inurba_marseille","lat":43.28677,"lon":5.38662,"is_reserved":false,"is_disabled":false,"rental_uris":{"android":"levelo://app?vid=bd7e28ff-0f0d-4b11-9366-0a66c0d9ce27","ios":"levelo://app?vid=bd7e28ff-0f0d-4b11-9366-0a66c0d9ce27"},"vehicle_type_id":"4","last_reported":1753254980,"current_range_meters":18800,"station_id":"ce4bh492rcd13ifvqdug","pricing_plan_id":"cebpf4jnsgd1na2vs0mg"},{"bike_id":"eabf8af7-0ba6-4ed7-9dc1-8770e1d0db11","system_id":"levelo_inurba_marseille","lat":43.305287,"lon":5.367015,"is_reserved":false,"is_disabled":false,"rental_uris":{"android":"levelo://app?vid=eabf8af7-0ba6-4ed7-9dc1-8770e1d0db11","ios":"levelo://app?vid=eabf8af7-0ba6-4ed7-9dc1-8770e1d0db11"},"vehicle_type_id":"4","last_reported":1753254980,"current_range_meters":18800,"station_id":"ce4bgrp2rcd13ifvqc9g","pricing_plan_id":"cebpf4jnsgd1na2vs0mg"},{"bike_id":"bc0bf34e-7dd4-4a64-b29e-55c3332ed35e","system_id":"levelo_inurba_marseille","lat":43.31709,"lon":5.37761,"is_reserved":false,"is_disabled":false,"rental_uris":{"android":"levelo://app?vid=bc0bf34e-7dd4-4a64-b29e-55c3332ed35e","ios":"levelo://app?vid=bc0bf34e-7dd4-4a64-b29e-55c3332ed35e"},"vehicle_type_id":"4","last_reported":1753254980,"current_range_meters":18800,"station_id":"ce4bgth2rcd13ifvqch0","pricing_plan_id":"cebpf4jnsgd1na2vs0mg"},{"bike_id":"3cd09fc8-9554-4236-8496-0931a7be09d1","system_id":"levelo_inurba_marseille","lat":43.211999,"lon":5.35078,"is_reserved":false,"is_disabled":false,"rental_uris":{"android":"levelo://app?vid=3cd09fc8-9554-4236-8496-0931a7be09d1","ios":"levelo://app?vid=3cd09fc8-9554-4236-8496-0931a7be09d1"},"vehicle_type_id":"4","last_reported":1753254980,"current_range_meters":18800,"station_id":"st_cvj6sg6p6f1abm77japg","pricing_plan_id":"cebpf4jnsgd1na2vs0mg"},{"bike_id":"6bb1f31c-9335-4f39-9585-31374a4775f9","system_id":"levelo_inurba_marseille","lat":43.325583,"lon":5.379059,"is_reserved":false,"is_disabled":false,"rental_uris":{"android":"levelo://app?vid=6bb1f31c-9335-4f39-9585-31374a4775f9","ios":"levelo://app?vid=6bb1f31c-9335-4f39-9585-31374a4775f9"},"vehicle_type_id":"4","last_reported":1753254980,"current_range_meters":18800,"station_id":"","pricing_plan_id":"cebpf4jnsgd1na2vs0mg"},{"bike_id":"fbed0589-65b6-4a23-b23e-a05869c0aa5a","system_id":"levelo_inurba_marseille","lat":43.29039,"lon":5.39956,"is_reserved":false,"is_disabled":false,"rental_uris":{"android":"levelo://app?vid=fbed0589-65b6-4a23-b23e-a05869c0aa5a","ios":"levelo://app?vid=fbed0589-65b6-4a23-b23e-a05869c0aa5a"},"vehicle_type_id":"4","last_reported":1753254980,"current_range_meters":18800,"station_id":"ce4bh392rcd13ifvqdm0","pricing_plan_id":"cebpf4jnsgd1na2vs0mg"},{"bike_id":"5a6aa4f5-803a-49ea-a934-90d899e02bf0","system_id":"levelo_inurba_marseille","lat":43.29301,"lon":5.37179,"is_reserved":false,"is_disabled":false,"rental_uris":{"android":"levelo://app?vid=5a6aa4f5-803a-49ea-a934-90d899e02bf0","ios":"levelo://app?vid=5a6aa4f5-803a-49ea-a934-90d899e02bf0"},"vehicle_type_id":"4","last_reported":1753254980,"current_range_meters":18800,"station_id":"ce4bgh92rcd13ifvqb40","pricing_plan_id":"cebpf4jnsgd1na2vs0mg"},{"bike_id":"082e0405-ad1e-4a8d-8dd4-fcc80c6889bc","system_id":"levelo_inurba_marseille","lat":43.24174,"lon":5.39723,"is_reserved":false,"is_disabled":false,"rental_uris":{"android":"levelo://app?vid=082e0405-ad1e-4a8d-8dd4-fcc80c6889bc","ios":"levelo://app?vid=082e0405-ad1e-4a8d-8dd4-fcc80c6889bc"},"vehicle_type_id":"4","last_reported":1753254980,"current_range_meters":18800,"station_id":"ce4bhn12rcd13ifvqgpg","pricing_plan_id":"cebpf4jnsgd1na2vs0mg"},{"bike_id":"14168552-349d-439d-960a-cfdd0a062c30","system_id":"levelo_inurba_marseille","lat":43.314842,"lon":5.372833,"is_reserved":false,"is_disabled":false,"rental_uris":{"android":"levelo://app?vid=14168552-349d-439d-960a-cfdd0a062c30","ios":"levelo://app?vid=14168552-349d-439d-960a-cfdd0a062c30"},"vehicle_type_id":"4","last_reported":1753254980,"current_range_meters":19200,"station_id":"ce4bgt12rcd13ifvqcd0","pricing_plan_id":"cebpf4jnsgd1na2vs0mg"},{"bike_id":"2db10eb2-d00b-429c-b0ae-d1387a8d4f92","system_id":"levelo_inurba_marseille","lat":43.28429,"lon":5.349818,"is_reserved":false,"is_disabled":true,"rental_uris":{"android":"levelo://app?vid=2db10eb2-d00b-429c-b0ae-d1387a8d4f92","ios":"levelo://app?vid=2db10eb2-d00b-429c-b0ae-d1387a8d4f92"},"vehicle_type_id":"4","last_reported":1753254980,"current_range_meters":19200,"station_id":"ce4bhbh2rcd13ifvqepg","pricing_plan_id":"cebpf4jnsgd1na2vs0mg"},{"bike_id":"dcf364c9-c131-48bb-ad27-be19d2cce662","system_id":"levelo_inurba_marseille","lat":43.30527,"lon":5.36717,"is_reserved":false,"is_disabled":false,"rental_uris":{"android":"levelo://app?vid=dcf364c9-c131-48bb-ad27-be19d2cce662","ios":"levelo://app?vid=dcf364c9-c131-48bb-ad27-be19d2cce662"},"vehicle_type_id":"4","last_reported":1753254980,"current_range_meters":19200,"station_id":"ce4bgrp2rcd13ifvqc9g","pricing_plan_id":"cebpf4jnsgd1na2vs0mg"},{"bike_id":"aadf9c7e-50aa-4bec-bfca-84a13c5744f9","system_id":"levelo_inurba_marseille","lat":43.25939,"lon":5.40903,"is_reserved":false,"is_disabled":false,"rental_uris":{"android":"levelo://app?vid=aadf9c7e-50aa-4bec-bfca-84a13c5744f9","ios":"levelo://app?vid=aadf9c7e-50aa-4bec-bfca-84a13c5744f9"},"vehicle_type_id":"4","last_reported":1753254980,"current_range_meters":19200,"station_id":"ce4bhm92rcd13ifvqglg","pricing_plan_id":"cebpf4jnsgd1na2vs0mg"},{"bike_id":"88ba686c-e916-48b4-a187-3089cccb5922","system_id":"levelo_inurba_marseille","lat":43.314883,"lon":5.372866,"is_reserved":false,"is_disabled":false,"rental_uris":{"android":"levelo://app?vid=88ba686c-e916-48b4-a187-3089cccb5922","ios":"levelo://app?vid=88ba686c-e916-48b4-a187-3089cccb5922"},"vehicle_type_id":"4","last_reported":1753254980,"current_range_meters":19200,"station_id":"ce4bgt12rcd13ifvqcd0","pricing_plan_id":"cebpf4jnsgd1na2vs0mg"},{"bike_id":"18b86593-4f21-41ed-81b3-f3a5b378dc91","system_id":"levelo_inurba_marseille","lat":43.312339,"lon":5.381309,"is_reserved":false,"is_disabled":false,"rental_uris":{"android":"levelo://app?vid=18b86593-4f21-41ed-81b3-f3a5b378dc91","ios":"levelo://app?vid=18b86593-4f21-41ed-81b3-f3a5b378dc91"},"vehicle_type_id":"4","last_reported":1753254980,"current_range_meters":19200,"station_id":"","pricing_plan_id":"cebpf4jnsgd1na2vs0mg"},{"bike_id":"aaddee1c-226e-4fc6-afd6-fac4bfd6b639","system_id":"levelo_inurba_marseille","lat":43.30773,"lon":5.38187,"is_reserved":false,"is_disabled":false,"rental_uris":{"android":"levelo://app?vid=aaddee1c-226e-4fc6-afd6-fac4bfd6b639","ios":"levelo://app?vid=aaddee1c-226e-4fc6-afd6-fac4bfd6b639"},"vehicle_type_id":"4","last_reported":1753254980,"current_range_meters":19200,"station_id":"ce4bgt12rcd13ifvqce0","pricing_plan_id":"cebpf4jnsgd1na2vs0mg"},{"bike_id":"b7dad234-e0b1-49ef-a753-683227550af8","system_id":"levelo_inurba_marseille","lat":43.30908,"lon":5.36833,"is_reserved":false,"is_disabled":false,"rental_uris":{"android":"levelo://app?vid=b7dad234-e0b1-49ef-a753-683227550af8","ios":"levelo://app?vid=b7dad234-e0b1-49ef-a753-683227550af8"},"vehicle_type_id":"4","last_reported":1753254980,"current_range_meters":19200,"station_id":"ce4bgn92rcd13ifvqbvg","pricing_plan_id":"cebpf4jnsgd1na2vs0mg"},{"bike_id":"564ecaf8-19ce-48a2-8c7a-f57d7fb67f0f","system_id":"levelo_inurba_marseille","lat":43.28075,"lon":5.39633,"is_reserved":false,"is_disabled":false,"rental_uris":{"android":"levelo://app?vid=564ecaf8-19ce-48a2-8c7a-f57d7fb67f0f","ios":"levelo://app?vid=564ecaf8-19ce-48a2-8c7a-f57d7fb67f0f"},"vehicle_type_id":"4","last_reported":1753254980,"current_range_meters":19200,"station_id":"ce4bho12rcd13ifvqh2g","pricing_plan_id":"cebpf4jnsgd1na2vs0mg"},{"bike_id":"8ae20bdf-bf90-461a-986c-b66f491b84cd","system_id":"levelo_inurba_marseille","lat":43.303752,"lon":5.424902,"is_reserved":false,"is_disabled":false,"rental_uris":{"android":"levelo://app?vid=8ae20bdf-bf90-461a-986c-b66f491b84cd","ios":"levelo://app?vid=8ae20bdf-bf90-461a-986c-b66f491b84cd"},"vehicle_type_id":"4","last_reported":1753254980,"current_range_meters":19200,"station_id":"ce4bhoh2rcd13ifvqh6g","pricing_plan_id":"cebpf4jnsgd1na2vs0mg"},{"bike_id":"564f2b4c-b9d6-46c9-b344-f1e0abff6f54","system_id":"levelo_inurba_marseille","lat":43.286718,"lon":5.38666,"is_reserved":false,"is_disabled":false,"rental_uris":{"android":"levelo://app?vid=564f2b4c-b9d6-46c9-b344-f1e0abff6f54","ios":"levelo://app?vid=564f2b4c-b9d6-46c9-b344-f1e0abff6f54"},"vehicle_type_id":"4","last_reported":1753254980,"current_range_meters":19200,"station_id":"ce4bh492rcd13ifvqdug","pricing_plan_id":"cebpf4jnsgd1na2vs0mg"},{"bike_id":"1ad257b5-7f83-42c1-867f-92635ff1abbf","system_id":"levelo_inurba_marseille","lat":43.229356,"lon":5.353806,"is_reserved":false,"is_disabled":false,"rental_uris":{"android":"levelo://app?vid=1ad257b5-7f83-42c1-867f-92635ff1abbf","ios":"levelo://app?vid=1ad257b5-7f83-42c1-867f-92635ff1abbf"},"vehicle_type_id":"4","last_reported":1753254980,"current_range_meters":19200,"station_id":"cpo3532slgdg3j2ikp40","pricing_plan_id":"cebpf4jnsgd1na2vs0mg"},{"bike_id":"eb732c53-8afd-44d2-8de2-5716a96386c3","system_id":"levelo_inurba_marseille","lat":43.24387,"lon":5.37058,"is_reserved":false,"is_disabled":false,"rental_uris":{"android":"levelo://app?vid=eb732c53-8afd-44d2-8de2-5716a96386c3","ios":"levelo://app?vid=eb732c53-8afd-44d2-8de2-5716a96386c3"},"vehicle_type_id":"4","last_reported":1753254980,"current_range_meters":19200,"station_id":"ce4bhhh2rcd13ifvqfk0","pricing_plan_id":"cebpf4jnsgd1na2vs0mg"},{"bike_id":"a091473d-ed79-446c-ab9e-5f70e518953d","system_id":"levelo_inurba_marseille","lat":43.30472,"lon":5.37901,"is_reserved":false,"is_disabled":false,"rental_uris":{"android":"levelo://app?vid=a091473d-ed79-446c-ab9e-5f70e518953d","ios":"levelo://app?vid=a091473d-ed79-446c-ab9e-5f70e518953d"},"vehicle_type_id":"4","last_reported":1753254980,"current_range_meters":19600,"station_id":"ce4bgup2rcd13ifvqcn0","pricing_plan_id":"cebpf4jnsgd1na2vs0mg"},{"bike_id":"d30f66f5-9995-4a0a-832b-41fe2c74d0c0","system_id":"levelo_inurba_marseille","lat":43.22506,"lon":5.34791,"is_reserved":false,"is_disabled":false,"rental_uris":{"android":"levelo://app?vid=d30f66f5-9995-4a0a-832b-41fe2c74d0c0","ios":"levelo://app?vid=d30f66f5-9995-4a0a-832b-41fe2c74d0c0"},"vehicle_type_id":"4","last_reported":1753254980,"current_range_meters":19600,"station_id":"","pricing_plan_id":"cebpf4jnsgd1na2vs0mg"},{"bike_id":"30ba9572-2c70-440f-894f-77e64698abe7","system_id":"levelo_inurba_marseille","lat":43.29037,"lon":5.37566,"is_reserved":false,"is_disabled":false,"rental_uris":{"android":"levelo://app?vid=30ba9572-2c70-440f-894f-77e64698abe7","ios":"levelo://app?vid=30ba9572-2c70-440f-894f-77e64698abe7"},"vehicle_type_id":"4","last_reported":1753254980,"current_range_meters":19600,"station_id":"ce4bh692rcd13ifvqe90","pricing_plan_id":"cebpf4jnsgd1na2vs0mg"},{"bike_id":"5ae6ae12-29db-4b9f-b7a7-07b74f66bd7c","system_id":"levelo_inurba_marseille","lat":43.31214,"lon":5.36801,"is_reserved":false,"is_disabled":false,"rental_uris":{"android":"levelo://app?vid=5ae6ae12-29db-4b9f-b7a7-07b74f66bd7c","ios":"levelo://app?vid=5ae6ae12-29db-4b9f-b7a7-07b74f66bd7c"},"vehicle_type_id":"4","last_reported":1753254980,"current_range_meters":19600,"station_id":"ce4bgl92rcd13ifvqbq0","pricing_plan_id":"cebpf4jnsgd1na2vs0mg"},{"bike_id":"70737bad-8214-4681-8a7d-fa98042cf105","system_id":"levelo_inurba_marseille","lat":43.2906,"lon":5.39969,"is_reserved":false,"is_disabled":false,"rental_uris":{"android":"levelo://app?vid=70737bad-8214-4681-8a7d-fa98042cf105","ios":"levelo://app?vid=70737bad-8214-4681-8a7d-fa98042cf105"},"vehicle_type_id":"4","last_reported":1753254980,"current_range_meters":19600,"station_id":"ce4bh392rcd13ifvqdm0","pricing_plan_id":"cebpf4jnsgd1na2vs0mg"},{"bike_id":"8746d46b-9af4-4ddf-80ad-f52470cc5508","system_id":"levelo_inurba_marseille","lat":43.294061,"lon":5.374205,"is_reserved":false,"is_disabled":false,"rental_uris":{"android":"levelo://app?vid=8746d46b-9af4-4ddf-80ad-f52470cc5508","ios":"levelo://app?vid=8746d46b-9af4-4ddf-80ad-f52470cc5508"},"vehicle_type_id":"4","last_reported":1753254980,"current_range_meters":19600,"station_id":"ce4bha92rcd13ifvqeh0","pricing_plan_id":"cebpf4jnsgd1na2vs0mg"},{"bike_id":"48fd2db9-ffb4-4723-8d6e-ccf553613b40","system_id":"levelo_inurba_marseille","lat":43.28754,"lon":5.38893,"is_reserved":false,"is_disabled":false,"rental_uris":{"android":"levelo://app?vid=48fd2db9-ffb4-4723-8d6e-ccf553613b40","ios":"levelo://app?vid=48fd2db9-ffb4-4723-8d6e-ccf553613b40"},"vehicle_type_id":"4","last_reported":1753254980,"current_range_meters":19600,"station_id":"","pricing_plan_id":"cebpf4jnsgd1na2vs0mg"},{"bike_id":"6f0efa27-2418-493f-8e48-b750a14f9109","system_id":"levelo_inurba_marseille","lat":43.26028,"lon":5.37543,"is_reserved":false,"is_disabled":false,"rental_uris":{"android":"levelo://app?vid=6f0efa27-2418-493f-8e48-b750a14f9109","ios":"levelo://app?vid=6f0efa27-2418-493f-8e48-b750a14f9109"},"vehicle_type_id":"4","last_reported":1753254980,"current_range_meters":20000,"station_id":"ce4bhgh2rcd13ifvqfa0","pricing_plan_id":"cebpf4jnsgd1na2vs0mg"},{"bike_id":"42a29b45-35d3-4fa1-a15a-aa36567215f4","system_id":"levelo_inurba_marseille","lat":43.30526,"lon":5.367,"is_reserved":false,"is_disabled":false,"rental_uris":{"android":"levelo://app?vid=42a29b45-35d3-4fa1-a15a-aa36567215f4","ios":"levelo://app?vid=42a29b45-35d3-4fa1-a15a-aa36567215f4"},"vehicle_type_id":"4","last_reported":1753254980,"current_range_meters":20000,"station_id":"ce4bgrp2rcd13ifvqc9g","pricing_plan_id":"cebpf4jnsgd1na2vs0mg"},{"bike_id":"dce614e2-1007-444a-a16e-47aefbe2b4a7","system_id":"levelo_inurba_marseille","lat":43.30165,"lon":5.38084,"is_reserved":false,"is_disabled":false,"rental_uris":{"android":"levelo://app?vid=dce614e2-1007-444a-a16e-47aefbe2b4a7","ios":"levelo://app?vid=dce614e2-1007-444a-a16e-47aefbe2b4a7"},"vehicle_type_id":"4","last_reported":1753254980,"current_range_meters":20000,"station_id":"ce4bgjp2rcd13ifvqbh0","pricing_plan_id":"cebpf4jnsgd1na2vs0mg"},{"bike_id":"61cb5b9a-9cee-4d3f-8bba-365148ee2e42","system_id":"levelo_inurba_marseille","lat":43.25873,"lon":5.39861,"is_reserved":false,"is_disabled":false,"rental_uris":{"android":"levelo://app?vid=61cb5b9a-9cee-4d3f-8bba-365148ee2e42","ios":"levelo://app?vid=61cb5b9a-9cee-4d3f-8bba-365148ee2e42"},"vehicle_type_id":"4","last_reported":1753254980,"current_range_meters":20000,"station_id":"ce4bhl92rcd13ifvqghg","pricing_plan_id":"cebpf4jnsgd1na2vs0mg"},{"bike_id":"750d370d-abb4-47b3-b4f7-7ef76b03801f","system_id":"levelo_inurba_marseille","lat":43.29684,"lon":5.3794,"is_reserved":false,"is_disabled":false,"rental_uris":{"android":"levelo://app?vid=750d370d-abb4-47b3-b4f7-7ef76b03801f","ios":"levelo://app?vid=750d370d-abb4-47b3-b4f7-7ef76b03801f"},"vehicle_type_id":"4","last_reported":1753254980,"current_range_meters":20000,"station_id":"","pricing_plan_id":"cebpf4jnsgd1na2vs0mg"},{"bike_id":"20586eb9-d076-4483-9da1-32bd7f971b1a","system_id":"levelo_inurba_marseille","lat":43.25949,"lon":5.40862,"is_reserved":false,"is_disabled":false,"rental_uris":{"android":"levelo://app?vid=20586eb9-d076-4483-9da1-32bd7f971b1a","ios":"levelo://app?vid=20586eb9-d076-4483-9da1-32bd7f971b1a"},"vehicle_type_id":"4","last_reported":1753254980,"current_range_meters":20000,"station_id":"ce4bhm92rcd13ifvqglg","pricing_plan_id":"cebpf4jnsgd1na2vs0mg"},{"bike_id":"8006020a-6cfe-4131-82ca-a6c8f07671d2","system_id":"levelo_inurba_marseille","lat":43.31189,"lon":5.3772,"is_reserved":false,"is_disabled":false,"rental_uris":{"android":"levelo://app?vid=8006020a-6cfe-4131-82ca-a6c8f07671d2","ios":"levelo://app?vid=8006020a-6cfe-4131-82ca-a6c8f07671d2"},"vehicle_type_id":"4","last_reported":1753254980,"current_range_meters":20000,"station_id":"","pricing_plan_id":"cebpf4jnsgd1na2vs0mg"},{"bike_id":"c677aaa6-17a8-40d0-9850-a602dd2f8807","system_id":"levelo_inurba_marseille","lat":43.300399,"lon":5.374404,"is_reserved":false,"is_disabled":false,"rental_uris":{"android":"levelo://app?vid=c677aaa6-17a8-40d0-9850-a602dd2f8807","ios":"levelo://app?vid=c677aaa6-17a8-40d0-9850-a602dd2f8807"},"vehicle_type_id":"4","last_reported":1753254980,"current_range_meters":20000,"station_id":"","pricing_plan_id":"cebpf4jnsgd1na2vs0mg"},{"bike_id":"76c65f84-3b49-4269-890c-8259fe6ade74","system_id":"levelo_inurba_marseille","lat":43.32363,"lon":5.3674,"is_reserved":false,"is_disabled":false,"rental_uris":{"android":"levelo://app?vid=76c65f84-3b49-4269-890c-8259fe6ade74","ios":"levelo://app?vid=76c65f84-3b49-4269-890c-8259fe6ade74"},"vehicle_type_id":"4","last_reported":1753254980,"current_range_meters":20000,"station_id":"ce4bhsh2rcd13ifvqi2g","pricing_plan_id":"cebpf4jnsgd1na2vs0mg"},{"bike_id":"e246d1c9-8a7e-4c9d-983b-668f75fd83e7","system_id":"levelo_inurba_marseille","lat":43.26555,"lon":5.37281,"is_reserved":false,"is_disabled":false,"rental_uris":{"android":"levelo://app?vid=e246d1c9-8a7e-4c9d-983b-668f75fd83e7","ios":"levelo://app?vid=e246d1c9-8a7e-4c9d-983b-668f75fd83e7"},"vehicle_type_id":"4","last_reported":1753254980,"current_range_meters":20000,"station_id":"ce4bhg12rcd13ifvqf70","pricing_plan_id":"cebpf4jnsgd1na2vs0mg"},{"bike_id":"e16ca76f-d344-469c-97a6-da17aef07752","system_id":"levelo_inurba_marseille","lat":43.30916,"lon":5.36861,"is_reserved":false,"is_disabled":false,"rental_uris":{"android":"levelo://app?vid=e16ca76f-d344-469c-97a6-da17aef07752","ios":"levelo://app?vid=e16ca76f-d344-469c-97a6-da17aef07752"},"vehicle_type_id":"4","last_reported":1753254980,"current_range_meters":20400,"station_id":"ce4bgn92rcd13ifvqbvg","pricing_plan_id":"cebpf4jnsgd1na2vs0mg"},{"bike_id":"5d2a4027-c4e2-4789-b8d3-60410bc4c347","system_id":"levelo_inurba_marseille","lat":43.25011,"lon":5.38906,"is_reserved":false,"is_disabled":false,"rental_uris":{"android":"levelo://app?vid=5d2a4027-c4e2-4789-b8d3-60410bc4c347","ios":"levelo://app?vid=5d2a4027-c4e2-4789-b8d3-60410bc4c347"},"vehicle_type_id":"4","last_reported":1753254980,"current_range_meters":20400,"station_id":"ce4bhgp2rcd13ifvqfd0","pricing_plan_id":"cebpf4jnsgd1na2vs0mg"},{"bike_id":"1575ae10-d836-4d6e-b102-7f31afc0a7cf","system_id":"levelo_inurba_marseille","lat":43.234412,"lon":5.412529,"is_reserved":false,"is_disabled":false,"rental_uris":{"android":"levelo://app?vid=1575ae10-d836-4d6e-b102-7f31afc0a7cf","ios":"levelo://app?vid=1575ae10-d836-4d6e-b102-7f31afc0a7cf"},"vehicle_type_id":"4","last_reported":1753254980,"current_range_meters":20400,"station_id":"","pricing_plan_id":"cebpf4jnsgd1na2vs0mg"},{"bike_id":"dbac5a2e-6c24-4bba-a954-bba840179800","system_id":"levelo_inurba_marseille","lat":43.29936,"lon":5.37443,"is_reserved":false,"is_disabled":false,"rental_uris":{"android":"levelo://app?vid=dbac5a2e-6c24-4bba-a954-bba840179800","ios":"levelo://app?vid=dbac5a2e-6c24-4bba-a954-bba840179800"},"vehicle_type_id":"4","last_reported":1753254980,"current_range_meters":20400,"station_id":"ce4bgjh2rcd13ifvqbg0","pricing_plan_id":"cebpf4jnsgd1na2vs0mg"},{"bike_id":"0ab84abf-a0e6-4e1d-b407-030e9176d6a6","system_id":"levelo_inurba_marseille","lat":43.29034,"lon":5.39969,"is_reserved":false,"is_disabled":false,"rental_uris":{"android":"levelo://app?vid=0ab84abf-a0e6-4e1d-b407-030e9176d6a6","ios":"levelo://app?vid=0ab84abf-a0e6-4e1d-b407-030e9176d6a6"},"vehicle_type_id":"4","last_reported":1753254980,"current_range_meters":20400,"station_id":"ce4bh392rcd13ifvqdm0","pricing_plan_id":"cebpf4jnsgd1na2vs0mg"},{"bike_id":"f7f07796-c7c9-4a74-80e9-fb85744448b8","system_id":"levelo_inurba_marseille","lat":43.229299,"lon":5.3537,"is_reserved":false,"is_disabled":false,"rental_uris":{"android":"levelo://app?vid=f7f07796-c7c9-4a74-80e9-fb85744448b8","ios":"levelo://app?vid=f7f07796-c7c9-4a74-80e9-fb85744448b8"},"vehicle_type_id":"4","last_reported":1753254980,"current_range_meters":20400,"station_id":"cpo3532slgdg3j2ikp40","pricing_plan_id":"cebpf4jnsgd1na2vs0mg"},{"bike_id":"a1638e41-e011-4993-ab9f-8b1a5c74039e","system_id":"levelo_inurba_marseille","lat":43.30333,"lon":5.36898,"is_reserved":false,"is_disabled":false,"rental_uris":{"android":"levelo://app?vid=a1638e41-e011-4993-ab9f-8b1a5c74039e","ios":"levelo://app?vid=a1638e41-e011-4993-ab9f-8b1a5c74039e"},"vehicle_type_id":"4","last_reported":1753254980,"current_range_meters":20400,"station_id":"ce4bgqh2rcd13ifvqc5g","pricing_plan_id":"cebpf4jnsgd1na2vs0mg"},{"bike_id":"76d76185-a3b0-49f2-9609-098534e3832d","system_id":"levelo_inurba_marseille","lat":43.24798,"lon":5.3744,"is_reserved":false,"is_disabled":false,"rental_uris":{"android":"levelo://app?vid=76d76185-a3b0-49f2-9609-098534e3832d","ios":"levelo://app?vid=76d76185-a3b0-49f2-9609-098534e3832d"},"vehicle_type_id":"4","last_reported":1753254980,"current_range_meters":20400,"station_id":"ce4bhgh2rcd13ifvqfb0","pricing_plan_id":"cebpf4jnsgd1na2vs0mg"},{"bike_id":"35a86048-76dd-4de0-afb2-7da8772fad44","system_id":"levelo_inurba_marseille","lat":43.21512,"lon":5.34728,"is_reserved":false,"is_disabled":false,"rental_uris":{"android":"levelo://app?vid=35a86048-76dd-4de0-afb2-7da8772fad44","ios":"levelo://app?vid=35a86048-76dd-4de0-afb2-7da8772fad44"},"vehicle_type_id":"4","last_reported":1753254980,"current_range_meters":20400,"station_id":"","pricing_plan_id":"cebpf4jnsgd1na2vs0mg"},{"bike_id":"154842fb-66cb-4d03-b336-ad8705751d21","system_id":"levelo_inurba_marseille","lat":43.27943,"lon":5.41028,"is_reserved":false,"is_disabled":false,"rental_uris":{"android":"levelo://app?vid=154842fb-66cb-4d03-b336-ad8705751d21","ios":"levelo://app?vid=154842fb-66cb-4d03-b336-ad8705751d21"},"vehicle_type_id":"4","last_reported":1753254980,"current_range_meters":20400,"station_id":"ce4bhnp2rcd13ifvqh0g","pricing_plan_id":"cebpf4jnsgd1na2vs0mg"},{"bike_id":"ee633dba-7c57-42d5-9d83-da89bc246366","system_id":"levelo_inurba_marseille","lat":43.30235,"lon":5.40039,"is_reserved":false,"is_disabled":false,"rental_uris":{"android":"levelo://app?vid=ee633dba-7c57-42d5-9d83-da89bc246366","ios":"levelo://app?vid=ee633dba-7c57-42d5-9d83-da89bc246366"},"vehicle_type_id":"4","last_reported":1753254980,"current_range_meters":20800,"station_id":"","pricing_plan_id":"cebpf4jnsgd1na2vs0mg"},{"bike_id":"5cff865f-b724-4ac7-85a5-b40a1b7f137d","system_id":"levelo_inurba_marseille","lat":43.297564,"lon":5.369226,"is_reserved":false,"is_disabled":false,"rental_uris":{"android":"levelo://app?vid=5cff865f-b724-4ac7-85a5-b40a1b7f137d","ios":"levelo://app?vid=5cff865f-b724-4ac7-85a5-b40a1b7f137d"},"vehicle_type_id":"4","last_reported":1753254980,"current_range_meters":20800,"station_id":"","pricing_plan_id":"cebpf4jnsgd1na2vs0mg"},{"bike_id":"4e9b388e-d665-46d2-bda6-c27ea05258da","system_id":"levelo_inurba_marseille","lat":43.29035,"lon":5.39944,"is_reserved":false,"is_disabled":false,"rental_uris":{"android":"levelo://app?vid=4e9b388e-d665-46d2-bda6-c27ea05258da","ios":"levelo://app?vid=4e9b388e-d665-46d2-bda6-c27ea05258da"},"vehicle_type_id":"4","last_reported":1753254980,"current_range_meters":20800,"station_id":"ce4bh392rcd13ifvqdm0","pricing_plan_id":"cebpf4jnsgd1na2vs0mg"},{"bike_id":"eaea15aa-98ae-4f78-b37a-80e2e4524837","system_id":"levelo_inurba_marseille","lat":43.297916,"lon":5.381026,"is_reserved":false,"is_disabled":false,"rental_uris":{"android":"levelo://app?vid=eaea15aa-98ae-4f78-b37a-80e2e4524837","ios":"levelo://app?vid=eaea15aa-98ae-4f78-b37a-80e2e4524837"},"vehicle_type_id":"4","last_reported":1753254980,"current_range_meters":20800,"station_id":"","pricing_plan_id":"cebpf4jnsgd1na2vs0mg"},{"bike_id":"e9dc97a9-340e-458d-8ed2-825e04269d2e","system_id":"levelo_inurba_marseille","lat":43.278312,"lon":5.391769,"is_reserved":false,"is_disabled":false,"rental_uris":{"android":"levelo://app?vid=e9dc97a9-340e-458d-8ed2-825e04269d2e","ios":"levelo://app?vid=e9dc97a9-340e-458d-8ed2-825e04269d2e"},"vehicle_type_id":"4","last_reported":1753254980,"current_range_meters":20800,"station_id":"ce4bhjp2rcd13ifvqga0","pricing_plan_id":"cebpf4jnsgd1na2vs0mg"},{"bike_id":"cd638351-7f51-48ca-841e-07c0a7274511","system_id":"levelo_inurba_marseille","lat":43.283551,"lon":5.381047,"is_reserved":false,"is_disabled":false,"rental_uris":{"android":"levelo://app?vid=cd638351-7f51-48ca-841e-07c0a7274511","ios":"levelo://app?vid=cd638351-7f51-48ca-841e-07c0a7274511"},"vehicle_type_id":"4","last_reported":1753254980,"current_range_meters":20800,"station_id":"ce4bgph2rcd13ifvqc2g","pricing_plan_id":"cebpf4jnsgd1na2vs0mg"},{"bike_id":"2d4be2e1-c8de-4f06-a499-d471cd4902d6","system_id":"levelo_inurba_marseille","lat":43.27369,"lon":5.36257,"is_reserved":false,"is_disabled":false,"rental_uris":{"android":"levelo://app?vid=2d4be2e1-c8de-4f06-a499-d471cd4902d6","ios":"levelo://app?vid=2d4be2e1-c8de-4f06-a499-d471cd4902d6"},"vehicle_type_id":"4","last_reported":1753254980,"current_range_meters":21600,"station_id":"ce4bhbh2rcd13ifvqeo0","pricing_plan_id":"cebpf4jnsgd1na2vs0mg"},{"bike_id":"d7854e5a-4824-4e9b-bb7a-b68a47ef6d41","system_id":"levelo_inurba_marseille","lat":43.28942,"lon":5.36629,"is_reserved":false,"is_disabled":false,"rental_uris":{"android":"levelo://app?vid=d7854e5a-4824-4e9b-bb7a-b68a47ef6d41","ios":"levelo://app?vid=d7854e5a-4824-4e9b-bb7a-b68a47ef6d41"},"vehicle_type_id":"4","last_reported":1753254980,"current_range_meters":21600,"station_id":"","pricing_plan_id":"cebpf4jnsgd1na2vs0mg"},{"bike_id":"6c37b41a-dccc-4035-8bb7-6c1b317764be","system_id":"levelo_inurba_marseille","lat":43.292653,"lon":5.401283,"is_reserved":false,"is_disabled":false,"rental_uris":{"android":"levelo://app?vid=6c37b41a-dccc-4035-8bb7-6c1b317764be","ios":"levelo://app?vid=6c37b41a-dccc-4035-8bb7-6c1b317764be"},"vehicle_type_id":"4","last_reported":1753254980,"current_range_meters":21600,"station_id":"ce4bh312rcd13ifvqdk0","pricing_plan_id":"cebpf4jnsgd1na2vs0mg"},{"bike_id":"8b172d1a-435b-4e12-a76e-f86935d5e452","system_id":"levelo_inurba_marseille","lat":43.2731,"lon":5.39079,"is_reserved":false,"is_disabled":false,"rental_uris":{"android":"levelo://app?vid=8b172d1a-435b-4e12-a76e-f86935d5e452","ios":"levelo://app?vid=8b172d1a-435b-4e12-a76e-f86935d5e452"},"vehicle_type_id":"4","last_reported":1753254980,"current_range_meters":21600,"station_id":"","pricing_plan_id":"cebpf4jnsgd1na2vs0mg"},{"bike_id":"a34ee7d5-437d-41e4-9268-8d740e1b53b6","system_id":"levelo_inurba_marseille","lat":43.25586,"lon":5.38228,"is_reserved":false,"is_disabled":false,"rental_uris":{"android":"levelo://app?vid=a34ee7d5-437d-41e4-9268-8d740e1b53b6","ios":"levelo://app?vid=a34ee7d5-437d-41e4-9268-8d740e1b53b6"},"vehicle_type_id":"4","last_reported":1753254980,"current_range_meters":22000,"station_id":"ce4bhih2rcd13ifvqfs0","pricing_plan_id":"cebpf4jnsgd1na2vs0mg"},{"bike_id":"395fcc95-9e25-41c4-a4f7-c969641286d4","system_id":"levelo_inurba_marseille","lat":43.30473,"lon":5.37909,"is_reserved":false,"is_disabled":false,"rental_uris":{"android":"levelo://app?vid=395fcc95-9e25-41c4-a4f7-c969641286d4","ios":"levelo://app?vid=395fcc95-9e25-41c4-a4f7-c969641286d4"},"vehicle_type_id":"4","last_reported":1753254980,"current_range_meters":22000,"station_id":"ce4bgup2rcd13ifvqcn0","pricing_plan_id":"cebpf4jnsgd1na2vs0mg"},{"bike_id":"d113c12c-689a-487d-a7a4-96af074aae49","system_id":"levelo_inurba_marseille","lat":43.25919,"lon":5.40899,"is_reserved":false,"is_disabled":false,"rental_uris":{"android":"levelo://app?vid=d113c12c-689a-487d-a7a4-96af074aae49","ios":"levelo://app?vid=d113c12c-689a-487d-a7a4-96af074aae49"},"vehicle_type_id":"4","last_reported":1753254980,"current_range_meters":22000,"station_id":"ce4bhm92rcd13ifvqglg","pricing_plan_id":"cebpf4jnsgd1na2vs0mg"},{"bike_id":"8c1d0819-f991-43c1-a0ae-15c2c54fdbcd","system_id":"levelo_inurba_marseille","lat":43.27367,"lon":5.36246,"is_reserved":false,"is_disabled":true,"rental_uris":{"android":"levelo://app?vid=8c1d0819-f991-43c1-a0ae-15c2c54fdbcd","ios":"levelo://app?vid=8c1d0819-f991-43c1-a0ae-15c2c54fdbcd"},"vehicle_type_id":"4","last_reported":1753254980,"current_range_meters":22000,"station_id":"ce4bhbh2rcd13ifvqeo0","pricing_plan_id":"cebpf4jnsgd1na2vs0mg"},{"bike_id":"2007bcc3-0eb9-461a-bec9-d945b482722b","system_id":"levelo_inurba_marseille","lat":43.24998,"lon":5.38928,"is_reserved":false,"is_disabled":false,"rental_uris":{"android":"levelo://app?vid=2007bcc3-0eb9-461a-bec9-d945b482722b","ios":"levelo://app?vid=2007bcc3-0eb9-461a-bec9-d945b482722b"},"vehicle_type_id":"4","last_reported":1753254980,"current_range_meters":22000,"station_id":"ce4bhgp2rcd13ifvqfd0","pricing_plan_id":"cebpf4jnsgd1na2vs0mg"},{"bike_id":"bbc8d487-4896-48a6-8db9-b191bd8c19f7","system_id":"levelo_inurba_marseille","lat":43.31344,"lon":5.3672,"is_reserved":false,"is_disabled":false,"rental_uris":{"android":"levelo://app?vid=bbc8d487-4896-48a6-8db9-b191bd8c19f7","ios":"levelo://app?vid=bbc8d487-4896-48a6-8db9-b191bd8c19f7"},"vehicle_type_id":"4","last_reported":1753254980,"current_range_meters":22000,"station_id":"ce4bgr92rcd13ifvqc6g","pricing_plan_id":"cebpf4jnsgd1na2vs0mg"},{"bike_id":"74540259-4069-40a7-a646-cfaec8e07b7d","system_id":"levelo_inurba_marseille","lat":43.31358,"lon":5.36704,"is_reserved":false,"is_disabled":false,"rental_uris":{"android":"levelo://app?vid=74540259-4069-40a7-a646-cfaec8e07b7d","ios":"levelo://app?vid=74540259-4069-40a7-a646-cfaec8e07b7d"},"vehicle_type_id":"4","last_reported":1753254980,"current_range_meters":22000,"station_id":"ce4bgr92rcd13ifvqc6g","pricing_plan_id":"cebpf4jnsgd1na2vs0mg"},{"bike_id":"e54119c6-49eb-455d-b89c-6bf9189d820f","system_id":"levelo_inurba_marseille","lat":43.26785,"lon":5.39422,"is_reserved":false,"is_disabled":false,"rental_uris":{"android":"levelo://app?vid=e54119c6-49eb-455d-b89c-6bf9189d820f","ios":"levelo://app?vid=e54119c6-49eb-455d-b89c-6bf9189d820f"},"vehicle_type_id":"4","last_reported":1753254980,"current_range_meters":22000,"station_id":"ce4bhh12rcd13ifvqfg0","pricing_plan_id":"cebpf4jnsgd1na2vs0mg"},{"bike_id":"15d367de-17b0-4dc7-a6ae-9f74942a498e","system_id":"levelo_inurba_marseille","lat":43.30607,"lon":5.37241,"is_reserved":false,"is_disabled":false,"rental_uris":{"android":"levelo://app?vid=15d367de-17b0-4dc7-a6ae-9f74942a498e","ios":"levelo://app?vid=15d367de-17b0-4dc7-a6ae-9f74942a498e"},"vehicle_type_id":"4","last_reported":1753254980,"current_range_meters":22000,"station_id":"ce4bgqh2rcd13ifvqc4g","pricing_plan_id":"cebpf4jnsgd1na2vs0mg"},