{"last_updated":1762351844,"ttl":60,"version":"2.2","data":{"bikes":[{"bike_id":"b7c5e96f-2666-418c-b8cc-36dfc613348c","system_id":"levelo_inurba_marseille","lat":43.337444,"lon":5.374475,"is_reserved":false,"is_disabled":false,"rental_uris":{"android":"levelo://app?vid=b7c5e96f-2666-418c-b8cc-36dfc613348c","ios":"levelo://app?vid=b7c5e96f-2666-418c-b8cc-36dfc613348c"},"vehicle_type_id":"4","last_reported":1762351844,"current_range_meters":0,"station_id":"","pricing_plan_id":"cebpf4jnsgd1na2vs0mg"},{"bike_id":"9c46a9f5-39cb-461a-ac28-286dc216524b","system_id":"levelo_inurba_marseille","lat":43.337444,"lon":5.374475,"is_reserved":false,"is_disabled":false,"rental_uris":{"android":"levelo://app?vid=9c46a9f5-39cb-461a-ac28-286dc216524b","ios":"levelo://app?vid=9c46a9f5-39cb-461a-ac28-286dc216524b"},"vehicle_type_id":"4","last_reported":1762351844,"current_range_meters":0,"station_id":"","pricing_plan_id":"cebpf4jnsgd1na2vs0mg"},{"bike_id":"2aa95e42-5a8c-4825-81d0-40d356e0168e","system_id":"levelo_inurba_marseille","lat":43.337444,"lon":5.374475,"is_reserved":false,"is_disabled":false,"rental_uris":{"android":"levelo://app?vid=2aa95e42-5a8c-4825-81d0-40d356e0168e","ios":"levelo://app?vid=2aa95e42-5a8c-4825-81d0-40d356e0168e"},"vehicle_type_id":"4","last_reported":1762351844,"current_range_meters":0,"station_id":"","pricing_plan_id":"cebpf4jnsgd1na2vs0mg"},{"bike_id":"23f7c00c-abd3-4b9e-b454-b625ef68ddce","system_id":"levelo_inurba_marseille","lat":43.337444,"lon":5.374475,"is_reserved":false,"is_disabled":false,"rental_uris":{"android":"levelo://app?vid=23f7c00c-abd3-4b9e-b454-b625ef68ddce","ios":"levelo://app?vid=23f7c00c-abd3-4b9e-b454-b625ef68ddce"},"vehicle_type_id":"4","last_reported":1762351844,"current_range_meters":0,"station_id":"","pricing_plan_id":"cebpf4jnsgd1na2vs0mg"},{"bike_id":"a3451d83-9c80-4ffa-96f9-a14c25634465","system_id":"levelo_inurba_marseille","lat":43.337444,"lon":5.374475,"is_reserved":false,"is_disabled":false,"rental_uris":{"android":"levelo://app?vid=a3451d83-9c80-4ffa-96f9-a14c25634465","ios":"levelo://app?vid=a3451d83-9c80-4ffa-96f9-a14c25634465"},"vehicle_type_id":"4","last_reported":1762351844,"current_range_meters":0,"station_id":"","pricing_plan_id":"cebpf4jnsgd1na2vs0mg"},{"bike_id":"19649598-fd0f-4237-a302-8b748132eb30","system_id":"levelo_inurba_marseille","lat":43.337444,"lon":5.374475,"is_reserved":false,"is_disabled":false,"rental_uris":{"android":"levelo://app?vid=19649598-fd0f-4237-a302-8b748132eb30","ios":"levelo://app?vid=19649598-fd0f-4237-a302-8b748132eb30"},"vehicle_type_id":"4","last_reported":1762351844,"current_range_meters":0,"station_id":"","pricing_plan_id":"cebpf4jnsgd1na2vs0mg"},{"bike_id":"79f0199f-1fbb-40b2-9337-191d82b520a7","system_id":"levelo_inurba_marseille","lat":43.337444,"lon":5.374475,"is_reserved":false,"is_disabled":false,"rental_uris":{"android":"levelo://app?vid=79f0199f-1fbb-40b2-9337-191d82b520a7","ios":"levelo://app?vid=79f0199f-1fbb-40b2-9337-191d82b520a7"},"vehicle_type_id":"4","last_reported":1762351844,"current_range_meters":0,"station_id":"","pricing_plan_id":"cebpf4jnsgd1na2vs0mg"},{"bike_id":"34a0d96e-bbf5-4ab6-8de8-a56cc767fd57","system_id":"levelo_inurba_marseille","lat":43.337444,"lon":5.374475,"is_reserved":false,"is_disabled":false,"rental_uris":{"android":"levelo://app?vid=34a0d96e-bbf5-4ab6-8de8-a56cc767fd57","ios":"levelo://app?vid=34a0d96e-bbf5-4ab6-8de8-a56cc767fd57"},"vehicle_type_id":"4","last_reported":1762351844,"current_range_meters":0,"station_id":"","pricing_plan_id":"cebpf4jnsgd1na2vs0mg"},{"bike_id":"30c4756b-2e3a-4ac9-b1fb-aa08283eecaa","system_id":"levelo_inurba_marseille","lat":43.337444,"lon":5.374475,"is_reserved":false,"is_disabled":false,"rental_uris":{"android":"levelo://app?vid=30c4756b-2e3a-4ac9-b1fb-aa08283eecaa","ios":"levelo://app?vid=30c4756b-2e3a-4ac9-b1fb-aa08283eecaa"},"vehicle_type_id":"4","last_reported":1762351844,"current_range_meters":0,"station_id":"","pricing_plan_id":"cebpf4jnsgd1na2vs0mg"},{"bike_id":"cb5b6ee7-3ef8-4299-a38d-cc32f035098b","system_id":"levelo_inurba_marseille","lat":43.337444,"lon":5.374475,"is_reserved":false,"is_disabled":false,"rental_uris":{"android":"levelo://app?vid=cb5b6ee7-3ef8-4299-a38d-cc32f035098b","ios":"levelo://app?vid=cb5b6ee7-3ef8-4299-a38d-cc32f035098b"},"vehicle_type_id":"4","last_reported":1762351844,"current_range_meters":0,"station_id":"","pricing_plan_id":"cebpf4jnsgd1na2vs0mg"},{"bike_id":"0dbf8834-1963-4427-879a-60d5139a1252","system_id":"levelo_inurba_marseille","lat":43.337444,"lon":5.374475,"is_reserved":false,"is_disabled":false,"rental_uris":{"android":"levelo://app?vid=0dbf8834-1963-4427-879a-60d5139a1252","ios":"levelo://app?vid=0dbf8834-1963-4427-879a-60d5139a1252"},"vehicle_type_id":"4","last_reported":1762351844,"current_range_meters":0,"station_id":"","pricing_plan_id":"cebpf4jnsgd1na2vs0mg"},{"bike_id":"c3d3ce5c-8075-4b42-9455-beadd1468f17","system_id":"levelo_inurba_marseille","lat":43.337444,"lon":5.374475,"is_reserved":false,"is_disabled":false,"rental_uris":{"android":"levelo://app?vid=c3d3ce5c-8075-4b42-9455-beadd1468f17","ios":"levelo://app?vid=c3d3ce5c-8075-4b42-9455-beadd1468f17"},"vehicle_type_id":"4","last_reported":1762351844,"current_range_meters":0,"station_id":"","pricing_plan_id":"cebpf4jnsgd1na2vs0mg"},{"bike_id":"2177a091-7ad7-4fcd-ad08-e78406d1a8ef","system_id":"levelo_inurba_marseille","lat":43.337444,"lon":5.374475,"is_reserved":false,"is_disabled":false,"rental_uris":{"android":"levelo://app?vid=2177a091-7ad7-4fcd-ad08-e78406d1a8ef","ios":"levelo://app?vid=2177a091-7ad7-4fcd-ad08-e78406d1a8ef"},"vehicle_type_id":"4","last_reported":1762351844,"current_range_meters":0,"station_id":"","pricing_plan_id":"cebpf4jnsgd1na2vs0mg"},{"bike_id":"ed2dc6ad-7a96-47d2-b4d0-3deee38fd62c","system_id":"levelo_inurba_marseille","lat":43.337444,"lon":5.374475,"is_reserved":false,"is_disabled":false,"rental_uris":{"android":"levelo://app?vid=ed2dc6ad-7a96-47d2-b4d0-3deee38fd62c","ios":"levelo://app?vid=ed2dc6ad-7a96-47d2-b4d0-3deee38fd62c"},"vehicle_type_id":"4","last_reported":1762351844,"current_range_meters":0,"station_id":"","pricing_plan_id":"cebpf4jnsgd1na2vs0mg"},{"bike_id":"42735ee1-244b-4d96-8480-f9806199924f","system_id":"levelo_inurba_marseille","lat":43.337444,"lon":5.374475,"is_reserved":false,"is_disabled":false,"rental_uris":{"android":"levelo://app?vid=42735ee1-244b-4d96-8480-f9806199924f","ios":"levelo://app?vid=42735ee1-244b-4d96-8480-f9806199924f"},"vehicle_type_id":"4","last_reported":1762351844,"current_range_meters":0,"station_id":"","pricing_plan_id":"cebpf4jnsgd1na2vs0mg"},{"bike_id":"0d7ab61a-02ec-456f-ab23-ba92f34594d5","system_id":"levelo_inurba_marseille","lat":43.337444,"lon":5.374475,"is_reserved":false,"is_disabled":false,"rental_uris":{"android":"levelo://app?vid=0d7ab61a-02ec-456f-ab23-ba92f34594d5","ios":"levelo://app?vid=0d7ab61a-02ec-456f-ab23-ba92f34594d5"},"vehicle_type_id":"4","last_reported":1762351844,"current_range_meters":0,"station_id":"","pricing_plan_id":"cebpf4jnsgd1na2vs0mg"},{"bike_id":"f68022fa-eb0a-4aac-8aea-6f2e14d0afb9","system_id":"levelo_inurba_marseille","lat":43.337444,"lon":5.374475,"is_reserved":false,"is_disabled":false,"rental_uris":{"android":"levelo://app?vid=f68022fa-eb0a-4aac-8aea-6f2e14d0afb9","ios":"levelo://app?vid=f68022fa-eb0a-4aac-8aea-6f2e14d0afb9"},"vehicle_type_id":"4","last_reported":1762351844,"current_range_meters":0,"station_id":"","pricing_plan_id":"cebpf4jnsgd1na2vs0mg"},{"bike_id":"386a9781-f1f4-4d33-8679-4d1163c3b9de","system_id":"levelo_inurba_marseille","lat":43.337444,"lon":5.374475,"is_reserved":false,"is_disabled":false,"rental_uris":{"android":"levelo://app?vid=386a9781-f1f4-4d33-8679-4d1163c3b9de","ios":"levelo://app?vid=386a9781-f1f4-4d33-8679-4d1163c3b9de"},"vehicle_type_id":"4","last_reported":1762351844,"current_range_meters":0,"station_id":"","pricing_plan_id":"cebpf4jnsgd1na2vs0mg"},{"bike_id":"4692d694-8a80-47c7-a7c6-1264ca94c6df","system_id":"levelo_inurba_marseille","lat":43.337444,"lon":5.374475,"is_reserved":false,"is_disabled":false,"rental_uris":{"android":"levelo://app?vid=4692d694-8a80-47c7-a7c6-1264ca94c6df","ios":"levelo://app?vid=4692d694-8a80-47c7-a7c6-1264ca94c6df"},"vehicle_type_id":"4","last_reported":1762351844,"current_range_meters":0,"station_id":"","pricing_plan_id":"cebpf4jnsgd1na2vs0mg"},{"bike_id":"4706d18d-408c-4dc1-a44f-b0f99f27bdf0","system_id":"levelo_inurba_marseille","lat":43.337444,"lon":5.374475,"is_reserved":false,"is_disabled":false,"rental_uris":{"android":"levelo://app?vid=4706d18d-408c-4dc1-a44f-b0f99f27bdf0","ios":"levelo://app?vid=4706d18d-408c-4dc1-a44f-b0f99f27bdf0"},"vehicle_type_id":"4","last_reported":1762351844,"current_range_meters":0,"station_id":"","pricing_plan_id":"cebpf4jnsgd1na2vs0mg"},{"bike_id":"abb77335-fe7b-4b75-9b2f-be4bb45cbb0d","system_id":"levelo_inurba_marseille","lat":43.337444,"lon":5.374475,"is_reserved":false,"is_disabled":false,"rental_uris":{"android":"levelo://app?vid=abb77335-fe7b-4b75-9b2f-be4bb45cbb0d","ios":"levelo://app?vid=abb77335-fe7b-4b75-9b2f-be4bb45cbb0d"},"vehicle_type_id":"4","last_reported":1762351844,"current_range_meters":0,"station_id":"","pricing_plan_id":"cebpf4jnsgd1na2vs0mg"},{"bike_id":"4bde9393-6919-41f3-8fef-f4b40f375cc0","system_id":"levelo_inurba_marseille","lat":43.337444,"lon":5.374475,"is_reserved":false,"is_disabled":false,"rental_uris":{"android":"levelo://app?vid=4bde9393-6919-41f3-8fef-f4b40f375cc0","ios":"levelo://app?vid=4bde9393-6919-41f3-8fef-f4b40f375cc0"},"vehicle_type_id":"4","last_reported":1762351844,"current_range_meters":0,"station_id":"","pricing_plan_id":"cebpf4jnsgd1na2vs0mg"},{"bike_id":"51f4e824-5009-4c5b-9283-cfda2d34404c","system_id":"levelo_inurba_marseille","lat":43.337444,"lon":5.374475,"is_reserved":false,"is_disabled":false,"rental_uris":{"android":"levelo://app?vid=51f4e824-5009-4c5b-9283-cfda2d34404c","ios":"levelo://app?vid=51f4e824-5009-4c5b-9283-cfda2d34404c"},"vehicle_type_id":"4","last_reported":1762351844,"current_range_meters":0,"station_id":"","pricing_plan_id":"cebpf4jnsgd1na2vs0mg"},{"bike_id":"d155d58c-f50a-4469-b126-b5af1b8d3f8a","system_id":"levelo_inurba_marseille","lat":43.337444,"lon":5.374475,"is_reserved":false,"is_disabled":false,"rental_uris":{"android":"levelo://app?vid=d155d58c-f50a-4469-b126-b5af1b8d3f8a","ios":"levelo://app?vid=d155d58c-f50a-4469-b126-b5af1b8d3f8a"},"vehicle_type_id":"4","last_reported":1762351844,"current_range_meters":0,"station_id":"","pricing_plan_id":"cebpf4jnsgd1na2vs0mg"},{"bike_id":"16f471c2-a8ed-4e61-ba2a-d83085a9c284","system_id":"levelo_inurba_marseille","lat":43.337444,"lon":5.374475,"is_reserved":false,"is_disabled":false,"rental_uris":{"android":"levelo://app?vid=16f471c2-a8ed-4e61-ba2a-d83085a9c284","ios":"levelo://app?vid=16f471c2-a8ed-4e61-ba2a-d83085a9c284"},"vehicle_type_id":"4","last_reported":1762351844,"current_range_meters":0,"station_id":"","pricing_plan_id":"cebpf4jnsgd1na2vs0mg"},{"bike_id":"b8bd4cc4-f519-43de-b194-2cc2cf75483c","system_id":"levelo_inurba_marseille","lat":43.337444,"lon":5.374475,"is_reserved":false,"is_disabled":false,"rental_uris":{"android":"levelo://app?vid=b8bd4cc4-f519-43de-b194-2cc2cf75483c","ios":"levelo://app?vid=b8bd4cc4-f519-43de-b194-2cc2cf75483c"},"vehicle_type_id":"4","last_reported":1762351844,"current_range_meters":0,"station_id":"","pricing_plan_id":"cebpf4jnsgd1na2vs0mg"},{"bike_id":"591b062c-0423-40a0-9120-f7c30f97e98f","system_id":"levelo_inurba_marseille","lat":43.337444,"lon":5.374475,"is_reserved":false,"is_disabled":false,"rental_uris":{"android":"levelo://app?vid=591b062c-0423-40a0-9120-f7c30f97e98f","ios":"levelo://app?vid=591b062c-0423-40a0-9120-f7c30f97e98f"},"vehicle_type_id":"4","last_reported":1762351844,"current_range_meters":0,"station_id":"","pricing_plan_id":"cebpf4jnsgd1na2vs0mg"},{"bike_id":"8fbb8d57-565e-4232-a867-846a316b3375","system_id":"levelo_inurba_marseille","lat":43.337444,"lon":5.374475,"is_reserved":false,"is_disabled":false,"rental_uris":{"android":"levelo://app?vid=8fbb8d57-565e-4232-a867-846a316b3375","ios":"levelo://app?vid=8fbb8d57-565e-4232-a867-846a316b3375"},"vehicle_type_id":"4","last_reported":1762351844,"current_range_meters":0,"station_id":"","pricing_plan_id":"cebpf4jnsgd1na2vs0mg"},{"bike_id":"e6134458-396f-46c5-87ab-a79cf2b6424c","system_id":"levelo_inurba_marseille","lat":43.337444,"lon":5.374475,"is_reserved":false,"is_disabled":false,"rental_uris":{"android":"levelo://app?vid=e6134458-396f-46c5-87ab-a79cf2b6424c","ios":"levelo://app?vid=e6134458-396f-46c5-87ab-a79cf2b6424c"},"vehicle_type_id":"4","last_reported":1762351844,"current_range_meters":0,"station_id":"","pricing_plan_id":"cebpf4jnsgd1na2vs0mg"},{"bike_id":"0a0d4295-fe5b-4614-b2ca-f5579d5190b0","system_id":"levelo_inurba_marseille","lat":43.337444,"lon":5.374475,"is_reserved":false,"is_disabled":false,"rental_uris":{"android":"levelo://app?vid=0a0d4295-fe5b-4614-b2ca-f5579d5190b0","ios":"levelo://app?vid=0a0d4295-fe5b-4614-b2ca-f5579d5190b0"},"vehicle_type_id":"4","last_reported":1762351844,"current_range_meters":0,"station_id":"","pricing_plan_id":"cebpf4jnsgd1na2vs0mg"},{"bike_id":"5bfde13a-681a-4014-80a5-e8794835e685","system_id":"levelo_inurba_marseille","lat":43.231425,"lon":5.437231,"is_reserved":false,"is_disabled":false,"rental_uris":{"android":"levelo://app?vid=5bfde13a-681a-4014-80a5-e8794835e685","ios":"levelo://app?vid=5bfde13a-681a-4014-80a5-e8794835e685"},"vehicle_type_id":"4","last_reported":1762351844,"current_range_meters":2800,"station_id":"ce4bhmp2rcd13ifvqgog","pricing_plan_id":"cebpf4jnsgd1na2vs0mg"},{"bike_id":"b7027313-5e92-46d5-aa7e-37fafec3c4a4","system_id":"levelo_inurba_marseille","lat":43.26027,"lon":5.3755,"is_reserved":false,"is_disabled":false,"rental_uris":{"android":"levelo://app?vid=b7027313-5e92-46d5-aa7e-37fafec3c4a4","ios":"levelo://app?vid=b7027313-5e92-46d5-aa7e-37fafec3c4a4"},"vehicle_type_id":"4","last_reported":1762351844,"current_range_meters":2800,"station_id":"ce4bhgh2rcd13ifvqfa0","pricing_plan_id":"cebpf4jnsgd1na2vs0mg"},{"bike_id":"ea0012c3-3d86-4fbd-b446-7dbdb5ef0689","system_id":"levelo_inurba_marseille","lat":43.28855,"lon":5.35847,"is_reserved":false,"is_disabled":false,"rental_uris":{"android":"levelo://app?vid=ea0012c3-3d86-4fbd-b446-7dbdb5ef0689","ios":"levelo://app?vid=ea0012c3-3d86-4fbd-b446-7dbdb5ef0689"},"vehicle_type_id":"4","last_reported":1762351844,"current_range_meters":3200,"station_id":"ce4bhb12rcd13ifvqem0","pricing_plan_id":"cebpf4jnsgd1na2vs0mg"},{"bike_id":"4f5296b0-9720-4987-b5e4-5ee59fdc3d8d","system_id":"levelo_inurba_marseille","lat":43.28535,"lon":5.44099,"is_reserved":false,"is_disabled":false,"rental_uris":{"android":"levelo://app?vid=4f5296b0-9720-4987-b5e4-5ee59fdc3d8d","ios":"levelo://app?vid=4f5296b0-9720-4987-b5e4-5ee59fdc3d8d"},"vehicle_type_id":"4","last_reported":1762351844,"current_range_meters":3200,"station_id":"st_d3j3df2ikq2c7380ej80","pricing_plan_id":"cebpf4jnsgd1na2vs0mg"},{"bike_id":"3fbe5ef4-1d2a-4118-8eed-535ebabd1ed4","system_id":"levelo_inurba_marseille","lat":43.23137,"lon":5.43722,"is_reserved":false,"is_disabled":false,"rental_uris":{"android":"levelo://app?vid=3fbe5ef4-1d2a-4118-8eed-535ebabd1ed4","ios":"levelo://app?vid=3fbe5ef4-1d2a-4118-8eed-535ebabd1ed4"},"vehicle_type_id":"4","last_reported":1762351844,"current_range_meters":3200,"station_id":"ce4bhmp2rcd13ifvqgog","pricing_plan_id":"cebpf4jnsgd1na2vs0mg"},{"bike_id":"0464b9d1-e411-4c9a-8aee-df4743e5280b","system_id":"levelo_inurba_marseille","lat":43.32105,"lon":5.367805,"is_reserved":false,"is_disabled":false,"rental_uris":{"android":"levelo://app?vid=0464b9d1-e411-4c9a-8aee-df4743e5280b","ios":"levelo://app?vid=0464b9d1-e411-4c9a-8aee-df4743e5280b"},"vehicle_type_id":"4","last_reported":1762351844,"current_range_meters":3200,"station_id":"ce4bhrh2rcd13ifvqhug","pricing_plan_id":"cebpf4jnsgd1na2vs0mg"},{"bike_id":"0d9f9c7d-9950-44cc-a5c4-84828ceec9b6","system_id":"levelo_inurba_marseille","lat":43.27205,"lon":5.39184,"is_reserved":false,"is_disabled":false,"rental_uris":{"android":"levelo://app?vid=0d9f9c7d-9950-44cc-a5c4-84828ceec9b6","ios":"levelo://app?vid=0d9f9c7d-9950-44cc-a5c4-84828ceec9b6"},"vehicle_type_id":"4","last_reported":1762351844,"current_range_meters":3200,"station_id":"ce4bhhp2rcd13ifvqfm0","pricing_plan_id":"cebpf4jnsgd1na2vs0mg"},{"bike_id":"7b3eb160-7785-4b51-b2bb-da3266dc6f69","system_id":"levelo_inurba_marseille","lat":43.30944,"lon":5.39031,"is_reserved":false,"is_disabled":false,"rental_uris":{"android":"levelo://app?vid=7b3eb160-7785-4b51-b2bb-da3266dc6f69","ios":"levelo://app?vid=7b3eb160-7785-4b51-b2bb-da3266dc6f69"},"vehicle_type_id":"4","last_reported":1762351844,"current_range_meters":3200,"station_id":"ce4bgup2rcd13ifvqco0","pricing_plan_id":"cebpf4jnsgd1na2vs0mg"},{"bike_id":"4206fd1c-fca5-4468-81b6-1c50d2a4a589","system_id":"levelo_inurba_marseille","lat":43.29783,"lon":5.43811,"is_reserved":false,"is_disabled":false,"rental_uris":{"android":"levelo://app?vid=4206fd1c-fca5-4468-81b6-1c50d2a4a589","ios":"levelo://app?vid=4206fd1c-fca5-4468-81b6-1c50d2a4a589"},"vehicle_type_id":"4","last_reported":1762351844,"current_range_meters":3600,"station_id":"","pricing_plan_id":"cebpf4jnsgd1na2vs0mg"},{"bike_id":"b7274164-d104-4569-8e8d-d56b2a397565","system_id":"levelo_inurba_marseille","lat":43.28472,"lon":5.48384,"is_reserved":false,"is_disabled":false,"rental_uris":{"android":"levelo://app?vid=b7274164-d104-4569-8e8d-d56b2a397565","ios":"levelo://app?vid=b7274164-d104-4569-8e8d-d56b2a397565"},"vehicle_type_id":"4","last_reported":1762351844,"current_range_meters":3600,"station_id":"st_d3svhcjqgbts73a3dn0g","pricing_plan_id":"cebpf4jnsgd1na2vs0mg"},{"bike_id":"6b7227d9-546c-46d3-bac4-ddad98263634","system_id":"levelo_inurba_marseille","lat":43.27941,"lon":5.41054,"is_reserved":false,"is_disabled":true,"rental_uris":{"android":"levelo://app?vid=6b7227d9-546c-46d3-bac4-ddad98263634","ios":"levelo://app?vid=6b7227d9-546c-46d3-bac4-ddad98263634"},"vehicle_type_id":"4","last_reported":1762351844,"current_range_meters":4000,"station_id":"ce4bhnp2rcd13ifvqh0g","pricing_plan_id":"cebpf4jnsgd1na2vs0mg"},{"bike_id":"9fb2c818-eff1-47c0-b9b4-e93b744ccdba","system_id":"levelo_inurba_marseille","lat":43.29686,"lon":5.37281,"is_reserved":false,"is_disabled":false,"rental_uris":{"android":"levelo://app?vid=9fb2c818-eff1-47c0-b9b4-e93b744ccdba","ios":"levelo://app?vid=9fb2c818-eff1-47c0-b9b4-e93b744ccdba"},"vehicle_type_id":"4","last_reported":1762351844,"current_range_meters":4000,"station_id":"ce4bgk12rcd13ifvqbj0","pricing_plan_id":"cebpf4jnsgd1na2vs0mg"},{"bike_id":"e397ecc5-7050-4bd8-9067-b07aac99e820","system_id":"levelo_inurba_marseille","lat":43.27203,"lon":5.39195,"is_reserved":false,"is_disabled":false,"rental_uris":{"android":"levelo://app?vid=e397ecc5-7050-4bd8-9067-b07aac99e820","ios":"levelo://app?vid=e397ecc5-7050-4bd8-9067-b07aac99e820"},"vehicle_type_id":"4","last_reported":1762351844,"current_range_meters":4000,"station_id":"ce4bhhp2rcd13ifvqfm0","pricing_plan_id":"cebpf4jnsgd1na2vs0mg"},{"bike_id":"fc0588f4-f700-49c7-99ff-09b84bf08d32","system_id":"levelo_inurba_marseille","lat":43.310779,"lon":5.383495,"is_reserved":false,"is_disabled":false,"rental_uris":{"android":"levelo://app?vid=fc0588f4-f700-49c7-99ff-09b84bf08d32","ios":"levelo://app?vid=fc0588f4-f700-49c7-99ff-09b84bf08d32"},"vehicle_type_id":"4","last_reported":1762351844,"current_range_meters":4000,"station_id":"ce4bgv92rcd13ifvqcr0","pricing_plan_id":"cebpf4jnsgd1na2vs0mg"},{"bike_id":"a2f6bfe1-5ac4-415e-9121-100bbece3282","system_id":"levelo_inurba_marseille","lat":43.24805,"lon":5.37459,"is_reserved":false,"is_disabled":false,"rental_uris":{"android":"levelo://app?vid=a2f6bfe1-5ac4-415e-9121-100bbece3282","ios":"levelo://app?vid=a2f6bfe1-5ac4-415e-9121-100bbece3282"},"vehicle_type_id":"4","last_reported":1762351844,"current_range_meters":4400,"station_id":"ce4bhgh2rcd13ifvqfb0","pricing_plan_id":"cebpf4jnsgd1na2vs0mg"},{"bike_id":"11460391-8ced-40b3-b9f4-b213f9de7525","system_id":"levelo_inurba_marseille","lat":43.29794,"lon":5.39342,"is_reserved":false,"is_disabled":false,"rental_uris":{"android":"levelo://app?vid=11460391-8ced-40b3-b9f4-b213f9de7525","ios":"levelo://app?vid=11460391-8ced-40b3-b9f4-b213f9de7525"},"vehicle_type_id":"4","last_reported":1762351844,"current_range_meters":4800,"station_id":"chh1huq6cuj3fo74tm60","pricing_plan_id":"cebpf4jnsgd1na2vs0mg"},{"bike_id":"31daea55-f783-45b7-bcb2-5c2e73a1f9e2","system_id":"levelo_inurba_marseille","lat":43.30325,"lon":5.4044,"is_reserved":false,"is_disabled":false,"rental_uris":{"android":"levelo://app?vid=31daea55-f783-45b7-bcb2-5c2e73a1f9e2","ios":"levelo://app?vid=31daea55-f783-45b7-bcb2-5c2e73a1f9e2"},"vehicle_type_id":"4","last_reported":1762351844,"current_range_meters":4800,"station_id":"ce4bh012rcd13ifvqd10","pricing_plan_id":"cebpf4jnsgd1na2vs0mg"},{"bike_id":"a694d32b-7399-4480-a8a7-eddc7fe79d6f","system_id":"levelo_inurba_marseille","lat":43.30556,"lon":5.36558,"is_reserved":false,"is_disabled":false,"rental_uris":{"android":"levelo://app?vid=a694d32b-7399-4480-a8a7-eddc7fe79d6f","ios":"levelo://app?vid=a694d32b-7399-4480-a8a7-eddc7fe79d6f"},"vehicle_type_id":"4","last_reported":1762351844,"current_range_meters":4800,"station_id":"ce4bgs12rcd13ifvqcag","pricing_plan_id":"cebpf4jnsgd1na2vs0mg"},{"bike_id":"5ef422b0-53ef-41a0-a68f-de3cec18e0e7","system_id":"levelo_inurba_marseille","lat":43.27568,"lon":5.38422,"is_reserved":false,"is_disabled":false,"rental_uris":{"android":"levelo://app?vid=5ef422b0-53ef-41a0-a68f-de3cec18e0e7","ios":"levelo://app?vid=5ef422b0-53ef-41a0-a68f-de3cec18e0e7"},"vehicle_type_id":"4","last_reported":1762351844,"current_range_meters":4800,"station_id":"ce4bhh92rcd13ifvqfi0","pricing_plan_id":"cebpf4jnsgd1na2vs0mg"},{"bike_id":"28b85111-1e3c-4e94-9d4a-5a837507bfee","system_id":"levelo_inurba_marseille","lat":43.29714,"lon":5.42658,"is_reserved":false,"is_disabled":false,"rental_uris":{"android":"levelo://app?vid=28b85111-1e3c-4e94-9d4a-5a837507bfee","ios":"levelo://app?vid=28b85111-1e3c-4e94-9d4a-5a837507bfee"},"vehicle_type_id":"4","last_reported":1762351844,"current_range_meters":5600,"station_id":"","pricing_plan_id":"cebpf4jnsgd1na2vs0mg"},{"bike_id":"811dfb6d-8287-48ee-8f02-7d2df6abf4fb","system_id":"levelo_inurba_marseille","lat":43.2955,"lon":5.42283,"is_reserved":false,"is_disabled":false,"rental_uris":{"android":"levelo://app?vid=811dfb6d-8287-48ee-8f02-7d2df6abf4fb","ios":"levelo://app?vid=811dfb6d-8287-48ee-8f02-7d2df6abf4fb"},"vehicle_type_id":"4","last_reported":1762351844,"current_range_meters":5600,"station_id":"ce4bhph2rcd13ifvqhdg","pricing_plan_id":"cebpf4jnsgd1na2vs0mg"},{"bike_id":"a6ba6403-79ab-4965-9b93-d28f84fee100","system_id":"levelo_inurba_marseille","lat":43.29778,"lon":5.38085,"is_reserved":false,"is_disabled":false,"rental_uris":{"android":"levelo://app?vid=a6ba6403-79ab-4965-9b93-d28f84fee100","ios":"levelo://app?vid=a6ba6403-79ab-4965-9b93-d28f84fee100"},"vehicle_type_id":"4","last_reported":1762351844,"current_range_meters":5600,"station_id":"ce4bgip2rcd13ifvqbb0","pricing_plan_id":"cebpf4jnsgd1na2vs0mg"},{"bike_id":"e6e6cbfc-4b6f-41b6-9ad1-61a09fa8b0b5","system_id":"levelo_inurba_marseille","lat":43.272046,"lon":5.391829,"is_reserved":false,"is_disabled":false,"rental_uris":{"android":"levelo://app?vid=e6e6cbfc-4b6f-41b6-9ad1-61a09fa8b0b5","ios":"levelo://app?vid=e6e6cbfc-4b6f-41b6-9ad1-61a09fa8b0b5"},"vehicle_type_id":"4","last_reported":1762351844,"current_range_meters":5600,"station_id":"","pricing_plan_id":"cebpf4jnsgd1na2vs0mg"},{"bike_id":"b2edbec7-9959-4a3c-90f0-6e77723c6b7d","system_id":"levelo_inurba_marseille","lat":43.31728,"lon":5.42395,"is_reserved":false,"is_disabled":false,"rental_uris":{"android":"levelo://app?vid=b2edbec7-9959-4a3c-90f0-6e77723c6b7d","ios":"levelo://app?vid=b2edbec7-9959-4a3c-90f0-6e77723c6b7d"},"vehicle_type_id":"4","last_reported":1762351844,"current_range_meters":5600,"station_id":"ce4bhp92rcd13ifvqhbg","pricing_plan_id":"cebpf4jnsgd1na2vs0mg"},{"bike_id":"e9856231-4e72-4013-8cb8-847322beb61e","system_id":"levelo_inurba_marseille","lat":43.31547,"lon":5.37252,"is_reserved":false,"is_disabled":false,"rental_uris":{"android":"levelo://app?vid=e9856231-4e72-4013-8cb8-847322beb61e","ios":"levelo://app?vid=e9856231-4e72-4013-8cb8-847322beb61e"},"vehicle_type_id":"4","last_reported":1762351844,"current_range_meters":5600,"station_id":"","pricing_plan_id":"cebpf4jnsgd1na2vs0mg"},{"bike_id":"7cc6a4b1-59f3-4f62-9f18-f6d544e3bdad","system_id":"levelo_inurba_marseille","lat":43.28258,"lon":5.35064,"is_reserved":false,"is_disabled":false,"rental_uris":{"android":"levelo://app?vid=7cc6a4b1-59f3-4f62-9f18-f6d544e3bdad","ios":"levelo://app?vid=7cc6a4b1-59f3-4f62-9f18-f6d544e3bdad"},"vehicle_type_id":"4","last_reported":1762351844,"current_range_meters":5600,"station_id":"ce4bhbp2rcd13ifvqerg","pricing_plan_id":"cebpf4jnsgd1na2vs0mg"},{"bike_id":"f9b55f15-cf36-4ad9-90e5-59c582e0b2c7","system_id":"levelo_inurba_marseille","lat":43.22977,"lon":5.44021,"is_reserved":false,"is_disabled":false,"rental_uris":{"android":"levelo://app?vid=f9b55f15-cf36-4ad9-90e5-59c582e0b2c7","ios":"levelo://app?vid=f9b55f15-cf36-4ad9-90e5-59c582e0b2c7"},"vehicle_type_id":"4","last_reported":1762351844,"current_range_meters":6000,"station_id":"","pricing_plan_id":"cebpf4jnsgd1na2vs0mg"},{"bike_id":"2f838315-9d8e-40da-9e79-103124df0adf","system_id":"levelo_inurba_marseille","lat":43.23758,"lon":5.366369,"is_reserved":false,"is_disabled":false,"rental_uris":{"android":"levelo://app?vid=2f838315-9d8e-40da-9e79-103124df0adf","ios":"levelo://app?vid=2f838315-9d8e-40da-9e79-103124df0adf"},"vehicle_type_id":"4","last_reported":1762351844,"current_range_meters":6000,"station_id":"st_d3nk18o9ro0c73en2l3g","pricing_plan_id":"cebpf4jnsgd1na2vs0mg"},{"bike_id":"a3d553fc-c36e-4389-af48-e4ee64428759","system_id":"levelo_inurba_marseille","lat":43.246462,"lon":5.38889,"is_reserved":false,"is_disabled":false,"rental_uris":{"android":"levelo://app?vid=a3d553fc-c36e-4389-af48-e4ee64428759","ios":"levelo://app?vid=a3d553fc-c36e-4389-af48-e4ee64428759"},"vehicle_type_id":"4","last_reported":1762351844,"current_range_meters":6400,"station_id":"ce4bhg12rcd13ifvqf60","pricing_plan_id":"cebpf4jnsgd1na2vs0mg"},{"bike_id":"6e37d363-3046-4eb7-9562-4279b5f8f27e","system_id":"levelo_inurba_marseille","lat":43.29517,"lon":5.39404,"is_reserved":false,"is_disabled":false,"rental_uris":{"android":"levelo://app?vid=6e37d363-3046-4eb7-9562-4279b5f8f27e","ios":"levelo://app?vid=6e37d363-3046-4eb7-9562-4279b5f8f27e"},"vehicle_type_id":"4","last_reported":1762351844,"current_range_meters":6400,"station_id":"ce4bh292rcd13ifvqdf0","pricing_plan_id":"cebpf4jnsgd1na2vs0mg"},{"bike_id":"9019f7cf-e9f5-4980-af08-2a9229e87d23","system_id":"levelo_inurba_marseille","lat":43.296812,"lon":5.372981,"is_reserved":false,"is_disabled":false,"rental_uris":{"android":"levelo://app?vid=9019f7cf-e9f5-4980-af08-2a9229e87d23","ios":"levelo://app?vid=9019f7cf-e9f5-4980-af08-2a9229e87d23"},"vehicle_type_id":"4","last_reported":1762351844,"current_range_meters":6800,"station_id":"ce4bgk12rcd13ifvqbj0","pricing_plan_id":"cebpf4jnsgd1na2vs0mg"},{"bike_id":"67f7322c-e463-45fa-8599-b2b2b57e4735","system_id":"levelo_inurba_marseille","lat":43.29091,"lon":5.38127,"is_reserved":false,"is_disabled":false,"rental_uris":{"android":"levelo://app?vid=67f7322c-e463-45fa-8599-b2b2b57e4735","ios":"levelo://app?vid=67f7322c-e463-45fa-8599-b2b2b57e4735"},"vehicle_type_id":"4","last_reported":1762351844,"current_range_meters":6800,"station_id":"ce4bh512rcd13ifvqe2g","pricing_plan_id":"cebpf4jnsgd1na2vs0mg"},{"bike_id":"2d61eb2a-e36e-4366-a34c-2c28aed57ead","system_id":"levelo_inurba_marseille","lat":43.30944,"lon":5.39039,"is_reserved":false,"is_disabled":false,"rental_uris":{"android":"levelo://app?vid=2d61eb2a-e36e-4366-a34c-2c28aed57ead","ios":"levelo://app?vid=2d61eb2a-e36e-4366-a34c-2c28aed57ead"},"vehicle_type_id":"4","last_reported":1762351844,"current_range_meters":6800,"station_id":"ce4bgup2rcd13ifvqco0","pricing_plan_id":"cebpf4jnsgd1na2vs0mg"},{"bike_id":"3800314d-6410-4feb-bd76-28cb0729c673","system_id":"levelo_inurba_marseille","lat":43.30336,"lon":5.40074,"is_reserved":false,"is_disabled":false,"rental_uris":{"android":"levelo://app?vid=3800314d-6410-4feb-bd76-28cb0729c673","ios":"levelo://app?vid=3800314d-6410-4feb-bd76-28cb0729c673"},"vehicle_type_id":"4","last_reported":1762351844,"current_range_meters":6800,"station_id":"","pricing_plan_id":"cebpf4jnsgd1na2vs0mg"},{"bike_id":"78653021-51f7-454f-abbf-85eedff5500e","system_id":"levelo_inurba_marseille","lat":43.27618,"lon":5.36114,"is_reserved":false,"is_disabled":false,"rental_uris":{"android":"levelo://app?vid=78653021-51f7-454f-abbf-85eedff5500e","ios":"levelo://app?vid=78653021-51f7-454f-abbf-85eedff5500e"},"vehicle_type_id":"4","last_reported":1762351844,"current_range_meters":6800,"station_id":"ce4bgj92rcd13ifvqbe0","pricing_plan_id":"cebpf4jnsgd1na2vs0mg"},{"bike_id":"f558d479-ce57-4cf0-a0fa-5a549c753dc8","system_id":"levelo_inurba_marseille","lat":43.23048,"lon":5.35502,"is_reserved":false,"is_disabled":false,"rental_uris":{"android":"levelo://app?vid=f558d479-ce57-4cf0-a0fa-5a549c753dc8","ios":"levelo://app?vid=f558d479-ce57-4cf0-a0fa-5a549c753dc8"},"vehicle_type_id":"4","last_reported":1762351844,"current_range_meters":7200,"station_id":"cpo3342slgdg3j2ifvpg","pricing_plan_id":"cebpf4jnsgd1na2vs0mg"},{"bike_id":"bdcb5846-d199-4aa3-9c52-d5e0ae55d67e","system_id":"levelo_inurba_marseille","lat":43.298,"lon":5.38102,"is_reserved":false,"is_disabled":false,"rental_uris":{"android":"levelo://app?vid=bdcb5846-d199-4aa3-9c52-d5e0ae55d67e","ios":"levelo://app?vid=bdcb5846-d199-4aa3-9c52-d5e0ae55d67e"},"vehicle_type_id":"4","last_reported":1762351844,"current_range_meters":7200,"station_id":"ce4bgip2rcd13ifvqbb0","pricing_plan_id":"cebpf4jnsgd1na2vs0mg"},{"bike_id":"faced5f8-0d58-4762-8c0a-2df9652fbd78","system_id":"levelo_inurba_marseille","lat":43.31374,"lon":5.36693,"is_reserved":false,"is_disabled":false,"rental_uris":{"android":"levelo://app?vid=faced5f8-0d58-4762-8c0a-2df9652fbd78","ios":"levelo://app?vid=faced5f8-0d58-4762-8c0a-2df9652fbd78"},"vehicle_type_id":"4","last_reported":1762351844,"current_range_meters":7200,"station_id":"ce4bgr92rcd13ifvqc6g","pricing_plan_id":"cebpf4jnsgd1na2vs0mg"},{"bike_id":"654dc482-8458-4686-a09b-a5e21a822232","system_id":"levelo_inurba_marseille","lat":43.23188,"lon":5.35578,"is_reserved":false,"is_disabled":true,"rental_uris":{"android":"levelo://app?vid=654dc482-8458-4686-a09b-a5e21a822232","ios":"levelo://app?vid=654dc482-8458-4686-a09b-a5e21a822232"},"vehicle_type_id":"4","last_reported":1762351844,"current_range_meters":7200,"station_id":"ce4bhu92rcd13ifvqi70","pricing_plan_id":"cebpf4jnsgd1na2vs0mg"},{"bike_id":"22f48cc6-594c-43fb-9a62-57c1d39f6208","system_id":"levelo_inurba_marseille","lat":43.26595,"lon":5.39364,"is_reserved":false,"is_disabled":false,"rental_uris":{"android":"levelo://app?vid=22f48cc6-594c-43fb-9a62-57c1d39f6208","ios":"levelo://app?vid=22f48cc6-594c-43fb-9a62-57c1d39f6208"},"vehicle_type_id":"4","last_reported":1762351844,"current_range_meters":7200,"station_id":"","pricing_plan_id":"cebpf4jnsgd1na2vs0mg"},{"bike_id":"4e92a88c-7958-48dd-a152-3a32b70f5220","system_id":"levelo_inurba_marseille","lat":43.28972,"lon":5.37858,"is_reserved":false,"is_disabled":false,"rental_uris":{"android":"levelo://app?vid=4e92a88c-7958-48dd-a152-3a32b70f5220","ios":"levelo://app?vid=4e92a88c-7958-48dd-a152-3a32b70f5220"},"vehicle_type_id":"4","last_reported":1762351844,"current_range_meters":7200,"station_id":"ce4bh9p2rcd13ifvqed0","pricing_plan_id":"cebpf4jnsgd1na2vs0mg"},{"bike_id":"a58d1cf5-164a-4b6c-af6c-24ad40312799","system_id":"levelo_inurba_marseille","lat":43.24176,"lon":5.39737,"is_reserved":false,"is_disabled":false,"rental_uris":{"android":"levelo://app?vid=a58d1cf5-164a-4b6c-af6c-24ad40312799","ios":"levelo://app?vid=a58d1cf5-164a-4b6c-af6c-24ad40312799"},"vehicle_type_id":"4","last_reported":1762351844,"current_range_meters":7200,"station_id":"ce4bhn12rcd13ifvqgpg","pricing_plan_id":"cebpf4jnsgd1na2vs0mg"},{"bike_id":"8a7fad6b-cf26-4d40-bed6-792b60cb56b8","system_id":"levelo_inurba_marseille","lat":43.28029,"lon":5.36953,"is_reserved":false,"is_disabled":false,"rental_uris":{"android":"levelo://app?vid=8a7fad6b-cf26-4d40-bed6-792b60cb56b8","ios":"levelo://app?vid=8a7fad6b-cf26-4d40-bed6-792b60cb56b8"},"vehicle_type_id":"4","last_reported":1762351844,"current_range_meters":7200,"station_id":"ce4bha12rcd13ifvqef0","pricing_plan_id":"cebpf4jnsgd1na2vs0mg"},{"bike_id":"62a7cbdc-1473-4213-b423-400b7a94035c","system_id":"levelo_inurba_marseille","lat":43.231496,"lon":5.437159,"is_reserved":false,"is_disabled":false,"rental_uris":{"android":"levelo://app?vid=62a7cbdc-1473-4213-b423-400b7a94035c","ios":"levelo://app?vid=62a7cbdc-1473-4213-b423-400b7a94035c"},"vehicle_type_id":"4","last_reported":1762351844,"current_range_meters":7200,"station_id":"","pricing_plan_id":"cebpf4jnsgd1na2vs0mg"},{"bike_id":"aacf42e0-2f18-4200-a64b-11d1f88c92f0","system_id":"levelo_inurba_marseille","lat":43.2926,"lon":5.37623,"is_reserved":false,"is_disabled":true,"rental_uris":{"android":"levelo://app?vid=aacf42e0-2f18-4200-a64b-11d1f88c92f0","ios":"levelo://app?vid=aacf42e0-2f18-4200-a64b-11d1f88c92f0"},"vehicle_type_id":"4","last_reported":1762351844,"current_range_meters":8000,"station_id":"ce4bgi12rcd13ifvqb80","pricing_plan_id":"cebpf4jnsgd1na2vs0mg"},{"bike_id":"ca027186-72c6-4358-8d7a-70b219e6273a","system_id":"levelo_inurba_marseille","lat":43.35089,"lon":5.3812,"is_reserved":false,"is_disabled":false,"rental_uris":{"android":"levelo://app?vid=ca027186-72c6-4358-8d7a-70b219e6273a","ios":"levelo://app?vid=ca027186-72c6-4358-8d7a-70b219e6273a"},"vehicle_type_id":"4","last_reported":1762351844,"current_range_meters":8000,"station_id":"","pricing_plan_id":"cebpf4jnsgd1na2vs0mg"},{"bike_id":"3c5b39ed-06ae-4923-894d-6010ee302a42","system_id":"levelo_inurba_marseille","lat":43.24657,"lon":5.38158,"is_reserved":false,"is_disabled":false,"rental_uris":{"android":"levelo://app?vid=3c5b39ed-06ae-4923-894d-6010ee302a42","ios":"levelo://app?vid=3c5b39ed-06ae-4923-894d-6010ee302a42"},"vehicle_type_id":"4","last_reported":1762351844,"current_range_meters":8000,"station_id":"ce4bhih2rcd13ifvqfr0","pricing_plan_id":"cebpf4jnsgd1na2vs0mg"},{"bike_id":"b1c606eb-e513-456f-8eff-6449996a6e9f","system_id":"levelo_inurba_marseille","lat":43.24621,"lon":5.43152,"is_reserved":false,"is_disabled":false,"rental_uris":{"android":"levelo://app?vid=b1c606eb-e513-456f-8eff-6449996a6e9f","ios":"levelo://app?vid=b1c606eb-e513-456f-8eff-6449996a6e9f"},"vehicle_type_id":"4","last_reported":1762351844,"current_range_meters":8000,"station_id":"st_d2m6c4gdas8pm72e190g","pricing_plan_id":"cebpf4jnsgd1na2vs0mg"},{"bike_id":"f842f661-e0b9-4ed7-9590-2fd2f10216f5","system_id":"levelo_inurba_marseille","lat":43.3232,"lon":5.36704,"is_reserved":false,"is_disabled":false,"rental_uris":{"android":"levelo://app?vid=f842f661-e0b9-4ed7-9590-2fd2f10216f5","ios":"levelo://app?vid=f842f661-e0b9-4ed7-9590-2fd2f10216f5"},"vehicle_type_id":"4","last_reported":1762351844,"current_range_meters":8000,"station_id":"ce4bhsh2rcd13ifvqi2g","pricing_plan_id":"cebpf4jnsgd1na2vs0mg"},{"bike_id":"9b7ced53-46eb-463b-a91a-3beea0d43042","system_id":"levelo_inurba_marseille","lat":43.29789,"lon":5.38096,"is_reserved":false,"is_disabled":false,"rental_uris":{"android":"levelo://app?vid=9b7ced53-46eb-463b-a91a-3beea0d43042","ios":"levelo://app?vid=9b7ced53-46eb-463b-a91a-3beea0d43042"},"vehicle_type_id":"4","last_reported":1762351844,"current_range_meters":8400,"station_id":"ce4bgip2rcd13ifvqbb0","pricing_plan_id":"cebpf4jnsgd1na2vs0mg"},{"bike_id":"973ae872-369d-4832-94e7-b86857dd5a60","system_id":"levelo_inurba_marseille","lat":43.27552,"lon":5.38447,"is_reserved":false,"is_disabled":false,"rental_uris":{"android":"levelo://app?vid=973ae872-369d-4832-94e7-b86857dd5a60","ios":"levelo://app?vid=973ae872-369d-4832-94e7-b86857dd5a60"},"vehicle_type_id":"4","last_reported":1762351844,"current_range_meters":8400,"station_id":"ce4bhh92rcd13ifvqfi0","pricing_plan_id":"cebpf4jnsgd1na2vs0mg"},{"bike_id":"3a9d797e-f6cd-4788-8203-719317181b91","system_id":"levelo_inurba_marseille","lat":43.30217,"lon":5.39475,"is_reserved":false,"is_disabled":false,"rental_uris":{"android":"levelo://app?vid=3a9d797e-f6cd-4788-8203-719317181b91","ios":"levelo://app?vid=3a9d797e-f6cd-4788-8203-719317181b91"},"vehicle_type_id":"4","last_reported":1762351844,"current_range_meters":8400,"station_id":"ce4bh0p2rcd13ifvqd70","pricing_plan_id":"cebpf4jnsgd1na2vs0mg"},{"bike_id":"3e83843c-ea1f-45d0-b2d3-d73fe2f3454b","system_id":"levelo_inurba_marseille","lat":43.29616,"lon":5.377254,"is_reserved":false,"is_disabled":false,"rental_uris":{"android":"levelo://app?vid=3e83843c-ea1f-45d0-b2d3-d73fe2f3454b","ios":"levelo://app?vid=3e83843c-ea1f-45d0-b2d3-d73fe2f3454b"},"vehicle_type_id":"4","last_reported":1762351844,"current_range_meters":8400,"station_id":"ce4bgi92rcd13ifvqb90","pricing_plan_id":"cebpf4jnsgd1na2vs0mg"},{"bike_id":"7b2a21c2-d5df-42d7-a8ab-1600342b2180","system_id":"levelo_inurba_marseille","lat":43.270795,"lon":5.423121,"is_reserved":false,"is_disabled":false,"rental_uris":{"android":"levelo://app?vid=7b2a21c2-d5df-42d7-a8ab-1600342b2180","ios":"levelo://app?vid=7b2a21c2-d5df-42d7-a8ab-1600342b2180"},"vehicle_type_id":"4","last_reported":1762351844,"current_range_meters":8400,"station_id":"ce4bhk92rcd13ifvqgb0","pricing_plan_id":"cebpf4jnsgd1na2vs0mg"},{"bike_id":"8625fd71-52f7-4d25-987b-6e76164035a5","system_id":"levelo_inurba_marseille","lat":43.307857,"lon":5.405406,"is_reserved":false,"is_disabled":false,"rental_uris":{"android":"levelo://app?vid=8625fd71-52f7-4d25-987b-6e76164035a5","ios":"levelo://app?vid=8625fd71-52f7-4d25-987b-6e76164035a5"},"vehicle_type_id":"4","last_reported":1762351844,"current_range_meters":8400,"station_id":"","pricing_plan_id":"cebpf4jnsgd1na2vs0mg"},{"bike_id":"b2ed0097-3c50-4135-b610-b7105603c0ba","system_id":"levelo_inurba_marseille","lat":43.3031,"lon":5.36919,"is_reserved":false,"is_disabled":false,"rental_uris":{"android":"levelo://app?vid=b2ed0097-3c50-4135-b610-b7105603c0ba","ios":"levelo://app?vid=b2ed0097-3c50-4135-b610-b7105603c0ba"},"vehicle_type_id":"4","last_reported":1762351844,"current_range_meters":8400,"station_id":"ce4bgqh2rcd13ifvqc5g","pricing_plan_id":"cebpf4jnsgd1na2vs0mg"},{"bike_id":"b13de31b-d445-4fd1-ac68-654e4811adf3","system_id":"levelo_inurba_marseille","lat":43.29734,"lon":5.37675,"is_reserved":false,"is_disabled":false,"rental_uris":{"android":"levelo://app?vid=b13de31b-d445-4fd1-ac68-654e4811adf3","ios":"levelo://app?vid=b13de31b-d445-4fd1-ac68-654e4811adf3"},"vehicle_type_id":"4","last_reported":1762351844,"current_range_meters":8400,"station_id":"ce4bgkh2rcd13ifvqbl0","pricing_plan_id":"cebpf4jnsgd1na2vs0mg"},{"bike_id":"3bc014a1-48f3-41e3-b7c1-9f0a410bfb34","system_id":"levelo_inurba_marseille","lat":43.30794,"lon":5.38151,"is_reserved":false,"is_disabled":false,"rental_uris":{"android":"levelo://app?vid=3bc014a1-48f3-41e3-b7c1-9f0a410bfb34","ios":"levelo://app?vid=3bc014a1-48f3-41e3-b7c1-9f0a410bfb34"},"vehicle_type_id":"4","last_reported":1762351844,"current_range_meters":8800,"station_id":"ce4bgt12rcd13ifvqce0","pricing_plan_id":"cebpf4jnsgd1na2vs0mg"},{"bike_id":"53dda434-dc8b-4c51-879b-e5cd0d7bf8c7","system_id":"levelo_inurba_marseille","lat":43.31236,"lon":5.36862,"is_reserved":false,"is_disabled":false,"rental_uris":{"android":"levelo://app?vid=53dda434-dc8b-4c51-879b-e5cd0d7bf8c7","ios":"levelo://app?vid=53dda434-dc8b-4c51-879b-e5cd0d7bf8c7"},"vehicle_type_id":"4","last_reported":1762351844,"current_range_meters":8800,"station_id":"ce4bgl92rcd13ifvqbq0","pricing_plan_id":"cebpf4jnsgd1na2vs0mg"},{"bike_id":"5e6b5e6b-9f8a-43ab-9eb8-b69e41a6c1e6","system_id":"levelo_inurba_marseille","lat":43.225298,"lon":5.348365,"is_reserved":false,"is_disabled":false,"rental_uris":{"android":"levelo://app?vid=5e6b5e6b-9f8a-43ab-9eb8-b69e41a6c1e6","ios":"levelo://app?vid=5e6b5e6b-9f8a-43ab-9eb8-b69e41a6c1e6"},"vehicle_type_id":"4","last_reported":1762351844,"current_range_meters":8800,"station_id":"","pricing_plan_id":"cebpf4jnsgd1na2vs0mg"},{"bike_id":"eed78698-4705-4f36-b1cc-c3cc31682f5d","system_id":"levelo_inurba_marseille","lat":43.33407,"lon":5.41941,"is_reserved":false,"is_disabled":false,"rental_uris":{"android":"levelo://app?vid=eed78698-4705-4f36-b1cc-c3cc31682f5d","ios":"levelo://app?vid=eed78698-4705-4f36-b1cc-c3cc31682f5d"},"vehicle_type_id":"4","last_reported":1762351844,"current_range_meters":8800,"station_id":"","pricing_plan_id":"cebpf4jnsgd1na2vs0mg"},{"bike_id":"ad483091-7411-4e16-8cc4-09042e8161f5","system_id":"levelo_inurba_marseille","lat":43.273468,"lon":5.385179,"is_reserved":false,"is_disabled":true,"rental_uris":{"android":"levelo://app?vid=ad483091-7411-4e16-8cc4-09042e8161f5","ios":"levelo://app?vid=ad483091-7411-4e16-8cc4-09042e8161f5"},"vehicle_type_id":"4","last_reported":1762351844,"current_range_meters":8800,"station_id":"","pricing_plan_id":"cebpf4jnsgd1na2vs0mg"},{"bike_id":"b1ed7661-b52b-455c-ac30-eb50cbd5b215","system_id":"levelo_inurba_marseille","lat":43.29799,"lon":5.38099,"is_reserved":false,"is_disabled":false,"rental_uris":{"android":"levelo://app?vid=b1ed7661-b52b-455c-ac30-eb50cbd5b215","ios":"levelo://app?vid=b1ed7661-b52b-455c-ac30-eb50cbd5b215"},"vehicle_type_id":"4","last_reported":1762351844,"current_range_meters":8800,"station_id":"ce4bgip2rcd13ifvqbb0","pricing_plan_id":"cebpf4jnsgd1na2vs0mg"},{"bike_id":"2d93bfba-2ed9-45b6-b88d-80ef2c6044d9","system_id":"levelo_inurba_marseille","lat":43.24179,"lon":5.39729,"is_reserved":false,"is_disabled":false,"rental_uris":{"android":"levelo://app?vid=2d93bfba-2ed9-45b6-b88d-80ef2c6044d9","ios":"levelo://app?vid=2d93bfba-2ed9-45b6-b88d-80ef2c6044d9"},"vehicle_type_id":"4","last_reported":1762351844,"current_range_meters":8800,"station_id":"ce4bhn12rcd13ifvqgpg","pricing_plan_id":"cebpf4jnsgd1na2vs0mg"},{"bike_id":"26faa3b5-ca27-42e8-b96e-b08098a0b652","system_id":"levelo_inurba_marseille","lat":43.29626,"lon":5.37157,"is_reserved":false,"is_disabled":false,"rental_uris":{"android":"levelo://app?vid=26faa3b5-ca27-42e8-b96e-b08098a0b652","ios":"levelo://app?vid=26faa3b5-ca27-42e8-b96e-b08098a0b652"},"vehicle_type_id":"4","last_reported":1762351844,"current_range_meters":9200,"station_id":"ce4bgnh2rcd13ifvqc0g","pricing_plan_id":"cebpf4jnsgd1na2vs0mg"},{"bike_id":"59ebe6d3-7cca-436f-922d-8b9c51ac34d2","system_id":"levelo_inurba_marseille","lat":43.27059,"lon":5.38303,"is_reserved":false,"is_disabled":false,"rental_uris":{"android":"levelo://app?vid=59ebe6d3-7cca-436f-922d-8b9c51ac34d2","ios":"levelo://app?vid=59ebe6d3-7cca-436f-922d-8b9c51ac34d2"},"vehicle_type_id":"4","last_reported":1762351844,"current_range_meters":9200,"station_id":"st_d3n2fo6cfp8s73cte1j0","pricing_plan_id":"cebpf4jnsgd1na2vs0mg"},{"bike_id":"f7a192fe-ecfa-451f-8d3a-3c4f39209fc4","system_id":"levelo_inurba_marseille","lat":43.32368,"lon":5.38886,"is_reserved":false,"is_disabled":false,"rental_uris":{"android":"levelo://app?vid=f7a192fe-ecfa-451f-8d3a-3c4f39209fc4","ios":"levelo://app?vid=f7a192fe-ecfa-451f-8d3a-3c4f39209fc4"},"vehicle_type_id":"4","last_reported":1762351844,"current_range_meters":9200,"station_id":"ce4bhqp2rcd13ifvqhog","pricing_plan_id":"cebpf4jnsgd1na2vs0mg"},{"bike_id":"5b543474-1020-4850-845e-f4c386aa9e96","system_id":"levelo_inurba_marseille","lat":43.29883,"lon":5.38901,"is_reserved":false,"is_disabled":false,"rental_uris":{"android":"levelo://app?vid=5b543474-1020-4850-845e-f4c386aa9e96","ios":"levelo://app?vid=5b543474-1020-4850-845e-f4c386aa9e96"},"vehicle_type_id":"4","last_reported":1762351844,"current_range_meters":9200,"station_id":"ce4bh392rcd13ifvqdl0","pricing_plan_id":"cebpf4jnsgd1na2vs0mg"},{"bike_id":"cd9c6c8f-813a-4b2c-b0c7-7a3265cb2fa0","system_id":"levelo_inurba_marseille","lat":43.24235,"lon":5.393258,"is_reserved":false,"is_disabled":false,"rental_uris":{"android":"levelo://app?vid=cd9c6c8f-813a-4b2c-b0c7-7a3265cb2fa0","ios":"levelo://app?vid=cd9c6c8f-813a-4b2c-b0c7-7a3265cb2fa0"},"vehicle_type_id":"4","last_reported":1762351844,"current_range_meters":9200,"station_id":"","pricing_plan_id":"cebpf4jnsgd1na2vs0mg"},{"bike_id":"8a80570e-bf7a-4811-b6f7-f7bef821bdac","system_id":"levelo_inurba_marseille","lat":43.30954,"lon":5.39037,"is_reserved":false,"is_disabled":true,"rental_uris":{"android":"levelo://app?vid=8a80570e-bf7a-4811-b6f7-f7bef821bdac","ios":"levelo://app?vid=8a80570e-bf7a-4811-b6f7-f7bef821bdac"},"vehicle_type_id":"4","last_reported":1762351844,"current_range_meters":9200,"station_id":"ce4bgup2rcd13ifvqco0","pricing_plan_id":"cebpf4jnsgd1na2vs0mg"},{"bike_id":"a686d206-9ee6-4970-8b6d-14564305592a","system_id":"levelo_inurba_marseille","lat":43.29751,"lon":5.42785,"is_reserved":false,"is_disabled":false,"rental_uris":{"android":"levelo://app?vid=a686d206-9ee6-4970-8b6d-14564305592a","ios":"levelo://app?vid=a686d206-9ee6-4970-8b6d-14564305592a"},"vehicle_type_id":"4","last_reported":1762351844,"current_range_meters":9600,"station_id":"st_d3md5207bmas73dh9klg","pricing_plan_id":"cebpf4jnsgd1na2vs0mg"},{"bike_id":"a3bad560-7630-4c68-8783-de87125ace1e","system_id":"levelo_inurba_marseille","lat":43.31689,"lon":5.40478,"is_reserved":false,"is_disabled":false,"rental_uris":{"android":"levelo://app?vid=a3bad560-7630-4c68-8783-de87125ace1e","ios":"levelo://app?vid=a3bad560-7630-4c68-8783-de87125ace1e"},"vehicle_type_id":"4","last_reported":1762351844,"current_range_meters":9600,"station_id":"ce4bh012rcd13ifvqd00","pricing_plan_id":"cebpf4jnsgd1na2vs0mg"},{"bike_id":"9133e6a3-e292-48ba-8f23-154eaa10f07a","system_id":"levelo_inurba_marseille","lat":43.246643,"lon":5.381557,"is_reserved":false,"is_disabled":false,"rental_uris":{"android":"levelo://app?vid=9133e6a3-e292-48ba-8f23-154eaa10f07a","ios":"levelo://app?vid=9133e6a3-e292-48ba-8f23-154eaa10f07a"},"vehicle_type_id":"4","last_reported":1762351844,"current_range_meters":9600,"station_id":"ce4bhih2rcd13ifvqfr0","pricing_plan_id":"cebpf4jnsgd1na2vs0mg"},{"bike_id":"279117c7-98cc-481f-91c8-c7a9f6f1227e","system_id":"levelo_inurba_marseille","lat":43.28411,"lon":5.34999,"is_reserved":false,"is_disabled":false,"rental_uris":{"android":"levelo://app?vid=279117c7-98cc-481f-91c8-c7a9f6f1227e","ios":"levelo://app?vid=279117c7-98cc-481f-91c8-c7a9f6f1227e"},"vehicle_type_id":"4","last_reported":1762351844,"current_range_meters":10000,"station_id":"ce4bhbh2rcd13ifvqepg","pricing_plan_id":"cebpf4jnsgd1na2vs0mg"},{"bike_id":"36dadbf7-a228-4f6f-8b08-391008b68693","system_id":"levelo_inurba_marseille","lat":43.34543,"lon":5.36887,"is_reserved":false,"is_disabled":false,"rental_uris":{"android":"levelo://app?vid=36dadbf7-a228-4f6f-8b08-391008b68693","ios":"levelo://app?vid=36dadbf7-a228-4f6f-8b08-391008b68693"},"vehicle_type_id":"4","last_reported":1762351844,"current_range_meters":10000,"station_id":"","pricing_plan_id":"cebpf4jnsgd1na2vs0mg"},{"bike_id":"47de9693-398c-4078-bb2e-bf0d38c76c57","system_id":"levelo_inurba_marseille","lat":43.28488,"lon":5.3881,"is_reserved":false,"is_disabled":false,"rental_uris":{"android":"levelo://app?vid=47de9693-398c-4078-bb2e-bf0d38c76c57","ios":"levelo://app?vid=47de9693-398c-4078-bb2e-bf0d38c76c57"},"vehicle_type_id":"4","last_reported":1762351844,"current_range_meters":10000,"station_id":"","pricing_plan_id":"cebpf4jnsgd1na2vs0mg"},{"bike_id":"ea4f4b84-78b0-4180-a7f8-ecb8c6182713","system_id":"levelo_inurba_marseille","lat":43.2953,"lon":5.36104,"is_reserved":false,"is_disabled":true,"rental_uris":{"android":"levelo://app?vid=ea4f4b84-78b0-4180-a7f8-ecb8c6182713","ios":"levelo://app?vid=ea4f4b84-78b0-4180-a7f8-ecb8c6182713"},"vehicle_type_id":"4","last_reported":1762351844,"current_range_meters":10000,"station_id":"","pricing_plan_id":"cebpf4jnsgd1na2vs0mg"},{"bike_id":"73eaf5c6-6425-49db-b71d-21d14c59a874","system_id":"levelo_inurba_marseille","lat":43.29678,"lon":5.37293,"is_reserved":false,"is_disabled":false,"rental_uris":{"android":"levelo://app?vid=73eaf5c6-6425-49db-b71d-21d14c59a874","ios":"levelo://app?vid=73eaf5c6-6425-49db-b71d-21d14c59a874"},"vehicle_type_id":"4","last_reported":1762351844,"current_range_meters":10000,"station_id":"ce4bgk12rcd13ifvqbj0","pricing_plan_id":"cebpf4jnsgd1na2vs0mg"},{"bike_id":"1f26d7cf-c178-41e0-b8fd-52e6feef212c","system_id":"levelo_inurba_marseille","lat":43.325404,"lon":5.414294,"is_reserved":false,"is_disabled":false,"rental_uris":{"android":"levelo://app?vid=1f26d7cf-c178-41e0-b8fd-52e6feef212c","ios":"levelo://app?vid=1f26d7cf-c178-41e0-b8fd-52e6feef212c"},"vehicle_type_id":"4","last_reported":1762351844,"current_range_meters":10000,"station_id":"ce4bhq12rcd13ifvqhhg","pricing_plan_id":"cebpf4jnsgd1na2vs0mg"},{"bike_id":"7479cfee-6f68-4a59-afc8-ceca6b83dba4","system_id":"levelo_inurba_marseille","lat":43.2557,"lon":5.38241,"is_reserved":false,"is_disabled":false,"rental_uris":{"android":"levelo://app?vid=7479cfee-6f68-4a59-afc8-ceca6b83dba4","ios":"levelo://app?vid=7479cfee-6f68-4a59-afc8-ceca6b83dba4"},"vehicle_type_id":"4","last_reported":1762351844,"current_range_meters":10800,"station_id":"ce4bhih2rcd13ifvqfs0","pricing_plan_id":"cebpf4jnsgd1na2vs0mg"},{"bike_id":"28c0aba6-7b90-4f6a-9ea3-7a62d5fabe9e","system_id":"levelo_inurba_marseille","lat":43.29788,"lon":5.38098,"is_reserved":false,"is_disabled":false,"rental_uris":{"android":"levelo://app?vid=28c0aba6-7b90-4f6a-9ea3-7a62d5fabe9e","ios":"levelo://app?vid=28c0aba6-7b90-4f6a-9ea3-7a62d5fabe9e"},"vehicle_type_id":"4","last_reported":1762351844,"current_range_meters":10800,"station_id":"ce4bgip2rcd13ifvqbb0","pricing_plan_id":"cebpf4jnsgd1na2vs0mg"},{"bike_id":"c6d67b9e-f274-4661-ab72-dad994d8a0d2","system_id":"levelo_inurba_marseille","lat":43.29172,"lon":5.37158,"is_reserved":false,"is_disabled":false,"rental_uris":{"android":"levelo://app?vid=c6d67b9e-f274-4661-ab72-dad994d8a0d2","ios":"levelo://app?vid=c6d67b9e-f274-4661-ab72-dad994d8a0d2"},"vehicle_type_id":"4","last_reported":1762351844,"current_range_meters":10800,"station_id":"ce4bha92rcd13ifvqeh0","pricing_plan_id":"cebpf4jnsgd1na2vs0mg"},{"bike_id":"b9f0b48c-5091-4aa1-9a33-c184939b44ea","system_id":"levelo_inurba_marseille","lat":43.28807,"lon":5.38641,"is_reserved":false,"is_disabled":false,"rental_uris":{"android":"levelo://app?vid=b9f0b48c-5091-4aa1-9a33-c184939b44ea","ios":"levelo://app?vid=b9f0b48c-5091-4aa1-9a33-c184939b44ea"},"vehicle_type_id":"4","last_reported":1762351844,"current_range_meters":10800,"station_id":"","pricing_plan_id":"cebpf4jnsgd1na2vs0mg"},{"bike_id":"cae09b99-f4ef-4dba-84ee-07073a8f32cf","system_id":"levelo_inurba_marseille","lat":43.27366,"lon":5.3626,"is_reserved":false,"is_disabled":false,"rental_uris":{"android":"levelo://app?vid=cae09b99-f4ef-4dba-84ee-07073a8f32cf","ios":"levelo://app?vid=cae09b99-f4ef-4dba-84ee-07073a8f32cf"},"vehicle_type_id":"4","last_reported":1762351844,"current_range_meters":10800,"station_id":"ce4bhbh2rcd13ifvqeo0","pricing_plan_id":"cebpf4jnsgd1na2vs0mg"},{"bike_id":"988e9ec0-b1c2-4ad1-964e-92bab0b3b058","system_id":"levelo_inurba_marseille","lat":43.2857,"lon":5.39494,"is_reserved":false,"is_disabled":false,"rental_uris":{"android":"levelo://app?vid=988e9ec0-b1c2-4ad1-964e-92bab0b3b058","ios":"levelo://app?vid=988e9ec0-b1c2-4ad1-964e-92bab0b3b058"},"vehicle_type_id":"4","last_reported":1762351844,"current_range_meters":10800,"station_id":"ce4bh292rcd13ifvqdg0","pricing_plan_id":"cebpf4jnsgd1na2vs0mg"},{"bike_id":"02c565c9-e1be-4475-b1a9-b37751cdb830","system_id":"levelo_inurba_marseille","lat":43.34373,"lon":5.34889,"is_reserved":false,"is_disabled":false,"rental_uris":{"android":"levelo://app?vid=02c565c9-e1be-4475-b1a9-b37751cdb830","ios":"levelo://app?vid=02c565c9-e1be-4475-b1a9-b37751cdb830"},"vehicle_type_id":"4","last_reported":1762351844,"current_range_meters":11200,"station_id":"","pricing_plan_id":"cebpf4jnsgd1na2vs0mg"},{"bike_id":"ddb84b37-fa05-4317-b548-61c61a956ec9","system_id":"levelo_inurba_marseille","lat":43.28465,"lon":5.35887,"is_reserved":false,"is_disabled":false,"rental_uris":{"android":"levelo://app?vid=ddb84b37-fa05-4317-b548-61c61a956ec9","ios":"levelo://app?vid=ddb84b37-fa05-4317-b548-61c61a956ec9"},"vehicle_type_id":"4","last_reported":1762351844,"current_range_meters":11200,"station_id":"ce4bhah2rcd13ifvqei0","pricing_plan_id":"cebpf4jnsgd1na2vs0mg"},{"bike_id":"d9fd7bb5-fd79-41f8-b907-8d24aff88403","system_id":"levelo_inurba_marseille","lat":43.30262,"lon":5.39929,"is_reserved":false,"is_disabled":false,"rental_uris":{"android":"levelo://app?vid=d9fd7bb5-fd79-41f8-b907-8d24aff88403","ios":"levelo://app?vid=d9fd7bb5-fd79-41f8-b907-8d24aff88403"},"vehicle_type_id":"4","last_reported":1762351844,"current_range_meters":11200,"station_id":"","pricing_plan_id":"cebpf4jnsgd1na2vs0mg"},{"bike_id":"e7002296-a724-4792-9c77-9aa7da662e7d","system_id":"levelo_inurba_marseille","lat":43.29752,"lon":5.36248,"is_reserved":false,"is_disabled":false,"rental_uris":{"android":"levelo://app?vid=e7002296-a724-4792-9c77-9aa7da662e7d","ios":"levelo://app?vid=e7002296-a724-4792-9c77-9aa7da662e7d"},"vehicle_type_id":"4","last_reported":1762351844,"current_range_meters":11200,"station_id":"","pricing_plan_id":"cebpf4jnsgd1na2vs0mg"},{"bike_id":"4b24dbba-41a5-4ecf-ade9-ac15d69f3a39","system_id":"levelo_inurba_marseille","lat":43.30277,"lon":5.37689,"is_reserved":false,"is_disabled":false,"rental_uris":{"android":"levelo://app?vid=4b24dbba-41a5-4ecf-ade9-ac15d69f3a39","ios":"levelo://app?vid=4b24dbba-41a5-4ecf-ade9-ac15d69f3a39"},"vehicle_type_id":"4","last_reported":1762351844,"current_range_meters":11600,"station_id":"ce4bguh2rcd13ifvqcj0","pricing_plan_id":"cebpf4jnsgd1na2vs0mg"},{"bike_id":"dceb4beb-6bb5-4225-ae7e-d3c4b9815bbe","system_id":"levelo_inurba_marseille","lat":43.284723,"lon":5.484098,"is_reserved":false,"is_disabled":false,"rental_uris":{"android":"levelo://app?vid=dceb4beb-6bb5-4225-ae7e-d3c4b9815bbe","ios":"levelo://app?vid=dceb4beb-6bb5-4225-ae7e-d3c4b9815bbe"},"vehicle_type_id":"4","last_reported":1762351844,"current_range_meters":11600,"station_id":"st_d3svhcjqgbts73a3dn0g","pricing_plan_id":"cebpf4jnsgd1na2vs0mg"},{"bike_id":"829a2543-68a2-4025-9aeb-f02490ecd604","system_id":"levelo_inurba_marseille","lat":43.23143,"lon":5.43728,"is_reserved":false,"is_disabled":false,"rental_uris":{"android":"levelo://app?vid=829a2543-68a2-4025-9aeb-f02490ecd604","ios":"levelo://app?vid=829a2543-68a2-4025-9aeb-f02490ecd604"},"vehicle_type_id":"4","last_reported":1762351844,"current_range_meters":11600,"station_id":"ce4bhmp2rcd13ifvqgog","pricing_plan_id":"cebpf4jnsgd1na2vs0mg"},{"bike_id":"7c8c77e6-611f-4f5e-8374-da326e1729a3","system_id":"levelo_inurba_marseille","lat":43.29806,"lon":5.44083,"is_reserved":false,"is_disabled":false,"rental_uris":{"android":"levelo://app?vid=7c8c77e6-611f-4f5e-8374-da326e1729a3","ios":"levelo://app?vid=7c8c77e6-611f-4f5e-8374-da326e1729a3"},"vehicle_type_id":"4","last_reported":1762351844,"current_range_meters":11600,"station_id":"st_d3jp68qikq2c7381ktn0","pricing_plan_id":"cebpf4jnsgd1na2vs0mg"},{"bike_id":"32d452e1-4a62-4f2f-bdd6-455ca926514e","system_id":"levelo_inurba_marseille","lat":43.30789,"lon":5.38156,"is_reserved":false,"is_disabled":false,"rental_uris":{"android":"levelo://app?vid=32d452e1-4a62-4f2f-bdd6-455ca926514e","ios":"levelo://app?vid=32d452e1-4a62-4f2f-bdd6-455ca926514e"},"vehicle_type_id":"4","last_reported":1762351844,"current_range_meters":11600,"station_id":"ce4bgt12rcd13ifvqce0","pricing_plan_id":"cebpf4jnsgd1na2vs0mg"},{"bike_id":"b8950634-601f-4b1a-a8ca-9ac75a365486","system_id":"levelo_inurba_marseille","lat":43.30451,"lon":5.37913,"is_reserved":false,"is_disabled":false,"rental_uris":{"android":"levelo://app?vid=b8950634-601f-4b1a-a8ca-9ac75a365486","ios":"levelo://app?vid=b8950634-601f-4b1a-a8ca-9ac75a365486"},"vehicle_type_id":"4","last_reported":1762351844,"current_range_meters":12000,"station_id":"ce4bgup2rcd13ifvqcn0","pricing_plan_id":"cebpf4jnsgd1na2vs0mg"},{"bike_id":"09774ef3-71e0-480b-a7dd-b7de8d19488d","system_id":"levelo_inurba_marseille","lat":43.23132,"lon":5.43728,"is_reserved":false,"is_disabled":false,"rental_uris":{"android":"levelo://app?vid=09774ef3-71e0-480b-a7dd-b7de8d19488d","ios":"levelo://app?vid=09774ef3-71e0-480b-a7dd-b7de8d19488d"},"vehicle_type_id":"4","last_reported":1762351844,"current_range_meters":12000,"station_id":"ce4bhmp2rcd13ifvqgog","pricing_plan_id":"cebpf4jnsgd1na2vs0mg"},{"bike_id":"7e8da862-2af0-47cd-9267-b7b5a54bf28d","system_id":"levelo_inurba_marseille","lat":43.22923,"lon":5.35387,"is_reserved":false,"is_disabled":false,"rental_uris":{"android":"levelo://app?vid=7e8da862-2af0-47cd-9267-b7b5a54bf28d","ios":"levelo://app?vid=7e8da862-2af0-47cd-9267-b7b5a54bf28d"},"vehicle_type_id":"4","last_reported":1762351844,"current_range_meters":12000,"station_id":"cpo3532slgdg3j2ikp40","pricing_plan_id":"cebpf4jnsgd1na2vs0mg"},{"bike_id":"761b4093-e9a9-4035-8bc4-55a8ef848908","system_id":"levelo_inurba_marseille","lat":43.27619,"lon":5.36104,"is_reserved":false,"is_disabled":false,"rental_uris":{"android":"levelo://app?vid=761b4093-e9a9-4035-8bc4-55a8ef848908","ios":"levelo://app?vid=761b4093-e9a9-4035-8bc4-55a8ef848908"},"vehicle_type_id":"4","last_reported":1762351844,"current_range_meters":12000,"station_id":"ce4bgj92rcd13ifvqbe0","pricing_plan_id":"cebpf4jnsgd1na2vs0mg"},{"bike_id":"765b9661-2b24-4c0f-a9fb-732d7409b10c","system_id":"levelo_inurba_marseille","lat":43.21605,"lon":5.3444,"is_reserved":false,"is_disabled":false,"rental_uris":{"android":"levelo://app?vid=765b9661-2b24-4c0f-a9fb-732d7409b10c","ios":"levelo://app?vid=765b9661-2b24-4c0f-a9fb-732d7409b10c"},"vehicle_type_id":"4","last_reported":1762351844,"current_range_meters":12000,"station_id":"","pricing_plan_id":"cebpf4jnsgd1na2vs0mg"},{"bike_id":"13c3ccaa-99d2-4685-a1fa-a15f41ed3f72","system_id":"levelo_inurba_marseille","lat":43.305554,"lon":5.365407,"is_reserved":false,"is_disabled":false,"rental_uris":{"android":"levelo://app?vid=13c3ccaa-99d2-4685-a1fa-a15f41ed3f72","ios":"levelo://app?vid=13c3ccaa-99d2-4685-a1fa-a15f41ed3f72"},"vehicle_type_id":"4","last_reported":1762351844,"current_range_meters":12000,"station_id":"ce4bgs12rcd13ifvqcag","pricing_plan_id":"cebpf4jnsgd1na2vs0mg"},{"bike_id":"92f1987a-55b8-4d4f-b4b6-cdbfa4658be9","system_id":"levelo_inurba_marseille","lat":43.32475,"lon":5.36572,"is_reserved":false,"is_disabled":false,"rental_uris":{"android":"levelo://app?vid=92f1987a-55b8-4d4f-b4b6-cdbfa4658be9","ios":"levelo://app?vid=92f1987a-55b8-4d4f-b4b6-cdbfa4658be9"},"vehicle_type_id":"4","last_reported":1762351844,"current_range_meters":12000,"station_id":"ce4bhs12rcd13ifvqhvg","pricing_plan_id":"cebpf4jnsgd1na2vs0mg"},{"bike_id":"fc720a8a-1f75-4c72-a6f4-70569a2f4662","system_id":"levelo_inurba_marseille","lat":43.23192,"lon":5.35558,"is_reserved":false,"is_disabled":false,"rental_uris":{"android":"levelo://app?vid=fc720a8a-1f75-4c72-a6f4-70569a2f4662","ios":"levelo://app?vid=fc720a8a-1f75-4c72-a6f4-70569a2f4662"},"vehicle_type_id":"4","last_reported":1762351844,"current_range_meters":12000,"station_id":"ce4bhu92rcd13ifvqi70","pricing_plan_id":"cebpf4jnsgd1na2vs0mg"},{"bike_id":"dd7cfba2-4b59-43c0-96d6-969e381b3b3d","system_id":"levelo_inurba_marseille","lat":43.275591,"lon":5.384295,"is_reserved":false,"is_disabled":false,"rental_uris":{"android":"levelo://app?vid=dd7cfba2-4b59-43c0-96d6-969e381b3b3d","ios":"levelo://app?vid=dd7cfba2-4b59-43c0-96d6-969e381b3b3d"},"vehicle_type_id":"4","last_reported":1762351844,"current_range_meters":12000,"station_id":"ce4bhh92rcd13ifvqfi0","pricing_plan_id":"cebpf4jnsgd1na2vs0mg"},{"bike_id":"ba2938fb-1ec4-425e-b6e5-c82904ce08fe","system_id":"levelo_inurba_marseille","lat":43.24623,"lon":5.43146,"is_reserved":false,"is_disabled":false,"rental_uris":{"android":"levelo://app?vid=ba2938fb-1ec4-425e-b6e5-c82904ce08fe","ios":"levelo://app?vid=ba2938fb-1ec4-425e-b6e5-c82904ce08fe"},"vehicle_type_id":"4","last_reported":1762351844,"current_range_meters":12000,"station_id":"st_d2m6c4gdas8pm72e190g","pricing_plan_id":"cebpf4jnsgd1na2vs0mg"},{"bike_id":"82199599-7551-48d3-81a5-6ed885f0a93b","system_id":"levelo_inurba_marseille","lat":43.3043,"lon":5.37925,"is_reserved":false,"is_disabled":false,"rental_uris":{"android":"levelo://app?vid=82199599-7551-48d3-81a5-6ed885f0a93b","ios":"levelo://app?vid=82199599-7551-48d3-81a5-6ed885f0a93b"},"vehicle_type_id":"4","last_reported":1762351844,"current_range_meters":12400,"station_id":"ce4bgup2rcd13ifvqcn0","pricing_plan_id":"cebpf4jnsgd1na2vs0mg"},{"bike_id":"dae30738-204c-4787-a9b5-e056fa94e0c9","system_id":"levelo_inurba_marseille","lat":43.22567,"lon":5.41641,"is_reserved":false,"is_disabled":false,"rental_uris":{"android":"levelo://app?vid=dae30738-204c-4787-a9b5-e056fa94e0c9","ios":"levelo://app?vid=dae30738-204c-4787-a9b5-e056fa94e0c9"},"vehicle_type_id":"4","last_reported":1762351844,"current_range_meters":12400,"station_id":"st_d2o4gvlbi1j2169b742g","pricing_plan_id":"cebpf4jnsgd1na2vs0mg"},{"bike_id":"5b5ca976-0877-4b02-b658-edf901b2d1ce","system_id":"levelo_inurba_marseille","lat":43.2937,"lon":5.37833,"is_reserved":false,"is_disabled":false,"rental_uris":{"android":"levelo://app?vid=5b5ca976-0877-4b02-b658-edf901b2d1ce","ios":"levelo://app?vid=5b5ca976-0877-4b02-b658-edf901b2d1ce"},"vehicle_type_id":"4","last_reported":1762351844,"current_range_meters":12400,"station_id":"ce4bgjh2rcd13ifvqbf0","pricing_plan_id":"cebpf4jnsgd1na2vs0mg"},{"bike_id":"43941623-4a77-483d-a9db-507b5a0af213","system_id":"levelo_inurba_marseille","lat":43.2737,"lon":5.36259,"is_reserved":false,"is_disabled":false,"rental_uris":{"android":"levelo://app?vid=43941623-4a77-483d-a9db-507b5a0af213","ios":"levelo://app?vid=43941623-4a77-483d-a9db-507b5a0af213"},"vehicle_type_id":"4","last_reported":1762351844,"current_range_meters":12400,"station_id":"ce4bhbh2rcd13ifvqeo0","pricing_plan_id":"cebpf4jnsgd1na2vs0mg"},{"bike_id":"e2104b6a-7e12-4a20-ae1b-cf4b446d5e26","system_id":"levelo_inurba_marseille","lat":43.284712,"lon":5.484064,"is_reserved":false,"is_disabled":false,"rental_uris":{"android":"levelo://app?vid=e2104b6a-7e12-4a20-ae1b-cf4b446d5e26","ios":"levelo://app?vid=e2104b6a-7e12-4a20-ae1b-cf4b446d5e26"},"vehicle_type_id":"4","last_reported":1762351844,"current_range_meters":12400,"station_id":"st_d3svhcjqgbts73a3dn0g","pricing_plan_id":"cebpf4jnsgd1na2vs0mg"},{"bike_id":"f2ac759f-570c-47bc-b459-8b0ba03a1eac","system_id":"levelo_inurba_marseille","lat":43.27836,"lon":5.39205,"is_reserved":false,"is_disabled":false,"rental_uris":{"android":"levelo://app?vid=f2ac759f-570c-47bc-b459-8b0ba03a1eac","ios":"levelo://app?vid=f2ac759f-570c-47bc-b459-8b0ba03a1eac"},"vehicle_type_id":"4","last_reported":1762351844,"current_range_meters":12400,"station_id":"ce4bhjp2rcd13ifvqga0","pricing_plan_id":"cebpf4jnsgd1na2vs0mg"},{"bike_id":"405999da-3201-402a-acbb-efc20e60a204","system_id":"levelo_inurba_marseille","lat":43.25073,"lon":5.403923,"is_reserved":false,"is_disabled":false,"rental_uris":{"android":"levelo://app?vid=405999da-3201-402a-acbb-efc20e60a204","ios":"levelo://app?vid=405999da-3201-402a-acbb-efc20e60a204"},"vehicle_type_id":"4","last_reported":1762351844,"current_range_meters":12800,"station_id":"st_d2ngiaodas8pm72gd1h0","pricing_plan_id":"cebpf4jnsgd1na2vs0mg"},{"bike_id":"4c5cbf44-23c4-4432-93b2-3591ff25e7bb","system_id":"levelo_inurba_marseille","lat":43.29968,"lon":5.38526,"is_reserved":false,"is_disabled":false,"rental_uris":{"android":"levelo://app?vid=4c5cbf44-23c4-4432-93b2-3591ff25e7bb","ios":"levelo://app?vid=4c5cbf44-23c4-4432-93b2-3591ff25e7bb"},"vehicle_type_id":"4","last_reported":1762351844,"current_range_meters":12800,"station_id":"ce4bgj92rcd13ifvqbd0","pricing_plan_id":"cebpf4jnsgd1na2vs0mg"},{"bike_id":"e458a04e-8648-405c-ad83-b53d61f3e64a","system_id":"levelo_inurba_marseille","lat":43.22918,"lon":5.35386,"is_reserved":false,"is_disabled":false,"rental_uris":{"android":"levelo://app?vid=e458a04e-8648-405c-ad83-b53d61f3e64a","ios":"levelo://app?vid=e458a04e-8648-405c-ad83-b53d61f3e64a"},"vehicle_type_id":"4","last_reported":1762351844,"current_range_meters":12800,"station_id":"cpo3532slgdg3j2ikp40","pricing_plan_id":"cebpf4jnsgd1na2vs0mg"},{"bike_id":"0f81d26e-848d-4c17-8cfc-2a73a589067a","system_id":"levelo_inurba_marseille","lat":43.30335,"lon":5.40418,"is_reserved":false,"is_disabled":false,"rental_uris":{"android":"levelo://app?vid=0f81d26e-848d-4c17-8cfc-2a73a589067a","ios":"levelo://app?vid=0f81d26e-848d-4c17-8cfc-2a73a589067a"},"vehicle_type_id":"4","last_reported":1762351844,"current_range_meters":12800,"station_id":"ce4bh012rcd13ifvqd10","pricing_plan_id":"cebpf4jnsgd1na2vs0mg"},{"bike_id":"d0e358d0-2b7f-4690-bfeb-b519074127bb","system_id":"levelo_inurba_marseille","lat":43.2556,"lon":5.38252,"is_reserved":false,"is_disabled":false,"rental_uris":{"android":"levelo://app?vid=d0e358d0-2b7f-4690-bfeb-b519074127bb","ios":"levelo://app?vid=d0e358d0-2b7f-4690-bfeb-b519074127bb"},"vehicle_type_id":"4","last_reported":1762351844,"current_range_meters":12800,"station_id":"ce4bhih2rcd13ifvqfs0","pricing_plan_id":"cebpf4jnsgd1na2vs0mg"},{"bike_id":"adce2f17-10d2-4348-bc53-ce245ff7f4a7","system_id":"levelo_inurba_marseille","lat":43.29571,"lon":5.37513,"is_reserved":false,"is_disabled":false,"rental_uris":{"android":"levelo://app?vid=adce2f17-10d2-4348-bc53-ce245ff7f4a7","ios":"levelo://app?vid=adce2f17-10d2-4348-bc53-ce245ff7f4a7"},"vehicle_type_id":"4","last_reported":1762351844,"current_range_meters":12800,"station_id":"ce4bgh92rcd13ifvqb50","pricing_plan_id":"cebpf4jnsgd1na2vs0mg"},{"bike_id":"b9211a18-502a-4b61-ac71-cf29c2a37ede","system_id":"levelo_inurba_marseille","lat":43.31233,"lon":5.36844,"is_reserved":false,"is_disabled":false,"rental_uris":{"android":"levelo://app?vid=b9211a18-502a-4b61-ac71-cf29c2a37ede","ios":"levelo://app?vid=b9211a18-502a-4b61-ac71-cf29c2a37ede"},"vehicle_type_id":"4","last_reported":1762351844,"current_range_meters":13600,"station_id":"ce4bgl92rcd13ifvqbq0","pricing_plan_id":"cebpf4jnsgd1na2vs0mg"},{"bike_id":"ab9b2bcc-ea75-449d-adbb-4add292d38c4","system_id":"levelo_inurba_marseille","lat":43.34059,"lon":5.38122,"is_reserved":false,"is_disabled":false,"rental_uris":{"android":"levelo://app?vid=ab9b2bcc-ea75-449d-adbb-4add292d38c4","ios":"levelo://app?vid=ab9b2bcc-ea75-449d-adbb-4add292d38c4"},"vehicle_type_id":"4","last_reported":1762351844,"current_range_meters":13600,"station_id":"","pricing_plan_id":"cebpf4jnsgd1na2vs0mg"},{"bike_id":"571bd3a6-912b-44a3-9841-50c558a61481","system_id":"levelo_inurba_marseille","lat":43.28126,"lon":5.40564,"is_reserved":false,"is_disabled":false,"rental_uris":{"android":"levelo://app?vid=571bd3a6-912b-44a3-9841-50c558a61481","ios":"levelo://app?vid=571bd3a6-912b-44a3-9841-50c558a61481"},"vehicle_type_id":"4","last_reported":1762351844,"current_range_meters":14000,"station_id":"","pricing_plan_id":"cebpf4jnsgd1na2vs0mg"},{"bike_id":"d9c15cae-4319-427a-b3fc-228ddcf46cce","system_id":"levelo_inurba_marseille","lat":43.27998,"lon":5.40013,"is_reserved":false,"is_disabled":false,"rental_uris":{"android":"levelo://app?vid=d9c15cae-4319-427a-b3fc-228ddcf46cce","ios":"levelo://app?vid=d9c15cae-4319-427a-b3fc-228ddcf46cce"},"vehicle_type_id":"4","last_reported":1762351844,"current_range_meters":14000,"station_id":"ce4bho92rcd13ifvqh4g","pricing_plan_id":"cebpf4jnsgd1na2vs0mg"},{"bike_id":"879d958d-a506-45c4-943b-a2c3fa29f453","system_id":"levelo_inurba_marseille","lat":43.21187,"lon":5.35079,"is_reserved":false,"is_disabled":false,"rental_uris":{"android":"levelo://app?vid=879d958d-a506-45c4-943b-a2c3fa29f453","ios":"levelo://app?vid=879d958d-a506-45c4-943b-a2c3fa29f453"},"vehicle_type_id":"4","last_reported":1762351844,"current_range_meters":14000,"station_id":"st_cvj6sg6p6f1abm77japg","pricing_plan_id":"cebpf4jnsgd1na2vs0mg"},{"bike_id":"cd0cb19e-bbdd-4d48-b0f6-49ec081f4c28","system_id":"levelo_inurba_marseille","lat":43.30541,"lon":5.36712,"is_reserved":false,"is_disabled":false,"rental_uris":{"android":"levelo://app?vid=cd0cb19e-bbdd-4d48-b0f6-49ec081f4c28","ios":"levelo://app?vid=cd0cb19e-bbdd-4d48-b0f6-49ec081f4c28"},"vehicle_type_id":"4","last_reported":1762351844,"current_range_meters":14400,"station_id":"ce4bgrp2rcd13ifvqc9g","pricing_plan_id":"cebpf4jnsgd1na2vs0mg"},{"bike_id":"0a567e7b-a8c7-4700-b2e5-90b665b67c4d","system_id":"levelo_inurba_marseille","lat":43.25942,"lon":5.40888,"is_reserved":false,"is_disabled":false,"rental_uris":{"android":"levelo://app?vid=0a567e7b-a8c7-4700-b2e5-90b665b67c4d","ios":"levelo://app?vid=0a567e7b-a8c7-4700-b2e5-90b665b67c4d"},"vehicle_type_id":"4","last_reported":1762351844,"current_range_meters":14400,"station_id":"ce4bhm92rcd13ifvqglg","pricing_plan_id":"cebpf4jnsgd1na2vs0mg"},{"bike_id":"604a4a96-00ae-4719-afaf-053b11b9b8d2","system_id":"levelo_inurba_marseille","lat":43.25338,"lon":5.42165,"is_reserved":false,"is_disabled":false,"rental_uris":{"android":"levelo://app?vid=604a4a96-00ae-4719-afaf-053b11b9b8d2","ios":"levelo://app?vid=604a4a96-00ae-4719-afaf-053b11b9b8d2"},"vehicle_type_id":"4","last_reported":1762351844,"current_range_meters":14400,"station_id":"st_d2m65c5bi1j21697t3ng","pricing_plan_id":"cebpf4jnsgd1na2vs0mg"},{"bike_id":"94d1d01e-36dc-4af1-b717-df62afab913a","system_id":"levelo_inurba_marseille","lat":43.27807,"lon":5.40721,"is_reserved":false,"is_disabled":false,"rental_uris":{"android":"levelo://app?vid=94d1d01e-36dc-4af1-b717-df62afab913a","ios":"levelo://app?vid=94d1d01e-36dc-4af1-b717-df62afab913a"},"vehicle_type_id":"4","last_reported":1762351844,"current_range_meters":14400,"station_id":"ce4bhnh2rcd13ifvqgtg","pricing_plan_id":"cebpf4jnsgd1na2vs0mg"},{"bike_id":"6edaa430-e37a-4cc5-b572-2c09b5252b2c","system_id":"levelo_inurba_marseille","lat":43.323693,"lon":5.388809,"is_reserved":false,"is_disabled":false,"rental_uris":{"android":"levelo://app?vid=6edaa430-e37a-4cc5-b572-2c09b5252b2c","ios":"levelo://app?vid=6edaa430-e37a-4cc5-b572-2c09b5252b2c"},"vehicle_type_id":"4","last_reported":1762351844,"current_range_meters":14400,"station_id":"ce4bhqp2rcd13ifvqhog","pricing_plan_id":"cebpf4jnsgd1na2vs0mg"},{"bike_id":"94b06f3e-9c43-404e-899a-d1e48d6d7a76","system_id":"levelo_inurba_marseille","lat":43.287102,"lon":5.399967,"is_reserved":false,"is_disabled":false,"rental_uris":{"android":"levelo://app?vid=94b06f3e-9c43-404e-899a-d1e48d6d7a76","ios":"levelo://app?vid=94b06f3e-9c43-404e-899a-d1e48d6d7a76"},"vehicle_type_id":"4","last_reported":1762351844,"current_range_meters":14800,"station_id":"ce4bho92rcd13ifvqh3g","pricing_plan_id":"cebpf4jnsgd1na2vs0mg"},{"bike_id":"bcb3c39b-ec48-48ef-9eac-eb8b71840959","system_id":"levelo_inurba_marseille","lat":43.33757,"lon":5.37464,"is_reserved":false,"is_disabled":false,"rental_uris":{"android":"levelo://app?vid=bcb3c39b-ec48-48ef-9eac-eb8b71840959","ios":"levelo://app?vid=bcb3c39b-ec48-48ef-9eac-eb8b71840959"},"vehicle_type_id":"4","last_reported":1762351844,"current_range_meters":14800,"station_id":"","pricing_plan_id":"cebpf4jnsgd1na2vs0mg"},{"bike_id":"8dc7779b-3ef6-4e6f-af35-7b777172050f","system_id":"levelo_inurba_marseille","lat":43.257168,"lon":5.410979,"is_reserved":false,"is_disabled":false,"rental_uris":{"android":"levelo://app?vid=8dc7779b-3ef6-4e6f-af35-7b777172050f","ios":"levelo://app?vid=8dc7779b-3ef6-4e6f-af35-7b777172050f"},"vehicle_type_id":"4","last_reported":1762351844,"current_range_meters":14800,"station_id":"ce4bhkp2rcd13ifvqgd0","pricing_plan_id":"cebpf4jnsgd1na2vs0mg"},{"bike_id":"27aefe03-bbd2-43d3-8d72-3a7105da9194","system_id":"levelo_inurba_marseille","lat":43.31356,"lon":5.37911,"is_reserved":false,"is_disabled":false,"rental_uris":{"android":"levelo://app?vid=27aefe03-bbd2-43d3-8d72-3a7105da9194","ios":"levelo://app?vid=27aefe03-bbd2-43d3-8d72-3a7105da9194"},"vehicle_type_id":"4","last_reported":1762351844,"current_range_meters":14800,"station_id":"","pricing_plan_id":"cebpf4jnsgd1na2vs0mg"},{"bike_id":"126f7977-ec7a-4816-9bec-e3fecb7644bb","system_id":"levelo_inurba_marseille","lat":43.28847,"lon":5.35849,"is_reserved":false,"is_disabled":false,"rental_uris":{"android":"levelo://app?vid=126f7977-ec7a-4816-9bec-e3fecb7644bb","ios":"levelo://app?vid=126f7977-ec7a-4816-9bec-e3fecb7644bb"},"vehicle_type_id":"4","last_reported":1762351844,"current_range_meters":14800,"station_id":"ce4bhb12rcd13ifvqem0","pricing_plan_id":"cebpf4jnsgd1na2vs0mg"},{"bike_id":"663c1282-fbf9-4303-b9aa-00529c606e1f","system_id":"levelo_inurba_marseille","lat":43.31388,"lon":5.38492,"is_reserved":false,"is_disabled":false,"rental_uris":{"android":"levelo://app?vid=663c1282-fbf9-4303-b9aa-00529c606e1f","ios":"levelo://app?vid=663c1282-fbf9-4303-b9aa-00529c606e1f"},"vehicle_type_id":"4","last_reported":1762351844,"current_range_meters":14800,"station_id":"ce4bgt92rcd13ifvqcf0","pricing_plan_id":"cebpf4jnsgd1na2vs0mg"},{"bike_id":"ee7b4a2a-327b-4f7c-88c2-d8bb993ed935","system_id":"levelo_inurba_marseille","lat":43.25936,"lon":5.40908,"is_reserved":false,"is_disabled":false,"rental_uris":{"android":"levelo://app?vid=ee7b4a2a-327b-4f7c-88c2-d8bb993ed935","ios":"levelo://app?vid=ee7b4a2a-327b-4f7c-88c2-d8bb993ed935"},"vehicle_type_id":"4","last_reported":1762351844,"current_range_meters":15200,"station_id":"ce4bhm92rcd13ifvqglg","pricing_plan_id":"cebpf4jnsgd1na2vs0mg"},{"bike_id":"813d84df-d28e-442a-86a4-2693a3f1117d","system_id":"levelo_inurba_marseille","lat":43.230494,"lon":5.354961,"is_reserved":false,"is_disabled":false,"rental_uris":{"android":"levelo://app?vid=813d84df-d28e-442a-86a4-2693a3f1117d","ios":"levelo://app?vid=813d84df-d28e-442a-86a4-2693a3f1117d"},"vehicle_type_id":"4","last_reported":1762351844,"current_range_meters":15200,"station_id":"cpo3342slgdg3j2ifvpg","pricing_plan_id":"cebpf4jnsgd1na2vs0mg"},{"bike_id":"cff64f4e-5f37-43ea-ae7e-1ca574864a38","system_id":"levelo_inurba_marseille","lat":43.32435,"lon":5.42813,"is_reserved":false,"is_disabled":false,"rental_uris":{"android":"levelo://app?vid=cff64f4e-5f37-43ea-ae7e-1ca574864a38","ios":"levelo://app?vid=cff64f4e-5f37-43ea-ae7e-1ca574864a38"},"vehicle_type_id":"4","last_reported":1762351844,"current_range_meters":15200,"station_id":"","pricing_plan_id":"cebpf4jnsgd1na2vs0mg"},{"bike_id":"fc8f9cae-9394-495c-ac53-7055defbc1eb","system_id":"levelo_inurba_marseille","lat":43.2847,"lon":5.35884,"is_reserved":false,"is_disabled":false,"rental_uris":{"android":"levelo://app?vid=fc8f9cae-9394-495c-ac53-7055defbc1eb","ios":"levelo://app?vid=fc8f9cae-9394-495c-ac53-7055defbc1eb"},"vehicle_type_id":"4","last_reported":1762351844,"current_range_meters":15200,"station_id":"ce4bhah2rcd13ifvqei0","pricing_plan_id":"cebpf4jnsgd1na2vs0mg"},{"bike_id":"c14b70b2-98d4-4848-a2d9-32722b8d1daf","system_id":"levelo_inurba_marseille","lat":43.32086,"lon":5.36827,"is_reserved":false,"is_disabled":false,"rental_uris":{"android":"levelo://app?vid=c14b70b2-98d4-4848-a2d9-32722b8d1daf","ios":"levelo://app?vid=c14b70b2-98d4-4848-a2d9-32722b8d1daf"},"vehicle_type_id":"4","last_reported":1762351844,"current_range_meters":15200,"station_id":"ce4bhrh2rcd13ifvqhug","pricing_plan_id":"cebpf4jnsgd1na2vs0mg"},{"bike_id":"42d2792a-88bd-48e5-afe0-4b6400cd337a","system_id":"levelo_inurba_marseille","lat":43.31666,"lon":5.38226,"is_reserved":false,"is_disabled":false,"rental_uris":{"android":"levelo://app?vid=42d2792a-88bd-48e5-afe0-4b6400cd337a","ios":"levelo://app?vid=42d2792a-88bd-48e5-afe0-4b6400cd337a"},"vehicle_type_id":"4","last_reported":1762351844,"current_range_meters":15200,"station_id":"","pricing_plan_id":"cebpf4jnsgd1na2vs0mg"},{"bike_id":"ca46fdbd-ac89-432a-9c58-507605a7d54c","system_id":"levelo_inurba_marseille","lat":43.29269,"lon":5.37629,"is_reserved":false,"is_disabled":false,"rental_uris":{"android":"levelo://app?vid=ca46fdbd-ac89-432a-9c58-507605a7d54c","ios":"levelo://app?vid=ca46fdbd-ac89-432a-9c58-507605a7d54c"},"vehicle_type_id":"4","last_reported":1762351844,"current_range_meters":15200,"station_id":"ce4bgi12rcd13ifvqb80","pricing_plan_id":"cebpf4jnsgd1na2vs0mg"},{"bike_id":"dbb6b5e9-b188-4887-bba4-ba2a589c69fd","system_id":"levelo_inurba_marseille","lat":43.25846,"lon":5.39948,"is_reserved":false,"is_disabled":false,"rental_uris":{"android":"levelo://app?vid=dbb6b5e9-b188-4887-bba4-ba2a589c69fd","ios":"levelo://app?vid=dbb6b5e9-b188-4887-bba4-ba2a589c69fd"},"vehicle_type_id":"4","last_reported":1762351844,"current_range_meters":15200,"station_id":"ce4bhl92rcd13ifvqghg","pricing_plan_id":"cebpf4jnsgd1na2vs0mg"},{"bike_id":"81dcc136-dea2-46c0-98af-42dbdee92b54","system_id":"levelo_inurba_marseille","lat":43.28494,"lon":5.48404,"is_reserved":false,"is_disabled":false,"rental_uris":{"android":"levelo://app?vid=81dcc136-dea2-46c0-98af-42dbdee92b54","ios":"levelo://app?vid=81dcc136-dea2-46c0-98af-42dbdee92b54"},"vehicle_type_id":"4","last_reported":1762351844,"current_range_meters":15200,"station_id":"","pricing_plan_id":"cebpf4jnsgd1na2vs0mg"},{"bike_id":"99935575-f134-4cfc-9cb8-c74a07a4fa74","system_id":"levelo_inurba_marseille","lat":43.29361,"lon":5.37835,"is_reserved":false,"is_disabled":false,"rental_uris":{"android":"levelo://app?vid=99935575-f134-4cfc-9cb8-c74a07a4fa74","ios":"levelo://app?vid=99935575-f134-4cfc-9cb8-c74a07a4fa74"},"vehicle_type_id":"4","last_reported":1762351844,"current_range_meters":15200,"station_id":"ce4bgjh2rcd13ifvqbf0","pricing_plan_id":"cebpf4jnsgd1na2vs0mg"},{"bike_id":"d4e46fa0-f946-4ec4-b7e0-3b3ee0559971","system_id":"levelo_inurba_marseille","lat":43.24631,"lon":5.43145,"is_reserved":false,"is_disabled":false,"rental_uris":{"android":"levelo://app?vid=d4e46fa0-f946-4ec4-b7e0-3b3ee0559971","ios":"levelo://app?vid=d4e46fa0-f946-4ec4-b7e0-3b3ee0559971"},"vehicle_type_id":"4","last_reported":1762351844,"current_range_meters":15200,"station_id":"st_d2m6c4gdas8pm72e190g","pricing_plan_id":"cebpf4jnsgd1na2vs0mg"},{"bike_id":"7212dcdd-2710-4b1e-93b9-50e3b5e20487","system_id":"levelo_inurba_marseille","lat":43.29635,"lon":5.40599,"is_reserved":false,"is_disabled":false,"rental_uris":{"android":"levelo://app?vid=7212dcdd-2710-4b1e-93b9-50e3b5e20487","ios":"levelo://app?vid=7212dcdd-2710-4b1e-93b9-50e3b5e20487"},"vehicle_type_id":"4","last_reported":1762351844,"current_range_meters":16000,"station_id":"ce4bh0h2rcd13ifvqd60","pricing_plan_id":"cebpf4jnsgd1na2vs0mg"},{"bike_id":"4d1b38d0-b014-4162-b570-867bd1d2dbe7","system_id":"levelo_inurba_marseille","lat":43.31315,"lon":5.39717,"is_reserved":false,"is_disabled":false,"rental_uris":{"android":"levelo://app?vid=4d1b38d0-b014-4162-b570-867bd1d2dbe7","ios":"levelo://app?vid=4d1b38d0-b014-4162-b570-867bd1d2dbe7"},"vehicle_type_id":"4","last_reported":1762351844,"current_range_meters":16000,"station_id":"ce4bgvp2rcd13ifvqcu0","pricing_plan_id":"cebpf4jnsgd1na2vs0mg"},{"bike_id":"81ac0ba6-3f71-481e-bb86-6417cb8d40e0","system_id":"levelo_inurba_marseille","lat":43.30948,"lon":5.39031,"is_reserved":false,"is_disabled":false,"rental_uris":{"android":"levelo://app?vid=81ac0ba6-3f71-481e-bb86-6417cb8d40e0","ios":"levelo://app?vid=81ac0ba6-3f71-481e-bb86-6417cb8d40e0"},"vehicle_type_id":"4","last_reported":1762351844,"current_range_meters":16000,"station_id":"ce4bgup2rcd13ifvqco0","pricing_plan_id":"cebpf4jnsgd1na2vs0mg"},{"bike_id":"89668189-b95b-43c4-a0b4-cad5f1f90638","system_id":"levelo_inurba_marseille","lat":43.30145,"lon":5.38104,"is_reserved":false,"is_disabled":true,"rental_uris":{"android":"levelo://app?vid=89668189-b95b-43c4-a0b4-cad5f1f90638","ios":"levelo://app?vid=89668189-b95b-43c4-a0b4-cad5f1f90638"},"vehicle_type_id":"4","last_reported":1762351844,"current_range_meters":16000,"station_id":"ce4bgjp2rcd13ifvqbh0","pricing_plan_id":"cebpf4jnsgd1na2vs0mg"},{"bike_id":"7ee8d533-399f-43d1-af0e-a78799d9a1a3","system_id":"levelo_inurba_marseille","lat":43.25847,"lon":5.39899,"is_reserved":false,"is_disabled":false,"rental_uris":{"android":"levelo://app?vid=7ee8d533-399f-43d1-af0e-a78799d9a1a3","ios":"levelo://app?vid=7ee8d533-399f-43d1-af0e-a78799d9a1a3"},"vehicle_type_id":"4","last_reported":1762351844,"current_range_meters":16000,"station_id":"ce4bhl92rcd13ifvqghg","pricing_plan_id":"cebpf4jnsgd1na2vs0mg"},{"bike_id":"a27b54b2-be09-4a44-981c-3f43a62cd5ab","system_id":"levelo_inurba_marseille","lat":43.29554,"lon":5.42294,"is_reserved":false,"is_disabled":false,"rental_uris":{"android":"levelo://app?vid=a27b54b2-be09-4a44-981c-3f43a62cd5ab","ios":"levelo://app?vid=a27b54b2-be09-4a44-981c-3f43a62cd5ab"},"vehicle_type_id":"4","last_reported":1762351844,"current_range_meters":16000,"station_id":"ce4bhph2rcd13ifvqhdg","pricing_plan_id":"cebpf4jnsgd1na2vs0mg"},{"bike_id":"8cf54d33-efb5-4166-8509-df2cb57488b1","system_id":"levelo_inurba_marseille","lat":43.33405,"lon":5.40061,"is_reserved":false,"is_disabled":false,"rental_uris":{"android":"levelo://app?vid=8cf54d33-efb5-4166-8509-df2cb57488b1","ios":"levelo://app?vid=8cf54d33-efb5-4166-8509-df2cb57488b1"},"vehicle_type_id":"4","last_reported":1762351844,"current_range_meters":16000,"station_id":"","pricing_plan_id":"cebpf4jnsgd1na2vs0mg"},{"bike_id":"4b9b61f9-e84c-4648-b6f6-faf53029a4ee","system_id":"levelo_inurba_marseille","lat":43.270645,"lon":5.422724,"is_reserved":false,"is_disabled":false,"rental_uris":{"android":"levelo://app?vid=4b9b61f9-e84c-4648-b6f6-faf53029a4ee","ios":"levelo://app?vid=4b9b61f9-e84c-4648-b6f6-faf53029a4ee"},"vehicle_type_id":"4","last_reported":1762351844,"current_range_meters":16400,"station_id":"ce4bhk92rcd13ifvqgb0","pricing_plan_id":"cebpf4jnsgd1na2vs0mg"},{"bike_id":"c35ae767-b94d-4a13-984c-f18ce49a28eb","system_id":"levelo_inurba_marseille","lat":43.31161,"lon":5.38716,"is_reserved":false,"is_disabled":false,"rental_uris":{"android":"levelo://app?vid=c35ae767-b94d-4a13-984c-f18ce49a28eb","ios":"levelo://app?vid=c35ae767-b94d-4a13-984c-f18ce49a28eb"},"vehicle_type_id":"4","last_reported":1762351844,"current_range_meters":16400,"station_id":"ce4bgv12rcd13ifvqcp0","pricing_plan_id":"cebpf4jnsgd1na2vs0mg"},{"bike_id":"64f63343-4494-416c-90c6-98a294ecb70d","system_id":"levelo_inurba_marseille","lat":43.30947,"lon":5.39043,"is_reserved":false,"is_disabled":false,"rental_uris":{"android":"levelo://app?vid=64f63343-4494-416c-90c6-98a294ecb70d","ios":"levelo://app?vid=64f63343-4494-416c-90c6-98a294ecb70d"},"vehicle_type_id":"4","last_reported":1762351844,"current_range_meters":16400,"station_id":"ce4bgup2rcd13ifvqco0","pricing_plan_id":"cebpf4jnsgd1na2vs0mg"},{"bike_id":"c6d2dafc-fb2c-4b82-8b78-f3d7d347211b","system_id":"levelo_inurba_marseille","lat":43.32354,"lon":5.36756,"is_reserved":false,"is_disabled":false,"rental_uris":{"android":"levelo://app?vid=c6d2dafc-fb2c-4b82-8b78-f3d7d347211b","ios":"levelo://app?vid=c6d2dafc-fb2c-4b82-8b78-f3d7d347211b"},"vehicle_type_id":"4","last_reported":1762351844,"current_range_meters":16400,"station_id":"ce4bhsh2rcd13ifvqi2g","pricing_plan_id":"cebpf4jnsgd1na2vs0mg"},{"bike_id":"9183ed14-7758-468c-88eb-4835f0178af6","system_id":"levelo_inurba_marseille","lat":43.25119,"lon":5.40321,"is_reserved":false,"is_disabled":false,"rental_uris":{"android":"levelo://app?vid=9183ed14-7758-468c-88eb-4835f0178af6","ios":"levelo://app?vid=9183ed14-7758-468c-88eb-4835f0178af6"},"vehicle_type_id":"4","last_reported":1762351844,"current_range_meters":16400,"station_id":"ce4bhlh2rcd13ifvqgig","pricing_plan_id":"cebpf4jnsgd1na2vs0mg"},{"bike_id":"f9f70e7c-79ca-4f5d-8690-b4fb94589e5e","system_id":"levelo_inurba_marseille","lat":43.24656,"lon":5.38158,"is_reserved":false,"is_disabled":false,"rental_uris":{"android":"levelo://app?vid=f9f70e7c-79ca-4f5d-8690-b4fb94589e5e","ios":"levelo://app?vid=f9f70e7c-79ca-4f5d-8690-b4fb94589e5e"},"vehicle_type_id":"4","last_reported":1762351844,"current_range_meters":16400,"station_id":"ce4bhih2rcd13ifvqfr0","pricing_plan_id":"cebpf4jnsgd1na2vs0mg"},{"bike_id":"3517c829-5868-451e-a2ab-1c037110fd0b","system_id":"levelo_inurba_marseille","lat":43.27624,"lon":5.36125,"is_reserved":false,"is_disabled":false,"rental_uris":{"android":"levelo://app?vid=3517c829-5868-451e-a2ab-1c037110fd0b","ios":"levelo://app?vid=3517c829-5868-451e-a2ab-1c037110fd0b"},"vehicle_type_id":"4","last_reported":1762351844,"current_range_meters":16400,"station_id":"ce4bgj92rcd13ifvqbe0","pricing_plan_id":"cebpf4jnsgd1na2vs0mg"},{"bike_id":"aee05e44-58d8-4251-b642-bba3a7afe48a","system_id":"levelo_inurba_marseille","lat":43.21192,"lon":5.35097,"is_reserved":false,"is_disabled":false,"rental_uris":{"android":"levelo://app?vid=aee05e44-58d8-4251-b642-bba3a7afe48a","ios":"levelo://app?vid=aee05e44-58d8-4251-b642-bba3a7afe48a"},"vehicle_type_id":"4","last_reported":1762351844,"current_range_meters":16400,"station_id":"st_cvj6sg6p6f1abm77japg","pricing_plan_id":"cebpf4jnsgd1na2vs0mg"},{"bike_id":"594a0538-e0c1-4c54-86e7-958af3b8f271","system_id":"levelo_inurba_marseille","lat":43.3127,"lon":5.40173,"is_reserved":false,"is_disabled":false,"rental_uris":{"android":"levelo://app?vid=594a0538-e0c1-4c54-86e7-958af3b8f271","ios":"levelo://app?vid=594a0538-e0c1-4c54-86e7-958af3b8f271"},"vehicle_type_id":"4","last_reported":1762351844,"current_range_meters":16800,"station_id":"ce4bh092rcd13ifvqd30","pricing_plan_id":"cebpf4jnsgd1na2vs0mg"},{"bike_id":"b38291d5-95f5-4acd-9e6d-a9aa047fbb3d","system_id":"levelo_inurba_marseille","lat":43.26548,"lon":5.373,"is_reserved":false,"is_disabled":false,"rental_uris":{"android":"levelo://app?vid=b38291d5-95f5-4acd-9e6d-a9aa047fbb3d","ios":"levelo://app?vid=b38291d5-95f5-4acd-9e6d-a9aa047fbb3d"},"vehicle_type_id":"4","last_reported":1762351844,"current_range_meters":16800,"station_id":"ce4bhg12rcd13ifvqf70","pricing_plan_id":"cebpf4jnsgd1na2vs0mg"},{"bike_id":"5498fff1-bad7-4fe9-a980-89edcdfca969","system_id":"levelo_inurba_marseille","lat":43.26204,"lon":5.4044,"is_reserved":false,"is_disabled":false,"rental_uris":{"android":"levelo://app?vid=5498fff1-bad7-4fe9-a980-89edcdfca969","ios":"levelo://app?vid=5498fff1-bad7-4fe9-a980-89edcdfca969"},"vehicle_type_id":"4","last_reported":1762351844,"current_range_meters":16800,"station_id":"ce4bhmh2rcd13ifvqgmg","pricing_plan_id":"cebpf4jnsgd1na2vs0mg"},{"bike_id":"a6010974-670e-49c0-b408-8e5fee4c2775","system_id":"levelo_inurba_marseille","lat":43.241648,"lon":5.363993,"is_reserved":false,"is_disabled":false,"rental_uris":{"android":"levelo://app?vid=a6010974-670e-49c0-b408-8e5fee4c2775","ios":"levelo://app?vid=a6010974-670e-49c0-b408-8e5fee4c2775"},"vehicle_type_id":"4","last_reported":1762351844,"current_range_meters":16800,"station_id":"cpo36qri1sfpv3e86is0","pricing_plan_id":"cebpf4jnsgd1na2vs0mg"},{"bike_id":"ce1c2141-edec-497f-b7e0-3db3a275c2ce","system_id":"levelo_inurba_marseille","lat":43.29748,"lon":5.38075,"is_reserved":false,"is_disabled":false,"rental_uris":{"android":"levelo://app?vid=ce1c2141-edec-497f-b7e0-3db3a275c2ce","ios":"levelo://app?vid=ce1c2141-edec-497f-b7e0-3db3a275c2ce"},"vehicle_type_id":"4","last_reported":1762351844,"current_range_meters":16800,"station_id":"","pricing_plan_id":"cebpf4jnsgd1na2vs0mg"},{"bike_id":"cb8ee62f-fc52-4fa5-a545-b823cfc4aedd","system_id":"levelo_inurba_marseille","lat":43.3234,"lon":5.38901,"is_reserved":false,"is_disabled":false,"rental_uris":{"android":"levelo://app?vid=cb8ee62f-fc52-4fa5-a545-b823cfc4aedd","ios":"levelo://app?vid=cb8ee62f-fc52-4fa5-a545-b823cfc4aedd"},"vehicle_type_id":"4","last_reported":1762351844,"current_range_meters":16800,"station_id":"ce4bhqp2rcd13ifvqhog","pricing_plan_id":"cebpf4jnsgd1na2vs0mg"},{"bike_id":"456325d2-f213-43d0-b8bb-83874dc983a6","system_id":"levelo_inurba_marseille","lat":43.25574,"lon":5.38254,"is_reserved":false,"is_disabled":false,"rental_uris":{"android":"levelo://app?vid=456325d2-f213-43d0-b8bb-83874dc983a6","ios":"levelo://app?vid=456325d2-f213-43d0-b8bb-83874dc983a6"},"vehicle_type_id":"4","last_reported":1762351844,"current_range_meters":16800,"station_id":"ce4bhih2rcd13ifvqfs0","pricing_plan_id":"cebpf4jnsgd1na2vs0mg"},{"bike_id":"38cd961b-4d33-497b-8892-a0fbcbbfdca1","system_id":"levelo_inurba_marseille","lat":43.25567,"lon":5.38255,"is_reserved":false,"is_disabled":false,"rental_uris":{"android":"levelo://app?vid=38cd961b-4d33-497b-8892-a0fbcbbfdca1","ios":"levelo://app?vid=38cd961b-4d33-497b-8892-a0fbcbbfdca1"},"vehicle_type_id":"4","last_reported":1762351844,"current_range_meters":16800,"station_id":"ce4bhih2rcd13ifvqfs0","pricing_plan_id":"cebpf4jnsgd1na2vs0mg"},{"bike_id":"e946e9ec-a4d2-434a-b465-1ffc5a3e6b52","system_id":"levelo_inurba_marseille","lat":43.25918,"lon":5.40915,"is_reserved":false,"is_disabled":false,"rental_uris":{"android":"levelo://app?vid=e946e9ec-a4d2-434a-b465-1ffc5a3e6b52","ios":"levelo://app?vid=e946e9ec-a4d2-434a-b465-1ffc5a3e6b52"},"vehicle_type_id":"4","last_reported":1762351844,"current_range_meters":16800,"station_id":"ce4bhm92rcd13ifvqglg","pricing_plan_id":"cebpf4jnsgd1na2vs0mg"},{"bike_id":"460958aa-abb4-46e7-a2e3-909165861081","system_id":"levelo_inurba_marseille","lat":43.298514,"lon":5.362759,"is_reserved":false,"is_disabled":false,"rental_uris":{"android":"levelo://app?vid=460958aa-abb4-46e7-a2e3-909165861081","ios":"levelo://app?vid=460958aa-abb4-46e7-a2e3-909165861081"},"vehicle_type_id":"4","last_reported":1762351844,"current_range_meters":16800,"station_id":"ce4bgpp2rcd13ifvqc3g","pricing_plan_id":"cebpf4jnsgd1na2vs0mg"},{"bike_id":"551cb652-5024-43a2-a752-2cd11a49050f","system_id":"levelo_inurba_marseille","lat":43.251077,"lon":5.403256,"is_reserved":false,"is_disabled":false,"rental_uris":{"android":"levelo://app?vid=551cb652-5024-43a2-a752-2cd11a49050f","ios":"levelo://app?vid=551cb652-5024-43a2-a752-2cd11a49050f"},"vehicle_type_id":"4","last_reported":1762351844,"current_range_meters":17200,"station_id":"ce4bhlh2rcd13ifvqgig","pricing_plan_id":"cebpf4jnsgd1na2vs0mg"},{"bike_id":"42c913c0-676e-48e0-a7de-83a06b60d4fd","system_id":"levelo_inurba_marseille","lat":43.2467,"lon":5.38154,"is_reserved":false,"is_disabled":false,"rental_uris":{"android":"levelo://app?vid=42c913c0-676e-48e0-a7de-83a06b60d4fd","ios":"levelo://app?vid=42c913c0-676e-48e0-a7de-83a06b60d4fd"},"vehicle_type_id":"4","last_reported":1762351844,"current_range_meters":17200,"station_id":"ce4bhih2rcd13ifvqfr0","pricing_plan_id":"cebpf4jnsgd1na2vs0mg"},{"bike_id":"392643ed-e39c-484d-83bd-74220284a437","system_id":"levelo_inurba_marseille","lat":43.29916,"lon":5.37479,"is_reserved":false,"is_disabled":false,"rental_uris":{"android":"levelo://app?vid=392643ed-e39c-484d-83bd-74220284a437","ios":"levelo://app?vid=392643ed-e39c-484d-83bd-74220284a437"},"vehicle_type_id":"4","last_reported":1762351844,"current_range_meters":17200,"station_id":"ce4bgjh2rcd13ifvqbg0","pricing_plan_id":"cebpf4jnsgd1na2vs0mg"},{"bike_id":"b3302806-c44e-4ca5-8d7c-f8d4302f31da","system_id":"levelo_inurba_marseille","lat":43.25573,"lon":5.3823,"is_reserved":false,"is_disabled":false,"rental_uris":{"android":"levelo://app?vid=b3302806-c44e-4ca5-8d7c-f8d4302f31da","ios":"levelo://app?vid=b3302806-c44e-4ca5-8d7c-f8d4302f31da"},"vehicle_type_id":"4","last_reported":1762351844,"current_range_meters":17200,"station_id":"ce4bhih2rcd13ifvqfs0","pricing_plan_id":"cebpf4jnsgd1na2vs0mg"},{"bike_id":"e19a2d45-b00b-4b1a-aeeb-400ccee855c9","system_id":"levelo_inurba_marseille","lat":43.27352,"lon":5.38966,"is_reserved":false,"is_disabled":false,"rental_uris":{"android":"levelo://app?vid=e19a2d45-b00b-4b1a-aeeb-400ccee855c9","ios":"levelo://app?vid=e19a2d45-b00b-4b1a-aeeb-400ccee855c9"},"vehicle_type_id":"4","last_reported":1762351844,"current_range_meters":17600,"station_id":"","pricing_plan_id":"cebpf4jnsgd1na2vs0mg"},{"bike_id":"40f5976f-c878-42d3-9960-e1343fe3aac7","system_id":"levelo_inurba_marseille","lat":43.26542,"lon":5.37299,"is_reserved":false,"is_disabled":false,"rental_uris":{"android":"levelo://app?vid=40f5976f-c878-42d3-9960-e1343fe3aac7","ios":"levelo://app?vid=40f5976f-c878-42d3-9960-e1343fe3aac7"},"vehicle_type_id":"4","last_reported":1762351844,"current_range_meters":17600,"station_id":"ce4bhg12rcd13ifvqf70","pricing_plan_id":"cebpf4jnsgd1na2vs0mg"},{"bike_id":"c24c2cd9-54b8-4138-837c-7ca0e65e609b","system_id":"levelo_inurba_marseille","lat":43.29615,"lon":5.37733,"is_reserved":false,"is_disabled":false,"rental_uris":{"android":"levelo://app?vid=c24c2cd9-54b8-4138-837c-7ca0e65e609b","ios":"levelo://app?vid=c24c2cd9-54b8-4138-837c-7ca0e65e609b"},"vehicle_type_id":"4","last_reported":1762351844,"current_range_meters":17600,"station_id":"","pricing_plan_id":"cebpf4jnsgd1na2vs0mg"},{"bike_id":"9bbd3d85-b440-471b-b356-6d920393d718","system_id":"levelo_inurba_marseille","lat":43.23958,"lon":5.36644,"is_reserved":false,"is_disabled":false,"rental_uris":{"android":"levelo://app?vid=9bbd3d85-b440-471b-b356-6d920393d718","ios":"levelo://app?vid=9bbd3d85-b440-471b-b356-6d920393d718"},"vehicle_type_id":"4","last_reported":1762351844,"current_range_meters":17600,"station_id":"ce4bhi12rcd13ifvqfp0","pricing_plan_id":"cebpf4jnsgd1na2vs0mg"},{"bike_id":"6a6dc6bb-d429-448d-b08f-a14034c9e754","system_id":"levelo_inurba_marseille","lat":43.27429,"lon":5.39428,"is_reserved":false,"is_disabled":false,"rental_uris":{"android":"levelo://app?vid=6a6dc6bb-d429-448d-b08f-a14034c9e754","ios":"levelo://app?vid=6a6dc6bb-d429-448d-b08f-a14034c9e754"},"vehicle_type_id":"4","last_reported":1762351844,"current_range_meters":17600,"station_id":"ce4bhdp2rcd13ifvqf20","pricing_plan_id":"cebpf4jnsgd1na2vs0mg"},{"bike_id":"bff6e39b-86e9-4ab0-aaa7-30763985c8df","system_id":"levelo_inurba_marseille","lat":43.290776,"lon":5.371513,"is_reserved":false,"is_disabled":false,"rental_uris":{"android":"levelo://app?vid=bff6e39b-86e9-4ab0-aaa7-30763985c8df","ios":"levelo://app?vid=bff6e39b-86e9-4ab0-aaa7-30763985c8df"},"vehicle_type_id":"4","last_reported":1762351844,"current_range_meters":18000,"station_id":"ce4bh5p2rcd13ifvqe4g","pricing_plan_id":"cebpf4jnsgd1na2vs0mg"},{"bike_id":"9c13396c-079d-47ad-a953-2ce612750053","system_id":"levelo_inurba_marseille","lat":43.24623,"lon":5.43165,"is_reserved":false,"is_disabled":false,"rental_uris":{"android":"levelo://app?vid=9c13396c-079d-47ad-a953-2ce612750053","ios":"levelo://app?vid=9c13396c-079d-47ad-a953-2ce612750053"},"vehicle_type_id":"4","last_reported":1762351844,"current_range_meters":18000,"station_id":"st_d2m6c4gdas8pm72e190g","pricing_plan_id":"cebpf4jnsgd1na2vs0mg"},{"bike_id":"4409e8e6-e2b1-45fd-ac80-4ccdb4f82c11","system_id":"levelo_inurba_marseille","lat":43.310815,"lon":5.42426,"is_reserved":false,"is_disabled":false,"rental_uris":{"android":"levelo://app?vid=4409e8e6-e2b1-45fd-ac80-4ccdb4f82c11","ios":"levelo://app?vid=4409e8e6-e2b1-45fd-ac80-4ccdb4f82c11"},"vehicle_type_id":"4","last_reported":1762351844,"current_range_meters":18000,"station_id":"ce4bhp92rcd13ifvqhag","pricing_plan_id":"cebpf4jnsgd1na2vs0mg"},{"bike_id":"a715c0ef-3857-414c-967a-b5d1a542eb13","system_id":"levelo_inurba_marseille","lat":43.224571,"lon":5.347186,"is_reserved":false,"is_disabled":false,"rental_uris":{"android":"levelo://app?vid=a715c0ef-3857-414c-967a-b5d1a542eb13","ios":"levelo://app?vid=a715c0ef-3857-414c-967a-b5d1a542eb13"},"vehicle_type_id":"4","last_reported":1762351844,"current_range_meters":18000,"station_id":"","pricing_plan_id":"cebpf4jnsgd1na2vs0mg"},{"bike_id":"c3099294-07de-461a-ab07-d7f77ecdfb93","system_id":"levelo_inurba_marseille","lat":43.281348,"lon":5.401898,"is_reserved":false,"is_disabled":false,"rental_uris":{"android":"levelo://app?vid=c3099294-07de-461a-ab07-d7f77ecdfb93","ios":"levelo://app?vid=c3099294-07de-461a-ab07-d7f77ecdfb93"},"vehicle_type_id":"4","last_reported":1762351844,"current_range_meters":18000,"station_id":"","pricing_plan_id":"cebpf4jnsgd1na2vs0mg"},{"bike_id":"d14d20b7-6023-43f3-95f8-3ee0ca0d0d42","system_id":"levelo_inurba_marseille","lat":43.30256,"lon":5.40076,"is_reserved":false,"is_disabled":false,"rental_uris":{"android":"levelo://app?vid=d14d20b7-6023-43f3-95f8-3ee0ca0d0d42","ios":"levelo://app?vid=d14d20b7-6023-43f3-95f8-3ee0ca0d0d42"},"vehicle_type_id":"4","last_reported":1762351844,"current_range_meters":18800,"station_id":"ce4bgvh2rcd13ifvqcs0","pricing_plan_id":"cebpf4jnsgd1na2vs0mg"},{"bike_id":"65d83eaf-428a-43cd-a356-ecaed95948ff","system_id":"levelo_inurba_marseille","lat":43.25679,"lon":5.41125,"is_reserved":false,"is_disabled":false,"rental_uris":{"android":"levelo://app?vid=65d83eaf-428a-43cd-a356-ecaed95948ff","ios":"levelo://app?vid=65d83eaf-428a-43cd-a356-ecaed95948ff"},"vehicle_type_id":"4","last_reported":1762351844,"current_range_meters":18800,"station_id":"ce4bhkp2rcd13ifvqgd0","pricing_plan_id":"cebpf4jnsgd1na2vs0mg"},{"bike_id":"7294334a-2b5d-4f41-8f85-ce4f5bbc157b","system_id":"levelo_inurba_marseille","lat":43.25498,"lon":5.37668,"is_reserved":false,"is_disabled":false,"rental_uris":{"android":"levelo://app?vid=7294334a-2b5d-4f41-8f85-ce4f5bbc157b","ios":"levelo://app?vid=7294334a-2b5d-4f41-8f85-ce4f5bbc157b"},"vehicle_type_id":"4","last_reported":1762351844,"current_range_meters":18800,"station_id":"ce4bhh12rcd13ifvqff0","pricing_plan_id":"cebpf4jnsgd1na2vs0mg"},{"bike_id":"b311b2f6-735e-444b-9f9c-f00dfe7c9f6f","system_id":"levelo_inurba_marseille","lat":43.22942,"lon":5.35391,"is_reserved":false,"is_disabled":false,"rental_uris":{"android":"levelo://app?vid=b311b2f6-735e-444b-9f9c-f00dfe7c9f6f","ios":"levelo://app?vid=b311b2f6-735e-444b-9f9c-f00dfe7c9f6f"},"vehicle_type_id":"4","last_reported":1762351844,"current_range_meters":18800,"station_id":"cpo3532slgdg3j2ikp40","pricing_plan_id":"cebpf4jnsgd1na2vs0mg"},{"bike_id":"756935af-7bce-4895-a34c-326a103c5b42","system_id":"levelo_inurba_marseille","lat":43.29977,"lon":5.37195,"is_reserved":false,"is_disabled":false,"rental_uris":{"android":"levelo://app?vid=756935af-7bce-4895-a34c-326a103c5b42","ios":"levelo://app?vid=756935af-7bce-4895-a34c-326a103c5b42"},"vehicle_type_id":"4","last_reported":1762351844,"current_range_meters":18800,"station_id":"ce4bgr92rcd13ifvqc7g","pricing_plan_id":"cebpf4jnsgd1na2vs0mg"},{"bike_id":"89d513e0-d87f-49a8-a541-9a2bce25ec04","system_id":"levelo_inurba_marseille","lat":43.24184,"lon":5.39721,"is_reserved":false,"is_disabled":false,"rental_uris":{"android":"levelo://app?vid=89d513e0-d87f-49a8-a541-9a2bce25ec04","ios":"levelo://app?vid=89d513e0-d87f-49a8-a541-9a2bce25ec04"},"vehicle_type_id":"4","last_reported":1762351844,"current_range_meters":18800,"station_id":"ce4bhn12rcd13ifvqgpg","pricing_plan_id":"cebpf4jnsgd1na2vs0mg"},{"bike_id":"71967476-752a-4f5e-b222-99c0eea95f39","system_id":"levelo_inurba_marseille","lat":43.32324,"lon":5.384,"is_reserved":false,"is_disabled":false,"rental_uris":{"android":"levelo://app?vid=71967476-752a-4f5e-b222-99c0eea95f39","ios":"levelo://app?vid=71967476-752a-4f5e-b222-99c0eea95f39"},"vehicle_type_id":"4","last_reported":1762351844,"current_range_meters":18800,"station_id":"","pricing_plan_id":"cebpf4jnsgd1na2vs0mg"},{"bike_id":"e2c2b61c-f03c-4a6b-86fe-7a3a994f4b2b","system_id":"levelo_inurba_marseille","lat":43.30895,"lon":5.36849,"is_reserved":false,"is_disabled":false,"rental_uris":{"android":"levelo://app?vid=e2c2b61c-f03c-4a6b-86fe-7a3a994f4b2b","ios":"levelo://app?vid=e2c2b61c-f03c-4a6b-86fe-7a3a994f4b2b"},"vehicle_type_id":"4","last_reported":1762351844,"current_range_meters":18800,"station_id":"ce4bgn92rcd13ifvqbvg","pricing_plan_id":"cebpf4jnsgd1na2vs0mg"},{"bike_id":"8574468f-faf7-4a61-977f-90a5896c01c9","system_id":"levelo_inurba_marseille","lat":43.265532,"lon":5.413247,"is_reserved":false,"is_disabled":false,"rental_uris":{"android":"levelo://app?vid=8574468f-faf7-4a61-977f-90a5896c01c9","ios":"levelo://app?vid=8574468f-faf7-4a61-977f-90a5896c01c9"},"vehicle_type_id":"4","last_reported":1762351844,"current_range_meters":19200,"station_id":"","pricing_plan_id":"cebpf4jnsgd1na2vs0mg"},{"bike_id":"c907297b-c70e-46ca-9d31-add2002c94ef","system_id":"levelo_inurba_marseille","lat":43.25938,"lon":5.40901,"is_reserved":false,"is_disabled":false,"rental_uris":{"android":"levelo://app?vid=c907297b-c70e-46ca-9d31-add2002c94ef","ios":"levelo://app?vid=c907297b-c70e-46ca-9d31-add2002c94ef"},