{"last_updated":1722175630,"ttl":30,"version":"2.2","data":{"bikes":[{"bike_id":"76398d57-04b5-43ec-a166-89d26e07e03a","system_id":"levelo_inurba_marseille","lat":43.31341,"lon":5.367098,"is_reserved":false,"is_disabled":false,"rental_uris":{"android":"levelo://app?vid=76398d57-04b5-43ec-a166-89d26e07e03a","ios":"levelo://app?vid=76398d57-04b5-43ec-a166-89d26e07e03a"},"vehicle_type_id":"4","last_reported":1722175630,"current_range_meters":30400,"station_id":"ce4bgr92rcd13ifvqc6g","pricing_plan_id":"cebpf4jnsgd1na2vs0mg"},{"bike_id":"978a0795-7438-4c64-9a6a-b1e426d188d6","system_id":"levelo_inurba_marseille","lat":43.317487,"lon":5.368727,"is_reserved":false,"is_disabled":false,"rental_uris":{"android":"levelo://app?vid=978a0795-7438-4c64-9a6a-b1e426d188d6","ios":"levelo://app?vid=978a0795-7438-4c64-9a6a-b1e426d188d6"},"vehicle_type_id":"4","last_reported":1722175630,"current_range_meters":2400,"station_id":"","pricing_plan_id":"cebpf4jnsgd1na2vs0mg"},{"bike_id":"500af962-885f-4e64-a825-37f3c9ab7e1d","system_id":"levelo_inurba_marseille","lat":43.31498,"lon":5.37301,"is_reserved":false,"is_disabled":false,"rental_uris":{"android":"levelo://app?vid=500af962-885f-4e64-a825-37f3c9ab7e1d","ios":"levelo://app?vid=500af962-885f-4e64-a825-37f3c9ab7e1d"},"vehicle_type_id":"4","last_reported":1722175630,"current_range_meters":14000,"station_id":"ce4bgt12rcd13ifvqcd0","pricing_plan_id":"cebpf4jnsgd1na2vs0mg"},{"bike_id":"e2f66258-5f46-4643-8508-1ec897b6053d","system_id":"levelo_inurba_marseille","lat":43.30895,"lon":5.37217,"is_reserved":false,"is_disabled":false,"rental_uris":{"android":"levelo://app?vid=e2f66258-5f46-4643-8508-1ec897b6053d","ios":"levelo://app?vid=e2f66258-5f46-4643-8508-1ec897b6053d"},"vehicle_type_id":"4","last_reported":1722175630,"current_range_meters":16800,"station_id":"ce4bguh2rcd13ifvqckg","pricing_plan_id":"cebpf4jnsgd1na2vs0mg"},{"bike_id":"2d8fd02b-c68d-484f-9c6a-4923d2a9fd5b","system_id":"levelo_inurba_marseille","lat":43.31673,"lon":5.37514,"is_reserved":false,"is_disabled":false,"rental_uris":{"android":"levelo://app?vid=2d8fd02b-c68d-484f-9c6a-4923d2a9fd5b","ios":"levelo://app?vid=2d8fd02b-c68d-484f-9c6a-4923d2a9fd5b"},"vehicle_type_id":"4","last_reported":1722175630,"current_range_meters":27200,"station_id":"","pricing_plan_id":"cebpf4jnsgd1na2vs0mg"},{"bike_id":"e31b7490-3e3e-448d-983c-d14bde2bf611","system_id":"levelo_inurba_marseille","lat":43.30706,"lon":5.37307,"is_reserved":false,"is_disabled":false,"rental_uris":{"android":"levelo://app?vid=e31b7490-3e3e-448d-983c-d14bde2bf611","ios":"levelo://app?vid=e31b7490-3e3e-448d-983c-d14bde2bf611"},"vehicle_type_id":"4","last_reported":1722175630,"current_range_meters":2800,"station_id":"","pricing_plan_id":"cebpf4jnsgd1na2vs0mg"},{"bike_id":"e87d5dc0-dd27-4868-a626-3b80b52f2962","system_id":"levelo_inurba_marseille","lat":43.305712,"lon":5.365641,"is_reserved":false,"is_disabled":false,"rental_uris":{"android":"levelo://app?vid=e87d5dc0-dd27-4868-a626-3b80b52f2962","ios":"levelo://app?vid=e87d5dc0-dd27-4868-a626-3b80b52f2962"},"vehicle_type_id":"4","last_reported":1722175630,"current_range_meters":17200,"station_id":"ce4bgs12rcd13ifvqcag","pricing_plan_id":"cebpf4jnsgd1na2vs0mg"},{"bike_id":"5e33748a-8020-4538-8b77-0f1743c50d88","system_id":"levelo_inurba_marseille","lat":43.305989,"lon":5.37225,"is_reserved":false,"is_disabled":false,"rental_uris":{"android":"levelo://app?vid=5e33748a-8020-4538-8b77-0f1743c50d88","ios":"levelo://app?vid=5e33748a-8020-4538-8b77-0f1743c50d88"},"vehicle_type_id":"4","last_reported":1722175630,"current_range_meters":13600,"station_id":"ce4bgqh2rcd13ifvqc4g","pricing_plan_id":"cebpf4jnsgd1na2vs0mg"},{"bike_id":"fb7b8979-7464-4549-93aa-daf0fb4d1f39","system_id":"levelo_inurba_marseille","lat":43.305989,"lon":5.37225,"is_reserved":false,"is_disabled":false,"rental_uris":{"android":"levelo://app?vid=fb7b8979-7464-4549-93aa-daf0fb4d1f39","ios":"levelo://app?vid=fb7b8979-7464-4549-93aa-daf0fb4d1f39"},"vehicle_type_id":"4","last_reported":1722175630,"current_range_meters":10400,"station_id":"ce4bgqh2rcd13ifvqc4g","pricing_plan_id":"cebpf4jnsgd1na2vs0mg"},{"bike_id":"e466a9cf-3878-4965-952b-38b3c1b9ebbc","system_id":"levelo_inurba_marseille","lat":43.317075,"lon":5.377367,"is_reserved":false,"is_disabled":false,"rental_uris":{"android":"levelo://app?vid=e466a9cf-3878-4965-952b-38b3c1b9ebbc","ios":"levelo://app?vid=e466a9cf-3878-4965-952b-38b3c1b9ebbc"},"vehicle_type_id":"4","last_reported":1722175630,"current_range_meters":8000,"station_id":"ce4bgth2rcd13ifvqch0","pricing_plan_id":"cebpf4jnsgd1na2vs0mg"},{"bike_id":"860d37f3-1fb4-4fec-a949-6d6437a511d0","system_id":"levelo_inurba_marseille","lat":43.317075,"lon":5.377367,"is_reserved":false,"is_disabled":false,"rental_uris":{"android":"levelo://app?vid=860d37f3-1fb4-4fec-a949-6d6437a511d0","ios":"levelo://app?vid=860d37f3-1fb4-4fec-a949-6d6437a511d0"},"vehicle_type_id":"4","last_reported":1722175630,"current_range_meters":29600,"station_id":"ce4bgth2rcd13ifvqch0","pricing_plan_id":"cebpf4jnsgd1na2vs0mg"},{"bike_id":"758c32af-f175-47ee-abc0-ca267043b1d6","system_id":"levelo_inurba_marseille","lat":43.317075,"lon":5.377367,"is_reserved":false,"is_disabled":false,"rental_uris":{"android":"levelo://app?vid=758c32af-f175-47ee-abc0-ca267043b1d6","ios":"levelo://app?vid=758c32af-f175-47ee-abc0-ca267043b1d6"},"vehicle_type_id":"4","last_reported":1722175630,"current_range_meters":31200,"station_id":"ce4bgth2rcd13ifvqch0","pricing_plan_id":"cebpf4jnsgd1na2vs0mg"},{"bike_id":"97d2575d-9155-4a53-a81b-183a2449ceaa","system_id":"levelo_inurba_marseille","lat":43.317075,"lon":5.377367,"is_reserved":false,"is_disabled":false,"rental_uris":{"android":"levelo://app?vid=97d2575d-9155-4a53-a81b-183a2449ceaa","ios":"levelo://app?vid=97d2575d-9155-4a53-a81b-183a2449ceaa"},"vehicle_type_id":"4","last_reported":1722175630,"current_range_meters":20800,"station_id":"ce4bgth2rcd13ifvqch0","pricing_plan_id":"cebpf4jnsgd1na2vs0mg"},{"bike_id":"9e47042b-d26b-4c2a-8609-5f6547fbcc2d","system_id":"levelo_inurba_marseille","lat":43.315289,"lon":5.380349,"is_reserved":false,"is_disabled":false,"rental_uris":{"android":"levelo://app?vid=9e47042b-d26b-4c2a-8609-5f6547fbcc2d","ios":"levelo://app?vid=9e47042b-d26b-4c2a-8609-5f6547fbcc2d"},"vehicle_type_id":"4","last_reported":1722175630,"current_range_meters":11200,"station_id":"ce4bhsp2rcd13ifvqi50","pricing_plan_id":"cebpf4jnsgd1na2vs0mg"},{"bike_id":"d275074e-56bd-40b2-8f13-10f5bf38ba7e","system_id":"levelo_inurba_marseille","lat":43.304606,"lon":5.379026,"is_reserved":false,"is_disabled":false,"rental_uris":{"android":"levelo://app?vid=d275074e-56bd-40b2-8f13-10f5bf38ba7e","ios":"levelo://app?vid=d275074e-56bd-40b2-8f13-10f5bf38ba7e"},"vehicle_type_id":"4","last_reported":1722175630,"current_range_meters":15200,"station_id":"ce4bgup2rcd13ifvqcn0","pricing_plan_id":"cebpf4jnsgd1na2vs0mg"},{"bike_id":"fab94295-f288-41d0-bda0-bd7eba7a7aa9","system_id":"levelo_inurba_marseille","lat":43.32486,"lon":5.36564,"is_reserved":false,"is_disabled":false,"rental_uris":{"android":"levelo://app?vid=fab94295-f288-41d0-bda0-bd7eba7a7aa9","ios":"levelo://app?vid=fab94295-f288-41d0-bda0-bd7eba7a7aa9"},"vehicle_type_id":"4","last_reported":1722175630,"current_range_meters":27200,"station_id":"ce4bhs12rcd13ifvqhvg","pricing_plan_id":"cebpf4jnsgd1na2vs0mg"},{"bike_id":"7fc59e34-6f40-4e8f-8e9c-e8bea02bf36c","system_id":"levelo_inurba_marseille","lat":43.32493,"lon":5.36572,"is_reserved":false,"is_disabled":false,"rental_uris":{"android":"levelo://app?vid=7fc59e34-6f40-4e8f-8e9c-e8bea02bf36c","ios":"levelo://app?vid=7fc59e34-6f40-4e8f-8e9c-e8bea02bf36c"},"vehicle_type_id":"4","last_reported":1722175630,"current_range_meters":29200,"station_id":"ce4bhs12rcd13ifvqhvg","pricing_plan_id":"cebpf4jnsgd1na2vs0mg"},{"bike_id":"8add2df5-9e48-4842-a4c4-c9ad89537666","system_id":"levelo_inurba_marseille","lat":43.310804,"lon":5.38359,"is_reserved":false,"is_disabled":false,"rental_uris":{"android":"levelo://app?vid=8add2df5-9e48-4842-a4c4-c9ad89537666","ios":"levelo://app?vid=8add2df5-9e48-4842-a4c4-c9ad89537666"},"vehicle_type_id":"4","last_reported":1722175630,"current_range_meters":0,"station_id":"ce4bgv92rcd13ifvqcr0","pricing_plan_id":"cebpf4jnsgd1na2vs0mg"},{"bike_id":"ad79e0f0-b9ac-4a91-8053-43fba5bcdb54","system_id":"levelo_inurba_marseille","lat":43.301429,"lon":5.37413,"is_reserved":false,"is_disabled":false,"rental_uris":{"android":"levelo://app?vid=ad79e0f0-b9ac-4a91-8053-43fba5bcdb54","ios":"levelo://app?vid=ad79e0f0-b9ac-4a91-8053-43fba5bcdb54"},"vehicle_type_id":"4","last_reported":1722175630,"current_range_meters":25200,"station_id":"ce4bgs92rcd13ifvqcc0","pricing_plan_id":"cebpf4jnsgd1na2vs0mg"},{"bike_id":"1cc07c3c-3aaf-441f-ae47-58836ac3d3d5","system_id":"levelo_inurba_marseille","lat":43.301429,"lon":5.37413,"is_reserved":false,"is_disabled":false,"rental_uris":{"android":"levelo://app?vid=1cc07c3c-3aaf-441f-ae47-58836ac3d3d5","ios":"levelo://app?vid=1cc07c3c-3aaf-441f-ae47-58836ac3d3d5"},"vehicle_type_id":"4","last_reported":1722175630,"current_range_meters":16400,"station_id":"ce4bgs92rcd13ifvqcc0","pricing_plan_id":"cebpf4jnsgd1na2vs0mg"},{"bike_id":"7aa0a328-dae8-47fe-9606-4472c2728edd","system_id":"levelo_inurba_marseille","lat":43.3199,"lon":5.38141,"is_reserved":false,"is_disabled":false,"rental_uris":{"android":"levelo://app?vid=7aa0a328-dae8-47fe-9606-4472c2728edd","ios":"levelo://app?vid=7aa0a328-dae8-47fe-9606-4472c2728edd"},"vehicle_type_id":"4","last_reported":1722175630,"current_range_meters":31200,"station_id":"ce4bhr12rcd13ifvqhpg","pricing_plan_id":"cebpf4jnsgd1na2vs0mg"},{"bike_id":"ede6e3b8-7e99-49c9-b61f-dc1c45e0f497","system_id":"levelo_inurba_marseille","lat":43.31998,"lon":5.38157,"is_reserved":false,"is_disabled":false,"rental_uris":{"android":"levelo://app?vid=ede6e3b8-7e99-49c9-b61f-dc1c45e0f497","ios":"levelo://app?vid=ede6e3b8-7e99-49c9-b61f-dc1c45e0f497"},"vehicle_type_id":"4","last_reported":1722175630,"current_range_meters":2800,"station_id":"ce4bhr12rcd13ifvqhpg","pricing_plan_id":"cebpf4jnsgd1na2vs0mg"},{"bike_id":"64efb8ba-933f-47fc-b58f-b13d857f90b0","system_id":"levelo_inurba_marseille","lat":43.31607,"lon":5.38403,"is_reserved":false,"is_disabled":false,"rental_uris":{"android":"levelo://app?vid=64efb8ba-933f-47fc-b58f-b13d857f90b0","ios":"levelo://app?vid=64efb8ba-933f-47fc-b58f-b13d857f90b0"},"vehicle_type_id":"4","last_reported":1722175630,"current_range_meters":28400,"station_id":"","pricing_plan_id":"cebpf4jnsgd1na2vs0mg"},{"bike_id":"9b390675-ff82-4612-9077-8ddf2696c7d1","system_id":"levelo_inurba_marseille","lat":43.299222,"lon":5.365554,"is_reserved":false,"is_disabled":false,"rental_uris":{"android":"levelo://app?vid=9b390675-ff82-4612-9077-8ddf2696c7d1","ios":"levelo://app?vid=9b390675-ff82-4612-9077-8ddf2696c7d1"},"vehicle_type_id":"4","last_reported":1722175630,"current_range_meters":12400,"station_id":"ce4bgm92rcd13ifvqbr0","pricing_plan_id":"cebpf4jnsgd1na2vs0mg"},{"bike_id":"e9903c7f-c714-40df-80d5-f1ae6bd43619","system_id":"levelo_inurba_marseille","lat":43.299724,"lon":5.371829,"is_reserved":false,"is_disabled":false,"rental_uris":{"android":"levelo://app?vid=e9903c7f-c714-40df-80d5-f1ae6bd43619","ios":"levelo://app?vid=e9903c7f-c714-40df-80d5-f1ae6bd43619"},"vehicle_type_id":"4","last_reported":1722175630,"current_range_meters":12400,"station_id":"ce4bgr92rcd13ifvqc7g","pricing_plan_id":"cebpf4jnsgd1na2vs0mg"},{"bike_id":"3b5b5389-7f0b-48a1-9bbe-47bad671c85d","system_id":"levelo_inurba_marseille","lat":43.299243,"lon":5.374807,"is_reserved":false,"is_disabled":false,"rental_uris":{"android":"levelo://app?vid=3b5b5389-7f0b-48a1-9bbe-47bad671c85d","ios":"levelo://app?vid=3b5b5389-7f0b-48a1-9bbe-47bad671c85d"},"vehicle_type_id":"4","last_reported":1722175630,"current_range_meters":17600,"station_id":"ce4bgjh2rcd13ifvqbg0","pricing_plan_id":"cebpf4jnsgd1na2vs0mg"},{"bike_id":"8ad7d1f0-36ba-4891-8a86-274947aa917f","system_id":"levelo_inurba_marseille","lat":43.322872,"lon":5.382756,"is_reserved":false,"is_disabled":false,"rental_uris":{"android":"levelo://app?vid=8ad7d1f0-36ba-4891-8a86-274947aa917f","ios":"levelo://app?vid=8ad7d1f0-36ba-4891-8a86-274947aa917f"},"vehicle_type_id":"4","last_reported":1722175630,"current_range_meters":25600,"station_id":"ce4bhr12rcd13ifvqhqg","pricing_plan_id":"cebpf4jnsgd1na2vs0mg"},{"bike_id":"7b81b3b7-387a-4517-89de-89f7650a6752","system_id":"levelo_inurba_marseille","lat":43.322872,"lon":5.382756,"is_reserved":false,"is_disabled":false,"rental_uris":{"android":"levelo://app?vid=7b81b3b7-387a-4517-89de-89f7650a6752","ios":"levelo://app?vid=7b81b3b7-387a-4517-89de-89f7650a6752"},"vehicle_type_id":"4","last_reported":1722175630,"current_range_meters":19200,"station_id":"ce4bhr12rcd13ifvqhqg","pricing_plan_id":"cebpf4jnsgd1na2vs0mg"},{"bike_id":"22e41778-51bb-4239-91a8-cf2d50ed1db8","system_id":"levelo_inurba_marseille","lat":43.31894,"lon":5.38638,"is_reserved":false,"is_disabled":false,"rental_uris":{"android":"levelo://app?vid=22e41778-51bb-4239-91a8-cf2d50ed1db8","ios":"levelo://app?vid=22e41778-51bb-4239-91a8-cf2d50ed1db8"},"vehicle_type_id":"4","last_reported":1722175630,"current_range_meters":28000,"station_id":"","pricing_plan_id":"cebpf4jnsgd1na2vs0mg"},{"bike_id":"9811a63d-9f12-4891-9a38-7851207eae00","system_id":"levelo_inurba_marseille","lat":43.297163,"lon":5.365866,"is_reserved":false,"is_disabled":false,"rental_uris":{"android":"levelo://app?vid=9811a63d-9f12-4891-9a38-7851207eae00","ios":"levelo://app?vid=9811a63d-9f12-4891-9a38-7851207eae00"},"vehicle_type_id":"4","last_reported":1722175630,"current_range_meters":18800,"station_id":"ce4bgn12rcd13ifvqbt0","pricing_plan_id":"cebpf4jnsgd1na2vs0mg"},{"bike_id":"db707e8e-bd7f-4a41-839d-0b0ff7d73f21","system_id":"levelo_inurba_marseille","lat":43.297163,"lon":5.365866,"is_reserved":false,"is_disabled":false,"rental_uris":{"android":"levelo://app?vid=db707e8e-bd7f-4a41-839d-0b0ff7d73f21","ios":"levelo://app?vid=db707e8e-bd7f-4a41-839d-0b0ff7d73f21"},"vehicle_type_id":"4","last_reported":1722175630,"current_range_meters":16000,"station_id":"ce4bgn12rcd13ifvqbt0","pricing_plan_id":"cebpf4jnsgd1na2vs0mg"},{"bike_id":"14c22ed4-b2b9-4911-8ec0-6af680fa6c2a","system_id":"levelo_inurba_marseille","lat":43.297163,"lon":5.365866,"is_reserved":false,"is_disabled":false,"rental_uris":{"android":"levelo://app?vid=14c22ed4-b2b9-4911-8ec0-6af680fa6c2a","ios":"levelo://app?vid=14c22ed4-b2b9-4911-8ec0-6af680fa6c2a"},"vehicle_type_id":"4","last_reported":1722175630,"current_range_meters":800,"station_id":"ce4bgn12rcd13ifvqbt0","pricing_plan_id":"cebpf4jnsgd1na2vs0mg"},{"bike_id":"388632c3-faf0-4f1a-8366-0d8b24bf62bb","system_id":"levelo_inurba_marseille","lat":43.2971,"lon":5.36598,"is_reserved":false,"is_disabled":false,"rental_uris":{"android":"levelo://app?vid=388632c3-faf0-4f1a-8366-0d8b24bf62bb","ios":"levelo://app?vid=388632c3-faf0-4f1a-8366-0d8b24bf62bb"},"vehicle_type_id":"4","last_reported":1722175630,"current_range_meters":15600,"station_id":"ce4bgn12rcd13ifvqbt0","pricing_plan_id":"cebpf4jnsgd1na2vs0mg"},{"bike_id":"ea6ca29d-9668-4bfa-92b5-2e544353a41a","system_id":"levelo_inurba_marseille","lat":43.297163,"lon":5.365866,"is_reserved":false,"is_disabled":false,"rental_uris":{"android":"levelo://app?vid=ea6ca29d-9668-4bfa-92b5-2e544353a41a","ios":"levelo://app?vid=ea6ca29d-9668-4bfa-92b5-2e544353a41a"},"vehicle_type_id":"4","last_reported":1722175630,"current_range_meters":1200,"station_id":"ce4bgn12rcd13ifvqbt0","pricing_plan_id":"cebpf4jnsgd1na2vs0mg"},{"bike_id":"77ebd6f7-0e15-4246-8feb-b1d720ac899a","system_id":"levelo_inurba_marseille","lat":43.30059,"lon":5.38222,"is_reserved":false,"is_disabled":false,"rental_uris":{"android":"levelo://app?vid=77ebd6f7-0e15-4246-8feb-b1d720ac899a","ios":"levelo://app?vid=77ebd6f7-0e15-4246-8feb-b1d720ac899a"},"vehicle_type_id":"4","last_reported":1722175630,"current_range_meters":15200,"station_id":"","pricing_plan_id":"cebpf4jnsgd1na2vs0mg"},{"bike_id":"102dc55f-77f6-46e0-acce-2ec39aaf4891","system_id":"levelo_inurba_marseille","lat":43.296129,"lon":5.370777,"is_reserved":false,"is_disabled":false,"rental_uris":{"android":"levelo://app?vid=102dc55f-77f6-46e0-acce-2ec39aaf4891","ios":"levelo://app?vid=102dc55f-77f6-46e0-acce-2ec39aaf4891"},"vehicle_type_id":"4","last_reported":1722175630,"current_range_meters":0,"station_id":"ce4bgnh2rcd13ifvqc0g","pricing_plan_id":"cebpf4jnsgd1na2vs0mg"},{"bike_id":"6c175508-4740-42cd-bd12-8578835969b5","system_id":"levelo_inurba_marseille","lat":43.296131,"lon":5.370773,"is_reserved":false,"is_disabled":false,"rental_uris":{"android":"levelo://app?vid=6c175508-4740-42cd-bd12-8578835969b5","ios":"levelo://app?vid=6c175508-4740-42cd-bd12-8578835969b5"},"vehicle_type_id":"4","last_reported":1722175630,"current_range_meters":14000,"station_id":"ce4bgnh2rcd13ifvqc0g","pricing_plan_id":"cebpf4jnsgd1na2vs0mg"},{"bike_id":"c5d4346e-270e-4cd8-9d25-150341d26489","system_id":"levelo_inurba_marseille","lat":43.296129,"lon":5.370777,"is_reserved":false,"is_disabled":false,"rental_uris":{"android":"levelo://app?vid=c5d4346e-270e-4cd8-9d25-150341d26489","ios":"levelo://app?vid=c5d4346e-270e-4cd8-9d25-150341d26489"},"vehicle_type_id":"4","last_reported":1722175630,"current_range_meters":23200,"station_id":"ce4bgnh2rcd13ifvqc0g","pricing_plan_id":"cebpf4jnsgd1na2vs0mg"},{"bike_id":"fee7865b-2b13-47f5-9a1e-814ec8ce4aa3","system_id":"levelo_inurba_marseille","lat":43.296131,"lon":5.370773,"is_reserved":false,"is_disabled":false,"rental_uris":{"android":"levelo://app?vid=fee7865b-2b13-47f5-9a1e-814ec8ce4aa3","ios":"levelo://app?vid=fee7865b-2b13-47f5-9a1e-814ec8ce4aa3"},"vehicle_type_id":"4","last_reported":1722175630,"current_range_meters":18000,"station_id":"ce4bgnh2rcd13ifvqc0g","pricing_plan_id":"cebpf4jnsgd1na2vs0mg"},{"bike_id":"563440e4-f228-416c-a287-650fc19b4d0d","system_id":"levelo_inurba_marseille","lat":43.296131,"lon":5.370791,"is_reserved":false,"is_disabled":false,"rental_uris":{"android":"levelo://app?vid=563440e4-f228-416c-a287-650fc19b4d0d","ios":"levelo://app?vid=563440e4-f228-416c-a287-650fc19b4d0d"},"vehicle_type_id":"4","last_reported":1722175630,"current_range_meters":15200,"station_id":"ce4bgnh2rcd13ifvqc0g","pricing_plan_id":"cebpf4jnsgd1na2vs0mg"},{"bike_id":"7096ac2a-1c3c-4b88-b37f-e5a4264b4bec","system_id":"levelo_inurba_marseille","lat":43.295843,"lon":5.36755,"is_reserved":false,"is_disabled":false,"rental_uris":{"android":"levelo://app?vid=7096ac2a-1c3c-4b88-b37f-e5a4264b4bec","ios":"levelo://app?vid=7096ac2a-1c3c-4b88-b37f-e5a4264b4bec"},"vehicle_type_id":"4","last_reported":1722175630,"current_range_meters":0,"station_id":"ce4bgph2rcd13ifvqc2g","pricing_plan_id":"cebpf4jnsgd1na2vs0mg"},{"bike_id":"9364ff03-878f-497d-8076-7db18b897901","system_id":"levelo_inurba_marseille","lat":43.296129,"lon":5.370777,"is_reserved":false,"is_disabled":false,"rental_uris":{"android":"levelo://app?vid=9364ff03-878f-497d-8076-7db18b897901","ios":"levelo://app?vid=9364ff03-878f-497d-8076-7db18b897901"},"vehicle_type_id":"4","last_reported":1722175630,"current_range_meters":14000,"station_id":"ce4bgnh2rcd13ifvqc0g","pricing_plan_id":"cebpf4jnsgd1na2vs0mg"},{"bike_id":"58fdca8b-cab7-4a89-a0b2-c109e4d329f8","system_id":"levelo_inurba_marseille","lat":43.296129,"lon":5.370777,"is_reserved":false,"is_disabled":false,"rental_uris":{"android":"levelo://app?vid=58fdca8b-cab7-4a89-a0b2-c109e4d329f8","ios":"levelo://app?vid=58fdca8b-cab7-4a89-a0b2-c109e4d329f8"},"vehicle_type_id":"4","last_reported":1722175630,"current_range_meters":19600,"station_id":"ce4bgnh2rcd13ifvqc0g","pricing_plan_id":"cebpf4jnsgd1na2vs0mg"},{"bike_id":"71fc4578-be0f-4ba6-a619-2cbefbbed131","system_id":"levelo_inurba_marseille","lat":43.29573,"lon":5.367355,"is_reserved":false,"is_disabled":false,"rental_uris":{"android":"levelo://app?vid=71fc4578-be0f-4ba6-a619-2cbefbbed131","ios":"levelo://app?vid=71fc4578-be0f-4ba6-a619-2cbefbbed131"},"vehicle_type_id":"4","last_reported":1722175630,"current_range_meters":4000,"station_id":"ce4bgph2rcd13ifvqc2g","pricing_plan_id":"cebpf4jnsgd1na2vs0mg"},{"bike_id":"9fb762bf-7ecb-40cd-9954-91d00de35223","system_id":"levelo_inurba_marseille","lat":43.295805,"lon":5.367367,"is_reserved":false,"is_disabled":false,"rental_uris":{"android":"levelo://app?vid=9fb762bf-7ecb-40cd-9954-91d00de35223","ios":"levelo://app?vid=9fb762bf-7ecb-40cd-9954-91d00de35223"},"vehicle_type_id":"4","last_reported":1722175630,"current_range_meters":16400,"station_id":"","pricing_plan_id":"cebpf4jnsgd1na2vs0mg"},{"bike_id":"0223e5aa-501e-4350-80ff-500bc3f9cc33","system_id":"levelo_inurba_marseille","lat":43.299028,"lon":5.381509,"is_reserved":false,"is_disabled":false,"rental_uris":{"android":"levelo://app?vid=0223e5aa-501e-4350-80ff-500bc3f9cc33","ios":"levelo://app?vid=0223e5aa-501e-4350-80ff-500bc3f9cc33"},"vehicle_type_id":"4","last_reported":1722175630,"current_range_meters":6800,"station_id":"ce4bgj12rcd13ifvqbc0","pricing_plan_id":"cebpf4jnsgd1na2vs0mg"},{"bike_id":"24cccc7d-4a0d-4d63-99bf-8f999fd8c477","system_id":"levelo_inurba_marseille","lat":43.299028,"lon":5.381509,"is_reserved":false,"is_disabled":false,"rental_uris":{"android":"levelo://app?vid=24cccc7d-4a0d-4d63-99bf-8f999fd8c477","ios":"levelo://app?vid=24cccc7d-4a0d-4d63-99bf-8f999fd8c477"},"vehicle_type_id":"4","last_reported":1722175630,"current_range_meters":5200,"station_id":"ce4bgj12rcd13ifvqbc0","pricing_plan_id":"cebpf4jnsgd1na2vs0mg"},{"bike_id":"5008c57c-3655-4274-aeaf-37fd56137112","system_id":"levelo_inurba_marseille","lat":43.296935,"lon":5.376544,"is_reserved":false,"is_disabled":false,"rental_uris":{"android":"levelo://app?vid=5008c57c-3655-4274-aeaf-37fd56137112","ios":"levelo://app?vid=5008c57c-3655-4274-aeaf-37fd56137112"},"vehicle_type_id":"4","last_reported":1722175630,"current_range_meters":31200,"station_id":"ce4bgkh2rcd13ifvqbl0","pricing_plan_id":"cebpf4jnsgd1na2vs0mg"},{"bike_id":"248a5ee5-aab3-4ec6-ad46-80dba0794d6d","system_id":"levelo_inurba_marseille","lat":43.299028,"lon":5.381509,"is_reserved":false,"is_disabled":false,"rental_uris":{"android":"levelo://app?vid=248a5ee5-aab3-4ec6-ad46-80dba0794d6d","ios":"levelo://app?vid=248a5ee5-aab3-4ec6-ad46-80dba0794d6d"},"vehicle_type_id":"4","last_reported":1722175630,"current_range_meters":3200,"station_id":"ce4bgj12rcd13ifvqbc0","pricing_plan_id":"cebpf4jnsgd1na2vs0mg"},{"bike_id":"4496c404-3c32-4a6a-a8d4-fe28ae420eb9","system_id":"levelo_inurba_marseille","lat":43.317557,"lon":5.390173,"is_reserved":false,"is_disabled":false,"rental_uris":{"android":"levelo://app?vid=4496c404-3c32-4a6a-a8d4-fe28ae420eb9","ios":"levelo://app?vid=4496c404-3c32-4a6a-a8d4-fe28ae420eb9"},"vehicle_type_id":"4","last_reported":1722175630,"current_range_meters":31200,"station_id":"ce4bhqp2rcd13ifvqhng","pricing_plan_id":"cebpf4jnsgd1na2vs0mg"},{"bike_id":"7765f2f9-0a5b-45da-97e2-aceb9dd4dd25","system_id":"levelo_inurba_marseille","lat":43.317557,"lon":5.390173,"is_reserved":false,"is_disabled":false,"rental_uris":{"android":"levelo://app?vid=7765f2f9-0a5b-45da-97e2-aceb9dd4dd25","ios":"levelo://app?vid=7765f2f9-0a5b-45da-97e2-aceb9dd4dd25"},"vehicle_type_id":"4","last_reported":1722175630,"current_range_meters":8000,"station_id":"ce4bhqp2rcd13ifvqhng","pricing_plan_id":"cebpf4jnsgd1na2vs0mg"},{"bike_id":"d1c2a194-0f6e-4976-ae74-c1a3531c57d1","system_id":"levelo_inurba_marseille","lat":43.317557,"lon":5.390173,"is_reserved":false,"is_disabled":false,"rental_uris":{"android":"levelo://app?vid=d1c2a194-0f6e-4976-ae74-c1a3531c57d1","ios":"levelo://app?vid=d1c2a194-0f6e-4976-ae74-c1a3531c57d1"},"vehicle_type_id":"4","last_reported":1722175630,"current_range_meters":3200,"station_id":"ce4bhqp2rcd13ifvqhng","pricing_plan_id":"cebpf4jnsgd1na2vs0mg"},{"bike_id":"e0557513-2153-47e8-b5df-7c07ac0a5794","system_id":"levelo_inurba_marseille","lat":43.317557,"lon":5.390173,"is_reserved":false,"is_disabled":false,"rental_uris":{"android":"levelo://app?vid=e0557513-2153-47e8-b5df-7c07ac0a5794","ios":"levelo://app?vid=e0557513-2153-47e8-b5df-7c07ac0a5794"},"vehicle_type_id":"4","last_reported":1722175630,"current_range_meters":1200,"station_id":"ce4bhqp2rcd13ifvqhng","pricing_plan_id":"cebpf4jnsgd1na2vs0mg"},{"bike_id":"f0f84216-754d-4e86-b56b-80f8e305f4ee","system_id":"levelo_inurba_marseille","lat":43.304274,"lon":5.388873,"is_reserved":false,"is_disabled":false,"rental_uris":{"android":"levelo://app?vid=f0f84216-754d-4e86-b56b-80f8e305f4ee","ios":"levelo://app?vid=f0f84216-754d-4e86-b56b-80f8e305f4ee"},"vehicle_type_id":"4","last_reported":1722175630,"current_range_meters":0,"station_id":"ce4bgk12rcd13ifvqbi0","pricing_plan_id":"cebpf4jnsgd1na2vs0mg"},{"bike_id":"a4897ab9-a936-411e-9511-fe8363df88c8","system_id":"levelo_inurba_marseille","lat":43.295748,"lon":5.37522,"is_reserved":false,"is_disabled":false,"rental_uris":{"android":"levelo://app?vid=a4897ab9-a936-411e-9511-fe8363df88c8","ios":"levelo://app?vid=a4897ab9-a936-411e-9511-fe8363df88c8"},"vehicle_type_id":"4","last_reported":1722175630,"current_range_meters":0,"station_id":"ce4bgh92rcd13ifvqb50","pricing_plan_id":"cebpf4jnsgd1na2vs0mg"},{"bike_id":"524f02d5-0e2e-417f-85d1-c8975457c33c","system_id":"levelo_inurba_marseille","lat":43.296263,"lon":5.377094,"is_reserved":false,"is_disabled":false,"rental_uris":{"android":"levelo://app?vid=524f02d5-0e2e-417f-85d1-c8975457c33c","ios":"levelo://app?vid=524f02d5-0e2e-417f-85d1-c8975457c33c"},"vehicle_type_id":"4","last_reported":1722175630,"current_range_meters":29600,"station_id":"ce4bgi92rcd13ifvqb90","pricing_plan_id":"cebpf4jnsgd1na2vs0mg"},{"bike_id":"a74f6d87-e83c-437c-b61a-8b2d247b69b3","system_id":"levelo_inurba_marseille","lat":43.304278,"lon":5.388868,"is_reserved":false,"is_disabled":false,"rental_uris":{"android":"levelo://app?vid=a74f6d87-e83c-437c-b61a-8b2d247b69b3","ios":"levelo://app?vid=a74f6d87-e83c-437c-b61a-8b2d247b69b3"},"vehicle_type_id":"4","last_reported":1722175630,"current_range_meters":2800,"station_id":"ce4bgk12rcd13ifvqbi0","pricing_plan_id":"cebpf4jnsgd1na2vs0mg"},{"bike_id":"b5463748-2d1f-487c-a9de-706dfd01b575","system_id":"levelo_inurba_marseille","lat":43.299717,"lon":5.384845,"is_reserved":false,"is_disabled":false,"rental_uris":{"android":"levelo://app?vid=b5463748-2d1f-487c-a9de-706dfd01b575","ios":"levelo://app?vid=b5463748-2d1f-487c-a9de-706dfd01b575"},"vehicle_type_id":"4","last_reported":1722175630,"current_range_meters":15200,"station_id":"ce4bgj92rcd13ifvqbd0","pricing_plan_id":"cebpf4jnsgd1na2vs0mg"},{"bike_id":"68a894e9-bc61-4eda-a767-3c1220d384cc","system_id":"levelo_inurba_marseille","lat":43.32367,"lon":5.388836,"is_reserved":false,"is_disabled":false,"rental_uris":{"android":"levelo://app?vid=68a894e9-bc61-4eda-a767-3c1220d384cc","ios":"levelo://app?vid=68a894e9-bc61-4eda-a767-3c1220d384cc"},"vehicle_type_id":"4","last_reported":1722175630,"current_range_meters":1200,"station_id":"ce4bhqp2rcd13ifvqhog","pricing_plan_id":"cebpf4jnsgd1na2vs0mg"},{"bike_id":"983242a0-6885-4750-9e47-ed4262c34342","system_id":"levelo_inurba_marseille","lat":43.32367,"lon":5.388836,"is_reserved":false,"is_disabled":false,"rental_uris":{"android":"levelo://app?vid=983242a0-6885-4750-9e47-ed4262c34342","ios":"levelo://app?vid=983242a0-6885-4750-9e47-ed4262c34342"},"vehicle_type_id":"4","last_reported":1722175630,"current_range_meters":22400,"station_id":"ce4bhqp2rcd13ifvqhog","pricing_plan_id":"cebpf4jnsgd1na2vs0mg"},{"bike_id":"6a60a62a-575f-4518-830c-e8e47c8b46dd","system_id":"levelo_inurba_marseille","lat":43.32367,"lon":5.388836,"is_reserved":false,"is_disabled":false,"rental_uris":{"android":"levelo://app?vid=6a60a62a-575f-4518-830c-e8e47c8b46dd","ios":"levelo://app?vid=6a60a62a-575f-4518-830c-e8e47c8b46dd"},"vehicle_type_id":"4","last_reported":1722175630,"current_range_meters":0,"station_id":"ce4bhqp2rcd13ifvqhog","pricing_plan_id":"cebpf4jnsgd1na2vs0mg"},{"bike_id":"cdbe1876-0e42-411c-8372-cefef4b9b7f0","system_id":"levelo_inurba_marseille","lat":43.32367,"lon":5.388836,"is_reserved":false,"is_disabled":false,"rental_uris":{"android":"levelo://app?vid=cdbe1876-0e42-411c-8372-cefef4b9b7f0","ios":"levelo://app?vid=cdbe1876-0e42-411c-8372-cefef4b9b7f0"},"vehicle_type_id":"4","last_reported":1722175630,"current_range_meters":31200,"station_id":"ce4bhqp2rcd13ifvqhog","pricing_plan_id":"cebpf4jnsgd1na2vs0mg"},{"bike_id":"c15b24c4-b77e-49a6-bf53-30269e940a61","system_id":"levelo_inurba_marseille","lat":43.32367,"lon":5.388836,"is_reserved":false,"is_disabled":false,"rental_uris":{"android":"levelo://app?vid=c15b24c4-b77e-49a6-bf53-30269e940a61","ios":"levelo://app?vid=c15b24c4-b77e-49a6-bf53-30269e940a61"},"vehicle_type_id":"4","last_reported":1722175630,"current_range_meters":9200,"station_id":"ce4bhqp2rcd13ifvqhog","pricing_plan_id":"cebpf4jnsgd1na2vs0mg"},{"bike_id":"fff9ce80-e3a6-4300-a750-f133cdb858c3","system_id":"levelo_inurba_marseille","lat":43.29351,"lon":5.37132,"is_reserved":false,"is_disabled":false,"rental_uris":{"android":"levelo://app?vid=fff9ce80-e3a6-4300-a750-f133cdb858c3","ios":"levelo://app?vid=fff9ce80-e3a6-4300-a750-f133cdb858c3"},"vehicle_type_id":"4","last_reported":1722175630,"current_range_meters":10400,"station_id":"","pricing_plan_id":"cebpf4jnsgd1na2vs0mg"},{"bike_id":"262421d5-1314-4b96-9d8c-8a539a1d308b","system_id":"levelo_inurba_marseille","lat":43.295977,"lon":5.38097,"is_reserved":false,"is_disabled":false,"rental_uris":{"android":"levelo://app?vid=262421d5-1314-4b96-9d8c-8a539a1d308b","ios":"levelo://app?vid=262421d5-1314-4b96-9d8c-8a539a1d308b"},"vehicle_type_id":"4","last_reported":1722175630,"current_range_meters":0,"station_id":"ce4bgl12rcd13ifvqbo0","pricing_plan_id":"cebpf4jnsgd1na2vs0mg"},{"bike_id":"4ca44a8e-91e4-4a43-9c10-99240e533be1","system_id":"levelo_inurba_marseille","lat":43.293009,"lon":5.374584,"is_reserved":false,"is_disabled":false,"rental_uris":{"android":"levelo://app?vid=4ca44a8e-91e4-4a43-9c10-99240e533be1","ios":"levelo://app?vid=4ca44a8e-91e4-4a43-9c10-99240e533be1"},"vehicle_type_id":"4","last_reported":1722175630,"current_range_meters":0,"station_id":"ce4bgi12rcd13ifvqb70","pricing_plan_id":"cebpf4jnsgd1na2vs0mg"},{"bike_id":"d645b80d-9fb0-439a-b5f1-44aac9bc34ec","system_id":"levelo_inurba_marseille","lat":43.298764,"lon":5.388973,"is_reserved":false,"is_disabled":false,"rental_uris":{"android":"levelo://app?vid=d645b80d-9fb0-439a-b5f1-44aac9bc34ec","ios":"levelo://app?vid=d645b80d-9fb0-439a-b5f1-44aac9bc34ec"},"vehicle_type_id":"4","last_reported":1722175630,"current_range_meters":16000,"station_id":"ce4bh392rcd13ifvqdl0","pricing_plan_id":"cebpf4jnsgd1na2vs0mg"},{"bike_id":"51462130-cefa-41a0-86ea-fdcab7260ad2","system_id":"levelo_inurba_marseille","lat":43.298764,"lon":5.388973,"is_reserved":false,"is_disabled":false,"rental_uris":{"android":"levelo://app?vid=51462130-cefa-41a0-86ea-fdcab7260ad2","ios":"levelo://app?vid=51462130-cefa-41a0-86ea-fdcab7260ad2"},"vehicle_type_id":"4","last_reported":1722175630,"current_range_meters":10400,"station_id":"ce4bh392rcd13ifvqdl0","pricing_plan_id":"cebpf4jnsgd1na2vs0mg"},{"bike_id":"b27a82ad-a505-4b11-a89a-ee05cc727eaa","system_id":"levelo_inurba_marseille","lat":43.313239,"lon":5.396793,"is_reserved":false,"is_disabled":false,"rental_uris":{"android":"levelo://app?vid=b27a82ad-a505-4b11-a89a-ee05cc727eaa","ios":"levelo://app?vid=b27a82ad-a505-4b11-a89a-ee05cc727eaa"},"vehicle_type_id":"4","last_reported":1722175630,"current_range_meters":400,"station_id":"ce4bgvp2rcd13ifvqcu0","pricing_plan_id":"cebpf4jnsgd1na2vs0mg"},{"bike_id":"519896be-f2c6-485f-b8b7-f1c2d2c44d4d","system_id":"levelo_inurba_marseille","lat":43.309038,"lon":5.396546,"is_reserved":false,"is_disabled":false,"rental_uris":{"android":"levelo://app?vid=519896be-f2c6-485f-b8b7-f1c2d2c44d4d","ios":"levelo://app?vid=519896be-f2c6-485f-b8b7-f1c2d2c44d4d"},"vehicle_type_id":"4","last_reported":1722175630,"current_range_meters":20000,"station_id":"ce4bh012rcd13ifvqcv0","pricing_plan_id":"cebpf4jnsgd1na2vs0mg"},{"bike_id":"8e060a60-fd93-40be-833e-7b4e13ae0ebb","system_id":"levelo_inurba_marseille","lat":43.309038,"lon":5.396546,"is_reserved":false,"is_disabled":false,"rental_uris":{"android":"levelo://app?vid=8e060a60-fd93-40be-833e-7b4e13ae0ebb","ios":"levelo://app?vid=8e060a60-fd93-40be-833e-7b4e13ae0ebb"},"vehicle_type_id":"4","last_reported":1722175630,"current_range_meters":1600,"station_id":"ce4bh012rcd13ifvqcv0","pricing_plan_id":"cebpf4jnsgd1na2vs0mg"},{"bike_id":"cecd89d4-5d33-4972-b3d2-c4be54a2feaa","system_id":"levelo_inurba_marseille","lat":43.29145,"lon":5.35892,"is_reserved":false,"is_disabled":false,"rental_uris":{"android":"levelo://app?vid=cecd89d4-5d33-4972-b3d2-c4be54a2feaa","ios":"levelo://app?vid=cecd89d4-5d33-4972-b3d2-c4be54a2feaa"},"vehicle_type_id":"4","last_reported":1722175630,"current_range_meters":800,"station_id":"","pricing_plan_id":"cebpf4jnsgd1na2vs0mg"},{"bike_id":"4402bf47-1875-473c-93ce-2037ef8eb8fb","system_id":"levelo_inurba_marseille","lat":43.304296,"lon":5.397513,"is_reserved":false,"is_disabled":false,"rental_uris":{"android":"levelo://app?vid=4402bf47-1875-473c-93ce-2037ef8eb8fb","ios":"levelo://app?vid=4402bf47-1875-473c-93ce-2037ef8eb8fb"},"vehicle_type_id":"4","last_reported":1722175630,"current_range_meters":8800,"station_id":"ce4bh092rcd13ifvqd20","pricing_plan_id":"cebpf4jnsgd1na2vs0mg"},{"bike_id":"109e7d0b-b3ba-4b45-94fc-49af476bacef","system_id":"levelo_inurba_marseille","lat":43.29265,"lon":5.38439,"is_reserved":false,"is_disabled":false,"rental_uris":{"android":"levelo://app?vid=109e7d0b-b3ba-4b45-94fc-49af476bacef","ios":"levelo://app?vid=109e7d0b-b3ba-4b45-94fc-49af476bacef"},"vehicle_type_id":"4","last_reported":1722175630,"current_range_meters":0,"station_id":"ce4bh692rcd13ifvqea0","pricing_plan_id":"cebpf4jnsgd1na2vs0mg"},{"bike_id":"e74db19d-98d2-417d-b6cd-011a2cd67dd3","system_id":"levelo_inurba_marseille","lat":43.292642,"lon":5.384254,"is_reserved":false,"is_disabled":false,"rental_uris":{"android":"levelo://app?vid=e74db19d-98d2-417d-b6cd-011a2cd67dd3","ios":"levelo://app?vid=e74db19d-98d2-417d-b6cd-011a2cd67dd3"},"vehicle_type_id":"4","last_reported":1722175630,"current_range_meters":0,"station_id":"ce4bh692rcd13ifvqea0","pricing_plan_id":"cebpf4jnsgd1na2vs0mg"},{"bike_id":"55e6f6bb-17e0-47df-ba73-f6309e3927c5","system_id":"levelo_inurba_marseille","lat":43.289743,"lon":5.378304,"is_reserved":false,"is_disabled":false,"rental_uris":{"android":"levelo://app?vid=55e6f6bb-17e0-47df-ba73-f6309e3927c5","ios":"levelo://app?vid=55e6f6bb-17e0-47df-ba73-f6309e3927c5"},"vehicle_type_id":"4","last_reported":1722175630,"current_range_meters":4000,"station_id":"ce4bh9p2rcd13ifvqed0","pricing_plan_id":"cebpf4jnsgd1na2vs0mg"},{"bike_id":"a54edd9b-c63c-481f-a17c-7cc50edba867","system_id":"levelo_inurba_marseille","lat":43.290995,"lon":5.381361,"is_reserved":false,"is_disabled":false,"rental_uris":{"android":"levelo://app?vid=a54edd9b-c63c-481f-a17c-7cc50edba867","ios":"levelo://app?vid=a54edd9b-c63c-481f-a17c-7cc50edba867"},"vehicle_type_id":"4","last_reported":1722175630,"current_range_meters":8000,"station_id":"ce4bh512rcd13ifvqe2g","pricing_plan_id":"cebpf4jnsgd1na2vs0mg"},{"bike_id":"b295bae0-edc7-4c95-a67c-325effda7a19","system_id":"levelo_inurba_marseille","lat":43.29016,"lon":5.35499,"is_reserved":false,"is_disabled":false,"rental_uris":{"android":"levelo://app?vid=b295bae0-edc7-4c95-a67c-325effda7a19","ios":"levelo://app?vid=b295bae0-edc7-4c95-a67c-325effda7a19"},"vehicle_type_id":"4","last_reported":1722175630,"current_range_meters":3200,"station_id":"","pricing_plan_id":"cebpf4jnsgd1na2vs0mg"},{"bike_id":"635bca66-c886-40ca-a714-c1cd86ee7dac","system_id":"levelo_inurba_marseille","lat":43.295169,"lon":5.390426,"is_reserved":false,"is_disabled":false,"rental_uris":{"android":"levelo://app?vid=635bca66-c886-40ca-a714-c1cd86ee7dac","ios":"levelo://app?vid=635bca66-c886-40ca-a714-c1cd86ee7dac"},"vehicle_type_id":"4","last_reported":1722175630,"current_range_meters":18800,"station_id":"ce4bh3p2rcd13ifvqdp0","pricing_plan_id":"cebpf4jnsgd1na2vs0mg"},{"bike_id":"d22a1163-7a7c-4312-9220-ac69ae25eb1c","system_id":"levelo_inurba_marseille","lat":43.295169,"lon":5.390426,"is_reserved":false,"is_disabled":false,"rental_uris":{"android":"levelo://app?vid=d22a1163-7a7c-4312-9220-ac69ae25eb1c","ios":"levelo://app?vid=d22a1163-7a7c-4312-9220-ac69ae25eb1c"},"vehicle_type_id":"4","last_reported":1722175630,"current_range_meters":9600,"station_id":"ce4bh3p2rcd13ifvqdp0","pricing_plan_id":"cebpf4jnsgd1na2vs0mg"},{"bike_id":"a0439e65-fd09-4e16-96a4-850f9e3fa4d8","system_id":"levelo_inurba_marseille","lat":43.3303,"lon":5.39043,"is_reserved":false,"is_disabled":false,"rental_uris":{"android":"levelo://app?vid=a0439e65-fd09-4e16-96a4-850f9e3fa4d8","ios":"levelo://app?vid=a0439e65-fd09-4e16-96a4-850f9e3fa4d8"},"vehicle_type_id":"4","last_reported":1722175630,"current_range_meters":3200,"station_id":"ce4bhr92rcd13ifvqhrg","pricing_plan_id":"cebpf4jnsgd1na2vs0mg"},{"bike_id":"67a05b44-1b02-4bba-81fe-17dbe92868b5","system_id":"levelo_inurba_marseille","lat":43.31076,"lon":5.40096,"is_reserved":false,"is_disabled":false,"rental_uris":{"android":"levelo://app?vid=67a05b44-1b02-4bba-81fe-17dbe92868b5","ios":"levelo://app?vid=67a05b44-1b02-4bba-81fe-17dbe92868b5"},"vehicle_type_id":"4","last_reported":1722175630,"current_range_meters":23600,"station_id":"","pricing_plan_id":"cebpf4jnsgd1na2vs0mg"},{"bike_id":"e10c41d8-6908-42d4-ab91-7f26ca7cd2e2","system_id":"levelo_inurba_marseille","lat":43.31075,"lon":5.40097,"is_reserved":false,"is_disabled":false,"rental_uris":{"android":"levelo://app?vid=e10c41d8-6908-42d4-ab91-7f26ca7cd2e2","ios":"levelo://app?vid=e10c41d8-6908-42d4-ab91-7f26ca7cd2e2"},"vehicle_type_id":"4","last_reported":1722175630,"current_range_meters":0,"station_id":"","pricing_plan_id":"cebpf4jnsgd1na2vs0mg"},{"bike_id":"6ff48f3c-927a-470d-a08e-7714539082f0","system_id":"levelo_inurba_marseille","lat":43.33735,"lon":5.37474,"is_reserved":false,"is_disabled":false,"rental_uris":{"android":"levelo://app?vid=6ff48f3c-927a-470d-a08e-7714539082f0","ios":"levelo://app?vid=6ff48f3c-927a-470d-a08e-7714539082f0"},"vehicle_type_id":"4","last_reported":1722175630,"current_range_meters":0,"station_id":"","pricing_plan_id":"cebpf4jnsgd1na2vs0mg"},{"bike_id":"3e79250c-7764-488c-b465-61fd16d31170","system_id":"levelo_inurba_marseille","lat":43.33736,"lon":5.37477,"is_reserved":false,"is_disabled":false,"rental_uris":{"android":"levelo://app?vid=3e79250c-7764-488c-b465-61fd16d31170","ios":"levelo://app?vid=3e79250c-7764-488c-b465-61fd16d31170"},"vehicle_type_id":"4","last_reported":1722175630,"current_range_meters":25200,"station_id":"","pricing_plan_id":"cebpf4jnsgd1na2vs0mg"},{"bike_id":"e92bf1d5-b1ca-44cd-9b31-a0496082825d","system_id":"levelo_inurba_marseille","lat":43.33733,"lon":5.37507,"is_reserved":false,"is_disabled":false,"rental_uris":{"android":"levelo://app?vid=e92bf1d5-b1ca-44cd-9b31-a0496082825d","ios":"levelo://app?vid=e92bf1d5-b1ca-44cd-9b31-a0496082825d"},"vehicle_type_id":"4","last_reported":1722175630,"current_range_meters":25200,"station_id":"","pricing_plan_id":"cebpf4jnsgd1na2vs0mg"},{"bike_id":"20a7bf81-31fd-4cb5-b454-68d5314a31b8","system_id":"levelo_inurba_marseille","lat":43.337399,"lon":5.374709,"is_reserved":false,"is_disabled":false,"rental_uris":{"android":"levelo://app?vid=20a7bf81-31fd-4cb5-b454-68d5314a31b8","ios":"levelo://app?vid=20a7bf81-31fd-4cb5-b454-68d5314a31b8"},"vehicle_type_id":"4","last_reported":1722175630,"current_range_meters":27200,"station_id":"","pricing_plan_id":"cebpf4jnsgd1na2vs0mg"},{"bike_id":"f8e8dd66-c7d6-4bd0-91ac-ef4274ae24f3","system_id":"levelo_inurba_marseille","lat":43.337405,"lon":5.374671,"is_reserved":false,"is_disabled":false,"rental_uris":{"android":"levelo://app?vid=f8e8dd66-c7d6-4bd0-91ac-ef4274ae24f3","ios":"levelo://app?vid=f8e8dd66-c7d6-4bd0-91ac-ef4274ae24f3"},"vehicle_type_id":"4","last_reported":1722175630,"current_range_meters":16000,"station_id":"","pricing_plan_id":"cebpf4jnsgd1na2vs0mg"},{"bike_id":"0aa226e6-2195-431b-bdc4-34bf44420451","system_id":"levelo_inurba_marseille","lat":43.337467,"lon":5.374397,"is_reserved":false,"is_disabled":false,"rental_uris":{"android":"levelo://app?vid=0aa226e6-2195-431b-bdc4-34bf44420451","ios":"levelo://app?vid=0aa226e6-2195-431b-bdc4-34bf44420451"},"vehicle_type_id":"4","last_reported":1722175630,"current_range_meters":23200,"station_id":"","pricing_plan_id":"cebpf4jnsgd1na2vs0mg"},{"bike_id":"6cf0c176-f7c0-4e29-a014-f3a3b29e1d2a","system_id":"levelo_inurba_marseille","lat":43.337481,"lon":5.37438,"is_reserved":false,"is_disabled":false,"rental_uris":{"android":"levelo://app?vid=6cf0c176-f7c0-4e29-a014-f3a3b29e1d2a","ios":"levelo://app?vid=6cf0c176-f7c0-4e29-a014-f3a3b29e1d2a"},"vehicle_type_id":"4","last_reported":1722175630,"current_range_meters":24400,"station_id":"","pricing_plan_id":"cebpf4jnsgd1na2vs0mg"},{"bike_id":"7df791b2-6f54-4b4c-ac07-3c0b608362ff","system_id":"levelo_inurba_marseille","lat":43.309371,"lon":5.401449,"is_reserved":false,"is_disabled":false,"rental_uris":{"android":"levelo://app?vid=7df791b2-6f54-4b4c-ac07-3c0b608362ff","ios":"levelo://app?vid=7df791b2-6f54-4b4c-ac07-3c0b608362ff"},"vehicle_type_id":"4","last_reported":1722175630,"current_range_meters":7600,"station_id":"ce4bgvp2rcd13ifvqct0","pricing_plan_id":"cebpf4jnsgd1na2vs0mg"},{"bike_id":"28ff567c-281c-4a43-913e-e1206badf942","system_id":"levelo_inurba_marseille","lat":43.33747,"lon":5.37465,"is_reserved":false,"is_disabled":false,"rental_uris":{"android":"levelo://app?vid=28ff567c-281c-4a43-913e-e1206badf942","ios":"levelo://app?vid=28ff567c-281c-4a43-913e-e1206badf942"},"vehicle_type_id":"4","last_reported":1722175630,"current_range_meters":18800,"station_id":"","pricing_plan_id":"cebpf4jnsgd1na2vs0mg"},{"bike_id":"f0338c4f-2f14-449f-abf8-25e44f36ca55","system_id":"levelo_inurba_marseille","lat":43.337503,"lon":5.374507,"is_reserved":false,"is_disabled":false,"rental_uris":{"android":"levelo://app?vid=f0338c4f-2f14-449f-abf8-25e44f36ca55","ios":"levelo://app?vid=f0338c4f-2f14-449f-abf8-25e44f36ca55"},"vehicle_type_id":"4","last_reported":1722175630,"current_range_meters":25600,"station_id":"","pricing_plan_id":"cebpf4jnsgd1na2vs0mg"},{"bike_id":"ce2a281f-6b17-464e-8289-d463ea4cfa07","system_id":"levelo_inurba_marseille","lat":43.337553,"lon":5.374554,"is_reserved":false,"is_disabled":false,"rental_uris":{"android":"levelo://app?vid=ce2a281f-6b17-464e-8289-d463ea4cfa07","ios":"levelo://app?vid=ce2a281f-6b17-464e-8289-d463ea4cfa07"},"vehicle_type_id":"4","last_reported":1722175630,"current_range_meters":26000,"station_id":"","pricing_plan_id":"cebpf4jnsgd1na2vs0mg"},{"bike_id":"52c97b77-9132-44e5-9bf3-aade79f7d4f6","system_id":"levelo_inurba_marseille","lat":43.306412,"lon":5.401035,"is_reserved":false,"is_disabled":false,"rental_uris":{"android":"levelo://app?vid=52c97b77-9132-44e5-9bf3-aade79f7d4f6","ios":"levelo://app?vid=52c97b77-9132-44e5-9bf3-aade79f7d4f6"},"vehicle_type_id":"4","last_reported":1722175630,"current_range_meters":400,"station_id":"ce4bh112rcd13ifvqda0","pricing_plan_id":"cebpf4jnsgd1na2vs0mg"},{"bike_id":"52004919-0da1-4a97-8f84-4a8d8615f812","system_id":"levelo_inurba_marseille","lat":43.28727,"lon":5.36078,"is_reserved":false,"is_disabled":false,"rental_uris":{"android":"levelo://app?vid=52004919-0da1-4a97-8f84-4a8d8615f812","ios":"levelo://app?vid=52004919-0da1-4a97-8f84-4a8d8615f812"},"vehicle_type_id":"4","last_reported":1722175630,"current_range_meters":16000,"station_id":"cki0cbj6b192h4jlfktg","pricing_plan_id":"cebpf4jnsgd1na2vs0mg"},{"bike_id":"b8d6a39d-19e4-48d1-8ddf-da2b70ba2c7e","system_id":"levelo_inurba_marseille","lat":43.298681,"lon":5.397225,"is_reserved":false,"is_disabled":false,"rental_uris":{"android":"levelo://app?vid=b8d6a39d-19e4-48d1-8ddf-da2b70ba2c7e","ios":"levelo://app?vid=b8d6a39d-19e4-48d1-8ddf-da2b70ba2c7e"},"vehicle_type_id":"4","last_reported":1722175630,"current_range_meters":6400,"station_id":"ce4bh0h2rcd13ifvqd50","pricing_plan_id":"cebpf4jnsgd1na2vs0mg"},{"bike_id":"7d923782-04a0-4426-bd56-2c212d97b664","system_id":"levelo_inurba_marseille","lat":43.28701,"lon":5.37393,"is_reserved":false,"is_disabled":false,"rental_uris":{"android":"levelo://app?vid=7d923782-04a0-4426-bd56-2c212d97b664","ios":"levelo://app?vid=7d923782-04a0-4426-bd56-2c212d97b664"},"vehicle_type_id":"4","last_reported":1722175630,"current_range_meters":0,"station_id":"ce4bh3p2rcd13ifvqdq0","pricing_plan_id":"cebpf4jnsgd1na2vs0mg"},{"bike_id":"525e689e-49fc-4477-9470-e1544c986f98","system_id":"levelo_inurba_marseille","lat":43.298681,"lon":5.397225,"is_reserved":false,"is_disabled":false,"rental_uris":{"android":"levelo://app?vid=525e689e-49fc-4477-9470-e1544c986f98","ios":"levelo://app?vid=525e689e-49fc-4477-9470-e1544c986f98"},"vehicle_type_id":"4","last_reported":1722175630,"current_range_meters":21600,"station_id":"ce4bh0h2rcd13ifvqd50","pricing_plan_id":"cebpf4jnsgd1na2vs0mg"},{"bike_id":"84bb5619-1d9f-43ec-b101-dda4ac1e967b","system_id":"levelo_inurba_marseille","lat":43.33449,"lon":5.3906,"is_reserved":false,"is_disabled":false,"rental_uris":{"android":"levelo://app?vid=84bb5619-1d9f-43ec-b101-dda4ac1e967b","ios":"levelo://app?vid=84bb5619-1d9f-43ec-b101-dda4ac1e967b"},"vehicle_type_id":"4","last_reported":1722175630,"current_range_meters":25200,"station_id":"","pricing_plan_id":"cebpf4jnsgd1na2vs0mg"},{"bike_id":"a8662a91-ef9c-4227-9418-8b99cf42ba85","system_id":"levelo_inurba_marseille","lat":43.316828,"lon":5.404723,"is_reserved":false,"is_disabled":false,"rental_uris":{"android":"levelo://app?vid=a8662a91-ef9c-4227-9418-8b99cf42ba85","ios":"levelo://app?vid=a8662a91-ef9c-4227-9418-8b99cf42ba85"},"vehicle_type_id":"4","last_reported":1722175630,"current_range_meters":800,"station_id":"ce4bh012rcd13ifvqd00","pricing_plan_id":"cebpf4jnsgd1na2vs0mg"},{"bike_id":"450ff1f5-9f19-43a1-abe1-252c89aada74","system_id":"levelo_inurba_marseille","lat":43.316821,"lon":5.404737,"is_reserved":false,"is_disabled":false,"rental_uris":{"android":"levelo://app?vid=450ff1f5-9f19-43a1-abe1-252c89aada74","ios":"levelo://app?vid=450ff1f5-9f19-43a1-abe1-252c89aada74"},"vehicle_type_id":"4","last_reported":1722175630,"current_range_meters":17200,"station_id":"ce4bh012rcd13ifvqd00","pricing_plan_id":"cebpf4jnsgd1na2vs0mg"},{"bike_id":"946ca476-25fc-434e-ac45-7c183579cbdb","system_id":"levelo_inurba_marseille","lat":43.295748,"lon":5.37522,"is_reserved":false,"is_disabled":false,"rental_uris":{"android":"levelo://app?vid=946ca476-25fc-434e-ac45-7c183579cbdb","ios":"levelo://app?vid=946ca476-25fc-434e-ac45-7c183579cbdb"},"vehicle_type_id":"4","last_reported":1722175630,"current_range_meters":400,"station_id":"ce4bgh92rcd13ifvqb50","pricing_plan_id":"cebpf4jnsgd1na2vs0mg"},{"bike_id":"cc2ef81c-a841-4e8c-86d7-9a0d6e0dcee3","system_id":"levelo_inurba_marseille","lat":43.294314,"lon":5.397498,"is_reserved":false,"is_disabled":false,"rental_uris":{"android":"levelo://app?vid=cc2ef81c-a841-4e8c-86d7-9a0d6e0dcee3","ios":"levelo://app?vid=cc2ef81c-a841-4e8c-86d7-9a0d6e0dcee3"},"vehicle_type_id":"4","last_reported":1722175630,"current_range_meters":0,"station_id":"ce4bh3h2rcd13ifvqdo0","pricing_plan_id":"cebpf4jnsgd1na2vs0mg"},{"bike_id":"ca383815-d2d8-495c-aac0-279a23b97eee","system_id":"levelo_inurba_marseille","lat":43.294314,"lon":5.397498,"is_reserved":false,"is_disabled":false,"rental_uris":{"android":"levelo://app?vid=ca383815-d2d8-495c-aac0-279a23b97eee","ios":"levelo://app?vid=ca383815-d2d8-495c-aac0-279a23b97eee"},"vehicle_type_id":"4","last_reported":1722175630,"current_range_meters":0,"station_id":"ce4bh3h2rcd13ifvqdo0","pricing_plan_id":"cebpf4jnsgd1na2vs0mg"},{"bike_id":"4016a585-1706-4dfc-ad78-ca4e1c87d761","system_id":"levelo_inurba_marseille","lat":43.28618,"lon":5.35104,"is_reserved":false,"is_disabled":false,"rental_uris":{"android":"levelo://app?vid=4016a585-1706-4dfc-ad78-ca4e1c87d761","ios":"levelo://app?vid=4016a585-1706-4dfc-ad78-ca4e1c87d761"},"vehicle_type_id":"4","last_reported":1722175630,"current_range_meters":15600,"station_id":"ce4bhch2rcd13ifvqeug","pricing_plan_id":"cebpf4jnsgd1na2vs0mg"},{"bike_id":"a943c9e0-f879-4a33-9665-86ffc08db798","system_id":"levelo_inurba_marseille","lat":43.28615,"lon":5.3511,"is_reserved":false,"is_disabled":false,"rental_uris":{"android":"levelo://app?vid=a943c9e0-f879-4a33-9665-86ffc08db798","ios":"levelo://app?vid=a943c9e0-f879-4a33-9665-86ffc08db798"},"vehicle_type_id":"4","last_reported":1722175630,"current_range_meters":21600,"station_id":"ce4bhch2rcd13ifvqeug","pricing_plan_id":"cebpf4jnsgd1na2vs0mg"},{"bike_id":"f4d5c259-e7c5-4223-a62d-f8755d499290","system_id":"levelo_inurba_marseille","lat":43.285856,"lon":5.350771,"is_reserved":false,"is_disabled":false,"rental_uris":{"android":"levelo://app?vid=f4d5c259-e7c5-4223-a62d-f8755d499290","ios":"levelo://app?vid=f4d5c259-e7c5-4223-a62d-f8755d499290"},"vehicle_type_id":"4","last_reported":1722175630,"current_range_meters":13600,"station_id":"ce4bhch2rcd13ifvqeug","pricing_plan_id":"cebpf4jnsgd1na2vs0mg"},{"bike_id":"c10a24c5-52ac-43cc-a6d2-311d1967e1ca","system_id":"levelo_inurba_marseille","lat":43.28615,"lon":5.35107,"is_reserved":false,"is_disabled":false,"rental_uris":{"android":"levelo://app?vid=c10a24c5-52ac-43cc-a6d2-311d1967e1ca","ios":"levelo://app?vid=c10a24c5-52ac-43cc-a6d2-311d1967e1ca"},"vehicle_type_id":"4","last_reported":1722175630,"current_range_meters":0,"station_id":"ce4bhch2rcd13ifvqeug","pricing_plan_id":"cebpf4jnsgd1na2vs0mg"},{"bike_id":"8e8af43b-eb7c-48e7-ab33-14ab35283800","system_id":"levelo_inurba_marseille","lat":43.28617,"lon":5.351,"is_reserved":false,"is_disabled":false,"rental_uris":{"android":"levelo://app?vid=8e8af43b-eb7c-48e7-ab33-14ab35283800","ios":"levelo://app?vid=8e8af43b-eb7c-48e7-ab33-14ab35283800"},"vehicle_type_id":"4","last_reported":1722175630,"current_range_meters":0,"station_id":"ce4bhch2rcd13ifvqeug","pricing_plan_id":"cebpf4jnsgd1na2vs0mg"},{"bike_id":"1435fa2f-e67d-40a2-a10e-75608c2de28b","system_id":"levelo_inurba_marseille","lat":43.28615,"lon":5.35103,"is_reserved":false,"is_disabled":false,"rental_uris":{"android":"levelo://app?vid=1435fa2f-e67d-40a2-a10e-75608c2de28b","ios":"levelo://app?vid=1435fa2f-e67d-40a2-a10e-75608c2de28b"},"vehicle_type_id":"4","last_reported":1722175630,"current_range_meters":27200,"station_id":"ce4bhch2rcd13ifvqeug","pricing_plan_id":"cebpf4jnsgd1na2vs0mg"},{"bike_id":"d15c8bd8-7c1a-44fb-9b13-3a32a5a35e9c","system_id":"levelo_inurba_marseille","lat":43.28615,"lon":5.35103,"is_reserved":false,"is_disabled":false,"rental_uris":{"android":"levelo://app?vid=d15c8bd8-7c1a-44fb-9b13-3a32a5a35e9c","ios":"levelo://app?vid=d15c8bd8-7c1a-44fb-9b13-3a32a5a35e9c"},"vehicle_type_id":"4","last_reported":1722175630,"current_range_meters":0,"station_id":"ce4bhch2rcd13ifvqeug","pricing_plan_id":"cebpf4jnsgd1na2vs0mg"},{"bike_id":"1d523919-ec2c-40df-902d-ccab4729d7d3","system_id":"levelo_inurba_marseille","lat":43.28615,"lon":5.351,"is_reserved":false,"is_disabled":false,"rental_uris":{"android":"levelo://app?vid=1d523919-ec2c-40df-902d-ccab4729d7d3","ios":"levelo://app?vid=1d523919-ec2c-40df-902d-ccab4729d7d3"},"vehicle_type_id":"4","last_reported":1722175630,"current_range_meters":13200,"station_id":"ce4bhch2rcd13ifvqeug","pricing_plan_id":"cebpf4jnsgd1na2vs0mg"},{"bike_id":"13871e00-a4af-4a63-941a-82b6695c1279","system_id":"levelo_inurba_marseille","lat":43.28613,"lon":5.35104,"is_reserved":false,"is_disabled":false,"rental_uris":{"android":"levelo://app?vid=13871e00-a4af-4a63-941a-82b6695c1279","ios":"levelo://app?vid=13871e00-a4af-4a63-941a-82b6695c1279"},"vehicle_type_id":"4","last_reported":1722175630,"current_range_meters":0,"station_id":"ce4bhch2rcd13ifvqeug","pricing_plan_id":"cebpf4jnsgd1na2vs0mg"},{"bike_id":"bb710c1b-2ff2-415e-be34-c1fb5feb91bb","system_id":"levelo_inurba_marseille","lat":43.285856,"lon":5.350771,"is_reserved":false,"is_disabled":false,"rental_uris":{"android":"levelo://app?vid=bb710c1b-2ff2-415e-be34-c1fb5feb91bb","ios":"levelo://app?vid=bb710c1b-2ff2-415e-be34-c1fb5feb91bb"},"vehicle_type_id":"4","last_reported":1722175630,"current_range_meters":10000,"station_id":"ce4bhch2rcd13ifvqeug","pricing_plan_id":"cebpf4jnsgd1na2vs0mg"},{"bike_id":"7c09103e-0e5d-482d-be68-b8ee242ba218","system_id":"levelo_inurba_marseille","lat":43.28613,"lon":5.35103,"is_reserved":false,"is_disabled":false,"rental_uris":{"android":"levelo://app?vid=7c09103e-0e5d-482d-be68-b8ee242ba218","ios":"levelo://app?vid=7c09103e-0e5d-482d-be68-b8ee242ba218"},"vehicle_type_id":"4","last_reported":1722175630,"current_range_meters":7600,"station_id":"ce4bhch2rcd13ifvqeug","pricing_plan_id":"cebpf4jnsgd1na2vs0mg"},{"bike_id":"4acef82f-8179-48fd-954b-c5c3be31d421","system_id":"levelo_inurba_marseille","lat":43.28615,"lon":5.35096,"is_reserved":false,"is_disabled":false,"rental_uris":{"android":"levelo://app?vid=4acef82f-8179-48fd-954b-c5c3be31d421","ios":"levelo://app?vid=4acef82f-8179-48fd-954b-c5c3be31d421"},"vehicle_type_id":"4","last_reported":1722175630,"current_range_meters":29200,"station_id":"ce4bhch2rcd13ifvqeug","pricing_plan_id":"cebpf4jnsgd1na2vs0mg"},{"bike_id":"184f59fc-cff5-45ce-9622-4084aa7f68ab","system_id":"levelo_inurba_marseille","lat":43.28613,"lon":5.351,"is_reserved":false,"is_disabled":false,"rental_uris":{"android":"levelo://app?vid=184f59fc-cff5-45ce-9622-4084aa7f68ab","ios":"levelo://app?vid=184f59fc-cff5-45ce-9622-4084aa7f68ab"},"vehicle_type_id":"4","last_reported":1722175630,"current_range_meters":22400,"station_id":"ce4bhch2rcd13ifvqeug","pricing_plan_id":"cebpf4jnsgd1na2vs0mg"},{"bike_id":"fec3a184-2b2f-455b-a5cd-c6b86c2077be","system_id":"levelo_inurba_marseille","lat":43.2861,"lon":5.35105,"is_reserved":false,"is_disabled":false,"rental_uris":{"android":"levelo://app?vid=fec3a184-2b2f-455b-a5cd-c6b86c2077be","ios":"levelo://app?vid=fec3a184-2b2f-455b-a5cd-c6b86c2077be"},"vehicle_type_id":"4","last_reported":1722175630,"current_range_meters":24800,"station_id":"ce4bhch2rcd13ifvqeug","pricing_plan_id":"cebpf4jnsgd1na2vs0mg"},{"bike_id":"94521bc0-0451-49b5-8263-3e146be05b41","system_id":"levelo_inurba_marseille","lat":43.2861,"lon":5.351,"is_reserved":false,"is_disabled":false,"rental_uris":{"android":"levelo://app?vid=94521bc0-0451-49b5-8263-3e146be05b41","ios":"levelo://app?vid=94521bc0-0451-49b5-8263-3e146be05b41"},"vehicle_type_id":"4","last_reported":1722175630,"current_range_meters":17600,"station_id":"ce4bhch2rcd13ifvqeug","pricing_plan_id":"cebpf4jnsgd1na2vs0mg"},{"bike_id":"85a3d67c-cee7-4339-99a6-d80a652b9b77","system_id":"levelo_inurba_marseille","lat":43.285848,"lon":5.350787,"is_reserved":false,"is_disabled":false,"rental_uris":{"android":"levelo://app?vid=85a3d67c-cee7-4339-99a6-d80a652b9b77","ios":"levelo://app?vid=85a3d67c-cee7-4339-99a6-d80a652b9b77"},"vehicle_type_id":"4","last_reported":1722175630,"current_range_meters":16000,"station_id":"ce4bhch2rcd13ifvqeug","pricing_plan_id":"cebpf4jnsgd1na2vs0mg"},{"bike_id":"c3bf2ba3-ad39-45ea-91bf-63b852a99062","system_id":"levelo_inurba_marseille","lat":43.28683,"lon":5.38662,"is_reserved":false,"is_disabled":false,"rental_uris":{"android":"levelo://app?vid=c3bf2ba3-ad39-45ea-91bf-63b852a99062","ios":"levelo://app?vid=c3bf2ba3-ad39-45ea-91bf-63b852a99062"},"vehicle_type_id":"4","last_reported":1722175630,"current_range_meters":0,"station_id":"ce4bh492rcd13ifvqdug","pricing_plan_id":"cebpf4jnsgd1na2vs0mg"},{"bike_id":"fa958f03-0bf7-435e-a875-d6e1b3be7f7e","system_id":"levelo_inurba_marseille","lat":43.286793,"lon":5.386556,"is_reserved":false,"is_disabled":false,"rental_uris":{"android":"levelo://app?vid=fa958f03-0bf7-435e-a875-d6e1b3be7f7e","ios":"levelo://app?vid=fa958f03-0bf7-435e-a875-d6e1b3be7f7e"},"vehicle_type_id":"4","last_reported":1722175630,"current_range_meters":0,"station_id":"ce4bh492rcd13ifvqdug","pricing_plan_id":"cebpf4jnsgd1na2vs0mg"},{"bike_id":"dfc993be-216e-470c-a02a-8547c3a7f00b","system_id":"levelo_inurba_marseille","lat":43.319179,"lon":5.407725,"is_reserved":false,"is_disabled":false,"rental_uris":{"android":"levelo://app?vid=dfc993be-216e-470c-a02a-8547c3a7f00b","ios":"levelo://app?vid=dfc993be-216e-470c-a02a-8547c3a7f00b"},"vehicle_type_id":"4","last_reported":1722175630,"current_range_meters":30800,"station_id":"ce4bhq12rcd13ifvqhig","pricing_plan_id":"cebpf4jnsgd1na2vs0mg"},{"bike_id":"228c4b4e-bd25-4727-8075-759a3cf801c7","system_id":"levelo_inurba_marseille","lat":43.319179,"lon":5.407725,"is_reserved":false,"is_disabled":false,"rental_uris":{"android":"levelo://app?vid=228c4b4e-bd25-4727-8075-759a3cf801c7","ios":"levelo://app?vid=228c4b4e-bd25-4727-8075-759a3cf801c7"},"vehicle_type_id":"4","last_reported":1722175630,"current_range_meters":28400,"station_id":"ce4bhq12rcd13ifvqhig","pricing_plan_id":"cebpf4jnsgd1na2vs0mg"},{"bike_id":"b6fad994-a7b8-4b1d-858c-55b8d0701828","system_id":"levelo_inurba_marseille","lat":43.319179,"lon":5.407725,"is_reserved":false,"is_disabled":false,"rental_uris":{"android":"levelo://app?vid=b6fad994-a7b8-4b1d-858c-55b8d0701828","ios":"levelo://app?vid=b6fad994-a7b8-4b1d-858c-55b8d0701828"},"vehicle_type_id":"4","last_reported":1722175630,"current_range_meters":31200,"station_id":"ce4bhq12rcd13ifvqhig","pricing_plan_id":"cebpf4jnsgd1na2vs0mg"},{"bike_id":"ef5ea76f-525e-4895-ae65-b9eba8f3b44d","system_id":"levelo_inurba_marseille","lat":43.28894,"lon":5.39242,"is_reserved":false,"is_disabled":false,"rental_uris":{"android":"levelo://app?vid=ef5ea76f-525e-4895-ae65-b9eba8f3b44d","ios":"levelo://app?vid=ef5ea76f-525e-4895-ae65-b9eba8f3b44d"},"vehicle_type_id":"4","last_reported":1722175630,"current_range_meters":0,"station_id":"","pricing_plan_id":"cebpf4jnsgd1na2vs0mg"},{"bike_id":"0b5d71cd-9849-4000-a489-b0b46962edad","system_id":"levelo_inurba_marseille","lat":43.323464,"lon":5.406297,"is_reserved":false,"is_disabled":false,"rental_uris":{"android":"levelo://app?vid=0b5d71cd-9849-4000-a489-b0b46962edad","ios":"levelo://app?vid=0b5d71cd-9849-4000-a489-b0b46962edad"},"vehicle_type_id":"4","last_reported":1722175630,"current_range_meters":31200,"station_id":"ce4bhq92rcd13ifvqhjg","pricing_plan_id":"cebpf4jnsgd1na2vs0mg"},{"bike_id":"534f89cd-303f-4353-a1f1-38be2a1bdfec","system_id":"levelo_inurba_marseille","lat":43.337168,"lon":5.391825,"is_reserved":false,"is_disabled":false,"rental_uris":{"android":"levelo://app?vid=534f89cd-303f-4353-a1f1-38be2a1bdfec","ios":"levelo://app?vid=534f89cd-303f-4353-a1f1-38be2a1bdfec"},"vehicle_type_id":"4","last_reported":1722175630,"current_range_meters":400,"station_id":"ce4bhr92rcd13ifvqhsg","pricing_plan_id":"cebpf4jnsgd1na2vs0mg"},{"bike_id":"a750ba14-bb79-4daf-909f-6d7f063560f2","system_id":"levelo_inurba_marseille","lat":43.323464,"lon":5.406297,"is_reserved":false,"is_disabled":false,"rental_uris":{"android":"levelo://app?vid=a750ba14-bb79-4daf-909f-6d7f063560f2","ios":"levelo://app?vid=a750ba14-bb79-4daf-909f-6d7f063560f2"},"vehicle_type_id":"4","last_reported":1722175630,"current_range_meters":13600,"station_id":"ce4bhq92rcd13ifvqhjg","pricing_plan_id":"cebpf4jnsgd1na2vs0mg"},{"bike_id":"e9814d99-d1a3-4363-9963-378ca5e26107","system_id":"levelo_inurba_marseille","lat":43.32335,"lon":5.4062,"is_reserved":false,"is_disabled":false,"rental_uris":{"android":"levelo://app?vid=e9814d99-d1a3-4363-9963-378ca5e26107","ios":"levelo://app?vid=e9814d99-d1a3-4363-9963-378ca5e26107"},"vehicle_type_id":"4","last_reported":1722175630,"current_range_meters":0,"station_id":"ce4bhq92rcd13ifvqhjg","pricing_plan_id":"cebpf4jnsgd1na2vs0mg"},{"bike_id":"ecf71df3-d273-4793-80bf-7c8bebd042c8","system_id":"levelo_inurba_marseille","lat":43.337168,"lon":5.391825,"is_reserved":false,"is_disabled":false,"rental_uris":{"android":"levelo://app?vid=ecf71df3-d273-4793-80bf-7c8bebd042c8","ios":"levelo://app?vid=ecf71df3-d273-4793-80bf-7c8bebd042c8"},"vehicle_type_id":"4","last_reported":1722175630,"current_range_meters":28800,"station_id":"ce4bhr92rcd13ifvqhsg","pricing_plan_id":"cebpf4jnsgd1na2vs0mg"},{"bike_id":"3439f520-7411-4a89-bbd2-a2c4b4d4923d","system_id":"levelo_inurba_marseille","lat":43.337168,"lon":5.391825,"is_reserved":false,"is_disabled":false,"rental_uris":{"android":"levelo://app?vid=3439f520-7411-4a89-bbd2-a2c4b4d4923d","ios":"levelo://app?vid=3439f520-7411-4a89-bbd2-a2c4b4d4923d"},"vehicle_type_id":"4","last_reported":1722175630,"current_range_meters":31600,"station_id":"ce4bhr92rcd13ifvqhsg","pricing_plan_id":"cebpf4jnsgd1na2vs0mg"},{"bike_id":"0f1c922d-23b4-4a9f-96d6-c2e2525aa5d8","system_id":"levelo_inurba_marseille","lat":43.323464,"lon":5.406297,"is_reserved":false,"is_disabled":false,"rental_uris":{"android":"levelo://app?vid=0f1c922d-23b4-4a9f-96d6-c2e2525aa5d8","ios":"levelo://app?vid=0f1c922d-23b4-4a9f-96d6-c2e2525aa5d8"},"vehicle_type_id":"4","last_reported":1722175630,"current_range_meters":28400,"station_id":"ce4bhq92rcd13ifvqhjg","pricing_plan_id":"cebpf4jnsgd1na2vs0mg"},{"bike_id":"aac52ed5-cfed-4f27-9234-092b49afec49","system_id":"levelo_inurba_marseille","lat":43.28473,"lon":5.38414,"is_reserved":false,"is_disabled":false,"rental_uris":{"android":"levelo://app?vid=aac52ed5-cfed-4f27-9234-092b49afec49","ios":"levelo://app?vid=aac52ed5-cfed-4f27-9234-092b49afec49"},"vehicle_type_id":"4","last_reported":1722175630,"current_range_meters":0,"station_id":"ce4bh512rcd13ifvqe3g","pricing_plan_id":"cebpf4jnsgd1na2vs0mg"},{"bike_id":"ff4f7e9d-7ab3-4b5f-9e3e-81dafbeac86f","system_id":"levelo_inurba_marseille","lat":43.288497,"lon":5.393089,"is_reserved":false,"is_disabled":false,"rental_uris":{"android":"levelo://app?vid=ff4f7e9d-7ab3-4b5f-9e3e-81dafbeac86f","ios":"levelo://app?vid=ff4f7e9d-7ab3-4b5f-9e3e-81dafbeac86f"},"vehicle_type_id":"4","last_reported":1722175630,"current_range_meters":2000,"station_id":"ce4bh2p2rcd13ifvqdi0","pricing_plan_id":"cebpf4jnsgd1na2vs0mg"},{"bike_id":"2c2576cc-a842-4441-afaa-bed1c26e0eb9","system_id":"levelo_inurba_marseille","lat":43.28427,"lon":5.34984,"is_reserved":false,"is_disabled":false,"rental_uris":{"android":"levelo://app?vid=2c2576cc-a842-4441-afaa-bed1c26e0eb9","ios":"levelo://app?vid=2c2576cc-a842-4441-afaa-bed1c26e0eb9"},"vehicle_type_id":"4","last_reported":1722175630,"current_range_meters":20800,"station_id":"ce4bhbh2rcd13ifvqepg","pricing_plan_id":"cebpf4jnsgd1na2vs0mg"},{"bike_id":"b64b604c-1021-40da-8192-b8dba37f157c","system_id":"levelo_inurba_marseille","lat":43.2842,"lon":5.35006,"is_reserved":false,"is_disabled":false,"rental_uris":{"android":"levelo://app?vid=b64b604c-1021-40da-8192-b8dba37f157c","ios":"levelo://app?vid=b64b604c-1021-40da-8192-b8dba37f157c"},"vehicle_type_id":"4","last_reported":1722175630,"current_range_meters":21600,"station_id":"ce4bhbh2rcd13ifvqepg","pricing_plan_id":"cebpf4jnsgd1na2vs0mg"},{"bike_id":"ba8c1575-5c00-4f0f-bec1-3edb6de6d337","system_id":"levelo_inurba_marseille","lat":43.28426,"lon":5.34979,"is_reserved":false,"is_disabled":false,"rental_uris":{"android":"levelo://app?vid=ba8c1575-5c00-4f0f-bec1-3edb6de6d337","ios":"levelo://app?vid=ba8c1575-5c00-4f0f-bec1-3edb6de6d337"},"vehicle_type_id":"4","last_reported":1722175630,"current_range_meters":1600,"station_id":"ce4bhbh2rcd13ifvqepg","pricing_plan_id":"cebpf4jnsgd1na2vs0mg"},{"bike_id":"fcc3f00e-2ee9-4eb1-ab3f-113f0460f136","system_id":"levelo_inurba_marseille","lat":43.284219,"lon":5.3497,"is_reserved":false,"is_disabled":false,"rental_uris":{"android":"levelo://app?vid=fcc3f00e-2ee9-4eb1-ab3f-113f0460f136","ios":"levelo://app?vid=fcc3f00e-2ee9-4eb1-ab3f-113f0460f136"},"vehicle_type_id":"4","last_reported":1722175630,"current_range_meters":800,"station_id":"ce4bhbh2rcd13ifvqepg","pricing_plan_id":"cebpf4jnsgd1na2vs0mg"},{"bike_id":"5ac6faba-d43f-46a1-a00b-7eff25b788c1","system_id":"levelo_inurba_marseille","lat":43.284219,"lon":5.3497,"is_reserved":false,"is_disabled":false,"rental_uris":{"android":"levelo://app?vid=5ac6faba-d43f-46a1-a00b-7eff25b788c1","ios":"levelo://app?vid=5ac6faba-d43f-46a1-a00b-7eff25b788c1"},"vehicle_type_id":"4","last_reported":1722175630,"current_range_meters":12800,"station_id":"ce4bhbh2rcd13ifvqepg","pricing_plan_id":"cebpf4jnsgd1na2vs0mg"},{"bike_id":"c79c3a3c-1798-416b-b08a-ce321ad222fe","system_id":"levelo_inurba_marseille","lat":43.284219,"lon":5.3497,"is_reserved":false,"is_disabled":false,"rental_uris":{"android":"levelo://app?vid=c79c3a3c-1798-416b-b08a-ce321ad222fe","ios":"levelo://app?vid=c79c3a3c-1798-416b-b08a-ce321ad222fe"},"vehicle_type_id":"4","last_reported":1722175630,"current_range_meters":1200,"station_id":"ce4bhbh2rcd13ifvqepg","pricing_plan_id":"cebpf4jnsgd1na2vs0mg"},{"bike_id":"06bd86d5-a9e6-4a16-b30c-33b3e03e7654","system_id":"levelo_inurba_marseille","lat":43.284219,"lon":5.3497,"is_reserved":false,"is_disabled":false,"rental_uris":{"android":"levelo://app?vid=06bd86d5-a9e6-4a16-b30c-33b3e03e7654","ios":"levelo://app?vid=06bd86d5-a9e6-4a16-b30c-33b3e03e7654"},"vehicle_type_id":"4","last_reported":1722175630,"current_range_meters":22800,"station_id":"ce4bhbh2rcd13ifvqepg","pricing_plan_id":"cebpf4jnsgd1na2vs0mg"},{"bike_id":"7002c7f3-d737-47b1-ba14-e92661b02a2e","system_id":"levelo_inurba_marseille","lat":43.284219,"lon":5.3497,"is_reserved":false,"is_disabled":false,"rental_uris":{"android":"levelo://app?vid=7002c7f3-d737-47b1-ba14-e92661b02a2e","ios":"levelo://app?vid=7002c7f3-d737-47b1-ba14-e92661b02a2e"},"vehicle_type_id":"4","last_reported":1722175630,"current_range_meters":17200,"station_id":"ce4bhbh2rcd13ifvqepg","pricing_plan_id":"cebpf4jnsgd1na2vs0mg"},{"bike_id":"19b8eea5-307a-4a0e-b56c-ce7e093e7f9e","system_id":"levelo_inurba_marseille","lat":43.28424,"lon":5.34974,"is_reserved":false,"is_disabled":false,"rental_uris":{"android":"levelo://app?vid=19b8eea5-307a-4a0e-b56c-ce7e093e7f9e","ios":"levelo://app?vid=19b8eea5-307a-4a0e-b56c-ce7e093e7f9e"},"vehicle_type_id":"4","last_reported":1722175630,"current_range_meters":2800,"station_id":"ce4bhbh2rcd13ifvqepg","pricing_plan_id":"cebpf4jnsgd1na2vs0mg"},{"bike_id":"8664ef68-bf7b-4b6b-9590-384cfbb6d5df","system_id":"levelo_inurba_marseille","lat":43.284219,"lon":5.3497,"is_reserved":false,"is_disabled":false,"rental_uris":{"android":"levelo://app?vid=8664ef68-bf7b-4b6b-9590-384cfbb6d5df","ios":"levelo://app?vid=8664ef68-bf7b-4b6b-9590-384cfbb6d5df"},"vehicle_type_id":"4","last_reported":1722175630,"current_range_meters":0,"station_id":"ce4bhbh2rcd13ifvqepg","pricing_plan_id":"cebpf4jnsgd1na2vs0mg"},{"bike_id":"286e2cd1-9912-4a1f-8197-09ac7f8495a0","system_id":"levelo_inurba_marseille","lat":43.284219,"lon":5.3497,"is_reserved":false,"is_disabled":false,"rental_uris":{"android":"levelo://app?vid=286e2cd1-9912-4a1f-8197-09ac7f8495a0","ios":"levelo://app?vid=286e2cd1-9912-4a1f-8197-09ac7f8495a0"},"vehicle_type_id":"4","last_reported":1722175630,"current_range_meters":15200,"station_id":"ce4bhbh2rcd13ifvqepg","pricing_plan_id":"cebpf4jnsgd1na2vs0mg"},{"bike_id":"915ce34c-76d6-45e2-963e-ea7e65af58ba","system_id":"levelo_inurba_marseille","lat":43.284219,"lon":5.3497,"is_reserved":false,"is_disabled":false,"rental_uris":{"android":"levelo://app?vid=915ce34c-76d6-45e2-963e-ea7e65af58ba","ios":"levelo://app?vid=915ce34c-76d6-45e2-963e-ea7e65af58ba"},"vehicle_type_id":"4","last_reported":1722175630,"current_range_meters":21200,"station_id":"ce4bhbh2rcd13ifvqepg","pricing_plan_id":"cebpf4jnsgd1na2vs0mg"},{"bike_id":"109fcc8c-2a0c-4088-9e56-fa6fb9478109","system_id":"levelo_inurba_marseille","lat":43.28416,"lon":5.34995,"is_reserved":false,"is_disabled":false,"rental_uris":{"android":"levelo://app?vid=109fcc8c-2a0c-4088-9e56-fa6fb9478109","ios":"levelo://app?vid=109fcc8c-2a0c-4088-9e56-fa6fb9478109"},"vehicle_type_id":"4","last_reported":1722175630,"current_range_meters":24800,"station_id":"ce4bhbh2rcd13ifvqepg","pricing_plan_id":"cebpf4jnsgd1na2vs0mg"},{"bike_id":"1cab26bf-9771-4a67-8fa6-441a4eee3ebd","system_id":"levelo_inurba_marseille","lat":43.284219,"lon":5.3497,"is_reserved":false,"is_disabled":false,"rental_uris":{"android":"levelo://app?vid=1cab26bf-9771-4a67-8fa6-441a4eee3ebd","ios":"levelo://app?vid=1cab26bf-9771-4a67-8fa6-441a4eee3ebd"},"vehicle_type_id":"4","last_reported":1722175630,"current_range_meters":13600,"station_id":"ce4bhbh2rcd13ifvqepg","pricing_plan_id":"cebpf4jnsgd1na2vs0mg"},{"bike_id":"91080e46-6f22-4e0b-97c9-ba9ba49a512a","system_id":"levelo_inurba_marseille","lat":43.284219,"lon":5.3497,"is_reserved":false,"is_disabled":false,"rental_uris":{"android":"levelo://app?vid=91080e46-6f22-4e0b-97c9-ba9ba49a512a","ios":"levelo://app?vid=91080e46-6f22-4e0b-97c9-ba9ba49a512a"},"vehicle_type_id":"4","last_reported":1722175630,"current_range_meters":18400,"station_id":"ce4bhbh2rcd13ifvqepg","pricing_plan_id":"cebpf4jnsgd1na2vs0mg"},{"bike_id":"9591b4af-b17d-4e5e-8d87-d46d702902e2","system_id":"levelo_inurba_marseille","lat":43.284183,"lon":5.349853,"is_reserved":false,"is_disabled":false,"rental_uris":{"android":"levelo://app?vid=9591b4af-b17d-4e5e-8d87-d46d702902e2","ios":"levelo://app?vid=9591b4af-b17d-4e5e-8d87-d46d702902e2"},"vehicle_type_id":"4","last_reported":1722175630,"current_range_meters":4800,"station_id":"ce4bhbh2rcd13ifvqepg","pricing_plan_id":"cebpf4jnsgd1na2vs0mg"},{"bike_id":"98235f87-4b6a-498c-9724-cf52915d30d3","system_id":"levelo_inurba_marseille","lat":43.28413,"lon":5.35,"is_reserved":false,"is_disabled":false,"rental_uris":{"android":"levelo://app?vid=98235f87-4b6a-498c-9724-cf52915d30d3","ios":"levelo://app?vid=98235f87-4b6a-498c-9724-cf52915d30d3"},"vehicle_type_id":"4","last_reported":1722175630,"current_range_meters":3200,"station_id":"ce4bhbh2rcd13ifvqepg","pricing_plan_id":"cebpf4jnsgd1na2vs0mg"},{"bike_id":"f8d1fcdd-3ac5-4f15-becb-8316d463c5ed","system_id":"levelo_inurba_marseille","lat":43.284217,"lon":5.349697,"is_reserved":false,"is_disabled":false,"rental_uris":{"android":"levelo://app?vid=f8d1fcdd-3ac5-4f15-becb-8316d463c5ed","ios":"levelo://app?vid=f8d1fcdd-3ac5-4f15-becb-8316d463c5ed"},"vehicle_type_id":"4","last_reported":1722175630,"current_range_meters":12000,"station_id":"ce4bhbh2rcd13ifvqepg","pricing_plan_id":"cebpf4jnsgd1na2vs0mg"},{"bike_id":"a4888aee-ab3f-4cc4-83bb-92bd028d8613","system_id":"levelo_inurba_marseille","lat":43.28419,"lon":5.34979,"is_reserved":false,"is_disabled":false,"rental_uris":{"android":"levelo://app?vid=a4888aee-ab3f-4cc4-83bb-92bd028d8613","ios":"levelo://app?vid=a4888aee-ab3f-4cc4-83bb-92bd028d8613"},"vehicle_type_id":"4","last_reported":1722175630,"current_range_meters":0,"station_id":"ce4bhbh2rcd13ifvqepg","pricing_plan_id":"cebpf4jnsgd1na2vs0mg"},{"bike_id":"4191aabb-2333-4177-ba90-1eb50bafdcd0","system_id":"levelo_inurba_marseille","lat":43.28419,"lon":5.349778,"is_reserved":false,"is_disabled":false,"rental_uris":{"android":"levelo://app?vid=4191aabb-2333-4177-ba90-1eb50bafdcd0","ios":"levelo://app?vid=4191aabb-2333-4177-ba90-1eb50bafdcd0"},"vehicle_type_id":"4","last_reported":1722175630,"current_range_meters":28800,"station_id":"ce4bhbh2rcd13ifvqepg","pricing_plan_id":"cebpf4jnsgd1na2vs0mg"},{"bike_id":"cf2a5f1d-c998-486d-864d-89fee51db249","system_id":"levelo_inurba_marseille","lat":43.28417,"lon":5.34984,"is_reserved":false,"is_disabled":false,"rental_uris":{"android":"levelo://app?vid=cf2a5f1d-c998-486d-864d-89fee51db249","ios":"levelo://app?vid=cf2a5f1d-c998-486d-864d-89fee51db249"},"vehicle_type_id":"4","last_reported":1722175630,"current_range_meters":19200,"station_id":"ce4bhbh2rcd13ifvqepg","pricing_plan_id":"cebpf4jnsgd1na2vs0mg"},{"bike_id":"833aac87-2aee-46ca-8855-075db71175be","system_id":"levelo_inurba_marseille","lat":43.28419,"lon":5.34977,"is_reserved":false,"is_disabled":false,"rental_uris":{"android":"levelo://app?vid=833aac87-2aee-46ca-8855-075db71175be","ios":"levelo://app?vid=833aac87-2aee-46ca-8855-075db71175be"},"vehicle_type_id":"4","last_reported":1722175630,"current_range_meters":18000,"station_id":"ce4bhbh2rcd13ifvqepg","pricing_plan_id":"cebpf4jnsgd1na2vs0mg"},{"bike_id":"05a2b59b-ab2d-4c99-ae3e-86f6d80b8d5c","system_id":"levelo_inurba_marseille","lat":43.28418,"lon":5.34978,"is_reserved":false,"is_disabled":false,"rental_uris":{"android":"levelo://app?vid=05a2b59b-ab2d-4c99-ae3e-86f6d80b8d5c","ios":"levelo://app?vid=05a2b59b-ab2d-4c99-ae3e-86f6d80b8d5c"},"vehicle_type_id":"4","last_reported":1722175630,"current_range_meters":16400,"station_id":"ce4bhbh2rcd13ifvqepg","pricing_plan_id":"cebpf4jnsgd1na2vs0mg"},{"bike_id":"65208ef2-ef29-4b00-9485-ad8951d2da99","system_id":"levelo_inurba_marseille","lat":43.284137,"lon":5.349899,"is_reserved":false,"is_disabled":false,"rental_uris":{"android":"levelo://app?vid=65208ef2-ef29-4b00-9485-ad8951d2da99","ios":"levelo://app?vid=65208ef2-ef29-4b00-9485-ad8951d2da99"},"vehicle_type_id":"4","last_reported":1722175630,"current_range_meters":13200,"station_id":"ce4bhbh2rcd13ifvqepg","pricing_plan_id":"cebpf4jnsgd1na2vs0mg"},{"bike_id":"6be465c5-e3ed-415f-bf42-ca3aee530dfe","system_id":"levelo_inurba_marseille","lat":43.28417,"lon":5.34979,"is_reserved":false,"is_disabled":false,"rental_uris":{"android":"levelo://app?vid=6be465c5-e3ed-415f-bf42-ca3aee530dfe","ios":"levelo://app?vid=6be465c5-e3ed-415f-bf42-ca3aee530dfe"},"vehicle_type_id":"4","last_reported":1722175630,"current_range_meters":10400,"station_id":"ce4bhbh2rcd13ifvqepg","pricing_plan_id":"cebpf4jnsgd1na2vs0mg"},{"bike_id":"e5c0d479-3048-46dd-9854-1f599cef54d8","system_id":"levelo_inurba_marseille","lat":43.284219,"lon":5.3497,"is_reserved":false,"is_disabled":false,"rental_uris":{"android":"levelo://app?vid=e5c0d479-3048-46dd-9854-1f599cef54d8","ios":"levelo://app?vid=e5c0d479-3048-46dd-9854-1f599cef54d8"},"vehicle_type_id":"4","last_reported":1722175630,"current_range_meters":31600,"station_id":"ce4bhbh2rcd13ifvqepg","pricing_plan_id":"cebpf4jnsgd1na2vs0mg"},{"bike_id":"595893ca-341b-46e4-afb9-7d49bc8da4a5","system_id":"levelo_inurba_marseille","lat":43.284119,"lon":5.349933,"is_reserved":false,"is_disabled":false,"rental_uris":{"android":"levelo://app?vid=595893ca-341b-46e4-afb9-7d49bc8da4a5","ios":"levelo://app?vid=595893ca-341b-46e4-afb9-7d49bc8da4a5"},"vehicle_type_id":"4","last_reported":1722175630,"current_range_meters":23200,"station_id":"ce4bhbh2rcd13ifvqepg","pricing_plan_id":"cebpf4jnsgd1na2vs0mg"},{"bike_id":"5bcccf47-68e2-4114-8dcb-586ed3ab51ab","system_id":"levelo_inurba_marseille","lat":43.284219,"lon":5.3497,"is_reserved":false,"is_disabled":false,"rental_uris":{"android":"levelo://app?vid=5bcccf47-68e2-4114-8dcb-586ed3ab51ab","ios":"levelo://app?vid=5bcccf47-68e2-4114-8dcb-586ed3ab51ab"},"vehicle_type_id":"4","last_reported":1722175630,"current_range_meters":9200,"station_id":"ce4bhbh2rcd13ifvqepg","pricing_plan_id":"cebpf4jnsgd1na2vs0mg"},{"bike_id":"c30a0bd6-432a-4179-8c30-bf2700ba18a1","system_id":"levelo_inurba_marseille","lat":43.28411,"lon":5.34995,"is_reserved":false,"is_disabled":false,"rental_uris":{"android":"levelo://app?vid=c30a0bd6-432a-4179-8c30-bf2700ba18a1","ios":"levelo://app?vid=c30a0bd6-432a-4179-8c30-bf2700ba18a1"},"vehicle_type_id":"4","last_reported":1722175630,"current_range_meters":26400,"station_id":"ce4bhbh2rcd13ifvqepg","pricing_plan_id":"cebpf4jnsgd1na2vs0mg"},{"bike_id":"436f6a65-c7c0-46ce-abc3-49683121e043","system_id":"levelo_inurba_marseille","lat":43.284101,"lon":5.349855,"is_reserved":false,"is_disabled":false,"rental_uris":{"android":"levelo://app?vid=436f6a65-c7c0-46ce-abc3-49683121e043","ios":"levelo://app?vid=436f6a65-c7c0-46ce-abc3-49683121e043"},"vehicle_type_id":"4","last_reported":1722175630,"current_range_meters":15600,"station_id":"ce4bhbh2rcd13ifvqepg","pricing_plan_id":"cebpf4jnsgd1na2vs0mg"},{"bike_id":"22652bd1-43e7-4f3b-8639-5b94c3e0ceda","system_id":"levelo_inurba_marseille","lat":43.284045,"lon":5.34999,"is_reserved":false,"is_disabled":false,"rental_uris":{"android":"levelo://app?vid=22652bd1-43e7-4f3b-8639-5b94c3e0ceda","ios":"levelo://app?vid=22652bd1-43e7-4f3b-8639-5b94c3e0ceda"},"vehicle_type_id":"4","last_reported":1722175630,"current_range_meters":22000,"station_id":"ce4bhbh2rcd13ifvqepg","pricing_plan_id":"cebpf4jnsgd1na2vs0mg"},{"bike_id":"14ddf4d8-5d3a-4aca-80d3-bbcd673ba22b","system_id":"levelo_inurba_marseille","lat":43.284065,"lon":5.34985,"is_reserved":false,"is_disabled":false,"rental_uris":{"android":"levelo://app?vid=14ddf4d8-5d3a-4aca-80d3-bbcd673ba22b","ios":"levelo://app?vid=14ddf4d8-5d3a-4aca-80d3-bbcd673ba22b"},"vehicle_type_id":"4","last_reported":1722175630,"current_range_meters":12000,"station_id":"ce4bhbh2rcd13ifvqepg","pricing_plan_id":"cebpf4jnsgd1na2vs0mg"},{"bike_id":"f67cb7dc-3a78-46ef-9cab-00f84ca248ed","system_id":"levelo_inurba_marseille","lat":43.284044,"lon":5.349843,"is_reserved":false,"is_disabled":false,"rental_uris":{"android":"levelo://app?vid=f67cb7dc-3a78-46ef-9cab-00f84ca248ed","ios":"levelo://app?vid=f67cb7dc-3a78-46ef-9cab-00f84ca248ed"},"vehicle_type_id":"4","last_reported":1722175630,"current_range_meters":4800,"station_id":"ce4bhbh2rcd13ifvqepg","pricing_plan_id":"cebpf4jnsgd1na2vs0mg"},{"bike_id":"f5e47feb-f9d8-40e5-9326-fbe4a71fc1a7","system_id":"levelo_inurba_marseille","lat":43.283095,"lon":5.352478,"is_reserved":false,"is_disabled":false,"rental_uris":{"android":"levelo://app?vid=f5e47feb-f9d8-40e5-9326-fbe4a71fc1a7","ios":"levelo://app?vid=f5e47feb-f9d8-40e5-9326-fbe4a71fc1a7"},"vehicle_type_id":"4","last_reported":1722175630,"current_range_meters":13200,"station_id":"ce4bhbh2rcd13ifvqepg","pricing_plan_id":"cebpf4jnsgd1na2vs0mg"},{"bike_id":"17439842-f51a-46ba-a0b2-44e4b92dc3c3","system_id":"levelo_inurba_marseille","lat":43.289376,"lon":5.396188,"is_reserved":false,"is_disabled":false,"rental_uris":{"android":"levelo://app?vid=17439842-f51a-46ba-a0b2-44e4b92dc3c3","ios":"levelo://app?vid=17439842-f51a-46ba-a0b2-44e4b92dc3c3"},"vehicle_type_id":"4","last_reported":1722175630,"current_range_meters":0,"station_id":"ce4bh3h2rcd13ifvqdn0","pricing_plan_id":"cebpf4jnsgd1na2vs0mg"},{"bike_id":"5f4b88a5-5ec4-41e7-b6fc-c403d1fa9ba5","system_id":"levelo_inurba_marseille","lat":43.283502,"lon":5.386471,"is_reserved":false,"is_disabled":false,"rental_uris":{"android":"levelo://app?vid=5f4b88a5-5ec4-41e7-b6fc-c403d1fa9ba5","ios":"levelo://app?vid=5f4b88a5-5ec4-41e7-b6fc-c403d1fa9ba5"},"vehicle_type_id":"4","last_reported":1722175630,"current_range_meters":2000,"station_id":"ce4bh492rcd13ifvqdvg","pricing_plan_id":"cebpf4jnsgd1na2vs0mg"},{"bike_id":"282819bd-e6b3-4e1c-bff2-dd0b464f2236","system_id":"levelo_inurba_marseille","lat":43.282744,"lon":5.350533,"is_reserved":false,"is_disabled":false,"rental_uris":{"android":"levelo://app?vid=282819bd-e6b3-4e1c-bff2-dd0b464f2236","ios":"levelo://app?vid=282819bd-e6b3-4e1c-bff2-dd0b464f2236"},"vehicle_type_id":"4","last_reported":1722175630,"current_range_meters":0,"station_id":"ce4bhbp2rcd13ifvqerg","pricing_plan_id":"cebpf4jnsgd1na2vs0mg"},{"bike_id":"d5407db6-56d5-4465-8c5a-0f29c30529fa","system_id":"levelo_inurba_marseille","lat":43.282744,"lon":5.350533,"is_reserved":false,"is_disabled":false,"rental_uris":{"android":"levelo://app?vid=d5407db6-56d5-4465-8c5a-0f29c30529fa","ios":"levelo://app?vid=d5407db6-56d5-4465-8c5a-0f29c30529fa"},"vehicle_type_id":"4","last_reported":1722175630,"current_range_meters":1200,"station_id":"ce4bhbp2rcd13ifvqerg","pricing_plan_id":"cebpf4jnsgd1na2vs0mg"},{"bike_id":"1ee562e0-1c59-4824-b1e4-39181633ca86","system_id":"levelo_inurba_marseille","lat":43.282744,"lon":5.350533,"is_reserved":false,"is_disabled":false,"rental_uris":{"android":"levelo://app?vid=1ee562e0-1c59-4824-b1e4-39181633ca86","ios":"levelo://app?vid=1ee562e0-1c59-4824-b1e4-39181633ca86"},"vehicle_type_id":"4","last_reported":1722175630,"current_range_meters":25200,"station_id":"ce4bhbp2rcd13ifvqerg","pricing_plan_id":"cebpf4jnsgd1na2vs0mg"},{"bike_id":"48209f47-6229-4205-8d14-94442e8d646d","system_id":"levelo_inurba_marseille","lat":43.282744,"lon":5.350533,"is_reserved":false,"is_disabled":false,"rental_uris":{"android":"levelo://app?vid=48209f47-6229-4205-8d14-94442e8d646d","ios":"levelo://app?vid=48209f47-6229-4205-8d14-94442e8d646d"},"vehicle_type_id":"4","last_reported":1722175630,"current_range_meters":18000,"station_id":"ce4bhbp2rcd13ifvqerg","pricing_plan_id":"cebpf4jnsgd1na2vs0mg"},{"bike_id":"f02fa4d4-945c-4da7-a25d-a4172748276c","system_id":"levelo_inurba_marseille","lat":43.28274,"lon":5.35061,"is_reserved":false,"is_disabled":false,"rental_uris":{"android":"levelo://app?vid=f02fa4d4-945c-4da7-a25d-a4172748276c","ios":"levelo://app?vid=f02fa4d4-945c-4da7-a25d-a4172748276c"},"vehicle_type_id":"4","last_reported":1722175630,"current_range_meters":9600,"station_id":"ce4bhbp2rcd13ifvqerg","pricing_plan_id":"cebpf4jnsgd1na2vs0mg"},{"bike_id":"cc9bc7b2-1517-435b-83c3-d13a3236b16f","system_id":"levelo_inurba_marseille","lat":43.28274,"lon":5.35057,"is_reserved":false,"is_disabled":false,"rental_uris":{"android":"levelo://app?vid=cc9bc7b2-1517-435b-83c3-d13a3236b16f","ios":"levelo://app?vid=cc9bc7b2-1517-435b-83c3-d13a3236b16f"},"vehicle_type_id":"4","last_reported":1722175630,"current_range_meters":5600,"station_id":"ce4bhbp2rcd13ifvqerg","pricing_plan_id":"cebpf4jnsgd1na2vs0mg"},{"bike_id":"47a80419-7786-4d20-a06d-7686aec1ec97","system_id":"levelo_inurba_marseille","lat":43.282744,"lon":5.350533,"is_reserved":false,"is_disabled":false,"rental_uris":{"android":"levelo://app?vid=47a80419-7786-4d20-a06d-7686aec1ec97","ios":"levelo://app?vid=47a80419-7786-4d20-a06d-7686aec1ec97"},"vehicle_type_id":"4","last_reported":1722175630,"current_range_meters":3200,"station_id":"ce4bhbp2rcd13ifvqerg","pricing_plan_id":"cebpf4jnsgd1na2vs0mg"},{"bike_id":"33dc4b0c-7995-4f04-a850-0046f828c7dd","system_id":"levelo_inurba_marseille","lat":43.282744,"lon":5.350533,"is_reserved":false,"is_disabled":false,"rental_uris":{"android":"levelo://app?vid=33dc4b0c-7995-4f04-a850-0046f828c7dd","ios":"levelo://app?vid=33dc4b0c-7995-4f04-a850-0046f828c7dd"},"vehicle_type_id":"4","last_reported":1722175630,"current_range_meters":27200,"station_id":"ce4bhbp2rcd13ifvqerg","pricing_plan_id":"cebpf4jnsgd1na2vs0mg"},{"bike_id":"b4076ad0-9083-4bf5-81b9-2f71e3c21b2c","system_id":"levelo_inurba_marseille","lat":43.28268,"lon":5.35075,"is_reserved":false,"is_disabled":false,"rental_uris":{"android":"levelo://app?vid=b4076ad0-9083-4bf5-81b9-2f71e3c21b2c","ios":"levelo://app?vid=b4076ad0-9083-4bf5-81b9-2f71e3c21b2c"},"vehicle_type_id":"4","last_reported":1722175630,"current_range_meters":0,"station_id":"ce4bhbp2rcd13ifvqerg","pricing_plan_id":"cebpf4jnsgd1na2vs0mg"},{"bike_id":"5db884bc-b035-4d1e-8dfc-b3f9ce374d55","system_id":"levelo_inurba_marseille","lat":43.2827,"lon":5.35064,"is_reserved":false,"is_disabled":false,"rental_uris":{"android":"levelo://app?vid=5db884bc-b035-4d1e-8dfc-b3f9ce374d55","ios":"levelo://app?vid=5db884bc-b035-4d1e-8dfc-b3f9ce374d55"},"vehicle_type_id":"4","last_reported":1722175630,"current_range_meters":1200,"station_id":"ce4bhbp2rcd13ifvqerg","pricing_plan_id":"cebpf4jnsgd1na2vs0mg"},{"bike_id":"c6d8b4ca-5724-46c6-a97e-1daefb212980","system_id":"levelo_inurba_marseille","lat":43.28271,"lon":5.3506,"is_reserved":false,"is_disabled":false,"rental_uris":{"android":"levelo://app?vid=c6d8b4ca-5724-46c6-a97e-1daefb212980","ios":"levelo://app?vid=c6d8b4ca-5724-46c6-a97e-1daefb212980"},"vehicle_type_id":"4","last_reported":1722175630,"current_range_meters":0,"station_id":"ce4bhbp2rcd13ifvqerg","pricing_plan_id":"cebpf4jnsgd1na2vs0mg"},{"bike_id":"f8a2cf19-97a8-489d-af13-6538b2176385","system_id":"levelo_inurba_marseille","lat":43.282744,"lon":5.350533,"is_reserved":false,"is_disabled":false,"rental_uris":{"android":"levelo://app?vid=f8a2cf19-97a8-489d-af13-6538b2176385","ios":"levelo://app?vid=f8a2cf19-97a8-489d-af13-6538b2176385"},"vehicle_type_id":"4","last_reported":1722175630,"current_range_meters":2800,"station_id":"ce4bhbp2rcd13ifvqerg","pricing_plan_id":"cebpf4jnsgd1na2vs0mg"},{"bike_id":"98ee1953-a10f-40b0-9466-9d8b541ea5a0","system_id":"levelo_inurba_marseille","lat":43.28265,"lon":5.350716,"is_reserved":false,"is_disabled":false,"rental_uris":{"android":"levelo://app?vid=98ee1953-a10f-40b0-9466-9d8b541ea5a0","ios":"levelo://app?vid=98ee1953-a10f-40b0-9466-9d8b541ea5a0"},"vehicle_type_id":"4","last_reported":1722175630,"current_range_meters":2800,"station_id":"ce4bhbp2rcd13ifvqerg","pricing_plan_id":"cebpf4jnsgd1na2vs0mg"},{"bike_id":"e65515bb-5194-4e00-a3fb-61cf117b45e8","system_id":"levelo_inurba_marseille","lat":43.28268,"lon":5.3506,"is_reserved":false,"is_disabled":false,"rental_uris":{"android":"levelo://app?vid=e65515bb-5194-4e00-a3fb-61cf117b45e8","ios":"levelo://app?vid=e65515bb-5194-4e00-a3fb-61cf117b45e8"},"vehicle_type_id":"4","last_reported":1722175630,"current_range_meters":6400,"station_id":"ce4bhbp2rcd13ifvqerg","pricing_plan_id":"cebpf4jnsgd1na2vs0mg"},{"bike_id":"5d50faaa-5738-4bd7-adb3-8eadd9278ad7","system_id":"levelo_inurba_marseille","lat":43.28266,"lon":5.35061,"is_reserved":false,"is_disabled":false,"rental_uris":{"android":"levelo://app?vid=5d50faaa-5738-4bd7-adb3-8eadd9278ad7","ios":"levelo://app?vid=5d50faaa-5738-4bd7-adb3-8eadd9278ad7"},"vehicle_type_id":"4","last_reported":1722175630,"current_range_meters":26400,"station_id":"ce4bhbp2rcd13ifvqerg","pricing_plan_id":"cebpf4jnsgd1na2vs0mg"},{"bike_id":"1e83e75c-9f99-41e6-840d-1ace419a1008","system_id":"levelo_inurba_marseille","lat":43.2826,"lon":5.35082,"is_reserved":false,"is_disabled":false,"rental_uris":{"android":"levelo://app?vid=1e83e75c-9f99-41e6-840d-1ace419a1008","ios":"levelo://app?vid=1e83e75c-9f99-41e6-840d-1ace419a1008"},"vehicle_type_id":"4","last_reported":1722175630,"current_range_meters":0,"station_id":"ce4bhbp2rcd13ifvqerg","pricing_plan_id":"cebpf4jnsgd1na2vs0mg"},{"bike_id":"3c82fc9c-2b47-42c9-9df9-988383fe32d3","system_id":"levelo_inurba_marseille","lat":43.282754,"lon":5.350519,"is_reserved":false,"is_disabled":false,"rental_uris":{"android":"levelo://app?vid=3c82fc9c-2b47-42c9-9df9-988383fe32d3","ios":"levelo://app?vid=3c82fc9c-2b47-42c9-9df9-988383fe32d3"},"vehicle_type_id":"4","last_reported":1722175630,"current_range_meters":19200,"station_id":"ce4bhbp2rcd13ifvqerg","pricing_plan_id":"cebpf4jnsgd1na2vs0mg"},{"bike_id":"85134e26-1c59-4165-8edf-fde12433018c","system_id":"levelo_inurba_marseille","lat":43.282623,"lon":5.350697,"is_reserved":false,"is_disabled":false,"rental_uris":{"android":"levelo://app?vid=85134e26-1c59-4165-8edf-fde12433018c","ios":"levelo://app?vid=85134e26-1c59-4165-8edf-fde12433018c"},"vehicle_type_id":"4","last_reported":1722175630,"current_range_meters":6000,"station_id":"ce4bhbp2rcd13ifvqerg","pricing_plan_id":"cebpf4jnsgd1na2vs0mg"},{"bike_id":"3fdb4621-3b37-4e69-9ef4-7d956cc89ec4","system_id":"levelo_inurba_marseille","lat":43.2826,"lon":5.35076,"is_reserved":false,"is_disabled":false,"rental_uris":{"android":"levelo://app?vid=3fdb4621-3b37-4e69-9ef4-7d956cc89ec4","ios":"levelo://app?vid=3fdb4621-3b37-4e69-9ef4-7d956cc89ec4"},"vehicle_type_id":"4","last_reported":1722175630,"current_range_meters":29200,"station_id":"ce4bhbp2rcd13ifvqerg","pricing_plan_id":"cebpf4jnsgd1na2vs0mg"},{"bike_id":"0c09e4d3-d7af-4a66-bc1b-4abe5a4d4815","system_id":"levelo_inurba_marseille","lat":43.28043,"lon":5.36936,"is_reserved":false,"is_disabled":false,"rental_uris":{"android":"levelo://app?vid=0c09e4d3-d7af-4a66-bc1b-4abe5a4d4815","ios":"levelo://app?vid=0c09e4d3-d7af-4a66-bc1b-4abe5a4d4815"},"vehicle_type_id":"4","last_reported":1722175630,"current_range_meters":0,"station_id":"ce4bha12rcd13ifvqef0","pricing_plan_id":"cebpf4jnsgd1na2vs0mg"},{"bike_id":"3bb4a3bf-4d06-4885-b59e-9b2d2367b225","system_id":"levelo_inurba_marseille","lat":43.280307,"lon":5.369463,"is_reserved":false,"is_disabled":false,"rental_uris":{"android":"levelo://app?vid=3bb4a3bf-4d06-4885-b59e-9b2d2367b225","ios":"levelo://app?vid=3bb4a3bf-4d06-4885-b59e-9b2d2367b225"},"vehicle_type_id":"4","last_reported":1722175630,"current_range_meters":0,"station_id":"ce4bha12rcd13ifvqef0","pricing_plan_id":"cebpf4jnsgd1na2vs0mg"},{"bike_id":"e8080547-572f-47d1-bde8-ffc26f12c275","system_id":"levelo_inurba_marseille","lat":43.34091,"lon":5.39103,"is_reserved":false,"is_disabled":false,"rental_uris":{"android":"levelo://app?vid=e8080547-572f-47d1-bde8-ffc26f12c275","ios":"levelo://app?vid=e8080547-572f-47d1-bde8-ffc26f12c275"},"vehicle_type_id":"4","last_reported":1722175630,"current_range_meters":8800,"station_id":"","pricing_plan_id":"cebpf4jnsgd1na2vs0mg"},{"bike_id":"c84ef0ac-e9b5-49b9-b9a3-cd1c3346e515","system_id":"levelo_inurba_marseille","lat":43.284443,"lon":5.391953,"is_reserved":false,"is_disabled":false,"rental_uris":{"android":"levelo://app?vid=c84ef0ac-e9b5-49b9-b9a3-cd1c3346e515","ios":"levelo://app?vid=c84ef0ac-e9b5-49b9-b9a3-cd1c3346e515"},"vehicle_type_id":"4","last_reported":1722175630,"current_range_meters":17600,"station_id":"ce4bhoh2rcd13ifvqh5g","pricing_plan_id":"cebpf4jnsgd1na2vs0mg"},{"bike_id":"f0a77d1b-31df-4cb3-a65b-05a2fd0dc828","system_id":"levelo_inurba_marseille","lat":43.284462,"lon":5.392121,"is_reserved":false,"is_disabled":false,"rental_uris":{"android":"levelo://app?vid=f0a77d1b-31df-4cb3-a65b-05a2fd0dc828","ios":"levelo://app?vid=f0a77d1b-31df-4cb3-a65b-05a2fd0dc828"},"vehicle_type_id":"4","last_reported":1722175630,"current_range_meters":0,"station_id":"ce4bhoh2rcd13ifvqh5g","pricing_plan_id":"cebpf4jnsgd1na2vs0mg"},{"bike_id":"471b581c-3c36-469e-bf8f-262bd982c2cf","system_id":"levelo_inurba_marseille","lat":43.284462,"lon":5.392121,"is_reserved":false,"is_disabled":false,"rental_uris":{"android":"levelo://app?vid=471b581c-3c36-469e-bf8f-262bd982c2cf","ios":"levelo://app?vid=471b581c-3c36-469e-bf8f-262bd982c2cf"},"vehicle_type_id":"4","last_reported":1722175630,"current_range_meters":28000,"station_id":"ce4bhoh2rcd13ifvqh5g","pricing_plan_id":"cebpf4jnsgd1na2vs0mg"},{"bike_id":"48868a67-daba-4d8f-8aef-700d9d70d8f1","system_id":"levelo_inurba_marseille","lat":43.347816,"lon":5.373733,"is_reserved":false,"is_disabled":false,"rental_uris":{"android":"levelo://app?vid=48868a67-daba-4d8f-8aef-700d9d70d8f1","ios":"levelo://app?vid=48868a67-daba-4d8f-8aef-700d9d70d8f1"},"vehicle_type_id":"4","last_reported":1722175630,"current_range_meters":9200,"station_id":"","pricing_plan_id":"cebpf4jnsgd1na2vs0mg"},{"bike_id":"330deabc-97e9-4706-8d35-42020c86eec8","system_id":"levelo_inurba_marseille","lat":43.279742,"lon":5.38744,"is_reserved":false,"is_disabled":false,"rental_uris":{"android":"levelo://app?vid=330deabc-97e9-4706-8d35-42020c86eec8","ios":"levelo://app?vid=330deabc-97e9-4706-8d35-42020c86eec8"},"vehicle_type_id":"4","last_reported":1722175630,"current_range_meters":18400,"station_id":"ce4bhg12rcd13ifvqf80","pricing_plan_id":"cebpf4jnsgd1na2vs0mg"},{"bike_id":"99d5fb42-23d2-4453-b911-44ed34ebd164","system_id":"levelo_inurba_marseille","lat":43.320045,"lon":5.415046,"is_reserved":false,"is_disabled":false,"rental_uris":{"android":"levelo://app?vid=99d5fb42-23d2-4453-b911-44ed34ebd164","ios":"levelo://app?vid=99d5fb42-23d2-4453-b911-44ed34ebd164"},"vehicle_type_id":"4","last_reported":1722175630,"current_range_meters":4000,"station_id":"ce4bhq92rcd13ifvqhkg","pricing_plan_id":"cebpf4jnsgd1na2vs0mg"},{"bike_id":"517b4365-d468-4f71-8611-68d1e91ccf41","system_id":"levelo_inurba_marseille","lat":43.3205,"lon":5.41563,"is_reserved":false,"is_disabled":false,"rental_uris":{"android":"levelo://app?vid=517b4365-d468-4f71-8611-68d1e91ccf41","ios":"levelo://app?vid=517b4365-d468-4f71-8611-68d1e91ccf41"},"vehicle_type_id":"4","last_reported":1722175630,"current_range_meters":3600,"station_id":"ce4bhq92rcd13ifvqhkg","pricing_plan_id":"cebpf4jnsgd1na2vs0mg"},{"bike_id":"b8262cb6-56c1-4c49-a328-ee72f0c71105","system_id":"levelo_inurba_marseille","lat":43.279742,"lon":5.38744,"is_reserved":false,"is_disabled":false,"rental_uris":{"android":"levelo://app?vid=b8262cb6-56c1-4c49-a328-ee72f0c71105","ios":"levelo://app?vid=b8262cb6-56c1-4c49-a328-ee72f0c71105"},"vehicle_type_id":"4","last_reported":1722175630,"current_range_meters":15200,"station_id":"ce4bhg12rcd13ifvqf80","pricing_plan_id":"cebpf4jnsgd1na2vs0mg"},{"bike_id":"a17bbf28-ba85-454f-95c5-58d5dfe850b6","system_id":"levelo_inurba_marseille","lat":43.325233,"lon":5.414318,"is_reserved":false,"is_disabled":false,"rental_uris":{"android":"levelo://app?vid=a17bbf28-ba85-454f-95c5-58d5dfe850b6","ios":"levelo://app?vid=a17bbf28-ba85-454f-95c5-58d5dfe850b6"},"vehicle_type_id":"4","last_reported":1722175630,"current_range_meters":13200,"station_id":"ce4bhq12rcd13ifvqhhg","pricing_plan_id":"cebpf4jnsgd1na2vs0mg"},{"bike_id":"aca80192-c3a6-4548-9c89-282c963ea840","system_id":"levelo_inurba_marseille","lat":43.27624,"lon":5.36106,"is_reserved":false,"is_disabled":false,"rental_uris":{"android":"levelo://app?vid=aca80192-c3a6-4548-9c89-282c963ea840","ios":"levelo://app?vid=aca80192-c3a6-4548-9c89-282c963ea840"},"vehicle_type_id":"4","last_reported":1722175630,"current_range_meters":24400,"station_id":"ce4bgj92rcd13ifvqbe0","pricing_plan_id":"cebpf4jnsgd1na2vs0mg"},{"bike_id":"1100654e-439b-4f5b-8a5d-31ef7b1a0e29","system_id":"levelo_inurba_marseille","lat":43.292571,"lon":5.409107,"is_reserved":false,"is_disabled":false,"rental_uris":{"android":"levelo://app?vid=1100654e-439b-4f5b-8a5d-31ef7b1a0e29","ios":"levelo://app?vid=1100654e-439b-4f5b-8a5d-31ef7b1a0e29"},"vehicle_type_id":"4","last_reported":1722175630,"current_range_meters":0,"station_id":"ce4bh192rcd13ifvqdc0","pricing_plan_id":"cebpf4jnsgd1na2vs0mg"},{"bike_id":"41b3c674-b24c-4305-aa54-531e8d9bdd2f","system_id":"levelo_inurba_marseille","lat":43.27618,"lon":5.361009,"is_reserved":false,"is_disabled":false,"rental_uris":{"android":"levelo://app?vid=41b3c674-b24c-4305-aa54-531e8d9bdd2f","ios":"levelo://app?vid=41b3c674-b24c-4305-aa54-531e8d9bdd2f"},"vehicle_type_id":"4","last_reported":1722175630,"current_range_meters":14000,"station_id":"ce4bgj92rcd13ifvqbe0","pricing_plan_id":"cebpf4jnsgd1na2vs0mg"},{"bike_id":"ad68280f-919e-448b-8d6b-efbb7beba03d","system_id":"levelo_inurba_marseille","lat":43.325233,"lon":5.414318,"is_reserved":false,"is_disabled":false,"rental_uris":{"android":"levelo://app?vid=ad68280f-919e-448b-8d6b-efbb7beba03d","ios":"levelo://app?vid=ad68280f-919e-448b-8d6b-efbb7beba03d"},"vehicle_type_id":"4","last_reported":1722175630,"current_range_meters":31600,"station_id":"ce4bhq12rcd13ifvqhhg","pricing_plan_id":"cebpf4jnsgd1na2vs0mg"},{"bike_id":"3eb9248d-7400-4d0a-9db7-83f863b3b3fd","system_id":"levelo_inurba_marseille","lat":43.27619,"lon":5.36106,"is_reserved":false,"is_disabled":false,"rental_uris":{"android":"levelo://app?vid=3eb9248d-7400-4d0a-9db7-83f863b3b3fd","ios":"levelo://app?vid=3eb9248d-7400-4d0a-9db7-83f863b3b3fd"},"vehicle_type_id":"4","last_reported":1722175630,"current_range_meters":22800,"station_id":"ce4bgj92rcd13ifvqbe0","pricing_plan_id":"cebpf4jnsgd1na2vs0mg"},{"bike_id":"0752e209-b608-42af-876c-750ae14ee971","system_id":"levelo_inurba_marseille","lat":43.27618,"lon":5.361009,"is_reserved":false,"is_disabled":false,"rental_uris":{"android":"levelo://app?vid=0752e209-b608-42af-876c-750ae14ee971","ios":"levelo://app?vid=0752e209-b608-42af-876c-750ae14ee971"},"vehicle_type_id":"4","last_reported":1722175630,"current_range_meters":8000,"station_id":"ce4bgj92rcd13ifvqbe0","pricing_plan_id":"cebpf4jnsgd1na2vs0mg"},{"bike_id":"b2551482-d4dd-47d2-8c42-36d985e3279c","system_id":"levelo_inurba_marseille","lat":43.276187,"lon":5.361052,"is_reserved":false,"is_disabled":false,"rental_uris":{"android":"levelo://app?vid=b2551482-d4dd-47d2-8c42-36d985e3279c","ios":"levelo://app?vid=b2551482-d4dd-47d2-8c42-36d985e3279c"},"vehicle_type_id":"4","last_reported":1722175630,"current_range_meters":15200,"station_id":"ce4bgj92rcd13ifvqbe0","pricing_plan_id":"cebpf4jnsgd1na2vs0mg"},{"bike_id":"6aec196d-efb5-40d3-9f41-f6a5183e6a2e","system_id":"levelo_inurba_marseille","lat":43.27618,"lon":5.361009,"is_reserved":false,"is_disabled":false,"rental_uris":{"android":"levelo://app?vid=6aec196d-efb5-40d3-9f41-f6a5183e6a2e","ios":"levelo://app?vid=6aec196d-efb5-40d3-9f41-f6a5183e6a2e"},"vehicle_type_id":"4","last_reported":1722175630,"current_range_meters":21600,"station_id":"ce4bgj92rcd13ifvqbe0","pricing_plan_id":"cebpf4jnsgd1na2vs0mg"},{"bike_id":"075026db-c763-4211-8607-f008b5e8e8b8","system_id":"levelo_inurba_marseille","lat":43.276179,"lon":5.361009,"is_reserved":false,"is_disabled":false,"rental_uris":{"android":"levelo://app?vid=075026db-c763-4211-8607-f008b5e8e8b8","ios":"levelo://app?vid=075026db-c763-4211-8607-f008b5e8e8b8"},"vehicle_type_id":"4","last_reported":1722175630,"current_range_meters":11600,"station_id":"ce4bgj92rcd13ifvqbe0","pricing_plan_id":"cebpf4jnsgd1na2vs0mg"},{"bike_id":"48547892-e257-4079-af67-fbd20c771d28","system_id":"levelo_inurba_marseille","lat":43.27615,"lon":5.36102,"is_reserved":false,"is_disabled":false,"rental_uris":{"android":"levelo://app?vid=48547892-e257-4079-af67-fbd20c771d28","ios":"levelo://app?vid=48547892-e257-4079-af67-fbd20c771d28"},"vehicle_type_id":"4","last_reported":1722175630,"current_range_meters":23600,"station_id":"ce4bgj92rcd13ifvqbe0","pricing_plan_id":"cebpf4jnsgd1na2vs0mg"},{"bike_id":"96de632e-6e11-4f7e-93e3-6e171162e656","system_id":"levelo_inurba_marseille","lat":43.325243,"lon":5.414326,"is_reserved":false,"is_disabled":false,"rental_uris":{"android":"levelo://app?vid=96de632e-6e11-4f7e-93e3-6e171162e656","ios":"levelo://app?vid=96de632e-6e11-4f7e-93e3-6e171162e656"},"vehicle_type_id":"4","last_reported":1722175630,"current_range_meters":28800,"station_id":"ce4bhq12rcd13ifvqhhg","pricing_plan_id":"cebpf4jnsgd1na2vs0mg"},{"bike_id":"6ae12ebe-49de-485c-8ee1-831b14ec683e","system_id":"levelo_inurba_marseille","lat":43.325243,"lon":5.414326,"is_reserved":false,"is_disabled":false,"rental_uris":{"android":"levelo://app?vid=6ae12ebe-49de-485c-8ee1-831b14ec683e","ios":"levelo://app?vid=6ae12ebe-49de-485c-8ee1-831b14ec683e"},"vehicle_type_id":"4","last_reported":1722175630,"current_range_meters":28800,"station_id":"ce4bhq12rcd13ifvqhhg","pricing_plan_id":"cebpf4jnsgd1na2vs0mg"},{"bike_id":"2b9468c1-d213-4bfc-9af7-4f29373d4513","system_id":"levelo_inurba_marseille","lat":43.325332,"lon":5.414557,"is_reserved":false,"is_disabled":false,"rental_uris":{"android":"levelo://app?vid=2b9468c1-d213-4bfc-9af7-4f29373d4513","ios":"levelo://app?vid=2b9468c1-d213-4bfc-9af7-4f29373d4513"},"vehicle_type_id":"4","last_reported":1722175630,"current_range_meters":26800,"station_id":"ce4bhq12rcd13ifvqhhg","pricing_plan_id":"cebpf4jnsgd1na2vs0mg"},{"bike_id":"1198cbf0-0d38-457d-a199-03468b357a72","system_id":"levelo_inurba_marseille","lat":43.27618,"lon":5.361009,"is_reserved":false,"is_disabled":false,"rental_uris":{"android":"levelo://app?vid=1198cbf0-0d38-457d-a199-03468b357a72","ios":"levelo://app?vid=1198cbf0-0d38-457d-a199-03468b357a72"},"vehicle_type_id":"4","last_reported":1722175630,"current_range_meters":14800,"station_id":"ce4bgj92rcd13ifvqbe0","pricing_plan_id":"cebpf4jnsgd1na2vs0mg"},{"bike_id":"deba30e4-df9d-4cad-87b8-52ab778b4a37","system_id":"levelo_inurba_marseille","lat":43.303837,"lon":5.418724,"is_reserved":false,"is_disabled":false,"rental_uris":{"android":"levelo://app?vid=deba30e4-df9d-4cad-87b8-52ab778b4a37","ios":"levelo://app?vid=deba30e4-df9d-4cad-87b8-52ab778b4a37"},"vehicle_type_id":"4","last_reported":1722175630,"current_range_meters":19200,"station_id":"ce4bhop2rcd13ifvqh7g","pricing_plan_id":"cebpf4jnsgd1na2vs0mg"},{"bike_id":"50b6f9c8-dc09-4fa6-b9ae-63f936a3c34d","system_id":"levelo_inurba_marseille","lat":43.278399,"lon":5.392139,"is_reserved":false,"is_disabled":false,"rental_uris":{"android":"levelo://app?vid=50b6f9c8-dc09-4fa6-b9ae-63f936a3c34d","ios":"levelo://app?vid=50b6f9c8-dc09-4fa6-b9ae-63f936a3c34d"},"vehicle_type_id":"4","last_reported":1722175630,"current_range_meters":1200,"station_id":"ce4bhjp2rcd13ifvqga0","pricing_plan_id":"cebpf4jnsgd1na2vs0mg"},{"bike_id":"2d788056-f77f-4c2e-88c6-f02fe999cc3b","system_id":"levelo_inurba_marseille","lat":43.278399,"lon":5.392139,"is_reserved":false,"is_disabled":false,"rental_uris":{"android":"levelo://app?vid=2d788056-f77f-4c2e-88c6-f02fe999cc3b","ios":"levelo://app?vid=2d788056-f77f-4c2e-88c6-f02fe999cc3b"},