{"last_updated":1728832134,"ttl":60,"version":"2.2","data":{"bikes":[{"bike_id":"6d0f1d10-f430-42ea-83e7-1f32cbd4bbcc","system_id":"levelo_inurba_marseille","lat":43.26027,"lon":5.3755,"is_reserved":false,"is_disabled":false,"rental_uris":{"android":"levelo://app?vid=6d0f1d10-f430-42ea-83e7-1f32cbd4bbcc","ios":"levelo://app?vid=6d0f1d10-f430-42ea-83e7-1f32cbd4bbcc"},"vehicle_type_id":"4","last_reported":1728832135,"current_range_meters":2800,"station_id":"ce4bhgh2rcd13ifvqfa0","pricing_plan_id":"cebpf4jnsgd1na2vs0mg"},{"bike_id":"8a36bb65-dd05-437f-adaf-66c35c91f8ff","system_id":"levelo_inurba_marseille","lat":43.24169,"lon":5.36397,"is_reserved":false,"is_disabled":false,"rental_uris":{"android":"levelo://app?vid=8a36bb65-dd05-437f-adaf-66c35c91f8ff","ios":"levelo://app?vid=8a36bb65-dd05-437f-adaf-66c35c91f8ff"},"vehicle_type_id":"4","last_reported":1728832135,"current_range_meters":35200,"station_id":"cpo36qri1sfpv3e86is0","pricing_plan_id":"cebpf4jnsgd1na2vs0mg"},{"bike_id":"d885d96e-d926-4227-9eec-639d1069044e","system_id":"levelo_inurba_marseille","lat":43.23194,"lon":5.35549,"is_reserved":false,"is_disabled":false,"rental_uris":{"android":"levelo://app?vid=d885d96e-d926-4227-9eec-639d1069044e","ios":"levelo://app?vid=d885d96e-d926-4227-9eec-639d1069044e"},"vehicle_type_id":"4","last_reported":1728832135,"current_range_meters":9600,"station_id":"ce4bhu92rcd13ifvqi70","pricing_plan_id":"cebpf4jnsgd1na2vs0mg"},{"bike_id":"480c36bc-dd66-41df-b09a-76735c76211b","system_id":"levelo_inurba_marseille","lat":43.28,"lon":5.41656,"is_reserved":false,"is_disabled":false,"rental_uris":{"android":"levelo://app?vid=480c36bc-dd66-41df-b09a-76735c76211b","ios":"levelo://app?vid=480c36bc-dd66-41df-b09a-76735c76211b"},"vehicle_type_id":"4","last_reported":1728832135,"current_range_meters":35600,"station_id":"ce4bho12rcd13ifvqh1g","pricing_plan_id":"cebpf4jnsgd1na2vs0mg"},{"bike_id":"41b4be40-3534-430a-aa76-0d9a1d7bcff2","system_id":"levelo_inurba_marseille","lat":43.28419,"lon":5.34988,"is_reserved":false,"is_disabled":false,"rental_uris":{"android":"levelo://app?vid=41b4be40-3534-430a-aa76-0d9a1d7bcff2","ios":"levelo://app?vid=41b4be40-3534-430a-aa76-0d9a1d7bcff2"},"vehicle_type_id":"4","last_reported":1728832135,"current_range_meters":19200,"station_id":"ce4bhbh2rcd13ifvqepg","pricing_plan_id":"cebpf4jnsgd1na2vs0mg"},{"bike_id":"4d904558-a363-45e0-ad82-4f942f9da945","system_id":"levelo_inurba_marseille","lat":43.29588,"lon":5.3675,"is_reserved":false,"is_disabled":false,"rental_uris":{"android":"levelo://app?vid=4d904558-a363-45e0-ad82-4f942f9da945","ios":"levelo://app?vid=4d904558-a363-45e0-ad82-4f942f9da945"},"vehicle_type_id":"4","last_reported":1728832135,"current_range_meters":30800,"station_id":"ce4bgph2rcd13ifvqc2g","pricing_plan_id":"cebpf4jnsgd1na2vs0mg"},{"bike_id":"a6dee447-346a-4694-91f9-c989a10b2af7","system_id":"levelo_inurba_marseille","lat":43.288801,"lon":5.394375,"is_reserved":false,"is_disabled":false,"rental_uris":{"android":"levelo://app?vid=a6dee447-346a-4694-91f9-c989a10b2af7","ios":"levelo://app?vid=a6dee447-346a-4694-91f9-c989a10b2af7"},"vehicle_type_id":"4","last_reported":1728832135,"current_range_meters":30400,"station_id":"ce4bh2p2rcd13ifvqdi0","pricing_plan_id":"cebpf4jnsgd1na2vs0mg"},{"bike_id":"61432fa4-e69a-43e1-a752-60da459a1e2e","system_id":"levelo_inurba_marseille","lat":43.33724,"lon":5.39182,"is_reserved":false,"is_disabled":false,"rental_uris":{"android":"levelo://app?vid=61432fa4-e69a-43e1-a752-60da459a1e2e","ios":"levelo://app?vid=61432fa4-e69a-43e1-a752-60da459a1e2e"},"vehicle_type_id":"4","last_reported":1728832135,"current_range_meters":31200,"station_id":"ce4bhr92rcd13ifvqhsg","pricing_plan_id":"cebpf4jnsgd1na2vs0mg"},{"bike_id":"d85d83ba-748d-4f39-9cbd-a4491ef3ebf5","system_id":"levelo_inurba_marseille","lat":43.30356,"lon":5.41875,"is_reserved":false,"is_disabled":false,"rental_uris":{"android":"levelo://app?vid=d85d83ba-748d-4f39-9cbd-a4491ef3ebf5","ios":"levelo://app?vid=d85d83ba-748d-4f39-9cbd-a4491ef3ebf5"},"vehicle_type_id":"4","last_reported":1728832135,"current_range_meters":15200,"station_id":"ce4bhop2rcd13ifvqh7g","pricing_plan_id":"cebpf4jnsgd1na2vs0mg"},{"bike_id":"4c3b85cf-42e9-42ff-a87d-ebee805735d9","system_id":"levelo_inurba_marseille","lat":43.26936,"lon":5.40244,"is_reserved":false,"is_disabled":false,"rental_uris":{"android":"levelo://app?vid=4c3b85cf-42e9-42ff-a87d-ebee805735d9","ios":"levelo://app?vid=4c3b85cf-42e9-42ff-a87d-ebee805735d9"},"vehicle_type_id":"4","last_reported":1728832135,"current_range_meters":36800,"station_id":"cjm6bp8fraef2m0cb0m0","pricing_plan_id":"cebpf4jnsgd1na2vs0mg"},{"bike_id":"c5c33660-077d-4f97-b2f0-40691ac09116","system_id":"levelo_inurba_marseille","lat":43.2439,"lon":5.37064,"is_reserved":false,"is_disabled":false,"rental_uris":{"android":"levelo://app?vid=c5c33660-077d-4f97-b2f0-40691ac09116","ios":"levelo://app?vid=c5c33660-077d-4f97-b2f0-40691ac09116"},"vehicle_type_id":"4","last_reported":1728832135,"current_range_meters":33200,"station_id":"ce4bhhh2rcd13ifvqfk0","pricing_plan_id":"cebpf4jnsgd1na2vs0mg"},{"bike_id":"931d1f9c-4cb2-40a2-a856-914a1c55fcf3","system_id":"levelo_inurba_marseille","lat":43.2457,"lon":5.41661,"is_reserved":false,"is_disabled":false,"rental_uris":{"android":"levelo://app?vid=931d1f9c-4cb2-40a2-a856-914a1c55fcf3","ios":"levelo://app?vid=931d1f9c-4cb2-40a2-a856-914a1c55fcf3"},"vehicle_type_id":"4","last_reported":1728832135,"current_range_meters":6800,"station_id":"","pricing_plan_id":"cebpf4jnsgd1na2vs0mg"},{"bike_id":"b8d3e178-77e6-4b2b-b8de-85af06fa4430","system_id":"levelo_inurba_marseille","lat":43.23064,"lon":5.35494,"is_reserved":false,"is_disabled":false,"rental_uris":{"android":"levelo://app?vid=b8d3e178-77e6-4b2b-b8de-85af06fa4430","ios":"levelo://app?vid=b8d3e178-77e6-4b2b-b8de-85af06fa4430"},"vehicle_type_id":"4","last_reported":1728832135,"current_range_meters":38800,"station_id":"cpo3342slgdg3j2ifvpg","pricing_plan_id":"cebpf4jnsgd1na2vs0mg"},{"bike_id":"dcf2bc49-f969-443b-afe9-d8ac92e6f1ff","system_id":"levelo_inurba_marseille","lat":43.29041,"lon":5.3592,"is_reserved":false,"is_disabled":false,"rental_uris":{"android":"levelo://app?vid=dcf2bc49-f969-443b-afe9-d8ac92e6f1ff","ios":"levelo://app?vid=dcf2bc49-f969-443b-afe9-d8ac92e6f1ff"},"vehicle_type_id":"4","last_reported":1728832135,"current_range_meters":38800,"station_id":"ce4bha92rcd13ifvqeg0","pricing_plan_id":"cebpf4jnsgd1na2vs0mg"},{"bike_id":"da2806a7-1689-43f1-ac8f-bacdb95b711e","system_id":"levelo_inurba_marseille","lat":43.30933,"lon":5.40149,"is_reserved":false,"is_disabled":false,"rental_uris":{"android":"levelo://app?vid=da2806a7-1689-43f1-ac8f-bacdb95b711e","ios":"levelo://app?vid=da2806a7-1689-43f1-ac8f-bacdb95b711e"},"vehicle_type_id":"4","last_reported":1728832135,"current_range_meters":6800,"station_id":"ce4bgvp2rcd13ifvqct0","pricing_plan_id":"cebpf4jnsgd1na2vs0mg"},{"bike_id":"8b6940c7-26b4-4b92-900e-f8df30639280","system_id":"levelo_inurba_marseille","lat":43.30135,"lon":5.37414,"is_reserved":false,"is_disabled":false,"rental_uris":{"android":"levelo://app?vid=8b6940c7-26b4-4b92-900e-f8df30639280","ios":"levelo://app?vid=8b6940c7-26b4-4b92-900e-f8df30639280"},"vehicle_type_id":"4","last_reported":1728832135,"current_range_meters":32000,"station_id":"ce4bgs92rcd13ifvqcc0","pricing_plan_id":"cebpf4jnsgd1na2vs0mg"},{"bike_id":"6b2daff3-9851-4dff-9081-e0ec010599e4","system_id":"levelo_inurba_marseille","lat":43.314515,"lon":5.37384,"is_reserved":false,"is_disabled":false,"rental_uris":{"android":"levelo://app?vid=6b2daff3-9851-4dff-9081-e0ec010599e4","ios":"levelo://app?vid=6b2daff3-9851-4dff-9081-e0ec010599e4"},"vehicle_type_id":"4","last_reported":1728832135,"current_range_meters":32000,"station_id":"","pricing_plan_id":"cebpf4jnsgd1na2vs0mg"},{"bike_id":"552be6db-dc42-43b4-8648-fa07c12a0a3a","system_id":"levelo_inurba_marseille","lat":43.27213,"lon":5.3918,"is_reserved":false,"is_disabled":false,"rental_uris":{"android":"levelo://app?vid=552be6db-dc42-43b4-8648-fa07c12a0a3a","ios":"levelo://app?vid=552be6db-dc42-43b4-8648-fa07c12a0a3a"},"vehicle_type_id":"4","last_reported":1728832135,"current_range_meters":23200,"station_id":"ce4bhhp2rcd13ifvqfm0","pricing_plan_id":"cebpf4jnsgd1na2vs0mg"},{"bike_id":"fa08456f-0316-46ca-b497-6c7d63a7f841","system_id":"levelo_inurba_marseille","lat":43.23195,"lon":5.35548,"is_reserved":false,"is_disabled":false,"rental_uris":{"android":"levelo://app?vid=fa08456f-0316-46ca-b497-6c7d63a7f841","ios":"levelo://app?vid=fa08456f-0316-46ca-b497-6c7d63a7f841"},"vehicle_type_id":"4","last_reported":1728832135,"current_range_meters":34000,"station_id":"ce4bhu92rcd13ifvqi70","pricing_plan_id":"cebpf4jnsgd1na2vs0mg"},{"bike_id":"51f7e7c8-57b0-4575-aa69-8563d9f264e1","system_id":"levelo_inurba_marseille","lat":43.27796,"lon":5.40706,"is_reserved":false,"is_disabled":false,"rental_uris":{"android":"levelo://app?vid=51f7e7c8-57b0-4575-aa69-8563d9f264e1","ios":"levelo://app?vid=51f7e7c8-57b0-4575-aa69-8563d9f264e1"},"vehicle_type_id":"4","last_reported":1728832135,"current_range_meters":10800,"station_id":"ce4bhnh2rcd13ifvqgtg","pricing_plan_id":"cebpf4jnsgd1na2vs0mg"},{"bike_id":"900d410e-a263-4441-80a1-af67345a66d2","system_id":"levelo_inurba_marseille","lat":43.24391,"lon":5.37062,"is_reserved":false,"is_disabled":false,"rental_uris":{"android":"levelo://app?vid=900d410e-a263-4441-80a1-af67345a66d2","ios":"levelo://app?vid=900d410e-a263-4441-80a1-af67345a66d2"},"vehicle_type_id":"4","last_reported":1728832135,"current_range_meters":10000,"station_id":"ce4bhhh2rcd13ifvqfk0","pricing_plan_id":"cebpf4jnsgd1na2vs0mg"},{"bike_id":"7bfca5b2-1ddd-4e5d-b9fc-19e6379d40a0","system_id":"levelo_inurba_marseille","lat":43.28054,"lon":5.40987,"is_reserved":false,"is_disabled":false,"rental_uris":{"android":"levelo://app?vid=7bfca5b2-1ddd-4e5d-b9fc-19e6379d40a0","ios":"levelo://app?vid=7bfca5b2-1ddd-4e5d-b9fc-19e6379d40a0"},"vehicle_type_id":"4","last_reported":1728832135,"current_range_meters":30400,"station_id":"","pricing_plan_id":"cebpf4jnsgd1na2vs0mg"},{"bike_id":"a9a9a4b5-5c49-474f-8f41-09f9027f45b4","system_id":"levelo_inurba_marseille","lat":43.22935,"lon":5.35376,"is_reserved":false,"is_disabled":false,"rental_uris":{"android":"levelo://app?vid=a9a9a4b5-5c49-474f-8f41-09f9027f45b4","ios":"levelo://app?vid=a9a9a4b5-5c49-474f-8f41-09f9027f45b4"},"vehicle_type_id":"4","last_reported":1728832135,"current_range_meters":16400,"station_id":"cpo3532slgdg3j2ikp40","pricing_plan_id":"cebpf4jnsgd1na2vs0mg"},{"bike_id":"4a7c9a82-5a63-4543-86e5-c587091147ab","system_id":"levelo_inurba_marseille","lat":43.2951,"lon":5.37497,"is_reserved":false,"is_disabled":false,"rental_uris":{"android":"levelo://app?vid=4a7c9a82-5a63-4543-86e5-c587091147ab","ios":"levelo://app?vid=4a7c9a82-5a63-4543-86e5-c587091147ab"},"vehicle_type_id":"4","last_reported":1728832135,"current_range_meters":28000,"station_id":"ce4bgkp2rcd13ifvqbmg","pricing_plan_id":"cebpf4jnsgd1na2vs0mg"},{"bike_id":"18193494-d1d9-47f2-b3f0-37b334436605","system_id":"levelo_inurba_marseille","lat":43.313595,"lon":5.367155,"is_reserved":false,"is_disabled":false,"rental_uris":{"android":"levelo://app?vid=18193494-d1d9-47f2-b3f0-37b334436605","ios":"levelo://app?vid=18193494-d1d9-47f2-b3f0-37b334436605"},"vehicle_type_id":"4","last_reported":1728832135,"current_range_meters":8000,"station_id":"ce4bgr92rcd13ifvqc6g","pricing_plan_id":"cebpf4jnsgd1na2vs0mg"},{"bike_id":"b33a3f20-ee6b-45f9-b980-cad90a8ceec5","system_id":"levelo_inurba_marseille","lat":43.28849,"lon":5.39326,"is_reserved":false,"is_disabled":false,"rental_uris":{"android":"levelo://app?vid=b33a3f20-ee6b-45f9-b980-cad90a8ceec5","ios":"levelo://app?vid=b33a3f20-ee6b-45f9-b980-cad90a8ceec5"},"vehicle_type_id":"4","last_reported":1728832135,"current_range_meters":38000,"station_id":"ce4bh2p2rcd13ifvqdi0","pricing_plan_id":"cebpf4jnsgd1na2vs0mg"},{"bike_id":"0711e4b2-40cc-4afb-9420-abd03fb3a130","system_id":"levelo_inurba_marseille","lat":43.31872,"lon":5.40728,"is_reserved":false,"is_disabled":false,"rental_uris":{"android":"levelo://app?vid=0711e4b2-40cc-4afb-9420-abd03fb3a130","ios":"levelo://app?vid=0711e4b2-40cc-4afb-9420-abd03fb3a130"},"vehicle_type_id":"4","last_reported":1728832135,"current_range_meters":27600,"station_id":"ce4bhq12rcd13ifvqhig","pricing_plan_id":"cebpf4jnsgd1na2vs0mg"},{"bike_id":"3e4f306a-0193-49a5-ae54-ea2787574907","system_id":"levelo_inurba_marseille","lat":43.24399,"lon":5.37063,"is_reserved":false,"is_disabled":false,"rental_uris":{"android":"levelo://app?vid=3e4f306a-0193-49a5-ae54-ea2787574907","ios":"levelo://app?vid=3e4f306a-0193-49a5-ae54-ea2787574907"},"vehicle_type_id":"4","last_reported":1728832135,"current_range_meters":35600,"station_id":"ce4bhhh2rcd13ifvqfk0","pricing_plan_id":"cebpf4jnsgd1na2vs0mg"},{"bike_id":"6627abce-b7d2-4e65-96f3-8ffe488d036d","system_id":"levelo_inurba_marseille","lat":43.231018,"lon":5.35477,"is_reserved":false,"is_disabled":false,"rental_uris":{"android":"levelo://app?vid=6627abce-b7d2-4e65-96f3-8ffe488d036d","ios":"levelo://app?vid=6627abce-b7d2-4e65-96f3-8ffe488d036d"},"vehicle_type_id":"4","last_reported":1728832135,"current_range_meters":33200,"station_id":"cpo3342slgdg3j2ifvpg","pricing_plan_id":"cebpf4jnsgd1na2vs0mg"},{"bike_id":"a2cc4af4-c475-4c55-b025-fb35bb1c3dce","system_id":"levelo_inurba_marseille","lat":43.28422,"lon":5.34992,"is_reserved":false,"is_disabled":false,"rental_uris":{"android":"levelo://app?vid=a2cc4af4-c475-4c55-b025-fb35bb1c3dce","ios":"levelo://app?vid=a2cc4af4-c475-4c55-b025-fb35bb1c3dce"},"vehicle_type_id":"4","last_reported":1728832135,"current_range_meters":10000,"station_id":"ce4bhbh2rcd13ifvqepg","pricing_plan_id":"cebpf4jnsgd1na2vs0mg"},{"bike_id":"99c49ab5-e0f8-4316-b25d-a08466a70f4c","system_id":"levelo_inurba_marseille","lat":43.28411,"lon":5.34989,"is_reserved":false,"is_disabled":false,"rental_uris":{"android":"levelo://app?vid=99c49ab5-e0f8-4316-b25d-a08466a70f4c","ios":"levelo://app?vid=99c49ab5-e0f8-4316-b25d-a08466a70f4c"},"vehicle_type_id":"4","last_reported":1728832135,"current_range_meters":39200,"station_id":"ce4bhbh2rcd13ifvqepg","pricing_plan_id":"cebpf4jnsgd1na2vs0mg"},{"bike_id":"f54346c8-9e7c-4af2-9357-fb9febfd013a","system_id":"levelo_inurba_marseille","lat":43.28408,"lon":5.37518,"is_reserved":false,"is_disabled":false,"rental_uris":{"android":"levelo://app?vid=f54346c8-9e7c-4af2-9357-fb9febfd013a","ios":"levelo://app?vid=f54346c8-9e7c-4af2-9357-fb9febfd013a"},"vehicle_type_id":"4","last_reported":1728832135,"current_range_meters":17200,"station_id":"ce4bh412rcd13ifvqds0","pricing_plan_id":"cebpf4jnsgd1na2vs0mg"},{"bike_id":"67ac2293-4160-4d89-bb10-79999ff8f4e9","system_id":"levelo_inurba_marseille","lat":43.30349,"lon":5.41877,"is_reserved":false,"is_disabled":false,"rental_uris":{"android":"levelo://app?vid=67ac2293-4160-4d89-bb10-79999ff8f4e9","ios":"levelo://app?vid=67ac2293-4160-4d89-bb10-79999ff8f4e9"},"vehicle_type_id":"4","last_reported":1728832135,"current_range_meters":5600,"station_id":"ce4bhop2rcd13ifvqh7g","pricing_plan_id":"cebpf4jnsgd1na2vs0mg"},{"bike_id":"ee4f7f7f-0e01-434c-80c2-36c28f50d298","system_id":"levelo_inurba_marseille","lat":43.24808,"lon":5.37458,"is_reserved":false,"is_disabled":false,"rental_uris":{"android":"levelo://app?vid=ee4f7f7f-0e01-434c-80c2-36c28f50d298","ios":"levelo://app?vid=ee4f7f7f-0e01-434c-80c2-36c28f50d298"},"vehicle_type_id":"4","last_reported":1728832135,"current_range_meters":17600,"station_id":"ce4bhgh2rcd13ifvqfb0","pricing_plan_id":"cebpf4jnsgd1na2vs0mg"},{"bike_id":"3545951b-894d-4495-afdf-84cb7b3b25b3","system_id":"levelo_inurba_marseille","lat":43.23194,"lon":5.35556,"is_reserved":false,"is_disabled":false,"rental_uris":{"android":"levelo://app?vid=3545951b-894d-4495-afdf-84cb7b3b25b3","ios":"levelo://app?vid=3545951b-894d-4495-afdf-84cb7b3b25b3"},"vehicle_type_id":"4","last_reported":1728832135,"current_range_meters":38800,"station_id":"ce4bhu92rcd13ifvqi70","pricing_plan_id":"cebpf4jnsgd1na2vs0mg"},{"bike_id":"86aaf10b-204a-4bbe-901a-9f3915476c4c","system_id":"levelo_inurba_marseille","lat":43.255,"lon":5.37649,"is_reserved":false,"is_disabled":false,"rental_uris":{"android":"levelo://app?vid=86aaf10b-204a-4bbe-901a-9f3915476c4c","ios":"levelo://app?vid=86aaf10b-204a-4bbe-901a-9f3915476c4c"},"vehicle_type_id":"4","last_reported":1728832135,"current_range_meters":28400,"station_id":"ce4bhh12rcd13ifvqff0","pricing_plan_id":"cebpf4jnsgd1na2vs0mg"},{"bike_id":"19767c7e-4ed0-457f-bcde-dbef8a4b6308","system_id":"levelo_inurba_marseille","lat":43.24386,"lon":5.3706,"is_reserved":false,"is_disabled":false,"rental_uris":{"android":"levelo://app?vid=19767c7e-4ed0-457f-bcde-dbef8a4b6308","ios":"levelo://app?vid=19767c7e-4ed0-457f-bcde-dbef8a4b6308"},"vehicle_type_id":"4","last_reported":1728832135,"current_range_meters":32400,"station_id":"ce4bhhh2rcd13ifvqfk0","pricing_plan_id":"cebpf4jnsgd1na2vs0mg"},{"bike_id":"ddd8071c-e197-43f6-b7d5-51b8315e08bd","system_id":"levelo_inurba_marseille","lat":43.23194,"lon":5.3555,"is_reserved":false,"is_disabled":false,"rental_uris":{"android":"levelo://app?vid=ddd8071c-e197-43f6-b7d5-51b8315e08bd","ios":"levelo://app?vid=ddd8071c-e197-43f6-b7d5-51b8315e08bd"},"vehicle_type_id":"4","last_reported":1728832135,"current_range_meters":13600,"station_id":"ce4bhu92rcd13ifvqi70","pricing_plan_id":"cebpf4jnsgd1na2vs0mg"},{"bike_id":"25ed2710-8c35-44e6-81fd-8fc7cf6b54a8","system_id":"levelo_inurba_marseille","lat":43.274948,"lon":5.424466,"is_reserved":false,"is_disabled":false,"rental_uris":{"android":"levelo://app?vid=25ed2710-8c35-44e6-81fd-8fc7cf6b54a8","ios":"levelo://app?vid=25ed2710-8c35-44e6-81fd-8fc7cf6b54a8"},"vehicle_type_id":"4","last_reported":1728832135,"current_range_meters":20800,"station_id":"ce4bhn92rcd13ifvqgrg","pricing_plan_id":"cebpf4jnsgd1na2vs0mg"},{"bike_id":"885096f8-3dcf-4bf7-a286-1696102f1e97","system_id":"levelo_inurba_marseille","lat":43.29556,"lon":5.42283,"is_reserved":false,"is_disabled":false,"rental_uris":{"android":"levelo://app?vid=885096f8-3dcf-4bf7-a286-1696102f1e97","ios":"levelo://app?vid=885096f8-3dcf-4bf7-a286-1696102f1e97"},"vehicle_type_id":"4","last_reported":1728832135,"current_range_meters":31200,"station_id":"ce4bhph2rcd13ifvqhdg","pricing_plan_id":"cebpf4jnsgd1na2vs0mg"},{"bike_id":"4e08a916-e1fb-466f-9ce0-cb79f66417e7","system_id":"levelo_inurba_marseille","lat":43.31361,"lon":5.38493,"is_reserved":false,"is_disabled":false,"rental_uris":{"android":"levelo://app?vid=4e08a916-e1fb-466f-9ce0-cb79f66417e7","ios":"levelo://app?vid=4e08a916-e1fb-466f-9ce0-cb79f66417e7"},"vehicle_type_id":"4","last_reported":1728832135,"current_range_meters":18000,"station_id":"ce4bgt92rcd13ifvqcf0","pricing_plan_id":"cebpf4jnsgd1na2vs0mg"},{"bike_id":"109d18b6-bfcf-4cff-85dc-bd512ce6fb2f","system_id":"levelo_inurba_marseille","lat":43.23192,"lon":5.35553,"is_reserved":false,"is_disabled":false,"rental_uris":{"android":"levelo://app?vid=109d18b6-bfcf-4cff-85dc-bd512ce6fb2f","ios":"levelo://app?vid=109d18b6-bfcf-4cff-85dc-bd512ce6fb2f"},"vehicle_type_id":"4","last_reported":1728832135,"current_range_meters":6800,"station_id":"ce4bhu92rcd13ifvqi70","pricing_plan_id":"cebpf4jnsgd1na2vs0mg"},{"bike_id":"e3cd8953-9e5a-44ad-a5cd-debf49a539ae","system_id":"levelo_inurba_marseille","lat":43.21252,"lon":5.3545,"is_reserved":false,"is_disabled":false,"rental_uris":{"android":"levelo://app?vid=e3cd8953-9e5a-44ad-a5cd-debf49a539ae","ios":"levelo://app?vid=e3cd8953-9e5a-44ad-a5cd-debf49a539ae"},"vehicle_type_id":"4","last_reported":1728832135,"current_range_meters":20000,"station_id":"","pricing_plan_id":"cebpf4jnsgd1na2vs0mg"},{"bike_id":"726ea84d-d6f3-4f63-8d10-efa74cba9883","system_id":"levelo_inurba_marseille","lat":43.24386,"lon":5.37059,"is_reserved":false,"is_disabled":false,"rental_uris":{"android":"levelo://app?vid=726ea84d-d6f3-4f63-8d10-efa74cba9883","ios":"levelo://app?vid=726ea84d-d6f3-4f63-8d10-efa74cba9883"},"vehicle_type_id":"4","last_reported":1728832135,"current_range_meters":38000,"station_id":"ce4bhhh2rcd13ifvqfk0","pricing_plan_id":"cebpf4jnsgd1na2vs0mg"},{"bike_id":"744d7d46-a030-452d-827a-600610e2a098","system_id":"levelo_inurba_marseille","lat":43.23182,"lon":5.39994,"is_reserved":false,"is_disabled":false,"rental_uris":{"android":"levelo://app?vid=744d7d46-a030-452d-827a-600610e2a098","ios":"levelo://app?vid=744d7d46-a030-452d-827a-600610e2a098"},"vehicle_type_id":"4","last_reported":1728832135,"current_range_meters":33200,"station_id":"ce4bhn12rcd13ifvqgqg","pricing_plan_id":"cebpf4jnsgd1na2vs0mg"},{"bike_id":"e6a8aec1-d448-48fb-b2d3-480453e7edf3","system_id":"levelo_inurba_marseille","lat":43.31698,"lon":5.39852,"is_reserved":false,"is_disabled":false,"rental_uris":{"android":"levelo://app?vid=e6a8aec1-d448-48fb-b2d3-480453e7edf3","ios":"levelo://app?vid=e6a8aec1-d448-48fb-b2d3-480453e7edf3"},"vehicle_type_id":"4","last_reported":1728832135,"current_range_meters":3600,"station_id":"","pricing_plan_id":"cebpf4jnsgd1na2vs0mg"},{"bike_id":"ec4c84b8-1c52-460d-8305-b00f91714e1b","system_id":"levelo_inurba_marseille","lat":43.29578,"lon":5.37504,"is_reserved":false,"is_disabled":false,"rental_uris":{"android":"levelo://app?vid=ec4c84b8-1c52-460d-8305-b00f91714e1b","ios":"levelo://app?vid=ec4c84b8-1c52-460d-8305-b00f91714e1b"},"vehicle_type_id":"4","last_reported":1728832135,"current_range_meters":12800,"station_id":"ce4bgh92rcd13ifvqb50","pricing_plan_id":"cebpf4jnsgd1na2vs0mg"},{"bike_id":"6cb5b02c-2401-484a-8b7d-b4d2106d6b08","system_id":"levelo_inurba_marseille","lat":43.23194,"lon":5.35557,"is_reserved":false,"is_disabled":false,"rental_uris":{"android":"levelo://app?vid=6cb5b02c-2401-484a-8b7d-b4d2106d6b08","ios":"levelo://app?vid=6cb5b02c-2401-484a-8b7d-b4d2106d6b08"},"vehicle_type_id":"4","last_reported":1728832135,"current_range_meters":26000,"station_id":"ce4bhu92rcd13ifvqi70","pricing_plan_id":"cebpf4jnsgd1na2vs0mg"},{"bike_id":"67824aae-a8ae-4218-80a0-396a193cc29b","system_id":"levelo_inurba_marseille","lat":43.29715,"lon":5.37698,"is_reserved":false,"is_disabled":false,"rental_uris":{"android":"levelo://app?vid=67824aae-a8ae-4218-80a0-396a193cc29b","ios":"levelo://app?vid=67824aae-a8ae-4218-80a0-396a193cc29b"},"vehicle_type_id":"4","last_reported":1728832135,"current_range_meters":36800,"station_id":"ce4bgkh2rcd13ifvqbl0","pricing_plan_id":"cebpf4jnsgd1na2vs0mg"},{"bike_id":"012562d0-677c-4131-9774-85df2480db48","system_id":"levelo_inurba_marseille","lat":43.28623,"lon":5.35104,"is_reserved":false,"is_disabled":false,"rental_uris":{"android":"levelo://app?vid=012562d0-677c-4131-9774-85df2480db48","ios":"levelo://app?vid=012562d0-677c-4131-9774-85df2480db48"},"vehicle_type_id":"4","last_reported":1728832135,"current_range_meters":32800,"station_id":"ce4bhch2rcd13ifvqeug","pricing_plan_id":"cebpf4jnsgd1na2vs0mg"},{"bike_id":"f81bb033-97fc-40a2-af6f-91e2b0569372","system_id":"levelo_inurba_marseille","lat":43.28844,"lon":5.3931,"is_reserved":false,"is_disabled":false,"rental_uris":{"android":"levelo://app?vid=f81bb033-97fc-40a2-af6f-91e2b0569372","ios":"levelo://app?vid=f81bb033-97fc-40a2-af6f-91e2b0569372"},"vehicle_type_id":"4","last_reported":1728832135,"current_range_meters":4800,"station_id":"ce4bh2p2rcd13ifvqdi0","pricing_plan_id":"cebpf4jnsgd1na2vs0mg"},{"bike_id":"8dc17be6-9f5a-4793-93aa-32afbfec4104","system_id":"levelo_inurba_marseille","lat":43.28,"lon":5.40015,"is_reserved":false,"is_disabled":false,"rental_uris":{"android":"levelo://app?vid=8dc17be6-9f5a-4793-93aa-32afbfec4104","ios":"levelo://app?vid=8dc17be6-9f5a-4793-93aa-32afbfec4104"},"vehicle_type_id":"4","last_reported":1728832135,"current_range_meters":24000,"station_id":"ce4bho92rcd13ifvqh4g","pricing_plan_id":"cebpf4jnsgd1na2vs0mg"},{"bike_id":"3f873ae0-aa0f-4249-b318-c56419c73261","system_id":"levelo_inurba_marseille","lat":43.29843,"lon":5.36271,"is_reserved":false,"is_disabled":false,"rental_uris":{"android":"levelo://app?vid=3f873ae0-aa0f-4249-b318-c56419c73261","ios":"levelo://app?vid=3f873ae0-aa0f-4249-b318-c56419c73261"},"vehicle_type_id":"4","last_reported":1728832135,"current_range_meters":10000,"station_id":"ce4bgpp2rcd13ifvqc3g","pricing_plan_id":"cebpf4jnsgd1na2vs0mg"},{"bike_id":"48d54818-8c67-43dd-82f4-e3474eda976e","system_id":"levelo_inurba_marseille","lat":43.25859,"lon":5.39899,"is_reserved":false,"is_disabled":false,"rental_uris":{"android":"levelo://app?vid=48d54818-8c67-43dd-82f4-e3474eda976e","ios":"levelo://app?vid=48d54818-8c67-43dd-82f4-e3474eda976e"},"vehicle_type_id":"4","last_reported":1728832135,"current_range_meters":32400,"station_id":"ce4bhl92rcd13ifvqghg","pricing_plan_id":"cebpf4jnsgd1na2vs0mg"},{"bike_id":"9d671549-67ad-4eb0-ace0-50f59d8a0c79","system_id":"levelo_inurba_marseille","lat":43.31109,"lon":5.38064,"is_reserved":false,"is_disabled":false,"rental_uris":{"android":"levelo://app?vid=9d671549-67ad-4eb0-ace0-50f59d8a0c79","ios":"levelo://app?vid=9d671549-67ad-4eb0-ace0-50f59d8a0c79"},"vehicle_type_id":"4","last_reported":1728832135,"current_range_meters":24000,"station_id":"ce4bgt92rcd13ifvqcf0","pricing_plan_id":"cebpf4jnsgd1na2vs0mg"},{"bike_id":"da31004c-daf3-4149-a90f-e1ce6060ba7b","system_id":"levelo_inurba_marseille","lat":43.31331,"lon":5.39693,"is_reserved":false,"is_disabled":false,"rental_uris":{"android":"levelo://app?vid=da31004c-daf3-4149-a90f-e1ce6060ba7b","ios":"levelo://app?vid=da31004c-daf3-4149-a90f-e1ce6060ba7b"},"vehicle_type_id":"4","last_reported":1728832135,"current_range_meters":30800,"station_id":"ce4bgvp2rcd13ifvqcu0","pricing_plan_id":"cebpf4jnsgd1na2vs0mg"},{"bike_id":"25e59862-8a09-482d-b3a5-7138deb4afc5","system_id":"levelo_inurba_marseille","lat":43.2306,"lon":5.35491,"is_reserved":false,"is_disabled":false,"rental_uris":{"android":"levelo://app?vid=25e59862-8a09-482d-b3a5-7138deb4afc5","ios":"levelo://app?vid=25e59862-8a09-482d-b3a5-7138deb4afc5"},"vehicle_type_id":"4","last_reported":1728832135,"current_range_meters":4800,"station_id":"cpo3342slgdg3j2ifvpg","pricing_plan_id":"cebpf4jnsgd1na2vs0mg"},{"bike_id":"11f3ba84-f0a8-4aaa-8ae2-a4cd79be7de4","system_id":"levelo_inurba_marseille","lat":43.25724,"lon":5.4111,"is_reserved":false,"is_disabled":false,"rental_uris":{"android":"levelo://app?vid=11f3ba84-f0a8-4aaa-8ae2-a4cd79be7de4","ios":"levelo://app?vid=11f3ba84-f0a8-4aaa-8ae2-a4cd79be7de4"},"vehicle_type_id":"4","last_reported":1728832135,"current_range_meters":25600,"station_id":"ce4bhkp2rcd13ifvqgd0","pricing_plan_id":"cebpf4jnsgd1na2vs0mg"},{"bike_id":"fbc15f6c-7f17-4515-b347-15ae7579ee25","system_id":"levelo_inurba_marseille","lat":43.27372,"lon":5.36262,"is_reserved":false,"is_disabled":false,"rental_uris":{"android":"levelo://app?vid=fbc15f6c-7f17-4515-b347-15ae7579ee25","ios":"levelo://app?vid=fbc15f6c-7f17-4515-b347-15ae7579ee25"},"vehicle_type_id":"4","last_reported":1728832135,"current_range_meters":17200,"station_id":"ce4bhbh2rcd13ifvqeo0","pricing_plan_id":"cebpf4jnsgd1na2vs0mg"},{"bike_id":"b9c93681-a73f-4a95-b9b0-f61d48162a45","system_id":"levelo_inurba_marseille","lat":43.24393,"lon":5.37066,"is_reserved":false,"is_disabled":false,"rental_uris":{"android":"levelo://app?vid=b9c93681-a73f-4a95-b9b0-f61d48162a45","ios":"levelo://app?vid=b9c93681-a73f-4a95-b9b0-f61d48162a45"},"vehicle_type_id":"4","last_reported":1728832135,"current_range_meters":9600,"station_id":"ce4bhhh2rcd13ifvqfk0","pricing_plan_id":"cebpf4jnsgd1na2vs0mg"},{"bike_id":"b933402b-d1ca-49a8-bbf7-fb19281d941c","system_id":"levelo_inurba_marseille","lat":43.23195,"lon":5.35559,"is_reserved":false,"is_disabled":false,"rental_uris":{"android":"levelo://app?vid=b933402b-d1ca-49a8-bbf7-fb19281d941c","ios":"levelo://app?vid=b933402b-d1ca-49a8-bbf7-fb19281d941c"},"vehicle_type_id":"4","last_reported":1728832135,"current_range_meters":14400,"station_id":"ce4bhu92rcd13ifvqi70","pricing_plan_id":"cebpf4jnsgd1na2vs0mg"},{"bike_id":"0c1ecff5-69ed-46a2-bcca-316b26b87952","system_id":"levelo_inurba_marseille","lat":43.25577,"lon":5.38229,"is_reserved":false,"is_disabled":false,"rental_uris":{"android":"levelo://app?vid=0c1ecff5-69ed-46a2-bcca-316b26b87952","ios":"levelo://app?vid=0c1ecff5-69ed-46a2-bcca-316b26b87952"},"vehicle_type_id":"4","last_reported":1728832135,"current_range_meters":28800,"station_id":"ce4bhih2rcd13ifvqfs0","pricing_plan_id":"cebpf4jnsgd1na2vs0mg"},{"bike_id":"2b13767f-d174-435e-a0a2-106642984c04","system_id":"levelo_inurba_marseille","lat":43.2861,"lon":5.3511,"is_reserved":false,"is_disabled":false,"rental_uris":{"android":"levelo://app?vid=2b13767f-d174-435e-a0a2-106642984c04","ios":"levelo://app?vid=2b13767f-d174-435e-a0a2-106642984c04"},"vehicle_type_id":"4","last_reported":1728832135,"current_range_meters":22800,"station_id":"ce4bhch2rcd13ifvqeug","pricing_plan_id":"cebpf4jnsgd1na2vs0mg"},{"bike_id":"d65ea389-65f8-4201-b075-b137532d04df","system_id":"levelo_inurba_marseille","lat":43.29707,"lon":5.3662,"is_reserved":false,"is_disabled":false,"rental_uris":{"android":"levelo://app?vid=d65ea389-65f8-4201-b075-b137532d04df","ios":"levelo://app?vid=d65ea389-65f8-4201-b075-b137532d04df"},"vehicle_type_id":"4","last_reported":1728832135,"current_range_meters":38000,"station_id":"ce4bgn12rcd13ifvqbt0","pricing_plan_id":"cebpf4jnsgd1na2vs0mg"},{"bike_id":"e7cdcb9b-cae1-4fb7-9b12-1bb8991bafa9","system_id":"levelo_inurba_marseille","lat":43.27374,"lon":5.36253,"is_reserved":false,"is_disabled":false,"rental_uris":{"android":"levelo://app?vid=e7cdcb9b-cae1-4fb7-9b12-1bb8991bafa9","ios":"levelo://app?vid=e7cdcb9b-cae1-4fb7-9b12-1bb8991bafa9"},"vehicle_type_id":"4","last_reported":1728832135,"current_range_meters":8800,"station_id":"ce4bhbh2rcd13ifvqeo0","pricing_plan_id":"cebpf4jnsgd1na2vs0mg"},{"bike_id":"549d6d74-2989-4262-84f7-d0467c6c02f7","system_id":"levelo_inurba_marseille","lat":43.29903,"lon":5.43663,"is_reserved":false,"is_disabled":false,"rental_uris":{"android":"levelo://app?vid=549d6d74-2989-4262-84f7-d0467c6c02f7","ios":"levelo://app?vid=549d6d74-2989-4262-84f7-d0467c6c02f7"},"vehicle_type_id":"4","last_reported":1728832135,"current_range_meters":18000,"station_id":"ce4bhpp2rcd13ifvqhfg","pricing_plan_id":"cebpf4jnsgd1na2vs0mg"},{"bike_id":"ad384203-41b2-41a3-bdd9-e89e71f4a9b5","system_id":"levelo_inurba_marseille","lat":43.24387,"lon":5.37053,"is_reserved":false,"is_disabled":false,"rental_uris":{"android":"levelo://app?vid=ad384203-41b2-41a3-bdd9-e89e71f4a9b5","ios":"levelo://app?vid=ad384203-41b2-41a3-bdd9-e89e71f4a9b5"},"vehicle_type_id":"4","last_reported":1728832135,"current_range_meters":16400,"station_id":"ce4bhhh2rcd13ifvqfk0","pricing_plan_id":"cebpf4jnsgd1na2vs0mg"},{"bike_id":"5c762822-3058-459f-a665-6ef12b76aca0","system_id":"levelo_inurba_marseille","lat":43.2721,"lon":5.39184,"is_reserved":false,"is_disabled":false,"rental_uris":{"android":"levelo://app?vid=5c762822-3058-459f-a665-6ef12b76aca0","ios":"levelo://app?vid=5c762822-3058-459f-a665-6ef12b76aca0"},"vehicle_type_id":"4","last_reported":1728832135,"current_range_meters":38400,"station_id":"ce4bhhp2rcd13ifvqfm0","pricing_plan_id":"cebpf4jnsgd1na2vs0mg"},{"bike_id":"b07d947f-da80-474c-85d5-8ab68230fd90","system_id":"levelo_inurba_marseille","lat":43.33727,"lon":5.39197,"is_reserved":false,"is_disabled":false,"rental_uris":{"android":"levelo://app?vid=b07d947f-da80-474c-85d5-8ab68230fd90","ios":"levelo://app?vid=b07d947f-da80-474c-85d5-8ab68230fd90"},"vehicle_type_id":"4","last_reported":1728832135,"current_range_meters":16800,"station_id":"ce4bhr92rcd13ifvqhsg","pricing_plan_id":"cebpf4jnsgd1na2vs0mg"},{"bike_id":"1eb6757e-60ed-4d17-b476-b097cf154bcd","system_id":"levelo_inurba_marseille","lat":43.2693,"lon":5.38925,"is_reserved":false,"is_disabled":false,"rental_uris":{"android":"levelo://app?vid=1eb6757e-60ed-4d17-b476-b097cf154bcd","ios":"levelo://app?vid=1eb6757e-60ed-4d17-b476-b097cf154bcd"},"vehicle_type_id":"4","last_reported":1728832135,"current_range_meters":38800,"station_id":"ce4bhhh2rcd13ifvqfl0","pricing_plan_id":"cebpf4jnsgd1na2vs0mg"},{"bike_id":"e1f9486c-3843-42a6-aacd-4c828c67520a","system_id":"levelo_inurba_marseille","lat":43.23053,"lon":5.3549,"is_reserved":false,"is_disabled":false,"rental_uris":{"android":"levelo://app?vid=e1f9486c-3843-42a6-aacd-4c828c67520a","ios":"levelo://app?vid=e1f9486c-3843-42a6-aacd-4c828c67520a"},"vehicle_type_id":"4","last_reported":1728832135,"current_range_meters":30000,"station_id":"cpo3342slgdg3j2ifvpg","pricing_plan_id":"cebpf4jnsgd1na2vs0mg"},{"bike_id":"17f0a58b-fa96-470d-a1b0-89c2a0c2bfbe","system_id":"levelo_inurba_marseille","lat":43.23193,"lon":5.35556,"is_reserved":false,"is_disabled":false,"rental_uris":{"android":"levelo://app?vid=17f0a58b-fa96-470d-a1b0-89c2a0c2bfbe","ios":"levelo://app?vid=17f0a58b-fa96-470d-a1b0-89c2a0c2bfbe"},"vehicle_type_id":"4","last_reported":1728832135,"current_range_meters":16400,"station_id":"ce4bhu92rcd13ifvqi70","pricing_plan_id":"cebpf4jnsgd1na2vs0mg"},{"bike_id":"a11d8ce1-2071-4553-8d87-914ac5fd8bef","system_id":"levelo_inurba_marseille","lat":43.25008,"lon":5.38909,"is_reserved":false,"is_disabled":false,"rental_uris":{"android":"levelo://app?vid=a11d8ce1-2071-4553-8d87-914ac5fd8bef","ios":"levelo://app?vid=a11d8ce1-2071-4553-8d87-914ac5fd8bef"},"vehicle_type_id":"4","last_reported":1728832135,"current_range_meters":4800,"station_id":"ce4bhgp2rcd13ifvqfd0","pricing_plan_id":"cebpf4jnsgd1na2vs0mg"},{"bike_id":"f1c4e863-ffa7-4cd6-9dc2-d9782d844205","system_id":"levelo_inurba_marseille","lat":43.29794,"lon":5.40409,"is_reserved":false,"is_disabled":false,"rental_uris":{"android":"levelo://app?vid=f1c4e863-ffa7-4cd6-9dc2-d9782d844205","ios":"levelo://app?vid=f1c4e863-ffa7-4cd6-9dc2-d9782d844205"},"vehicle_type_id":"4","last_reported":1728832135,"current_range_meters":24000,"station_id":"ce4bh112rcd13ifvqd90","pricing_plan_id":"cebpf4jnsgd1na2vs0mg"},{"bike_id":"b25409bc-df4d-476a-893e-c6a5838692b2","system_id":"levelo_inurba_marseille","lat":43.23194,"lon":5.35556,"is_reserved":false,"is_disabled":false,"rental_uris":{"android":"levelo://app?vid=b25409bc-df4d-476a-893e-c6a5838692b2","ios":"levelo://app?vid=b25409bc-df4d-476a-893e-c6a5838692b2"},"vehicle_type_id":"4","last_reported":1728832135,"current_range_meters":39200,"station_id":"ce4bhu92rcd13ifvqi70","pricing_plan_id":"cebpf4jnsgd1na2vs0mg"},{"bike_id":"c0ba6486-f212-4dcc-9e9d-0bcd4174be5f","system_id":"levelo_inurba_marseille","lat":43.25939,"lon":5.409,"is_reserved":false,"is_disabled":false,"rental_uris":{"android":"levelo://app?vid=c0ba6486-f212-4dcc-9e9d-0bcd4174be5f","ios":"levelo://app?vid=c0ba6486-f212-4dcc-9e9d-0bcd4174be5f"},"vehicle_type_id":"4","last_reported":1728832135,"current_range_meters":19600,"station_id":"ce4bhm92rcd13ifvqglg","pricing_plan_id":"cebpf4jnsgd1na2vs0mg"},{"bike_id":"8fb2b431-bcb9-46ba-80fb-e26e84592fc5","system_id":"levelo_inurba_marseille","lat":43.23187,"lon":5.35556,"is_reserved":false,"is_disabled":false,"rental_uris":{"android":"levelo://app?vid=8fb2b431-bcb9-46ba-80fb-e26e84592fc5","ios":"levelo://app?vid=8fb2b431-bcb9-46ba-80fb-e26e84592fc5"},"vehicle_type_id":"4","last_reported":1728832135,"current_range_meters":26800,"station_id":"ce4bhu92rcd13ifvqi70","pricing_plan_id":"cebpf4jnsgd1na2vs0mg"},{"bike_id":"0201f3d5-7f11-44f9-b98f-64f18258c683","system_id":"levelo_inurba_marseille","lat":43.27375,"lon":5.36255,"is_reserved":false,"is_disabled":false,"rental_uris":{"android":"levelo://app?vid=0201f3d5-7f11-44f9-b98f-64f18258c683","ios":"levelo://app?vid=0201f3d5-7f11-44f9-b98f-64f18258c683"},"vehicle_type_id":"4","last_reported":1728832135,"current_range_meters":26000,"station_id":"ce4bhbh2rcd13ifvqeo0","pricing_plan_id":"cebpf4jnsgd1na2vs0mg"},{"bike_id":"9860d86a-d611-4f0b-b0b1-baf1fa0e90c1","system_id":"levelo_inurba_marseille","lat":43.27992,"lon":5.40022,"is_reserved":false,"is_disabled":false,"rental_uris":{"android":"levelo://app?vid=9860d86a-d611-4f0b-b0b1-baf1fa0e90c1","ios":"levelo://app?vid=9860d86a-d611-4f0b-b0b1-baf1fa0e90c1"},"vehicle_type_id":"4","last_reported":1728832135,"current_range_meters":19200,"station_id":"ce4bho92rcd13ifvqh4g","pricing_plan_id":"cebpf4jnsgd1na2vs0mg"},{"bike_id":"5845e19b-146f-4168-b136-71e2305f30d4","system_id":"levelo_inurba_marseille","lat":43.32105,"lon":5.36786,"is_reserved":false,"is_disabled":false,"rental_uris":{"android":"levelo://app?vid=5845e19b-146f-4168-b136-71e2305f30d4","ios":"levelo://app?vid=5845e19b-146f-4168-b136-71e2305f30d4"},"vehicle_type_id":"4","last_reported":1728832135,"current_range_meters":20800,"station_id":"ce4bhrh2rcd13ifvqhug","pricing_plan_id":"cebpf4jnsgd1na2vs0mg"},{"bike_id":"6746abcb-d28b-4802-b21a-150ec671a4ca","system_id":"levelo_inurba_marseille","lat":43.23194,"lon":5.35552,"is_reserved":false,"is_disabled":false,"rental_uris":{"android":"levelo://app?vid=6746abcb-d28b-4802-b21a-150ec671a4ca","ios":"levelo://app?vid=6746abcb-d28b-4802-b21a-150ec671a4ca"},"vehicle_type_id":"4","last_reported":1728832135,"current_range_meters":22000,"station_id":"ce4bhu92rcd13ifvqi70","pricing_plan_id":"cebpf4jnsgd1na2vs0mg"},{"bike_id":"b3eb59da-b063-4a7c-842a-4ca71b9c36ba","system_id":"levelo_inurba_marseille","lat":43.2732,"lon":5.390792,"is_reserved":false,"is_disabled":false,"rental_uris":{"android":"levelo://app?vid=b3eb59da-b063-4a7c-842a-4ca71b9c36ba","ios":"levelo://app?vid=b3eb59da-b063-4a7c-842a-4ca71b9c36ba"},"vehicle_type_id":"4","last_reported":1728832135,"current_range_meters":38400,"station_id":"ce4bhgp2rcd13ifvqfe0","pricing_plan_id":"cebpf4jnsgd1na2vs0mg"},{"bike_id":"b5085ab2-06f9-451e-8197-d6b7013e9b36","system_id":"levelo_inurba_marseille","lat":43.25579,"lon":5.38238,"is_reserved":false,"is_disabled":false,"rental_uris":{"android":"levelo://app?vid=b5085ab2-06f9-451e-8197-d6b7013e9b36","ios":"levelo://app?vid=b5085ab2-06f9-451e-8197-d6b7013e9b36"},"vehicle_type_id":"4","last_reported":1728832135,"current_range_meters":36000,"station_id":"ce4bhih2rcd13ifvqfs0","pricing_plan_id":"cebpf4jnsgd1na2vs0mg"},{"bike_id":"2ab423a0-58a0-4125-b3de-29c6611f5114","system_id":"levelo_inurba_marseille","lat":43.25087,"lon":5.39519,"is_reserved":false,"is_disabled":false,"rental_uris":{"android":"levelo://app?vid=2ab423a0-58a0-4125-b3de-29c6611f5114","ios":"levelo://app?vid=2ab423a0-58a0-4125-b3de-29c6611f5114"},"vehicle_type_id":"4","last_reported":1728832135,"current_range_meters":38000,"station_id":"ce4bhm12rcd13ifvqgkg","pricing_plan_id":"cebpf4jnsgd1na2vs0mg"},{"bike_id":"5d0b2349-b815-49ca-a368-d0f94f9daa51","system_id":"levelo_inurba_marseille","lat":43.24393,"lon":5.37066,"is_reserved":false,"is_disabled":false,"rental_uris":{"android":"levelo://app?vid=5d0b2349-b815-49ca-a368-d0f94f9daa51","ios":"levelo://app?vid=5d0b2349-b815-49ca-a368-d0f94f9daa51"},"vehicle_type_id":"4","last_reported":1728832135,"current_range_meters":28400,"station_id":"ce4bhhh2rcd13ifvqfk0","pricing_plan_id":"cebpf4jnsgd1na2vs0mg"},{"bike_id":"25bc98b5-6f53-4969-8ace-0c86bbd920db","system_id":"levelo_inurba_marseille","lat":43.28613,"lon":5.35102,"is_reserved":false,"is_disabled":false,"rental_uris":{"android":"levelo://app?vid=25bc98b5-6f53-4969-8ace-0c86bbd920db","ios":"levelo://app?vid=25bc98b5-6f53-4969-8ace-0c86bbd920db"},"vehicle_type_id":"4","last_reported":1728832135,"current_range_meters":18800,"station_id":"ce4bhch2rcd13ifvqeug","pricing_plan_id":"cebpf4jnsgd1na2vs0mg"},{"bike_id":"a9d8d00f-2b10-40cd-af9b-04b4ae45f2bc","system_id":"levelo_inurba_marseille","lat":43.24386,"lon":5.37054,"is_reserved":false,"is_disabled":false,"rental_uris":{"android":"levelo://app?vid=a9d8d00f-2b10-40cd-af9b-04b4ae45f2bc","ios":"levelo://app?vid=a9d8d00f-2b10-40cd-af9b-04b4ae45f2bc"},"vehicle_type_id":"4","last_reported":1728832135,"current_range_meters":22800,"station_id":"ce4bhhh2rcd13ifvqfk0","pricing_plan_id":"cebpf4jnsgd1na2vs0mg"},{"bike_id":"cf44ab22-9d68-4422-a5d5-a38e1e3552c4","system_id":"levelo_inurba_marseille","lat":43.26217,"lon":5.37443,"is_reserved":false,"is_disabled":false,"rental_uris":{"android":"levelo://app?vid=cf44ab22-9d68-4422-a5d5-a38e1e3552c4","ios":"levelo://app?vid=cf44ab22-9d68-4422-a5d5-a38e1e3552c4"},"vehicle_type_id":"4","last_reported":1728832135,"current_range_meters":15200,"station_id":"ce4bhgp2rcd13ifvqfc0","pricing_plan_id":"cebpf4jnsgd1na2vs0mg"},{"bike_id":"c611aef4-6d5d-40aa-878f-a8ebd960836b","system_id":"levelo_inurba_marseille","lat":43.23958,"lon":5.36645,"is_reserved":false,"is_disabled":false,"rental_uris":{"android":"levelo://app?vid=c611aef4-6d5d-40aa-878f-a8ebd960836b","ios":"levelo://app?vid=c611aef4-6d5d-40aa-878f-a8ebd960836b"},"vehicle_type_id":"4","last_reported":1728832135,"current_range_meters":38800,"station_id":"ce4bhi12rcd13ifvqfp0","pricing_plan_id":"cebpf4jnsgd1na2vs0mg"},{"bike_id":"aa94dfd2-1ed1-43df-a438-34e39f771f63","system_id":"levelo_inurba_marseille","lat":43.24392,"lon":5.37057,"is_reserved":false,"is_disabled":false,"rental_uris":{"android":"levelo://app?vid=aa94dfd2-1ed1-43df-a438-34e39f771f63","ios":"levelo://app?vid=aa94dfd2-1ed1-43df-a438-34e39f771f63"},"vehicle_type_id":"4","last_reported":1728832135,"current_range_meters":10000,"station_id":"ce4bhhh2rcd13ifvqfk0","pricing_plan_id":"cebpf4jnsgd1na2vs0mg"},{"bike_id":"2eb0a78c-5b90-4602-84aa-1528bccb2542","system_id":"levelo_inurba_marseille","lat":43.29773,"lon":5.37097,"is_reserved":false,"is_disabled":false,"rental_uris":{"android":"levelo://app?vid=2eb0a78c-5b90-4602-84aa-1528bccb2542","ios":"levelo://app?vid=2eb0a78c-5b90-4602-84aa-1528bccb2542"},"vehicle_type_id":"4","last_reported":1728832135,"current_range_meters":38000,"station_id":"ce4bgop2rcd13ifvqc1g","pricing_plan_id":"cebpf4jnsgd1na2vs0mg"},{"bike_id":"c167cdf7-5aed-449a-bdd2-8f515812e27f","system_id":"levelo_inurba_marseille","lat":43.29032,"lon":5.37567,"is_reserved":false,"is_disabled":false,"rental_uris":{"android":"levelo://app?vid=c167cdf7-5aed-449a-bdd2-8f515812e27f","ios":"levelo://app?vid=c167cdf7-5aed-449a-bdd2-8f515812e27f"},"vehicle_type_id":"4","last_reported":1728832135,"current_range_meters":34800,"station_id":"ce4bh692rcd13ifvqe90","pricing_plan_id":"cebpf4jnsgd1na2vs0mg"},{"bike_id":"cdde71fa-933f-47ef-8a23-39142a076aea","system_id":"levelo_inurba_marseille","lat":43.29557,"lon":5.42284,"is_reserved":false,"is_disabled":false,"rental_uris":{"android":"levelo://app?vid=cdde71fa-933f-47ef-8a23-39142a076aea","ios":"levelo://app?vid=cdde71fa-933f-47ef-8a23-39142a076aea"},"vehicle_type_id":"4","last_reported":1728832135,"current_range_meters":38800,"station_id":"ce4bhph2rcd13ifvqhdg","pricing_plan_id":"cebpf4jnsgd1na2vs0mg"},{"bike_id":"49316722-f5ca-469e-b328-cdeaebfb0c7f","system_id":"levelo_inurba_marseille","lat":43.23957,"lon":5.36627,"is_reserved":false,"is_disabled":false,"rental_uris":{"android":"levelo://app?vid=49316722-f5ca-469e-b328-cdeaebfb0c7f","ios":"levelo://app?vid=49316722-f5ca-469e-b328-cdeaebfb0c7f"},"vehicle_type_id":"4","last_reported":1728832135,"current_range_meters":38800,"station_id":"ce4bhi12rcd13ifvqfp0","pricing_plan_id":"cebpf4jnsgd1na2vs0mg"},{"bike_id":"08708672-1dde-4b5f-ba7a-f9633ba19262","system_id":"levelo_inurba_marseille","lat":43.28614,"lon":5.35108,"is_reserved":false,"is_disabled":false,"rental_uris":{"android":"levelo://app?vid=08708672-1dde-4b5f-ba7a-f9633ba19262","ios":"levelo://app?vid=08708672-1dde-4b5f-ba7a-f9633ba19262"},"vehicle_type_id":"4","last_reported":1728832135,"current_range_meters":36400,"station_id":"ce4bhch2rcd13ifvqeug","pricing_plan_id":"cebpf4jnsgd1na2vs0mg"},{"bike_id":"7b20509d-3e68-45a9-908c-1764325c91a4","system_id":"levelo_inurba_marseille","lat":43.23187,"lon":5.35557,"is_reserved":false,"is_disabled":false,"rental_uris":{"android":"levelo://app?vid=7b20509d-3e68-45a9-908c-1764325c91a4","ios":"levelo://app?vid=7b20509d-3e68-45a9-908c-1764325c91a4"},"vehicle_type_id":"4","last_reported":1728832135,"current_range_meters":4400,"station_id":"ce4bhu92rcd13ifvqi70","pricing_plan_id":"cebpf4jnsgd1na2vs0mg"},{"bike_id":"aad69708-28ac-43e6-945e-619f5a7c6bfd","system_id":"levelo_inurba_marseille","lat":43.33781,"lon":5.37443,"is_reserved":false,"is_disabled":false,"rental_uris":{"android":"levelo://app?vid=aad69708-28ac-43e6-945e-619f5a7c6bfd","ios":"levelo://app?vid=aad69708-28ac-43e6-945e-619f5a7c6bfd"},"vehicle_type_id":"4","last_reported":1728832135,"current_range_meters":33200,"station_id":"","pricing_plan_id":"cebpf4jnsgd1na2vs0mg"},{"bike_id":"0569f9ff-2c72-484f-9bb3-6180b164df30","system_id":"levelo_inurba_marseille","lat":43.26032,"lon":5.37547,"is_reserved":false,"is_disabled":false,"rental_uris":{"android":"levelo://app?vid=0569f9ff-2c72-484f-9bb3-6180b164df30","ios":"levelo://app?vid=0569f9ff-2c72-484f-9bb3-6180b164df30"},"vehicle_type_id":"4","last_reported":1728832135,"current_range_meters":17600,"station_id":"ce4bhgh2rcd13ifvqfa0","pricing_plan_id":"cebpf4jnsgd1na2vs0mg"},{"bike_id":"5a29100d-0deb-49ca-b97a-5350fb9c93fb","system_id":"levelo_inurba_marseille","lat":43.25009,"lon":5.38911,"is_reserved":false,"is_disabled":false,"rental_uris":{"android":"levelo://app?vid=5a29100d-0deb-49ca-b97a-5350fb9c93fb","ios":"levelo://app?vid=5a29100d-0deb-49ca-b97a-5350fb9c93fb"},"vehicle_type_id":"4","last_reported":1728832135,"current_range_meters":26000,"station_id":"ce4bhgp2rcd13ifvqfd0","pricing_plan_id":"cebpf4jnsgd1na2vs0mg"},{"bike_id":"47bafd54-8e67-4227-9a5d-c08467e8f270","system_id":"levelo_inurba_marseille","lat":43.232779,"lon":5.399809,"is_reserved":false,"is_disabled":false,"rental_uris":{"android":"levelo://app?vid=47bafd54-8e67-4227-9a5d-c08467e8f270","ios":"levelo://app?vid=47bafd54-8e67-4227-9a5d-c08467e8f270"},"vehicle_type_id":"4","last_reported":1728832135,"current_range_meters":30000,"station_id":"ce4bhn12rcd13ifvqgqg","pricing_plan_id":"cebpf4jnsgd1na2vs0mg"},{"bike_id":"7f7b44d9-2440-44ca-9cb1-b3b529dd90ab","system_id":"levelo_inurba_marseille","lat":43.23958,"lon":5.36624,"is_reserved":false,"is_disabled":false,"rental_uris":{"android":"levelo://app?vid=7f7b44d9-2440-44ca-9cb1-b3b529dd90ab","ios":"levelo://app?vid=7f7b44d9-2440-44ca-9cb1-b3b529dd90ab"},"vehicle_type_id":"4","last_reported":1728832135,"current_range_meters":2800,"station_id":"ce4bhi12rcd13ifvqfp0","pricing_plan_id":"cebpf4jnsgd1na2vs0mg"},{"bike_id":"e3a7da0a-5949-4f8d-b658-a423f08b1799","system_id":"levelo_inurba_marseille","lat":43.2619,"lon":5.37449,"is_reserved":false,"is_disabled":false,"rental_uris":{"android":"levelo://app?vid=e3a7da0a-5949-4f8d-b658-a423f08b1799","ios":"levelo://app?vid=e3a7da0a-5949-4f8d-b658-a423f08b1799"},"vehicle_type_id":"4","last_reported":1728832135,"current_range_meters":36800,"station_id":"ce4bhgp2rcd13ifvqfc0","pricing_plan_id":"cebpf4jnsgd1na2vs0mg"},{"bike_id":"fa269af5-a83a-4a7a-af4b-6811d1dbf69a","system_id":"levelo_inurba_marseille","lat":43.2319,"lon":5.35555,"is_reserved":false,"is_disabled":false,"rental_uris":{"android":"levelo://app?vid=fa269af5-a83a-4a7a-af4b-6811d1dbf69a","ios":"levelo://app?vid=fa269af5-a83a-4a7a-af4b-6811d1dbf69a"},"vehicle_type_id":"4","last_reported":1728832135,"current_range_meters":2000,"station_id":"ce4bhu92rcd13ifvqi70","pricing_plan_id":"cebpf4jnsgd1na2vs0mg"},{"bike_id":"8509fa5d-c6d9-4cb2-b4b1-4f2065b2666e","system_id":"levelo_inurba_marseille","lat":43.28344,"lon":5.41016,"is_reserved":false,"is_disabled":false,"rental_uris":{"android":"levelo://app?vid=8509fa5d-c6d9-4cb2-b4b1-4f2065b2666e","ios":"levelo://app?vid=8509fa5d-c6d9-4cb2-b4b1-4f2065b2666e"},"vehicle_type_id":"4","last_reported":1728832135,"current_range_meters":2800,"station_id":"","pricing_plan_id":"cebpf4jnsgd1na2vs0mg"},{"bike_id":"9dda7d9c-bf73-45c7-9b9d-10896ea5eb7b","system_id":"levelo_inurba_marseille","lat":43.24392,"lon":5.37067,"is_reserved":false,"is_disabled":false,"rental_uris":{"android":"levelo://app?vid=9dda7d9c-bf73-45c7-9b9d-10896ea5eb7b","ios":"levelo://app?vid=9dda7d9c-bf73-45c7-9b9d-10896ea5eb7b"},"vehicle_type_id":"4","last_reported":1728832135,"current_range_meters":33200,"station_id":"ce4bhhh2rcd13ifvqfk0","pricing_plan_id":"cebpf4jnsgd1na2vs0mg"},{"bike_id":"5901293b-61ef-402d-89bb-29d76b8c7144","system_id":"levelo_inurba_marseille","lat":43.30302,"lon":5.40217,"is_reserved":false,"is_disabled":false,"rental_uris":{"android":"levelo://app?vid=5901293b-61ef-402d-89bb-29d76b8c7144","ios":"levelo://app?vid=5901293b-61ef-402d-89bb-29d76b8c7144"},"vehicle_type_id":"4","last_reported":1728832135,"current_range_meters":18000,"station_id":"ce4bh112rcd13ifvqda0","pricing_plan_id":"cebpf4jnsgd1na2vs0mg"},{"bike_id":"27311a75-ebb6-43d6-9fb5-f3ba72a10e0e","system_id":"levelo_inurba_marseille","lat":43.299,"lon":5.43657,"is_reserved":false,"is_disabled":false,"rental_uris":{"android":"levelo://app?vid=27311a75-ebb6-43d6-9fb5-f3ba72a10e0e","ios":"levelo://app?vid=27311a75-ebb6-43d6-9fb5-f3ba72a10e0e"},"vehicle_type_id":"4","last_reported":1728832135,"current_range_meters":17200,"station_id":"ce4bhpp2rcd13ifvqhfg","pricing_plan_id":"cebpf4jnsgd1na2vs0mg"},{"bike_id":"4e28be52-5ccc-4188-b6d4-f6fd8ee4c8c3","system_id":"levelo_inurba_marseille","lat":43.22935,"lon":5.35375,"is_reserved":false,"is_disabled":false,"rental_uris":{"android":"levelo://app?vid=4e28be52-5ccc-4188-b6d4-f6fd8ee4c8c3","ios":"levelo://app?vid=4e28be52-5ccc-4188-b6d4-f6fd8ee4c8c3"},"vehicle_type_id":"4","last_reported":1728832135,"current_range_meters":22000,"station_id":"cpo3532slgdg3j2ikp40","pricing_plan_id":"cebpf4jnsgd1na2vs0mg"},{"bike_id":"9d6c38ac-4cf8-494f-8cc4-21c688c04cd8","system_id":"levelo_inurba_marseille","lat":43.28413,"lon":5.34976,"is_reserved":false,"is_disabled":false,"rental_uris":{"android":"levelo://app?vid=9d6c38ac-4cf8-494f-8cc4-21c688c04cd8","ios":"levelo://app?vid=9d6c38ac-4cf8-494f-8cc4-21c688c04cd8"},"vehicle_type_id":"4","last_reported":1728832135,"current_range_meters":14800,"station_id":"ce4bhbh2rcd13ifvqepg","pricing_plan_id":"cebpf4jnsgd1na2vs0mg"},{"bike_id":"b1483e38-92bb-491a-bacd-a2dca6f92aca","system_id":"levelo_inurba_marseille","lat":43.23061,"lon":5.35489,"is_reserved":false,"is_disabled":false,"rental_uris":{"android":"levelo://app?vid=b1483e38-92bb-491a-bacd-a2dca6f92aca","ios":"levelo://app?vid=b1483e38-92bb-491a-bacd-a2dca6f92aca"},"vehicle_type_id":"4","last_reported":1728832135,"current_range_meters":6800,"station_id":"cpo3342slgdg3j2ifvpg","pricing_plan_id":"cebpf4jnsgd1na2vs0mg"},{"bike_id":"c125659c-958d-46e0-903b-368579960dd5","system_id":"levelo_inurba_marseille","lat":43.24389,"lon":5.37052,"is_reserved":false,"is_disabled":false,"rental_uris":{"android":"levelo://app?vid=c125659c-958d-46e0-903b-368579960dd5","ios":"levelo://app?vid=c125659c-958d-46e0-903b-368579960dd5"},"vehicle_type_id":"4","last_reported":1728832135,"current_range_meters":27200,"station_id":"ce4bhhh2rcd13ifvqfk0","pricing_plan_id":"cebpf4jnsgd1na2vs0mg"},{"bike_id":"b4368419-62bd-463f-9ddd-d4ce82a9d697","system_id":"levelo_inurba_marseille","lat":43.282673,"lon":5.350564,"is_reserved":false,"is_disabled":false,"rental_uris":{"android":"levelo://app?vid=b4368419-62bd-463f-9ddd-d4ce82a9d697","ios":"levelo://app?vid=b4368419-62bd-463f-9ddd-d4ce82a9d697"},"vehicle_type_id":"4","last_reported":1728832135,"current_range_meters":36800,"station_id":"ce4bh4p2rcd13ifvqe1g","pricing_plan_id":"cebpf4jnsgd1na2vs0mg"},{"bike_id":"a3a84477-5d10-49c6-9fb2-19ecf72eca2a","system_id":"levelo_inurba_marseille","lat":43.23054,"lon":5.35495,"is_reserved":false,"is_disabled":false,"rental_uris":{"android":"levelo://app?vid=a3a84477-5d10-49c6-9fb2-19ecf72eca2a","ios":"levelo://app?vid=a3a84477-5d10-49c6-9fb2-19ecf72eca2a"},"vehicle_type_id":"4","last_reported":1728832135,"current_range_meters":7200,"station_id":"cpo3342slgdg3j2ifvpg","pricing_plan_id":"cebpf4jnsgd1na2vs0mg"},{"bike_id":"c5a187db-e278-4e0a-b184-28c59c5e6a1a","system_id":"levelo_inurba_marseille","lat":43.32535,"lon":5.4145,"is_reserved":false,"is_disabled":false,"rental_uris":{"android":"levelo://app?vid=c5a187db-e278-4e0a-b184-28c59c5e6a1a","ios":"levelo://app?vid=c5a187db-e278-4e0a-b184-28c59c5e6a1a"},"vehicle_type_id":"4","last_reported":1728832135,"current_range_meters":36800,"station_id":"ce4bhq12rcd13ifvqhhg","pricing_plan_id":"cebpf4jnsgd1na2vs0mg"},{"bike_id":"cba59919-95e6-42ff-83c9-6bcf45674d60","system_id":"levelo_inurba_marseille","lat":43.32288,"lon":5.38267,"is_reserved":false,"is_disabled":false,"rental_uris":{"android":"levelo://app?vid=cba59919-95e6-42ff-83c9-6bcf45674d60","ios":"levelo://app?vid=cba59919-95e6-42ff-83c9-6bcf45674d60"},"vehicle_type_id":"4","last_reported":1728832135,"current_range_meters":38800,"station_id":"ce4bhr12rcd13ifvqhqg","pricing_plan_id":"cebpf4jnsgd1na2vs0mg"},{"bike_id":"b65df58d-4eb4-473f-86e4-d588206b72a1","system_id":"levelo_inurba_marseille","lat":43.3047,"lon":5.379135,"is_reserved":false,"is_disabled":false,"rental_uris":{"android":"levelo://app?vid=b65df58d-4eb4-473f-86e4-d588206b72a1","ios":"levelo://app?vid=b65df58d-4eb4-473f-86e4-d588206b72a1"},"vehicle_type_id":"4","last_reported":1728832135,"current_range_meters":36000,"station_id":"ce4bgup2rcd13ifvqcn0","pricing_plan_id":"cebpf4jnsgd1na2vs0mg"},{"bike_id":"610bfb8b-3e91-4e90-b1f9-7f3d953e2cb4","system_id":"levelo_inurba_marseille","lat":43.24396,"lon":5.37067,"is_reserved":false,"is_disabled":false,"rental_uris":{"android":"levelo://app?vid=610bfb8b-3e91-4e90-b1f9-7f3d953e2cb4","ios":"levelo://app?vid=610bfb8b-3e91-4e90-b1f9-7f3d953e2cb4"},"vehicle_type_id":"4","last_reported":1728832135,"current_range_meters":20800,"station_id":"ce4bhhh2rcd13ifvqfk0","pricing_plan_id":"cebpf4jnsgd1na2vs0mg"},{"bike_id":"555e5659-0e16-41e4-b7df-62030b03e6ca","system_id":"levelo_inurba_marseille","lat":43.32259,"lon":5.38522,"is_reserved":false,"is_disabled":false,"rental_uris":{"android":"levelo://app?vid=555e5659-0e16-41e4-b7df-62030b03e6ca","ios":"levelo://app?vid=555e5659-0e16-41e4-b7df-62030b03e6ca"},"vehicle_type_id":"4","last_reported":1728832135,"current_range_meters":26000,"station_id":"ce4bhqp2rcd13ifvqhng","pricing_plan_id":"cebpf4jnsgd1na2vs0mg"},{"bike_id":"b0685f0b-a65d-412f-9834-673d98a45357","system_id":"levelo_inurba_marseille","lat":43.23204,"lon":5.35548,"is_reserved":false,"is_disabled":false,"rental_uris":{"android":"levelo://app?vid=b0685f0b-a65d-412f-9834-673d98a45357","ios":"levelo://app?vid=b0685f0b-a65d-412f-9834-673d98a45357"},"vehicle_type_id":"4","last_reported":1728832135,"current_range_meters":15200,"station_id":"ce4bhu92rcd13ifvqi70","pricing_plan_id":"cebpf4jnsgd1na2vs0mg"},{"bike_id":"60b5543d-1a05-461f-b8de-e22995173343","system_id":"levelo_inurba_marseille","lat":43.24549,"lon":5.39522,"is_reserved":false,"is_disabled":false,"rental_uris":{"android":"levelo://app?vid=60b5543d-1a05-461f-b8de-e22995173343","ios":"levelo://app?vid=60b5543d-1a05-461f-b8de-e22995173343"},"vehicle_type_id":"4","last_reported":1728832135,"current_range_meters":38400,"station_id":"ce4bhlp2rcd13ifvqgjg","pricing_plan_id":"cebpf4jnsgd1na2vs0mg"},{"bike_id":"37faf882-339d-4723-b43e-7fbb2b9b920f","system_id":"levelo_inurba_marseille","lat":43.24388,"lon":5.37068,"is_reserved":false,"is_disabled":false,"rental_uris":{"android":"levelo://app?vid=37faf882-339d-4723-b43e-7fbb2b9b920f","ios":"levelo://app?vid=37faf882-339d-4723-b43e-7fbb2b9b920f"},"vehicle_type_id":"4","last_reported":1728832135,"current_range_meters":24400,"station_id":"ce4bhhh2rcd13ifvqfk0","pricing_plan_id":"cebpf4jnsgd1na2vs0mg"},{"bike_id":"8eb5e8c7-5ba5-4d04-9248-917b20970616","system_id":"levelo_inurba_marseille","lat":43.24172,"lon":5.36403,"is_reserved":false,"is_disabled":false,"rental_uris":{"android":"levelo://app?vid=8eb5e8c7-5ba5-4d04-9248-917b20970616","ios":"levelo://app?vid=8eb5e8c7-5ba5-4d04-9248-917b20970616"},"vehicle_type_id":"4","last_reported":1728832135,"current_range_meters":33200,"station_id":"cpo36qri1sfpv3e86is0","pricing_plan_id":"cebpf4jnsgd1na2vs0mg"},{"bike_id":"63bb0abb-b0f6-472f-bbdb-b3213a19ed02","system_id":"levelo_inurba_marseille","lat":43.2803,"lon":5.36944,"is_reserved":false,"is_disabled":false,"rental_uris":{"android":"levelo://app?vid=63bb0abb-b0f6-472f-bbdb-b3213a19ed02","ios":"levelo://app?vid=63bb0abb-b0f6-472f-bbdb-b3213a19ed02"},"vehicle_type_id":"4","last_reported":1728832135,"current_range_meters":8800,"station_id":"ce4bha12rcd13ifvqef0","pricing_plan_id":"cebpf4jnsgd1na2vs0mg"},{"bike_id":"7054d3fe-1636-41b1-af8a-ce12a779ebeb","system_id":"levelo_inurba_marseille","lat":43.2306,"lon":5.35495,"is_reserved":false,"is_disabled":false,"rental_uris":{"android":"levelo://app?vid=7054d3fe-1636-41b1-af8a-ce12a779ebeb","ios":"levelo://app?vid=7054d3fe-1636-41b1-af8a-ce12a779ebeb"},"vehicle_type_id":"4","last_reported":1728832135,"current_range_meters":17200,"station_id":"cpo3342slgdg3j2ifvpg","pricing_plan_id":"cebpf4jnsgd1na2vs0mg"},{"bike_id":"6270b2cb-b9d1-4c44-8a65-8639c3de6250","system_id":"levelo_inurba_marseille","lat":43.291931,"lon":5.358,"is_reserved":false,"is_disabled":false,"rental_uris":{"android":"levelo://app?vid=6270b2cb-b9d1-4c44-8a65-8639c3de6250","ios":"levelo://app?vid=6270b2cb-b9d1-4c44-8a65-8639c3de6250"},"vehicle_type_id":"4","last_reported":1728832135,"current_range_meters":8400,"station_id":"ce4bh392rcd13ifvqdl0","pricing_plan_id":"cebpf4jnsgd1na2vs0mg"},{"bike_id":"adf7f252-dbc1-459a-8043-ad1f1eca0157","system_id":"levelo_inurba_marseille","lat":43.33722,"lon":5.39184,"is_reserved":false,"is_disabled":false,"rental_uris":{"android":"levelo://app?vid=adf7f252-dbc1-459a-8043-ad1f1eca0157","ios":"levelo://app?vid=adf7f252-dbc1-459a-8043-ad1f1eca0157"},"vehicle_type_id":"4","last_reported":1728832135,"current_range_meters":33600,"station_id":"ce4bhr92rcd13ifvqhsg","pricing_plan_id":"cebpf4jnsgd1na2vs0mg"},{"bike_id":"02094db6-eac9-4613-8552-aa2869e7ca37","system_id":"levelo_inurba_marseille","lat":43.23638,"lon":5.39241,"is_reserved":false,"is_disabled":false,"rental_uris":{"android":"levelo://app?vid=02094db6-eac9-4613-8552-aa2869e7ca37","ios":"levelo://app?vid=02094db6-eac9-4613-8552-aa2869e7ca37"},"vehicle_type_id":"4","last_reported":1728832135,"current_range_meters":2000,"station_id":"ce4bhm12rcd13ifvqgkg","pricing_plan_id":"cebpf4jnsgd1na2vs0mg"},{"bike_id":"d74ec44b-9cea-4248-a2e4-6a3f2f9cc937","system_id":"levelo_inurba_marseille","lat":43.28417,"lon":5.34991,"is_reserved":false,"is_disabled":false,"rental_uris":{"android":"levelo://app?vid=d74ec44b-9cea-4248-a2e4-6a3f2f9cc937","ios":"levelo://app?vid=d74ec44b-9cea-4248-a2e4-6a3f2f9cc937"},"vehicle_type_id":"4","last_reported":1728832135,"current_range_meters":25600,"station_id":"ce4bhbh2rcd13ifvqepg","pricing_plan_id":"cebpf4jnsgd1na2vs0mg"},{"bike_id":"ea301184-0469-45e7-b8ba-23349bbdbee6","system_id":"levelo_inurba_marseille","lat":43.28614,"lon":5.35106,"is_reserved":false,"is_disabled":false,"rental_uris":{"android":"levelo://app?vid=ea301184-0469-45e7-b8ba-23349bbdbee6","ios":"levelo://app?vid=ea301184-0469-45e7-b8ba-23349bbdbee6"},"vehicle_type_id":"4","last_reported":1728832135,"current_range_meters":24800,"station_id":"ce4bhch2rcd13ifvqeug","pricing_plan_id":"cebpf4jnsgd1na2vs0mg"},{"bike_id":"75a9ec36-d628-425b-8f28-3dfba3d5b08e","system_id":"levelo_inurba_marseille","lat":43.31186,"lon":5.37887,"is_reserved":false,"is_disabled":false,"rental_uris":{"android":"levelo://app?vid=75a9ec36-d628-425b-8f28-3dfba3d5b08e","ios":"levelo://app?vid=75a9ec36-d628-425b-8f28-3dfba3d5b08e"},"vehicle_type_id":"4","last_reported":1728832135,"current_range_meters":38800,"station_id":"","pricing_plan_id":"cebpf4jnsgd1na2vs0mg"},{"bike_id":"c09f151a-658a-442c-9172-9ea6de5ab7b0","system_id":"levelo_inurba_marseille","lat":43.31361,"lon":5.38495,"is_reserved":false,"is_disabled":false,"rental_uris":{"android":"levelo://app?vid=c09f151a-658a-442c-9172-9ea6de5ab7b0","ios":"levelo://app?vid=c09f151a-658a-442c-9172-9ea6de5ab7b0"},"vehicle_type_id":"4","last_reported":1728832135,"current_range_meters":16800,"station_id":"ce4bgt92rcd13ifvqcf0","pricing_plan_id":"cebpf4jnsgd1na2vs0mg"},{"bike_id":"0fe37e89-fefc-4545-8187-5b1fdd7e5f70","system_id":"levelo_inurba_marseille","lat":43.32263,"lon":5.38519,"is_reserved":false,"is_disabled":false,"rental_uris":{"android":"levelo://app?vid=0fe37e89-fefc-4545-8187-5b1fdd7e5f70","ios":"levelo://app?vid=0fe37e89-fefc-4545-8187-5b1fdd7e5f70"},"vehicle_type_id":"4","last_reported":1728832135,"current_range_meters":8000,"station_id":"","pricing_plan_id":"cebpf4jnsgd1na2vs0mg"},{"bike_id":"9d960984-c801-496e-bb50-c485ac295345","system_id":"levelo_inurba_marseille","lat":43.30356,"lon":5.41888,"is_reserved":false,"is_disabled":false,"rental_uris":{"android":"levelo://app?vid=9d960984-c801-496e-bb50-c485ac295345","ios":"levelo://app?vid=9d960984-c801-496e-bb50-c485ac295345"},"vehicle_type_id":"4","last_reported":1728832135,"current_range_meters":26800,"station_id":"ce4bhop2rcd13ifvqh7g","pricing_plan_id":"cebpf4jnsgd1na2vs0mg"},{"bike_id":"b6ef4af5-5d95-480b-822e-de4ab8a7e674","system_id":"levelo_inurba_marseille","lat":43.28937,"lon":5.36638,"is_reserved":false,"is_disabled":false,"rental_uris":{"android":"levelo://app?vid=b6ef4af5-5d95-480b-822e-de4ab8a7e674","ios":"levelo://app?vid=b6ef4af5-5d95-480b-822e-de4ab8a7e674"},"vehicle_type_id":"4","last_reported":1728832135,"current_range_meters":38800,"station_id":"ce4bhap2rcd13ifvqek0","pricing_plan_id":"cebpf4jnsgd1na2vs0mg"},{"bike_id":"2f19d9b2-60a0-45bf-bf48-04c9ce231242","system_id":"levelo_inurba_marseille","lat":43.25583,"lon":5.38239,"is_reserved":false,"is_disabled":false,"rental_uris":{"android":"levelo://app?vid=2f19d9b2-60a0-45bf-bf48-04c9ce231242","ios":"levelo://app?vid=2f19d9b2-60a0-45bf-bf48-04c9ce231242"},"vehicle_type_id":"4","last_reported":1728832135,"current_range_meters":8000,"station_id":"ce4bhih2rcd13ifvqfs0","pricing_plan_id":"cebpf4jnsgd1na2vs0mg"},{"bike_id":"dd12a81b-df1d-4332-b478-6d95ccb259ca","system_id":"levelo_inurba_marseille","lat":43.23068,"lon":5.35489,"is_reserved":false,"is_disabled":false,"rental_uris":{"android":"levelo://app?vid=dd12a81b-df1d-4332-b478-6d95ccb259ca","ios":"levelo://app?vid=dd12a81b-df1d-4332-b478-6d95ccb259ca"},"vehicle_type_id":"4","last_reported":1728832135,"current_range_meters":35200,"station_id":"cpo3342slgdg3j2ifvpg","pricing_plan_id":"cebpf4jnsgd1na2vs0mg"},{"bike_id":"c76e8362-96c3-4b32-a1ad-7fb3c9df8acc","system_id":"levelo_inurba_marseille","lat":43.29618,"lon":5.37701,"is_reserved":false,"is_disabled":false,"rental_uris":{"android":"levelo://app?vid=c76e8362-96c3-4b32-a1ad-7fb3c9df8acc","ios":"levelo://app?vid=c76e8362-96c3-4b32-a1ad-7fb3c9df8acc"},"vehicle_type_id":"4","last_reported":1728832135,"current_range_meters":37600,"station_id":"ce4bgi92rcd13ifvqb90","pricing_plan_id":"cebpf4jnsgd1na2vs0mg"},{"bike_id":"904466af-25d0-423c-9edb-fb7fc8114abe","system_id":"levelo_inurba_marseille","lat":43.23192,"lon":5.35545,"is_reserved":false,"is_disabled":false,"rental_uris":{"android":"levelo://app?vid=904466af-25d0-423c-9edb-fb7fc8114abe","ios":"levelo://app?vid=904466af-25d0-423c-9edb-fb7fc8114abe"},"vehicle_type_id":"4","last_reported":1728832135,"current_range_meters":10000,"station_id":"ce4bhu92rcd13ifvqi70","pricing_plan_id":"cebpf4jnsgd1na2vs0mg"},{"bike_id":"548e77b5-c9c0-4a91-8456-0a708421fe75","system_id":"levelo_inurba_marseille","lat":43.32041,"lon":5.41576,"is_reserved":false,"is_disabled":false,"rental_uris":{"android":"levelo://app?vid=548e77b5-c9c0-4a91-8456-0a708421fe75","ios":"levelo://app?vid=548e77b5-c9c0-4a91-8456-0a708421fe75"},"vehicle_type_id":"4","last_reported":1728832135,"current_range_meters":18000,"station_id":"ce4bhq92rcd13ifvqhkg","pricing_plan_id":"cebpf4jnsgd1na2vs0mg"},{"bike_id":"ac5da1c1-9595-43c3-b342-bc756c265919","system_id":"levelo_inurba_marseille","lat":43.25076,"lon":5.37542,"is_reserved":false,"is_disabled":false,"rental_uris":{"android":"levelo://app?vid=ac5da1c1-9595-43c3-b342-bc756c265919","ios":"levelo://app?vid=ac5da1c1-9595-43c3-b342-bc756c265919"},"vehicle_type_id":"4","last_reported":1728832135,"current_range_meters":17600,"station_id":"ce4bhgh2rcd13ifvqfb0","pricing_plan_id":"cebpf4jnsgd1na2vs0mg"},{"bike_id":"2718c020-a84e-4471-819e-c742d3136ae8","system_id":"levelo_inurba_marseille","lat":43.29006,"lon":5.35612,"is_reserved":false,"is_disabled":false,"rental_uris":{"android":"levelo://app?vid=2718c020-a84e-4471-819e-c742d3136ae8","ios":"levelo://app?vid=2718c020-a84e-4471-819e-c742d3136ae8"},"vehicle_type_id":"4","last_reported":1728832135,"current_range_meters":18800,"station_id":"ce4bhb92rcd13ifvqen0","pricing_plan_id":"cebpf4jnsgd1na2vs0mg"},{"bike_id":"63f00d18-d297-464f-aedc-5d650a6128d5","system_id":"levelo_inurba_marseille","lat":43.22926,"lon":5.35372,"is_reserved":false,"is_disabled":false,"rental_uris":{"android":"levelo://app?vid=63f00d18-d297-464f-aedc-5d650a6128d5","ios":"levelo://app?vid=63f00d18-d297-464f-aedc-5d650a6128d5"},"vehicle_type_id":"4","last_reported":1728832135,"current_range_meters":2800,"station_id":"cpo3532slgdg3j2ikp40","pricing_plan_id":"cebpf4jnsgd1na2vs0mg"},{"bike_id":"80e24309-1f8b-49d9-9ffe-faac854e74eb","system_id":"levelo_inurba_marseille","lat":43.23191,"lon":5.35554,"is_reserved":false,"is_disabled":false,"rental_uris":{"android":"levelo://app?vid=80e24309-1f8b-49d9-9ffe-faac854e74eb","ios":"levelo://app?vid=80e24309-1f8b-49d9-9ffe-faac854e74eb"},"vehicle_type_id":"4","last_reported":1728832135,"current_range_meters":6400,"station_id":"ce4bhu92rcd13ifvqi70","pricing_plan_id":"cebpf4jnsgd1na2vs0mg"},{"bike_id":"9095290b-219a-4f76-be25-7e13c1610429","system_id":"levelo_inurba_marseille","lat":43.28405,"lon":5.37509,"is_reserved":false,"is_disabled":false,"rental_uris":{"android":"levelo://app?vid=9095290b-219a-4f76-be25-7e13c1610429","ios":"levelo://app?vid=9095290b-219a-4f76-be25-7e13c1610429"},"vehicle_type_id":"4","last_reported":1728832135,"current_range_meters":6400,"station_id":"ce4bh412rcd13ifvqds0","pricing_plan_id":"cebpf4jnsgd1na2vs0mg"},{"bike_id":"600a6ea5-5c70-4f25-9b57-c621b8210681","system_id":"levelo_inurba_marseille","lat":43.32666,"lon":5.40983,"is_reserved":false,"is_disabled":false,"rental_uris":{"android":"levelo://app?vid=600a6ea5-5c70-4f25-9b57-c621b8210681","ios":"levelo://app?vid=600a6ea5-5c70-4f25-9b57-c621b8210681"},"vehicle_type_id":"4","last_reported":1728832135,"current_range_meters":28000,"station_id":"ce4bhpp2rcd13ifvqhgg","pricing_plan_id":"cebpf4jnsgd1na2vs0mg"},{"bike_id":"49a33660-70df-41b0-803b-0aabe810d4c9","system_id":"levelo_inurba_marseille","lat":43.294189,"lon":5.38609,"is_reserved":false,"is_disabled":false,"rental_uris":{"android":"levelo://app?vid=49a33660-70df-41b0-803b-0aabe810d4c9","ios":"levelo://app?vid=49a33660-70df-41b0-803b-0aabe810d4c9"},"vehicle_type_id":"4","last_reported":1728832135,"current_range_meters":2000,"station_id":"ce4bh2h2rcd13ifvqdh0","pricing_plan_id":"cebpf4jnsgd1na2vs0mg"},{"bike_id":"6624b9d8-1734-4c69-b27b-12ce48cf311f","system_id":"levelo_inurba_marseille","lat":43.23189,"lon":5.35546,"is_reserved":false,"is_disabled":false,"rental_uris":{"android":"levelo://app?vid=6624b9d8-1734-4c69-b27b-12ce48cf311f","ios":"levelo://app?vid=6624b9d8-1734-4c69-b27b-12ce48cf311f"},"vehicle_type_id":"4","last_reported":1728832135,"current_range_meters":12400,"station_id":"ce4bhu92rcd13ifvqi70","pricing_plan_id":"cebpf4jnsgd1na2vs0mg"},{"bike_id":"229be727-abef-439f-8d28-2559ad0688b4","system_id":"levelo_inurba_marseille","lat":43.22924,"lon":5.35376,"is_reserved":false,"is_disabled":false,"rental_uris":{"android":"levelo://app?vid=229be727-abef-439f-8d28-2559ad0688b4","ios":"levelo://app?vid=229be727-abef-439f-8d28-2559ad0688b4"},"vehicle_type_id":"4","last_reported":1728832135,"current_range_meters":6000,"station_id":"cpo3532slgdg3j2ikp40","pricing_plan_id":"cebpf4jnsgd1na2vs0mg"},{"bike_id":"f6f0c732-a45e-4df6-a663-c6bc8797fbaf","system_id":"levelo_inurba_marseille","lat":43.292603,"lon":5.384406,"is_reserved":false,"is_disabled":false,"rental_uris":{"android":"levelo://app?vid=f6f0c732-a45e-4df6-a663-c6bc8797fbaf","ios":"levelo://app?vid=f6f0c732-a45e-4df6-a663-c6bc8797fbaf"},"vehicle_type_id":"4","last_reported":1728832135,"current_range_meters":5600,"station_id":"ce4bh692rcd13ifvqea0","pricing_plan_id":"cebpf4jnsgd1na2vs0mg"},{"bike_id":"ec459838-8836-4c06-b999-7605dedea091","system_id":"levelo_inurba_marseille","lat":43.23197,"lon":5.35546,"is_reserved":false,"is_disabled":false,"rental_uris":{"android":"levelo://app?vid=ec459838-8836-4c06-b999-7605dedea091","ios":"levelo://app?vid=ec459838-8836-4c06-b999-7605dedea091"},"vehicle_type_id":"4","last_reported":1728832135,"current_range_meters":24800,"station_id":"ce4bhu92rcd13ifvqi70","pricing_plan_id":"cebpf4jnsgd1na2vs0mg"},{"bike_id":"53c94948-8907-4a4a-85c7-d90b0320e3ea","system_id":"levelo_inurba_marseille","lat":43.30898,"lon":5.37185,"is_reserved":false,"is_disabled":false,"rental_uris":{"android":"levelo://app?vid=53c94948-8907-4a4a-85c7-d90b0320e3ea","ios":"levelo://app?vid=53c94948-8907-4a4a-85c7-d90b0320e3ea"},"vehicle_type_id":"4","last_reported":1728832135,"current_range_meters":22400,"station_id":"ce4bguh2rcd13ifvqckg","pricing_plan_id":"cebpf4jnsgd1na2vs0mg"},{"bike_id":"eb41ccdf-2889-48ad-a482-d36521dbc5fe","system_id":"levelo_inurba_marseille","lat":43.29774,"lon":5.37126,"is_reserved":false,"is_disabled":false,"rental_uris":{"android":"levelo://app?vid=eb41ccdf-2889-48ad-a482-d36521dbc5fe","ios":"levelo://app?vid=eb41ccdf-2889-48ad-a482-d36521dbc5fe"},"vehicle_type_id":"4","last_reported":1728832135,"current_range_meters":38400,"station_id":"ce4bgop2rcd13ifvqc1g","pricing_plan_id":"cebpf4jnsgd1na2vs0mg"},{"bike_id":"e9d36e57-1916-4818-8a02-744b7b9f3d38","system_id":"levelo_inurba_marseille","lat":43.26559,"lon":5.37283,"is_reserved":false,"is_disabled":false,"rental_uris":{"android":"levelo://app?vid=e9d36e57-1916-4818-8a02-744b7b9f3d38","ios":"levelo://app?vid=e9d36e57-1916-4818-8a02-744b7b9f3d38"},"vehicle_type_id":"4","last_reported":1728832135,"current_range_meters":4800,"station_id":"ce4bhg12rcd13ifvqf70","pricing_plan_id":"cebpf4jnsgd1na2vs0mg"},{"bike_id":"226623ac-1bbb-4e16-ae43-d79ffea81b61","system_id":"levelo_inurba_marseille","lat":43.29025,"lon":5.38132,"is_reserved":false,"is_disabled":false,"rental_uris":{"android":"levelo://app?vid=226623ac-1bbb-4e16-ae43-d79ffea81b61","ios":"levelo://app?vid=226623ac-1bbb-4e16-ae43-d79ffea81b61"},"vehicle_type_id":"4","last_reported":1728832135,"current_range_meters":14400,"station_id":"ce4bh4p2rcd13ifvqe1g","pricing_plan_id":"cebpf4jnsgd1na2vs0mg"},{"bike_id":"3c25dded-f8d5-4193-a336-9fad641c4aac","system_id":"levelo_inurba_marseille","lat":43.33752,"lon":5.3748,"is_reserved":false,"is_disabled":false,"rental_uris":{"android":"levelo://app?vid=3c25dded-f8d5-4193-a336-9fad641c4aac","ios":"levelo://app?vid=3c25dded-f8d5-4193-a336-9fad641c4aac"},"vehicle_type_id":"4","last_reported":1728832135,"current_range_meters":29600,"station_id":"","pricing_plan_id":"cebpf4jnsgd1na2vs0mg"},{"bike_id":"d376e732-619b-4958-b822-328a86218e89","system_id":"levelo_inurba_marseille","lat":43.2439,"lon":5.37061,"is_reserved":false,"is_disabled":false,"rental_uris":{"android":"levelo://app?vid=d376e732-619b-4958-b822-328a86218e89","ios":"levelo://app?vid=d376e732-619b-4958-b822-328a86218e89"},"vehicle_type_id":"4","last_reported":1728832135,"current_range_meters":37600,"station_id":"ce4bhhh2rcd13ifvqfk0","pricing_plan_id":"cebpf4jnsgd1na2vs0mg"},{"bike_id":"7975faaf-f260-41c7-87cd-147b9a3b3ebf","system_id":"levelo_inurba_marseille","lat":43.23057,"lon":5.35494,"is_reserved":false,"is_disabled":false,"rental_uris":{"android":"levelo://app?vid=7975faaf-f260-41c7-87cd-147b9a3b3ebf","ios":"levelo://app?vid=7975faaf-f260-41c7-87cd-147b9a3b3ebf"},"vehicle_type_id":"4","last_reported":1728832135,"current_range_meters":29600,"station_id":"cpo3342slgdg3j2ifvpg","pricing_plan_id":"cebpf4jnsgd1na2vs0mg"},{"bike_id":"cc450442-09b5-48c3-8d85-f842dcc424ec","system_id":"levelo_inurba_marseille","lat":43.28421,"lon":5.34991,"is_reserved":false,"is_disabled":false,"rental_uris":{"android":"levelo://app?vid=cc450442-09b5-48c3-8d85-f842dcc424ec","ios":"levelo://app?vid=cc450442-09b5-48c3-8d85-f842dcc424ec"},"vehicle_type_id":"4","last_reported":1728832135,"current_range_meters":37600,"station_id":"ce4bhbh2rcd13ifvqepg","pricing_plan_id":"cebpf4jnsgd1na2vs0mg"},{"bike_id":"208e043b-f932-4a94-a56c-83231da92c43","system_id":"levelo_inurba_marseille","lat":43.23189,"lon":5.35549,"is_reserved":false,"is_disabled":false,"rental_uris":{"android":"levelo://app?vid=208e043b-f932-4a94-a56c-83231da92c43","ios":"levelo://app?vid=208e043b-f932-4a94-a56c-83231da92c43"},"vehicle_type_id":"4","last_reported":1728832135,"current_range_meters":16800,"station_id":"ce4bhu92rcd13ifvqi70","pricing_plan_id":"cebpf4jnsgd1na2vs0mg"},{"bike_id":"4fe59e96-6f76-4286-8a71-341856f4f658","system_id":"levelo_inurba_marseille","lat":43.28616,"lon":5.3511,"is_reserved":false,"is_disabled":false,"rental_uris":{"android":"levelo://app?vid=4fe59e96-6f76-4286-8a71-341856f4f658","ios":"levelo://app?vid=4fe59e96-6f76-4286-8a71-341856f4f658"},"vehicle_type_id":"4","last_reported":1728832135,"current_range_meters":34800,"station_id":"ce4bhch2rcd13ifvqeug","pricing_plan_id":"cebpf4jnsgd1na2vs0mg"},{"bike_id":"62025a61-2434-4ecd-b35c-8ad16aac52d7","system_id":"levelo_inurba_marseille","lat":43.25573,"lon":5.3824,"is_reserved":false,"is_disabled":false,"rental_uris":{"android":"levelo://app?vid=62025a61-2434-4ecd-b35c-8ad16aac52d7","ios":"levelo://app?vid=62025a61-2434-4ecd-b35c-8ad16aac52d7"},"vehicle_type_id":"4","last_reported":1728832135,"current_range_meters":2800,"station_id":"ce4bhih2rcd13ifvqfs0","pricing_plan_id":"cebpf4jnsgd1na2vs0mg"},{"bike_id":"deb62c9e-acb4-4b40-8262-f4faae509174","system_id":"levelo_inurba_marseille","lat":43.24386,"lon":5.37062,"is_reserved":false,"is_disabled":false,"rental_uris":{"android":"levelo://app?vid=deb62c9e-acb4-4b40-8262-f4faae509174","ios":"levelo://app?vid=deb62c9e-acb4-4b40-8262-f4faae509174"},"vehicle_type_id":"4","last_reported":1728832135,"current_range_meters":28000,"station_id":"ce4bhhh2rcd13ifvqfk0","pricing_plan_id":"cebpf4jnsgd1na2vs0mg"},{"bike_id":"09353ece-b70a-4200-9c34-b448dcfc77d1","system_id":"levelo_inurba_marseille","lat":43.281228,"lon":5.378405,"is_reserved":false,"is_disabled":false,"rental_uris":{"android":"levelo://app?vid=09353ece-b70a-4200-9c34-b448dcfc77d1","ios":"levelo://app?vid=09353ece-b70a-4200-9c34-b448dcfc77d1"},"vehicle_type_id":"4","last_reported":1728832135,"current_range_meters":24000,"station_id":"ce4bgs12rcd13ifvqcag","pricing_plan_id":"cebpf4jnsgd1na2vs0mg"},{"bike_id":"f586f28e-121f-4487-b0c6-c0d3e25cf274","system_id":"levelo_inurba_marseille","lat":43.30282,"lon":5.39639,"is_reserved":false,"is_disabled":false,"rental_uris":{"android":"levelo://app?vid=f586f28e-121f-4487-b0c6-c0d3e25cf274","ios":"levelo://app?vid=f586f28e-121f-4487-b0c6-c0d3e25cf274"},"vehicle_type_id":"4","last_reported":1728832135,"current_range_meters":16800,"station_id":"ce4bh612rcd13ifvqe6g","pricing_plan_id":"cebpf4jnsgd1na2vs0mg"},{"bike_id":"79f612ab-c384-43fd-bb03-c921a5687285","system_id":"levelo_inurba_marseille","lat":43.2396,"lon":5.36629,"is_reserved":false,"is_disabled":false,"rental_uris":{"android":"levelo://app?vid=79f612ab-c384-43fd-bb03-c921a5687285","ios":"levelo://app?vid=79f612ab-c384-43fd-bb03-c921a5687285"},"vehicle_type_id":"4","last_reported":1728832135,"current_range_meters":14000,"station_id":"ce4bhi12rcd13ifvqfp0","pricing_plan_id":"cebpf4jnsgd1na2vs0mg"},{"bike_id":"5b7c7875-1d91-4ce1-8c6a-18c2464c67f1","system_id":"levelo_inurba_marseille","lat":43.32225,"lon":5.3865,"is_reserved":false,"is_disabled":false,"rental_uris":{"android":"levelo://app?vid=5b7c7875-1d91-4ce1-8c6a-18c2464c67f1","ios":"levelo://app?vid=5b7c7875-1d91-4ce1-8c6a-18c2464c67f1"},"vehicle_type_id":"4","last_reported":1728832135,"current_range_meters":9600,"station_id":"","pricing_plan_id":"cebpf4jnsgd1na2vs0mg"},{"bike_id":"f26d9773-5d64-4ce0-b0ae-83a6de365891","system_id":"levelo_inurba_marseille","lat":43.29887,"lon":5.40185,"is_reserved":false,"is_disabled":false,"rental_uris":{"android":"levelo://app?vid=f26d9773-5d64-4ce0-b0ae-83a6de365891","ios":"levelo://app?vid=f26d9773-5d64-4ce0-b0ae-83a6de365891"},"vehicle_type_id":"4","last_reported":1728832135,"current_range_meters":7200,"station_id":"","pricing_plan_id":"cebpf4jnsgd1na2vs0mg"},{"bike_id":"37a9ef15-0738-4d36-96b8-a47554704b59","system_id":"levelo_inurba_marseille","lat":43.29223,"lon":5.36043,"is_reserved":false,"is_disabled":false,"rental_uris":{"android":"levelo://app?vid=37a9ef15-0738-4d36-96b8-a47554704b59","ios":"levelo://app?vid=37a9ef15-0738-4d36-96b8-a47554704b59"},"vehicle_type_id":"4","last_reported":1728832135,"current_range_meters":34800,"station_id":"ce4bhbh2rcd13ifvqeqg","pricing_plan_id":"cebpf4jnsgd1na2vs0mg"},{"bike_id":"21ffc535-a2dd-45a6-8be4-e3bbbb3fed04","system_id":"levelo_inurba_marseille","lat":43.26031,"lon":5.37546,"is_reserved":false,"is_disabled":false,"rental_uris":{"android":"levelo://app?vid=21ffc535-a2dd-45a6-8be4-e3bbbb3fed04","ios":"levelo://app?vid=21ffc535-a2dd-45a6-8be4-e3bbbb3fed04"},"vehicle_type_id":"4","last_reported":1728832135,"current_range_meters":24000,"station_id":"ce4bhgh2rcd13ifvqfa0","pricing_plan_id":"cebpf4jnsgd1na2vs0mg"},{"bike_id":"cf5059c1-8165-46ed-ba92-f29241d79098","system_id":"levelo_inurba_marseille","lat":43.28617,"lon":5.35099,"is_reserved":false,"is_disabled":false,"rental_uris":{"android":"levelo://app?vid=cf5059c1-8165-46ed-ba92-f29241d79098","ios":"levelo://app?vid=cf5059c1-8165-46ed-ba92-f29241d79098"},"vehicle_type_id":"4","last_reported":1728832135,"current_range_meters":38800,"station_id":"ce4bhch2rcd13ifvqeug","pricing_plan_id":"cebpf4jnsgd1na2vs0mg"},{"bike_id":"e411e0cd-ce5d-4ad0-ab27-b867afbd800e","system_id":"levelo_inurba_marseille","lat":43.27977,"lon":5.38749,"is_reserved":false,"is_disabled":false,"rental_uris":{"android":"levelo://app?vid=e411e0cd-ce5d-4ad0-ab27-b867afbd800e","ios":"levelo://app?vid=e411e0cd-ce5d-4ad0-ab27-b867afbd800e"},"vehicle_type_id":"4","last_reported":1728832135,"current_range_meters":2800,"station_id":"ce4bhg12rcd13ifvqf80","pricing_plan_id":"cebpf4jnsgd1na2vs0mg"},{"bike_id":"8af4aa04-71c6-48e0-b118-119c9302970d","system_id":"levelo_inurba_marseille","lat":43.23197,"lon":5.35546,"is_reserved":false,"is_disabled":false,"rental_uris":{"android":"levelo://app?vid=8af4aa04-71c6-48e0-b118-119c9302970d","ios":"levelo://app?vid=8af4aa04-71c6-48e0-b118-119c9302970d"},"vehicle_type_id":"4","last_reported":1728832135,"current_range_meters":26800,"station_id":"ce4bhu92rcd13ifvqi70","pricing_plan_id":"cebpf4jnsgd1na2vs0mg"},{"bike_id":"210bc098-e088-451f-93ca-c93392185d0d","system_id":"levelo_inurba_marseille","lat":43.28274,"lon":5.35069,"is_reserved":false,"is_disabled":false,"rental_uris":{"android":"levelo://app?vid=210bc098-e088-451f-93ca-c93392185d0d","ios":"levelo://app?vid=210bc098-e088-451f-93ca-c93392185d0d"},"vehicle_type_id":"4","last_reported":1728832135,"current_range_meters":27200,"station_id":"ce4bhbp2rcd13ifvqerg","pricing_plan_id":"cebpf4jnsgd1na2vs0mg"},{"bike_id":"62914b4f-1383-4682-8b2d-caef6dd99726","system_id":"levelo_inurba_marseille","lat":43.21651,"lon":5.34296,"is_reserved":false,"is_disabled":false,"rental_uris":{"android":"levelo://app?vid=62914b4f-1383-4682-8b2d-caef6dd99726","ios":"levelo://app?vid=62914b4f-1383-4682-8b2d-caef6dd99726"},"vehicle_type_id":"4","last_reported":1728832135,"current_range_meters":9600,"station_id":"","pricing_plan_id":"cebpf4jnsgd1na2vs0mg"},{"bike_id":"f2412a83-c118-4289-bc72-f6b91c0e262b","system_id":"levelo_inurba_marseille","lat":43.33027,"lon":5.39031,"is_reserved":false,"is_disabled":false,"rental_uris":{"android":"levelo://app?vid=f2412a83-c118-4289-bc72-f6b91c0e262b","ios":"levelo://app?vid=f2412a83-c118-4289-bc72-f6b91c0e262b"},"vehicle_type_id":"4","last_reported":1728832135,"current_range_meters":20400,"station_id":"ce4bhr92rcd13ifvqhrg","pricing_plan_id":"cebpf4jnsgd1na2vs0mg"},{"bike_id":"d0af47d5-71a2-4e6e-a4f7-a2d225b8e53a","system_id":"levelo_inurba_marseille","lat":43.23055,"lon":5.35491,"is_reserved":false,"is_disabled":false,"rental_uris":{"android":"levelo://app?vid=d0af47d5-71a2-4e6e-a4f7-a2d225b8e53a","ios":"levelo://app?vid=d0af47d5-71a2-4e6e-a4f7-a2d225b8e53a"},"vehicle_type_id":"4","last_reported":1728832135,"current_range_meters":28000,"station_id":"cpo3342slgdg3j2ifvpg","pricing_plan_id":"cebpf4jnsgd1na2vs0mg"},{"bike_id":"94818ec7-dd6c-446b-b369-d8fbc7691831","system_id":"levelo_inurba_marseille","lat":43.23189,"lon":5.35544,"is_reserved":false,"is_disabled":false,"rental_uris":{"android":"levelo://app?vid=94818ec7-dd6c-446b-b369-d8fbc7691831","ios":"levelo://app?vid=94818ec7-dd6c-446b-b369-d8fbc7691831"},"vehicle_type_id":"4","last_reported":1728832135,"current_range_meters":13600,"station_id":"ce4bhu92rcd13ifvqi70","pricing_plan_id":"cebpf4jnsgd1na2vs0mg"},{"bike_id":"1fae3049-330f-4fe7-83df-28cd6552c7bb","system_id":"levelo_inurba_marseille","lat":43.23181,"lon":5.39991,"is_reserved":false,"is_disabled":false,"rental_uris":{"android":"levelo://app?vid=1fae3049-330f-4fe7-83df-28cd6552c7bb","ios":"levelo://app?vid=1fae3049-330f-4fe7-83df-28cd6552c7bb"},"vehicle_type_id":"4","last_reported":1728832135,"current_range_meters":9200,"station_id":"ce4bhn12rcd13ifvqgqg","pricing_plan_id":"cebpf4jnsgd1na2vs0mg"},{"bike_id":"41b4ee0c-0c0a-4a4b-bfdf-7b31f8a2b654","system_id":"levelo_inurba_marseille","lat":43.31523,"lon":5.37282,"is_reserved":false,"is_disabled":false,"rental_uris":{"android":"levelo://app?vid=41b4ee0c-0c0a-4a4b-bfdf-7b31f8a2b654","ios":"levelo://app?vid=41b4ee0c-0c0a-4a4b-bfdf-7b31f8a2b654"},"vehicle_type_id":"4","last_reported":1728832135,"current_range_meters":26000,"station_id":"ce4bgt12rcd13ifvqcd0","pricing_plan_id":"cebpf4jnsgd1na2vs0mg"},{"bike_id":"27c0b43d-95cd-498c-b20f-d7b74a3aca6c","system_id":"levelo_inurba_marseille","lat":43.28424,"lon":5.34982,"is_reserved":false,"is_disabled":false,"rental_uris":{"android":"levelo://app?vid=27c0b43d-95cd-498c-b20f-d7b74a3aca6c","ios":"levelo://app?vid=27c0b43d-95cd-498c-b20f-d7b74a3aca6c"},"vehicle_type_id":"4","last_reported":1728832135,"current_range_meters":26000,"station_id":"ce4bhbh2rcd13ifvqepg","pricing_plan_id":"cebpf4jnsgd1na2vs0mg"},{"bike_id":"02d79aec-031a-476e-acef-da9c34364fd6","system_id":"levelo_inurba_marseille","lat":43.27497,"lon":5.42447,"is_reserved":false,"is_disabled":false,"rental_uris":{"android":"levelo://app?vid=02d79aec-031a-476e-acef-da9c34364fd6","ios":"levelo://app?vid=02d79aec-031a-476e-acef-da9c34364fd6"},"vehicle_type_id":"4","last_reported":1728832135,"current_range_meters":34800,"station_id":"ce4bhn92rcd13ifvqgrg","pricing_plan_id":"cebpf4jnsgd1na2vs0mg"},{"bike_id":"f15a72b9-72ee-42ca-a186-72a4382dcd69","system_id":"levelo_inurba_marseille","lat":43.28618,"lon":5.35102,"is_reserved":false,"is_disabled":false,"rental_uris":{"android":"levelo://app?vid=f15a72b9-72ee-42ca-a186-72a4382dcd69","ios":"levelo://app?vid=f15a72b9-72ee-42ca-a186-72a4382dcd69"},"vehicle_type_id":"4","last_reported":1728832135,"current_range_meters":36400,"station_id":"ce4bhch2rcd13ifvqeug","pricing_plan_id":"cebpf4jnsgd1na2vs0mg"},{"bike_id":"b1be9c63-229f-4571-b9c8-89b72f0f6bf3","system_id":"levelo_inurba_marseille","lat":43.28,"lon":5.40021,"is_reserved":false,"is_disabled":false,"rental_uris":{"android":"levelo://app?vid=b1be9c63-229f-4571-b9c8-89b72f0f6bf3","ios":"levelo://app?vid=b1be9c63-229f-4571-b9c8-89b72f0f6bf3"},"vehicle_type_id":"4","last_reported":1728832135,"current_range_meters":14800,"station_id":"ce4bho92rcd13ifvqh4g","pricing_plan_id":"cebpf4jnsgd1na2vs0mg"},{"bike_id":"207c8fb0-4c77-4c1a-ab9b-007fb4f36cc1","system_id":"levelo_inurba_marseille","lat":43.302924,"lon":5.400863,"is_reserved":false,"is_disabled":false,"rental_uris":{"android":"levelo://app?vid=207c8fb0-4c77-4c1a-ab9b-007fb4f36cc1","ios":"levelo://app?vid=207c8fb0-4c77-4c1a-ab9b-007fb4f36cc1"},"vehicle_type_id":"4","last_reported":1728832135,"current_range_meters":4800,"station_id":"ce4bgvh2rcd13ifvqcs0","pricing_plan_id":"cebpf4jnsgd1na2vs0mg"},{"bike_id":"f2dade12-3ed3-4ec6-bcfd-276a795888f2","system_id":"levelo_inurba_marseille","lat":43.28934,"lon":5.36642,"is_reserved":false,"is_disabled":false,"rental_uris":{"android":"levelo://app?vid=f2dade12-3ed3-4ec6-bcfd-276a795888f2","ios":"levelo://app?vid=f2dade12-3ed3-4ec6-bcfd-276a795888f2"},"vehicle_type_id":"4","last_reported":1728832135,"current_range_meters":27200,"station_id":"ce4bhap2rcd13ifvqek0","pricing_plan_id":"cebpf4jnsgd1na2vs0mg"},{"bike_id":"773f16a9-e058-4c25-9cff-fad1891f55cd","system_id":"levelo_inurba_marseille","lat":43.26194,"lon":5.37447,"is_reserved":false,"is_disabled":false,"rental_uris":{"android":"levelo://app?vid=773f16a9-e058-4c25-9cff-fad1891f55cd","ios":"levelo://app?vid=773f16a9-e058-4c25-9cff-fad1891f55cd"},"vehicle_type_id":"4","last_reported":1728832135,"current_range_meters":21600,"station_id":"ce4bhgp2rcd13ifvqfc0","pricing_plan_id":"cebpf4jnsgd1na2vs0mg"},{"bike_id":"6d6261ad-43ad-47ca-a616-12926281a5e7","system_id":"levelo_inurba_marseille","lat":43.28152,"lon":5.42646,"is_reserved":false,"is_disabled":false,"rental_uris":{"android":"levelo://app?vid=6d6261ad-43ad-47ca-a616-12926281a5e7","ios":"levelo://app?vid=6d6261ad-43ad-47ca-a616-12926281a5e7"},"vehicle_type_id":"4","last_reported":1728832135,"current_range_meters":4000,"station_id":"","pricing_plan_id":"cebpf4jnsgd1na2vs0mg"},{"bike_id":"272e64d2-1d1a-4ed9-9f5e-301e230004b5","system_id":"levelo_inurba_marseille","lat":43.292755,"lon":5.368406,"is_reserved":false,"is_disabled":false,"rental_uris":{"android":"levelo://app?vid=272e64d2-1d1a-4ed9-9f5e-301e230004b5","ios":"levelo://app?vid=272e64d2-1d1a-4ed9-9f5e-301e230004b5"},"vehicle_type_id":"4","last_reported":1728832135,"current_range_meters":22000,"station_id":"ce4bgh92rcd13ifvqb40","pricing_plan_id":"cebpf4jnsgd1na2vs0mg"},{"bike_id":"4ebd7fd1-fbe6-4846-8dc8-38592a020d04","system_id":"levelo_inurba_marseille","lat":43.29531,"lon":5.3905,"is_reserved":false,"is_disabled":false,"rental_uris":{"android":"levelo://app?vid=4ebd7fd1-fbe6-4846-8dc8-38592a020d04","ios":"levelo://app?vid=4ebd7fd1-fbe6-4846-8dc8-38592a020d04"},"vehicle_type_id":"4","last_reported":1728832135,"current_range_meters":38400,"station_id":"ce4bh3p2rcd13ifvqdp0","pricing_plan_id":"cebpf4jnsgd1na2vs0mg"},{"bike_id":"7be0d747-a754-4d0e-8761-d48125a240d3","system_id":"levelo_inurba_marseille","lat":43.2862,"lon":5.35108,"is_reserved":false,"is_disabled":false,"rental_uris":{"android":"levelo://app?vid=7be0d747-a754-4d0e-8761-d48125a240d3","ios":"levelo://app?vid=7be0d747-a754-4d0e-8761-d48125a240d3"},"vehicle_type_id":"4","last_reported":1728832135,"current_range_meters":38800,"station_id":"ce4bhch2rcd13ifvqeug","pricing_plan_id":"cebpf4jnsgd1na2vs0mg"},{"bike_id":"ddce90ed-80d5-4aa1-9fb2-0ecf9e2ef08c","system_id":"levelo_inurba_marseille","lat":43.27071,"lon":5.42279,"is_reserved":false,"is_disabled":false,"rental_uris":{"android":"levelo://app?vid=ddce90ed-80d5-4aa1-9fb2-0ecf9e2ef08c","ios":"levelo://app?vid=ddce90ed-80d5-4aa1-9fb2-0ecf9e2ef08c"},"vehicle_type_id":"4","last_reported":1728832135,"current_range_meters":8400,"station_id":"ce4bhk92rcd13ifvqgb0","pricing_plan_id":"cebpf4jnsgd1na2vs0mg"},{"bike_id":"2cb0645d-68f0-40aa-9998-a79790cd9024","system_id":"levelo_inurba_marseille","lat":43.298248,"lon":5.364688,"is_reserved":false,"is_disabled":false,"rental_uris":{"android":"levelo://app?vid=2cb0645d-68f0-40aa-9998-a79790cd9024","ios":"levelo://app?vid=2cb0645d-68f0-40aa-9998-a79790cd9024"},"vehicle_type_id":"4","last_reported":1728832135,"current_range_meters":28800,"station_id":"ce4bgm92rcd13ifvqbr0","pricing_plan_id":"cebpf4jnsgd1na2vs0mg"},{"bike_id":"eeb61cfd-405b-41b0-b371-63efafb0c514","system_id":"levelo_inurba_marseille","lat":43.308841,"lon":5.371857,"is_reserved":false,"is_disabled":false,"rental_uris":{"android":"levelo://app?vid=eeb61cfd-405b-41b0-b371-63efafb0c514","ios":"levelo://app?vid=eeb61cfd-405b-41b0-b371-63efafb0c514"},"vehicle_type_id":"4","last_reported":1728832135,"current_range_meters":3200,"station_id":"ce4bguh2rcd13ifvqckg","pricing_plan_id":"cebpf4jnsgd1na2vs0mg"},{"bike_id":"28c2bc75-2b5a-4c4f-bfab-9b85bd9d7af6","system_id":"levelo_inurba_marseille","lat":43.26211,"lon":5.37444,"is_reserved":false,"is_disabled":false,"rental_uris":{"android":"levelo://app?vid=28c2bc75-2b5a-4c4f-bfab-9b85bd9d7af6","ios":"levelo://app?vid=28c2bc75-2b5a-4c4f-bfab-9b85bd9d7af6"},"vehicle_type_id":"4","last_reported":1728832135,"current_range_meters":9200,"station_id":"ce4bhgp2rcd13ifvqfc0","pricing_plan_id":"cebpf4jnsgd1na2vs0mg"},{"bike_id":"0b2f12b1-3fbb-4b95-a00d-887b93617af3","system_id":"levelo_inurba_marseille","lat":43.23063,"lon":5.35487,"is_reserved":false,"is_disabled":false,"rental_uris":{"android":"levelo://app?vid=0b2f12b1-3fbb-4b95-a00d-887b93617af3","ios":"levelo://app?vid=0b2f12b1-3fbb-4b95-a00d-887b93617af3"},"vehicle_type_id":"4","last_reported":1728832135,"current_range_meters":20400,"station_id":"cpo3342slgdg3j2ifvpg","pricing_plan_id":"cebpf4jnsgd1na2vs0mg"},{"bike_id":"6fe19096-5f7c-4473-b8d4-48551098db03","system_id":"levelo_inurba_marseille","lat":43.30353,"lon":5.41882,"is_reserved":false,"is_disabled":false,"rental_uris":{"android":"levelo://app?vid=6fe19096-5f7c-4473-b8d4-48551098db03","ios":"levelo://app?vid=6fe19096-5f7c-4473-b8d4-48551098db03"},"vehicle_type_id":"4","last_reported":1728832135,"current_range_meters":37600,"station_id":"ce4bhop2rcd13ifvqh7g","pricing_plan_id":"cebpf4jnsgd1na2vs0mg"},{"bike_id":"a2faf3c7-ef2d-47ce-a99a-6eb10a2b42d5","system_id":"levelo_inurba_marseille","lat":43.23197,"lon":5.35557,"is_reserved":false,"is_disabled":false,"rental_uris":{"android":"levelo://app?vid=a2faf3c7-ef2d-47ce-a99a-6eb10a2b42d5","ios":"levelo://app?vid=a2faf3c7-ef2d-47ce-a99a-6eb10a2b42d5"},"vehicle_type_id":"4","last_reported":1728832135,"current_range_meters":25200,"station_id":"ce4bhu92rcd13ifvqi70","pricing_plan_id":"cebpf4jnsgd1na2vs0mg"},{"bike_id":"54d8198c-2280-42d1-a02d-dafc7e5a2616","system_id":"levelo_inurba_marseille","lat":43.29825,"lon":5.42006,"is_reserved":false,"is_disabled":false,"rental_uris":{"android":"levelo://app?vid=54d8198c-2280-42d1-a02d-dafc7e5a2616","ios":"levelo://app?vid=54d8198c-2280-42d1-a02d-dafc7e5a2616"},"vehicle_type_id":"4","last_reported":1728832135,"current_range_meters":23200,"station_id":"","pricing_plan_id":"cebpf4jnsgd1na2vs0mg"},{"bike_id":"80afde4a-d388-414e-b960-52d3e46a8c6a","system_id":"levelo_inurba_marseille","lat":43.28412,"lon":5.34987,"is_reserved":false,"is_disabled":false,"rental_uris":{"android":"levelo://app?vid=80afde4a-d388-414e-b960-52d3e46a8c6a","ios":"levelo://app?vid=80afde4a-d388-414e-b960-52d3e46a8c6a"},"vehicle_type_id":"4","last_reported":1728832135,"current_range_meters":11600,"station_id":"ce4bhbh2rcd13ifvqepg","pricing_plan_id":"cebpf4jnsgd1na2vs0mg"},{"bike_id":"0e665600-beb7-4d23-bf0f-3ae3aaada6e9","system_id":"levelo_inurba_marseille","lat":43.29709,"lon":5.40059,"is_reserved":false,"is_disabled":false,"rental_uris":{"android":"levelo://app?vid=0e665600-beb7-4d23-bf0f-3ae3aaada6e9","ios":"levelo://app?vid=0e665600-beb7-4d23-bf0f-3ae3aaada6e9"},"vehicle_type_id":"4","last_reported":1728832135,"current_range_meters":20000,"station_id":"","pricing_plan_id":"cebpf4jnsgd1na2vs0mg"},{"bike_id":"5a4f2c9e-cb97-474e-b3ea-edcb21767277","system_id":"levelo_inurba_marseille","lat":43.262024,"lon":5.379275,"is_reserved":false,"is_disabled":false,"rental_uris":{"android":"levelo://app?vid=5a4f2c9e-cb97-474e-b3ea-edcb21767277","ios":"levelo://app?vid=5a4f2c9e-cb97-474e-b3ea-edcb21767277"},"vehicle_type_id":"4","last_reported":1728832135,"current_range_meters":20400,"station_id":"ce4bhjp2rcd13ifvqg90","pricing_plan_id":"cebpf4jnsgd1na2vs0mg"},{"bike_id":"7650b5c5-38e2-4979-98ec-d3f2e132e095","system_id":"levelo_inurba_marseille","lat":43.29229,"lon":5.36055,"is_reserved":false,"is_disabled":false,"rental_uris":{"android":"levelo://app?vid=7650b5c5-38e2-4979-98ec-d3f2e132e095","ios":"levelo://app?vid=7650b5c5-38e2-4979-98ec-d3f2e132e095"},"vehicle_type_id":"4","last_reported":1728832135,"current_range_meters":38000,"station_id":"ce4bhbh2rcd13ifvqeqg","pricing_plan_id":"cebpf4jnsgd1na2vs0mg"},{"bike_id":"87e93b29-74bb-4472-bb67-8df4bd1cc138","system_id":"levelo_inurba_marseille","lat":43.31702,"lon":5.43695,"is_reserved":false,"is_disabled":false,"rental_uris":{"android":"levelo://app?vid=87e93b29-74bb-4472-bb67-8df4bd1cc138","ios":"levelo://app?vid=87e93b29-74bb-4472-bb67-8df4bd1cc138"},"vehicle_type_id":"4","last_reported":1728832135,"current_range_meters":21600,"station_id":"ce4bhp92rcd13ifvqhcg","pricing_plan_id":"cebpf4jnsgd1na2vs0mg"},{"bike_id":"1690f163-24a2-49b5-bc2b-69b9066b2140","system_id":"levelo_inurba_marseille","lat":43.28613,"lon":5.35097,"is_reserved":false,"is_disabled":false,"rental_uris":{"android":"levelo://app?vid=1690f163-24a2-49b5-bc2b-69b9066b2140","ios":"levelo://app?vid=1690f163-24a2-49b5-bc2b-69b9066b2140"},"vehicle_type_id":"4","last_reported":1728832135,"current_range_meters":23200,"station_id":"ce4bhch2rcd13ifvqeug","pricing_plan_id":"cebpf4jnsgd1na2vs0mg"},{"bike_id":"7868b954-55e4-4f38-9afb-eb2b52a22f14","system_id":"levelo_inurba_marseille","lat":43.30538,"lon":5.38438,"is_reserved":false,"is_disabled":false,"rental_uris":{"android":"levelo://app?vid=7868b954-55e4-4f38-9afb-eb2b52a22f14","ios":"levelo://app?vid=7868b954-55e4-4f38-9afb-eb2b52a22f14"},"vehicle_type_id":"4","last_reported":1728832135,"current_range_meters":13600,"station_id":"ce4bgg92rcd13ifvqb30","pricing_plan_id":"cebpf4jnsgd1na2vs0mg"},{"bike_id":"8e866889-53f1-493e-80df-e021d480fffb","system_id":"levelo_inurba_marseille","lat":43.29022,"lon":5.38129,"is_reserved":false,"is_disabled":false,"rental_uris":{"android":"levelo://app?vid=8e866889-53f1-493e-80df-e021d480fffb","ios":"levelo://app?vid=8e866889-53f1-493e-80df-e021d480fffb"},"vehicle_type_id":"4","last_reported":1728832135,"current_range_meters":6000,"station_id":"ce4bh4p2rcd13ifvqe1g","pricing_plan_id":"cebpf4jnsgd1na2vs0mg"},{"bike_id":"38ad9d4b-00fe-40fe-8af0-26a063647d96","system_id":"levelo_inurba_marseille","lat":43.3377,"lon":5.37438,"is_reserved":false,"is_disabled":false,"rental_uris":{"android":"levelo://app?vid=38ad9d4b-00fe-40fe-8af0-26a063647d96","ios":"levelo://app?vid=38ad9d4b-00fe-40fe-8af0-26a063647d96"},"vehicle_type_id":"4","last_reported":1728832135,"current_range_meters":32800,"station_id":"","pricing_plan_id":"cebpf4jnsgd1na2vs0mg"},{"bike_id":"f38c64c3-2bc4-4215-ba7e-1d5a545b1ecd","system_id":"levelo_inurba_marseille","lat":43.28701,"lon":5.37393,"is_reserved":false,"is_disabled":false,"rental_uris":{"android":"levelo://app?vid=f38c64c3-2bc4-4215-ba7e-1d5a545b1ecd","ios":"levelo://app?vid=f38c64c3-2bc4-4215-ba7e-1d5a545b1ecd"},"vehicle_type_id":"4","last_reported":1728832135,"current_range_meters":2000,"station_id":"","pricing_plan_id":"cebpf4jnsgd1na2vs0mg"},{"bike_id":"2016ee32-16c0-42b0-a44f-047604f11589","system_id":"levelo_inurba_marseille","lat":43.28946,"lon":5.36404,"is_reserved":false,"is_disabled":false,"rental_uris":{"android":"levelo://app?vid=2016ee32-16c0-42b0-a44f-047604f11589","ios":"levelo://app?vid=2016ee32-16c0-42b0-a44f-047604f11589"},"vehicle_type_id":"4","last_reported":1728832135,"current_range_meters":35200,"station_id":"ce4bhc92rcd13ifvqetg","pricing_plan_id":"cebpf4jnsgd1na2vs0mg"},{"bike_id":"4ae65dc8-c030-4cf0-a18b-5e911938693c","system_id":"levelo_inurba_marseille","lat":43.239638,"lon":5.366256,"is_reserved":false,"is_disabled":false,"rental_uris":{"android":"levelo://app?vid=4ae65dc8-c030-4cf0-a18b-5e911938693c","ios":"levelo://app?vid=4ae65dc8-c030-4cf0-a18b-5e911938693c"},"vehicle_type_id":"4","last_reported":1728832135,"current_range_meters":38800,"station_id":"ce4bhi12rcd13ifvqfp0","pricing_plan_id":"cebpf4jnsgd1na2vs0mg"},{"bike_id":"1bafbdd0-95e6-427f-8265-3694f8466057","system_id":"levelo_inurba_marseille","lat":43.2675,"lon":5.39437,"is_reserved":false,"is_disabled":false,"rental_uris":{"android":"levelo://app?vid=1bafbdd0-95e6-427f-8265-3694f8466057","ios":"levelo://app?vid=1bafbdd0-95e6-427f-8265-3694f8466057"},"vehicle_type_id":"4","last_reported":1728832135,"current_range_meters":33600,"station_id":"","pricing_plan_id":"cebpf4jnsgd1na2vs0mg"},{"bike_id":"87656789-a2d1-417c-bc19-c361273ecf2c","system_id":"levelo_inurba_marseille","lat":43.30626,"lon":5.40085,"is_reserved":false,"is_disabled":false,"rental_uris":{"android":"levelo://app?vid=87656789-a2d1-417c-bc19-c361273ecf2c","ios":"levelo://app?vid=87656789-a2d1-417c-bc19-c361273ecf2c"},"vehicle_type_id":"4","last_reported":1728832135,"current_range_meters":26000,"station_id":"ce4bh112rcd13ifvqda0","pricing_plan_id":"cebpf4jnsgd1na2vs0mg"},{"bike_id":"9c9a8f07-c136-4439-b990-01498c5f0c41","system_id":"levelo_inurba_marseille","lat":43.2738,"lon":5.3625,"is_reserved":false,"is_disabled":false,"rental_uris":{"android":"levelo://app?vid=9c9a8f07-c136-4439-b990-01498c5f0c41","ios":"levelo://app?vid=9c9a8f07-c136-4439-b990-01498c5f0c41"},"vehicle_type_id":"4","last_reported":1728832135,"current_range_meters":2000,"station_id":"ce4bhbh2rcd13ifvqeo0","pricing_plan_id":"cebpf4jnsgd1na2vs0mg"},{"bike_id":"ff549c51-af0a-424b-8e0c-2b932f9efa00","system_id":"levelo_inurba_marseille","lat":43.28603,"lon":5.35657,"is_reserved":false,"is_disabled":false,"rental_uris":{"android":"levelo://app?vid=ff549c51-af0a-424b-8e0c-2b932f9efa00","ios":"levelo://app?vid=ff549c51-af0a-424b-8e0c-2b932f9efa00"},"vehicle_type_id":"4","last_reported":1728832135,"current_range_meters":8800,"station_id":"","pricing_plan_id":"cebpf4jnsgd1na2vs0mg"},{"bike_id":"d593edbf-d6b3-4e03-967d-a4a8a4bc439c","system_id":"levelo_inurba_marseille","lat":43.28416,"lon":5.34996,"is_reserved":false,"is_disabled":false,"rental_uris":{"android":"levelo://app?vid=d593edbf-d6b3-4e03-967d-a4a8a4bc439c","ios":"levelo://app?vid=d593edbf-d6b3-4e03-967d-a4a8a4bc439c"},"vehicle_type_id":"4","last_reported":1728832135,"current_range_meters":20000,"station_id":"ce4bhbh2rcd13ifvqepg","pricing_plan_id":"cebpf4jnsgd1na2vs0mg"},{"bike_id":"232ba208-0d35-4ac0-ab83-05478cd15bfb","system_id":"levelo_inurba_marseille","lat":43.24395,"lon":5.3706,"is_reserved":false,"is_disabled":false,"rental_uris":{"android":"levelo://app?vid=232ba208-0d35-4ac0-ab83-05478cd15bfb","ios":"levelo://app?vid=232ba208-0d35-4ac0-ab83-05478cd15bfb"},"vehicle_type_id":"4","last_reported":1728832135,"current_range_meters":27200,"station_id":"ce4bhhh2rcd13ifvqfk0","pricing_plan_id":"cebpf4jnsgd1na2vs0mg"},{"bike_id":"c99ef4a9-4d78-4fb9-907a-01fc02d8555e","system_id":"levelo_inurba_marseille","lat":43.23194,"lon":5.35552,"is_reserved":false,"is_disabled":false,"rental_uris":{"android":"levelo://app?vid=c99ef4a9-4d78-4fb9-907a-01fc02d8555e","ios":"levelo://app?vid=c99ef4a9-4d78-4fb9-907a-01fc02d8555e"},"vehicle_type_id":"4","last_reported":1728832135,"current_range_meters":39200,"station_id":"ce4bhu92rcd13ifvqi70","pricing_plan_id":"cebpf4jnsgd1na2vs0mg"},{"bike_id":"b499b378-2a50-4ddb-815f-cd1e21888cf4","system_id":"levelo_inurba_marseille","lat":43.25867,"lon":5.39893,"is_reserved":false,"is_disabled":false,"rental_uris":{"android":"levelo://app?vid=b499b378-2a50-4ddb-815f-cd1e21888cf4","ios":"levelo://app?vid=b499b378-2a50-4ddb-815f-cd1e21888cf4"},"vehicle_type_id":"4","last_reported":1728832135,"current_range_meters":5600,"station_id":"ce4bhl92rcd13ifvqghg","pricing_plan_id":"cebpf4jnsgd1na2vs0mg"},{"bike_id":"dc763f9a-b852-46e6-a319-62bfaa156755","system_id":"levelo_inurba_marseille","lat":43.28421,"lon":5.34991,"is_reserved":false,"is_disabled":false,"rental_uris":{"android":"levelo://app?vid=dc763f9a-b852-46e6-a319-62bfaa156755","ios":"levelo://app?vid=dc763f9a-b852-46e6-a319-62bfaa156755"},"vehicle_type_id":"4","last_reported":1728832135,"current_range_meters":38800,"station_id":"ce4bhbh2rcd13ifvqepg","pricing_plan_id":"cebpf4jnsgd1na2vs0mg"},{"bike_id":"5dde06fe-f1ba-42c7-8d56-3195376ad1ff","system_id":"levelo_inurba_marseille","lat":43.27379,"lon":5.36252,"is_reserved":false,"is_disabled":false,"rental_uris":{"android":"levelo://app?vid=5dde06fe-f1ba-42c7-8d56-3195376ad1ff","ios":"levelo://app?vid=5dde06fe-f1ba-42c7-8d56-3195376ad1ff"},