{"last_updated":1768618084,"ttl":60,"version":"2.2","data":{"bikes":[{"bike_id":"73770b38-d8b9-4deb-b7bc-9b47ac9b68ca","system_id":"levelo_inurba_marseille","lat":43.2417,"lon":5.39715,"is_reserved":false,"is_disabled":false,"rental_uris":{"android":"levelo://app?vid=73770b38-d8b9-4deb-b7bc-9b47ac9b68ca","ios":"levelo://app?vid=73770b38-d8b9-4deb-b7bc-9b47ac9b68ca"},"vehicle_type_id":"4","last_reported":1768618084,"current_range_meters":2800,"station_id":"ce4bhn12rcd13ifvqgpg","pricing_plan_id":"cebpf4jnsgd1na2vs0mg"},{"bike_id":"5032b02a-9efc-499b-80c1-ff1804d0ec8d","system_id":"levelo_inurba_marseille","lat":43.24821,"lon":5.37464,"is_reserved":false,"is_disabled":false,"rental_uris":{"android":"levelo://app?vid=5032b02a-9efc-499b-80c1-ff1804d0ec8d","ios":"levelo://app?vid=5032b02a-9efc-499b-80c1-ff1804d0ec8d"},"vehicle_type_id":"4","last_reported":1768618084,"current_range_meters":2800,"station_id":"ce4bhgh2rcd13ifvqfb0","pricing_plan_id":"cebpf4jnsgd1na2vs0mg"},{"bike_id":"23b6f6e8-92d5-47cd-8cd0-4c3a7fe75221","system_id":"levelo_inurba_marseille","lat":43.31324,"lon":5.39702,"is_reserved":false,"is_disabled":false,"rental_uris":{"android":"levelo://app?vid=23b6f6e8-92d5-47cd-8cd0-4c3a7fe75221","ios":"levelo://app?vid=23b6f6e8-92d5-47cd-8cd0-4c3a7fe75221"},"vehicle_type_id":"4","last_reported":1768618084,"current_range_meters":2800,"station_id":"ce4bgvp2rcd13ifvqcu0","pricing_plan_id":"cebpf4jnsgd1na2vs0mg"},{"bike_id":"91f12e44-fb57-4d25-99b4-ab40162c4b9f","system_id":"levelo_inurba_marseille","lat":43.281533,"lon":5.426495,"is_reserved":false,"is_disabled":false,"rental_uris":{"android":"levelo://app?vid=91f12e44-fb57-4d25-99b4-ab40162c4b9f","ios":"levelo://app?vid=91f12e44-fb57-4d25-99b4-ab40162c4b9f"},"vehicle_type_id":"4","last_reported":1768618084,"current_range_meters":2800,"station_id":"ce4bhnh2rcd13ifvqgug","pricing_plan_id":"cebpf4jnsgd1na2vs0mg"},{"bike_id":"8dabfb07-f16c-48a0-80c2-741fff8b43ab","system_id":"levelo_inurba_marseille","lat":43.26489,"lon":5.39569,"is_reserved":false,"is_disabled":false,"rental_uris":{"android":"levelo://app?vid=8dabfb07-f16c-48a0-80c2-741fff8b43ab","ios":"levelo://app?vid=8dabfb07-f16c-48a0-80c2-741fff8b43ab"},"vehicle_type_id":"4","last_reported":1768618084,"current_range_meters":2800,"station_id":"ce4bhi12rcd13ifvqfq0","pricing_plan_id":"cebpf4jnsgd1na2vs0mg"},{"bike_id":"0f94095a-40ea-45a3-8619-4c8efba6b688","system_id":"levelo_inurba_marseille","lat":43.28009,"lon":5.38718,"is_reserved":false,"is_disabled":false,"rental_uris":{"android":"levelo://app?vid=0f94095a-40ea-45a3-8619-4c8efba6b688","ios":"levelo://app?vid=0f94095a-40ea-45a3-8619-4c8efba6b688"},"vehicle_type_id":"4","last_reported":1768618084,"current_range_meters":2800,"station_id":"ce4bhg12rcd13ifvqf80","pricing_plan_id":"cebpf4jnsgd1na2vs0mg"},{"bike_id":"0aaffd21-6317-47b2-85da-6b9bfa421a46","system_id":"levelo_inurba_marseille","lat":43.29824,"lon":5.37664,"is_reserved":false,"is_disabled":false,"rental_uris":{"android":"levelo://app?vid=0aaffd21-6317-47b2-85da-6b9bfa421a46","ios":"levelo://app?vid=0aaffd21-6317-47b2-85da-6b9bfa421a46"},"vehicle_type_id":"4","last_reported":1768618084,"current_range_meters":2800,"station_id":"","pricing_plan_id":"cebpf4jnsgd1na2vs0mg"},{"bike_id":"9f0ca942-43cc-4c26-b45d-b02a363371a5","system_id":"levelo_inurba_marseille","lat":43.27821,"lon":5.40721,"is_reserved":false,"is_disabled":false,"rental_uris":{"android":"levelo://app?vid=9f0ca942-43cc-4c26-b45d-b02a363371a5","ios":"levelo://app?vid=9f0ca942-43cc-4c26-b45d-b02a363371a5"},"vehicle_type_id":"4","last_reported":1768618084,"current_range_meters":2800,"station_id":"ce4bhnh2rcd13ifvqgtg","pricing_plan_id":"cebpf4jnsgd1na2vs0mg"},{"bike_id":"00714b86-678d-4065-b30c-0d122942bb48","system_id":"levelo_inurba_marseille","lat":43.30427,"lon":5.39754,"is_reserved":false,"is_disabled":false,"rental_uris":{"android":"levelo://app?vid=00714b86-678d-4065-b30c-0d122942bb48","ios":"levelo://app?vid=00714b86-678d-4065-b30c-0d122942bb48"},"vehicle_type_id":"4","last_reported":1768618084,"current_range_meters":2800,"station_id":"ce4bh092rcd13ifvqd20","pricing_plan_id":"cebpf4jnsgd1na2vs0mg"},{"bike_id":"e7e36759-3791-4a7c-b0cc-9f6641b7d7f5","system_id":"levelo_inurba_marseille","lat":43.26782,"lon":5.39424,"is_reserved":false,"is_disabled":false,"rental_uris":{"android":"levelo://app?vid=e7e36759-3791-4a7c-b0cc-9f6641b7d7f5","ios":"levelo://app?vid=e7e36759-3791-4a7c-b0cc-9f6641b7d7f5"},"vehicle_type_id":"4","last_reported":1768618084,"current_range_meters":2800,"station_id":"ce4bhh12rcd13ifvqfg0","pricing_plan_id":"cebpf4jnsgd1na2vs0mg"},{"bike_id":"9b35b1c6-1718-4e67-9546-7e08df7a7d53","system_id":"levelo_inurba_marseille","lat":43.27617,"lon":5.36125,"is_reserved":false,"is_disabled":false,"rental_uris":{"android":"levelo://app?vid=9b35b1c6-1718-4e67-9546-7e08df7a7d53","ios":"levelo://app?vid=9b35b1c6-1718-4e67-9546-7e08df7a7d53"},"vehicle_type_id":"4","last_reported":1768618084,"current_range_meters":2800,"station_id":"ce4bgj92rcd13ifvqbe0","pricing_plan_id":"cebpf4jnsgd1na2vs0mg"},{"bike_id":"e70abe95-579e-427d-9044-e606b2f1e69a","system_id":"levelo_inurba_marseille","lat":43.28529,"lon":5.44074,"is_reserved":false,"is_disabled":false,"rental_uris":{"android":"levelo://app?vid=e70abe95-579e-427d-9044-e606b2f1e69a","ios":"levelo://app?vid=e70abe95-579e-427d-9044-e606b2f1e69a"},"vehicle_type_id":"4","last_reported":1768618084,"current_range_meters":2800,"station_id":"st_d3j3df2ikq2c7380ej80","pricing_plan_id":"cebpf4jnsgd1na2vs0mg"},{"bike_id":"60b37a7e-41f2-4dc0-b378-bc55c0453b0c","system_id":"levelo_inurba_marseille","lat":43.30106,"lon":5.39861,"is_reserved":false,"is_disabled":false,"rental_uris":{"android":"levelo://app?vid=60b37a7e-41f2-4dc0-b378-bc55c0453b0c","ios":"levelo://app?vid=60b37a7e-41f2-4dc0-b378-bc55c0453b0c"},"vehicle_type_id":"4","last_reported":1768618084,"current_range_meters":2800,"station_id":"ce4bh0h2rcd13ifvqd40","pricing_plan_id":"cebpf4jnsgd1na2vs0mg"},{"bike_id":"7c0ce82b-44b9-433f-a5d1-ea710559f5cc","system_id":"levelo_inurba_marseille","lat":43.309423,"lon":5.401411,"is_reserved":false,"is_disabled":false,"rental_uris":{"android":"levelo://app?vid=7c0ce82b-44b9-433f-a5d1-ea710559f5cc","ios":"levelo://app?vid=7c0ce82b-44b9-433f-a5d1-ea710559f5cc"},"vehicle_type_id":"4","last_reported":1768618084,"current_range_meters":2800,"station_id":"ce4bgvp2rcd13ifvqct0","pricing_plan_id":"cebpf4jnsgd1na2vs0mg"},{"bike_id":"7465de0c-3252-438c-a1d0-10a150ee4d72","system_id":"levelo_inurba_marseille","lat":43.229344,"lon":5.353775,"is_reserved":false,"is_disabled":false,"rental_uris":{"android":"levelo://app?vid=7465de0c-3252-438c-a1d0-10a150ee4d72","ios":"levelo://app?vid=7465de0c-3252-438c-a1d0-10a150ee4d72"},"vehicle_type_id":"4","last_reported":1768618084,"current_range_meters":2800,"station_id":"cpo3532slgdg3j2ikp40","pricing_plan_id":"cebpf4jnsgd1na2vs0mg"},{"bike_id":"f191a895-45cb-4165-8018-22acf884946c","system_id":"levelo_inurba_marseille","lat":43.31272,"lon":5.40165,"is_reserved":false,"is_disabled":false,"rental_uris":{"android":"levelo://app?vid=f191a895-45cb-4165-8018-22acf884946c","ios":"levelo://app?vid=f191a895-45cb-4165-8018-22acf884946c"},"vehicle_type_id":"4","last_reported":1768618084,"current_range_meters":3200,"station_id":"ce4bh092rcd13ifvqd30","pricing_plan_id":"cebpf4jnsgd1na2vs0mg"},{"bike_id":"8875f8cc-07a8-40ca-92de-9f4ce77fad56","system_id":"levelo_inurba_marseille","lat":43.28447,"lon":5.38655,"is_reserved":false,"is_disabled":false,"rental_uris":{"android":"levelo://app?vid=8875f8cc-07a8-40ca-92de-9f4ce77fad56","ios":"levelo://app?vid=8875f8cc-07a8-40ca-92de-9f4ce77fad56"},"vehicle_type_id":"4","last_reported":1768618084,"current_range_meters":3200,"station_id":"","pricing_plan_id":"cebpf4jnsgd1na2vs0mg"},{"bike_id":"59fca44c-5b14-4c7f-b971-1d473d527a08","system_id":"levelo_inurba_marseille","lat":43.288603,"lon":5.384413,"is_reserved":false,"is_disabled":false,"rental_uris":{"android":"levelo://app?vid=59fca44c-5b14-4c7f-b971-1d473d527a08","ios":"levelo://app?vid=59fca44c-5b14-4c7f-b971-1d473d527a08"},"vehicle_type_id":"4","last_reported":1768618084,"current_range_meters":3200,"station_id":"ce4bgk12rcd13ifvqbj0","pricing_plan_id":"cebpf4jnsgd1na2vs0mg"},{"bike_id":"9d832a2a-7a42-442e-965f-28ca5ac6fded","system_id":"levelo_inurba_marseille","lat":43.2831,"lon":5.38958,"is_reserved":false,"is_disabled":false,"rental_uris":{"android":"levelo://app?vid=9d832a2a-7a42-442e-965f-28ca5ac6fded","ios":"levelo://app?vid=9d832a2a-7a42-442e-965f-28ca5ac6fded"},"vehicle_type_id":"4","last_reported":1768618084,"current_range_meters":3200,"station_id":"","pricing_plan_id":"cebpf4jnsgd1na2vs0mg"},{"bike_id":"b20a8a85-b9a1-47ab-ad21-4f965b1ca351","system_id":"levelo_inurba_marseille","lat":43.24811,"lon":5.37458,"is_reserved":false,"is_disabled":false,"rental_uris":{"android":"levelo://app?vid=b20a8a85-b9a1-47ab-ad21-4f965b1ca351","ios":"levelo://app?vid=b20a8a85-b9a1-47ab-ad21-4f965b1ca351"},"vehicle_type_id":"4","last_reported":1768618084,"current_range_meters":3200,"station_id":"ce4bhgh2rcd13ifvqfb0","pricing_plan_id":"cebpf4jnsgd1na2vs0mg"},{"bike_id":"84a64c9c-ed4f-4996-9c9c-4015389b1dd3","system_id":"levelo_inurba_marseille","lat":43.33797,"lon":5.37446,"is_reserved":false,"is_disabled":false,"rental_uris":{"android":"levelo://app?vid=84a64c9c-ed4f-4996-9c9c-4015389b1dd3","ios":"levelo://app?vid=84a64c9c-ed4f-4996-9c9c-4015389b1dd3"},"vehicle_type_id":"4","last_reported":1768618084,"current_range_meters":3200,"station_id":"","pricing_plan_id":"cebpf4jnsgd1na2vs0mg"},{"bike_id":"9dd51bac-d02c-4ac5-a1b5-ad3fa06f41c3","system_id":"levelo_inurba_marseille","lat":43.25612,"lon":5.3823,"is_reserved":false,"is_disabled":false,"rental_uris":{"android":"levelo://app?vid=9dd51bac-d02c-4ac5-a1b5-ad3fa06f41c3","ios":"levelo://app?vid=9dd51bac-d02c-4ac5-a1b5-ad3fa06f41c3"},"vehicle_type_id":"4","last_reported":1768618084,"current_range_meters":3200,"station_id":"ce4bhih2rcd13ifvqfs0","pricing_plan_id":"cebpf4jnsgd1na2vs0mg"},{"bike_id":"8782c85b-4cd2-4d16-816f-ea9c0e380452","system_id":"levelo_inurba_marseille","lat":43.28057,"lon":5.4046,"is_reserved":false,"is_disabled":false,"rental_uris":{"android":"levelo://app?vid=8782c85b-4cd2-4d16-816f-ea9c0e380452","ios":"levelo://app?vid=8782c85b-4cd2-4d16-816f-ea9c0e380452"},"vehicle_type_id":"4","last_reported":1768618084,"current_range_meters":3200,"station_id":"","pricing_plan_id":"cebpf4jnsgd1na2vs0mg"},{"bike_id":"627e5e4e-322b-49e8-be53-e7b0ef4c2eda","system_id":"levelo_inurba_marseille","lat":43.255775,"lon":5.382416,"is_reserved":false,"is_disabled":false,"rental_uris":{"android":"levelo://app?vid=627e5e4e-322b-49e8-be53-e7b0ef4c2eda","ios":"levelo://app?vid=627e5e4e-322b-49e8-be53-e7b0ef4c2eda"},"vehicle_type_id":"4","last_reported":1768618084,"current_range_meters":3600,"station_id":"ce4bhih2rcd13ifvqfs0","pricing_plan_id":"cebpf4jnsgd1na2vs0mg"},{"bike_id":"9798252a-9361-46ce-9695-59458b1329bc","system_id":"levelo_inurba_marseille","lat":43.23196,"lon":5.35559,"is_reserved":false,"is_disabled":false,"rental_uris":{"android":"levelo://app?vid=9798252a-9361-46ce-9695-59458b1329bc","ios":"levelo://app?vid=9798252a-9361-46ce-9695-59458b1329bc"},"vehicle_type_id":"4","last_reported":1768618084,"current_range_meters":3600,"station_id":"ce4bhu92rcd13ifvqi70","pricing_plan_id":"cebpf4jnsgd1na2vs0mg"},{"bike_id":"9dd4cee1-6e9f-4b21-8c2a-6186c33cbfd1","system_id":"levelo_inurba_marseille","lat":43.32763,"lon":5.39241,"is_reserved":false,"is_disabled":false,"rental_uris":{"android":"levelo://app?vid=9dd4cee1-6e9f-4b21-8c2a-6186c33cbfd1","ios":"levelo://app?vid=9dd4cee1-6e9f-4b21-8c2a-6186c33cbfd1"},"vehicle_type_id":"4","last_reported":1768618084,"current_range_meters":3600,"station_id":"","pricing_plan_id":"cebpf4jnsgd1na2vs0mg"},{"bike_id":"174ec315-1070-4d7f-8752-355ade0349a2","system_id":"levelo_inurba_marseille","lat":43.261304,"lon":5.387296,"is_reserved":false,"is_disabled":false,"rental_uris":{"android":"levelo://app?vid=174ec315-1070-4d7f-8752-355ade0349a2","ios":"levelo://app?vid=174ec315-1070-4d7f-8752-355ade0349a2"},"vehicle_type_id":"4","last_reported":1768618084,"current_range_meters":3600,"station_id":"","pricing_plan_id":"cebpf4jnsgd1na2vs0mg"},{"bike_id":"503c21cf-cf16-408d-923d-5a9446e0b950","system_id":"levelo_inurba_marseille","lat":43.28217,"lon":5.39063,"is_reserved":false,"is_disabled":false,"rental_uris":{"android":"levelo://app?vid=503c21cf-cf16-408d-923d-5a9446e0b950","ios":"levelo://app?vid=503c21cf-cf16-408d-923d-5a9446e0b950"},"vehicle_type_id":"4","last_reported":1768618084,"current_range_meters":3600,"station_id":"ce4bhn92rcd13ifvqgsg","pricing_plan_id":"cebpf4jnsgd1na2vs0mg"},{"bike_id":"8196675e-1758-4be8-aa6e-9a780663d26d","system_id":"levelo_inurba_marseille","lat":43.323595,"lon":5.367497,"is_reserved":false,"is_disabled":false,"rental_uris":{"android":"levelo://app?vid=8196675e-1758-4be8-aa6e-9a780663d26d","ios":"levelo://app?vid=8196675e-1758-4be8-aa6e-9a780663d26d"},"vehicle_type_id":"4","last_reported":1768618084,"current_range_meters":3600,"station_id":"ce4bhsh2rcd13ifvqi2g","pricing_plan_id":"cebpf4jnsgd1na2vs0mg"},{"bike_id":"dcba5e0d-8e79-44d0-8827-5e7dfb547664","system_id":"levelo_inurba_marseille","lat":43.28541,"lon":5.44096,"is_reserved":false,"is_disabled":false,"rental_uris":{"android":"levelo://app?vid=dcba5e0d-8e79-44d0-8827-5e7dfb547664","ios":"levelo://app?vid=dcba5e0d-8e79-44d0-8827-5e7dfb547664"},"vehicle_type_id":"4","last_reported":1768618084,"current_range_meters":3600,"station_id":"st_d3j3df2ikq2c7380ej80","pricing_plan_id":"cebpf4jnsgd1na2vs0mg"},{"bike_id":"f8be3f31-7ad2-418e-9347-d8ac1717ae50","system_id":"levelo_inurba_marseille","lat":43.29468,"lon":5.4091,"is_reserved":false,"is_disabled":false,"rental_uris":{"android":"levelo://app?vid=f8be3f31-7ad2-418e-9347-d8ac1717ae50","ios":"levelo://app?vid=f8be3f31-7ad2-418e-9347-d8ac1717ae50"},"vehicle_type_id":"4","last_reported":1768618084,"current_range_meters":3600,"station_id":"","pricing_plan_id":"cebpf4jnsgd1na2vs0mg"},{"bike_id":"48aeaab0-6b80-4b7a-a472-f0414a5d3089","system_id":"levelo_inurba_marseille","lat":43.29779,"lon":5.37082,"is_reserved":false,"is_disabled":false,"rental_uris":{"android":"levelo://app?vid=48aeaab0-6b80-4b7a-a472-f0414a5d3089","ios":"levelo://app?vid=48aeaab0-6b80-4b7a-a472-f0414a5d3089"},"vehicle_type_id":"4","last_reported":1768618084,"current_range_meters":3600,"station_id":"ce4bgop2rcd13ifvqc1g","pricing_plan_id":"cebpf4jnsgd1na2vs0mg"},{"bike_id":"9911c3c7-f9be-49ea-910c-8ffdf4357014","system_id":"levelo_inurba_marseille","lat":43.27932,"lon":5.41051,"is_reserved":false,"is_disabled":false,"rental_uris":{"android":"levelo://app?vid=9911c3c7-f9be-49ea-910c-8ffdf4357014","ios":"levelo://app?vid=9911c3c7-f9be-49ea-910c-8ffdf4357014"},"vehicle_type_id":"4","last_reported":1768618084,"current_range_meters":3600,"station_id":"ce4bhnp2rcd13ifvqh0g","pricing_plan_id":"cebpf4jnsgd1na2vs0mg"},{"bike_id":"46736d86-e8f6-41e3-b544-9a35dd02ada6","system_id":"levelo_inurba_marseille","lat":43.24465,"lon":5.42536,"is_reserved":false,"is_disabled":false,"rental_uris":{"android":"levelo://app?vid=46736d86-e8f6-41e3-b544-9a35dd02ada6","ios":"levelo://app?vid=46736d86-e8f6-41e3-b544-9a35dd02ada6"},"vehicle_type_id":"4","last_reported":1768618084,"current_range_meters":3600,"station_id":"st_d4a3vfp97mjs738cd8kg","pricing_plan_id":"cebpf4jnsgd1na2vs0mg"},{"bike_id":"0fe2956f-4a75-46cb-9e77-f3e90b5ec3ee","system_id":"levelo_inurba_marseille","lat":43.28363,"lon":5.38104,"is_reserved":false,"is_disabled":false,"rental_uris":{"android":"levelo://app?vid=0fe2956f-4a75-46cb-9e77-f3e90b5ec3ee","ios":"levelo://app?vid=0fe2956f-4a75-46cb-9e77-f3e90b5ec3ee"},"vehicle_type_id":"4","last_reported":1768618084,"current_range_meters":3600,"station_id":"ce4bh412rcd13ifvqdr0","pricing_plan_id":"cebpf4jnsgd1na2vs0mg"},{"bike_id":"7e05b0ba-9932-4ce4-8295-d89dc022a814","system_id":"levelo_inurba_marseille","lat":43.30396,"lon":5.41294,"is_reserved":false,"is_disabled":false,"rental_uris":{"android":"levelo://app?vid=7e05b0ba-9932-4ce4-8295-d89dc022a814","ios":"levelo://app?vid=7e05b0ba-9932-4ce4-8295-d89dc022a814"},"vehicle_type_id":"4","last_reported":1768618084,"current_range_meters":3600,"station_id":"ce4bhop2rcd13ifvqh8g","pricing_plan_id":"cebpf4jnsgd1na2vs0mg"},{"bike_id":"843f91d3-3497-4c4b-8a26-d0f129a5f82d","system_id":"levelo_inurba_marseille","lat":43.24175,"lon":5.36402,"is_reserved":false,"is_disabled":false,"rental_uris":{"android":"levelo://app?vid=843f91d3-3497-4c4b-8a26-d0f129a5f82d","ios":"levelo://app?vid=843f91d3-3497-4c4b-8a26-d0f129a5f82d"},"vehicle_type_id":"4","last_reported":1768618084,"current_range_meters":3600,"station_id":"cpo36qri1sfpv3e86is0","pricing_plan_id":"cebpf4jnsgd1na2vs0mg"},{"bike_id":"089c22d1-62e9-4a52-bfe1-8ddd728b4101","system_id":"levelo_inurba_marseille","lat":43.25363,"lon":5.42185,"is_reserved":false,"is_disabled":false,"rental_uris":{"android":"levelo://app?vid=089c22d1-62e9-4a52-bfe1-8ddd728b4101","ios":"levelo://app?vid=089c22d1-62e9-4a52-bfe1-8ddd728b4101"},"vehicle_type_id":"4","last_reported":1768618084,"current_range_meters":3600,"station_id":"st_d2m65c5bi1j21697t3ng","pricing_plan_id":"cebpf4jnsgd1na2vs0mg"},{"bike_id":"6abf8a46-f540-4848-8617-65edd2aabe92","system_id":"levelo_inurba_marseille","lat":43.31689,"lon":5.39734,"is_reserved":false,"is_disabled":false,"rental_uris":{"android":"levelo://app?vid=6abf8a46-f540-4848-8617-65edd2aabe92","ios":"levelo://app?vid=6abf8a46-f540-4848-8617-65edd2aabe92"},"vehicle_type_id":"4","last_reported":1768618084,"current_range_meters":3600,"station_id":"","pricing_plan_id":"cebpf4jnsgd1na2vs0mg"},{"bike_id":"410955ac-137d-462c-a4c6-8f0aa8211054","system_id":"levelo_inurba_marseille","lat":43.24963,"lon":5.4052,"is_reserved":false,"is_disabled":false,"rental_uris":{"android":"levelo://app?vid=410955ac-137d-462c-a4c6-8f0aa8211054","ios":"levelo://app?vid=410955ac-137d-462c-a4c6-8f0aa8211054"},"vehicle_type_id":"4","last_reported":1768618084,"current_range_meters":3600,"station_id":"st_d2ngiaodas8pm72gd1h0","pricing_plan_id":"cebpf4jnsgd1na2vs0mg"},{"bike_id":"62afe525-9579-41bb-b844-87fde0b30797","system_id":"levelo_inurba_marseille","lat":43.310695,"lon":5.38358,"is_reserved":false,"is_disabled":false,"rental_uris":{"android":"levelo://app?vid=62afe525-9579-41bb-b844-87fde0b30797","ios":"levelo://app?vid=62afe525-9579-41bb-b844-87fde0b30797"},"vehicle_type_id":"4","last_reported":1768618084,"current_range_meters":3600,"station_id":"ce4bgv92rcd13ifvqcr0","pricing_plan_id":"cebpf4jnsgd1na2vs0mg"},{"bike_id":"c0ce7413-b87b-4471-89a8-3524c7a2d1cb","system_id":"levelo_inurba_marseille","lat":43.24881,"lon":5.42339,"is_reserved":false,"is_disabled":false,"rental_uris":{"android":"levelo://app?vid=c0ce7413-b87b-4471-89a8-3524c7a2d1cb","ios":"levelo://app?vid=c0ce7413-b87b-4471-89a8-3524c7a2d1cb"},"vehicle_type_id":"4","last_reported":1768618084,"current_range_meters":3600,"station_id":"st_d2m65c5bi1j21697t3ng","pricing_plan_id":"cebpf4jnsgd1na2vs0mg"},{"bike_id":"b62e2e4f-8d17-40db-9aeb-d34b261b865e","system_id":"levelo_inurba_marseille","lat":43.23195,"lon":5.35555,"is_reserved":false,"is_disabled":false,"rental_uris":{"android":"levelo://app?vid=b62e2e4f-8d17-40db-9aeb-d34b261b865e","ios":"levelo://app?vid=b62e2e4f-8d17-40db-9aeb-d34b261b865e"},"vehicle_type_id":"4","last_reported":1768618084,"current_range_meters":4000,"station_id":"ce4bhu92rcd13ifvqi70","pricing_plan_id":"cebpf4jnsgd1na2vs0mg"},{"bike_id":"5374e4a5-372a-4009-95fd-eb8ddb1eb6c1","system_id":"levelo_inurba_marseille","lat":43.23193,"lon":5.39992,"is_reserved":false,"is_disabled":false,"rental_uris":{"android":"levelo://app?vid=5374e4a5-372a-4009-95fd-eb8ddb1eb6c1","ios":"levelo://app?vid=5374e4a5-372a-4009-95fd-eb8ddb1eb6c1"},"vehicle_type_id":"4","last_reported":1768618084,"current_range_meters":4000,"station_id":"ce4bhn12rcd13ifvqgqg","pricing_plan_id":"cebpf4jnsgd1na2vs0mg"},{"bike_id":"89d9cd06-54be-44ac-b8c9-f576dccb8768","system_id":"levelo_inurba_marseille","lat":43.24998,"lon":5.38934,"is_reserved":false,"is_disabled":false,"rental_uris":{"android":"levelo://app?vid=89d9cd06-54be-44ac-b8c9-f576dccb8768","ios":"levelo://app?vid=89d9cd06-54be-44ac-b8c9-f576dccb8768"},"vehicle_type_id":"4","last_reported":1768618084,"current_range_meters":4000,"station_id":"ce4bhgp2rcd13ifvqfd0","pricing_plan_id":"cebpf4jnsgd1na2vs0mg"},{"bike_id":"7116021d-a461-479f-9211-bcfd064121f8","system_id":"levelo_inurba_marseille","lat":43.337444,"lon":5.374475,"is_reserved":false,"is_disabled":false,"rental_uris":{"android":"levelo://app?vid=7116021d-a461-479f-9211-bcfd064121f8","ios":"levelo://app?vid=7116021d-a461-479f-9211-bcfd064121f8"},"vehicle_type_id":"4","last_reported":1768618084,"current_range_meters":4000,"station_id":"","pricing_plan_id":"cebpf4jnsgd1na2vs0mg"},{"bike_id":"3df4dfb2-a283-4c16-94bd-e45fe1d34f73","system_id":"levelo_inurba_marseille","lat":43.27935,"lon":5.39574,"is_reserved":false,"is_disabled":false,"rental_uris":{"android":"levelo://app?vid=3df4dfb2-a283-4c16-94bd-e45fe1d34f73","ios":"levelo://app?vid=3df4dfb2-a283-4c16-94bd-e45fe1d34f73"},"vehicle_type_id":"4","last_reported":1768618084,"current_range_meters":4000,"station_id":"ce4bhf92rcd13ifvqf40","pricing_plan_id":"cebpf4jnsgd1na2vs0mg"},{"bike_id":"87b41ccf-9e46-44ee-9e4a-b0913909d881","system_id":"levelo_inurba_marseille","lat":43.297551,"lon":5.427752,"is_reserved":false,"is_disabled":false,"rental_uris":{"android":"levelo://app?vid=87b41ccf-9e46-44ee-9e4a-b0913909d881","ios":"levelo://app?vid=87b41ccf-9e46-44ee-9e4a-b0913909d881"},"vehicle_type_id":"4","last_reported":1768618084,"current_range_meters":4000,"station_id":"st_d3md5207bmas73dh9klg","pricing_plan_id":"cebpf4jnsgd1na2vs0mg"},{"bike_id":"726854d4-253b-4395-b0b7-0066d3df6931","system_id":"levelo_inurba_marseille","lat":43.26568,"lon":5.40339,"is_reserved":false,"is_disabled":false,"rental_uris":{"android":"levelo://app?vid=726854d4-253b-4395-b0b7-0066d3df6931","ios":"levelo://app?vid=726854d4-253b-4395-b0b7-0066d3df6931"},"vehicle_type_id":"4","last_reported":1768618084,"current_range_meters":4000,"station_id":"ce4bhmp2rcd13ifvqgng","pricing_plan_id":"cebpf4jnsgd1na2vs0mg"},{"bike_id":"c6b7d41c-17d5-4d4d-98f7-04f5d62108df","system_id":"levelo_inurba_marseille","lat":43.22566,"lon":5.41622,"is_reserved":false,"is_disabled":false,"rental_uris":{"android":"levelo://app?vid=c6b7d41c-17d5-4d4d-98f7-04f5d62108df","ios":"levelo://app?vid=c6b7d41c-17d5-4d4d-98f7-04f5d62108df"},"vehicle_type_id":"4","last_reported":1768618084,"current_range_meters":4000,"station_id":"st_d2o4gvlbi1j2169b742g","pricing_plan_id":"cebpf4jnsgd1na2vs0mg"},{"bike_id":"ae3fbf35-701f-4f21-9788-878afc2606f2","system_id":"levelo_inurba_marseille","lat":43.29043,"lon":5.35928,"is_reserved":false,"is_disabled":false,"rental_uris":{"android":"levelo://app?vid=ae3fbf35-701f-4f21-9788-878afc2606f2","ios":"levelo://app?vid=ae3fbf35-701f-4f21-9788-878afc2606f2"},"vehicle_type_id":"4","last_reported":1768618084,"current_range_meters":4000,"station_id":"ce4bha92rcd13ifvqeg0","pricing_plan_id":"cebpf4jnsgd1na2vs0mg"},{"bike_id":"a3d2c8d6-9888-4167-aea4-b7d5c17a6980","system_id":"levelo_inurba_marseille","lat":43.30074,"lon":5.39063,"is_reserved":false,"is_disabled":false,"rental_uris":{"android":"levelo://app?vid=a3d2c8d6-9888-4167-aea4-b7d5c17a6980","ios":"levelo://app?vid=a3d2c8d6-9888-4167-aea4-b7d5c17a6980"},"vehicle_type_id":"4","last_reported":1768618084,"current_range_meters":4000,"station_id":"ce4bh192rcd13ifvqdb0","pricing_plan_id":"cebpf4jnsgd1na2vs0mg"},{"bike_id":"74a1e1f8-bb34-4287-aa1b-9f0b4e610f1e","system_id":"levelo_inurba_marseille","lat":43.30846,"lon":5.37464,"is_reserved":false,"is_disabled":false,"rental_uris":{"android":"levelo://app?vid=74a1e1f8-bb34-4287-aa1b-9f0b4e610f1e","ios":"levelo://app?vid=74a1e1f8-bb34-4287-aa1b-9f0b4e610f1e"},"vehicle_type_id":"4","last_reported":1768618084,"current_range_meters":4000,"station_id":"","pricing_plan_id":"cebpf4jnsgd1na2vs0mg"},{"bike_id":"ee672d40-ee79-42d9-af0c-79cb82e61958","system_id":"levelo_inurba_marseille","lat":43.28543,"lon":5.44115,"is_reserved":false,"is_disabled":false,"rental_uris":{"android":"levelo://app?vid=ee672d40-ee79-42d9-af0c-79cb82e61958","ios":"levelo://app?vid=ee672d40-ee79-42d9-af0c-79cb82e61958"},"vehicle_type_id":"4","last_reported":1768618084,"current_range_meters":4000,"station_id":"st_d3j3df2ikq2c7380ej80","pricing_plan_id":"cebpf4jnsgd1na2vs0mg"},{"bike_id":"6392d4ba-52a7-4ff6-bed3-714717b5ab52","system_id":"levelo_inurba_marseille","lat":43.22554,"lon":5.41646,"is_reserved":false,"is_disabled":false,"rental_uris":{"android":"levelo://app?vid=6392d4ba-52a7-4ff6-bed3-714717b5ab52","ios":"levelo://app?vid=6392d4ba-52a7-4ff6-bed3-714717b5ab52"},"vehicle_type_id":"4","last_reported":1768618084,"current_range_meters":4000,"station_id":"st_d2o4gvlbi1j2169b742g","pricing_plan_id":"cebpf4jnsgd1na2vs0mg"},{"bike_id":"6c692c2a-4d29-4de9-a7fd-87703f6a37a2","system_id":"levelo_inurba_marseille","lat":43.2447,"lon":5.42542,"is_reserved":false,"is_disabled":false,"rental_uris":{"android":"levelo://app?vid=6c692c2a-4d29-4de9-a7fd-87703f6a37a2","ios":"levelo://app?vid=6c692c2a-4d29-4de9-a7fd-87703f6a37a2"},"vehicle_type_id":"4","last_reported":1768618084,"current_range_meters":4400,"station_id":"st_d4a3vfp97mjs738cd8kg","pricing_plan_id":"cebpf4jnsgd1na2vs0mg"},{"bike_id":"0967e074-c864-4ede-814f-7861d601bf0e","system_id":"levelo_inurba_marseille","lat":43.31341,"lon":5.36783,"is_reserved":false,"is_disabled":false,"rental_uris":{"android":"levelo://app?vid=0967e074-c864-4ede-814f-7861d601bf0e","ios":"levelo://app?vid=0967e074-c864-4ede-814f-7861d601bf0e"},"vehicle_type_id":"4","last_reported":1768618084,"current_range_meters":4400,"station_id":"","pricing_plan_id":"cebpf4jnsgd1na2vs0mg"},{"bike_id":"2dcdbfd5-ea9c-48f0-a358-3c3a1e18e731","system_id":"levelo_inurba_marseille","lat":43.27997,"lon":5.40014,"is_reserved":false,"is_disabled":false,"rental_uris":{"android":"levelo://app?vid=2dcdbfd5-ea9c-48f0-a358-3c3a1e18e731","ios":"levelo://app?vid=2dcdbfd5-ea9c-48f0-a358-3c3a1e18e731"},"vehicle_type_id":"4","last_reported":1768618084,"current_range_meters":4400,"station_id":"ce4bho92rcd13ifvqh4g","pricing_plan_id":"cebpf4jnsgd1na2vs0mg"},{"bike_id":"7bff1363-c4fa-4ec9-8501-d87b2c3b54d0","system_id":"levelo_inurba_marseille","lat":43.24989,"lon":5.38941,"is_reserved":false,"is_disabled":false,"rental_uris":{"android":"levelo://app?vid=7bff1363-c4fa-4ec9-8501-d87b2c3b54d0","ios":"levelo://app?vid=7bff1363-c4fa-4ec9-8501-d87b2c3b54d0"},"vehicle_type_id":"4","last_reported":1768618084,"current_range_meters":4400,"station_id":"ce4bhgp2rcd13ifvqfd0","pricing_plan_id":"cebpf4jnsgd1na2vs0mg"},{"bike_id":"b9606a14-7870-458c-a269-f76fe5a961fa","system_id":"levelo_inurba_marseille","lat":43.29968,"lon":5.38492,"is_reserved":false,"is_disabled":false,"rental_uris":{"android":"levelo://app?vid=b9606a14-7870-458c-a269-f76fe5a961fa","ios":"levelo://app?vid=b9606a14-7870-458c-a269-f76fe5a961fa"},"vehicle_type_id":"4","last_reported":1768618084,"current_range_meters":4400,"station_id":"ce4bgj92rcd13ifvqbd0","pricing_plan_id":"cebpf4jnsgd1na2vs0mg"},{"bike_id":"beaae619-a4ac-4aa6-b171-20d72d73eed8","system_id":"levelo_inurba_marseille","lat":43.32351,"lon":5.36738,"is_reserved":false,"is_disabled":false,"rental_uris":{"android":"levelo://app?vid=beaae619-a4ac-4aa6-b171-20d72d73eed8","ios":"levelo://app?vid=beaae619-a4ac-4aa6-b171-20d72d73eed8"},"vehicle_type_id":"4","last_reported":1768618084,"current_range_meters":4400,"station_id":"ce4bhsh2rcd13ifvqi2g","pricing_plan_id":"cebpf4jnsgd1na2vs0mg"},{"bike_id":"612b6cc1-af85-4ee3-83c3-b2430d47b828","system_id":"levelo_inurba_marseille","lat":43.29212,"lon":5.36049,"is_reserved":false,"is_disabled":false,"rental_uris":{"android":"levelo://app?vid=612b6cc1-af85-4ee3-83c3-b2430d47b828","ios":"levelo://app?vid=612b6cc1-af85-4ee3-83c3-b2430d47b828"},"vehicle_type_id":"4","last_reported":1768618084,"current_range_meters":4400,"station_id":"ce4bhbh2rcd13ifvqeqg","pricing_plan_id":"cebpf4jnsgd1na2vs0mg"},{"bike_id":"d33a7735-eeb9-4115-8902-17f626cd1584","system_id":"levelo_inurba_marseille","lat":43.30116,"lon":5.39941,"is_reserved":false,"is_disabled":false,"rental_uris":{"android":"levelo://app?vid=d33a7735-eeb9-4115-8902-17f626cd1584","ios":"levelo://app?vid=d33a7735-eeb9-4115-8902-17f626cd1584"},"vehicle_type_id":"4","last_reported":1768618084,"current_range_meters":4400,"station_id":"","pricing_plan_id":"cebpf4jnsgd1na2vs0mg"},{"bike_id":"23ec3a98-26a5-4b81-8fe6-bd629f0771f5","system_id":"levelo_inurba_marseille","lat":43.281346,"lon":5.389345,"is_reserved":false,"is_disabled":false,"rental_uris":{"android":"levelo://app?vid=23ec3a98-26a5-4b81-8fe6-bd629f0771f5","ios":"levelo://app?vid=23ec3a98-26a5-4b81-8fe6-bd629f0771f5"},"vehicle_type_id":"4","last_reported":1768618084,"current_range_meters":4400,"station_id":"","pricing_plan_id":"cebpf4jnsgd1na2vs0mg"},{"bike_id":"2558e042-ebd6-4a64-b3a1-3a986f311c5f","system_id":"levelo_inurba_marseille","lat":43.265682,"lon":5.390065,"is_reserved":false,"is_disabled":false,"rental_uris":{"android":"levelo://app?vid=2558e042-ebd6-4a64-b3a1-3a986f311c5f","ios":"levelo://app?vid=2558e042-ebd6-4a64-b3a1-3a986f311c5f"},"vehicle_type_id":"4","last_reported":1768618084,"current_range_meters":4800,"station_id":"ce4bhe12rcd13ifvqf30","pricing_plan_id":"cebpf4jnsgd1na2vs0mg"},{"bike_id":"82b87168-267f-432c-a609-70f7b40ac901","system_id":"levelo_inurba_marseille","lat":43.27726,"lon":5.40776,"is_reserved":false,"is_disabled":false,"rental_uris":{"android":"levelo://app?vid=82b87168-267f-432c-a609-70f7b40ac901","ios":"levelo://app?vid=82b87168-267f-432c-a609-70f7b40ac901"},"vehicle_type_id":"4","last_reported":1768618084,"current_range_meters":4800,"station_id":"","pricing_plan_id":"cebpf4jnsgd1na2vs0mg"},{"bike_id":"6206a0c3-a7cf-4f7c-8e03-de7574da78d8","system_id":"levelo_inurba_marseille","lat":43.29577,"lon":5.40004,"is_reserved":false,"is_disabled":false,"rental_uris":{"android":"levelo://app?vid=6206a0c3-a7cf-4f7c-8e03-de7574da78d8","ios":"levelo://app?vid=6206a0c3-a7cf-4f7c-8e03-de7574da78d8"},"vehicle_type_id":"4","last_reported":1768618084,"current_range_meters":4800,"station_id":"ce4bh312rcd13ifvqdj0","pricing_plan_id":"cebpf4jnsgd1na2vs0mg"},{"bike_id":"532b9321-adf3-4dd6-91b9-760d90dcb033","system_id":"levelo_inurba_marseille","lat":43.31077,"lon":5.42441,"is_reserved":false,"is_disabled":false,"rental_uris":{"android":"levelo://app?vid=532b9321-adf3-4dd6-91b9-760d90dcb033","ios":"levelo://app?vid=532b9321-adf3-4dd6-91b9-760d90dcb033"},"vehicle_type_id":"4","last_reported":1768618084,"current_range_meters":4800,"station_id":"ce4bhp92rcd13ifvqhag","pricing_plan_id":"cebpf4jnsgd1na2vs0mg"},{"bike_id":"7ead0f4e-e9a8-43d5-9aa2-4a358eae7b7a","system_id":"levelo_inurba_marseille","lat":43.3064,"lon":5.394294,"is_reserved":false,"is_disabled":false,"rental_uris":{"android":"levelo://app?vid=7ead0f4e-e9a8-43d5-9aa2-4a358eae7b7a","ios":"levelo://app?vid=7ead0f4e-e9a8-43d5-9aa2-4a358eae7b7a"},"vehicle_type_id":"4","last_reported":1768618084,"current_range_meters":4800,"station_id":"ce4bh0p2rcd13ifvqd80","pricing_plan_id":"cebpf4jnsgd1na2vs0mg"},{"bike_id":"5b67b7ca-23e2-48bf-a3e9-d8a6d4efa8a8","system_id":"levelo_inurba_marseille","lat":43.27619,"lon":5.36123,"is_reserved":false,"is_disabled":false,"rental_uris":{"android":"levelo://app?vid=5b67b7ca-23e2-48bf-a3e9-d8a6d4efa8a8","ios":"levelo://app?vid=5b67b7ca-23e2-48bf-a3e9-d8a6d4efa8a8"},"vehicle_type_id":"4","last_reported":1768618084,"current_range_meters":4800,"station_id":"ce4bgj92rcd13ifvqbe0","pricing_plan_id":"cebpf4jnsgd1na2vs0mg"},{"bike_id":"1935688c-642d-4b98-8510-7a9991719b17","system_id":"levelo_inurba_marseille","lat":43.2495,"lon":5.40503,"is_reserved":false,"is_disabled":false,"rental_uris":{"android":"levelo://app?vid=1935688c-642d-4b98-8510-7a9991719b17","ios":"levelo://app?vid=1935688c-642d-4b98-8510-7a9991719b17"},"vehicle_type_id":"4","last_reported":1768618084,"current_range_meters":4800,"station_id":"st_d2ngiaodas8pm72gd1h0","pricing_plan_id":"cebpf4jnsgd1na2vs0mg"},{"bike_id":"a1ce7ca3-56c7-402e-a0a5-8c554fdda857","system_id":"levelo_inurba_marseille","lat":43.29839,"lon":5.37585,"is_reserved":false,"is_disabled":false,"rental_uris":{"android":"levelo://app?vid=a1ce7ca3-56c7-402e-a0a5-8c554fdda857","ios":"levelo://app?vid=a1ce7ca3-56c7-402e-a0a5-8c554fdda857"},"vehicle_type_id":"4","last_reported":1768618084,"current_range_meters":4800,"station_id":"","pricing_plan_id":"cebpf4jnsgd1na2vs0mg"},{"bike_id":"41c4021a-14b9-4a23-afc6-ebd4816df26a","system_id":"levelo_inurba_marseille","lat":43.3108,"lon":5.42428,"is_reserved":false,"is_disabled":false,"rental_uris":{"android":"levelo://app?vid=41c4021a-14b9-4a23-afc6-ebd4816df26a","ios":"levelo://app?vid=41c4021a-14b9-4a23-afc6-ebd4816df26a"},"vehicle_type_id":"4","last_reported":1768618084,"current_range_meters":4800,"station_id":"ce4bhp92rcd13ifvqhag","pricing_plan_id":"cebpf4jnsgd1na2vs0mg"},{"bike_id":"beeda613-7b77-479c-90f5-b635b4700e74","system_id":"levelo_inurba_marseille","lat":43.24173,"lon":5.364,"is_reserved":false,"is_disabled":false,"rental_uris":{"android":"levelo://app?vid=beeda613-7b77-479c-90f5-b635b4700e74","ios":"levelo://app?vid=beeda613-7b77-479c-90f5-b635b4700e74"},"vehicle_type_id":"4","last_reported":1768618084,"current_range_meters":4800,"station_id":"cpo36qri1sfpv3e86is0","pricing_plan_id":"cebpf4jnsgd1na2vs0mg"},{"bike_id":"ff4d0607-6ff1-415f-9ead-9ef2deaa935c","system_id":"levelo_inurba_marseille","lat":43.301402,"lon":5.398644,"is_reserved":false,"is_disabled":false,"rental_uris":{"android":"levelo://app?vid=ff4d0607-6ff1-415f-9ead-9ef2deaa935c","ios":"levelo://app?vid=ff4d0607-6ff1-415f-9ead-9ef2deaa935c"},"vehicle_type_id":"4","last_reported":1768618084,"current_range_meters":4800,"station_id":"ce4bh0h2rcd13ifvqd40","pricing_plan_id":"cebpf4jnsgd1na2vs0mg"},{"bike_id":"bce7016a-598e-4954-b898-4fea8863ec74","system_id":"levelo_inurba_marseille","lat":43.294993,"lon":5.374008,"is_reserved":false,"is_disabled":false,"rental_uris":{"android":"levelo://app?vid=bce7016a-598e-4954-b898-4fea8863ec74","ios":"levelo://app?vid=bce7016a-598e-4954-b898-4fea8863ec74"},"vehicle_type_id":"4","last_reported":1768618084,"current_range_meters":5600,"station_id":"","pricing_plan_id":"cebpf4jnsgd1na2vs0mg"},{"bike_id":"2a49273c-b35f-40af-9991-87544c417eaf","system_id":"levelo_inurba_marseille","lat":43.31669,"lon":5.36431,"is_reserved":false,"is_disabled":false,"rental_uris":{"android":"levelo://app?vid=2a49273c-b35f-40af-9991-87544c417eaf","ios":"levelo://app?vid=2a49273c-b35f-40af-9991-87544c417eaf"},"vehicle_type_id":"4","last_reported":1768618084,"current_range_meters":5600,"station_id":"","pricing_plan_id":"cebpf4jnsgd1na2vs0mg"},{"bike_id":"0c015406-c4e0-4957-b6ea-e8db9f6df0cb","system_id":"levelo_inurba_marseille","lat":43.25834,"lon":5.39434,"is_reserved":false,"is_disabled":false,"rental_uris":{"android":"levelo://app?vid=0c015406-c4e0-4957-b6ea-e8db9f6df0cb","ios":"levelo://app?vid=0c015406-c4e0-4957-b6ea-e8db9f6df0cb"},"vehicle_type_id":"4","last_reported":1768618084,"current_range_meters":5600,"station_id":"ce4bhip2rcd13ifvqft0","pricing_plan_id":"cebpf4jnsgd1na2vs0mg"},{"bike_id":"916b9631-09de-4c65-b27c-ffcc992f6cb2","system_id":"levelo_inurba_marseille","lat":43.25339,"lon":5.42162,"is_reserved":false,"is_disabled":false,"rental_uris":{"android":"levelo://app?vid=916b9631-09de-4c65-b27c-ffcc992f6cb2","ios":"levelo://app?vid=916b9631-09de-4c65-b27c-ffcc992f6cb2"},"vehicle_type_id":"4","last_reported":1768618084,"current_range_meters":5600,"station_id":"st_d2m65c5bi1j21697t3ng","pricing_plan_id":"cebpf4jnsgd1na2vs0mg"},{"bike_id":"867fd4de-d203-4c7c-9844-b2ea52c3d0ef","system_id":"levelo_inurba_marseille","lat":43.25094,"lon":5.39514,"is_reserved":false,"is_disabled":false,"rental_uris":{"android":"levelo://app?vid=867fd4de-d203-4c7c-9844-b2ea52c3d0ef","ios":"levelo://app?vid=867fd4de-d203-4c7c-9844-b2ea52c3d0ef"},"vehicle_type_id":"4","last_reported":1768618084,"current_range_meters":5600,"station_id":"ce4bhm12rcd13ifvqgkg","pricing_plan_id":"cebpf4jnsgd1na2vs0mg"},{"bike_id":"768cb985-0313-429b-a981-235a98b696ae","system_id":"levelo_inurba_marseille","lat":43.27831,"lon":5.40753,"is_reserved":false,"is_disabled":false,"rental_uris":{"android":"levelo://app?vid=768cb985-0313-429b-a981-235a98b696ae","ios":"levelo://app?vid=768cb985-0313-429b-a981-235a98b696ae"},"vehicle_type_id":"4","last_reported":1768618084,"current_range_meters":5600,"station_id":"ce4bhnh2rcd13ifvqgtg","pricing_plan_id":"cebpf4jnsgd1na2vs0mg"},{"bike_id":"0105de79-43a8-4de9-af65-6d3d110a6400","system_id":"levelo_inurba_marseille","lat":43.241666,"lon":5.397264,"is_reserved":false,"is_disabled":false,"rental_uris":{"android":"levelo://app?vid=0105de79-43a8-4de9-af65-6d3d110a6400","ios":"levelo://app?vid=0105de79-43a8-4de9-af65-6d3d110a6400"},"vehicle_type_id":"4","last_reported":1768618084,"current_range_meters":6000,"station_id":"ce4bhn12rcd13ifvqgpg","pricing_plan_id":"cebpf4jnsgd1na2vs0mg"},{"bike_id":"86e6621f-7881-4c25-ad15-d2bf78f793fd","system_id":"levelo_inurba_marseille","lat":43.27837,"lon":5.40695,"is_reserved":false,"is_disabled":false,"rental_uris":{"android":"levelo://app?vid=86e6621f-7881-4c25-ad15-d2bf78f793fd","ios":"levelo://app?vid=86e6621f-7881-4c25-ad15-d2bf78f793fd"},"vehicle_type_id":"4","last_reported":1768618084,"current_range_meters":6000,"station_id":"ce4bhnh2rcd13ifvqgtg","pricing_plan_id":"cebpf4jnsgd1na2vs0mg"},{"bike_id":"13c5bb29-9d1c-4ac3-bd57-1aeb26a4e127","system_id":"levelo_inurba_marseille","lat":43.27305,"lon":5.39091,"is_reserved":false,"is_disabled":false,"rental_uris":{"android":"levelo://app?vid=13c5bb29-9d1c-4ac3-bd57-1aeb26a4e127","ios":"levelo://app?vid=13c5bb29-9d1c-4ac3-bd57-1aeb26a4e127"},"vehicle_type_id":"4","last_reported":1768618084,"current_range_meters":6000,"station_id":"ce4bhgp2rcd13ifvqfe0","pricing_plan_id":"cebpf4jnsgd1na2vs0mg"},{"bike_id":"fc489fcf-c251-4a4f-870b-c76aecd2ad14","system_id":"levelo_inurba_marseille","lat":43.270724,"lon":5.422649,"is_reserved":false,"is_disabled":false,"rental_uris":{"android":"levelo://app?vid=fc489fcf-c251-4a4f-870b-c76aecd2ad14","ios":"levelo://app?vid=fc489fcf-c251-4a4f-870b-c76aecd2ad14"},"vehicle_type_id":"4","last_reported":1768618084,"current_range_meters":6000,"station_id":"ce4bhk92rcd13ifvqgb0","pricing_plan_id":"cebpf4jnsgd1na2vs0mg"},{"bike_id":"20696002-54d7-4af6-a1a3-4992415bf5f7","system_id":"levelo_inurba_marseille","lat":43.296287,"lon":5.376202,"is_reserved":false,"is_disabled":false,"rental_uris":{"android":"levelo://app?vid=20696002-54d7-4af6-a1a3-4992415bf5f7","ios":"levelo://app?vid=20696002-54d7-4af6-a1a3-4992415bf5f7"},"vehicle_type_id":"4","last_reported":1768618084,"current_range_meters":6000,"station_id":"","pricing_plan_id":"cebpf4jnsgd1na2vs0mg"},{"bike_id":"908152dd-71d2-4cb9-91c4-79c03ce7e9cd","system_id":"levelo_inurba_marseille","lat":43.2678,"lon":5.39416,"is_reserved":false,"is_disabled":false,"rental_uris":{"android":"levelo://app?vid=908152dd-71d2-4cb9-91c4-79c03ce7e9cd","ios":"levelo://app?vid=908152dd-71d2-4cb9-91c4-79c03ce7e9cd"},"vehicle_type_id":"4","last_reported":1768618084,"current_range_meters":6000,"station_id":"ce4bhh12rcd13ifvqfg0","pricing_plan_id":"cebpf4jnsgd1na2vs0mg"},{"bike_id":"3b5c4f84-7f90-4474-adba-916a9c8db3a2","system_id":"levelo_inurba_marseille","lat":43.32073,"lon":5.41576,"is_reserved":false,"is_disabled":false,"rental_uris":{"android":"levelo://app?vid=3b5c4f84-7f90-4474-adba-916a9c8db3a2","ios":"levelo://app?vid=3b5c4f84-7f90-4474-adba-916a9c8db3a2"},"vehicle_type_id":"4","last_reported":1768618084,"current_range_meters":6000,"station_id":"ce4bhq92rcd13ifvqhkg","pricing_plan_id":"cebpf4jnsgd1na2vs0mg"},{"bike_id":"883e634f-3a04-4514-aae5-6e096d30b06f","system_id":"levelo_inurba_marseille","lat":43.27818,"lon":5.4072,"is_reserved":false,"is_disabled":false,"rental_uris":{"android":"levelo://app?vid=883e634f-3a04-4514-aae5-6e096d30b06f","ios":"levelo://app?vid=883e634f-3a04-4514-aae5-6e096d30b06f"},"vehicle_type_id":"4","last_reported":1768618084,"current_range_meters":6000,"station_id":"ce4bhnh2rcd13ifvqgtg","pricing_plan_id":"cebpf4jnsgd1na2vs0mg"},{"bike_id":"20ef9144-91e8-409f-b00a-14ecda56d561","system_id":"levelo_inurba_marseille","lat":43.21752,"lon":5.34607,"is_reserved":false,"is_disabled":false,"rental_uris":{"android":"levelo://app?vid=20ef9144-91e8-409f-b00a-14ecda56d561","ios":"levelo://app?vid=20ef9144-91e8-409f-b00a-14ecda56d561"},"vehicle_type_id":"4","last_reported":1768618084,"current_range_meters":6000,"station_id":"","pricing_plan_id":"cebpf4jnsgd1na2vs0mg"},{"bike_id":"75a01f13-be16-4370-a7fc-dbe0f442faa9","system_id":"levelo_inurba_marseille","lat":43.21766,"lon":5.346,"is_reserved":false,"is_disabled":false,"rental_uris":{"android":"levelo://app?vid=75a01f13-be16-4370-a7fc-dbe0f442faa9","ios":"levelo://app?vid=75a01f13-be16-4370-a7fc-dbe0f442faa9"},"vehicle_type_id":"4","last_reported":1768618084,"current_range_meters":6000,"station_id":"st_cvj6r9ubvosntc0bgbag","pricing_plan_id":"cebpf4jnsgd1na2vs0mg"},{"bike_id":"7bf645d4-598a-49a6-9e76-cf9acf0ff953","system_id":"levelo_inurba_marseille","lat":43.31465,"lon":5.37324,"is_reserved":false,"is_disabled":false,"rental_uris":{"android":"levelo://app?vid=7bf645d4-598a-49a6-9e76-cf9acf0ff953","ios":"levelo://app?vid=7bf645d4-598a-49a6-9e76-cf9acf0ff953"},"vehicle_type_id":"4","last_reported":1768618084,"current_range_meters":6000,"station_id":"ce4bgt12rcd13ifvqcd0","pricing_plan_id":"cebpf4jnsgd1na2vs0mg"},{"bike_id":"e46ce8c7-ce8c-4d46-bfea-0fca4d9e7df9","system_id":"levelo_inurba_marseille","lat":43.28459,"lon":5.35884,"is_reserved":false,"is_disabled":false,"rental_uris":{"android":"levelo://app?vid=e46ce8c7-ce8c-4d46-bfea-0fca4d9e7df9","ios":"levelo://app?vid=e46ce8c7-ce8c-4d46-bfea-0fca4d9e7df9"},"vehicle_type_id":"4","last_reported":1768618084,"current_range_meters":6000,"station_id":"ce4bhah2rcd13ifvqei0","pricing_plan_id":"cebpf4jnsgd1na2vs0mg"},{"bike_id":"763adf22-a6f9-46cd-ba2f-90315220ba48","system_id":"levelo_inurba_marseille","lat":43.31175,"lon":5.38715,"is_reserved":false,"is_disabled":false,"rental_uris":{"android":"levelo://app?vid=763adf22-a6f9-46cd-ba2f-90315220ba48","ios":"levelo://app?vid=763adf22-a6f9-46cd-ba2f-90315220ba48"},"vehicle_type_id":"4","last_reported":1768618084,"current_range_meters":6000,"station_id":"ce4bgv12rcd13ifvqcp0","pricing_plan_id":"cebpf4jnsgd1na2vs0mg"},{"bike_id":"4c330636-b4ee-4a81-8afe-c3deb704dc18","system_id":"levelo_inurba_marseille","lat":43.23962,"lon":5.36632,"is_reserved":false,"is_disabled":false,"rental_uris":{"android":"levelo://app?vid=4c330636-b4ee-4a81-8afe-c3deb704dc18","ios":"levelo://app?vid=4c330636-b4ee-4a81-8afe-c3deb704dc18"},"vehicle_type_id":"4","last_reported":1768618084,"current_range_meters":6000,"station_id":"ce4bhi12rcd13ifvqfp0","pricing_plan_id":"cebpf4jnsgd1na2vs0mg"},{"bike_id":"c213175e-76cb-4571-b781-3891be5ded63","system_id":"levelo_inurba_marseille","lat":43.23814,"lon":5.36584,"is_reserved":false,"is_disabled":false,"rental_uris":{"android":"levelo://app?vid=c213175e-76cb-4571-b781-3891be5ded63","ios":"levelo://app?vid=c213175e-76cb-4571-b781-3891be5ded63"},"vehicle_type_id":"4","last_reported":1768618084,"current_range_meters":6000,"station_id":"","pricing_plan_id":"cebpf4jnsgd1na2vs0mg"},{"bike_id":"1d62d340-4bc5-43ff-b71d-77a560282cf5","system_id":"levelo_inurba_marseille","lat":43.29162,"lon":5.3716,"is_reserved":false,"is_disabled":false,"rental_uris":{"android":"levelo://app?vid=1d62d340-4bc5-43ff-b71d-77a560282cf5","ios":"levelo://app?vid=1d62d340-4bc5-43ff-b71d-77a560282cf5"},"vehicle_type_id":"4","last_reported":1768618084,"current_range_meters":6400,"station_id":"ce4bha92rcd13ifvqeh0","pricing_plan_id":"cebpf4jnsgd1na2vs0mg"},{"bike_id":"fb1b1e0b-e22e-40d3-a7d4-98b79feadcff","system_id":"levelo_inurba_marseille","lat":43.26225,"lon":5.40447,"is_reserved":false,"is_disabled":false,"rental_uris":{"android":"levelo://app?vid=fb1b1e0b-e22e-40d3-a7d4-98b79feadcff","ios":"levelo://app?vid=fb1b1e0b-e22e-40d3-a7d4-98b79feadcff"},"vehicle_type_id":"4","last_reported":1768618084,"current_range_meters":6400,"station_id":"ce4bhmh2rcd13ifvqgmg","pricing_plan_id":"cebpf4jnsgd1na2vs0mg"},{"bike_id":"0d6897ee-18f3-48e3-8995-dbd357dcf6f6","system_id":"levelo_inurba_marseille","lat":43.27818,"lon":5.40711,"is_reserved":false,"is_disabled":false,"rental_uris":{"android":"levelo://app?vid=0d6897ee-18f3-48e3-8995-dbd357dcf6f6","ios":"levelo://app?vid=0d6897ee-18f3-48e3-8995-dbd357dcf6f6"},"vehicle_type_id":"4","last_reported":1768618084,"current_range_meters":6400,"station_id":"ce4bhnh2rcd13ifvqgtg","pricing_plan_id":"cebpf4jnsgd1na2vs0mg"},{"bike_id":"421cacd8-e947-4afd-a144-abf07645a343","system_id":"levelo_inurba_marseille","lat":43.337444,"lon":5.374475,"is_reserved":false,"is_disabled":false,"rental_uris":{"android":"levelo://app?vid=421cacd8-e947-4afd-a144-abf07645a343","ios":"levelo://app?vid=421cacd8-e947-4afd-a144-abf07645a343"},"vehicle_type_id":"4","last_reported":1768618084,"current_range_meters":6400,"station_id":"","pricing_plan_id":"cebpf4jnsgd1na2vs0mg"},{"bike_id":"e67306f2-91be-4bbd-b4f1-9cc45e01c0f5","system_id":"levelo_inurba_marseille","lat":43.32355,"lon":5.36726,"is_reserved":false,"is_disabled":false,"rental_uris":{"android":"levelo://app?vid=e67306f2-91be-4bbd-b4f1-9cc45e01c0f5","ios":"levelo://app?vid=e67306f2-91be-4bbd-b4f1-9cc45e01c0f5"},"vehicle_type_id":"4","last_reported":1768618084,"current_range_meters":6400,"station_id":"ce4bhsh2rcd13ifvqi2g","pricing_plan_id":"cebpf4jnsgd1na2vs0mg"},{"bike_id":"e9062d5d-3347-4a67-b796-37630289f8ec","system_id":"levelo_inurba_marseille","lat":43.3137,"lon":5.38495,"is_reserved":false,"is_disabled":false,"rental_uris":{"android":"levelo://app?vid=e9062d5d-3347-4a67-b796-37630289f8ec","ios":"levelo://app?vid=e9062d5d-3347-4a67-b796-37630289f8ec"},"vehicle_type_id":"4","last_reported":1768618084,"current_range_meters":6400,"station_id":"ce4bgt92rcd13ifvqcf0","pricing_plan_id":"cebpf4jnsgd1na2vs0mg"},{"bike_id":"6b614937-a502-44f5-934f-81d015634ef2","system_id":"levelo_inurba_marseille","lat":43.32049,"lon":5.36768,"is_reserved":false,"is_disabled":false,"rental_uris":{"android":"levelo://app?vid=6b614937-a502-44f5-934f-81d015634ef2","ios":"levelo://app?vid=6b614937-a502-44f5-934f-81d015634ef2"},"vehicle_type_id":"4","last_reported":1768618084,"current_range_meters":6400,"station_id":"ce4bhrh2rcd13ifvqhug","pricing_plan_id":"cebpf4jnsgd1na2vs0mg"},{"bike_id":"bd8aba5f-86d1-4997-b2f2-a9efd7aef4a0","system_id":"levelo_inurba_marseille","lat":43.28954,"lon":5.36629,"is_reserved":false,"is_disabled":false,"rental_uris":{"android":"levelo://app?vid=bd8aba5f-86d1-4997-b2f2-a9efd7aef4a0","ios":"levelo://app?vid=bd8aba5f-86d1-4997-b2f2-a9efd7aef4a0"},"vehicle_type_id":"4","last_reported":1768618084,"current_range_meters":6400,"station_id":"ce4bhap2rcd13ifvqek0","pricing_plan_id":"cebpf4jnsgd1na2vs0mg"},{"bike_id":"744e766d-6cf3-40d3-9efc-3dc33d883636","system_id":"levelo_inurba_marseille","lat":43.25578,"lon":5.38234,"is_reserved":false,"is_disabled":false,"rental_uris":{"android":"levelo://app?vid=744e766d-6cf3-40d3-9efc-3dc33d883636","ios":"levelo://app?vid=744e766d-6cf3-40d3-9efc-3dc33d883636"},"vehicle_type_id":"4","last_reported":1768618084,"current_range_meters":6400,"station_id":"ce4bhih2rcd13ifvqfs0","pricing_plan_id":"cebpf4jnsgd1na2vs0mg"},{"bike_id":"0c8e6400-5132-4fc8-bc0c-deb5c809d02f","system_id":"levelo_inurba_marseille","lat":43.2256,"lon":5.41619,"is_reserved":false,"is_disabled":false,"rental_uris":{"android":"levelo://app?vid=0c8e6400-5132-4fc8-bc0c-deb5c809d02f","ios":"levelo://app?vid=0c8e6400-5132-4fc8-bc0c-deb5c809d02f"},"vehicle_type_id":"4","last_reported":1768618084,"current_range_meters":6400,"station_id":"st_d2o4gvlbi1j2169b742g","pricing_plan_id":"cebpf4jnsgd1na2vs0mg"},{"bike_id":"78a9b9a2-5d06-4258-a0c0-0962138f338f","system_id":"levelo_inurba_marseille","lat":43.28483,"lon":5.48417,"is_reserved":false,"is_disabled":false,"rental_uris":{"android":"levelo://app?vid=78a9b9a2-5d06-4258-a0c0-0962138f338f","ios":"levelo://app?vid=78a9b9a2-5d06-4258-a0c0-0962138f338f"},"vehicle_type_id":"4","last_reported":1768618084,"current_range_meters":6400,"station_id":"st_d3svhcjqgbts73a3dn0g","pricing_plan_id":"cebpf4jnsgd1na2vs0mg"},{"bike_id":"024f58fa-404d-43fd-99b6-a19331f5cf46","system_id":"levelo_inurba_marseille","lat":43.30126,"lon":5.36708,"is_reserved":false,"is_disabled":false,"rental_uris":{"android":"levelo://app?vid=024f58fa-404d-43fd-99b6-a19331f5cf46","ios":"levelo://app?vid=024f58fa-404d-43fd-99b6-a19331f5cf46"},"vehicle_type_id":"4","last_reported":1768618084,"current_range_meters":6400,"station_id":"","pricing_plan_id":"cebpf4jnsgd1na2vs0mg"},{"bike_id":"33a43e34-88a4-4083-b992-f809b7203d8d","system_id":"levelo_inurba_marseille","lat":43.270627,"lon":5.382924,"is_reserved":false,"is_disabled":false,"rental_uris":{"android":"levelo://app?vid=33a43e34-88a4-4083-b992-f809b7203d8d","ios":"levelo://app?vid=33a43e34-88a4-4083-b992-f809b7203d8d"},"vehicle_type_id":"4","last_reported":1768618084,"current_range_meters":6400,"station_id":"st_d3n2fo6cfp8s73cte1j0","pricing_plan_id":"cebpf4jnsgd1na2vs0mg"},{"bike_id":"b45e3786-f240-418c-8d2f-00029fe91c40","system_id":"levelo_inurba_marseille","lat":43.28451,"lon":5.38831,"is_reserved":false,"is_disabled":false,"rental_uris":{"android":"levelo://app?vid=b45e3786-f240-418c-8d2f-00029fe91c40","ios":"levelo://app?vid=b45e3786-f240-418c-8d2f-00029fe91c40"},"vehicle_type_id":"4","last_reported":1768618084,"current_range_meters":6400,"station_id":"","pricing_plan_id":"cebpf4jnsgd1na2vs0mg"},{"bike_id":"629e41c8-23e2-4e3e-9b86-7580a9fe3bed","system_id":"levelo_inurba_marseille","lat":43.31038,"lon":5.37166,"is_reserved":false,"is_disabled":false,"rental_uris":{"android":"levelo://app?vid=629e41c8-23e2-4e3e-9b86-7580a9fe3bed","ios":"levelo://app?vid=629e41c8-23e2-4e3e-9b86-7580a9fe3bed"},"vehicle_type_id":"4","last_reported":1768618084,"current_range_meters":6400,"station_id":"st_d4kl2rp97mjs73e7tdfg","pricing_plan_id":"cebpf4jnsgd1na2vs0mg"},{"bike_id":"b223653d-a046-4120-8776-e3c49ae637a8","system_id":"levelo_inurba_marseille","lat":43.21858,"lon":5.3458,"is_reserved":false,"is_disabled":false,"rental_uris":{"android":"levelo://app?vid=b223653d-a046-4120-8776-e3c49ae637a8","ios":"levelo://app?vid=b223653d-a046-4120-8776-e3c49ae637a8"},"vehicle_type_id":"4","last_reported":1768618084,"current_range_meters":6400,"station_id":"","pricing_plan_id":"cebpf4jnsgd1na2vs0mg"},{"bike_id":"9cd9d5c5-198e-4fc1-8421-8e645f6d1d75","system_id":"levelo_inurba_marseille","lat":43.286,"lon":5.35136,"is_reserved":false,"is_disabled":false,"rental_uris":{"android":"levelo://app?vid=9cd9d5c5-198e-4fc1-8421-8e645f6d1d75","ios":"levelo://app?vid=9cd9d5c5-198e-4fc1-8421-8e645f6d1d75"},"vehicle_type_id":"4","last_reported":1768618084,"current_range_meters":6800,"station_id":"ce4bhch2rcd13ifvqeug","pricing_plan_id":"cebpf4jnsgd1na2vs0mg"},{"bike_id":"d8b52035-9107-4203-ba3b-8ab85229defc","system_id":"levelo_inurba_marseille","lat":43.25573,"lon":5.40061,"is_reserved":false,"is_disabled":false,"rental_uris":{"android":"levelo://app?vid=d8b52035-9107-4203-ba3b-8ab85229defc","ios":"levelo://app?vid=d8b52035-9107-4203-ba3b-8ab85229defc"},"vehicle_type_id":"4","last_reported":1768618084,"current_range_meters":6800,"station_id":"","pricing_plan_id":"cebpf4jnsgd1na2vs0mg"},{"bike_id":"d0d1d698-a748-4849-a68c-b2045ed71aae","system_id":"levelo_inurba_marseille","lat":43.25078,"lon":5.40341,"is_reserved":false,"is_disabled":false,"rental_uris":{"android":"levelo://app?vid=d0d1d698-a748-4849-a68c-b2045ed71aae","ios":"levelo://app?vid=d0d1d698-a748-4849-a68c-b2045ed71aae"},"vehicle_type_id":"4","last_reported":1768618084,"current_range_meters":6800,"station_id":"ce4bhlh2rcd13ifvqgig","pricing_plan_id":"cebpf4jnsgd1na2vs0mg"},{"bike_id":"205e067b-4784-4a9d-8eb5-b6861b4cfcd1","system_id":"levelo_inurba_marseille","lat":43.28536,"lon":5.44097,"is_reserved":false,"is_disabled":false,"rental_uris":{"android":"levelo://app?vid=205e067b-4784-4a9d-8eb5-b6861b4cfcd1","ios":"levelo://app?vid=205e067b-4784-4a9d-8eb5-b6861b4cfcd1"},"vehicle_type_id":"4","last_reported":1768618084,"current_range_meters":6800,"station_id":"st_d3j3df2ikq2c7380ej80","pricing_plan_id":"cebpf4jnsgd1na2vs0mg"},{"bike_id":"1642fba8-cfc0-4ff8-82cc-3190ec9be027","system_id":"levelo_inurba_marseille","lat":43.24792,"lon":5.37485,"is_reserved":false,"is_disabled":false,"rental_uris":{"android":"levelo://app?vid=1642fba8-cfc0-4ff8-82cc-3190ec9be027","ios":"levelo://app?vid=1642fba8-cfc0-4ff8-82cc-3190ec9be027"},"vehicle_type_id":"4","last_reported":1768618084,"current_range_meters":6800,"station_id":"ce4bhgh2rcd13ifvqfb0","pricing_plan_id":"cebpf4jnsgd1na2vs0mg"},{"bike_id":"e7a64005-213b-444f-8365-5be005b6fcb8","system_id":"levelo_inurba_marseille","lat":43.29591,"lon":5.38111,"is_reserved":false,"is_disabled":false,"rental_uris":{"android":"levelo://app?vid=e7a64005-213b-444f-8365-5be005b6fcb8","ios":"levelo://app?vid=e7a64005-213b-444f-8365-5be005b6fcb8"},"vehicle_type_id":"4","last_reported":1768618084,"current_range_meters":6800,"station_id":"ce4bgl12rcd13ifvqbo0","pricing_plan_id":"cebpf4jnsgd1na2vs0mg"},{"bike_id":"fa772604-5343-4874-a9f9-6fae0b9aaa0e","system_id":"levelo_inurba_marseille","lat":43.24596,"lon":5.39935,"is_reserved":false,"is_disabled":false,"rental_uris":{"android":"levelo://app?vid=fa772604-5343-4874-a9f9-6fae0b9aaa0e","ios":"levelo://app?vid=fa772604-5343-4874-a9f9-6fae0b9aaa0e"},"vehicle_type_id":"4","last_reported":1768618084,"current_range_meters":6800,"station_id":"","pricing_plan_id":"cebpf4jnsgd1na2vs0mg"},{"bike_id":"259e16f3-f42b-4c94-b807-56950596c4de","system_id":"levelo_inurba_marseille","lat":43.28006,"lon":5.41662,"is_reserved":false,"is_disabled":false,"rental_uris":{"android":"levelo://app?vid=259e16f3-f42b-4c94-b807-56950596c4de","ios":"levelo://app?vid=259e16f3-f42b-4c94-b807-56950596c4de"},"vehicle_type_id":"4","last_reported":1768618084,"current_range_meters":6800,"station_id":"ce4bho12rcd13ifvqh1g","pricing_plan_id":"cebpf4jnsgd1na2vs0mg"},{"bike_id":"374f7257-cfcd-4f34-8a16-ba578db8b7e2","system_id":"levelo_inurba_marseille","lat":43.2447,"lon":5.42537,"is_reserved":false,"is_disabled":false,"rental_uris":{"android":"levelo://app?vid=374f7257-cfcd-4f34-8a16-ba578db8b7e2","ios":"levelo://app?vid=374f7257-cfcd-4f34-8a16-ba578db8b7e2"},"vehicle_type_id":"4","last_reported":1768618084,"current_range_meters":6800,"station_id":"st_d4a3vfp97mjs738cd8kg","pricing_plan_id":"cebpf4jnsgd1na2vs0mg"},{"bike_id":"8759e9c2-f8f6-4825-a095-f28cad42dd12","system_id":"levelo_inurba_marseille","lat":43.31697,"lon":5.40468,"is_reserved":false,"is_disabled":false,"rental_uris":{"android":"levelo://app?vid=8759e9c2-f8f6-4825-a095-f28cad42dd12","ios":"levelo://app?vid=8759e9c2-f8f6-4825-a095-f28cad42dd12"},"vehicle_type_id":"4","last_reported":1768618084,"current_range_meters":6800,"station_id":"ce4bh012rcd13ifvqd00","pricing_plan_id":"cebpf4jnsgd1na2vs0mg"},{"bike_id":"2bf36226-1d9f-42b2-9a74-e7e17d35894d","system_id":"levelo_inurba_marseille","lat":43.328752,"lon":5.383412,"is_reserved":false,"is_disabled":false,"rental_uris":{"android":"levelo://app?vid=2bf36226-1d9f-42b2-9a74-e7e17d35894d","ios":"levelo://app?vid=2bf36226-1d9f-42b2-9a74-e7e17d35894d"},"vehicle_type_id":"4","last_reported":1768618084,"current_range_meters":6800,"station_id":"","pricing_plan_id":"cebpf4jnsgd1na2vs0mg"},{"bike_id":"06b7f411-aa64-46f6-8405-18d75fa91f39","system_id":"levelo_inurba_marseille","lat":43.25089,"lon":5.39522,"is_reserved":false,"is_disabled":false,"rental_uris":{"android":"levelo://app?vid=06b7f411-aa64-46f6-8405-18d75fa91f39","ios":"levelo://app?vid=06b7f411-aa64-46f6-8405-18d75fa91f39"},"vehicle_type_id":"4","last_reported":1768618084,"current_range_meters":7200,"station_id":"ce4bhm12rcd13ifvqgkg","pricing_plan_id":"cebpf4jnsgd1na2vs0mg"},{"bike_id":"0eaae1c5-bf6c-464d-8048-0c546f1d83e6","system_id":"levelo_inurba_marseille","lat":43.25093,"lon":5.39523,"is_reserved":false,"is_disabled":false,"rental_uris":{"android":"levelo://app?vid=0eaae1c5-bf6c-464d-8048-0c546f1d83e6","ios":"levelo://app?vid=0eaae1c5-bf6c-464d-8048-0c546f1d83e6"},"vehicle_type_id":"4","last_reported":1768618084,"current_range_meters":7200,"station_id":"ce4bhm12rcd13ifvqgkg","pricing_plan_id":"cebpf4jnsgd1na2vs0mg"},{"bike_id":"7330aa95-998a-4a16-bd6f-a91fb4b163d6","system_id":"levelo_inurba_marseille","lat":43.26549,"lon":5.39015,"is_reserved":false,"is_disabled":true,"rental_uris":{"android":"levelo://app?vid=7330aa95-998a-4a16-bd6f-a91fb4b163d6","ios":"levelo://app?vid=7330aa95-998a-4a16-bd6f-a91fb4b163d6"},"vehicle_type_id":"4","last_reported":1768618084,"current_range_meters":7200,"station_id":"ce4bhe12rcd13ifvqf30","pricing_plan_id":"cebpf4jnsgd1na2vs0mg"},{"bike_id":"f5de62ed-d0f8-4ad4-b15a-af8b81d662d3","system_id":"levelo_inurba_marseille","lat":43.27958,"lon":5.43609,"is_reserved":false,"is_disabled":false,"rental_uris":{"android":"levelo://app?vid=f5de62ed-d0f8-4ad4-b15a-af8b81d662d3","ios":"levelo://app?vid=f5de62ed-d0f8-4ad4-b15a-af8b81d662d3"},"vehicle_type_id":"4","last_reported":1768618084,"current_range_meters":7200,"station_id":"","pricing_plan_id":"cebpf4jnsgd1na2vs0mg"},{"bike_id":"3b3b81ef-94e2-42e9-99e5-1204cf977676","system_id":"levelo_inurba_marseille","lat":43.2447,"lon":5.42533,"is_reserved":false,"is_disabled":false,"rental_uris":{"android":"levelo://app?vid=3b3b81ef-94e2-42e9-99e5-1204cf977676","ios":"levelo://app?vid=3b3b81ef-94e2-42e9-99e5-1204cf977676"},"vehicle_type_id":"4","last_reported":1768618084,"current_range_meters":7200,"station_id":"st_d4a3vfp97mjs738cd8kg","pricing_plan_id":"cebpf4jnsgd1na2vs0mg"},{"bike_id":"d9b3719e-715f-4911-9b10-43a12a517142","system_id":"levelo_inurba_marseille","lat":43.30297,"lon":5.36918,"is_reserved":false,"is_disabled":false,"rental_uris":{"android":"levelo://app?vid=d9b3719e-715f-4911-9b10-43a12a517142","ios":"levelo://app?vid=d9b3719e-715f-4911-9b10-43a12a517142"},"vehicle_type_id":"4","last_reported":1768618084,"current_range_meters":7200,"station_id":"ce4bgqh2rcd13ifvqc5g","pricing_plan_id":"cebpf4jnsgd1na2vs0mg"},{"bike_id":"ac863133-1003-4992-8ead-e17fcb8c6569","system_id":"levelo_inurba_marseille","lat":43.30316,"lon":5.36912,"is_reserved":false,"is_disabled":false,"rental_uris":{"android":"levelo://app?vid=ac863133-1003-4992-8ead-e17fcb8c6569","ios":"levelo://app?vid=ac863133-1003-4992-8ead-e17fcb8c6569"},"vehicle_type_id":"4","last_reported":1768618084,"current_range_meters":7200,"station_id":"ce4bgqh2rcd13ifvqc5g","pricing_plan_id":"cebpf4jnsgd1na2vs0mg"},{"bike_id":"a2063c8d-f51c-4170-b956-f1a16f6c2585","system_id":"levelo_inurba_marseille","lat":43.24987,"lon":5.3893,"is_reserved":false,"is_disabled":false,"rental_uris":{"android":"levelo://app?vid=a2063c8d-f51c-4170-b956-f1a16f6c2585","ios":"levelo://app?vid=a2063c8d-f51c-4170-b956-f1a16f6c2585"},"vehicle_type_id":"4","last_reported":1768618084,"current_range_meters":7200,"station_id":"ce4bhgp2rcd13ifvqfd0","pricing_plan_id":"cebpf4jnsgd1na2vs0mg"},{"bike_id":"cb322bd5-780f-4976-ac84-7f70ca124770","system_id":"levelo_inurba_marseille","lat":43.2416,"lon":5.36405,"is_reserved":false,"is_disabled":false,"rental_uris":{"android":"levelo://app?vid=cb322bd5-780f-4976-ac84-7f70ca124770","ios":"levelo://app?vid=cb322bd5-780f-4976-ac84-7f70ca124770"},"vehicle_type_id":"4","last_reported":1768618084,"current_range_meters":7200,"station_id":"cpo36qri1sfpv3e86is0","pricing_plan_id":"cebpf4jnsgd1na2vs0mg"},{"bike_id":"48290c16-ada1-4dc5-b68e-7d1c12407831","system_id":"levelo_inurba_marseille","lat":43.30211,"lon":5.3946,"is_reserved":false,"is_disabled":true,"rental_uris":{"android":"levelo://app?vid=48290c16-ada1-4dc5-b68e-7d1c12407831","ios":"levelo://app?vid=48290c16-ada1-4dc5-b68e-7d1c12407831"},"vehicle_type_id":"4","last_reported":1768618084,"current_range_meters":7200,"station_id":"ce4bh0p2rcd13ifvqd70","pricing_plan_id":"cebpf4jnsgd1na2vs0mg"},{"bike_id":"74fcd7d3-9f7b-4290-bead-f1a65f4d8b6e","system_id":"levelo_inurba_marseille","lat":43.265587,"lon":5.403263,"is_reserved":false,"is_disabled":false,"rental_uris":{"android":"levelo://app?vid=74fcd7d3-9f7b-4290-bead-f1a65f4d8b6e","ios":"levelo://app?vid=74fcd7d3-9f7b-4290-bead-f1a65f4d8b6e"},"vehicle_type_id":"4","last_reported":1768618084,"current_range_meters":7200,"station_id":"ce4bhmp2rcd13ifvqgng","pricing_plan_id":"cebpf4jnsgd1na2vs0mg"},{"bike_id":"caadb93f-4999-4bfb-ae90-074389f79e1a","system_id":"levelo_inurba_marseille","lat":43.24393,"lon":5.37082,"is_reserved":false,"is_disabled":false,"rental_uris":{"android":"levelo://app?vid=caadb93f-4999-4bfb-ae90-074389f79e1a","ios":"levelo://app?vid=caadb93f-4999-4bfb-ae90-074389f79e1a"},"vehicle_type_id":"4","last_reported":1768618084,"current_range_meters":7200,"station_id":"ce4bhhh2rcd13ifvqfk0","pricing_plan_id":"cebpf4jnsgd1na2vs0mg"},{"bike_id":"06743496-56ca-4ffb-9554-da7929f3016c","system_id":"levelo_inurba_marseille","lat":43.24469,"lon":5.4254,"is_reserved":false,"is_disabled":false,"rental_uris":{"android":"levelo://app?vid=06743496-56ca-4ffb-9554-da7929f3016c","ios":"levelo://app?vid=06743496-56ca-4ffb-9554-da7929f3016c"},"vehicle_type_id":"4","last_reported":1768618084,"current_range_meters":7200,"station_id":"st_d4a3vfp97mjs738cd8kg","pricing_plan_id":"cebpf4jnsgd1na2vs0mg"},{"bike_id":"d7944e80-8928-4e28-b76c-8b1fb20ad259","system_id":"levelo_inurba_marseille","lat":43.294169,"lon":5.413228,"is_reserved":false,"is_disabled":false,"rental_uris":{"android":"levelo://app?vid=d7944e80-8928-4e28-b76c-8b1fb20ad259","ios":"levelo://app?vid=d7944e80-8928-4e28-b76c-8b1fb20ad259"},"vehicle_type_id":"4","last_reported":1768618084,"current_range_meters":7200,"station_id":"","pricing_plan_id":"cebpf4jnsgd1na2vs0mg"},{"bike_id":"2790cdc7-bca1-42ca-abec-6c9518a9590b","system_id":"levelo_inurba_marseille","lat":43.31286,"lon":5.40173,"is_reserved":false,"is_disabled":false,"rental_uris":{"android":"levelo://app?vid=2790cdc7-bca1-42ca-abec-6c9518a9590b","ios":"levelo://app?vid=2790cdc7-bca1-42ca-abec-6c9518a9590b"},"vehicle_type_id":"4","last_reported":1768618084,"current_range_meters":7200,"station_id":"ce4bh092rcd13ifvqd30","pricing_plan_id":"cebpf4jnsgd1na2vs0mg"},{"bike_id":"76df5ad0-cf00-42ef-aa5e-4c5aa4fedd64","system_id":"levelo_inurba_marseille","lat":43.299298,"lon":5.365394,"is_reserved":false,"is_disabled":false,"rental_uris":{"android":"levelo://app?vid=76df5ad0-cf00-42ef-aa5e-4c5aa4fedd64","ios":"levelo://app?vid=76df5ad0-cf00-42ef-aa5e-4c5aa4fedd64"},"vehicle_type_id":"4","last_reported":1768618084,"current_range_meters":7200,"station_id":"","pricing_plan_id":"cebpf4jnsgd1na2vs0mg"},{"bike_id":"44dd8680-8a36-4e2c-ad11-a41ad95bd7af","system_id":"levelo_inurba_marseille","lat":43.25337,"lon":5.42181,"is_reserved":false,"is_disabled":false,"rental_uris":{"android":"levelo://app?vid=44dd8680-8a36-4e2c-ad11-a41ad95bd7af","ios":"levelo://app?vid=44dd8680-8a36-4e2c-ad11-a41ad95bd7af"},"vehicle_type_id":"4","last_reported":1768618084,"current_range_meters":7200,"station_id":"st_d2m65c5bi1j21697t3ng","pricing_plan_id":"cebpf4jnsgd1na2vs0mg"},{"bike_id":"8e30d8f7-bc93-40c4-8d60-92562da490d5","system_id":"levelo_inurba_marseille","lat":43.31181,"lon":5.38726,"is_reserved":false,"is_disabled":false,"rental_uris":{"android":"levelo://app?vid=8e30d8f7-bc93-40c4-8d60-92562da490d5","ios":"levelo://app?vid=8e30d8f7-bc93-40c4-8d60-92562da490d5"},"vehicle_type_id":"4","last_reported":1768618084,"current_range_meters":8000,"station_id":"ce4bgv12rcd13ifvqcp0","pricing_plan_id":"cebpf4jnsgd1na2vs0mg"},{"bike_id":"b69265fb-d1b5-426f-ba4a-3e52351b5ff6","system_id":"levelo_inurba_marseille","lat":43.30454,"lon":5.37917,"is_reserved":false,"is_disabled":false,"rental_uris":{"android":"levelo://app?vid=b69265fb-d1b5-426f-ba4a-3e52351b5ff6","ios":"levelo://app?vid=b69265fb-d1b5-426f-ba4a-3e52351b5ff6"},"vehicle_type_id":"4","last_reported":1768618084,"current_range_meters":8000,"station_id":"ce4bgup2rcd13ifvqcn0","pricing_plan_id":"cebpf4jnsgd1na2vs0mg"},{"bike_id":"dfa0b548-87ce-4ae6-9ceb-31740ca2ec1d","system_id":"levelo_inurba_marseille","lat":43.28476,"lon":5.48398,"is_reserved":false,"is_disabled":false,"rental_uris":{"android":"levelo://app?vid=dfa0b548-87ce-4ae6-9ceb-31740ca2ec1d","ios":"levelo://app?vid=dfa0b548-87ce-4ae6-9ceb-31740ca2ec1d"},"vehicle_type_id":"4","last_reported":1768618084,"current_range_meters":8000,"station_id":"st_d3svhcjqgbts73a3dn0g","pricing_plan_id":"cebpf4jnsgd1na2vs0mg"},{"bike_id":"bf3c9612-0590-462d-87a5-0987166375b2","system_id":"levelo_inurba_marseille","lat":43.23941,"lon":5.3663,"is_reserved":false,"is_disabled":true,"rental_uris":{"android":"levelo://app?vid=bf3c9612-0590-462d-87a5-0987166375b2","ios":"levelo://app?vid=bf3c9612-0590-462d-87a5-0987166375b2"},"vehicle_type_id":"4","last_reported":1768618084,"current_range_meters":8000,"station_id":"ce4bhi12rcd13ifvqfp0","pricing_plan_id":"cebpf4jnsgd1na2vs0mg"},{"bike_id":"576a061d-1fb4-476f-a84f-2ef395c324f6","system_id":"levelo_inurba_marseille","lat":43.25506,"lon":5.37665,"is_reserved":false,"is_disabled":false,"rental_uris":{"android":"levelo://app?vid=576a061d-1fb4-476f-a84f-2ef395c324f6","ios":"levelo://app?vid=576a061d-1fb4-476f-a84f-2ef395c324f6"},"vehicle_type_id":"4","last_reported":1768618084,"current_range_meters":8000,"station_id":"ce4bhh12rcd13ifvqff0","pricing_plan_id":"cebpf4jnsgd1na2vs0mg"},{"bike_id":"417b3289-90a8-4173-a56e-2fe6dab4b198","system_id":"levelo_inurba_marseille","lat":43.294453,"lon":5.39755,"is_reserved":false,"is_disabled":false,"rental_uris":{"android":"levelo://app?vid=417b3289-90a8-4173-a56e-2fe6dab4b198","ios":"levelo://app?vid=417b3289-90a8-4173-a56e-2fe6dab4b198"},"vehicle_type_id":"4","last_reported":1768618084,"current_range_meters":8000,"station_id":"ce4bh3h2rcd13ifvqdo0","pricing_plan_id":"cebpf4jnsgd1na2vs0mg"},{"bike_id":"c0d3f326-7c3a-439d-ad96-dcd3c5e4e41e","system_id":"levelo_inurba_marseille","lat":43.28835,"lon":5.35839,"is_reserved":false,"is_disabled":false,"rental_uris":{"android":"levelo://app?vid=c0d3f326-7c3a-439d-ad96-dcd3c5e4e41e","ios":"levelo://app?vid=c0d3f326-7c3a-439d-ad96-dcd3c5e4e41e"},"vehicle_type_id":"4","last_reported":1768618084,"current_range_meters":8000,"station_id":"ce4bhb12rcd13ifvqem0","pricing_plan_id":"cebpf4jnsgd1na2vs0mg"},{"bike_id":"8db52122-96c8-424a-a720-30d9d4a4480c","system_id":"levelo_inurba_marseille","lat":43.237904,"lon":5.366323,"is_reserved":false,"is_disabled":false,"rental_uris":{"android":"levelo://app?vid=8db52122-96c8-424a-a720-30d9d4a4480c","ios":"levelo://app?vid=8db52122-96c8-424a-a720-30d9d4a4480c"},"vehicle_type_id":"4","last_reported":1768618084,"current_range_meters":8000,"station_id":"st_d3nk18o9ro0c73en2l3g","pricing_plan_id":"cebpf4jnsgd1na2vs0mg"},{"bike_id":"ee0ff989-3e72-4358-ac59-dd576fdb32e8","system_id":"levelo_inurba_marseille","lat":43.27067,"lon":5.38304,"is_reserved":false,"is_disabled":false,"rental_uris":{"android":"levelo://app?vid=ee0ff989-3e72-4358-ac59-dd576fdb32e8","ios":"levelo://app?vid=ee0ff989-3e72-4358-ac59-dd576fdb32e8"},"vehicle_type_id":"4","last_reported":1768618084,"current_range_meters":8000,"station_id":"st_d3n2fo6cfp8s73cte1j0","pricing_plan_id":"cebpf4jnsgd1na2vs0mg"},{"bike_id":"081dca07-e8a6-423f-95f0-96bcbec61c3d","system_id":"levelo_inurba_marseille","lat":43.252639,"lon":5.380012,"is_reserved":false,"is_disabled":false,"rental_uris":{"android":"levelo://app?vid=081dca07-e8a6-423f-95f0-96bcbec61c3d","ios":"levelo://app?vid=081dca07-e8a6-423f-95f0-96bcbec61c3d"},"vehicle_type_id":"4","last_reported":1768618084,"current_range_meters":8000,"station_id":"","pricing_plan_id":"cebpf4jnsgd1na2vs0mg"},{"bike_id":"57826da9-2efc-4aeb-9be5-eabd3de43afa","system_id":"levelo_inurba_marseille","lat":43.31166,"lon":5.38714,"is_reserved":false,"is_disabled":false,"rental_uris":{"android":"levelo://app?vid=57826da9-2efc-4aeb-9be5-eabd3de43afa","ios":"levelo://app?vid=57826da9-2efc-4aeb-9be5-eabd3de43afa"},"vehicle_type_id":"4","last_reported":1768618084,"current_range_meters":8000,"station_id":"ce4bgv12rcd13ifvqcp0","pricing_plan_id":"cebpf4jnsgd1na2vs0mg"},{"bike_id":"1fc84d69-8c82-4c33-b38d-235fef1ff4c7","system_id":"levelo_inurba_marseille","lat":43.309483,"lon":5.390407,"is_reserved":false,"is_disabled":false,"rental_uris":{"android":"levelo://app?vid=1fc84d69-8c82-4c33-b38d-235fef1ff4c7","ios":"levelo://app?vid=1fc84d69-8c82-4c33-b38d-235fef1ff4c7"},"vehicle_type_id":"4","last_reported":1768618084,"current_range_meters":8400,"station_id":"ce4bgup2rcd13ifvqco0","pricing_plan_id":"cebpf4jnsgd1na2vs0mg"},{"bike_id":"4d4dbef2-787f-4e6c-a9d2-398aa9c2095e","system_id":"levelo_inurba_marseille","lat":43.28527,"lon":5.44116,"is_reserved":false,"is_disabled":false,"rental_uris":{"android":"levelo://app?vid=4d4dbef2-787f-4e6c-a9d2-398aa9c2095e","ios":"levelo://app?vid=4d4dbef2-787f-4e6c-a9d2-398aa9c2095e"},"vehicle_type_id":"4","last_reported":1768618084,"current_range_meters":8400,"station_id":"st_d3j3df2ikq2c7380ej80","pricing_plan_id":"cebpf4jnsgd1na2vs0mg"},{"bike_id":"3bb4f388-8d72-48f0-ac2d-95655c4ae4df","system_id":"levelo_inurba_marseille","lat":43.24469,"lon":5.42542,"is_reserved":false,"is_disabled":false,"rental_uris":{"android":"levelo://app?vid=3bb4f388-8d72-48f0-ac2d-95655c4ae4df","ios":"levelo://app?vid=3bb4f388-8d72-48f0-ac2d-95655c4ae4df"},"vehicle_type_id":"4","last_reported":1768618084,"current_range_meters":8400,"station_id":"st_d4a3vfp97mjs738cd8kg","pricing_plan_id":"cebpf4jnsgd1na2vs0mg"},{"bike_id":"ab96d693-0de6-43f1-85b1-d62380e9052b","system_id":"levelo_inurba_marseille","lat":43.27998,"lon":5.39982,"is_reserved":false,"is_disabled":false,"rental_uris":{"android":"levelo://app?vid=ab96d693-0de6-43f1-85b1-d62380e9052b","ios":"levelo://app?vid=ab96d693-0de6-43f1-85b1-d62380e9052b"},"vehicle_type_id":"4","last_reported":1768618084,"current_range_meters":8400,"station_id":"ce4bho92rcd13ifvqh4g","pricing_plan_id":"cebpf4jnsgd1na2vs0mg"},{"bike_id":"513ed6c4-8623-44b6-ada8-0b1c7c1ff00d","system_id":"levelo_inurba_marseille","lat":43.29834,"lon":5.37648,"is_reserved":false,"is_disabled":false,"rental_uris":{"android":"levelo://app?vid=513ed6c4-8623-44b6-ada8-0b1c7c1ff00d","ios":"levelo://app?vid=513ed6c4-8623-44b6-ada8-0b1c7c1ff00d"},"vehicle_type_id":"4","last_reported":1768618084,"current_range_meters":8400,"station_id":"","pricing_plan_id":"cebpf4jnsgd1na2vs0mg"},{"bike_id":"938b327d-1337-437e-b296-800c6fef2f5c","system_id":"levelo_inurba_marseille","lat":43.29967,"lon":5.37184,"is_reserved":false,"is_disabled":false,"rental_uris":{"android":"levelo://app?vid=938b327d-1337-437e-b296-800c6fef2f5c","ios":"levelo://app?vid=938b327d-1337-437e-b296-800c6fef2f5c"},"vehicle_type_id":"4","last_reported":1768618084,"current_range_meters":8400,"station_id":"ce4bgr92rcd13ifvqc7g","pricing_plan_id":"cebpf4jnsgd1na2vs0mg"},{"bike_id":"4da3ebe0-9aac-475b-af76-f81e2f36cadc","system_id":"levelo_inurba_marseille","lat":43.29967,"lon":5.38494,"is_reserved":false,"is_disabled":false,"rental_uris":{"android":"levelo://app?vid=4da3ebe0-9aac-475b-af76-f81e2f36cadc","ios":"levelo://app?vid=4da3ebe0-9aac-475b-af76-f81e2f36cadc"},"vehicle_type_id":"4","last_reported":1768618084,"current_range_meters":8400,"station_id":"ce4bgj92rcd13ifvqbd0","pricing_plan_id":"cebpf4jnsgd1na2vs0mg"},{"bike_id":"06bee1ec-761b-4be7-bd1c-24a1b98dfa42","system_id":"levelo_inurba_marseille","lat":43.29501,"lon":5.38712,"is_reserved":false,"is_disabled":false,"rental_uris":{"android":"levelo://app?vid=06bee1ec-761b-4be7-bd1c-24a1b98dfa42","ios":"levelo://app?vid=06bee1ec-761b-4be7-bd1c-24a1b98dfa42"},"vehicle_type_id":"4","last_reported":1768618084,"current_range_meters":8400,"station_id":"","pricing_plan_id":"cebpf4jnsgd1na2vs0mg"},{"bike_id":"d5e35d21-1683-45b4-8efc-60fb9397d5ab","system_id":"levelo_inurba_marseille","lat":43.310576,"lon":5.386447,"is_reserved":false,"is_disabled":false,"rental_uris":{"android":"levelo://app?vid=d5e35d21-1683-45b4-8efc-60fb9397d5ab","ios":"levelo://app?vid=d5e35d21-1683-45b4-8efc-60fb9397d5ab"},"vehicle_type_id":"4","last_reported":1768618084,"current_range_meters":8400,"station_id":"","pricing_plan_id":"cebpf4jnsgd1na2vs0mg"},{"bike_id":"39f21520-d6d3-4ad0-be99-c2b4a275640f","system_id":"levelo_inurba_marseille","lat":43.304236,"lon":5.412765,"is_reserved":false,"is_disabled":false,"rental_uris":{"android":"levelo://app?vid=39f21520-d6d3-4ad0-be99-c2b4a275640f","ios":"levelo://app?vid=39f21520-d6d3-4ad0-be99-c2b4a275640f"},"vehicle_type_id":"4","last_reported":1768618084,"current_range_meters":8400,"station_id":"ce4bhop2rcd13ifvqh8g","pricing_plan_id":"cebpf4jnsgd1na2vs0mg"},{"bike_id":"d9bcaa2e-9d4e-4155-96a7-57ca8c2d8521","system_id":"levelo_inurba_marseille","lat":43.247993,"lon":5.374454,"is_reserved":false,"is_disabled":false,"rental_uris":{"android":"levelo://app?vid=d9bcaa2e-9d4e-4155-96a7-57ca8c2d8521","ios":"levelo://app?vid=d9bcaa2e-9d4e-4155-96a7-57ca8c2d8521"},"vehicle_type_id":"4","last_reported":1768618084,"current_range_meters":8400,"station_id":"ce4bhgh2rcd13ifvqfb0","pricing_plan_id":"cebpf4jnsgd1na2vs0mg"},{"bike_id":"1a20c022-8a33-46c3-a7ae-f5e720162959","system_id":"levelo_inurba_marseille","lat":43.2791,"lon":5.41059,"is_reserved":false,"is_disabled":false,"rental_uris":{"android":"levelo://app?vid=1a20c022-8a33-46c3-a7ae-f5e720162959","ios":"levelo://app?vid=1a20c022-8a33-46c3-a7ae-f5e720162959"},"vehicle_type_id":"4","last_reported":1768618084,"current_range_meters":8400,"station_id":"ce4bhnp2rcd13ifvqh0g","pricing_plan_id":"cebpf4jnsgd1na2vs0mg"},{"bike_id":"12bdf3a8-c528-41e9-b4f5-8f4e12b00830","system_id":"levelo_inurba_marseille","lat":43.2533,"lon":5.42162,"is_reserved":false,"is_disabled":false,"rental_uris":{"android":"levelo://app?vid=12bdf3a8-c528-41e9-b4f5-8f4e12b00830","ios":"levelo://app?vid=12bdf3a8-c528-41e9-b4f5-8f4e12b00830"},"vehicle_type_id":"4","last_reported":1768618084,"current_range_meters":8400,"station_id":"st_d2m65c5bi1j21697t3ng","pricing_plan_id":"cebpf4jnsgd1na2vs0mg"},{"bike_id":"9b38ba71-a520-456f-941a-0cbb802b225c","system_id":"levelo_inurba_marseille","lat":43.24452,"lon":5.42551,"is_reserved":false,"is_disabled":false,"rental_uris":{"android":"levelo://app?vid=9b38ba71-a520-456f-941a-0cbb802b225c","ios":"levelo://app?vid=9b38ba71-a520-456f-941a-0cbb802b225c"},"vehicle_type_id":"4","last_reported":1768618084,"current_range_meters":8400,"station_id":"st_d4a3vfp97mjs738cd8kg","pricing_plan_id":"cebpf4jnsgd1na2vs0mg"},{"bike_id":"e91e3903-60f1-4c5a-bc80-d327c473e2e7","system_id":"levelo_inurba_marseille","lat":43.25493,"lon":5.37655,"is_reserved":false,"is_disabled":false,"rental_uris":{"android":"levelo://app?vid=e91e3903-60f1-4c5a-bc80-d327c473e2e7","ios":"levelo://app?vid=e91e3903-60f1-4c5a-bc80-d327c473e2e7"},"vehicle_type_id":"4","last_reported":1768618084,"current_range_meters":8400,"station_id":"ce4bhh12rcd13ifvqff0","pricing_plan_id":"cebpf4jnsgd1na2vs0mg"},{"bike_id":"40c9616c-92d9-4b6c-a682-eeaa5a3fea06","system_id":"levelo_inurba_marseille","lat":43.21747,"lon":5.34608,"is_reserved":false,"is_disabled":false,"rental_uris":{"android":"levelo://app?vid=40c9616c-92d9-4b6c-a682-eeaa5a3fea06","ios":"levelo://app?vid=40c9616c-92d9-4b6c-a682-eeaa5a3fea06"},"vehicle_type_id":"4","last_reported":1768618084,"current_range_meters":8400,"station_id":"st_cvj6r9ubvosntc0bgbag","pricing_plan_id":"cebpf4jnsgd1na2vs0mg"},{"bike_id":"b5d67ffe-eaa4-4106-b565-a864660becc6","system_id":"levelo_inurba_marseille","lat":43.231892,"lon":5.355539,"is_reserved":false,"is_disabled":false,"rental_uris":{"android":"levelo://app?vid=b5d67ffe-eaa4-4106-b565-a864660becc6","ios":"levelo://app?vid=b5d67ffe-eaa4-4106-b565-a864660becc6"},"vehicle_type_id":"4","last_reported":1768618084,"current_range_meters":8800,"station_id":"ce4bhu92rcd13ifvqi70","pricing_plan_id":"cebpf4jnsgd1na2vs0mg"},{"bike_id":"12973c53-3c4b-4eeb-9bcf-3e724fe32df6","system_id":"levelo_inurba_marseille","lat":43.281598,"lon":5.404402,"is_reserved":false,"is_disabled":false,"rental_uris":{"android":"levelo://app?vid=12973c53-3c4b-4eeb-9bcf-3e724fe32df6","ios":"levelo://app?vid=12973c53-3c4b-4eeb-9bcf-3e724fe32df6"},"vehicle_type_id":"4","last_reported":1768618084,"current_range_meters":8800,"station_id":"","pricing_plan_id":"cebpf4jnsgd1na2vs0mg"},{"bike_id":"dfa72997-bdba-48f4-a1d1-63ff5130518c","system_id":"levelo_inurba_marseille","lat":43.323515,"lon":5.367354,"is_reserved":false,"is_disabled":false,"rental_uris":{"android":"levelo://app?vid=dfa72997-bdba-48f4-a1d1-63ff5130518c","ios":"levelo://app?vid=dfa72997-bdba-48f4-a1d1-63ff5130518c"},"vehicle_type_id":"4","last_reported":1768618084,"current_range_meters":8800,"station_id":"ce4bhsh2rcd13ifvqi2g","pricing_plan_id":"cebpf4jnsgd1na2vs0mg"},{"bike_id":"46806932-3cfa-4ebe-af4a-3467d6c21a46","system_id":"levelo_inurba_marseille","lat":43.27816,"lon":5.40718,"is_reserved":false,"is_disabled":false,"rental_uris":{"android":"levelo://app?vid=46806932-3cfa-4ebe-af4a-3467d6c21a46","ios":"levelo://app?vid=46806932-3cfa-4ebe-af4a-3467d6c21a46"},"vehicle_type_id":"4","last_reported":1768618084,"current_range_meters":8800,"station_id":"ce4bhnh2rcd13ifvqgtg","pricing_plan_id":"cebpf4jnsgd1na2vs0mg"},{"bike_id":"9f9ee95b-a709-468f-875a-8cf12fad1678","system_id":"levelo_inurba_marseille","lat":43.301503,"lon":5.374104,"is_reserved":false,"is_disabled":false,"rental_uris":{"android":"levelo://app?vid=9f9ee95b-a709-468f-875a-8cf12fad1678","ios":"levelo://app?vid=9f9ee95b-a709-468f-875a-8cf12fad1678"},"vehicle_type_id":"4","last_reported":1768618084,"current_range_meters":8800,"station_id":"ce4bgs92rcd13ifvqcc0","pricing_plan_id":"cebpf4jnsgd1na2vs0mg"},{"bike_id":"2b145973-3802-427d-9998-97f195dc402b","system_id":"levelo_inurba_marseille","lat":43.23203,"lon":5.35578,"is_reserved":false,"is_disabled":false,"rental_uris":{"android":"levelo://app?vid=2b145973-3802-427d-9998-97f195dc402b","ios":"levelo://app?vid=2b145973-3802-427d-9998-97f195dc402b"},"vehicle_type_id":"4","last_reported":1768618084,"current_range_meters":8800,"station_id":"ce4bhu92rcd13ifvqi70","pricing_plan_id":"cebpf4jnsgd1na2vs0mg"},{"bike_id":"094cd202-b33e-4144-a039-2478fb81f740","system_id":"levelo_inurba_marseille","lat":43.25206,"lon":5.38052,"is_reserved":false,"is_disabled":false,"rental_uris":{"android":"levelo://app?vid=094cd202-b33e-4144-a039-2478fb81f740","ios":"levelo://app?vid=094cd202-b33e-4144-a039-2478fb81f740"},"vehicle_type_id":"4","last_reported":1768618084,"current_range_meters":8800,"station_id":"","pricing_plan_id":"cebpf4jnsgd1na2vs0mg"},{"bike_id":"afc89dfe-d073-418a-80ae-5c9d03e25273","system_id":"levelo_inurba_marseille","lat":43.29753,"lon":5.42793,"is_reserved":false,"is_disabled":false,"rental_uris":{"android":"levelo://app?vid=afc89dfe-d073-418a-80ae-5c9d03e25273","ios":"levelo://app?vid=afc89dfe-d073-418a-80ae-5c9d03e25273"},"vehicle_type_id":"4","last_reported":1768618084,"current_range_meters":8800,"station_id":"st_d3md5207bmas73dh9klg","pricing_plan_id":"cebpf4jnsgd1na2vs0mg"},{"bike_id":"b048efa1-5ef7-4f29-977d-1b4baf234e92","system_id":"levelo_inurba_marseille","lat":43.27945,"lon":5.41058,"is_reserved":false,"is_disabled":false,"rental_uris":{"android":"levelo://app?vid=b048efa1-5ef7-4f29-977d-1b4baf234e92","ios":"levelo://app?vid=b048efa1-5ef7-4f29-977d-1b4baf234e92"},"vehicle_type_id":"4","last_reported":1768618084,"current_range_meters":8800,"station_id":"ce4bhnp2rcd13ifvqh0g","pricing_plan_id":"cebpf4jnsgd1na2vs0mg"},{"bike_id":"afecaead-4ece-4bf0-ba27-8fd204614f1b","system_id":"levelo_inurba_marseille","lat":43.285067,"lon":5.385477,"is_reserved":false,"is_disabled":false,"rental_uris":{"android":"levelo://app?vid=afecaead-4ece-4bf0-ba27-8fd204614f1b","ios":"levelo://app?vid=afecaead-4ece-4bf0-ba27-8fd204614f1b"},"vehicle_type_id":"4","last_reported":1768618084,"current_range_meters":8800,"station_id":"ce4bh8p2rcd13ifvqeb0","pricing_plan_id":"cebpf4jnsgd1na2vs0mg"},{"bike_id":"62a8f34e-4736-4387-82ba-4667cff31571","system_id":"levelo_inurba_marseille","lat":43.293066,"lon":5.371722,"is_reserved":false,"is_disabled":false,"rental_uris":{"android":"levelo://app?vid=62a8f34e-4736-4387-82ba-4667cff31571","ios":"levelo://app?vid=62a8f34e-4736-4387-82ba-4667cff31571"},"vehicle_type_id":"4","last_reported":1768618084,"current_range_meters":8800,"station_id":"ce4bgh92rcd13ifvqb40","pricing_plan_id":"cebpf4jnsgd1na2vs0mg"},{"bike_id":"252a01eb-733e-461c-bfde-ad296dc94be6","system_id":"levelo_inurba_marseille","lat":43.30623,"lon":5.37574,"is_reserved":false,"is_disabled":false,"rental_uris":{"android":"levelo://app?vid=252a01eb-733e-461c-bfde-ad296dc94be6","ios":"levelo://app?vid=252a01eb-733e-461c-bfde-ad296dc94be6"},"vehicle_type_id":"4","last_reported":1768618084,"current_range_meters":8800,"station_id":"","pricing_plan_id":"cebpf4jnsgd1na2vs0mg"},{"bike_id":"1a74bb24-166e-472b-b955-6b2608c5059f","system_id":"levelo_inurba_marseille","lat":43.28977,"lon":5.37834,"is_reserved":false,"is_disabled":false,"rental_uris":{"android":"levelo://app?vid=1a74bb24-166e-472b-b955-6b2608c5059f","ios":"levelo://app?vid=1a74bb24-166e-472b-b955-6b2608c5059f"},"vehicle_type_id":"4","last_reported":1768618084,"current_range_meters":8800,"station_id":"ce4bh9p2rcd13ifvqed0","pricing_plan_id":"cebpf4jnsgd1na2vs0mg"},{"bike_id":"53883162-a32e-45f2-a25b-e71336c68327","system_id":"levelo_inurba_marseille","lat":43.241683,"lon":5.364007,"is_reserved":false,"is_disabled":false,"rental_uris":{"android":"levelo://app?vid=53883162-a32e-45f2-a25b-e71336c68327","ios":"levelo://app?vid=53883162-a32e-45f2-a25b-e71336c68327"},"vehicle_type_id":"4","last_reported":1768618084,"current_range_meters":8800,"station_id":"cpo36qri1sfpv3e86is0","pricing_plan_id":"cebpf4jnsgd1na2vs0mg"},{"bike_id":"60607fa1-1d25-4031-884f-33aaee99caa8","system_id":"levelo_inurba_marseille","lat":43.31045,"lon":5.37171,"is_reserved":false,"is_disabled":false,"rental_uris":{"android":"levelo://app?vid=60607fa1-1d25-4031-884f-33aaee99caa8","ios":"levelo://app?vid=60607fa1-1d25-4031-884f-33aaee99caa8"},"vehicle_type_id":"4","last_reported":1768618084,"current_range_meters":8800,"station_id":"st_d4kl2rp97mjs73e7tdfg","pricing_plan_id":"cebpf4jnsgd1na2vs0mg"},{"bike_id":"2340445d-9199-48cf-83f4-7309507be9a4","system_id":"levelo_inurba_marseille","lat":43.24472,"lon":5.4255,"is_reserved":false,"is_disabled":false,"rental_uris":{"android":"levelo://app?vid=2340445d-9199-48cf-83f4-7309507be9a4","ios":"levelo://app?vid=2340445d-9199-48cf-83f4-7309507be9a4"},"vehicle_type_id":"4","last_reported":1768618084,"current_range_meters":8800,"station_id":"st_d4a3vfp97mjs738cd8kg","pricing_plan_id":"cebpf4jnsgd1na2vs0mg"},{"bike_id":"a196f181-9976-444c-8304-c8a6a8f0ab32","system_id":"levelo_inurba_marseille","lat":43.28399,"lon":5.3751,"is_reserved":false,"is_disabled":false,"rental_uris":{"android":"levelo://app?vid=a196f181-9976-444c-8304-c8a6a8f0ab32","ios":"levelo://app?vid=a196f181-9976-444c-8304-c8a6a8f0ab32"},"vehicle_type_id":"4","last_reported":1768618084,"current_range_meters":8800,"station_id":"ce4bh412rcd13ifvqds0","pricing_plan_id":"cebpf4jnsgd1na2vs0mg"},{"bike_id":"8a716b61-1ac2-4c85-af1e-4d26dd75055a","system_id":"levelo_inurba_marseille","lat":43.29243,"lon":5.40912,"is_reserved":false,"is_disabled":false,"rental_uris":{"android":"levelo://app?vid=8a716b61-1ac2-4c85-af1e-4d26dd75055a","ios":"levelo://app?vid=8a716b61-1ac2-4c85-af1e-4d26dd75055a"},"vehicle_type_id":"4","last_reported":1768618084,"current_range_meters":8800,"station_id":"ce4bh192rcd13ifvqdc0","pricing_plan_id":"cebpf4jnsgd1na2vs0mg"},{"bike_id":"582cb117-53e5-412e-86d7-61984114c827","system_id":"levelo_inurba_marseille","lat":43.28456,"lon":5.35897,"is_reserved":false,"is_disabled":false,"rental_uris":{"android":"levelo://app?vid=582cb117-53e5-412e-86d7-61984114c827","ios":"levelo://app?vid=582cb117-53e5-412e-86d7-61984114c827"},"vehicle_type_id":"4","last_reported":1768618084,"current_range_meters":8800,"station_id":"ce4bhah2rcd13ifvqei0","pricing_plan_id":"cebpf4jnsgd1na2vs0mg"},{"bike_id":"8f8609cc-4bee-4b38-9c52-16a11c3995e3","system_id":"levelo_inurba_marseille","lat":43.25504,"lon":5.37656,"is_reserved":false,"is_disabled":false,"rental_uris":{"android":"levelo://app?vid=8f8609cc-4bee-4b38-9c52-16a11c3995e3","ios":"levelo://app?vid=8f8609cc-4bee-4b38-9c52-16a11c3995e3"},"vehicle_type_id":"4","last_reported":1768618084,"current_range_meters":8800,"station_id":"ce4bhh12rcd13ifvqff0","pricing_plan_id":"cebpf4jnsgd1na2vs0mg"},{"bike_id":"c9364da9-67c0-416d-b4bb-cf7d719f0f77","system_id":"levelo_inurba_marseille","lat":43.30912,"lon":5.36864,"is_reserved":false,"is_disabled":false,"rental_uris":{"android":"levelo://app?vid=c9364da9-67c0-416d-b4bb-cf7d719f0f77","ios":"levelo://app?vid=c9364da9-67c0-416d-b4bb-cf7d719f0f77"},"vehicle_type_id":"4","last_reported":1768618084,"current_range_meters":8800,"station_id":"ce4bgn92rcd13ifvqbvg","pricing_plan_id":"cebpf4jnsgd1na2vs0mg"},{"bike_id":"e4207274-62c6-4665-82f2-6ea16b06248b","system_id":"levelo_inurba_marseille","lat":43.30585,"lon":5.39353,"is_reserved":false,"is_disabled":false,"rental_uris":{"android":"levelo://app?vid=e4207274-62c6-4665-82f2-6ea16b06248b","ios":"levelo://app?vid=e4207274-62c6-4665-82f2-6ea16b06248b"},"vehicle_type_id":"4","last_reported":1768618084,"current_range_meters":8800,"station_id":"ce4bh0p2rcd13ifvqd80","pricing_plan_id":"cebpf4jnsgd1na2vs0mg"},{"bike_id":"5046767e-783a-4712-8e13-08b5e3357478","system_id":"levelo_inurba_marseille","lat":43.26569,"lon":5.4034,"is_reserved":false,"is_disabled":false,"rental_uris":{"android":"levelo://app?vid=5046767e-783a-4712-8e13-08b5e3357478","ios":"levelo://app?vid=5046767e-783a-4712-8e13-08b5e3357478"},"vehicle_type_id":"4","last_reported":1768618084,"current_range_meters":9200,"station_id":"ce4bhmp2rcd13ifvqgng","pricing_plan_id":"cebpf4jnsgd1na2vs0mg"},{"bike_id":"e6872936-d756-4b20-b25b-25e2aeef4bd8","system_id":"levelo_inurba_marseille","lat":43.23192,"lon":5.35556,"is_reserved":false,"is_disabled":false,"rental_uris":{"android":"levelo://app?vid=e6872936-d756-4b20-b25b-25e2aeef4bd8","ios":"levelo://app?vid=e6872936-d756-4b20-b25b-25e2aeef4bd8"},"vehicle_type_id":"4","last_reported":1768618084,"current_range_meters":9200,"station_id":"ce4bhu92rcd13ifvqi70","pricing_plan_id":"cebpf4jnsgd1na2vs0mg"},{"bike_id":"b99c8a93-fdcf-4884-b9c3-af61ba2c4a81","system_id":"levelo_inurba_marseille","lat":43.303053,"lon":5.392122,"is_reserved":false,"is_disabled":false,"rental_uris":{"android":"levelo://app?vid=b99c8a93-fdcf-4884-b9c3-af61ba2c4a81","ios":"levelo://app?vid=b99c8a93-fdcf-4884-b9c3-af61ba2c4a81"},"vehicle_type_id":"4","last_reported":1768618084,"current_range_meters":9200,"station_id":"ce4bgkh2rcd13ifvqbk0","pricing_plan_id":"cebpf4jnsgd1na2vs0mg"},{"bike_id":"64616ddc-02fc-4fa3-a96e-55f8d46496f1","system_id":"levelo_inurba_marseille","lat":43.32114,"lon":5.36773,"is_reserved":false,"is_disabled":false,"rental_uris":{"android":"levelo://app?vid=64616ddc-02fc-4fa3-a96e-55f8d46496f1","ios":"levelo://app?vid=64616ddc-02fc-4fa3-a96e-55f8d46496f1"},"vehicle_type_id":"4","last_reported":1768618084,"current_range_meters":9200,"station_id":"ce4bhrh2rcd13ifvqhug","pricing_plan_id":"cebpf4jnsgd1na2vs0mg"},{"bike_id":"4884e3b4-8b53-43b4-90a8-716c16790211","system_id":"levelo_inurba_marseille","lat":43.32381,"lon":5.3674,"is_reserved":false,"is_disabled":false,"rental_uris":{"android":"levelo://app?vid=4884e3b4-8b53-43b4-90a8-716c16790211","ios":"levelo://app?vid=4884e3b4-8b53-43b4-90a8-716c16790211"},"vehicle_type_id":"4","last_reported":1768618084,"current_range_meters":9200,"station_id":"ce4bhsh2rcd13ifvqi2g","pricing_plan_id":"cebpf4jnsgd1na2vs0mg"},{"bike_id":"8efafb2a-7a78-4ffb-873a-ee8b3cbdfdbd","system_id":"levelo_inurba_marseille","lat":43.26384,"lon":5.41069,"is_reserved":false,"is_disabled":true,"rental_uris":{"android":"levelo://app?vid=8efafb2a-7a78-4ffb-873a-ee8b3cbdfdbd","ios":"levelo://app?vid=8efafb2a-7a78-4ffb-873a-ee8b3cbdfdbd"},"vehicle_type_id":"4","last_reported":1768618084,"current_range_meters":9200,"station_id":"","pricing_plan_id":"cebpf4jnsgd1na2vs0mg"},{"bike_id":"49ecf593-a1c9-4420-b6f0-bea038ba7420","system_id":"levelo_inurba_marseille","lat":43.31294,"lon":5.37917,"is_reserved":false,"is_disabled":false,"rental_uris":{"android":"levelo://app?vid=49ecf593-a1c9-4420-b6f0-bea038ba7420","ios":"levelo://app?vid=49ecf593-a1c9-4420-b6f0-bea038ba7420"},"vehicle_type_id":"4","last_reported":1768618084,"current_range_meters":9200,"station_id":"","pricing_plan_id":"cebpf4jnsgd1na2vs0mg"},{"bike_id":"5d305311-290a-4ebc-95ec-61bc34ccc084","system_id":"levelo_inurba_marseille","lat":43.284183,"lon":5.375141,"is_reserved":false,"is_disabled":false,"rental_uris":{"android":"levelo://app?vid=5d305311-290a-4ebc-95ec-61bc34ccc084","ios":"levelo://app?vid=5d305311-290a-4ebc-95ec-61bc34ccc084"},"vehicle_type_id":"4","last_reported":1768618084,"current_range_meters":9200,"station_id":"ce4bh412rcd13ifvqds0","pricing_plan_id":"cebpf4jnsgd1na2vs0mg"},{"bike_id":"3a36667a-93a2-47e6-8728-e382036e6f88","system_id":"levelo_inurba_marseille","lat":43.21743,"lon":5.34627,"is_reserved":false,"is_disabled":false,"rental_uris":{"android":"levelo://app?vid=3a36667a-93a2-47e6-8728-e382036e6f88","ios":"levelo://app?vid=3a36667a-93a2-47e6-8728-e382036e6f88"},"vehicle_type_id":"4","last_reported":1768618084,"current_range_meters":9200,"station_id":"","pricing_plan_id":"cebpf4jnsgd1na2vs0mg"},{"bike_id":"d5086d04-1126-46f4-8392-d98460c8e7fe","system_id":"levelo_inurba_marseille","lat":43.3287,"lon":5.38333,"is_reserved":false,"is_disabled":false,"rental_uris":{"android":"levelo://app?vid=d5086d04-1126-46f4-8392-d98460c8e7fe","ios":"levelo://app?vid=d5086d04-1126-46f4-8392-d98460c8e7fe"},"vehicle_type_id":"4","last_reported":1768618084,"current_range_meters":9200,"station_id":"","pricing_plan_id":"cebpf4jnsgd1na2vs0mg"},{"bike_id":"2a5a3e25-d115-4865-9217-12f5237a0224","system_id":"levelo_inurba_marseille","lat":43.253401,"lon":5.42168,"is_reserved":false,"is_disabled":false,"rental_uris":{"android":"levelo://app?vid=2a5a3e25-d115-4865-9217-12f5237a0224","ios":"levelo://app?vid=2a5a3e25-d115-4865-9217-12f5237a0224"},"vehicle_type_id":"4","last_reported":1768618084,"current_range_meters":9200,"station_id":"st_d2m65c5bi1j21697t3ng","pricing_plan_id":"cebpf4jnsgd1na2vs0mg"},{"bike_id":"b72edf83-0dcb-4a5d-b17e-81637d24626b","system_id":"levelo_inurba_marseille","lat":43.30909,"lon":5.36852,"is_reserved":false,"is_disabled":false,"rental_uris":{"android":"levelo://app?vid=b72edf83-0dcb-4a5d-b17e-81637d24626b","ios":"levelo://app?vid=b72edf83-0dcb-4a5d-b17e-81637d24626b"},"vehicle_type_id":"4","last_reported":1768618084,"current_range_meters":9600,"station_id":"ce4bgn92rcd13ifvqbvg","pricing_plan_id":"cebpf4jnsgd1na2vs0mg"},{"bike_id":"ef3f1e70-32c3-4923-9ca7-95ec1e3cefa1","system_id":"levelo_inurba_marseille","lat":43.28213,"lon":5.3816,"is_reserved":false,"is_disabled":false,"rental_uris":{"android":"levelo://app?vid=ef3f1e70-32c3-4923-9ca7-95ec1e3cefa1","ios":"levelo://app?vid=ef3f1e70-32c3-4923-9ca7-95ec1e3cefa1"},"vehicle_type_id":"4","last_reported":1768618084,"current_range_meters":9600,"station_id":"","pricing_plan_id":"cebpf4jnsgd1na2vs0mg"},{"bike_id":"8a9933e9-1ba0-42bc-9dfa-198447433b99","system_id":"levelo_inurba_marseille","lat":43.26064,"lon":5.39395,"is_reserved":false,"is_disabled":false,"rental_uris":{"android":"levelo://app?vid=8a9933e9-1ba0-42bc-9dfa-198447433b99","ios":"levelo://app?vid=8a9933e9-1ba0-42bc-9dfa-198447433b99"},"vehicle_type_id":"4","last_reported":1768618084,"current_range_meters":9600,"station_id":"ce4bhh92rcd13ifvqfj0","pricing_plan_id":"cebpf4jnsgd1na2vs0mg"},{"bike_id":"ff2d3e5a-0e52-4f3a-ad99-d57d4a209ef1","system_id":"levelo_inurba_marseille","lat":43.301244,"lon":5.374225,"is_reserved":false,"is_disabled":false,"rental_uris":{"android":"levelo://app?vid=ff2d3e5a-0e52-4f3a-ad99-d57d4a209ef1","ios":"levelo://app?vid=ff2d3e5a-0e52-4f3a-ad99-d57d4a209ef1"},"vehicle_type_id":"4","last_reported":1768618084,"current_range_meters":9600,"station_id":"ce4bgs92rcd13ifvqcc0","pricing_plan_id":"cebpf4jnsgd1na2vs0mg"},{"bike_id":"2c190bc0-c06f-40a9-b644-bde0dd954e40","system_id":"levelo_inurba_marseille","lat":43.3089,"lon":5.39666,"is_reserved":false,"is_disabled":false,"rental_uris":{"android":"levelo://app?vid=2c190bc0-c06f-40a9-b644-bde0dd954e40","ios":"levelo://app?vid=2c190bc0-c06f-40a9-b644-bde0dd954e40"},"vehicle_type_id":"4","last_reported":1768618084,"current_range_meters":9600,"station_id":"ce4bh012rcd13ifvqcv0","pricing_plan_id":"cebpf4jnsgd1na2vs0mg"},{"bike_id":"00f4d446-9b60-4cef-bd0b-8d64e443fec2","system_id":"levelo_inurba_marseille","lat":43.25156,"lon":5.40335,"is_reserved":false,"is_disabled":false,"rental_uris":{"android":"levelo://app?vid=00f4d446-9b60-4cef-bd0b-8d64e443fec2","ios":"levelo://app?vid=00f4d446-9b60-4cef-bd0b-8d64e443fec2"},"vehicle_type_id":"4","last_reported":1768618084,"current_range_meters":9600,"station_id":"","pricing_plan_id":"cebpf4jnsgd1na2vs0mg"},{"bike_id":"40d3dc88-0f80-474c-b9b5-fa3b55d5a0df","system_id":"levelo_inurba_marseille","lat":43.28531,"lon":5.44098,"is_reserved":false,"is_disabled":false,"rental_uris":{"android":"levelo://app?vid=40d3dc88-0f80-474c-b9b5-fa3b55d5a0df","ios":"levelo://app?vid=40d3dc88-0f80-474c-b9b5-fa3b55d5a0df"},"vehicle_type_id":"4","last_reported":1768618084,"current_range_meters":9600,"station_id":"st_d3j3df2ikq2c7380ej80","pricing_plan_id":"cebpf4jnsgd1na2vs0mg"},{"bike_id":"057e7a79-26e4-4e8e-9691-03d1ca843e3d","system_id":"levelo_inurba_marseille","lat":43.30741,"lon":5.42447,"is_reserved":false,"is_disabled":false,"rental_uris":{"android":"levelo://app?vid=057e7a79-26e4-4e8e-9691-03d1ca843e3d","ios":"levelo://app?vid=057e7a79-26e4-4e8e-9691-03d1ca843e3d"},"vehicle_type_id":"4","last_reported":1768618084,"current_range_meters":9600,"station_id":"st_cvj6ca6bvosntc0bfgr0","pricing_plan_id":"cebpf4jnsgd1na2vs0mg"},{"bike_id":"6737c2bb-895b-4c3d-94f8-6a4be8be8376","system_id":"levelo_inurba_marseille","lat":43.24672,"lon":5.38162,"is_reserved":false,"is_disabled":false,"rental_uris":{"android":"levelo://app?vid=6737c2bb-895b-4c3d-94f8-6a4be8be8376","ios":"levelo://app?vid=6737c2bb-895b-4c3d-94f8-6a4be8be8376"},"vehicle_type_id":"4","last_reported":1768618084,"current_range_meters":9600,"station_id":"ce4bhih2rcd13ifvqfr0","pricing_plan_id":"cebpf4jnsgd1na2vs0mg"},{"bike_id":"7faf58eb-ee03-481a-9f28-1064e829d8e1","system_id":"levelo_inurba_marseille","lat":43.297595,"lon":5.42783,"is_reserved":false,"is_disabled":false,"rental_uris":{"android":"levelo://app?vid=7faf58eb-ee03-481a-9f28-1064e829d8e1","ios":"levelo://app?vid=7faf58eb-ee03-481a-9f28-1064e829d8e1"},"vehicle_type_id":"4","last_reported":1768618084,"current_range_meters":9600,"station_id":"st_d3md5207bmas73dh9klg","pricing_plan_id":"cebpf4jnsgd1na2vs0mg"},{"bike_id":"cc889d63-8e44-4448-910e-e04b234b1b6f","system_id":"levelo_inurba_marseille","lat":43.29258,"lon":5.37626,"is_reserved":false,"is_disabled":false,"rental_uris":{"android":"levelo://app?vid=cc889d63-8e44-4448-910e-e04b234b1b6f","ios":"levelo://app?vid=cc889d63-8e44-4448-910e-e04b234b1b6f"},"vehicle_type_id":"4","last_reported":1768618084,"current_range_meters":9600,"station_id":"ce4bgi12rcd13ifvqb80","pricing_plan_id":"cebpf4jnsgd1na2vs0mg"},{"bike_id":"2675671c-3881-46f8-8b37-e9cc96a4dbb9","system_id":"levelo_inurba_marseille","lat":43.29812,"lon":5.37595,"is_reserved":false,"is_disabled":false,"rental_uris":{"android":"levelo://app?vid=2675671c-3881-46f8-8b37-e9cc96a4dbb9","ios":"levelo://app?vid=2675671c-3881-46f8-8b37-e9cc96a4dbb9"},"vehicle_type_id":"4","last_reported":1768618084,"current_range_meters":9600,"station_id":"","pricing_plan_id":"cebpf4jnsgd1na2vs0mg"},{"bike_id":"ed29de96-3ab2-4ecf-b958-4bb3e83df318","system_id":"levelo_inurba_marseille","lat":43.27274,"lon":5.39084,"is_reserved":false,"is_disabled":false,"rental_uris":{"android":"levelo://app?vid=ed29de96-3ab2-4ecf-b958-4bb3e83df318","ios":"levelo://app?vid=ed29de96-3ab2-4ecf-b958-4bb3e83df318"},"vehicle_type_id":"4","last_reported":1768618084,"current_range_meters":9600,"station_id":"ce4bhgp2rcd13ifvqfe0","pricing_plan_id":"cebpf4jnsgd1na2vs0mg"},{"bike_id":"59908df7-a301-4624-ad72-8e10f9564c6e","system_id":"levelo_inurba_marseille","lat":43.31279,"lon":5.40173,"is_reserved":false,"is_disabled":false,"rental_uris":{"android":"levelo://app?vid=59908df7-a301-4624-ad72-8e10f9564c6e","ios":"levelo://app?vid=59908df7-a301-4624-ad72-8e10f9564c6e"},"vehicle_type_id":"4","last_reported":1768618084,"current_range_meters":9600,"station_id":"ce4bh092rcd13ifvqd30","pricing_plan_id":"cebpf4jnsgd1na2vs0mg"},{"bike_id":"937d90e0-a5db-43d2-9364-92db8adcffb4","system_id":"levelo_inurba_marseille","lat":43.25339,"lon":5.42174,"is_reserved":false,"is_disabled":false,"rental_uris":{"android":"levelo://app?vid=937d90e0-a5db-43d2-9364-92db8adcffb4","ios":"levelo://app?vid=937d90e0-a5db-43d2-9364-92db8adcffb4"},"vehicle_type_id":"4","last_reported":1768618084,"current_range_meters":9600,"station_id":"st_d2m65c5bi1j21697t3ng","pricing_plan_id":"cebpf4jnsgd1na2vs0mg"},{"bike_id":"bcda77ef-d425-4420-9325-feb91e21d37e","system_id":"levelo_inurba_marseille","lat":43.28489,"lon":5.48401,"is_reserved":false,"is_disabled":false,"rental_uris":{"android":"levelo://app?vid=bcda77ef-d425-4420-9325-feb91e21d37e","ios":"levelo://app?vid=bcda77ef-d425-4420-9325-feb91e21d37e"},"vehicle_type_id":"4","last_reported":1768618084,"current_range_meters":9600,"station_id":"","pricing_plan_id":"cebpf4jnsgd1na2vs0mg"},{"bike_id":"1fbd52d6-241c-46a8-9a65-a2ac98c2b4a2","system_id":"levelo_inurba_marseille","lat":43.29937,"lon":5.36546,"is_reserved":false,"is_disabled":false,"rental_uris":{"android":"levelo://app?vid=1fbd52d6-241c-46a8-9a65-a2ac98c2b4a2","ios":"levelo://app?vid=1fbd52d6-241c-46a8-9a65-a2ac98c2b4a2"},"vehicle_type_id":"4","last_reported":1768618084,"current_range_meters":9600,"station_id":"ce4bgm92rcd13ifvqbr0","pricing_plan_id":"cebpf4jnsgd1na2vs0mg"},{"bike_id":"b61188c0-9590-46e5-be62-ff02194516dc","system_id":"levelo_inurba_marseille","lat":43.32504,"lon":5.38319,"is_reserved":false,"is_disabled":false,"rental_uris":{"android":"levelo://app?vid=b61188c0-9590-46e5-be62-ff02194516dc","ios":"levelo://app?vid=b61188c0-9590-46e5-be62-ff02194516dc"},"vehicle_type_id":"4","last_reported":1768618084,"current_range_meters":9600,"station_id":"st_d4asgbiv49dc73anf9m0","pricing_plan_id":"cebpf4jnsgd1na2vs0mg"},{"bike_id":"f3d775a3-f599-439d-bd34-f2266ddda566","system_id":"levelo_inurba_marseille","lat":43.323372,"lon":5.367362,"is_reserved":false,"is_disabled":false,"rental_uris":{"android":"levelo://app?vid=f3d775a3-f599-439d-bd34-f2266ddda566","ios":"levelo://app?vid=f3d775a3-f599-439d-bd34-f2266ddda566"},"vehicle_type_id":"4","last_reported":1768618084,"current_range_meters":9600,"station_id":"ce4bhsh2rcd13ifvqi2g","pricing_plan_id":"cebpf4jnsgd1na2vs0mg"},{"bike_id":"b5d404ca-dd88-4761-9680-575e93d891b2","system_id":"levelo_inurba_marseille","lat":43.29262,"lon":5.40911,"is_reserved":false,"is_disabled":false,"rental_uris":{"android":"levelo://app?vid=b5d404ca-dd88-4761-9680-575e93d891b2","ios":"levelo://app?vid=b5d404ca-dd88-4761-9680-575e93d891b2"},"vehicle_type_id":"4","last_reported":1768618084,"current_range_meters":10000,"station_id":"ce4bh192rcd13ifvqdc0","pricing_plan_id":"cebpf4jnsgd1na2vs0mg"},{"bike_id":"2e59ab37-51b4-434c-9efd-dbfcceedd362","system_id":"levelo_inurba_marseille","lat":43.323509,"lon":5.367601,"is_reserved":false,"is_disabled":false,"rental_uris":{"android":"levelo://app?vid=2e59ab37-51b4-434c-9efd-dbfcceedd362","ios":"levelo://app?vid=2e59ab37-51b4-434c-9efd-dbfcceedd362"},