{"last_updated":1745385034,"ttl":60,"version":"2.2","data":{"bikes":[{"bike_id":"a4dedd12-021c-4cc6-915d-feb4c818d39b","system_id":"levelo_inurba_marseille","lat":43.290126,"lon":5.386207,"is_reserved":false,"is_disabled":false,"rental_uris":{"android":"levelo://app?vid=a4dedd12-021c-4cc6-915d-feb4c818d39b","ios":"levelo://app?vid=a4dedd12-021c-4cc6-915d-feb4c818d39b"},"vehicle_type_id":"4","last_reported":1745385034,"current_range_meters":2800,"station_id":"ce4bh4p2rcd13ifvqe0g","pricing_plan_id":"cebpf4jnsgd1na2vs0mg"},{"bike_id":"c6b9caaf-85ad-42fe-a85b-41a4e6f02d6e","system_id":"levelo_inurba_marseille","lat":43.284105,"lon":5.349825,"is_reserved":false,"is_disabled":false,"rental_uris":{"android":"levelo://app?vid=c6b9caaf-85ad-42fe-a85b-41a4e6f02d6e","ios":"levelo://app?vid=c6b9caaf-85ad-42fe-a85b-41a4e6f02d6e"},"vehicle_type_id":"4","last_reported":1745385034,"current_range_meters":2800,"station_id":"ce4bhbh2rcd13ifvqepg","pricing_plan_id":"cebpf4jnsgd1na2vs0mg"},{"bike_id":"39b7ee85-9cbf-4904-a10a-75042515f95d","system_id":"levelo_inurba_marseille","lat":43.36251,"lon":5.34784,"is_reserved":false,"is_disabled":false,"rental_uris":{"android":"levelo://app?vid=39b7ee85-9cbf-4904-a10a-75042515f95d","ios":"levelo://app?vid=39b7ee85-9cbf-4904-a10a-75042515f95d"},"vehicle_type_id":"4","last_reported":1745385034,"current_range_meters":2800,"station_id":"","pricing_plan_id":"cebpf4jnsgd1na2vs0mg"},{"bike_id":"44956925-0033-401e-a275-442700e13847","system_id":"levelo_inurba_marseille","lat":43.31688,"lon":5.40477,"is_reserved":false,"is_disabled":false,"rental_uris":{"android":"levelo://app?vid=44956925-0033-401e-a275-442700e13847","ios":"levelo://app?vid=44956925-0033-401e-a275-442700e13847"},"vehicle_type_id":"4","last_reported":1745385034,"current_range_meters":3200,"station_id":"ce4bh012rcd13ifvqd00","pricing_plan_id":"cebpf4jnsgd1na2vs0mg"},{"bike_id":"eac13683-cee0-48fe-9db9-a72bc04b1f44","system_id":"levelo_inurba_marseille","lat":43.31704,"lon":5.40471,"is_reserved":false,"is_disabled":false,"rental_uris":{"android":"levelo://app?vid=eac13683-cee0-48fe-9db9-a72bc04b1f44","ios":"levelo://app?vid=eac13683-cee0-48fe-9db9-a72bc04b1f44"},"vehicle_type_id":"4","last_reported":1745385034,"current_range_meters":3200,"station_id":"ce4bh012rcd13ifvqd00","pricing_plan_id":"cebpf4jnsgd1na2vs0mg"},{"bike_id":"f232544d-a366-4720-8200-0fbeee56940d","system_id":"levelo_inurba_marseille","lat":43.262259,"lon":5.40455,"is_reserved":false,"is_disabled":false,"rental_uris":{"android":"levelo://app?vid=f232544d-a366-4720-8200-0fbeee56940d","ios":"levelo://app?vid=f232544d-a366-4720-8200-0fbeee56940d"},"vehicle_type_id":"4","last_reported":1745385034,"current_range_meters":3200,"station_id":"ce4bhmh2rcd13ifvqgmg","pricing_plan_id":"cebpf4jnsgd1na2vs0mg"},{"bike_id":"388ecf89-f088-43dc-8704-85550d82e546","system_id":"levelo_inurba_marseille","lat":43.298694,"lon":5.397319,"is_reserved":false,"is_disabled":false,"rental_uris":{"android":"levelo://app?vid=388ecf89-f088-43dc-8704-85550d82e546","ios":"levelo://app?vid=388ecf89-f088-43dc-8704-85550d82e546"},"vehicle_type_id":"4","last_reported":1745385034,"current_range_meters":3600,"station_id":"ce4bh0h2rcd13ifvqd50","pricing_plan_id":"cebpf4jnsgd1na2vs0mg"},{"bike_id":"1d7a80b2-b1c3-4aae-ad12-c5481d79711b","system_id":"levelo_inurba_marseille","lat":43.289863,"lon":5.383324,"is_reserved":false,"is_disabled":false,"rental_uris":{"android":"levelo://app?vid=1d7a80b2-b1c3-4aae-ad12-c5481d79711b","ios":"levelo://app?vid=1d7a80b2-b1c3-4aae-ad12-c5481d79711b"},"vehicle_type_id":"4","last_reported":1745385034,"current_range_meters":7200,"station_id":"ce4bh492rcd13ifvqdug","pricing_plan_id":"cebpf4jnsgd1na2vs0mg"},{"bike_id":"1f44772a-7041-4d8e-8072-6f03f273465c","system_id":"levelo_inurba_marseille","lat":43.25851,"lon":5.39909,"is_reserved":false,"is_disabled":false,"rental_uris":{"android":"levelo://app?vid=1f44772a-7041-4d8e-8072-6f03f273465c","ios":"levelo://app?vid=1f44772a-7041-4d8e-8072-6f03f273465c"},"vehicle_type_id":"4","last_reported":1745385034,"current_range_meters":4000,"station_id":"ce4bhl92rcd13ifvqghg","pricing_plan_id":"cebpf4jnsgd1na2vs0mg"},{"bike_id":"07e18311-389c-4cd0-83d3-a5cafbc7a209","system_id":"levelo_inurba_marseille","lat":43.28918,"lon":5.36678,"is_reserved":false,"is_disabled":false,"rental_uris":{"android":"levelo://app?vid=07e18311-389c-4cd0-83d3-a5cafbc7a209","ios":"levelo://app?vid=07e18311-389c-4cd0-83d3-a5cafbc7a209"},"vehicle_type_id":"4","last_reported":1745385034,"current_range_meters":4000,"station_id":"ce4bhap2rcd13ifvqek0","pricing_plan_id":"cebpf4jnsgd1na2vs0mg"},{"bike_id":"15de27a9-dd72-4ea4-bde9-75d6aa3004b2","system_id":"levelo_inurba_marseille","lat":43.32693,"lon":5.37595,"is_reserved":false,"is_disabled":false,"rental_uris":{"android":"levelo://app?vid=15de27a9-dd72-4ea4-bde9-75d6aa3004b2","ios":"levelo://app?vid=15de27a9-dd72-4ea4-bde9-75d6aa3004b2"},"vehicle_type_id":"4","last_reported":1745385034,"current_range_meters":4000,"station_id":"","pricing_plan_id":"cebpf4jnsgd1na2vs0mg"},{"bike_id":"da24ae5e-6744-4ba9-8a6c-c375426f57b5","system_id":"levelo_inurba_marseille","lat":43.25132,"lon":5.40334,"is_reserved":false,"is_disabled":false,"rental_uris":{"android":"levelo://app?vid=da24ae5e-6744-4ba9-8a6c-c375426f57b5","ios":"levelo://app?vid=da24ae5e-6744-4ba9-8a6c-c375426f57b5"},"vehicle_type_id":"4","last_reported":1745385034,"current_range_meters":4400,"station_id":"ce4bhlh2rcd13ifvqgig","pricing_plan_id":"cebpf4jnsgd1na2vs0mg"},{"bike_id":"eb613738-fcdb-4c92-a9d3-e5b2de692e33","system_id":"levelo_inurba_marseille","lat":43.22959,"lon":5.35387,"is_reserved":false,"is_disabled":false,"rental_uris":{"android":"levelo://app?vid=eb613738-fcdb-4c92-a9d3-e5b2de692e33","ios":"levelo://app?vid=eb613738-fcdb-4c92-a9d3-e5b2de692e33"},"vehicle_type_id":"4","last_reported":1745385034,"current_range_meters":4400,"station_id":"cpo3532slgdg3j2ikp40","pricing_plan_id":"cebpf4jnsgd1na2vs0mg"},{"bike_id":"cbd91d5d-34cd-45f4-b607-19d234177e43","system_id":"levelo_inurba_marseille","lat":43.29226,"lon":5.36064,"is_reserved":false,"is_disabled":false,"rental_uris":{"android":"levelo://app?vid=cbd91d5d-34cd-45f4-b607-19d234177e43","ios":"levelo://app?vid=cbd91d5d-34cd-45f4-b607-19d234177e43"},"vehicle_type_id":"4","last_reported":1745385034,"current_range_meters":4800,"station_id":"ce4bhbh2rcd13ifvqeqg","pricing_plan_id":"cebpf4jnsgd1na2vs0mg"},{"bike_id":"4cc62d17-7e47-45a6-a814-084001cc72e3","system_id":"levelo_inurba_marseille","lat":43.31692,"lon":5.40477,"is_reserved":false,"is_disabled":false,"rental_uris":{"android":"levelo://app?vid=4cc62d17-7e47-45a6-a814-084001cc72e3","ios":"levelo://app?vid=4cc62d17-7e47-45a6-a814-084001cc72e3"},"vehicle_type_id":"4","last_reported":1745385034,"current_range_meters":4800,"station_id":"ce4bh012rcd13ifvqd00","pricing_plan_id":"cebpf4jnsgd1na2vs0mg"},{"bike_id":"4de92fcb-5cae-4f4e-a6fa-7c761de0b676","system_id":"levelo_inurba_marseille","lat":43.30076,"lon":5.36786,"is_reserved":false,"is_disabled":false,"rental_uris":{"android":"levelo://app?vid=4de92fcb-5cae-4f4e-a6fa-7c761de0b676","ios":"levelo://app?vid=4de92fcb-5cae-4f4e-a6fa-7c761de0b676"},"vehicle_type_id":"4","last_reported":1745385034,"current_range_meters":4800,"station_id":"","pricing_plan_id":"cebpf4jnsgd1na2vs0mg"},{"bike_id":"d42da8b3-5312-4608-a60b-fef54c0c16d1","system_id":"levelo_inurba_marseille","lat":43.280731,"lon":5.396474,"is_reserved":false,"is_disabled":false,"rental_uris":{"android":"levelo://app?vid=d42da8b3-5312-4608-a60b-fef54c0c16d1","ios":"levelo://app?vid=d42da8b3-5312-4608-a60b-fef54c0c16d1"},"vehicle_type_id":"4","last_reported":1745385034,"current_range_meters":4800,"station_id":"ce4bho12rcd13ifvqh2g","pricing_plan_id":"cebpf4jnsgd1na2vs0mg"},{"bike_id":"6b87ccdc-66bd-42a1-bad7-6615d0405689","system_id":"levelo_inurba_marseille","lat":43.239649,"lon":5.366363,"is_reserved":false,"is_disabled":false,"rental_uris":{"android":"levelo://app?vid=6b87ccdc-66bd-42a1-bad7-6615d0405689","ios":"levelo://app?vid=6b87ccdc-66bd-42a1-bad7-6615d0405689"},"vehicle_type_id":"4","last_reported":1745385034,"current_range_meters":4800,"station_id":"ce4bhi12rcd13ifvqfp0","pricing_plan_id":"cebpf4jnsgd1na2vs0mg"},{"bike_id":"2af11ffb-ba80-4b28-a736-fb1a5aabf601","system_id":"levelo_inurba_marseille","lat":43.290045,"lon":5.356141,"is_reserved":false,"is_disabled":false,"rental_uris":{"android":"levelo://app?vid=2af11ffb-ba80-4b28-a736-fb1a5aabf601","ios":"levelo://app?vid=2af11ffb-ba80-4b28-a736-fb1a5aabf601"},"vehicle_type_id":"4","last_reported":1745385034,"current_range_meters":4400,"station_id":"ce4bhb92rcd13ifvqen0","pricing_plan_id":"cebpf4jnsgd1na2vs0mg"},{"bike_id":"14f491b4-8ea3-4db0-9937-14e748d651fa","system_id":"levelo_inurba_marseille","lat":43.30544,"lon":5.36711,"is_reserved":false,"is_disabled":false,"rental_uris":{"android":"levelo://app?vid=14f491b4-8ea3-4db0-9937-14e748d651fa","ios":"levelo://app?vid=14f491b4-8ea3-4db0-9937-14e748d651fa"},"vehicle_type_id":"4","last_reported":1745385034,"current_range_meters":4400,"station_id":"ce4bgrp2rcd13ifvqc9g","pricing_plan_id":"cebpf4jnsgd1na2vs0mg"},{"bike_id":"1c755526-7610-4241-9257-348acde561d3","system_id":"levelo_inurba_marseille","lat":43.248549,"lon":5.382054,"is_reserved":false,"is_disabled":false,"rental_uris":{"android":"levelo://app?vid=1c755526-7610-4241-9257-348acde561d3","ios":"levelo://app?vid=1c755526-7610-4241-9257-348acde561d3"},"vehicle_type_id":"4","last_reported":1745385034,"current_range_meters":5600,"station_id":"","pricing_plan_id":"cebpf4jnsgd1na2vs0mg"},{"bike_id":"ceecf0e8-7998-4475-a275-501b7b449a6a","system_id":"levelo_inurba_marseille","lat":43.284133,"lon":5.375175,"is_reserved":false,"is_disabled":false,"rental_uris":{"android":"levelo://app?vid=ceecf0e8-7998-4475-a275-501b7b449a6a","ios":"levelo://app?vid=ceecf0e8-7998-4475-a275-501b7b449a6a"},"vehicle_type_id":"4","last_reported":1745385034,"current_range_meters":6000,"station_id":"ce4bhbp2rcd13ifvqerg","pricing_plan_id":"cebpf4jnsgd1na2vs0mg"},{"bike_id":"d20cab0b-1fb3-493a-8694-236532ee2f56","system_id":"levelo_inurba_marseille","lat":43.32026,"lon":5.41575,"is_reserved":false,"is_disabled":false,"rental_uris":{"android":"levelo://app?vid=d20cab0b-1fb3-493a-8694-236532ee2f56","ios":"levelo://app?vid=d20cab0b-1fb3-493a-8694-236532ee2f56"},"vehicle_type_id":"4","last_reported":1745385034,"current_range_meters":6000,"station_id":"ce4bhq92rcd13ifvqhkg","pricing_plan_id":"cebpf4jnsgd1na2vs0mg"},{"bike_id":"67e97a92-92b2-4974-81fd-f7f01f240a29","system_id":"levelo_inurba_marseille","lat":43.27831,"lon":5.39216,"is_reserved":false,"is_disabled":false,"rental_uris":{"android":"levelo://app?vid=67e97a92-92b2-4974-81fd-f7f01f240a29","ios":"levelo://app?vid=67e97a92-92b2-4974-81fd-f7f01f240a29"},"vehicle_type_id":"4","last_reported":1745385034,"current_range_meters":6000,"station_id":"ce4bhjp2rcd13ifvqga0","pricing_plan_id":"cebpf4jnsgd1na2vs0mg"},{"bike_id":"4cdb5aae-89e3-46f9-91ad-ce1c846652b4","system_id":"levelo_inurba_marseille","lat":43.30873,"lon":5.40145,"is_reserved":false,"is_disabled":false,"rental_uris":{"android":"levelo://app?vid=4cdb5aae-89e3-46f9-91ad-ce1c846652b4","ios":"levelo://app?vid=4cdb5aae-89e3-46f9-91ad-ce1c846652b4"},"vehicle_type_id":"4","last_reported":1745385034,"current_range_meters":6400,"station_id":"ce4bgvp2rcd13ifvqct0","pricing_plan_id":"cebpf4jnsgd1na2vs0mg"},{"bike_id":"49454987-63e1-48fb-8366-812d15a5c496","system_id":"levelo_inurba_marseille","lat":43.240668,"lon":5.377686,"is_reserved":false,"is_disabled":false,"rental_uris":{"android":"levelo://app?vid=49454987-63e1-48fb-8366-812d15a5c496","ios":"levelo://app?vid=49454987-63e1-48fb-8366-812d15a5c496"},"vehicle_type_id":"4","last_reported":1745385034,"current_range_meters":6400,"station_id":"ce4bhnp2rcd13ifvqgvg","pricing_plan_id":"cebpf4jnsgd1na2vs0mg"},{"bike_id":"feb23c94-7c1e-4b05-a58d-7d3f25fc2ea3","system_id":"levelo_inurba_marseille","lat":43.284974,"lon":5.394462,"is_reserved":false,"is_disabled":false,"rental_uris":{"android":"levelo://app?vid=feb23c94-7c1e-4b05-a58d-7d3f25fc2ea3","ios":"levelo://app?vid=feb23c94-7c1e-4b05-a58d-7d3f25fc2ea3"},"vehicle_type_id":"4","last_reported":1745385034,"current_range_meters":6400,"station_id":"","pricing_plan_id":"cebpf4jnsgd1na2vs0mg"},{"bike_id":"812167a7-afd5-4edc-bf10-be9f547fc037","system_id":"levelo_inurba_marseille","lat":43.273206,"lon":5.390681,"is_reserved":false,"is_disabled":false,"rental_uris":{"android":"levelo://app?vid=812167a7-afd5-4edc-bf10-be9f547fc037","ios":"levelo://app?vid=812167a7-afd5-4edc-bf10-be9f547fc037"},"vehicle_type_id":"4","last_reported":1745385034,"current_range_meters":6800,"station_id":"","pricing_plan_id":"cebpf4jnsgd1na2vs0mg"},{"bike_id":"28dbeddd-838b-456e-82ff-c5881d62245f","system_id":"levelo_inurba_marseille","lat":43.229296,"lon":5.353844,"is_reserved":false,"is_disabled":false,"rental_uris":{"android":"levelo://app?vid=28dbeddd-838b-456e-82ff-c5881d62245f","ios":"levelo://app?vid=28dbeddd-838b-456e-82ff-c5881d62245f"},"vehicle_type_id":"4","last_reported":1745385034,"current_range_meters":6800,"station_id":"cpo3532slgdg3j2ikp40","pricing_plan_id":"cebpf4jnsgd1na2vs0mg"},{"bike_id":"f882010f-ebbf-4f14-a8a8-858fc3192343","system_id":"levelo_inurba_marseille","lat":43.2611,"lon":5.40505,"is_reserved":false,"is_disabled":false,"rental_uris":{"android":"levelo://app?vid=f882010f-ebbf-4f14-a8a8-858fc3192343","ios":"levelo://app?vid=f882010f-ebbf-4f14-a8a8-858fc3192343"},"vehicle_type_id":"4","last_reported":1745385034,"current_range_meters":6800,"station_id":"ce4bhmh2rcd13ifvqgmg","pricing_plan_id":"cebpf4jnsgd1na2vs0mg"},{"bike_id":"6604993b-aba8-465b-953d-c4bbe6c429f6","system_id":"levelo_inurba_marseille","lat":43.26341,"lon":5.39649,"is_reserved":false,"is_disabled":false,"rental_uris":{"android":"levelo://app?vid=6604993b-aba8-465b-953d-c4bbe6c429f6","ios":"levelo://app?vid=6604993b-aba8-465b-953d-c4bbe6c429f6"},"vehicle_type_id":"4","last_reported":1745385034,"current_range_meters":6800,"station_id":"","pricing_plan_id":"cebpf4jnsgd1na2vs0mg"},{"bike_id":"e7197435-3b98-4061-918e-a34285caf294","system_id":"levelo_inurba_marseille","lat":43.30316,"lon":5.404401,"is_reserved":false,"is_disabled":false,"rental_uris":{"android":"levelo://app?vid=e7197435-3b98-4061-918e-a34285caf294","ios":"levelo://app?vid=e7197435-3b98-4061-918e-a34285caf294"},"vehicle_type_id":"4","last_reported":1745385034,"current_range_meters":6800,"station_id":"ce4bh012rcd13ifvqd10","pricing_plan_id":"cebpf4jnsgd1na2vs0mg"},{"bike_id":"a0feee2d-5e7d-4501-8ee1-78cedff8a005","system_id":"levelo_inurba_marseille","lat":43.30159,"lon":5.38104,"is_reserved":false,"is_disabled":false,"rental_uris":{"android":"levelo://app?vid=a0feee2d-5e7d-4501-8ee1-78cedff8a005","ios":"levelo://app?vid=a0feee2d-5e7d-4501-8ee1-78cedff8a005"},"vehicle_type_id":"4","last_reported":1745385034,"current_range_meters":7200,"station_id":"ce4bgjp2rcd13ifvqbh0","pricing_plan_id":"cebpf4jnsgd1na2vs0mg"},{"bike_id":"aff8e063-b891-4b0e-b0d2-cce67002e39c","system_id":"levelo_inurba_marseille","lat":43.28607,"lon":5.35107,"is_reserved":false,"is_disabled":false,"rental_uris":{"android":"levelo://app?vid=aff8e063-b891-4b0e-b0d2-cce67002e39c","ios":"levelo://app?vid=aff8e063-b891-4b0e-b0d2-cce67002e39c"},"vehicle_type_id":"4","last_reported":1745385034,"current_range_meters":7200,"station_id":"ce4bhch2rcd13ifvqeug","pricing_plan_id":"cebpf4jnsgd1na2vs0mg"},{"bike_id":"04ba535b-8a2f-4de2-86f4-d626701bd0a3","system_id":"levelo_inurba_marseille","lat":43.25838,"lon":5.39942,"is_reserved":false,"is_disabled":false,"rental_uris":{"android":"levelo://app?vid=04ba535b-8a2f-4de2-86f4-d626701bd0a3","ios":"levelo://app?vid=04ba535b-8a2f-4de2-86f4-d626701bd0a3"},"vehicle_type_id":"4","last_reported":1745385034,"current_range_meters":7200,"station_id":"ce4bhl92rcd13ifvqghg","pricing_plan_id":"cebpf4jnsgd1na2vs0mg"},{"bike_id":"3b1683ad-161a-4d06-bf0e-dfe0ec072a94","system_id":"levelo_inurba_marseille","lat":43.25114,"lon":5.40343,"is_reserved":false,"is_disabled":false,"rental_uris":{"android":"levelo://app?vid=3b1683ad-161a-4d06-bf0e-dfe0ec072a94","ios":"levelo://app?vid=3b1683ad-161a-4d06-bf0e-dfe0ec072a94"},"vehicle_type_id":"4","last_reported":1745385034,"current_range_meters":7200,"station_id":"ce4bhlh2rcd13ifvqgig","pricing_plan_id":"cebpf4jnsgd1na2vs0mg"},{"bike_id":"e398c7f5-3587-459f-99fe-8a326e7304d0","system_id":"levelo_inurba_marseille","lat":43.23189,"lon":5.4,"is_reserved":false,"is_disabled":false,"rental_uris":{"android":"levelo://app?vid=e398c7f5-3587-459f-99fe-8a326e7304d0","ios":"levelo://app?vid=e398c7f5-3587-459f-99fe-8a326e7304d0"},"vehicle_type_id":"4","last_reported":1745385034,"current_range_meters":7200,"station_id":"ce4bhn12rcd13ifvqgqg","pricing_plan_id":"cebpf4jnsgd1na2vs0mg"},{"bike_id":"403801dc-6bba-433f-9118-b29f6eb2408d","system_id":"levelo_inurba_marseille","lat":43.25103,"lon":5.4032,"is_reserved":false,"is_disabled":false,"rental_uris":{"android":"levelo://app?vid=403801dc-6bba-433f-9118-b29f6eb2408d","ios":"levelo://app?vid=403801dc-6bba-433f-9118-b29f6eb2408d"},"vehicle_type_id":"4","last_reported":1745385034,"current_range_meters":7200,"station_id":"ce4bhlh2rcd13ifvqgig","pricing_plan_id":"cebpf4jnsgd1na2vs0mg"},{"bike_id":"71f121ee-fc56-4cf0-a6a7-237b4e50d330","system_id":"levelo_inurba_marseille","lat":43.25111,"lon":5.40299,"is_reserved":false,"is_disabled":false,"rental_uris":{"android":"levelo://app?vid=71f121ee-fc56-4cf0-a6a7-237b4e50d330","ios":"levelo://app?vid=71f121ee-fc56-4cf0-a6a7-237b4e50d330"},"vehicle_type_id":"4","last_reported":1745385034,"current_range_meters":8000,"station_id":"ce4bhlh2rcd13ifvqgig","pricing_plan_id":"cebpf4jnsgd1na2vs0mg"},{"bike_id":"2dc4e79a-33a8-48b0-bf03-f6328f1dc1f6","system_id":"levelo_inurba_marseille","lat":43.323671,"lon":5.388919,"is_reserved":false,"is_disabled":true,"rental_uris":{"android":"levelo://app?vid=2dc4e79a-33a8-48b0-bf03-f6328f1dc1f6","ios":"levelo://app?vid=2dc4e79a-33a8-48b0-bf03-f6328f1dc1f6"},"vehicle_type_id":"4","last_reported":1745385034,"current_range_meters":8000,"station_id":"ce4bhqp2rcd13ifvqhog","pricing_plan_id":"cebpf4jnsgd1na2vs0mg"},{"bike_id":"83b75082-9742-48b0-914d-1a19ef443d4e","system_id":"levelo_inurba_marseille","lat":43.293009,"lon":5.371841,"is_reserved":false,"is_disabled":true,"rental_uris":{"android":"levelo://app?vid=83b75082-9742-48b0-914d-1a19ef443d4e","ios":"levelo://app?vid=83b75082-9742-48b0-914d-1a19ef443d4e"},"vehicle_type_id":"4","last_reported":1745385034,"current_range_meters":8000,"station_id":"ce4bgh92rcd13ifvqb40","pricing_plan_id":"cebpf4jnsgd1na2vs0mg"},{"bike_id":"70671536-b2e1-456c-8bd8-7804b348f9fc","system_id":"levelo_inurba_marseille","lat":43.31189,"lon":5.41628,"is_reserved":false,"is_disabled":false,"rental_uris":{"android":"levelo://app?vid=70671536-b2e1-456c-8bd8-7804b348f9fc","ios":"levelo://app?vid=70671536-b2e1-456c-8bd8-7804b348f9fc"},"vehicle_type_id":"4","last_reported":1745385034,"current_range_meters":8000,"station_id":"","pricing_plan_id":"cebpf4jnsgd1na2vs0mg"},{"bike_id":"d8d27387-fb66-4c0a-90dc-eef7a69dc87d","system_id":"levelo_inurba_marseille","lat":43.21197,"lon":5.350888,"is_reserved":false,"is_disabled":false,"rental_uris":{"android":"levelo://app?vid=d8d27387-fb66-4c0a-90dc-eef7a69dc87d","ios":"levelo://app?vid=d8d27387-fb66-4c0a-90dc-eef7a69dc87d"},"vehicle_type_id":"4","last_reported":1745385034,"current_range_meters":8000,"station_id":"ce4bgh92rcd13ifvqb40","pricing_plan_id":"cebpf4jnsgd1na2vs0mg"},{"bike_id":"3a978624-d3a6-4f0e-b9f7-3879a24f998c","system_id":"levelo_inurba_marseille","lat":43.28087,"lon":5.39661,"is_reserved":false,"is_disabled":false,"rental_uris":{"android":"levelo://app?vid=3a978624-d3a6-4f0e-b9f7-3879a24f998c","ios":"levelo://app?vid=3a978624-d3a6-4f0e-b9f7-3879a24f998c"},"vehicle_type_id":"4","last_reported":1745385034,"current_range_meters":8000,"station_id":"ce4bho12rcd13ifvqh2g","pricing_plan_id":"cebpf4jnsgd1na2vs0mg"},{"bike_id":"1be6a0eb-e7bb-4f1b-8976-c00356d99362","system_id":"levelo_inurba_marseille","lat":43.28263,"lon":5.3506,"is_reserved":false,"is_disabled":true,"rental_uris":{"android":"levelo://app?vid=1be6a0eb-e7bb-4f1b-8976-c00356d99362","ios":"levelo://app?vid=1be6a0eb-e7bb-4f1b-8976-c00356d99362"},"vehicle_type_id":"4","last_reported":1745385034,"current_range_meters":8400,"station_id":"ce4bhbp2rcd13ifvqerg","pricing_plan_id":"cebpf4jnsgd1na2vs0mg"},{"bike_id":"81d77fcb-8f24-4079-9c51-181359394190","system_id":"levelo_inurba_marseille","lat":43.2861,"lon":5.35106,"is_reserved":false,"is_disabled":false,"rental_uris":{"android":"levelo://app?vid=81d77fcb-8f24-4079-9c51-181359394190","ios":"levelo://app?vid=81d77fcb-8f24-4079-9c51-181359394190"},"vehicle_type_id":"4","last_reported":1745385034,"current_range_meters":8400,"station_id":"ce4bhch2rcd13ifvqeug","pricing_plan_id":"cebpf4jnsgd1na2vs0mg"},{"bike_id":"1f605da9-74b3-4f53-96b4-ea59ce51acfc","system_id":"levelo_inurba_marseille","lat":43.311892,"lon":5.416097,"is_reserved":false,"is_disabled":false,"rental_uris":{"android":"levelo://app?vid=1f605da9-74b3-4f53-96b4-ea59ce51acfc","ios":"levelo://app?vid=1f605da9-74b3-4f53-96b4-ea59ce51acfc"},"vehicle_type_id":"4","last_reported":1745385034,"current_range_meters":8400,"station_id":"","pricing_plan_id":"cebpf4jnsgd1na2vs0mg"},{"bike_id":"e95854b2-d226-4b90-8d04-8305be0fc5de","system_id":"levelo_inurba_marseille","lat":43.28271,"lon":5.35076,"is_reserved":false,"is_disabled":false,"rental_uris":{"android":"levelo://app?vid=e95854b2-d226-4b90-8d04-8305be0fc5de","ios":"levelo://app?vid=e95854b2-d226-4b90-8d04-8305be0fc5de"},"vehicle_type_id":"4","last_reported":1745385034,"current_range_meters":8400,"station_id":"ce4bhbp2rcd13ifvqerg","pricing_plan_id":"cebpf4jnsgd1na2vs0mg"},{"bike_id":"ecbdb4d8-c80c-4a11-b50b-aff98695a59d","system_id":"levelo_inurba_marseille","lat":43.27911,"lon":5.39589,"is_reserved":false,"is_disabled":false,"rental_uris":{"android":"levelo://app?vid=ecbdb4d8-c80c-4a11-b50b-aff98695a59d","ios":"levelo://app?vid=ecbdb4d8-c80c-4a11-b50b-aff98695a59d"},"vehicle_type_id":"4","last_reported":1745385034,"current_range_meters":8400,"station_id":"ce4bhf92rcd13ifvqf40","pricing_plan_id":"cebpf4jnsgd1na2vs0mg"},{"bike_id":"0edd0516-c62c-4685-98ce-3c60046dc81d","system_id":"levelo_inurba_marseille","lat":43.303121,"lon":5.404569,"is_reserved":false,"is_disabled":false,"rental_uris":{"android":"levelo://app?vid=0edd0516-c62c-4685-98ce-3c60046dc81d","ios":"levelo://app?vid=0edd0516-c62c-4685-98ce-3c60046dc81d"},"vehicle_type_id":"4","last_reported":1745385034,"current_range_meters":8400,"station_id":"ce4bh012rcd13ifvqd10","pricing_plan_id":"cebpf4jnsgd1na2vs0mg"},{"bike_id":"0d1ebedd-3512-4ce4-87fe-745c17edfd96","system_id":"levelo_inurba_marseille","lat":43.278786,"lon":5.354489,"is_reserved":false,"is_disabled":true,"rental_uris":{"android":"levelo://app?vid=0d1ebedd-3512-4ce4-87fe-745c17edfd96","ios":"levelo://app?vid=0d1ebedd-3512-4ce4-87fe-745c17edfd96"},"vehicle_type_id":"4","last_reported":1745385034,"current_range_meters":8800,"station_id":"","pricing_plan_id":"cebpf4jnsgd1na2vs0mg"},{"bike_id":"bd505a89-6edb-4526-99a7-9c2bce6b46ae","system_id":"levelo_inurba_marseille","lat":43.28413,"lon":5.37526,"is_reserved":false,"is_disabled":false,"rental_uris":{"android":"levelo://app?vid=bd505a89-6edb-4526-99a7-9c2bce6b46ae","ios":"levelo://app?vid=bd505a89-6edb-4526-99a7-9c2bce6b46ae"},"vehicle_type_id":"4","last_reported":1745385034,"current_range_meters":8800,"station_id":"ce4bh412rcd13ifvqds0","pricing_plan_id":"cebpf4jnsgd1na2vs0mg"},{"bike_id":"f416d0ef-f853-49ab-9358-9525a7ed6c57","system_id":"levelo_inurba_marseille","lat":43.319928,"lon":5.38144,"is_reserved":false,"is_disabled":false,"rental_uris":{"android":"levelo://app?vid=f416d0ef-f853-49ab-9358-9525a7ed6c57","ios":"levelo://app?vid=f416d0ef-f853-49ab-9358-9525a7ed6c57"},"vehicle_type_id":"4","last_reported":1745385034,"current_range_meters":8800,"station_id":"ce4bhr12rcd13ifvqhpg","pricing_plan_id":"cebpf4jnsgd1na2vs0mg"},{"bike_id":"d5fa6a7e-ae6f-48cd-8dc8-6ec1473fc099","system_id":"levelo_inurba_marseille","lat":43.31361,"lon":5.36735,"is_reserved":false,"is_disabled":true,"rental_uris":{"android":"levelo://app?vid=d5fa6a7e-ae6f-48cd-8dc8-6ec1473fc099","ios":"levelo://app?vid=d5fa6a7e-ae6f-48cd-8dc8-6ec1473fc099"},"vehicle_type_id":"4","last_reported":1745385034,"current_range_meters":8800,"station_id":"ce4bgr92rcd13ifvqc6g","pricing_plan_id":"cebpf4jnsgd1na2vs0mg"},{"bike_id":"1b72fe1a-50d7-43dc-9bd5-c62057eb6279","system_id":"levelo_inurba_marseille","lat":43.3029,"lon":5.40461,"is_reserved":false,"is_disabled":false,"rental_uris":{"android":"levelo://app?vid=1b72fe1a-50d7-43dc-9bd5-c62057eb6279","ios":"levelo://app?vid=1b72fe1a-50d7-43dc-9bd5-c62057eb6279"},"vehicle_type_id":"4","last_reported":1745385034,"current_range_meters":8800,"station_id":"ce4bh012rcd13ifvqd10","pricing_plan_id":"cebpf4jnsgd1na2vs0mg"},{"bike_id":"a45ae1a9-c8cc-4065-9f5d-cdcd6714c67f","system_id":"levelo_inurba_marseille","lat":43.337268,"lon":5.391773,"is_reserved":false,"is_disabled":false,"rental_uris":{"android":"levelo://app?vid=a45ae1a9-c8cc-4065-9f5d-cdcd6714c67f","ios":"levelo://app?vid=a45ae1a9-c8cc-4065-9f5d-cdcd6714c67f"},"vehicle_type_id":"4","last_reported":1745385034,"current_range_meters":9200,"station_id":"ce4bhr92rcd13ifvqhsg","pricing_plan_id":"cebpf4jnsgd1na2vs0mg"},{"bike_id":"9955afde-6d4b-4dfb-9249-7e1b507b3c52","system_id":"levelo_inurba_marseille","lat":43.250835,"lon":5.395243,"is_reserved":false,"is_disabled":false,"rental_uris":{"android":"levelo://app?vid=9955afde-6d4b-4dfb-9249-7e1b507b3c52","ios":"levelo://app?vid=9955afde-6d4b-4dfb-9249-7e1b507b3c52"},"vehicle_type_id":"4","last_reported":1745385034,"current_range_meters":9200,"station_id":"ce4bhm12rcd13ifvqgkg","pricing_plan_id":"cebpf4jnsgd1na2vs0mg"},{"bike_id":"f1300840-291d-4ece-a09c-172514b0678c","system_id":"levelo_inurba_marseille","lat":43.294429,"lon":5.397668,"is_reserved":false,"is_disabled":true,"rental_uris":{"android":"levelo://app?vid=f1300840-291d-4ece-a09c-172514b0678c","ios":"levelo://app?vid=f1300840-291d-4ece-a09c-172514b0678c"},"vehicle_type_id":"4","last_reported":1745385034,"current_range_meters":9200,"station_id":"ce4bh3h2rcd13ifvqdo0","pricing_plan_id":"cebpf4jnsgd1na2vs0mg"},{"bike_id":"70010ffd-0fae-4563-9486-f54ed377fe6f","system_id":"levelo_inurba_marseille","lat":43.30468,"lon":5.37921,"is_reserved":false,"is_disabled":false,"rental_uris":{"android":"levelo://app?vid=70010ffd-0fae-4563-9486-f54ed377fe6f","ios":"levelo://app?vid=70010ffd-0fae-4563-9486-f54ed377fe6f"},"vehicle_type_id":"4","last_reported":1745385034,"current_range_meters":9200,"station_id":"ce4bgup2rcd13ifvqcn0","pricing_plan_id":"cebpf4jnsgd1na2vs0mg"},{"bike_id":"f912db2b-6a7d-49cf-b3de-1f63d7acb852","system_id":"levelo_inurba_marseille","lat":43.29878,"lon":5.39754,"is_reserved":false,"is_disabled":false,"rental_uris":{"android":"levelo://app?vid=f912db2b-6a7d-49cf-b3de-1f63d7acb852","ios":"levelo://app?vid=f912db2b-6a7d-49cf-b3de-1f63d7acb852"},"vehicle_type_id":"4","last_reported":1745385034,"current_range_meters":9200,"station_id":"ce4bh0h2rcd13ifvqd50","pricing_plan_id":"cebpf4jnsgd1na2vs0mg"},{"bike_id":"b8cfef2f-049b-4f5b-9246-18214c8511f6","system_id":"levelo_inurba_marseille","lat":43.27996,"lon":5.39996,"is_reserved":false,"is_disabled":false,"rental_uris":{"android":"levelo://app?vid=b8cfef2f-049b-4f5b-9246-18214c8511f6","ios":"levelo://app?vid=b8cfef2f-049b-4f5b-9246-18214c8511f6"},"vehicle_type_id":"4","last_reported":1745385034,"current_range_meters":9600,"station_id":"ce4bho92rcd13ifvqh4g","pricing_plan_id":"cebpf4jnsgd1na2vs0mg"},{"bike_id":"cde58abb-e471-49a0-b5b1-fcfce4e67920","system_id":"levelo_inurba_marseille","lat":43.31995,"lon":5.38158,"is_reserved":false,"is_disabled":false,"rental_uris":{"android":"levelo://app?vid=cde58abb-e471-49a0-b5b1-fcfce4e67920","ios":"levelo://app?vid=cde58abb-e471-49a0-b5b1-fcfce4e67920"},"vehicle_type_id":"4","last_reported":1745385034,"current_range_meters":9600,"station_id":"ce4bhr12rcd13ifvqhpg","pricing_plan_id":"cebpf4jnsgd1na2vs0mg"},{"bike_id":"47768a28-4fff-4fc1-b4c4-b5ec8d452deb","system_id":"levelo_inurba_marseille","lat":43.29605,"lon":5.38103,"is_reserved":false,"is_disabled":true,"rental_uris":{"android":"levelo://app?vid=47768a28-4fff-4fc1-b4c4-b5ec8d452deb","ios":"levelo://app?vid=47768a28-4fff-4fc1-b4c4-b5ec8d452deb"},"vehicle_type_id":"4","last_reported":1745385034,"current_range_meters":9600,"station_id":"ce4bgl12rcd13ifvqbo0","pricing_plan_id":"cebpf4jnsgd1na2vs0mg"},{"bike_id":"ecd9c509-3120-4166-8927-f60518d66aaa","system_id":"levelo_inurba_marseille","lat":43.29502,"lon":5.39406,"is_reserved":false,"is_disabled":true,"rental_uris":{"android":"levelo://app?vid=ecd9c509-3120-4166-8927-f60518d66aaa","ios":"levelo://app?vid=ecd9c509-3120-4166-8927-f60518d66aaa"},"vehicle_type_id":"4","last_reported":1745385034,"current_range_meters":9600,"station_id":"ce4bh292rcd13ifvqdf0","pricing_plan_id":"cebpf4jnsgd1na2vs0mg"},{"bike_id":"d5792b7b-f82b-46ee-81a3-5e128342d580","system_id":"levelo_inurba_marseille","lat":43.28103,"lon":5.37859,"is_reserved":false,"is_disabled":false,"rental_uris":{"android":"levelo://app?vid=d5792b7b-f82b-46ee-81a3-5e128342d580","ios":"levelo://app?vid=d5792b7b-f82b-46ee-81a3-5e128342d580"},"vehicle_type_id":"4","last_reported":1745385034,"current_range_meters":10000,"station_id":"ce4bha12rcd13ifvqee0","pricing_plan_id":"cebpf4jnsgd1na2vs0mg"},{"bike_id":"f8349672-0e88-45af-a952-6416fa3f8c75","system_id":"levelo_inurba_marseille","lat":43.28686,"lon":5.36141,"is_reserved":false,"is_disabled":false,"rental_uris":{"android":"levelo://app?vid=f8349672-0e88-45af-a952-6416fa3f8c75","ios":"levelo://app?vid=f8349672-0e88-45af-a952-6416fa3f8c75"},"vehicle_type_id":"4","last_reported":1745385034,"current_range_meters":10000,"station_id":"","pricing_plan_id":"cebpf4jnsgd1na2vs0mg"},{"bike_id":"8da45441-0f39-4665-ba43-cdfddf67fe67","system_id":"levelo_inurba_marseille","lat":43.329989,"lon":5.43862,"is_reserved":false,"is_disabled":false,"rental_uris":{"android":"levelo://app?vid=8da45441-0f39-4665-ba43-cdfddf67fe67","ios":"levelo://app?vid=8da45441-0f39-4665-ba43-cdfddf67fe67"},"vehicle_type_id":"4","last_reported":1745385034,"current_range_meters":10000,"station_id":"","pricing_plan_id":"cebpf4jnsgd1na2vs0mg"},{"bike_id":"04e7ef20-6f3c-45c7-abbf-bbc81edf1116","system_id":"levelo_inurba_marseille","lat":43.28688,"lon":5.3636,"is_reserved":false,"is_disabled":false,"rental_uris":{"android":"levelo://app?vid=04e7ef20-6f3c-45c7-abbf-bbc81edf1116","ios":"levelo://app?vid=04e7ef20-6f3c-45c7-abbf-bbc81edf1116"},"vehicle_type_id":"4","last_reported":1745385034,"current_range_meters":10000,"station_id":"ce4bhah2rcd13ifvqej0","pricing_plan_id":"cebpf4jnsgd1na2vs0mg"},{"bike_id":"a756bae3-49c1-4d6c-89e8-fcb7b0e7d2e2","system_id":"levelo_inurba_marseille","lat":43.290409,"lon":5.35908,"is_reserved":false,"is_disabled":true,"rental_uris":{"android":"levelo://app?vid=a756bae3-49c1-4d6c-89e8-fcb7b0e7d2e2","ios":"levelo://app?vid=a756bae3-49c1-4d6c-89e8-fcb7b0e7d2e2"},"vehicle_type_id":"4","last_reported":1745385034,"current_range_meters":10000,"station_id":"ce4bha92rcd13ifvqeg0","pricing_plan_id":"cebpf4jnsgd1na2vs0mg"},{"bike_id":"dfa00e81-f24d-4799-a072-5c5b4e571bc5","system_id":"levelo_inurba_marseille","lat":43.28639,"lon":5.36362,"is_reserved":false,"is_disabled":false,"rental_uris":{"android":"levelo://app?vid=dfa00e81-f24d-4799-a072-5c5b4e571bc5","ios":"levelo://app?vid=dfa00e81-f24d-4799-a072-5c5b4e571bc5"},"vehicle_type_id":"4","last_reported":1745385034,"current_range_meters":10000,"station_id":"ce4bhah2rcd13ifvqej0","pricing_plan_id":"cebpf4jnsgd1na2vs0mg"},{"bike_id":"c10256a6-8742-4a70-8e64-f2c56713d90b","system_id":"levelo_inurba_marseille","lat":43.28408,"lon":5.37531,"is_reserved":false,"is_disabled":false,"rental_uris":{"android":"levelo://app?vid=c10256a6-8742-4a70-8e64-f2c56713d90b","ios":"levelo://app?vid=c10256a6-8742-4a70-8e64-f2c56713d90b"},"vehicle_type_id":"4","last_reported":1745385034,"current_range_meters":10000,"station_id":"ce4bh412rcd13ifvqds0","pricing_plan_id":"cebpf4jnsgd1na2vs0mg"},{"bike_id":"0eae27b2-17db-4d87-abf7-494059b17410","system_id":"levelo_inurba_marseille","lat":43.25019,"lon":5.39611,"is_reserved":false,"is_disabled":false,"rental_uris":{"android":"levelo://app?vid=0eae27b2-17db-4d87-abf7-494059b17410","ios":"levelo://app?vid=0eae27b2-17db-4d87-abf7-494059b17410"},"vehicle_type_id":"4","last_reported":1745385034,"current_range_meters":10000,"station_id":"","pricing_plan_id":"cebpf4jnsgd1na2vs0mg"},{"bike_id":"4b41f586-c1f5-49d8-84d2-13baf5dfb423","system_id":"levelo_inurba_marseille","lat":43.30609,"lon":5.39351,"is_reserved":false,"is_disabled":false,"rental_uris":{"android":"levelo://app?vid=4b41f586-c1f5-49d8-84d2-13baf5dfb423","ios":"levelo://app?vid=4b41f586-c1f5-49d8-84d2-13baf5dfb423"},"vehicle_type_id":"4","last_reported":1745385034,"current_range_meters":10000,"station_id":"ce4bh0p2rcd13ifvqd80","pricing_plan_id":"cebpf4jnsgd1na2vs0mg"},{"bike_id":"48939965-4329-495f-a3f1-b5cf562d2ecf","system_id":"levelo_inurba_marseille","lat":43.30673,"lon":5.40101,"is_reserved":false,"is_disabled":true,"rental_uris":{"android":"levelo://app?vid=48939965-4329-495f-a3f1-b5cf562d2ecf","ios":"levelo://app?vid=48939965-4329-495f-a3f1-b5cf562d2ecf"},"vehicle_type_id":"4","last_reported":1745385034,"current_range_meters":10000,"station_id":"ce4bh112rcd13ifvqda0","pricing_plan_id":"cebpf4jnsgd1na2vs0mg"},{"bike_id":"49c0f902-eac7-4a79-adf0-d142aff51e11","system_id":"levelo_inurba_marseille","lat":43.24164,"lon":5.36399,"is_reserved":false,"is_disabled":false,"rental_uris":{"android":"levelo://app?vid=49c0f902-eac7-4a79-adf0-d142aff51e11","ios":"levelo://app?vid=49c0f902-eac7-4a79-adf0-d142aff51e11"},"vehicle_type_id":"4","last_reported":1745385034,"current_range_meters":10000,"station_id":"cpo36qri1sfpv3e86is0","pricing_plan_id":"cebpf4jnsgd1na2vs0mg"},{"bike_id":"4ffb491f-099a-46f4-b062-324b1005b615","system_id":"levelo_inurba_marseille","lat":43.31099,"lon":5.3839,"is_reserved":false,"is_disabled":false,"rental_uris":{"android":"levelo://app?vid=4ffb491f-099a-46f4-b062-324b1005b615","ios":"levelo://app?vid=4ffb491f-099a-46f4-b062-324b1005b615"},"vehicle_type_id":"4","last_reported":1745385034,"current_range_meters":10000,"station_id":"ce4bgv92rcd13ifvqcr0","pricing_plan_id":"cebpf4jnsgd1na2vs0mg"},{"bike_id":"a905d545-8ca4-46eb-9c30-f21168e7e6ed","system_id":"levelo_inurba_marseille","lat":43.29031,"lon":5.38103,"is_reserved":false,"is_disabled":true,"rental_uris":{"android":"levelo://app?vid=a905d545-8ca4-46eb-9c30-f21168e7e6ed","ios":"levelo://app?vid=a905d545-8ca4-46eb-9c30-f21168e7e6ed"},"vehicle_type_id":"4","last_reported":1745385034,"current_range_meters":10000,"station_id":"ce4bh4p2rcd13ifvqe1g","pricing_plan_id":"cebpf4jnsgd1na2vs0mg"},{"bike_id":"ae2462e3-d741-44b9-8175-77a134aeac56","system_id":"levelo_inurba_marseille","lat":43.27923,"lon":5.38699,"is_reserved":false,"is_disabled":true,"rental_uris":{"android":"levelo://app?vid=ae2462e3-d741-44b9-8175-77a134aeac56","ios":"levelo://app?vid=ae2462e3-d741-44b9-8175-77a134aeac56"},"vehicle_type_id":"4","last_reported":1745385034,"current_range_meters":10800,"station_id":"","pricing_plan_id":"cebpf4jnsgd1na2vs0mg"},{"bike_id":"75d0ff1a-0430-4730-b0a6-05b8957ac47a","system_id":"levelo_inurba_marseille","lat":43.231929,"lon":5.355508,"is_reserved":false,"is_disabled":false,"rental_uris":{"android":"levelo://app?vid=75d0ff1a-0430-4730-b0a6-05b8957ac47a","ios":"levelo://app?vid=75d0ff1a-0430-4730-b0a6-05b8957ac47a"},"vehicle_type_id":"4","last_reported":1745385034,"current_range_meters":10800,"station_id":"ce4bhu92rcd13ifvqi70","pricing_plan_id":"cebpf4jnsgd1na2vs0mg"},{"bike_id":"8d7533b3-5585-4b66-b684-60807f9907c2","system_id":"levelo_inurba_marseille","lat":43.28824,"lon":5.35857,"is_reserved":false,"is_disabled":false,"rental_uris":{"android":"levelo://app?vid=8d7533b3-5585-4b66-b684-60807f9907c2","ios":"levelo://app?vid=8d7533b3-5585-4b66-b684-60807f9907c2"},"vehicle_type_id":"4","last_reported":1745385034,"current_range_meters":10800,"station_id":"ce4bhb12rcd13ifvqem0","pricing_plan_id":"cebpf4jnsgd1na2vs0mg"},{"bike_id":"476a9fe5-6154-4202-b562-28b0995b6b4c","system_id":"levelo_inurba_marseille","lat":43.2318,"lon":5.39987,"is_reserved":false,"is_disabled":false,"rental_uris":{"android":"levelo://app?vid=476a9fe5-6154-4202-b562-28b0995b6b4c","ios":"levelo://app?vid=476a9fe5-6154-4202-b562-28b0995b6b4c"},"vehicle_type_id":"4","last_reported":1745385034,"current_range_meters":10800,"station_id":"ce4bhn12rcd13ifvqgqg","pricing_plan_id":"cebpf4jnsgd1na2vs0mg"},{"bike_id":"afc1a72d-f3cd-4039-8f8e-8907957e6ee0","system_id":"levelo_inurba_marseille","lat":43.28433,"lon":5.37525,"is_reserved":false,"is_disabled":false,"rental_uris":{"android":"levelo://app?vid=afc1a72d-f3cd-4039-8f8e-8907957e6ee0","ios":"levelo://app?vid=afc1a72d-f3cd-4039-8f8e-8907957e6ee0"},"vehicle_type_id":"4","last_reported":1745385034,"current_range_meters":11200,"station_id":"ce4bh412rcd13ifvqds0","pricing_plan_id":"cebpf4jnsgd1na2vs0mg"},{"bike_id":"85804566-32d6-4de5-bd67-1a2d8b6b5f81","system_id":"levelo_inurba_marseille","lat":43.24558,"lon":5.39532,"is_reserved":false,"is_disabled":false,"rental_uris":{"android":"levelo://app?vid=85804566-32d6-4de5-bd67-1a2d8b6b5f81","ios":"levelo://app?vid=85804566-32d6-4de5-bd67-1a2d8b6b5f81"},"vehicle_type_id":"4","last_reported":1745385034,"current_range_meters":11200,"station_id":"ce4bhlp2rcd13ifvqgjg","pricing_plan_id":"cebpf4jnsgd1na2vs0mg"},{"bike_id":"caccf6b1-eff9-41fc-9278-5e6f421f5468","system_id":"levelo_inurba_marseille","lat":43.28428,"lon":5.34997,"is_reserved":false,"is_disabled":false,"rental_uris":{"android":"levelo://app?vid=caccf6b1-eff9-41fc-9278-5e6f421f5468","ios":"levelo://app?vid=caccf6b1-eff9-41fc-9278-5e6f421f5468"},"vehicle_type_id":"4","last_reported":1745385034,"current_range_meters":11600,"station_id":"ce4bhbh2rcd13ifvqepg","pricing_plan_id":"cebpf4jnsgd1na2vs0mg"},{"bike_id":"678d1ff2-b92f-437a-a478-0a2f054c08e9","system_id":"levelo_inurba_marseille","lat":43.303429,"lon":5.368518,"is_reserved":false,"is_disabled":false,"rental_uris":{"android":"levelo://app?vid=678d1ff2-b92f-437a-a478-0a2f054c08e9","ios":"levelo://app?vid=678d1ff2-b92f-437a-a478-0a2f054c08e9"},"vehicle_type_id":"4","last_reported":1745385034,"current_range_meters":11600,"station_id":"","pricing_plan_id":"cebpf4jnsgd1na2vs0mg"},{"bike_id":"7da1f6aa-31c3-4266-959d-331273be0b6c","system_id":"levelo_inurba_marseille","lat":43.31056,"lon":5.38356,"is_reserved":false,"is_disabled":false,"rental_uris":{"android":"levelo://app?vid=7da1f6aa-31c3-4266-959d-331273be0b6c","ios":"levelo://app?vid=7da1f6aa-31c3-4266-959d-331273be0b6c"},"vehicle_type_id":"4","last_reported":1745385034,"current_range_meters":11600,"station_id":"ce4bgv92rcd13ifvqcr0","pricing_plan_id":"cebpf4jnsgd1na2vs0mg"},{"bike_id":"90b4484c-984f-48ef-a595-1fe72c96dd94","system_id":"levelo_inurba_marseille","lat":43.30935,"lon":5.40148,"is_reserved":false,"is_disabled":false,"rental_uris":{"android":"levelo://app?vid=90b4484c-984f-48ef-a595-1fe72c96dd94","ios":"levelo://app?vid=90b4484c-984f-48ef-a595-1fe72c96dd94"},"vehicle_type_id":"4","last_reported":1745385034,"current_range_meters":11600,"station_id":"ce4bgvp2rcd13ifvqct0","pricing_plan_id":"cebpf4jnsgd1na2vs0mg"},{"bike_id":"84e5b50c-8b2b-435f-afa6-a222febca0b9","system_id":"levelo_inurba_marseille","lat":43.23201,"lon":5.35563,"is_reserved":false,"is_disabled":false,"rental_uris":{"android":"levelo://app?vid=84e5b50c-8b2b-435f-afa6-a222febca0b9","ios":"levelo://app?vid=84e5b50c-8b2b-435f-afa6-a222febca0b9"},"vehicle_type_id":"4","last_reported":1745385034,"current_range_meters":12000,"station_id":"ce4bhu92rcd13ifvqi70","pricing_plan_id":"cebpf4jnsgd1na2vs0mg"},{"bike_id":"af809a5a-775f-4f97-b8fa-7a3f5aa0f7b7","system_id":"levelo_inurba_marseille","lat":43.29714,"lon":5.37705,"is_reserved":false,"is_disabled":false,"rental_uris":{"android":"levelo://app?vid=af809a5a-775f-4f97-b8fa-7a3f5aa0f7b7","ios":"levelo://app?vid=af809a5a-775f-4f97-b8fa-7a3f5aa0f7b7"},"vehicle_type_id":"4","last_reported":1745385034,"current_range_meters":12400,"station_id":"ce4bgkh2rcd13ifvqbl0","pricing_plan_id":"cebpf4jnsgd1na2vs0mg"},{"bike_id":"761ae269-6b1f-4092-8e33-c55e4d5d8dff","system_id":"levelo_inurba_marseille","lat":43.22926,"lon":5.353751,"is_reserved":false,"is_disabled":false,"rental_uris":{"android":"levelo://app?vid=761ae269-6b1f-4092-8e33-c55e4d5d8dff","ios":"levelo://app?vid=761ae269-6b1f-4092-8e33-c55e4d5d8dff"},"vehicle_type_id":"4","last_reported":1745385034,"current_range_meters":12400,"station_id":"cpo3532slgdg3j2ikp40","pricing_plan_id":"cebpf4jnsgd1na2vs0mg"},{"bike_id":"be218f89-8917-4041-9488-f81416c926e3","system_id":"levelo_inurba_marseille","lat":43.28686,"lon":5.36381,"is_reserved":false,"is_disabled":false,"rental_uris":{"android":"levelo://app?vid=be218f89-8917-4041-9488-f81416c926e3","ios":"levelo://app?vid=be218f89-8917-4041-9488-f81416c926e3"},"vehicle_type_id":"4","last_reported":1745385034,"current_range_meters":12400,"station_id":"ce4bhah2rcd13ifvqej0","pricing_plan_id":"cebpf4jnsgd1na2vs0mg"},{"bike_id":"bd84a87a-84a0-46a7-b2a5-e761b13b3dd9","system_id":"levelo_inurba_marseille","lat":43.30319,"lon":5.40449,"is_reserved":false,"is_disabled":false,"rental_uris":{"android":"levelo://app?vid=bd84a87a-84a0-46a7-b2a5-e761b13b3dd9","ios":"levelo://app?vid=bd84a87a-84a0-46a7-b2a5-e761b13b3dd9"},"vehicle_type_id":"4","last_reported":1745385034,"current_range_meters":12400,"station_id":"ce4bh012rcd13ifvqd10","pricing_plan_id":"cebpf4jnsgd1na2vs0mg"},{"bike_id":"d31fa084-bc85-41c7-8c70-f0f9d2738b6a","system_id":"levelo_inurba_marseille","lat":43.2812,"lon":5.42634,"is_reserved":false,"is_disabled":false,"rental_uris":{"android":"levelo://app?vid=d31fa084-bc85-41c7-8c70-f0f9d2738b6a","ios":"levelo://app?vid=d31fa084-bc85-41c7-8c70-f0f9d2738b6a"},"vehicle_type_id":"4","last_reported":1745385034,"current_range_meters":12800,"station_id":"ce4bhnh2rcd13ifvqgug","pricing_plan_id":"cebpf4jnsgd1na2vs0mg"},{"bike_id":"1e2cc1b2-544f-40a6-9711-53b33fe8529b","system_id":"levelo_inurba_marseille","lat":43.31979,"lon":5.381522,"is_reserved":false,"is_disabled":false,"rental_uris":{"android":"levelo://app?vid=1e2cc1b2-544f-40a6-9711-53b33fe8529b","ios":"levelo://app?vid=1e2cc1b2-544f-40a6-9711-53b33fe8529b"},"vehicle_type_id":"4","last_reported":1745385034,"current_range_meters":13600,"station_id":"ce4bhr12rcd13ifvqhpg","pricing_plan_id":"cebpf4jnsgd1na2vs0mg"},{"bike_id":"b3a8fcab-2cbb-4241-8df1-178d0e212912","system_id":"levelo_inurba_marseille","lat":43.2539,"lon":5.418526,"is_reserved":false,"is_disabled":false,"rental_uris":{"android":"levelo://app?vid=b3a8fcab-2cbb-4241-8df1-178d0e212912","ios":"levelo://app?vid=b3a8fcab-2cbb-4241-8df1-178d0e212912"},"vehicle_type_id":"4","last_reported":1745385034,"current_range_meters":13600,"station_id":"","pricing_plan_id":"cebpf4jnsgd1na2vs0mg"},{"bike_id":"df6ffc41-ed4d-4c2c-af47-12b33fc50735","system_id":"levelo_inurba_marseille","lat":43.25107,"lon":5.403519,"is_reserved":false,"is_disabled":false,"rental_uris":{"android":"levelo://app?vid=df6ffc41-ed4d-4c2c-af47-12b33fc50735","ios":"levelo://app?vid=df6ffc41-ed4d-4c2c-af47-12b33fc50735"},"vehicle_type_id":"4","last_reported":1745385034,"current_range_meters":13600,"station_id":"ce4bhlh2rcd13ifvqgig","pricing_plan_id":"cebpf4jnsgd1na2vs0mg"},{"bike_id":"7a93f214-e369-420b-90b3-c0c05b34e7a9","system_id":"levelo_inurba_marseille","lat":43.28354,"lon":5.38105,"is_reserved":false,"is_disabled":false,"rental_uris":{"android":"levelo://app?vid=7a93f214-e369-420b-90b3-c0c05b34e7a9","ios":"levelo://app?vid=7a93f214-e369-420b-90b3-c0c05b34e7a9"},"vehicle_type_id":"4","last_reported":1745385034,"current_range_meters":14000,"station_id":"ce4bh412rcd13ifvqdr0","pricing_plan_id":"cebpf4jnsgd1na2vs0mg"},{"bike_id":"abd226a8-d003-4133-b9d2-b7c952b7ead1","system_id":"levelo_inurba_marseille","lat":43.230591,"lon":5.354901,"is_reserved":false,"is_disabled":false,"rental_uris":{"android":"levelo://app?vid=abd226a8-d003-4133-b9d2-b7c952b7ead1","ios":"levelo://app?vid=abd226a8-d003-4133-b9d2-b7c952b7ead1"},"vehicle_type_id":"4","last_reported":1745385034,"current_range_meters":14000,"station_id":"cpo3342slgdg3j2ifvpg","pricing_plan_id":"cebpf4jnsgd1na2vs0mg"},{"bike_id":"7c110556-51f7-4ebc-a93b-d3e946a92a50","system_id":"levelo_inurba_marseille","lat":43.316993,"lon":5.436961,"is_reserved":false,"is_disabled":false,"rental_uris":{"android":"levelo://app?vid=7c110556-51f7-4ebc-a93b-d3e946a92a50","ios":"levelo://app?vid=7c110556-51f7-4ebc-a93b-d3e946a92a50"},"vehicle_type_id":"4","last_reported":1745385034,"current_range_meters":14000,"station_id":"ce4bhp92rcd13ifvqhcg","pricing_plan_id":"cebpf4jnsgd1na2vs0mg"},{"bike_id":"9c5758bf-33b5-4a52-afd2-c8734b4dca48","system_id":"levelo_inurba_marseille","lat":43.310725,"lon":5.38352,"is_reserved":false,"is_disabled":false,"rental_uris":{"android":"levelo://app?vid=9c5758bf-33b5-4a52-afd2-c8734b4dca48","ios":"levelo://app?vid=9c5758bf-33b5-4a52-afd2-c8734b4dca48"},"vehicle_type_id":"4","last_reported":1745385034,"current_range_meters":14400,"station_id":"ce4bgv92rcd13ifvqcr0","pricing_plan_id":"cebpf4jnsgd1na2vs0mg"},{"bike_id":"fc3d2ab0-bdd4-4aaa-87b1-f549a28d510f","system_id":"levelo_inurba_marseille","lat":43.303186,"lon":5.404481,"is_reserved":false,"is_disabled":false,"rental_uris":{"android":"levelo://app?vid=fc3d2ab0-bdd4-4aaa-87b1-f549a28d510f","ios":"levelo://app?vid=fc3d2ab0-bdd4-4aaa-87b1-f549a28d510f"},"vehicle_type_id":"4","last_reported":1745385034,"current_range_meters":14400,"station_id":"ce4bh012rcd13ifvqd10","pricing_plan_id":"cebpf4jnsgd1na2vs0mg"},{"bike_id":"5411c9c0-eb3a-475d-9e43-a89c6557a708","system_id":"levelo_inurba_marseille","lat":43.27984,"lon":5.41658,"is_reserved":false,"is_disabled":false,"rental_uris":{"android":"levelo://app?vid=5411c9c0-eb3a-475d-9e43-a89c6557a708","ios":"levelo://app?vid=5411c9c0-eb3a-475d-9e43-a89c6557a708"},"vehicle_type_id":"4","last_reported":1745385034,"current_range_meters":14400,"station_id":"ce4bho12rcd13ifvqh1g","pricing_plan_id":"cebpf4jnsgd1na2vs0mg"},{"bike_id":"431ee9a0-8df4-49a4-b75e-37a2264361b8","system_id":"levelo_inurba_marseille","lat":43.298803,"lon":5.39747,"is_reserved":false,"is_disabled":false,"rental_uris":{"android":"levelo://app?vid=431ee9a0-8df4-49a4-b75e-37a2264361b8","ios":"levelo://app?vid=431ee9a0-8df4-49a4-b75e-37a2264361b8"},"vehicle_type_id":"4","last_reported":1745385034,"current_range_meters":14400,"station_id":"ce4bh0h2rcd13ifvqd50","pricing_plan_id":"cebpf4jnsgd1na2vs0mg"},{"bike_id":"1b903b38-38de-4714-9a2c-59836acfa168","system_id":"levelo_inurba_marseille","lat":43.31716,"lon":5.43708,"is_reserved":false,"is_disabled":true,"rental_uris":{"android":"levelo://app?vid=1b903b38-38de-4714-9a2c-59836acfa168","ios":"levelo://app?vid=1b903b38-38de-4714-9a2c-59836acfa168"},"vehicle_type_id":"4","last_reported":1745385034,"current_range_meters":14400,"station_id":"ce4bhp92rcd13ifvqhcg","pricing_plan_id":"cebpf4jnsgd1na2vs0mg"},{"bike_id":"4058f62d-ca8f-492f-8fca-74ec3189f044","system_id":"levelo_inurba_marseille","lat":43.29868,"lon":5.39747,"is_reserved":false,"is_disabled":false,"rental_uris":{"android":"levelo://app?vid=4058f62d-ca8f-492f-8fca-74ec3189f044","ios":"levelo://app?vid=4058f62d-ca8f-492f-8fca-74ec3189f044"},"vehicle_type_id":"4","last_reported":1745385034,"current_range_meters":14800,"station_id":"ce4bh0h2rcd13ifvqd50","pricing_plan_id":"cebpf4jnsgd1na2vs0mg"},{"bike_id":"de76bfeb-dd4b-492e-b3f8-88f28c9db3a4","system_id":"levelo_inurba_marseille","lat":43.28341,"lon":5.38109,"is_reserved":false,"is_disabled":false,"rental_uris":{"android":"levelo://app?vid=de76bfeb-dd4b-492e-b3f8-88f28c9db3a4","ios":"levelo://app?vid=de76bfeb-dd4b-492e-b3f8-88f28c9db3a4"},"vehicle_type_id":"4","last_reported":1745385034,"current_range_meters":14800,"station_id":"ce4bh412rcd13ifvqdr0","pricing_plan_id":"cebpf4jnsgd1na2vs0mg"},{"bike_id":"b96d48d5-fc65-423b-9a30-5d2c864e8939","system_id":"levelo_inurba_marseille","lat":43.22496,"lon":5.34792,"is_reserved":false,"is_disabled":false,"rental_uris":{"android":"levelo://app?vid=b96d48d5-fc65-423b-9a30-5d2c864e8939","ios":"levelo://app?vid=b96d48d5-fc65-423b-9a30-5d2c864e8939"},"vehicle_type_id":"4","last_reported":1745385034,"current_range_meters":14800,"station_id":"st_cvj5dfep6f1abm77gieg","pricing_plan_id":"cebpf4jnsgd1na2vs0mg"},{"bike_id":"343330a0-d174-4d03-8f15-5f3db8b6a018","system_id":"levelo_inurba_marseille","lat":43.3095,"lon":5.39047,"is_reserved":false,"is_disabled":false,"rental_uris":{"android":"levelo://app?vid=343330a0-d174-4d03-8f15-5f3db8b6a018","ios":"levelo://app?vid=343330a0-d174-4d03-8f15-5f3db8b6a018"},"vehicle_type_id":"4","last_reported":1745385034,"current_range_meters":14800,"station_id":"ce4bgup2rcd13ifvqco0","pricing_plan_id":"cebpf4jnsgd1na2vs0mg"},{"bike_id":"85dd36d0-9c2d-4eab-ad8d-768f1f02f518","system_id":"levelo_inurba_marseille","lat":43.26631,"lon":5.382923,"is_reserved":false,"is_disabled":false,"rental_uris":{"android":"levelo://app?vid=85dd36d0-9c2d-4eab-ad8d-768f1f02f518","ios":"levelo://app?vid=85dd36d0-9c2d-4eab-ad8d-768f1f02f518"},"vehicle_type_id":"4","last_reported":1745385034,"current_range_meters":14800,"station_id":"","pricing_plan_id":"cebpf4jnsgd1na2vs0mg"},{"bike_id":"d8ef3988-002f-42dc-b706-ecebe9835e72","system_id":"levelo_inurba_marseille","lat":43.29916,"lon":5.43655,"is_reserved":false,"is_disabled":false,"rental_uris":{"android":"levelo://app?vid=d8ef3988-002f-42dc-b706-ecebe9835e72","ios":"levelo://app?vid=d8ef3988-002f-42dc-b706-ecebe9835e72"},"vehicle_type_id":"4","last_reported":1745385034,"current_range_meters":15200,"station_id":"ce4bhpp2rcd13ifvqhfg","pricing_plan_id":"cebpf4jnsgd1na2vs0mg"},{"bike_id":"9f2e2972-dc86-4c24-8a83-22c0ee111c3e","system_id":"levelo_inurba_marseille","lat":43.31249,"lon":5.36782,"is_reserved":false,"is_disabled":true,"rental_uris":{"android":"levelo://app?vid=9f2e2972-dc86-4c24-8a83-22c0ee111c3e","ios":"levelo://app?vid=9f2e2972-dc86-4c24-8a83-22c0ee111c3e"},"vehicle_type_id":"4","last_reported":1745385034,"current_range_meters":15200,"station_id":"ce4bgl92rcd13ifvqbq0","pricing_plan_id":"cebpf4jnsgd1na2vs0mg"},{"bike_id":"602b5f96-6a4b-4aa5-bb1e-7ed29f4a890c","system_id":"levelo_inurba_marseille","lat":43.28677,"lon":5.36353,"is_reserved":false,"is_disabled":false,"rental_uris":{"android":"levelo://app?vid=602b5f96-6a4b-4aa5-bb1e-7ed29f4a890c","ios":"levelo://app?vid=602b5f96-6a4b-4aa5-bb1e-7ed29f4a890c"},"vehicle_type_id":"4","last_reported":1745385034,"current_range_meters":15200,"station_id":"ce4bhah2rcd13ifvqej0","pricing_plan_id":"cebpf4jnsgd1na2vs0mg"},{"bike_id":"9f1e349e-7f44-420f-95ec-c319dae210f6","system_id":"levelo_inurba_marseille","lat":43.292113,"lon":5.383859,"is_reserved":false,"is_disabled":true,"rental_uris":{"android":"levelo://app?vid=9f1e349e-7f44-420f-95ec-c319dae210f6","ios":"levelo://app?vid=9f1e349e-7f44-420f-95ec-c319dae210f6"},"vehicle_type_id":"4","last_reported":1745385034,"current_range_meters":15200,"station_id":"","pricing_plan_id":"cebpf4jnsgd1na2vs0mg"},{"bike_id":"65a55bbb-55a0-4724-997d-771326c7aea8","system_id":"levelo_inurba_marseille","lat":43.29839,"lon":5.36273,"is_reserved":false,"is_disabled":false,"rental_uris":{"android":"levelo://app?vid=65a55bbb-55a0-4724-997d-771326c7aea8","ios":"levelo://app?vid=65a55bbb-55a0-4724-997d-771326c7aea8"},"vehicle_type_id":"4","last_reported":1745385034,"current_range_meters":16800,"station_id":"ce4bgpp2rcd13ifvqc3g","pricing_plan_id":"cebpf4jnsgd1na2vs0mg"},{"bike_id":"d962937d-a2c0-4f7f-9d5f-d2025eec3422","system_id":"levelo_inurba_marseille","lat":43.25394,"lon":5.41868,"is_reserved":false,"is_disabled":false,"rental_uris":{"android":"levelo://app?vid=d962937d-a2c0-4f7f-9d5f-d2025eec3422","ios":"levelo://app?vid=d962937d-a2c0-4f7f-9d5f-d2025eec3422"},"vehicle_type_id":"4","last_reported":1745385034,"current_range_meters":15200,"station_id":"","pricing_plan_id":"cebpf4jnsgd1na2vs0mg"},{"bike_id":"ed08392d-6642-4271-b365-ca0e459bf62c","system_id":"levelo_inurba_marseille","lat":43.309437,"lon":5.390521,"is_reserved":false,"is_disabled":false,"rental_uris":{"android":"levelo://app?vid=ed08392d-6642-4271-b365-ca0e459bf62c","ios":"levelo://app?vid=ed08392d-6642-4271-b365-ca0e459bf62c"},"vehicle_type_id":"4","last_reported":1745385034,"current_range_meters":15200,"station_id":"ce4bgup2rcd13ifvqco0","pricing_plan_id":"cebpf4jnsgd1na2vs0mg"},{"bike_id":"b1f734f9-c54d-4612-aa27-ec543a361e81","system_id":"levelo_inurba_marseille","lat":43.304276,"lon":5.413057,"is_reserved":false,"is_disabled":false,"rental_uris":{"android":"levelo://app?vid=b1f734f9-c54d-4612-aa27-ec543a361e81","ios":"levelo://app?vid=b1f734f9-c54d-4612-aa27-ec543a361e81"},"vehicle_type_id":"4","last_reported":1745385034,"current_range_meters":15200,"station_id":"ce4bhoh2rcd13ifvqh6g","pricing_plan_id":"cebpf4jnsgd1na2vs0mg"},{"bike_id":"526a37d1-d79a-4bda-99ab-f247d15dd55e","system_id":"levelo_inurba_marseille","lat":43.30611,"lon":5.39341,"is_reserved":false,"is_disabled":false,"rental_uris":{"android":"levelo://app?vid=526a37d1-d79a-4bda-99ab-f247d15dd55e","ios":"levelo://app?vid=526a37d1-d79a-4bda-99ab-f247d15dd55e"},"vehicle_type_id":"4","last_reported":1745385034,"current_range_meters":16000,"station_id":"ce4bh0p2rcd13ifvqd80","pricing_plan_id":"cebpf4jnsgd1na2vs0mg"},{"bike_id":"a2cd96ce-ec64-4b66-9366-b21846e2b86a","system_id":"levelo_inurba_marseille","lat":43.27068,"lon":5.40259,"is_reserved":false,"is_disabled":false,"rental_uris":{"android":"levelo://app?vid=a2cd96ce-ec64-4b66-9366-b21846e2b86a","ios":"levelo://app?vid=a2cd96ce-ec64-4b66-9366-b21846e2b86a"},"vehicle_type_id":"4","last_reported":1745385034,"current_range_meters":16000,"station_id":"ce4bhk92rcd13ifvqgc0","pricing_plan_id":"cebpf4jnsgd1na2vs0mg"},{"bike_id":"e8c28d79-629e-4f3a-8b90-65c266b29d65","system_id":"levelo_inurba_marseille","lat":43.31744,"lon":5.39029,"is_reserved":false,"is_disabled":false,"rental_uris":{"android":"levelo://app?vid=e8c28d79-629e-4f3a-8b90-65c266b29d65","ios":"levelo://app?vid=e8c28d79-629e-4f3a-8b90-65c266b29d65"},"vehicle_type_id":"4","last_reported":1745385034,"current_range_meters":16000,"station_id":"ce4bhqp2rcd13ifvqhng","pricing_plan_id":"cebpf4jnsgd1na2vs0mg"},{"bike_id":"2958702b-6f60-4c23-88d4-37649b2b931b","system_id":"levelo_inurba_marseille","lat":43.29869,"lon":5.39747,"is_reserved":false,"is_disabled":false,"rental_uris":{"android":"levelo://app?vid=2958702b-6f60-4c23-88d4-37649b2b931b","ios":"levelo://app?vid=2958702b-6f60-4c23-88d4-37649b2b931b"},"vehicle_type_id":"4","last_reported":1745385034,"current_range_meters":16000,"station_id":"ce4bh0h2rcd13ifvqd50","pricing_plan_id":"cebpf4jnsgd1na2vs0mg"},{"bike_id":"3dc9b447-ed0f-403d-b2c4-588d2c51e199","system_id":"levelo_inurba_marseille","lat":43.30961,"lon":5.39051,"is_reserved":false,"is_disabled":false,"rental_uris":{"android":"levelo://app?vid=3dc9b447-ed0f-403d-b2c4-588d2c51e199","ios":"levelo://app?vid=3dc9b447-ed0f-403d-b2c4-588d2c51e199"},"vehicle_type_id":"4","last_reported":1745385034,"current_range_meters":16000,"station_id":"ce4bgup2rcd13ifvqco0","pricing_plan_id":"cebpf4jnsgd1na2vs0mg"},{"bike_id":"59cb0434-8790-4d26-b628-d1d8b5f30bdd","system_id":"levelo_inurba_marseille","lat":43.324812,"lon":5.365669,"is_reserved":false,"is_disabled":false,"rental_uris":{"android":"levelo://app?vid=59cb0434-8790-4d26-b628-d1d8b5f30bdd","ios":"levelo://app?vid=59cb0434-8790-4d26-b628-d1d8b5f30bdd"},"vehicle_type_id":"4","last_reported":1745385034,"current_range_meters":16000,"station_id":"ce4bhs12rcd13ifvqhvg","pricing_plan_id":"cebpf4jnsgd1na2vs0mg"},{"bike_id":"a1835b16-9e05-4b53-baf5-10eeb04320bb","system_id":"levelo_inurba_marseille","lat":43.28687,"lon":5.3741,"is_reserved":false,"is_disabled":true,"rental_uris":{"android":"levelo://app?vid=a1835b16-9e05-4b53-baf5-10eeb04320bb","ios":"levelo://app?vid=a1835b16-9e05-4b53-baf5-10eeb04320bb"},"vehicle_type_id":"4","last_reported":1745385034,"current_range_meters":16400,"station_id":"ce4bh3p2rcd13ifvqdq0","pricing_plan_id":"cebpf4jnsgd1na2vs0mg"},{"bike_id":"c9fbd267-6461-49b6-bc49-a6bd29ccb0c5","system_id":"levelo_inurba_marseille","lat":43.316879,"lon":5.404639,"is_reserved":false,"is_disabled":false,"rental_uris":{"android":"levelo://app?vid=c9fbd267-6461-49b6-bc49-a6bd29ccb0c5","ios":"levelo://app?vid=c9fbd267-6461-49b6-bc49-a6bd29ccb0c5"},"vehicle_type_id":"4","last_reported":1745385034,"current_range_meters":16400,"station_id":"ce4bh012rcd13ifvqd00","pricing_plan_id":"cebpf4jnsgd1na2vs0mg"},{"bike_id":"0529d891-2d9b-4d93-af79-27336fdd5c7e","system_id":"levelo_inurba_marseille","lat":43.28027,"lon":5.36958,"is_reserved":false,"is_disabled":false,"rental_uris":{"android":"levelo://app?vid=0529d891-2d9b-4d93-af79-27336fdd5c7e","ios":"levelo://app?vid=0529d891-2d9b-4d93-af79-27336fdd5c7e"},"vehicle_type_id":"4","last_reported":1745385034,"current_range_meters":16400,"station_id":"ce4bha12rcd13ifvqef0","pricing_plan_id":"cebpf4jnsgd1na2vs0mg"},{"bike_id":"d20e929c-75aa-460a-a593-efd1da3a752a","system_id":"levelo_inurba_marseille","lat":43.28049,"lon":5.39669,"is_reserved":false,"is_disabled":false,"rental_uris":{"android":"levelo://app?vid=d20e929c-75aa-460a-a593-efd1da3a752a","ios":"levelo://app?vid=d20e929c-75aa-460a-a593-efd1da3a752a"},"vehicle_type_id":"4","last_reported":1745385034,"current_range_meters":16400,"station_id":"ce4bho12rcd13ifvqh2g","pricing_plan_id":"cebpf4jnsgd1na2vs0mg"},{"bike_id":"3e8f0127-96fd-4fdd-97f2-be6e836f9523","system_id":"levelo_inurba_marseille","lat":43.33792,"lon":5.37429,"is_reserved":false,"is_disabled":false,"rental_uris":{"android":"levelo://app?vid=3e8f0127-96fd-4fdd-97f2-be6e836f9523","ios":"levelo://app?vid=3e8f0127-96fd-4fdd-97f2-be6e836f9523"},"vehicle_type_id":"4","last_reported":1745385034,"current_range_meters":16400,"station_id":"","pricing_plan_id":"cebpf4jnsgd1na2vs0mg"},{"bike_id":"634a3616-ccac-4462-b5ee-9c72516d63ee","system_id":"levelo_inurba_marseille","lat":43.28859,"lon":5.35851,"is_reserved":false,"is_disabled":false,"rental_uris":{"android":"levelo://app?vid=634a3616-ccac-4462-b5ee-9c72516d63ee","ios":"levelo://app?vid=634a3616-ccac-4462-b5ee-9c72516d63ee"},"vehicle_type_id":"4","last_reported":1745385034,"current_range_meters":16800,"station_id":"ce4bhb12rcd13ifvqem0","pricing_plan_id":"cebpf4jnsgd1na2vs0mg"},{"bike_id":"e954e2cd-48db-49d5-b8c3-76c1dae8719a","system_id":"levelo_inurba_marseille","lat":43.313291,"lon":5.396917,"is_reserved":false,"is_disabled":false,"rental_uris":{"android":"levelo://app?vid=e954e2cd-48db-49d5-b8c3-76c1dae8719a","ios":"levelo://app?vid=e954e2cd-48db-49d5-b8c3-76c1dae8719a"},"vehicle_type_id":"4","last_reported":1745385034,"current_range_meters":16800,"station_id":"ce4bgvp2rcd13ifvqcu0","pricing_plan_id":"cebpf4jnsgd1na2vs0mg"},{"bike_id":"e52263de-f4c1-4bfb-bf0f-4c29ad7553d6","system_id":"levelo_inurba_marseille","lat":43.33736,"lon":5.39209,"is_reserved":false,"is_disabled":false,"rental_uris":{"android":"levelo://app?vid=e52263de-f4c1-4bfb-bf0f-4c29ad7553d6","ios":"levelo://app?vid=e52263de-f4c1-4bfb-bf0f-4c29ad7553d6"},"vehicle_type_id":"4","last_reported":1745385034,"current_range_meters":16800,"station_id":"ce4bhr92rcd13ifvqhsg","pricing_plan_id":"cebpf4jnsgd1na2vs0mg"},{"bike_id":"29190277-9c68-44eb-8885-aafbd2c00a49","system_id":"levelo_inurba_marseille","lat":43.301365,"lon":5.398823,"is_reserved":false,"is_disabled":true,"rental_uris":{"android":"levelo://app?vid=29190277-9c68-44eb-8885-aafbd2c00a49","ios":"levelo://app?vid=29190277-9c68-44eb-8885-aafbd2c00a49"},"vehicle_type_id":"4","last_reported":1745385034,"current_range_meters":16800,"station_id":"ce4bh0h2rcd13ifvqd40","pricing_plan_id":"cebpf4jnsgd1na2vs0mg"},{"bike_id":"2f20e822-0a70-4928-9aa6-4b3727afe02f","system_id":"levelo_inurba_marseille","lat":43.29669,"lon":5.36612,"is_reserved":false,"is_disabled":true,"rental_uris":{"android":"levelo://app?vid=2f20e822-0a70-4928-9aa6-4b3727afe02f","ios":"levelo://app?vid=2f20e822-0a70-4928-9aa6-4b3727afe02f"},"vehicle_type_id":"4","last_reported":1745385034,"current_range_meters":16800,"station_id":"ce4bgn12rcd13ifvqbt0","pricing_plan_id":"cebpf4jnsgd1na2vs0mg"},{"bike_id":"b5d609bf-0c9b-49e3-9426-ce02cb8383b8","system_id":"levelo_inurba_marseille","lat":43.341465,"lon":5.409092,"is_reserved":false,"is_disabled":true,"rental_uris":{"android":"levelo://app?vid=b5d609bf-0c9b-49e3-9426-ce02cb8383b8","ios":"levelo://app?vid=b5d609bf-0c9b-49e3-9426-ce02cb8383b8"},"vehicle_type_id":"4","last_reported":1745385034,"current_range_meters":17200,"station_id":"ce4bhqh2rcd13ifvqhlg","pricing_plan_id":"cebpf4jnsgd1na2vs0mg"},{"bike_id":"6837ea04-1c78-4d88-bdcf-66d75fd1d55e","system_id":"levelo_inurba_marseille","lat":43.30942,"lon":5.40177,"is_reserved":false,"is_disabled":false,"rental_uris":{"android":"levelo://app?vid=6837ea04-1c78-4d88-bdcf-66d75fd1d55e","ios":"levelo://app?vid=6837ea04-1c78-4d88-bdcf-66d75fd1d55e"},"vehicle_type_id":"4","last_reported":1745385034,"current_range_meters":17200,"station_id":"ce4bgvp2rcd13ifvqct0","pricing_plan_id":"cebpf4jnsgd1na2vs0mg"},{"bike_id":"0e14f297-335c-4b13-a29d-8dfe435552fb","system_id":"levelo_inurba_marseille","lat":43.28114,"lon":5.37898,"is_reserved":false,"is_disabled":false,"rental_uris":{"android":"levelo://app?vid=0e14f297-335c-4b13-a29d-8dfe435552fb","ios":"levelo://app?vid=0e14f297-335c-4b13-a29d-8dfe435552fb"},"vehicle_type_id":"4","last_reported":1745385034,"current_range_meters":17200,"station_id":"","pricing_plan_id":"cebpf4jnsgd1na2vs0mg"},{"bike_id":"e9bfc791-d140-43b1-b0a3-c2737658d5de","system_id":"levelo_inurba_marseille","lat":43.22938,"lon":5.3539,"is_reserved":false,"is_disabled":false,"rental_uris":{"android":"levelo://app?vid=e9bfc791-d140-43b1-b0a3-c2737658d5de","ios":"levelo://app?vid=e9bfc791-d140-43b1-b0a3-c2737658d5de"},"vehicle_type_id":"4","last_reported":1745385034,"current_range_meters":17200,"station_id":"cpo3532slgdg3j2ikp40","pricing_plan_id":"cebpf4jnsgd1na2vs0mg"},{"bike_id":"65c5fe2e-eff6-4a07-8a80-426ebf2900fe","system_id":"levelo_inurba_marseille","lat":43.30142,"lon":5.38083,"is_reserved":false,"is_disabled":false,"rental_uris":{"android":"levelo://app?vid=65c5fe2e-eff6-4a07-8a80-426ebf2900fe","ios":"levelo://app?vid=65c5fe2e-eff6-4a07-8a80-426ebf2900fe"},"vehicle_type_id":"4","last_reported":1745385034,"current_range_meters":17200,"station_id":"ce4bgjp2rcd13ifvqbh0","pricing_plan_id":"cebpf4jnsgd1na2vs0mg"},{"bike_id":"2685848c-9b18-4d36-80b5-625cbafb53e0","system_id":"levelo_inurba_marseille","lat":43.3019,"lon":5.38082,"is_reserved":false,"is_disabled":false,"rental_uris":{"android":"levelo://app?vid=2685848c-9b18-4d36-80b5-625cbafb53e0","ios":"levelo://app?vid=2685848c-9b18-4d36-80b5-625cbafb53e0"},"vehicle_type_id":"4","last_reported":1745385034,"current_range_meters":17200,"station_id":"ce4bgjp2rcd13ifvqbh0","pricing_plan_id":"cebpf4jnsgd1na2vs0mg"},{"bike_id":"a5588965-43f6-457c-a175-2d7ddf9f4595","system_id":"levelo_inurba_marseille","lat":43.32011,"lon":5.3811,"is_reserved":false,"is_disabled":false,"rental_uris":{"android":"levelo://app?vid=a5588965-43f6-457c-a175-2d7ddf9f4595","ios":"levelo://app?vid=a5588965-43f6-457c-a175-2d7ddf9f4595"},"vehicle_type_id":"4","last_reported":1745385034,"current_range_meters":17600,"station_id":"","pricing_plan_id":"cebpf4jnsgd1na2vs0mg"},{"bike_id":"46374c49-3adc-4c5a-8966-e00f056c0d57","system_id":"levelo_inurba_marseille","lat":43.27846,"lon":5.35442,"is_reserved":false,"is_disabled":false,"rental_uris":{"android":"levelo://app?vid=46374c49-3adc-4c5a-8966-e00f056c0d57","ios":"levelo://app?vid=46374c49-3adc-4c5a-8966-e00f056c0d57"},"vehicle_type_id":"4","last_reported":1745385034,"current_range_meters":17600,"station_id":"","pricing_plan_id":"cebpf4jnsgd1na2vs0mg"},{"bike_id":"06a7d8fd-e91a-4bfc-90c7-ecd4ef537301","system_id":"levelo_inurba_marseille","lat":43.313386,"lon":5.396985,"is_reserved":false,"is_disabled":false,"rental_uris":{"android":"levelo://app?vid=06a7d8fd-e91a-4bfc-90c7-ecd4ef537301","ios":"levelo://app?vid=06a7d8fd-e91a-4bfc-90c7-ecd4ef537301"},"vehicle_type_id":"4","last_reported":1745385034,"current_range_meters":18000,"station_id":"ce4bgvp2rcd13ifvqcu0","pricing_plan_id":"cebpf4jnsgd1na2vs0mg"},{"bike_id":"d5e26789-4b3f-427d-ac2d-c442d3cbf1fb","system_id":"levelo_inurba_marseille","lat":43.28409,"lon":5.37532,"is_reserved":false,"is_disabled":false,"rental_uris":{"android":"levelo://app?vid=d5e26789-4b3f-427d-ac2d-c442d3cbf1fb","ios":"levelo://app?vid=d5e26789-4b3f-427d-ac2d-c442d3cbf1fb"},"vehicle_type_id":"4","last_reported":1745385034,"current_range_meters":18000,"station_id":"ce4bh412rcd13ifvqds0","pricing_plan_id":"cebpf4jnsgd1na2vs0mg"},{"bike_id":"9966e2c4-c438-4020-9570-af75c54f7699","system_id":"levelo_inurba_marseille","lat":43.2512,"lon":5.40333,"is_reserved":false,"is_disabled":false,"rental_uris":{"android":"levelo://app?vid=9966e2c4-c438-4020-9570-af75c54f7699","ios":"levelo://app?vid=9966e2c4-c438-4020-9570-af75c54f7699"},"vehicle_type_id":"4","last_reported":1745385034,"current_range_meters":18000,"station_id":"ce4bhlh2rcd13ifvqgig","pricing_plan_id":"cebpf4jnsgd1na2vs0mg"},{"bike_id":"f9157afc-b242-494b-8d94-78d49168e982","system_id":"levelo_inurba_marseille","lat":43.31259,"lon":5.40186,"is_reserved":false,"is_disabled":false,"rental_uris":{"android":"levelo://app?vid=f9157afc-b242-494b-8d94-78d49168e982","ios":"levelo://app?vid=f9157afc-b242-494b-8d94-78d49168e982"},"vehicle_type_id":"4","last_reported":1745385034,"current_range_meters":18000,"station_id":"ce4bh092rcd13ifvqd30","pricing_plan_id":"cebpf4jnsgd1na2vs0mg"},{"bike_id":"b244cdd7-891e-41d3-bbdf-d6e3de24d190","system_id":"levelo_inurba_marseille","lat":43.29157,"lon":5.35821,"is_reserved":false,"is_disabled":true,"rental_uris":{"android":"levelo://app?vid=b244cdd7-891e-41d3-bbdf-d6e3de24d190","ios":"levelo://app?vid=b244cdd7-891e-41d3-bbdf-d6e3de24d190"},"vehicle_type_id":"4","last_reported":1745385034,"current_range_meters":18800,"station_id":"","pricing_plan_id":"cebpf4jnsgd1na2vs0mg"},{"bike_id":"a8136eea-574d-4ad9-8613-46175fb5aad1","system_id":"levelo_inurba_marseille","lat":43.24682,"lon":5.38149,"is_reserved":false,"is_disabled":false,"rental_uris":{"android":"levelo://app?vid=a8136eea-574d-4ad9-8613-46175fb5aad1","ios":"levelo://app?vid=a8136eea-574d-4ad9-8613-46175fb5aad1"},"vehicle_type_id":"4","last_reported":1745385034,"current_range_meters":18800,"station_id":"ce4bhih2rcd13ifvqfr0","pricing_plan_id":"cebpf4jnsgd1na2vs0mg"},{"bike_id":"7b2dc864-a4e9-468c-9cee-f3075a20977d","system_id":"levelo_inurba_marseille","lat":43.31499,"lon":5.37381,"is_reserved":false,"is_disabled":false,"rental_uris":{"android":"levelo://app?vid=7b2dc864-a4e9-468c-9cee-f3075a20977d","ios":"levelo://app?vid=7b2dc864-a4e9-468c-9cee-f3075a20977d"},"vehicle_type_id":"4","last_reported":1745385034,"current_range_meters":18800,"station_id":"","pricing_plan_id":"cebpf4jnsgd1na2vs0mg"},{"bike_id":"34092322-88d5-49d6-98c0-54da3aae8180","system_id":"levelo_inurba_marseille","lat":43.30372,"lon":5.42503,"is_reserved":false,"is_disabled":false,"rental_uris":{"android":"levelo://app?vid=34092322-88d5-49d6-98c0-54da3aae8180","ios":"levelo://app?vid=34092322-88d5-49d6-98c0-54da3aae8180"},"vehicle_type_id":"4","last_reported":1745385034,"current_range_meters":18800,"station_id":"ce4bhoh2rcd13ifvqh6g","pricing_plan_id":"cebpf4jnsgd1na2vs0mg"},{"bike_id":"8103cb5a-dd4d-47ee-b3de-6aff984f5cf1","system_id":"levelo_inurba_marseille","lat":43.30473,"lon":5.37912,"is_reserved":false,"is_disabled":false,"rental_uris":{"android":"levelo://app?vid=8103cb5a-dd4d-47ee-b3de-6aff984f5cf1","ios":"levelo://app?vid=8103cb5a-dd4d-47ee-b3de-6aff984f5cf1"},"vehicle_type_id":"4","last_reported":1745385034,"current_range_meters":18800,"station_id":"ce4bgup2rcd13ifvqcn0","pricing_plan_id":"cebpf4jnsgd1na2vs0mg"},{"bike_id":"dc0a47a3-e95c-4b5c-91ea-602c9dce4fa5","system_id":"levelo_inurba_marseille","lat":43.231877,"lon":5.399805,"is_reserved":false,"is_disabled":false,"rental_uris":{"android":"levelo://app?vid=dc0a47a3-e95c-4b5c-91ea-602c9dce4fa5","ios":"levelo://app?vid=dc0a47a3-e95c-4b5c-91ea-602c9dce4fa5"},"vehicle_type_id":"4","last_reported":1745385034,"current_range_meters":18800,"station_id":"ce4bhn12rcd13ifvqgqg","pricing_plan_id":"cebpf4jnsgd1na2vs0mg"},{"bike_id":"2c210749-934e-4075-8f69-64b44da87771","system_id":"levelo_inurba_marseille","lat":43.30297,"lon":5.39215,"is_reserved":false,"is_disabled":true,"rental_uris":{"android":"levelo://app?vid=2c210749-934e-4075-8f69-64b44da87771","ios":"levelo://app?vid=2c210749-934e-4075-8f69-64b44da87771"},"vehicle_type_id":"4","last_reported":1745385034,"current_range_meters":18800,"station_id":"ce4bgkh2rcd13ifvqbk0","pricing_plan_id":"cebpf4jnsgd1na2vs0mg"},{"bike_id":"25591650-a494-4d8a-9db1-4f31db76974a","system_id":"levelo_inurba_marseille","lat":43.303519,"lon":5.418779,"is_reserved":false,"is_disabled":false,"rental_uris":{"android":"levelo://app?vid=25591650-a494-4d8a-9db1-4f31db76974a","ios":"levelo://app?vid=25591650-a494-4d8a-9db1-4f31db76974a"},"vehicle_type_id":"4","last_reported":1745385034,"current_range_meters":18800,"station_id":"ce4bhop2rcd13ifvqh7g","pricing_plan_id":"cebpf4jnsgd1na2vs0mg"},{"bike_id":"012877b6-e9c9-482d-997f-6a78ad0ac83b","system_id":"levelo_inurba_marseille","lat":43.30457,"lon":5.37908,"is_reserved":false,"is_disabled":false,"rental_uris":{"android":"levelo://app?vid=012877b6-e9c9-482d-997f-6a78ad0ac83b","ios":"levelo://app?vid=012877b6-e9c9-482d-997f-6a78ad0ac83b"},"vehicle_type_id":"4","last_reported":1745385034,"current_range_meters":18800,"station_id":"ce4bgup2rcd13ifvqcn0","pricing_plan_id":"cebpf4jnsgd1na2vs0mg"},{"bike_id":"6eefc99d-8db8-40d1-b867-e66893ab6dc0","system_id":"levelo_inurba_marseille","lat":43.31688,"lon":5.40459,"is_reserved":false,"is_disabled":false,"rental_uris":{"android":"levelo://app?vid=6eefc99d-8db8-40d1-b867-e66893ab6dc0","ios":"levelo://app?vid=6eefc99d-8db8-40d1-b867-e66893ab6dc0"},"vehicle_type_id":"4","last_reported":1745385034,"current_range_meters":18800,"station_id":"ce4bh012rcd13ifvqd00","pricing_plan_id":"cebpf4jnsgd1na2vs0mg"},{"bike_id":"0ea362ce-4354-4f0f-acc7-962b146816c7","system_id":"levelo_inurba_marseille","lat":43.258613,"lon":5.398983,"is_reserved":false,"is_disabled":true,"rental_uris":{"android":"levelo://app?vid=0ea362ce-4354-4f0f-acc7-962b146816c7","ios":"levelo://app?vid=0ea362ce-4354-4f0f-acc7-962b146816c7"},"vehicle_type_id":"4","last_reported":1745385034,"current_range_meters":19200,"station_id":"ce4bhl92rcd13ifvqghg","pricing_plan_id":"cebpf4jnsgd1na2vs0mg"},{"bike_id":"603c2ff0-3c81-4c24-9114-3aae3b9d51c5","system_id":"levelo_inurba_marseille","lat":43.28092,"lon":5.39647,"is_reserved":false,"is_disabled":false,"rental_uris":{"android":"levelo://app?vid=603c2ff0-3c81-4c24-9114-3aae3b9d51c5","ios":"levelo://app?vid=603c2ff0-3c81-4c24-9114-3aae3b9d51c5"},"vehicle_type_id":"4","last_reported":1745385034,"current_range_meters":19200,"station_id":"ce4bho12rcd13ifvqh2g","pricing_plan_id":"cebpf4jnsgd1na2vs0mg"},{"bike_id":"52b69f7a-9560-44fc-a047-c946dc3d6077","system_id":"levelo_inurba_marseille","lat":43.29865,"lon":5.39731,"is_reserved":false,"is_disabled":false,"rental_uris":{"android":"levelo://app?vid=52b69f7a-9560-44fc-a047-c946dc3d6077","ios":"levelo://app?vid=52b69f7a-9560-44fc-a047-c946dc3d6077"},"vehicle_type_id":"4","last_reported":1745385034,"current_range_meters":19200,"station_id":"ce4bh0h2rcd13ifvqd50","pricing_plan_id":"cebpf4jnsgd1na2vs0mg"},{"bike_id":"320ec9d6-8c0f-4a3e-92d3-ff6071a886ea","system_id":"levelo_inurba_marseille","lat":43.284333,"lon":5.382381,"is_reserved":false,"is_disabled":false,"rental_uris":{"android":"levelo://app?vid=320ec9d6-8c0f-4a3e-92d3-ff6071a886ea","ios":"levelo://app?vid=320ec9d6-8c0f-4a3e-92d3-ff6071a886ea"},"vehicle_type_id":"4","last_reported":1745385034,"current_range_meters":19200,"station_id":"","pricing_plan_id":"cebpf4jnsgd1na2vs0mg"},{"bike_id":"f14e05df-6b48-48e9-a4b2-0a922790be98","system_id":"levelo_inurba_marseille","lat":43.29267,"lon":5.36856,"is_reserved":false,"is_disabled":true,"rental_uris":{"android":"levelo://app?vid=f14e05df-6b48-48e9-a4b2-0a922790be98","ios":"levelo://app?vid=f14e05df-6b48-48e9-a4b2-0a922790be98"},"vehicle_type_id":"4","last_reported":1745385034,"current_range_meters":19200,"station_id":"ce4bhbp2rcd13ifvqesg","pricing_plan_id":"cebpf4jnsgd1na2vs0mg"},{"bike_id":"d0b1394b-6090-4c1e-b322-1ee5eb312f6f","system_id":"levelo_inurba_marseille","lat":43.27919,"lon":5.39585,"is_reserved":false,"is_disabled":false,"rental_uris":{"android":"levelo://app?vid=d0b1394b-6090-4c1e-b322-1ee5eb312f6f","ios":"levelo://app?vid=d0b1394b-6090-4c1e-b322-1ee5eb312f6f"},"vehicle_type_id":"4","last_reported":1745385034,"current_range_meters":19600,"station_id":"ce4bhf92rcd13ifvqf40","pricing_plan_id":"cebpf4jnsgd1na2vs0mg"},{"bike_id":"6da27505-89be-4a96-88ac-febbb1b1d1e6","system_id":"levelo_inurba_marseille","lat":43.273814,"lon":5.362559,"is_reserved":false,"is_disabled":false,"rental_uris":{"android":"levelo://app?vid=6da27505-89be-4a96-88ac-febbb1b1d1e6","ios":"levelo://app?vid=6da27505-89be-4a96-88ac-febbb1b1d1e6"},"vehicle_type_id":"4","last_reported":1745385034,"current_range_meters":19600,"station_id":"ce4bhbh2rcd13ifvqeo0","pricing_plan_id":"cebpf4jnsgd1na2vs0mg"},{"bike_id":"9d035519-e3b1-4b01-aca6-92cbf588441a","system_id":"levelo_inurba_marseille","lat":43.2705,"lon":5.40266,"is_reserved":false,"is_disabled":false,"rental_uris":{"android":"levelo://app?vid=9d035519-e3b1-4b01-aca6-92cbf588441a","ios":"levelo://app?vid=9d035519-e3b1-4b01-aca6-92cbf588441a"},"vehicle_type_id":"4","last_reported":1745385034,"current_range_meters":19600,"station_id":"ce4bhk92rcd13ifvqgc0","pricing_plan_id":"cebpf4jnsgd1na2vs0mg"},{"bike_id":"f39a5ed8-2be4-4254-916e-d88677df50a0","system_id":"levelo_inurba_marseille","lat":43.27497,"lon":5.42454,"is_reserved":false,"is_disabled":false,"rental_uris":{"android":"levelo://app?vid=f39a5ed8-2be4-4254-916e-d88677df50a0","ios":"levelo://app?vid=f39a5ed8-2be4-4254-916e-d88677df50a0"},"vehicle_type_id":"4","last_reported":1745385034,"current_range_meters":22000,"station_id":"ce4bhn92rcd13ifvqgrg","pricing_plan_id":"cebpf4jnsgd1na2vs0mg"},{"bike_id":"667e5b45-1a2a-41c4-bb05-a5e14adf5550","system_id":"levelo_inurba_marseille","lat":43.321,"lon":5.36772,"is_reserved":false,"is_disabled":false,"rental_uris":{"android":"levelo://app?vid=667e5b45-1a2a-41c4-bb05-a5e14adf5550","ios":"levelo://app?vid=667e5b45-1a2a-41c4-bb05-a5e14adf5550"},"vehicle_type_id":"4","last_reported":1745385034,"current_range_meters":20000,"station_id":"ce4bhrh2rcd13ifvqhug","pricing_plan_id":"cebpf4jnsgd1na2vs0mg"},{"bike_id":"c2aba99e-3f35-4400-8785-cd24b9848023","system_id":"levelo_inurba_marseille","lat":43.290613,"lon":5.356051,"is_reserved":false,"is_disabled":false,"rental_uris":{"android":"levelo://app?vid=c2aba99e-3f35-4400-8785-cd24b9848023","ios":"levelo://app?vid=c2aba99e-3f35-4400-8785-cd24b9848023"},"vehicle_type_id":"4","last_reported":1745385034,"current_range_meters":20000,"station_id":"ce4bhb92rcd13ifvqen0","pricing_plan_id":"cebpf4jnsgd1na2vs0mg"},{"bike_id":"7aaef0df-eb73-4b3e-9abd-8a3c0a185a97","system_id":"levelo_inurba_marseille","lat":43.29069,"lon":5.37205,"is_reserved":false,"is_disabled":false,"rental_uris":{"android":"levelo://app?vid=7aaef0df-eb73-4b3e-9abd-8a3c0a185a97","ios":"levelo://app?vid=7aaef0df-eb73-4b3e-9abd-8a3c0a185a97"},"vehicle_type_id":"4","last_reported":1745385034,"current_range_meters":20000,"station_id":"ce4bh5p2rcd13ifvqe4g","pricing_plan_id":"cebpf4jnsgd1na2vs0mg"},{"bike_id":"5b94ea54-20c4-4d7c-a801-63e423b7ca07","system_id":"levelo_inurba_marseille","lat":43.28152,"lon":5.42664,"is_reserved":false,"is_disabled":false,"rental_uris":{"android":"levelo://app?vid=5b94ea54-20c4-4d7c-a801-63e423b7ca07","ios":"levelo://app?vid=5b94ea54-20c4-4d7c-a801-63e423b7ca07"},"vehicle_type_id":"4","last_reported":1745385034,"current_range_meters":20000,"station_id":"ce4bhnh2rcd13ifvqgug","pricing_plan_id":"cebpf4jnsgd1na2vs0mg"},{"bike_id":"52971878-c506-4341-9612-24082bf985c6","system_id":"levelo_inurba_marseille","lat":43.30957,"lon":5.39047,"is_reserved":false,"is_disabled":false,"rental_uris":{"android":"levelo://app?vid=52971878-c506-4341-9612-24082bf985c6","ios":"levelo://app?vid=52971878-c506-4341-9612-24082bf985c6"},"vehicle_type_id":"4","last_reported":1745385034,"current_range_meters":20400,"station_id":"ce4bgup2rcd13ifvqco0","pricing_plan_id":"cebpf4jnsgd1na2vs0mg"},{"bike_id":"44036592-bf56-4014-9fd5-2d278fd6bae2","system_id":"levelo_inurba_marseille","lat":43.27981,"lon":5.41664,"is_reserved":false,"is_disabled":false,"rental_uris":{"android":"levelo://app?vid=44036592-bf56-4014-9fd5-2d278fd6bae2","ios":"levelo://app?vid=44036592-bf56-4014-9fd5-2d278fd6bae2"},"vehicle_type_id":"4","last_reported":1745385034,"current_range_meters":20400,"station_id":"ce4bho12rcd13ifvqh1g","pricing_plan_id":"cebpf4jnsgd1na2vs0mg"},{"bike_id":"b9c5d31a-458b-4828-b985-d7daa24310d2","system_id":"levelo_inurba_marseille","lat":43.2587,"lon":5.39922,"is_reserved":false,"is_disabled":false,"rental_uris":{"android":"levelo://app?vid=b9c5d31a-458b-4828-b985-d7daa24310d2","ios":"levelo://app?vid=b9c5d31a-458b-4828-b985-d7daa24310d2"},"vehicle_type_id":"4","last_reported":1745385034,"current_range_meters":20800,"station_id":"ce4bhl92rcd13ifvqghg","pricing_plan_id":"cebpf4jnsgd1na2vs0mg"},{"bike_id":"80e3aec3-d517-425a-9c47-8e5fc430cae5","system_id":"levelo_inurba_marseille","lat":43.284009,"lon":5.349883,"is_reserved":false,"is_disabled":false,"rental_uris":{"android":"levelo://app?vid=80e3aec3-d517-425a-9c47-8e5fc430cae5","ios":"levelo://app?vid=80e3aec3-d517-425a-9c47-8e5fc430cae5"},"vehicle_type_id":"4","last_reported":1745385034,"current_range_meters":21600,"station_id":"ce4bhbp2rcd13ifvqerg","pricing_plan_id":"cebpf4jnsgd1na2vs0mg"},{"bike_id":"e8abd739-2476-4f65-8210-f7309aecb71d","system_id":"levelo_inurba_marseille","lat":43.28432,"lon":5.34998,"is_reserved":false,"is_disabled":false,"rental_uris":{"android":"levelo://app?vid=e8abd739-2476-4f65-8210-f7309aecb71d","ios":"levelo://app?vid=e8abd739-2476-4f65-8210-f7309aecb71d"},"vehicle_type_id":"4","last_reported":1745385034,"current_range_meters":21600,"station_id":"ce4bhbh2rcd13ifvqepg","pricing_plan_id":"cebpf4jnsgd1na2vs0mg"},{"bike_id":"894b8530-885f-4d4d-a2ae-913958cbbe2f","system_id":"levelo_inurba_marseille","lat":43.25931,"lon":5.40927,"is_reserved":false,"is_disabled":true,"rental_uris":{"android":"levelo://app?vid=894b8530-885f-4d4d-a2ae-913958cbbe2f","ios":"levelo://app?vid=894b8530-885f-4d4d-a2ae-913958cbbe2f"},"vehicle_type_id":"4","last_reported":1745385034,"current_range_meters":21600,"station_id":"ce4bhm92rcd13ifvqglg","pricing_plan_id":"cebpf4jnsgd1na2vs0mg"},{"bike_id":"a12764c2-a027-4923-bb96-bc6d4a1d617a","system_id":"levelo_inurba_marseille","lat":43.23084,"lon":5.35498,"is_reserved":false,"is_disabled":false,"rental_uris":{"android":"levelo://app?vid=a12764c2-a027-4923-bb96-bc6d4a1d617a","ios":"levelo://app?vid=a12764c2-a027-4923-bb96-bc6d4a1d617a"},"vehicle_type_id":"4","last_reported":1745385034,"current_range_meters":21600,"station_id":"cpo3342slgdg3j2ifvpg","pricing_plan_id":"cebpf4jnsgd1na2vs0mg"},{"bike_id":"8a72b76a-6918-4ae7-bbf2-12ad0495e6c8","system_id":"levelo_inurba_marseille","lat":43.30926,"lon":5.4017,"is_reserved":false,"is_disabled":false,"rental_uris":{"android":"levelo://app?vid=8a72b76a-6918-4ae7-bbf2-12ad0495e6c8","ios":"levelo://app?vid=8a72b76a-6918-4ae7-bbf2-12ad0495e6c8"},"vehicle_type_id":"4","last_reported":1745385034,"current_range_meters":22000,"station_id":"ce4bgvp2rcd13ifvqct0","pricing_plan_id":"cebpf4jnsgd1na2vs0mg"},{"bike_id":"f66edcd1-aaff-4600-b09a-f7b31db50de9","system_id":"levelo_inurba_marseille","lat":43.3034,"lon":5.36795,"is_reserved":false,"is_disabled":false,"rental_uris":{"android":"levelo://app?vid=f66edcd1-aaff-4600-b09a-f7b31db50de9","ios":"levelo://app?vid=f66edcd1-aaff-4600-b09a-f7b31db50de9"},"vehicle_type_id":"4","last_reported":1745385034,"current_range_meters":22000,"station_id":"","pricing_plan_id":"cebpf4jnsgd1na2vs0mg"},{"bike_id":"4608b5c7-1942-48f9-a5a3-54a0197a39db","system_id":"levelo_inurba_marseille","lat":43.239646,"lon":5.366343,"is_reserved":false,"is_disabled":false,"rental_uris":{"android":"levelo://app?vid=4608b5c7-1942-48f9-a5a3-54a0197a39db","ios":"levelo://app?vid=4608b5c7-1942-48f9-a5a3-54a0197a39db"},"vehicle_type_id":"4","last_reported":1745385034,"current_range_meters":22000,"station_id":"ce4bhi12rcd13ifvqfp0","pricing_plan_id":"cebpf4jnsgd1na2vs0mg"},{"bike_id":"2dc5c86a-40ea-46c6-8d26-362012ee6651","system_id":"levelo_inurba_marseille","lat":43.28405,"lon":5.37525,"is_reserved":false,"is_disabled":false,"rental_uris":{"android":"levelo://app?vid=2dc5c86a-40ea-46c6-8d26-362012ee6651","ios":"levelo://app?vid=2dc5c86a-40ea-46c6-8d26-362012ee6651"},"vehicle_type_id":"4","last_reported":1745385034,"current_range_meters":22000,"station_id":"ce4bh412rcd13ifvqds0","pricing_plan_id":"cebpf4jnsgd1na2vs0mg"},{"bike_id":"2543fe79-2837-468c-9a42-e0ca56f00c29","system_id":"levelo_inurba_marseille","lat":43.30464,"lon":5.37912,"is_reserved":false,"is_disabled":false,"rental_uris":{"android":"levelo://app?vid=2543fe79-2837-468c-9a42-e0ca56f00c29","ios":"levelo://app?vid=2543fe79-2837-468c-9a42-e0ca56f00c29"},"vehicle_type_id":"4","last_reported":1745385034,"current_range_meters":22000,"station_id":"ce4bgup2rcd13ifvqcn0","pricing_plan_id":"cebpf4jnsgd1na2vs0mg"},{"bike_id":"48371002-9e06-4894-a433-ee734040060f","system_id":"levelo_inurba_marseille","lat":43.26581,"lon":5.39028,"is_reserved":false,"is_disabled":false,"rental_uris":{"android":"levelo://app?vid=48371002-9e06-4894-a433-ee734040060f","ios":"levelo://app?vid=48371002-9e06-4894-a433-ee734040060f"},"vehicle_type_id":"4","last_reported":1745385034,"current_range_meters":22400,"station_id":"ce4bhe12rcd13ifvqf30","pricing_plan_id":"cebpf4jnsgd1na2vs0mg"},{"bike_id":"019a5a9a-ac10-464a-980a-01bc39d7012e","system_id":"levelo_inurba_marseille","lat":43.3176,"lon":5.37705,"is_reserved":false,"is_disabled":true,"rental_uris":{"android":"levelo://app?vid=019a5a9a-ac10-464a-980a-01bc39d7012e","ios":"levelo://app?vid=019a5a9a-ac10-464a-980a-01bc39d7012e"},"vehicle_type_id":"4","last_reported":1745385034,"current_range_meters":22400,"station_id":"","pricing_plan_id":"cebpf4jnsgd1na2vs0mg"},{"bike_id":"d8e77187-4565-4bf5-ac7a-428ddac3eaf9","system_id":"levelo_inurba_marseille","lat":43.262121,"lon":5.404944,"is_reserved":false,"is_disabled":false,"rental_uris":{"android":"levelo://app?vid=d8e77187-4565-4bf5-ac7a-428ddac3eaf9","ios":"levelo://app?vid=d8e77187-4565-4bf5-ac7a-428ddac3eaf9"},"vehicle_type_id":"4","last_reported":1745385034,"current_range_meters":22400,"station_id":"ce4bhmh2rcd13ifvqgmg","pricing_plan_id":"cebpf4jnsgd1na2vs0mg"},{"bike_id":"3e79a133-1151-4ff7-8acf-03d576219aa2","system_id":"levelo_inurba_marseille","lat":43.30437,"lon":5.39756,"is_reserved":false,"is_disabled":false,"rental_uris":{"android":"levelo://app?vid=3e79a133-1151-4ff7-8acf-03d576219aa2","ios":"levelo://app?vid=3e79a133-1151-4ff7-8acf-03d576219aa2"},"vehicle_type_id":"4","last_reported":1745385034,"current_range_meters":22400,"station_id":"ce4bh092rcd13ifvqd20","pricing_plan_id":"cebpf4jnsgd1na2vs0mg"},{"bike_id":"11f4ee4a-7fa1-4c62-b378-a96e1722a902","system_id":"levelo_inurba_marseille","lat":43.3058,"lon":5.36713,"is_reserved":false,"is_disabled":true,"rental_uris":{"android":"levelo://app?vid=11f4ee4a-7fa1-4c62-b378-a96e1722a902","ios":"levelo://app?vid=11f4ee4a-7fa1-4c62-b378-a96e1722a902"},"vehicle_type_id":"4","last_reported":1745385034,"current_range_meters":22800,"station_id":"ce4bgrp2rcd13ifvqc9g","pricing_plan_id":"cebpf4jnsgd1na2vs0mg"},{"bike_id":"be54b61d-e038-471e-9e2e-06320bf336e4","system_id":"levelo_inurba_marseille","lat":43.29565,"lon":5.39978,"is_reserved":false,"is_disabled":true,"rental_uris":{"android":"levelo://app?vid=be54b61d-e038-471e-9e2e-06320bf336e4","ios":"levelo://app?vid=be54b61d-e038-471e-9e2e-06320bf336e4"},"vehicle_type_id":"4","last_reported":1745385034,"current_range_meters":22800,"station_id":"ce4bh312rcd13ifvqdj0","pricing_plan_id":"cebpf4jnsgd1na2vs0mg"},{"bike_id":"fdc8cb64-05ce-4a27-8fbf-1b18d3ad59af","system_id":"levelo_inurba_marseille","lat":43.28617,"lon":5.35118,"is_reserved":false,"is_disabled":false,"rental_uris":{"android":"levelo://app?vid=fdc8cb64-05ce-4a27-8fbf-1b18d3ad59af","ios":"levelo://app?vid=fdc8cb64-05ce-4a27-8fbf-1b18d3ad59af"},"vehicle_type_id":"4","last_reported":1745385034,"current_range_meters":22800,"station_id":"ce4bhch2rcd13ifvqeug","pricing_plan_id":"cebpf4jnsgd1na2vs0mg"},{"bike_id":"7d21454b-f6c8-449c-ba2a-14b094d9aef6","system_id":"levelo_inurba_marseille","lat":43.31345,"lon":5.38503,"is_reserved":false,"is_disabled":false,"rental_uris":{"android":"levelo://app?vid=7d21454b-f6c8-449c-ba2a-14b094d9aef6","ios":"levelo://app?vid=7d21454b-f6c8-449c-ba2a-14b094d9aef6"},"vehicle_type_id":"4","last_reported":1745385034,"current_range_meters":22800,"station_id":"ce4bgt92rcd13ifvqcf0","pricing_plan_id":"cebpf4jnsgd1na2vs0mg"},{"bike_id":"a5856b95-9e19-4436-b973-344e5d5dcbd8","system_id":"levelo_inurba_marseille","lat":43.24157,"lon":5.36426,"is_reserved":false,"is_disabled":false,"rental_uris":{"android":"levelo://app?vid=a5856b95-9e19-4436-b973-344e5d5dcbd8","ios":"levelo://app?vid=a5856b95-9e19-4436-b973-344e5d5dcbd8"},"vehicle_type_id":"4","last_reported":1745385034,"current_range_meters":22800,"station_id":"cpo36qri1sfpv3e86is0","pricing_plan_id":"cebpf4jnsgd1na2vs0mg"},{"bike_id":"45430676-4864-40c2-b577-1da710f1628f","system_id":"levelo_inurba_marseille","lat":43.322805,"lon":5.382773,"is_reserved":false,"is_disabled":false,"rental_uris":{"android":"levelo://app?vid=45430676-4864-40c2-b577-1da710f1628f","ios":"levelo://app?vid=45430676-4864-40c2-b577-1da710f1628f"},"vehicle_type_id":"4","last_reported":1745385034,"current_range_meters":22800,"station_id":"ce4bhr12rcd13ifvqhqg","pricing_plan_id":"cebpf4jnsgd1na2vs0mg"},{"bike_id":"356cfa21-b42d-4bcd-9ca6-ca674f45b452","system_id":"levelo_inurba_marseille","lat":43.28423,"lon":5.34983,"is_reserved":false,"is_disabled":false,"rental_uris":{"android":"levelo://app?vid=356cfa21-b42d-4bcd-9ca6-ca674f45b452","ios":"levelo://app?vid=356cfa21-b42d-4bcd-9ca6-ca674f45b452"},"vehicle_type_id":"4","last_reported":1745385034,"current_range_meters":22800,"station_id":"ce4bhbh2rcd13ifvqepg","pricing_plan_id":"cebpf4jnsgd1na2vs0mg"},{"bike_id":"d765f6ff-5fec-4472-81a2-f1942b67ca90","system_id":"levelo_inurba_marseille","lat":43.30316,"lon":5.40445,"is_reserved":false,"is_disabled":false,"rental_uris":{"android":"levelo://app?vid=d765f6ff-5fec-4472-81a2-f1942b67ca90","ios":"levelo://app?vid=d765f6ff-5fec-4472-81a2-f1942b67ca90"},"vehicle_type_id":"4","last_reported":1745385034,"current_range_meters":22800,"station_id":"ce4bh012rcd13ifvqd10","pricing_plan_id":"cebpf4jnsgd1na2vs0mg"},{"bike_id":"8b43b1fb-5cab-4db8-ae05-f66514d8855e","system_id":"levelo_inurba_marseille","lat":43.31286,"lon":5.37312,"is_reserved":false,"is_disabled":false,"rental_uris":{"android":"levelo://app?vid=8b43b1fb-5cab-4db8-ae05-f66514d8855e","ios":"levelo://app?vid=8b43b1fb-5cab-4db8-ae05-f66514d8855e"},"vehicle_type_id":"4","last_reported":1745385034,"current_range_meters":22800,"station_id":"","pricing_plan_id":"cebpf4jnsgd1na2vs0mg"},{"bike_id":"ab8406b2-4f8d-4381-8821-3db52b0a4d4d","system_id":"levelo_inurba_marseille","lat":43.27349,"lon":5.37843,"is_reserved":false,"is_disabled":false,"rental_uris":{"android":"levelo://app?vid=ab8406b2-4f8d-4381-8821-3db52b0a4d4d","ios":"levelo://app?vid=ab8406b2-4f8d-4381-8821-3db52b0a4d4d"},"vehicle_type_id":"4","last_reported":1745385034,"current_range_meters":22800,"station_id":"","pricing_plan_id":"cebpf4jnsgd1na2vs0mg"},{"bike_id":"e9cf060d-1964-484d-b8cb-38d996b221f9","system_id":"levelo_inurba_marseille","lat":43.323513,"lon":5.367936,"is_reserved":false,"is_disabled":false,"rental_uris":{"android":"levelo://app?vid=e9cf060d-1964-484d-b8cb-38d996b221f9","ios":"levelo://app?vid=e9cf060d-1964-484d-b8cb-38d996b221f9"},"vehicle_type_id":"4","last_reported":1745385034,"current_range_meters":22800,"station_id":"ce4bhsh2rcd13ifvqi2g","pricing_plan_id":"cebpf4jnsgd1na2vs0mg"},{"bike_id":"5e7b5617-0910-42e0-b454-6b2ca4eb9a73","system_id":"levelo_inurba_marseille","lat":43.30791,"lon":5.38149,"is_reserved":false,"is_disabled":false,"rental_uris":{"android":"levelo://app?vid=5e7b5617-0910-42e0-b454-6b2ca4eb9a73","ios":"levelo://app?vid=5e7b5617-0910-42e0-b454-6b2ca4eb9a73"},"vehicle_type_id":"4","last_reported":1745385034,"current_range_meters":23200,"station_id":"ce4bgt12rcd13ifvqce0","pricing_plan_id":"cebpf4jnsgd1na2vs0mg"},{"bike_id":"6af55b37-ddfb-4d22-b25c-50875871889b","system_id":"levelo_inurba_marseille","lat":43.308849,"lon":5.396497,"is_reserved":false,"is_disabled":false,"rental_uris":{"android":"levelo://app?vid=6af55b37-ddfb-4d22-b25c-50875871889b","ios":"levelo://app?vid=6af55b37-ddfb-4d22-b25c-50875871889b"},"vehicle_type_id":"4","last_reported":1745385034,"current_range_meters":23200,"station_id":"ce4bh012rcd13ifvqcv0","pricing_plan_id":"cebpf4jnsgd1na2vs0mg"},{"bike_id":"39ae7a5a-65d6-4616-a3e6-86e28751b9f6","system_id":"levelo_inurba_marseille","lat":43.313216,"lon":5.397035,"is_reserved":false,"is_disabled":false,"rental_uris":{"android":"levelo://app?vid=39ae7a5a-65d6-4616-a3e6-86e28751b9f6","ios":"levelo://app?vid=39ae7a5a-65d6-4616-a3e6-86e28751b9f6"},"vehicle_type_id":"4","last_reported":1745385034,"current_range_meters":23200,"station_id":"ce4bgvp2rcd13ifvqcu0","pricing_plan_id":"cebpf4jnsgd1na2vs0mg"},{"bike_id":"dfc424fb-3a80-47f5-acb6-71c55bf4dcf6","system_id":"levelo_inurba_marseille","lat":43.31486,"lon":5.37289,"is_reserved":false,"is_disabled":false,"rental_uris":{"android":"levelo://app?vid=dfc424fb-3a80-47f5-acb6-71c55bf4dcf6","ios":"levelo://app?vid=dfc424fb-3a80-47f5-acb6-71c55bf4dcf6"},"vehicle_type_id":"4","last_reported":1745385034,"current_range_meters":23200,"station_id":"ce4bgt12rcd13ifvqcd0","pricing_plan_id":"cebpf4jnsgd1na2vs0mg"},{"bike_id":"aff35b2e-5cad-4c67-8deb-027aea2fd038","system_id":"levelo_inurba_marseille","lat":43.28716,"lon":5.36084,"is_reserved":false,"is_disabled":false,"rental_uris":{"android":"levelo://app?vid=aff35b2e-5cad-4c67-8deb-027aea2fd038","ios":"levelo://app?vid=aff35b2e-5cad-4c67-8deb-027aea2fd038"},"vehicle_type_id":"4","last_reported":1745385034,"current_range_meters":23200,"station_id":"cki0cbj6b192h4jlfktg","pricing_plan_id":"cebpf4jnsgd1na2vs0mg"},{"bike_id":"e660dd54-de04-48f2-9d45-343405aaeda6","system_id":"levelo_inurba_marseille","lat":43.28152,"lon":5.42655,"is_reserved":false,"is_disabled":false,"rental_uris":{"android":"levelo://app?vid=e660dd54-de04-48f2-9d45-343405aaeda6","ios":"levelo://app?vid=e660dd54-de04-48f2-9d45-343405aaeda6"},"vehicle_type_id":"4","last_reported":1745385034,"current_range_meters":23200,"station_id":"ce4bhnh2rcd13ifvqgug","pricing_plan_id":"cebpf4jnsgd1na2vs0mg"},{"bike_id":"eddf388e-8873-45ba-ad33-881fd27c608c","system_id":"levelo_inurba_marseille","lat":43.293024,"lon":5.374418,"is_reserved":false,"is_disabled":true,"rental_uris":{"android":"levelo://app?vid=eddf388e-8873-45ba-ad33-881fd27c608c","ios":"levelo://app?vid=eddf388e-8873-45ba-ad33-881fd27c608c"},"vehicle_type_id":"4","last_reported":1745385034,"current_range_meters":23200,"station_id":"ce4bgi12rcd13ifvqb70","pricing_plan_id":"cebpf4jnsgd1na2vs0mg"},{"bike_id":"7065ea9d-cd6c-4035-8bbe-ec3371efa7ee","system_id":"levelo_inurba_marseille","lat":43.31125,"lon":5.37764,"is_reserved":false,"is_disabled":false,"rental_uris":{"android":"levelo://app?vid=7065ea9d-cd6c-4035-8bbe-ec3371efa7ee","ios":"levelo://app?vid=7065ea9d-cd6c-4035-8bbe-ec3371efa7ee"},"vehicle_type_id":"4","last_reported":1745385034,"current_range_meters":23200,"station_id":"ce4bgt92rcd13ifvqcg0","pricing_plan_id":"cebpf4jnsgd1na2vs0mg"},{"bike_id":"63800187-ccfa-42fe-943b-ecaeb9916bfd","system_id":"levelo_inurba_marseille","lat":43.30443,"lon":5.39754,"is_reserved":false,"is_disabled":false,"rental_uris":{"android":"levelo://app?vid=63800187-ccfa-42fe-943b-ecaeb9916bfd","ios":"levelo://app?vid=63800187-ccfa-42fe-943b-ecaeb9916bfd"},"vehicle_type_id":"4","last_reported":1745385034,"current_range_meters":23200,"station_id":"ce4bh092rcd13ifvqd20","pricing_plan_id":"cebpf4jnsgd1na2vs0mg"},{"bike_id":"aef1459b-4392-49f8-be04-360f81adfcc2","system_id":"levelo_inurba_marseille","lat":43.31241,"lon":5.38633,"is_reserved":false,"is_disabled":false,"rental_uris":{"android":"levelo://app?vid=aef1459b-4392-49f8-be04-360f81adfcc2","ios":"levelo://app?vid=aef1459b-4392-49f8-be04-360f81adfcc2"},"vehicle_type_id":"4","last_reported":1745385034,"current_range_meters":24000,"station_id":"ce4bgv12rcd13ifvqcp0","pricing_plan_id":"cebpf4jnsgd1na2vs0mg"},{"bike_id":"821f10f0-4287-419a-b12c-1909785a1887","system_id":"levelo_inurba_marseille","lat":43.28105,"lon":5.37824,"is_reserved":false,"is_disabled":false,"rental_uris":{"android":"levelo://app?vid=821f10f0-4287-419a-b12c-1909785a1887","ios":"levelo://app?vid=821f10f0-4287-419a-b12c-1909785a1887"},"vehicle_type_id":"4","last_reported":1745385034,"current_range_meters":24000,"station_id":"ce4bha12rcd13ifvqee0","pricing_plan_id":"cebpf4jnsgd1na2vs0mg"},{"bike_id":"73f40cff-bb71-4b7a-8ad7-f06c69fb0596","system_id":"levelo_inurba_marseille","lat":43.21202,"lon":5.35075,"is_reserved":false,"is_disabled":false,"rental_uris":{"android":"levelo://app?vid=73f40cff-bb71-4b7a-8ad7-f06c69fb0596","ios":"levelo://app?vid=73f40cff-bb71-4b7a-8ad7-f06c69fb0596"},"vehicle_type_id":"4","last_reported":1745385034,"current_range_meters":24000,"station_id":"st_cvj6sg6p6f1abm77japg","pricing_plan_id":"cebpf4jnsgd1na2vs0mg"},{"bike_id":"d879c938-ff81-4daf-88dd-b05a68c89889","system_id":"levelo_inurba_marseille","lat":43.28104,"lon":5.378354,"is_reserved":false,"is_disabled":false,"rental_uris":{"android":"levelo://app?vid=d879c938-ff81-4daf-88dd-b05a68c89889","ios":"levelo://app?vid=d879c938-ff81-4daf-88dd-b05a68c89889"},"vehicle_type_id":"4","last_reported":1745385034,"current_range_meters":24000,"station_id":"ce4bha12rcd13ifvqee0","pricing_plan_id":"cebpf4jnsgd1na2vs0mg"},{"bike_id":"ac7bb5ae-2edb-4f4d-b4b1-7c0d84eae751","system_id":"levelo_inurba_marseille","lat":43.31177,"lon":5.3871,"is_reserved":false,"is_disabled":false,"rental_uris":{"android":"levelo://app?vid=ac7bb5ae-2edb-4f4d-b4b1-7c0d84eae751","ios":"levelo://app?vid=ac7bb5ae-2edb-4f4d-b4b1-7c0d84eae751"},"vehicle_type_id":"4","last_reported":1745385034,"current_range_meters":24000,"station_id":"ce4bgv12rcd13ifvqcp0","pricing_plan_id":"cebpf4jnsgd1na2vs0mg"},{"bike_id":"0296a1a3-06bc-49fc-9c96-2a4757b30065","system_id":"levelo_inurba_marseille","lat":43.32042,"lon":5.4157,"is_reserved":false,"is_disabled":false,"rental_uris":{"android":"levelo://app?vid=0296a1a3-06bc-49fc-9c96-2a4757b30065","ios":"levelo://app?vid=0296a1a3-06bc-49fc-9c96-2a4757b30065"},"vehicle_type_id":"4","last_reported":1745385034,"current_range_meters":24000,"station_id":"ce4bhq92rcd13ifvqhkg","pricing_plan_id":"cebpf4jnsgd1na2vs0mg"},{"bike_id":"a578fab7-ce3c-43a9-9c7e-20e810e93f14","system_id":"levelo_inurba_marseille","lat":43.287306,"lon":5.360871,"is_reserved":false,"is_disabled":false,"rental_uris":{"android":"levelo://app?vid=a578fab7-ce3c-43a9-9c7e-20e810e93f14","ios":"levelo://app?vid=a578fab7-ce3c-43a9-9c7e-20e810e93f14"},"vehicle_type_id":"4","last_reported":1745385034,"current_range_meters":24000,"station_id":"cki0cbj6b192h4jlfktg","pricing_plan_id":"cebpf4jnsgd1na2vs0mg"},{"bike_id":"7a38cd50-7a93-4627-806c-1a69d66aceb3","system_id":"levelo_inurba_marseille","lat":43.30792,"lon":5.43528,"is_reserved":false,"is_disabled":false,"rental_uris":{"android":"levelo://app?vid=7a38cd50-7a93-4627-806c-1a69d66aceb3","ios":"levelo://app?vid=7a38cd50-7a93-4627-806c-1a69d66aceb3"},"vehicle_type_id":"4","last_reported":1745385034,"current_range_meters":24000,"station_id":"ce4bhph2rcd13ifvqheg","pricing_plan_id":"cebpf4jnsgd1na2vs0mg"},{"bike_id":"59441003-c71e-4311-806b-19f9b95a2770","system_id":"levelo_inurba_marseille","lat":43.29051,"lon":5.38136,"is_reserved":false,"is_disabled":false,"rental_uris":{"android":"levelo://app?vid=59441003-c71e-4311-806b-19f9b95a2770","ios":"levelo://app?vid=59441003-c71e-4311-806b-19f9b95a2770"},"vehicle_type_id":"4","last_reported":1745385034,"current_range_meters":24000,"station_id":"ce4bh4p2rcd13ifvqe1g","pricing_plan_id":"cebpf4jnsgd1na2vs0mg"},{"bike_id":"07f1b2be-7cff-4551-a273-0a7a5e1a3cd3","system_id":"levelo_inurba_marseille","lat":43.2451,"lon":5.42479,"is_reserved":false,"is_disabled":false,"rental_uris":{"android":"levelo://app?vid=07f1b2be-7cff-4551-a273-0a7a5e1a3cd3","ios":"levelo://app?vid=07f1b2be-7cff-4551-a273-0a7a5e1a3cd3"},"vehicle_type_id":"4","last_reported":1745385034,"current_range_meters":24000,"station_id":"","pricing_plan_id":"cebpf4jnsgd1na2vs0mg"},{"bike_id":"ca8c478a-25aa-40d6-a8a9-4fcbea0cb6f9","system_id":"levelo_inurba_marseille","lat":43.290351,"lon":5.399581,"is_reserved":false,"is_disabled":false,"rental_uris":{"android":"levelo://app?vid=ca8c478a-25aa-40d6-a8a9-4fcbea0cb6f9","ios":"levelo://app?vid=ca8c478a-25aa-40d6-a8a9-4fcbea0cb6f9"},"vehicle_type_id":"4","last_reported":1745385034,"current_range_meters":24400,"station_id":"ce4bh392rcd13ifvqdm0","pricing_plan_id":"cebpf4jnsgd1na2vs0mg"},{"bike_id":"bca08e30-646a-48ab-95c5-36ed6c6d85d4","system_id":"levelo_inurba_marseille","lat":43.30872,"lon":5.39632,"is_reserved":false,"is_disabled":false,"rental_uris":{"android":"levelo://app?vid=bca08e30-646a-48ab-95c5-36ed6c6d85d4","ios":"levelo://app?vid=bca08e30-646a-48ab-95c5-36ed6c6d85d4"},"vehicle_type_id":"4","last_reported":1745385034,"current_range_meters":24400,"station_id":"ce4bh012rcd13ifvqcv0","pricing_plan_id":"cebpf4jnsgd1na2vs0mg"},{"bike_id":"9a6f20da-221f-4c8d-8e12-cb48a6ea3aae","system_id":"levelo_inurba_marseille","lat":43.30464,"lon":5.37915,"is_reserved":false,"is_disabled":false,"rental_uris":{"android":"levelo://app?vid=9a6f20da-221f-4c8d-8e12-cb48a6ea3aae","ios":"levelo://app?vid=9a6f20da-221f-4c8d-8e12-cb48a6ea3aae"},"vehicle_type_id":"4","last_reported":1745385034,"current_range_meters":24400,"station_id":"ce4bgup2rcd13ifvqcn0","pricing_plan_id":"cebpf4jnsgd1na2vs0mg"},{"bike_id":"f1d0b052-52ba-44ba-8cba-aa8e83af5946","system_id":"levelo_inurba_marseille","lat":43.27346,"lon":5.42059,"is_reserved":false,"is_disabled":false,"rental_uris":{"android":"levelo://app?vid=f1d0b052-52ba-44ba-8cba-aa8e83af5946","ios":"levelo://app?vid=f1d0b052-52ba-44ba-8cba-aa8e83af5946"},"vehicle_type_id":"4","last_reported":1745385034,"current_range_meters":24400,"station_id":"","pricing_plan_id":"cebpf4jnsgd1na2vs0mg"},{"bike_id":"6c8eed2e-cad9-4a0e-8165-a36d4e22e177","system_id":"levelo_inurba_marseille","lat":43.26048,"lon":5.41433,"is_reserved":false,"is_disabled":false,"rental_uris":{"android":"levelo://app?vid=6c8eed2e-cad9-4a0e-8165-a36d4e22e177","ios":"levelo://app?vid=6c8eed2e-cad9-4a0e-8165-a36d4e22e177"},"vehicle_type_id":"4","last_reported":1745385034,"current_range_meters":24400,"station_id":"","pricing_plan_id":"cebpf4jnsgd1na2vs0mg"},{"bike_id":"9c4ebde0-30f3-41f2-b6a2-7ec93db34c08","system_id":"levelo_inurba_marseille","lat":43.30461,"lon":5.3791,"is_reserved":false,"is_disabled":false,"rental_uris":{"android":"levelo://app?vid=9c4ebde0-30f3-41f2-b6a2-7ec93db34c08","ios":"levelo://app?vid=9c4ebde0-30f3-41f2-b6a2-7ec93db34c08"},"vehicle_type_id":"4","last_reported":1745385034,"current_range_meters":24400,"station_id":"ce4bgup2rcd13ifvqcn0","pricing_plan_id":"cebpf4jnsgd1na2vs0mg"},