{"last_updated":1739639275,"ttl":60,"version":"2.2","data":{"bikes":[{"bike_id":"b1589c62-efb6-4964-ade1-e2ad8e9b6ead","system_id":"levelo_inurba_marseille","lat":43.23149,"lon":5.43702,"is_reserved":false,"is_disabled":true,"rental_uris":{"android":"levelo://app?vid=b1589c62-efb6-4964-ade1-e2ad8e9b6ead","ios":"levelo://app?vid=b1589c62-efb6-4964-ade1-e2ad8e9b6ead"},"vehicle_type_id":"4","last_reported":1739639275,"current_range_meters":1200,"station_id":"ce4bhmp2rcd13ifvqgog","pricing_plan_id":"cebpf4jnsgd1na2vs0mg"},{"bike_id":"36afe8ad-90c7-46c3-931b-44b8cd5ad9d4","system_id":"levelo_inurba_marseille","lat":43.29256,"lon":5.38469,"is_reserved":false,"is_disabled":true,"rental_uris":{"android":"levelo://app?vid=36afe8ad-90c7-46c3-931b-44b8cd5ad9d4","ios":"levelo://app?vid=36afe8ad-90c7-46c3-931b-44b8cd5ad9d4"},"vehicle_type_id":"4","last_reported":1739639275,"current_range_meters":38800,"station_id":"ce4bh692rcd13ifvqea0","pricing_plan_id":"cebpf4jnsgd1na2vs0mg"},{"bike_id":"314ecb77-8b90-4fdb-aaf3-bbba8b437b8a","system_id":"levelo_inurba_marseille","lat":43.29072,"lon":5.38003,"is_reserved":false,"is_disabled":false,"rental_uris":{"android":"levelo://app?vid=314ecb77-8b90-4fdb-aaf3-bbba8b437b8a","ios":"levelo://app?vid=314ecb77-8b90-4fdb-aaf3-bbba8b437b8a"},"vehicle_type_id":"4","last_reported":1739639275,"current_range_meters":8000,"station_id":"","pricing_plan_id":"cebpf4jnsgd1na2vs0mg"},{"bike_id":"78f61a08-fc41-48f8-b21d-e009af95bfbf","system_id":"levelo_inurba_marseille","lat":43.28171,"lon":5.38873,"is_reserved":false,"is_disabled":false,"rental_uris":{"android":"levelo://app?vid=78f61a08-fc41-48f8-b21d-e009af95bfbf","ios":"levelo://app?vid=78f61a08-fc41-48f8-b21d-e009af95bfbf"},"vehicle_type_id":"4","last_reported":1739639275,"current_range_meters":37600,"station_id":"","pricing_plan_id":"cebpf4jnsgd1na2vs0mg"},{"bike_id":"8b6abb34-00fa-4d4c-96d9-ab8d9072a112","system_id":"levelo_inurba_marseille","lat":43.28616,"lon":5.35095,"is_reserved":false,"is_disabled":false,"rental_uris":{"android":"levelo://app?vid=8b6abb34-00fa-4d4c-96d9-ab8d9072a112","ios":"levelo://app?vid=8b6abb34-00fa-4d4c-96d9-ab8d9072a112"},"vehicle_type_id":"4","last_reported":1739639275,"current_range_meters":36800,"station_id":"ce4bhch2rcd13ifvqeug","pricing_plan_id":"cebpf4jnsgd1na2vs0mg"},{"bike_id":"ebf8377f-c311-4825-9b97-c6280c2187cb","system_id":"levelo_inurba_marseille","lat":43.2587,"lon":5.39895,"is_reserved":false,"is_disabled":false,"rental_uris":{"android":"levelo://app?vid=ebf8377f-c311-4825-9b97-c6280c2187cb","ios":"levelo://app?vid=ebf8377f-c311-4825-9b97-c6280c2187cb"},"vehicle_type_id":"4","last_reported":1739639275,"current_range_meters":39200,"station_id":"ce4bhl92rcd13ifvqghg","pricing_plan_id":"cebpf4jnsgd1na2vs0mg"},{"bike_id":"aeeb603c-9e21-471f-a3b4-471a46d5c228","system_id":"levelo_inurba_marseille","lat":43.24174,"lon":5.36401,"is_reserved":false,"is_disabled":false,"rental_uris":{"android":"levelo://app?vid=aeeb603c-9e21-471f-a3b4-471a46d5c228","ios":"levelo://app?vid=aeeb603c-9e21-471f-a3b4-471a46d5c228"},"vehicle_type_id":"4","last_reported":1739639275,"current_range_meters":16400,"station_id":"cpo36qri1sfpv3e86is0","pricing_plan_id":"cebpf4jnsgd1na2vs0mg"},{"bike_id":"4f365926-554b-4b7f-8367-73b71278d47c","system_id":"levelo_inurba_marseille","lat":43.23184,"lon":5.39989,"is_reserved":false,"is_disabled":false,"rental_uris":{"android":"levelo://app?vid=4f365926-554b-4b7f-8367-73b71278d47c","ios":"levelo://app?vid=4f365926-554b-4b7f-8367-73b71278d47c"},"vehicle_type_id":"4","last_reported":1739639275,"current_range_meters":24800,"station_id":"ce4bhn12rcd13ifvqgqg","pricing_plan_id":"cebpf4jnsgd1na2vs0mg"},{"bike_id":"c1e76274-801b-4893-b793-e635178d8b86","system_id":"levelo_inurba_marseille","lat":43.23964,"lon":5.36629,"is_reserved":false,"is_disabled":false,"rental_uris":{"android":"levelo://app?vid=c1e76274-801b-4893-b793-e635178d8b86","ios":"levelo://app?vid=c1e76274-801b-4893-b793-e635178d8b86"},"vehicle_type_id":"4","last_reported":1739639275,"current_range_meters":37600,"station_id":"ce4bhi12rcd13ifvqfp0","pricing_plan_id":"cebpf4jnsgd1na2vs0mg"},{"bike_id":"203e4037-83b0-4dc3-9222-51f726175749","system_id":"levelo_inurba_marseille","lat":43.27213,"lon":5.39189,"is_reserved":false,"is_disabled":false,"rental_uris":{"android":"levelo://app?vid=203e4037-83b0-4dc3-9222-51f726175749","ios":"levelo://app?vid=203e4037-83b0-4dc3-9222-51f726175749"},"vehicle_type_id":"4","last_reported":1739639275,"current_range_meters":23200,"station_id":"ce4bhhp2rcd13ifvqfm0","pricing_plan_id":"cebpf4jnsgd1na2vs0mg"},{"bike_id":"38df8138-bd4e-4b00-bea9-8b037770f861","system_id":"levelo_inurba_marseille","lat":43.2928,"lon":5.36854,"is_reserved":false,"is_disabled":false,"rental_uris":{"android":"levelo://app?vid=38df8138-bd4e-4b00-bea9-8b037770f861","ios":"levelo://app?vid=38df8138-bd4e-4b00-bea9-8b037770f861"},"vehicle_type_id":"4","last_reported":1739639275,"current_range_meters":36400,"station_id":"ce4bhbp2rcd13ifvqesg","pricing_plan_id":"cebpf4jnsgd1na2vs0mg"},{"bike_id":"b953557b-02d7-4467-9bf1-8482c1d1836f","system_id":"levelo_inurba_marseille","lat":43.28693,"lon":5.37392,"is_reserved":false,"is_disabled":false,"rental_uris":{"android":"levelo://app?vid=b953557b-02d7-4467-9bf1-8482c1d1836f","ios":"levelo://app?vid=b953557b-02d7-4467-9bf1-8482c1d1836f"},"vehicle_type_id":"4","last_reported":1739639275,"current_range_meters":32800,"station_id":"ce4bh3p2rcd13ifvqdq0","pricing_plan_id":"cebpf4jnsgd1na2vs0mg"},{"bike_id":"c7322498-81a4-46c8-b4c9-ec796bfac1e6","system_id":"levelo_inurba_marseille","lat":43.24172,"lon":5.36404,"is_reserved":false,"is_disabled":false,"rental_uris":{"android":"levelo://app?vid=c7322498-81a4-46c8-b4c9-ec796bfac1e6","ios":"levelo://app?vid=c7322498-81a4-46c8-b4c9-ec796bfac1e6"},"vehicle_type_id":"4","last_reported":1739639275,"current_range_meters":38400,"station_id":"cpo36qri1sfpv3e86is0","pricing_plan_id":"cebpf4jnsgd1na2vs0mg"},{"bike_id":"27b8b667-415c-4318-8c6c-c90dee654efa","system_id":"levelo_inurba_marseille","lat":43.30274,"lon":5.37698,"is_reserved":false,"is_disabled":false,"rental_uris":{"android":"levelo://app?vid=27b8b667-415c-4318-8c6c-c90dee654efa","ios":"levelo://app?vid=27b8b667-415c-4318-8c6c-c90dee654efa"},"vehicle_type_id":"4","last_reported":1739639275,"current_range_meters":29600,"station_id":"ce4bguh2rcd13ifvqcj0","pricing_plan_id":"cebpf4jnsgd1na2vs0mg"},{"bike_id":"6b42f4f1-2360-420a-81a5-fa8f868ac30d","system_id":"levelo_inurba_marseille","lat":43.27169,"lon":5.3902,"is_reserved":false,"is_disabled":false,"rental_uris":{"android":"levelo://app?vid=6b42f4f1-2360-420a-81a5-fa8f868ac30d","ios":"levelo://app?vid=6b42f4f1-2360-420a-81a5-fa8f868ac30d"},"vehicle_type_id":"4","last_reported":1739639275,"current_range_meters":32400,"station_id":"","pricing_plan_id":"cebpf4jnsgd1na2vs0mg"},{"bike_id":"7465d873-5ce5-43c2-8e44-68501baba011","system_id":"levelo_inurba_marseille","lat":43.28934,"lon":5.36638,"is_reserved":false,"is_disabled":false,"rental_uris":{"android":"levelo://app?vid=7465d873-5ce5-43c2-8e44-68501baba011","ios":"levelo://app?vid=7465d873-5ce5-43c2-8e44-68501baba011"},"vehicle_type_id":"4","last_reported":1739639275,"current_range_meters":33200,"station_id":"ce4bhap2rcd13ifvqek0","pricing_plan_id":"cebpf4jnsgd1na2vs0mg"},{"bike_id":"f233c3ca-aebb-4c26-b1af-7045b859bb0b","system_id":"levelo_inurba_marseille","lat":43.27075,"lon":5.40247,"is_reserved":false,"is_disabled":false,"rental_uris":{"android":"levelo://app?vid=f233c3ca-aebb-4c26-b1af-7045b859bb0b","ios":"levelo://app?vid=f233c3ca-aebb-4c26-b1af-7045b859bb0b"},"vehicle_type_id":"4","last_reported":1739639275,"current_range_meters":38800,"station_id":"ce4bhk92rcd13ifvqgc0","pricing_plan_id":"cebpf4jnsgd1na2vs0mg"},{"bike_id":"4aa8b13c-22ec-4828-9ffb-74c9b37dc584","system_id":"levelo_inurba_marseille","lat":43.28274,"lon":5.35078,"is_reserved":false,"is_disabled":false,"rental_uris":{"android":"levelo://app?vid=4aa8b13c-22ec-4828-9ffb-74c9b37dc584","ios":"levelo://app?vid=4aa8b13c-22ec-4828-9ffb-74c9b37dc584"},"vehicle_type_id":"4","last_reported":1739639275,"current_range_meters":38800,"station_id":"ce4bhbp2rcd13ifvqerg","pricing_plan_id":"cebpf4jnsgd1na2vs0mg"},{"bike_id":"b34c6303-752a-46a1-93ad-ddbc991e20b6","system_id":"levelo_inurba_marseille","lat":43.23086,"lon":5.35503,"is_reserved":false,"is_disabled":false,"rental_uris":{"android":"levelo://app?vid=b34c6303-752a-46a1-93ad-ddbc991e20b6","ios":"levelo://app?vid=b34c6303-752a-46a1-93ad-ddbc991e20b6"},"vehicle_type_id":"4","last_reported":1739639275,"current_range_meters":36800,"station_id":"cpo3342slgdg3j2ifvpg","pricing_plan_id":"cebpf4jnsgd1na2vs0mg"},{"bike_id":"0bba0432-238e-4a11-b66e-d4a8b1fcda0d","system_id":"levelo_inurba_marseille","lat":43.2705,"lon":5.40267,"is_reserved":false,"is_disabled":true,"rental_uris":{"android":"levelo://app?vid=0bba0432-238e-4a11-b66e-d4a8b1fcda0d","ios":"levelo://app?vid=0bba0432-238e-4a11-b66e-d4a8b1fcda0d"},"vehicle_type_id":"4","last_reported":1739639275,"current_range_meters":1200,"station_id":"ce4bhk92rcd13ifvqgc0","pricing_plan_id":"cebpf4jnsgd1na2vs0mg"},{"bike_id":"58f90898-7499-443b-a458-e2c59058430b","system_id":"levelo_inurba_marseille","lat":43.24072,"lon":5.37744,"is_reserved":false,"is_disabled":false,"rental_uris":{"android":"levelo://app?vid=58f90898-7499-443b-a458-e2c59058430b","ios":"levelo://app?vid=58f90898-7499-443b-a458-e2c59058430b"},"vehicle_type_id":"4","last_reported":1739639275,"current_range_meters":10800,"station_id":"ce4bhnp2rcd13ifvqgvg","pricing_plan_id":"cebpf4jnsgd1na2vs0mg"},{"bike_id":"1bd9c166-b0dd-4dfb-a934-f0f1f0f02454","system_id":"levelo_inurba_marseille","lat":43.29788,"lon":5.38102,"is_reserved":false,"is_disabled":false,"rental_uris":{"android":"levelo://app?vid=1bd9c166-b0dd-4dfb-a934-f0f1f0f02454","ios":"levelo://app?vid=1bd9c166-b0dd-4dfb-a934-f0f1f0f02454"},"vehicle_type_id":"4","last_reported":1739639275,"current_range_meters":10800,"station_id":"ce4bgip2rcd13ifvqbb0","pricing_plan_id":"cebpf4jnsgd1na2vs0mg"},{"bike_id":"2821d2ff-3fc8-480e-81a3-1928b04e4a1d","system_id":"levelo_inurba_marseille","lat":43.30796,"lon":5.37337,"is_reserved":false,"is_disabled":false,"rental_uris":{"android":"levelo://app?vid=2821d2ff-3fc8-480e-81a3-1928b04e4a1d","ios":"levelo://app?vid=2821d2ff-3fc8-480e-81a3-1928b04e4a1d"},"vehicle_type_id":"4","last_reported":1739639275,"current_range_meters":8400,"station_id":"","pricing_plan_id":"cebpf4jnsgd1na2vs0mg"},{"bike_id":"875c1619-59b2-4cda-963a-0a103ff2cc88","system_id":"levelo_inurba_marseille","lat":43.2902,"lon":5.38132,"is_reserved":false,"is_disabled":false,"rental_uris":{"android":"levelo://app?vid=875c1619-59b2-4cda-963a-0a103ff2cc88","ios":"levelo://app?vid=875c1619-59b2-4cda-963a-0a103ff2cc88"},"vehicle_type_id":"4","last_reported":1739639275,"current_range_meters":28000,"station_id":"ce4bh4p2rcd13ifvqe1g","pricing_plan_id":"cebpf4jnsgd1na2vs0mg"},{"bike_id":"450b6d82-35b4-4664-ac9e-5a5828531040","system_id":"levelo_inurba_marseille","lat":43.26794,"lon":5.39416,"is_reserved":false,"is_disabled":false,"rental_uris":{"android":"levelo://app?vid=450b6d82-35b4-4664-ac9e-5a5828531040","ios":"levelo://app?vid=450b6d82-35b4-4664-ac9e-5a5828531040"},"vehicle_type_id":"4","last_reported":1739639275,"current_range_meters":30000,"station_id":"ce4bhh12rcd13ifvqfg0","pricing_plan_id":"cebpf4jnsgd1na2vs0mg"},{"bike_id":"fb0be88d-da38-4213-acf8-71989f5ae523","system_id":"levelo_inurba_marseille","lat":43.286646,"lon":5.363564,"is_reserved":false,"is_disabled":false,"rental_uris":{"android":"levelo://app?vid=fb0be88d-da38-4213-acf8-71989f5ae523","ios":"levelo://app?vid=fb0be88d-da38-4213-acf8-71989f5ae523"},"vehicle_type_id":"4","last_reported":1739639275,"current_range_meters":4800,"station_id":"ce4bhah2rcd13ifvqej0","pricing_plan_id":"cebpf4jnsgd1na2vs0mg"},{"bike_id":"6ff6e6af-0f0f-4bee-9548-8831d575c200","system_id":"levelo_inurba_marseille","lat":43.26497,"lon":5.39543,"is_reserved":false,"is_disabled":false,"rental_uris":{"android":"levelo://app?vid=6ff6e6af-0f0f-4bee-9548-8831d575c200","ios":"levelo://app?vid=6ff6e6af-0f0f-4bee-9548-8831d575c200"},"vehicle_type_id":"4","last_reported":1739639275,"current_range_meters":14800,"station_id":"ce4bhi12rcd13ifvqfq0","pricing_plan_id":"cebpf4jnsgd1na2vs0mg"},{"bike_id":"940ffad1-8d03-466c-a361-1bdb8859eb0e","system_id":"levelo_inurba_marseille","lat":43.28611,"lon":5.35102,"is_reserved":false,"is_disabled":true,"rental_uris":{"android":"levelo://app?vid=940ffad1-8d03-466c-a361-1bdb8859eb0e","ios":"levelo://app?vid=940ffad1-8d03-466c-a361-1bdb8859eb0e"},"vehicle_type_id":"4","last_reported":1739639275,"current_range_meters":2000,"station_id":"ce4bhch2rcd13ifvqeug","pricing_plan_id":"cebpf4jnsgd1na2vs0mg"},{"bike_id":"c7d74a4b-4578-4e74-b066-46419a000ce5","system_id":"levelo_inurba_marseille","lat":43.28937,"lon":5.36637,"is_reserved":false,"is_disabled":false,"rental_uris":{"android":"levelo://app?vid=c7d74a4b-4578-4e74-b066-46419a000ce5","ios":"levelo://app?vid=c7d74a4b-4578-4e74-b066-46419a000ce5"},"vehicle_type_id":"4","last_reported":1739639275,"current_range_meters":38000,"station_id":"ce4bhap2rcd13ifvqek0","pricing_plan_id":"cebpf4jnsgd1na2vs0mg"},{"bike_id":"1f0657bb-7196-41de-84fc-c834bbf90b28","system_id":"levelo_inurba_marseille","lat":43.28074,"lon":5.39663,"is_reserved":false,"is_disabled":true,"rental_uris":{"android":"levelo://app?vid=1f0657bb-7196-41de-84fc-c834bbf90b28","ios":"levelo://app?vid=1f0657bb-7196-41de-84fc-c834bbf90b28"},"vehicle_type_id":"4","last_reported":1739639275,"current_range_meters":38400,"station_id":"ce4bho12rcd13ifvqh2g","pricing_plan_id":"cebpf4jnsgd1na2vs0mg"},{"bike_id":"4085957e-a34f-48ec-8023-d0e7a9e56b71","system_id":"levelo_inurba_marseille","lat":43.23069,"lon":5.3549,"is_reserved":false,"is_disabled":false,"rental_uris":{"android":"levelo://app?vid=4085957e-a34f-48ec-8023-d0e7a9e56b71","ios":"levelo://app?vid=4085957e-a34f-48ec-8023-d0e7a9e56b71"},"vehicle_type_id":"4","last_reported":1739639275,"current_range_meters":38800,"station_id":"cpo3342slgdg3j2ifvpg","pricing_plan_id":"cebpf4jnsgd1na2vs0mg"},{"bike_id":"a04b81e7-7169-4f33-adbc-36dd68595899","system_id":"levelo_inurba_marseille","lat":43.29421,"lon":5.38628,"is_reserved":false,"is_disabled":false,"rental_uris":{"android":"levelo://app?vid=a04b81e7-7169-4f33-adbc-36dd68595899","ios":"levelo://app?vid=a04b81e7-7169-4f33-adbc-36dd68595899"},"vehicle_type_id":"4","last_reported":1739639275,"current_range_meters":28800,"station_id":"ce4bh2h2rcd13ifvqdh0","pricing_plan_id":"cebpf4jnsgd1na2vs0mg"},{"bike_id":"a422c461-92a6-4632-9acb-761556b4e936","system_id":"levelo_inurba_marseille","lat":43.27057,"lon":5.4027,"is_reserved":false,"is_disabled":false,"rental_uris":{"android":"levelo://app?vid=a422c461-92a6-4632-9acb-761556b4e936","ios":"levelo://app?vid=a422c461-92a6-4632-9acb-761556b4e936"},"vehicle_type_id":"4","last_reported":1739639275,"current_range_meters":10000,"station_id":"ce4bhk92rcd13ifvqgc0","pricing_plan_id":"cebpf4jnsgd1na2vs0mg"},{"bike_id":"66c29fd4-3841-4c9c-8562-b24915bedad8","system_id":"levelo_inurba_marseille","lat":43.28617,"lon":5.35107,"is_reserved":false,"is_disabled":false,"rental_uris":{"android":"levelo://app?vid=66c29fd4-3841-4c9c-8562-b24915bedad8","ios":"levelo://app?vid=66c29fd4-3841-4c9c-8562-b24915bedad8"},"vehicle_type_id":"4","last_reported":1739639275,"current_range_meters":38800,"station_id":"ce4bhch2rcd13ifvqeug","pricing_plan_id":"cebpf4jnsgd1na2vs0mg"},{"bike_id":"b4501870-b8ed-41e7-9c02-cfe959070884","system_id":"levelo_inurba_marseille","lat":43.24073,"lon":5.37758,"is_reserved":false,"is_disabled":false,"rental_uris":{"android":"levelo://app?vid=b4501870-b8ed-41e7-9c02-cfe959070884","ios":"levelo://app?vid=b4501870-b8ed-41e7-9c02-cfe959070884"},"vehicle_type_id":"4","last_reported":1739639275,"current_range_meters":32000,"station_id":"ce4bhnp2rcd13ifvqgvg","pricing_plan_id":"cebpf4jnsgd1na2vs0mg"},{"bike_id":"f92e748a-9f9b-4e54-8084-07e33515f3d5","system_id":"levelo_inurba_marseille","lat":43.27071,"lon":5.39347,"is_reserved":false,"is_disabled":true,"rental_uris":{"android":"levelo://app?vid=f92e748a-9f9b-4e54-8084-07e33515f3d5","ios":"levelo://app?vid=f92e748a-9f9b-4e54-8084-07e33515f3d5"},"vehicle_type_id":"4","last_reported":1739639275,"current_range_meters":0,"station_id":"","pricing_plan_id":"cebpf4jnsgd1na2vs0mg"},{"bike_id":"5c365a1b-4ecd-46db-9cc7-8fa8b13a6508","system_id":"levelo_inurba_marseille","lat":43.28614,"lon":5.37058,"is_reserved":false,"is_disabled":false,"rental_uris":{"android":"levelo://app?vid=5c365a1b-4ecd-46db-9cc7-8fa8b13a6508","ios":"levelo://app?vid=5c365a1b-4ecd-46db-9cc7-8fa8b13a6508"},"vehicle_type_id":"4","last_reported":1739639275,"current_range_meters":34800,"station_id":"ce4bht12rcd13ifvqi60","pricing_plan_id":"cebpf4jnsgd1na2vs0mg"},{"bike_id":"6b291aa8-b83c-4cef-9883-156906af533b","system_id":"levelo_inurba_marseille","lat":43.27079,"lon":5.40275,"is_reserved":false,"is_disabled":false,"rental_uris":{"android":"levelo://app?vid=6b291aa8-b83c-4cef-9883-156906af533b","ios":"levelo://app?vid=6b291aa8-b83c-4cef-9883-156906af533b"},"vehicle_type_id":"4","last_reported":1739639275,"current_range_meters":8400,"station_id":"ce4bhk92rcd13ifvqgc0","pricing_plan_id":"cebpf4jnsgd1na2vs0mg"},{"bike_id":"cd1b225c-970a-4888-be4e-5cb0af2ecc20","system_id":"levelo_inurba_marseille","lat":43.26564,"lon":5.39033,"is_reserved":false,"is_disabled":false,"rental_uris":{"android":"levelo://app?vid=cd1b225c-970a-4888-be4e-5cb0af2ecc20","ios":"levelo://app?vid=cd1b225c-970a-4888-be4e-5cb0af2ecc20"},"vehicle_type_id":"4","last_reported":1739639275,"current_range_meters":6800,"station_id":"ce4bhe12rcd13ifvqf30","pricing_plan_id":"cebpf4jnsgd1na2vs0mg"},{"bike_id":"7952817a-f953-4777-b984-7a113c67295e","system_id":"levelo_inurba_marseille","lat":43.26924,"lon":5.40298,"is_reserved":false,"is_disabled":false,"rental_uris":{"android":"levelo://app?vid=7952817a-f953-4777-b984-7a113c67295e","ios":"levelo://app?vid=7952817a-f953-4777-b984-7a113c67295e"},"vehicle_type_id":"4","last_reported":1739639275,"current_range_meters":34000,"station_id":"cjm6bp8fraef2m0cb0m0","pricing_plan_id":"cebpf4jnsgd1na2vs0mg"},{"bike_id":"0335deb9-99a8-492c-b2e5-a3768e852596","system_id":"levelo_inurba_marseille","lat":43.273064,"lon":5.390916,"is_reserved":false,"is_disabled":false,"rental_uris":{"android":"levelo://app?vid=0335deb9-99a8-492c-b2e5-a3768e852596","ios":"levelo://app?vid=0335deb9-99a8-492c-b2e5-a3768e852596"},"vehicle_type_id":"4","last_reported":1739639275,"current_range_meters":16400,"station_id":"ce4bhgp2rcd13ifvqfe0","pricing_plan_id":"cebpf4jnsgd1na2vs0mg"},{"bike_id":"47f34777-0b2c-4c09-881a-c36d156aa98f","system_id":"levelo_inurba_marseille","lat":43.28617,"lon":5.35111,"is_reserved":false,"is_disabled":false,"rental_uris":{"android":"levelo://app?vid=47f34777-0b2c-4c09-881a-c36d156aa98f","ios":"levelo://app?vid=47f34777-0b2c-4c09-881a-c36d156aa98f"},"vehicle_type_id":"4","last_reported":1739639275,"current_range_meters":25600,"station_id":"ce4bhch2rcd13ifvqeug","pricing_plan_id":"cebpf4jnsgd1na2vs0mg"},{"bike_id":"9cf8e6d9-67b8-441b-8ab4-08ef8560d2b0","system_id":"levelo_inurba_marseille","lat":43.33514,"lon":5.35585,"is_reserved":false,"is_disabled":true,"rental_uris":{"android":"levelo://app?vid=9cf8e6d9-67b8-441b-8ab4-08ef8560d2b0","ios":"levelo://app?vid=9cf8e6d9-67b8-441b-8ab4-08ef8560d2b0"},"vehicle_type_id":"4","last_reported":1739639275,"current_range_meters":0,"station_id":"","pricing_plan_id":"cebpf4jnsgd1na2vs0mg"},{"bike_id":"ee6a4376-ede2-4810-837a-2ca357373cf8","system_id":"levelo_inurba_marseille","lat":43.29294,"lon":5.37451,"is_reserved":false,"is_disabled":false,"rental_uris":{"android":"levelo://app?vid=ee6a4376-ede2-4810-837a-2ca357373cf8","ios":"levelo://app?vid=ee6a4376-ede2-4810-837a-2ca357373cf8"},"vehicle_type_id":"4","last_reported":1739639275,"current_range_meters":38800,"station_id":"ce4bgi12rcd13ifvqb70","pricing_plan_id":"cebpf4jnsgd1na2vs0mg"},{"bike_id":"631d458b-9703-474f-b007-9871900d8038","system_id":"levelo_inurba_marseille","lat":43.24054,"lon":5.3774,"is_reserved":false,"is_disabled":false,"rental_uris":{"android":"levelo://app?vid=631d458b-9703-474f-b007-9871900d8038","ios":"levelo://app?vid=631d458b-9703-474f-b007-9871900d8038"},"vehicle_type_id":"4","last_reported":1739639275,"current_range_meters":8400,"station_id":"ce4bhnp2rcd13ifvqgvg","pricing_plan_id":"cebpf4jnsgd1na2vs0mg"},{"bike_id":"6a3f422a-f190-4d18-9d49-a6221aa90b95","system_id":"levelo_inurba_marseille","lat":43.29277,"lon":5.36843,"is_reserved":false,"is_disabled":false,"rental_uris":{"android":"levelo://app?vid=6a3f422a-f190-4d18-9d49-a6221aa90b95","ios":"levelo://app?vid=6a3f422a-f190-4d18-9d49-a6221aa90b95"},"vehicle_type_id":"4","last_reported":1739639275,"current_range_meters":23200,"station_id":"ce4bhbp2rcd13ifvqesg","pricing_plan_id":"cebpf4jnsgd1na2vs0mg"},{"bike_id":"843c1cdc-a175-42b5-be19-e1b9d6757ae2","system_id":"levelo_inurba_marseille","lat":43.24641,"lon":5.38892,"is_reserved":false,"is_disabled":false,"rental_uris":{"android":"levelo://app?vid=843c1cdc-a175-42b5-be19-e1b9d6757ae2","ios":"levelo://app?vid=843c1cdc-a175-42b5-be19-e1b9d6757ae2"},"vehicle_type_id":"4","last_reported":1739639275,"current_range_meters":19600,"station_id":"ce4bhg12rcd13ifvqf60","pricing_plan_id":"cebpf4jnsgd1na2vs0mg"},{"bike_id":"1acfe1a2-0409-4546-a54a-cd308db7eb11","system_id":"levelo_inurba_marseille","lat":43.2917,"lon":5.37165,"is_reserved":false,"is_disabled":false,"rental_uris":{"android":"levelo://app?vid=1acfe1a2-0409-4546-a54a-cd308db7eb11","ios":"levelo://app?vid=1acfe1a2-0409-4546-a54a-cd308db7eb11"},"vehicle_type_id":"4","last_reported":1739639275,"current_range_meters":38400,"station_id":"ce4bha92rcd13ifvqeh0","pricing_plan_id":"cebpf4jnsgd1na2vs0mg"},{"bike_id":"61ffc0be-9149-4c0d-a571-7d8b552fca6e","system_id":"levelo_inurba_marseille","lat":43.26687,"lon":5.38279,"is_reserved":false,"is_disabled":false,"rental_uris":{"android":"levelo://app?vid=61ffc0be-9149-4c0d-a571-7d8b552fca6e","ios":"levelo://app?vid=61ffc0be-9149-4c0d-a571-7d8b552fca6e"},"vehicle_type_id":"4","last_reported":1739639275,"current_range_meters":2800,"station_id":"ce4bhg92rcd13ifvqf90","pricing_plan_id":"cebpf4jnsgd1na2vs0mg"},{"bike_id":"46252e49-398c-407a-8202-f65c1512c035","system_id":"levelo_inurba_marseille","lat":43.28428,"lon":5.37538,"is_reserved":false,"is_disabled":false,"rental_uris":{"android":"levelo://app?vid=46252e49-398c-407a-8202-f65c1512c035","ios":"levelo://app?vid=46252e49-398c-407a-8202-f65c1512c035"},"vehicle_type_id":"4","last_reported":1739639275,"current_range_meters":7200,"station_id":"ce4bh412rcd13ifvqds0","pricing_plan_id":"cebpf4jnsgd1na2vs0mg"},{"bike_id":"71588c79-c98d-4e6e-82da-57a486d1e55b","system_id":"levelo_inurba_marseille","lat":43.27313,"lon":5.39092,"is_reserved":false,"is_disabled":false,"rental_uris":{"android":"levelo://app?vid=71588c79-c98d-4e6e-82da-57a486d1e55b","ios":"levelo://app?vid=71588c79-c98d-4e6e-82da-57a486d1e55b"},"vehicle_type_id":"4","last_reported":1739639275,"current_range_meters":6800,"station_id":"ce4bhgp2rcd13ifvqfe0","pricing_plan_id":"cebpf4jnsgd1na2vs0mg"},{"bike_id":"51ab7186-5043-4bed-baca-73708608a302","system_id":"levelo_inurba_marseille","lat":43.29584,"lon":5.37026,"is_reserved":false,"is_disabled":true,"rental_uris":{"android":"levelo://app?vid=51ab7186-5043-4bed-baca-73708608a302","ios":"levelo://app?vid=51ab7186-5043-4bed-baca-73708608a302"},"vehicle_type_id":"4","last_reported":1739639275,"current_range_meters":0,"station_id":"","pricing_plan_id":"cebpf4jnsgd1na2vs0mg"},{"bike_id":"9fdb08b8-1ceb-474a-abf2-04c699884b4a","system_id":"levelo_inurba_marseille","lat":43.23192,"lon":5.35559,"is_reserved":false,"is_disabled":false,"rental_uris":{"android":"levelo://app?vid=9fdb08b8-1ceb-474a-abf2-04c699884b4a","ios":"levelo://app?vid=9fdb08b8-1ceb-474a-abf2-04c699884b4a"},"vehicle_type_id":"4","last_reported":1739639275,"current_range_meters":38800,"station_id":"ce4bhu92rcd13ifvqi70","pricing_plan_id":"cebpf4jnsgd1na2vs0mg"},{"bike_id":"1c320471-4448-4783-8e10-921312f08c93","system_id":"levelo_inurba_marseille","lat":43.2841,"lon":5.34985,"is_reserved":false,"is_disabled":false,"rental_uris":{"android":"levelo://app?vid=1c320471-4448-4783-8e10-921312f08c93","ios":"levelo://app?vid=1c320471-4448-4783-8e10-921312f08c93"},"vehicle_type_id":"4","last_reported":1739639275,"current_range_meters":29600,"station_id":"ce4bhbh2rcd13ifvqepg","pricing_plan_id":"cebpf4jnsgd1na2vs0mg"},{"bike_id":"8691c17d-836c-47cd-9e2a-09cf1406b8ec","system_id":"levelo_inurba_marseille","lat":43.24053,"lon":5.3774,"is_reserved":false,"is_disabled":false,"rental_uris":{"android":"levelo://app?vid=8691c17d-836c-47cd-9e2a-09cf1406b8ec","ios":"levelo://app?vid=8691c17d-836c-47cd-9e2a-09cf1406b8ec"},"vehicle_type_id":"4","last_reported":1739639275,"current_range_meters":24400,"station_id":"ce4bhnp2rcd13ifvqgvg","pricing_plan_id":"cebpf4jnsgd1na2vs0mg"},{"bike_id":"27455ee6-7ae8-49cc-a8a3-42d7221ec100","system_id":"levelo_inurba_marseille","lat":43.26788,"lon":5.39414,"is_reserved":false,"is_disabled":false,"rental_uris":{"android":"levelo://app?vid=27455ee6-7ae8-49cc-a8a3-42d7221ec100","ios":"levelo://app?vid=27455ee6-7ae8-49cc-a8a3-42d7221ec100"},"vehicle_type_id":"4","last_reported":1739639275,"current_range_meters":26000,"station_id":"ce4bhh12rcd13ifvqfg0","pricing_plan_id":"cebpf4jnsgd1na2vs0mg"},{"bike_id":"c40e2cb9-b89c-4dbd-956b-535ef79f1d37","system_id":"levelo_inurba_marseille","lat":43.24788,"lon":5.37499,"is_reserved":false,"is_disabled":false,"rental_uris":{"android":"levelo://app?vid=c40e2cb9-b89c-4dbd-956b-535ef79f1d37","ios":"levelo://app?vid=c40e2cb9-b89c-4dbd-956b-535ef79f1d37"},"vehicle_type_id":"4","last_reported":1739639275,"current_range_meters":23200,"station_id":"ce4bhgh2rcd13ifvqfb0","pricing_plan_id":"cebpf4jnsgd1na2vs0mg"},{"bike_id":"8c855da0-3a8a-4448-9671-8a1bea2a2d32","system_id":"levelo_inurba_marseille","lat":43.2904,"lon":5.3591,"is_reserved":false,"is_disabled":false,"rental_uris":{"android":"levelo://app?vid=8c855da0-3a8a-4448-9671-8a1bea2a2d32","ios":"levelo://app?vid=8c855da0-3a8a-4448-9671-8a1bea2a2d32"},"vehicle_type_id":"4","last_reported":1739639275,"current_range_meters":36000,"station_id":"ce4bha92rcd13ifvqeg0","pricing_plan_id":"cebpf4jnsgd1na2vs0mg"},{"bike_id":"38e0f1d1-437e-4f02-9707-15660b5d97bc","system_id":"levelo_inurba_marseille","lat":43.293,"lon":5.37468,"is_reserved":false,"is_disabled":false,"rental_uris":{"android":"levelo://app?vid=38e0f1d1-437e-4f02-9707-15660b5d97bc","ios":"levelo://app?vid=38e0f1d1-437e-4f02-9707-15660b5d97bc"},"vehicle_type_id":"4","last_reported":1739639275,"current_range_meters":8000,"station_id":"ce4bgi12rcd13ifvqb70","pricing_plan_id":"cebpf4jnsgd1na2vs0mg"},{"bike_id":"52f0172c-5485-4234-ab72-828fe4e1e6ea","system_id":"levelo_inurba_marseille","lat":43.3266,"lon":5.40996,"is_reserved":false,"is_disabled":false,"rental_uris":{"android":"levelo://app?vid=52f0172c-5485-4234-ab72-828fe4e1e6ea","ios":"levelo://app?vid=52f0172c-5485-4234-ab72-828fe4e1e6ea"},"vehicle_type_id":"4","last_reported":1739639275,"current_range_meters":30800,"station_id":"ce4bhpp2rcd13ifvqhgg","pricing_plan_id":"cebpf4jnsgd1na2vs0mg"},{"bike_id":"4afd05b5-41e1-4012-b907-304d88773920","system_id":"levelo_inurba_marseille","lat":43.23965,"lon":5.36632,"is_reserved":false,"is_disabled":false,"rental_uris":{"android":"levelo://app?vid=4afd05b5-41e1-4012-b907-304d88773920","ios":"levelo://app?vid=4afd05b5-41e1-4012-b907-304d88773920"},"vehicle_type_id":"4","last_reported":1739639275,"current_range_meters":38800,"station_id":"ce4bhi12rcd13ifvqfp0","pricing_plan_id":"cebpf4jnsgd1na2vs0mg"},{"bike_id":"67095dd8-663e-4d8c-8fb2-f5bd2e567ff7","system_id":"levelo_inurba_marseille","lat":43.28621,"lon":5.35107,"is_reserved":false,"is_disabled":false,"rental_uris":{"android":"levelo://app?vid=67095dd8-663e-4d8c-8fb2-f5bd2e567ff7","ios":"levelo://app?vid=67095dd8-663e-4d8c-8fb2-f5bd2e567ff7"},"vehicle_type_id":"4","last_reported":1739639275,"current_range_meters":17200,"station_id":"ce4bhch2rcd13ifvqeug","pricing_plan_id":"cebpf4jnsgd1na2vs0mg"},{"bike_id":"899e44e7-60b0-44a7-9ff3-d0219b681de2","system_id":"levelo_inurba_marseille","lat":43.28163,"lon":5.42648,"is_reserved":false,"is_disabled":false,"rental_uris":{"android":"levelo://app?vid=899e44e7-60b0-44a7-9ff3-d0219b681de2","ios":"levelo://app?vid=899e44e7-60b0-44a7-9ff3-d0219b681de2"},"vehicle_type_id":"4","last_reported":1739639275,"current_range_meters":34000,"station_id":"ce4bhnh2rcd13ifvqgug","pricing_plan_id":"cebpf4jnsgd1na2vs0mg"},{"bike_id":"771ee4b7-9895-4a86-a383-3c0a352dd5a3","system_id":"levelo_inurba_marseille","lat":43.27062,"lon":5.40276,"is_reserved":false,"is_disabled":false,"rental_uris":{"android":"levelo://app?vid=771ee4b7-9895-4a86-a383-3c0a352dd5a3","ios":"levelo://app?vid=771ee4b7-9895-4a86-a383-3c0a352dd5a3"},"vehicle_type_id":"4","last_reported":1739639275,"current_range_meters":32000,"station_id":"ce4bhk92rcd13ifvqgc0","pricing_plan_id":"cebpf4jnsgd1na2vs0mg"},{"bike_id":"e61a3843-6b33-422a-8208-83eb991f5d6c","system_id":"levelo_inurba_marseille","lat":43.28611,"lon":5.37068,"is_reserved":false,"is_disabled":false,"rental_uris":{"android":"levelo://app?vid=e61a3843-6b33-422a-8208-83eb991f5d6c","ios":"levelo://app?vid=e61a3843-6b33-422a-8208-83eb991f5d6c"},"vehicle_type_id":"4","last_reported":1739639275,"current_range_meters":8000,"station_id":"ce4bht12rcd13ifvqi60","pricing_plan_id":"cebpf4jnsgd1na2vs0mg"},{"bike_id":"03b02bf5-5e6d-4b1c-abfe-96890ec6cf4f","system_id":"levelo_inurba_marseille","lat":43.2842,"lon":5.34989,"is_reserved":false,"is_disabled":false,"rental_uris":{"android":"levelo://app?vid=03b02bf5-5e6d-4b1c-abfe-96890ec6cf4f","ios":"levelo://app?vid=03b02bf5-5e6d-4b1c-abfe-96890ec6cf4f"},"vehicle_type_id":"4","last_reported":1739639275,"current_range_meters":7200,"station_id":"ce4bhbh2rcd13ifvqepg","pricing_plan_id":"cebpf4jnsgd1na2vs0mg"},{"bike_id":"3bf78b66-ea80-4dd6-a953-ce06f040ab6f","system_id":"levelo_inurba_marseille","lat":43.28618,"lon":5.35116,"is_reserved":false,"is_disabled":false,"rental_uris":{"android":"levelo://app?vid=3bf78b66-ea80-4dd6-a953-ce06f040ab6f","ios":"levelo://app?vid=3bf78b66-ea80-4dd6-a953-ce06f040ab6f"},"vehicle_type_id":"4","last_reported":1739639275,"current_range_meters":12000,"station_id":"ce4bhch2rcd13ifvqeug","pricing_plan_id":"cebpf4jnsgd1na2vs0mg"},{"bike_id":"3ce3dae2-ed5f-43cb-bad9-b317ce2471d9","system_id":"levelo_inurba_marseille","lat":43.24819,"lon":5.3746,"is_reserved":false,"is_disabled":true,"rental_uris":{"android":"levelo://app?vid=3ce3dae2-ed5f-43cb-bad9-b317ce2471d9","ios":"levelo://app?vid=3ce3dae2-ed5f-43cb-bad9-b317ce2471d9"},"vehicle_type_id":"4","last_reported":1739639275,"current_range_meters":800,"station_id":"ce4bhgh2rcd13ifvqfb0","pricing_plan_id":"cebpf4jnsgd1na2vs0mg"},{"bike_id":"397f7144-3e20-4f61-9149-2720265fc375","system_id":"levelo_inurba_marseille","lat":43.24066,"lon":5.37752,"is_reserved":false,"is_disabled":false,"rental_uris":{"android":"levelo://app?vid=397f7144-3e20-4f61-9149-2720265fc375","ios":"levelo://app?vid=397f7144-3e20-4f61-9149-2720265fc375"},"vehicle_type_id":"4","last_reported":1739639275,"current_range_meters":37600,"station_id":"ce4bhnp2rcd13ifvqgvg","pricing_plan_id":"cebpf4jnsgd1na2vs0mg"},{"bike_id":"e76a9e8d-9a43-4a54-817d-c487635dd1d0","system_id":"levelo_inurba_marseille","lat":43.30329,"lon":5.40446,"is_reserved":false,"is_disabled":false,"rental_uris":{"android":"levelo://app?vid=e76a9e8d-9a43-4a54-817d-c487635dd1d0","ios":"levelo://app?vid=e76a9e8d-9a43-4a54-817d-c487635dd1d0"},"vehicle_type_id":"4","last_reported":1739639275,"current_range_meters":37600,"station_id":"ce4bh012rcd13ifvqd10","pricing_plan_id":"cebpf4jnsgd1na2vs0mg"},{"bike_id":"cb976fd1-127f-4e36-a203-b810fc1aa3da","system_id":"levelo_inurba_marseille","lat":43.27218,"lon":5.39184,"is_reserved":false,"is_disabled":false,"rental_uris":{"android":"levelo://app?vid=cb976fd1-127f-4e36-a203-b810fc1aa3da","ios":"levelo://app?vid=cb976fd1-127f-4e36-a203-b810fc1aa3da"},"vehicle_type_id":"4","last_reported":1739639275,"current_range_meters":30800,"station_id":"ce4bhhp2rcd13ifvqfm0","pricing_plan_id":"cebpf4jnsgd1na2vs0mg"},{"bike_id":"58b01a9d-577d-4812-8546-f0035d3c7375","system_id":"levelo_inurba_marseille","lat":43.28437,"lon":5.39195,"is_reserved":false,"is_disabled":false,"rental_uris":{"android":"levelo://app?vid=58b01a9d-577d-4812-8546-f0035d3c7375","ios":"levelo://app?vid=58b01a9d-577d-4812-8546-f0035d3c7375"},"vehicle_type_id":"4","last_reported":1739639275,"current_range_meters":16800,"station_id":"ce4bhoh2rcd13ifvqh5g","pricing_plan_id":"cebpf4jnsgd1na2vs0mg"},{"bike_id":"57db40d2-6fea-4335-b032-9b5b75bd2a8c","system_id":"levelo_inurba_marseille","lat":43.26496,"lon":5.39544,"is_reserved":false,"is_disabled":false,"rental_uris":{"android":"levelo://app?vid=57db40d2-6fea-4335-b032-9b5b75bd2a8c","ios":"levelo://app?vid=57db40d2-6fea-4335-b032-9b5b75bd2a8c"},"vehicle_type_id":"4","last_reported":1739639275,"current_range_meters":15200,"station_id":"ce4bhi12rcd13ifvqfq0","pricing_plan_id":"cebpf4jnsgd1na2vs0mg"},{"bike_id":"9d7c84b1-5e85-40b5-9214-0ea5f354ecac","system_id":"levelo_inurba_marseille","lat":43.28614,"lon":5.38475,"is_reserved":false,"is_disabled":false,"rental_uris":{"android":"levelo://app?vid=9d7c84b1-5e85-40b5-9214-0ea5f354ecac","ios":"levelo://app?vid=9d7c84b1-5e85-40b5-9214-0ea5f354ecac"},"vehicle_type_id":"4","last_reported":1739639275,"current_range_meters":14400,"station_id":"","pricing_plan_id":"cebpf4jnsgd1na2vs0mg"},{"bike_id":"b96fc5f6-d330-45f9-9e32-37e77305f9a0","system_id":"levelo_inurba_marseille","lat":43.27311,"lon":5.39062,"is_reserved":false,"is_disabled":false,"rental_uris":{"android":"levelo://app?vid=b96fc5f6-d330-45f9-9e32-37e77305f9a0","ios":"levelo://app?vid=b96fc5f6-d330-45f9-9e32-37e77305f9a0"},"vehicle_type_id":"4","last_reported":1739639275,"current_range_meters":25600,"station_id":"ce4bhgp2rcd13ifvqfe0","pricing_plan_id":"cebpf4jnsgd1na2vs0mg"},{"bike_id":"b8b29d3e-10d0-41ca-977b-09397489df63","system_id":"levelo_inurba_marseille","lat":43.26791,"lon":5.39423,"is_reserved":false,"is_disabled":false,"rental_uris":{"android":"levelo://app?vid=b8b29d3e-10d0-41ca-977b-09397489df63","ios":"levelo://app?vid=b8b29d3e-10d0-41ca-977b-09397489df63"},"vehicle_type_id":"4","last_reported":1739639275,"current_range_meters":39200,"station_id":"ce4bhh12rcd13ifvqfg0","pricing_plan_id":"cebpf4jnsgd1na2vs0mg"},{"bike_id":"65749c4a-a3c4-47ab-9c15-c6a81b8e2ba9","system_id":"levelo_inurba_marseille","lat":43.27204,"lon":5.3921,"is_reserved":false,"is_disabled":false,"rental_uris":{"android":"levelo://app?vid=65749c4a-a3c4-47ab-9c15-c6a81b8e2ba9","ios":"levelo://app?vid=65749c4a-a3c4-47ab-9c15-c6a81b8e2ba9"},"vehicle_type_id":"4","last_reported":1739639275,"current_range_meters":28400,"station_id":"ce4bhhp2rcd13ifvqfm0","pricing_plan_id":"cebpf4jnsgd1na2vs0mg"},{"bike_id":"7a513f1c-e0b8-4e12-a7e4-4795f492f601","system_id":"levelo_inurba_marseille","lat":43.26779,"lon":5.3941,"is_reserved":false,"is_disabled":false,"rental_uris":{"android":"levelo://app?vid=7a513f1c-e0b8-4e12-a7e4-4795f492f601","ios":"levelo://app?vid=7a513f1c-e0b8-4e12-a7e4-4795f492f601"},"vehicle_type_id":"4","last_reported":1739639275,"current_range_meters":17200,"station_id":"ce4bhh12rcd13ifvqfg0","pricing_plan_id":"cebpf4jnsgd1na2vs0mg"},{"bike_id":"fbd54234-caa9-4fe2-b734-556c5e0b3055","system_id":"levelo_inurba_marseille","lat":43.28431,"lon":5.34999,"is_reserved":false,"is_disabled":true,"rental_uris":{"android":"levelo://app?vid=fbd54234-caa9-4fe2-b734-556c5e0b3055","ios":"levelo://app?vid=fbd54234-caa9-4fe2-b734-556c5e0b3055"},"vehicle_type_id":"4","last_reported":1739639275,"current_range_meters":2000,"station_id":"ce4bhbh2rcd13ifvqepg","pricing_plan_id":"cebpf4jnsgd1na2vs0mg"},{"bike_id":"886040c3-603c-45f5-81f9-08f3db1a8009","system_id":"levelo_inurba_marseille","lat":43.29309,"lon":5.37174,"is_reserved":false,"is_disabled":true,"rental_uris":{"android":"levelo://app?vid=886040c3-603c-45f5-81f9-08f3db1a8009","ios":"levelo://app?vid=886040c3-603c-45f5-81f9-08f3db1a8009"},"vehicle_type_id":"4","last_reported":1739639275,"current_range_meters":0,"station_id":"ce4bgh92rcd13ifvqb40","pricing_plan_id":"cebpf4jnsgd1na2vs0mg"},{"bike_id":"4e1f36bf-920b-407f-bd8e-e12200457304","system_id":"levelo_inurba_marseille","lat":43.27808,"lon":5.40723,"is_reserved":false,"is_disabled":false,"rental_uris":{"android":"levelo://app?vid=4e1f36bf-920b-407f-bd8e-e12200457304","ios":"levelo://app?vid=4e1f36bf-920b-407f-bd8e-e12200457304"},"vehicle_type_id":"4","last_reported":1739639275,"current_range_meters":27600,"station_id":"ce4bhnh2rcd13ifvqgtg","pricing_plan_id":"cebpf4jnsgd1na2vs0mg"},{"bike_id":"1846001b-c806-4d67-961a-ac787367ac3c","system_id":"levelo_inurba_marseille","lat":43.26954,"lon":5.4025,"is_reserved":false,"is_disabled":false,"rental_uris":{"android":"levelo://app?vid=1846001b-c806-4d67-961a-ac787367ac3c","ios":"levelo://app?vid=1846001b-c806-4d67-961a-ac787367ac3c"},"vehicle_type_id":"4","last_reported":1739639275,"current_range_meters":6000,"station_id":"cjm6bp8fraef2m0cb0m0","pricing_plan_id":"cebpf4jnsgd1na2vs0mg"},{"bike_id":"c5a086ad-0293-476a-8027-4da15d799c47","system_id":"levelo_inurba_marseille","lat":43.24061,"lon":5.37752,"is_reserved":false,"is_disabled":false,"rental_uris":{"android":"levelo://app?vid=c5a086ad-0293-476a-8027-4da15d799c47","ios":"levelo://app?vid=c5a086ad-0293-476a-8027-4da15d799c47"},"vehicle_type_id":"4","last_reported":1739639275,"current_range_meters":10800,"station_id":"ce4bhnp2rcd13ifvqgvg","pricing_plan_id":"cebpf4jnsgd1na2vs0mg"},{"bike_id":"a5cd25c5-33db-4cb9-a843-6b1838ac9ce1","system_id":"levelo_inurba_marseille","lat":43.29276,"lon":5.40112,"is_reserved":false,"is_disabled":false,"rental_uris":{"android":"levelo://app?vid=a5cd25c5-33db-4cb9-a843-6b1838ac9ce1","ios":"levelo://app?vid=a5cd25c5-33db-4cb9-a843-6b1838ac9ce1"},"vehicle_type_id":"4","last_reported":1739639275,"current_range_meters":28400,"station_id":"ce4bh312rcd13ifvqdk0","pricing_plan_id":"cebpf4jnsgd1na2vs0mg"},{"bike_id":"10410a5f-c872-4cbc-84fb-fe2ad13b1e20","system_id":"levelo_inurba_marseille","lat":43.28408,"lon":5.34995,"is_reserved":false,"is_disabled":false,"rental_uris":{"android":"levelo://app?vid=10410a5f-c872-4cbc-84fb-fe2ad13b1e20","ios":"levelo://app?vid=10410a5f-c872-4cbc-84fb-fe2ad13b1e20"},"vehicle_type_id":"4","last_reported":1739639275,"current_range_meters":28400,"station_id":"ce4bhbh2rcd13ifvqepg","pricing_plan_id":"cebpf4jnsgd1na2vs0mg"},{"bike_id":"72526c7a-bad2-48be-9eb5-30027376ec95","system_id":"levelo_inurba_marseille","lat":43.23199,"lon":5.35556,"is_reserved":false,"is_disabled":false,"rental_uris":{"android":"levelo://app?vid=72526c7a-bad2-48be-9eb5-30027376ec95","ios":"levelo://app?vid=72526c7a-bad2-48be-9eb5-30027376ec95"},"vehicle_type_id":"4","last_reported":1739639275,"current_range_meters":38800,"station_id":"ce4bhu92rcd13ifvqi70","pricing_plan_id":"cebpf4jnsgd1na2vs0mg"},{"bike_id":"70f00739-e48a-4769-b73b-dab4cf05fcde","system_id":"levelo_inurba_marseille","lat":43.25493,"lon":5.3765,"is_reserved":false,"is_disabled":false,"rental_uris":{"android":"levelo://app?vid=70f00739-e48a-4769-b73b-dab4cf05fcde","ios":"levelo://app?vid=70f00739-e48a-4769-b73b-dab4cf05fcde"},"vehicle_type_id":"4","last_reported":1739639275,"current_range_meters":6400,"station_id":"ce4bhh12rcd13ifvqff0","pricing_plan_id":"cebpf4jnsgd1na2vs0mg"},{"bike_id":"ff96ac4d-c75c-4fcb-ac98-7ed90a6c9184","system_id":"levelo_inurba_marseille","lat":43.29364,"lon":5.37853,"is_reserved":false,"is_disabled":false,"rental_uris":{"android":"levelo://app?vid=ff96ac4d-c75c-4fcb-ac98-7ed90a6c9184","ios":"levelo://app?vid=ff96ac4d-c75c-4fcb-ac98-7ed90a6c9184"},"vehicle_type_id":"4","last_reported":1739639275,"current_range_meters":26800,"station_id":"ce4bgjh2rcd13ifvqbf0","pricing_plan_id":"cebpf4jnsgd1na2vs0mg"},{"bike_id":"b5697dda-de1d-4651-90dc-eda82800d3ee","system_id":"levelo_inurba_marseille","lat":43.272,"lon":5.3918,"is_reserved":false,"is_disabled":false,"rental_uris":{"android":"levelo://app?vid=b5697dda-de1d-4651-90dc-eda82800d3ee","ios":"levelo://app?vid=b5697dda-de1d-4651-90dc-eda82800d3ee"},"vehicle_type_id":"4","last_reported":1739639275,"current_range_meters":39200,"station_id":"ce4bhhp2rcd13ifvqfm0","pricing_plan_id":"cebpf4jnsgd1na2vs0mg"},{"bike_id":"a60ed759-e502-4576-afbd-e3dd3e7bdbbb","system_id":"levelo_inurba_marseille","lat":43.28474,"lon":5.35896,"is_reserved":false,"is_disabled":false,"rental_uris":{"android":"levelo://app?vid=a60ed759-e502-4576-afbd-e3dd3e7bdbbb","ios":"levelo://app?vid=a60ed759-e502-4576-afbd-e3dd3e7bdbbb"},"vehicle_type_id":"4","last_reported":1739639275,"current_range_meters":26800,"station_id":"ce4bhah2rcd13ifvqei0","pricing_plan_id":"cebpf4jnsgd1na2vs0mg"},{"bike_id":"03eba1d0-92c1-4e6e-a4d0-7c546f2439c0","system_id":"levelo_inurba_marseille","lat":43.337444,"lon":5.374475,"is_reserved":false,"is_disabled":true,"rental_uris":{"android":"levelo://app?vid=03eba1d0-92c1-4e6e-a4d0-7c546f2439c0","ios":"levelo://app?vid=03eba1d0-92c1-4e6e-a4d0-7c546f2439c0"},"vehicle_type_id":"4","last_reported":1739639275,"current_range_meters":0,"station_id":"","pricing_plan_id":"cebpf4jnsgd1na2vs0mg"},{"bike_id":"2b51a041-a600-4f69-92f9-b5941fc7c79e","system_id":"levelo_inurba_marseille","lat":43.2846,"lon":5.39165,"is_reserved":false,"is_disabled":true,"rental_uris":{"android":"levelo://app?vid=2b51a041-a600-4f69-92f9-b5941fc7c79e","ios":"levelo://app?vid=2b51a041-a600-4f69-92f9-b5941fc7c79e"},"vehicle_type_id":"4","last_reported":1739639275,"current_range_meters":31200,"station_id":"ce4bhoh2rcd13ifvqh5g","pricing_plan_id":"cebpf4jnsgd1na2vs0mg"},{"bike_id":"653b3681-8d49-4063-97bd-177fe11162f9","system_id":"levelo_inurba_marseille","lat":43.25485,"lon":5.37643,"is_reserved":false,"is_disabled":true,"rental_uris":{"android":"levelo://app?vid=653b3681-8d49-4063-97bd-177fe11162f9","ios":"levelo://app?vid=653b3681-8d49-4063-97bd-177fe11162f9"},"vehicle_type_id":"4","last_reported":1739639275,"current_range_meters":36800,"station_id":"ce4bhh12rcd13ifvqff0","pricing_plan_id":"cebpf4jnsgd1na2vs0mg"},{"bike_id":"b73f0361-8288-4cbd-a4d6-cf04f2116866","system_id":"levelo_inurba_marseille","lat":43.29173,"lon":5.3716,"is_reserved":false,"is_disabled":false,"rental_uris":{"android":"levelo://app?vid=b73f0361-8288-4cbd-a4d6-cf04f2116866","ios":"levelo://app?vid=b73f0361-8288-4cbd-a4d6-cf04f2116866"},"vehicle_type_id":"4","last_reported":1739639275,"current_range_meters":38400,"station_id":"ce4bha92rcd13ifvqeh0","pricing_plan_id":"cebpf4jnsgd1na2vs0mg"},{"bike_id":"51dc1c8b-290d-4146-93d2-4afe1542e5b0","system_id":"levelo_inurba_marseille","lat":43.29536,"lon":5.38548,"is_reserved":false,"is_disabled":false,"rental_uris":{"android":"levelo://app?vid=51dc1c8b-290d-4146-93d2-4afe1542e5b0","ios":"levelo://app?vid=51dc1c8b-290d-4146-93d2-4afe1542e5b0"},"vehicle_type_id":"4","last_reported":1739639275,"current_range_meters":24000,"station_id":"ce4bgih2rcd13ifvqba0","pricing_plan_id":"cebpf4jnsgd1na2vs0mg"},{"bike_id":"3341758d-d181-4d02-b02c-6161e8816e88","system_id":"levelo_inurba_marseille","lat":43.31898,"lon":5.40744,"is_reserved":false,"is_disabled":false,"rental_uris":{"android":"levelo://app?vid=3341758d-d181-4d02-b02c-6161e8816e88","ios":"levelo://app?vid=3341758d-d181-4d02-b02c-6161e8816e88"},"vehicle_type_id":"4","last_reported":1739639275,"current_range_meters":22400,"station_id":"ce4bhq12rcd13ifvqhig","pricing_plan_id":"cebpf4jnsgd1na2vs0mg"},{"bike_id":"a68931f1-c3a1-477d-b64a-b137920fd645","system_id":"levelo_inurba_marseille","lat":43.26939,"lon":5.40297,"is_reserved":false,"is_disabled":false,"rental_uris":{"android":"levelo://app?vid=a68931f1-c3a1-477d-b64a-b137920fd645","ios":"levelo://app?vid=a68931f1-c3a1-477d-b64a-b137920fd645"},"vehicle_type_id":"4","last_reported":1739639275,"current_range_meters":30000,"station_id":"cjm6bp8fraef2m0cb0m0","pricing_plan_id":"cebpf4jnsgd1na2vs0mg"},{"bike_id":"d7bb91c7-1e6c-4011-85a2-08678dbfba66","system_id":"levelo_inurba_marseille","lat":43.24396,"lon":5.37072,"is_reserved":false,"is_disabled":false,"rental_uris":{"android":"levelo://app?vid=d7bb91c7-1e6c-4011-85a2-08678dbfba66","ios":"levelo://app?vid=d7bb91c7-1e6c-4011-85a2-08678dbfba66"},"vehicle_type_id":"4","last_reported":1739639275,"current_range_meters":38800,"station_id":"ce4bhhh2rcd13ifvqfk0","pricing_plan_id":"cebpf4jnsgd1na2vs0mg"},{"bike_id":"e8218258-1529-48ba-b9df-e2b6b25d8b52","system_id":"levelo_inurba_marseille","lat":43.27327,"lon":5.39068,"is_reserved":false,"is_disabled":false,"rental_uris":{"android":"levelo://app?vid=e8218258-1529-48ba-b9df-e2b6b25d8b52","ios":"levelo://app?vid=e8218258-1529-48ba-b9df-e2b6b25d8b52"},"vehicle_type_id":"4","last_reported":1739639275,"current_range_meters":36800,"station_id":"ce4bhgp2rcd13ifvqfe0","pricing_plan_id":"cebpf4jnsgd1na2vs0mg"},{"bike_id":"982f259d-d0a4-441b-9edd-679fa6bc44a7","system_id":"levelo_inurba_marseille","lat":43.2694,"lon":5.40249,"is_reserved":false,"is_disabled":false,"rental_uris":{"android":"levelo://app?vid=982f259d-d0a4-441b-9edd-679fa6bc44a7","ios":"levelo://app?vid=982f259d-d0a4-441b-9edd-679fa6bc44a7"},"vehicle_type_id":"4","last_reported":1739639275,"current_range_meters":22800,"station_id":"cjm6bp8fraef2m0cb0m0","pricing_plan_id":"cebpf4jnsgd1na2vs0mg"},{"bike_id":"e2649a97-4cfc-4047-a4ae-62c1466481ae","system_id":"levelo_inurba_marseille","lat":43.24179,"lon":5.39726,"is_reserved":false,"is_disabled":false,"rental_uris":{"android":"levelo://app?vid=e2649a97-4cfc-4047-a4ae-62c1466481ae","ios":"levelo://app?vid=e2649a97-4cfc-4047-a4ae-62c1466481ae"},"vehicle_type_id":"4","last_reported":1739639275,"current_range_meters":24000,"station_id":"ce4bhn12rcd13ifvqgpg","pricing_plan_id":"cebpf4jnsgd1na2vs0mg"},{"bike_id":"23bae8ab-f799-4174-a95c-77ecb3ad7147","system_id":"levelo_inurba_marseille","lat":43.27207,"lon":5.39182,"is_reserved":false,"is_disabled":false,"rental_uris":{"android":"levelo://app?vid=23bae8ab-f799-4174-a95c-77ecb3ad7147","ios":"levelo://app?vid=23bae8ab-f799-4174-a95c-77ecb3ad7147"},"vehicle_type_id":"4","last_reported":1739639275,"current_range_meters":12800,"station_id":"ce4bhhp2rcd13ifvqfm0","pricing_plan_id":"cebpf4jnsgd1na2vs0mg"},{"bike_id":"158cf94e-b8b5-4ddc-b9c3-f61814f9e500","system_id":"levelo_inurba_marseille","lat":43.27997,"lon":5.4166,"is_reserved":false,"is_disabled":false,"rental_uris":{"android":"levelo://app?vid=158cf94e-b8b5-4ddc-b9c3-f61814f9e500","ios":"levelo://app?vid=158cf94e-b8b5-4ddc-b9c3-f61814f9e500"},"vehicle_type_id":"4","last_reported":1739639275,"current_range_meters":12400,"station_id":"ce4bho12rcd13ifvqh1g","pricing_plan_id":"cebpf4jnsgd1na2vs0mg"},{"bike_id":"bd1fbd17-5ecd-4c2a-9290-d1ffd1a70214","system_id":"levelo_inurba_marseille","lat":43.29551,"lon":5.42289,"is_reserved":false,"is_disabled":false,"rental_uris":{"android":"levelo://app?vid=bd1fbd17-5ecd-4c2a-9290-d1ffd1a70214","ios":"levelo://app?vid=bd1fbd17-5ecd-4c2a-9290-d1ffd1a70214"},"vehicle_type_id":"4","last_reported":1739639275,"current_range_meters":32000,"station_id":"ce4bhph2rcd13ifvqhdg","pricing_plan_id":"cebpf4jnsgd1na2vs0mg"},{"bike_id":"e492bf36-b9da-4024-88d1-1b3161c4bdab","system_id":"levelo_inurba_marseille","lat":43.26942,"lon":5.40256,"is_reserved":false,"is_disabled":false,"rental_uris":{"android":"levelo://app?vid=e492bf36-b9da-4024-88d1-1b3161c4bdab","ios":"levelo://app?vid=e492bf36-b9da-4024-88d1-1b3161c4bdab"},"vehicle_type_id":"4","last_reported":1739639275,"current_range_meters":38800,"station_id":"cjm6bp8fraef2m0cb0m0","pricing_plan_id":"cebpf4jnsgd1na2vs0mg"},{"bike_id":"25515edf-cc9e-4e85-becb-3fd8e850755e","system_id":"levelo_inurba_marseille","lat":43.28153,"lon":5.4264,"is_reserved":false,"is_disabled":false,"rental_uris":{"android":"levelo://app?vid=25515edf-cc9e-4e85-becb-3fd8e850755e","ios":"levelo://app?vid=25515edf-cc9e-4e85-becb-3fd8e850755e"},"vehicle_type_id":"4","last_reported":1739639275,"current_range_meters":9200,"station_id":"ce4bhnh2rcd13ifvqgug","pricing_plan_id":"cebpf4jnsgd1na2vs0mg"},{"bike_id":"5c40fceb-d4b5-450c-90f4-ff23eb3c61ad","system_id":"levelo_inurba_marseille","lat":43.26934,"lon":5.40277,"is_reserved":false,"is_disabled":false,"rental_uris":{"android":"levelo://app?vid=5c40fceb-d4b5-450c-90f4-ff23eb3c61ad","ios":"levelo://app?vid=5c40fceb-d4b5-450c-90f4-ff23eb3c61ad"},"vehicle_type_id":"4","last_reported":1739639275,"current_range_meters":20800,"station_id":"cjm6bp8fraef2m0cb0m0","pricing_plan_id":"cebpf4jnsgd1na2vs0mg"},{"bike_id":"4f34ac20-13f8-4bff-8fa6-5425328bb98e","system_id":"levelo_inurba_marseille","lat":43.30245,"lon":5.40097,"is_reserved":false,"is_disabled":true,"rental_uris":{"android":"levelo://app?vid=4f34ac20-13f8-4bff-8fa6-5425328bb98e","ios":"levelo://app?vid=4f34ac20-13f8-4bff-8fa6-5425328bb98e"},"vehicle_type_id":"4","last_reported":1739639275,"current_range_meters":27600,"station_id":"ce4bgvh2rcd13ifvqcs0","pricing_plan_id":"cebpf4jnsgd1na2vs0mg"},{"bike_id":"ff3c62af-25c6-42ca-bb5a-afb1ca7470c2","system_id":"levelo_inurba_marseille","lat":43.29362,"lon":5.37852,"is_reserved":false,"is_disabled":false,"rental_uris":{"android":"levelo://app?vid=ff3c62af-25c6-42ca-bb5a-afb1ca7470c2","ios":"levelo://app?vid=ff3c62af-25c6-42ca-bb5a-afb1ca7470c2"},"vehicle_type_id":"4","last_reported":1739639275,"current_range_meters":10000,"station_id":"ce4bgjh2rcd13ifvqbf0","pricing_plan_id":"cebpf4jnsgd1na2vs0mg"},{"bike_id":"6cd5ae5a-c257-467c-9c8e-52d615225d20","system_id":"levelo_inurba_marseille","lat":43.27212,"lon":5.39199,"is_reserved":false,"is_disabled":false,"rental_uris":{"android":"levelo://app?vid=6cd5ae5a-c257-467c-9c8e-52d615225d20","ios":"levelo://app?vid=6cd5ae5a-c257-467c-9c8e-52d615225d20"},"vehicle_type_id":"4","last_reported":1739639275,"current_range_meters":39200,"station_id":"ce4bhhp2rcd13ifvqfm0","pricing_plan_id":"cebpf4jnsgd1na2vs0mg"},{"bike_id":"d63b7867-53a4-4bca-be72-b856d1cbea50","system_id":"levelo_inurba_marseille","lat":43.23957,"lon":5.36636,"is_reserved":false,"is_disabled":false,"rental_uris":{"android":"levelo://app?vid=d63b7867-53a4-4bca-be72-b856d1cbea50","ios":"levelo://app?vid=d63b7867-53a4-4bca-be72-b856d1cbea50"},"vehicle_type_id":"4","last_reported":1739639275,"current_range_meters":24000,"station_id":"ce4bhi12rcd13ifvqfp0","pricing_plan_id":"cebpf4jnsgd1na2vs0mg"},{"bike_id":"0e5a90cd-188b-4d27-b4ca-77a64cb513e1","system_id":"levelo_inurba_marseille","lat":43.29421,"lon":5.38621,"is_reserved":false,"is_disabled":false,"rental_uris":{"android":"levelo://app?vid=0e5a90cd-188b-4d27-b4ca-77a64cb513e1","ios":"levelo://app?vid=0e5a90cd-188b-4d27-b4ca-77a64cb513e1"},"vehicle_type_id":"4","last_reported":1739639275,"current_range_meters":22800,"station_id":"ce4bh2h2rcd13ifvqdh0","pricing_plan_id":"cebpf4jnsgd1na2vs0mg"},{"bike_id":"4d3df8ce-5bd0-429c-9dfb-af299168feb2","system_id":"levelo_inurba_marseille","lat":43.24539,"lon":5.39527,"is_reserved":false,"is_disabled":false,"rental_uris":{"android":"levelo://app?vid=4d3df8ce-5bd0-429c-9dfb-af299168feb2","ios":"levelo://app?vid=4d3df8ce-5bd0-429c-9dfb-af299168feb2"},"vehicle_type_id":"4","last_reported":1739639275,"current_range_meters":22800,"station_id":"ce4bhlp2rcd13ifvqgjg","pricing_plan_id":"cebpf4jnsgd1na2vs0mg"},{"bike_id":"bb4ce6be-3300-45ab-8c34-f42afa6be9e5","system_id":"levelo_inurba_marseille","lat":43.26938,"lon":5.40272,"is_reserved":false,"is_disabled":false,"rental_uris":{"android":"levelo://app?vid=bb4ce6be-3300-45ab-8c34-f42afa6be9e5","ios":"levelo://app?vid=bb4ce6be-3300-45ab-8c34-f42afa6be9e5"},"vehicle_type_id":"4","last_reported":1739639275,"current_range_meters":33200,"station_id":"cjm6bp8fraef2m0cb0m0","pricing_plan_id":"cebpf4jnsgd1na2vs0mg"},{"bike_id":"e96535e2-2645-4898-97ce-5a7cd0a67fa2","system_id":"levelo_inurba_marseille","lat":43.2549,"lon":5.37657,"is_reserved":false,"is_disabled":true,"rental_uris":{"android":"levelo://app?vid=e96535e2-2645-4898-97ce-5a7cd0a67fa2","ios":"levelo://app?vid=e96535e2-2645-4898-97ce-5a7cd0a67fa2"},"vehicle_type_id":"4","last_reported":1739639275,"current_range_meters":0,"station_id":"ce4bhh12rcd13ifvqff0","pricing_plan_id":"cebpf4jnsgd1na2vs0mg"},{"bike_id":"07044927-cf08-4e1e-a3d7-6ab730a0194d","system_id":"levelo_inurba_marseille","lat":43.26064,"lon":5.39394,"is_reserved":false,"is_disabled":false,"rental_uris":{"android":"levelo://app?vid=07044927-cf08-4e1e-a3d7-6ab730a0194d","ios":"levelo://app?vid=07044927-cf08-4e1e-a3d7-6ab730a0194d"},"vehicle_type_id":"4","last_reported":1739639275,"current_range_meters":38800,"station_id":"ce4bhh92rcd13ifvqfj0","pricing_plan_id":"cebpf4jnsgd1na2vs0mg"},{"bike_id":"a3b76a23-e719-4cac-9132-63d31b15a8de","system_id":"levelo_inurba_marseille","lat":43.24169,"lon":5.36385,"is_reserved":false,"is_disabled":false,"rental_uris":{"android":"levelo://app?vid=a3b76a23-e719-4cac-9132-63d31b15a8de","ios":"levelo://app?vid=a3b76a23-e719-4cac-9132-63d31b15a8de"},"vehicle_type_id":"4","last_reported":1739639275,"current_range_meters":28400,"station_id":"cpo36qri1sfpv3e86is0","pricing_plan_id":"cebpf4jnsgd1na2vs0mg"},{"bike_id":"24dc0f6a-ecd3-492b-a272-f678785c5dd7","system_id":"levelo_inurba_marseille","lat":43.29263,"lon":5.37619,"is_reserved":false,"is_disabled":false,"rental_uris":{"android":"levelo://app?vid=24dc0f6a-ecd3-492b-a272-f678785c5dd7","ios":"levelo://app?vid=24dc0f6a-ecd3-492b-a272-f678785c5dd7"},"vehicle_type_id":"4","last_reported":1739639275,"current_range_meters":22800,"station_id":"ce4bgi12rcd13ifvqb80","pricing_plan_id":"cebpf4jnsgd1na2vs0mg"},{"bike_id":"d2c39e71-c715-43da-ad16-e0841e41e63e","system_id":"levelo_inurba_marseille","lat":43.27196,"lon":5.39204,"is_reserved":false,"is_disabled":false,"rental_uris":{"android":"levelo://app?vid=d2c39e71-c715-43da-ad16-e0841e41e63e","ios":"levelo://app?vid=d2c39e71-c715-43da-ad16-e0841e41e63e"},"vehicle_type_id":"4","last_reported":1739639275,"current_range_meters":15200,"station_id":"ce4bhhp2rcd13ifvqfm0","pricing_plan_id":"cebpf4jnsgd1na2vs0mg"},{"bike_id":"fe0f12a8-8d62-4d79-b629-bda6901e6297","system_id":"levelo_inurba_marseille","lat":43.26945,"lon":5.40268,"is_reserved":false,"is_disabled":true,"rental_uris":{"android":"levelo://app?vid=fe0f12a8-8d62-4d79-b629-bda6901e6297","ios":"levelo://app?vid=fe0f12a8-8d62-4d79-b629-bda6901e6297"},"vehicle_type_id":"4","last_reported":1739639275,"current_range_meters":30800,"station_id":"cjm6bp8fraef2m0cb0m0","pricing_plan_id":"cebpf4jnsgd1na2vs0mg"},{"bike_id":"d1df5a86-4433-40e0-ba59-20bd209306af","system_id":"levelo_inurba_marseille","lat":43.2841,"lon":5.34975,"is_reserved":false,"is_disabled":false,"rental_uris":{"android":"levelo://app?vid=d1df5a86-4433-40e0-ba59-20bd209306af","ios":"levelo://app?vid=d1df5a86-4433-40e0-ba59-20bd209306af"},"vehicle_type_id":"4","last_reported":1739639275,"current_range_meters":25200,"station_id":"ce4bhbh2rcd13ifvqepg","pricing_plan_id":"cebpf4jnsgd1na2vs0mg"},{"bike_id":"6a4766da-f47f-44a3-add2-5caa7feb0290","system_id":"levelo_inurba_marseille","lat":43.26935,"lon":5.40245,"is_reserved":false,"is_disabled":false,"rental_uris":{"android":"levelo://app?vid=6a4766da-f47f-44a3-add2-5caa7feb0290","ios":"levelo://app?vid=6a4766da-f47f-44a3-add2-5caa7feb0290"},"vehicle_type_id":"4","last_reported":1739639275,"current_range_meters":27200,"station_id":"cjm6bp8fraef2m0cb0m0","pricing_plan_id":"cebpf4jnsgd1na2vs0mg"},{"bike_id":"6409fcd1-a608-4631-83f6-7474568f5ca2","system_id":"levelo_inurba_marseille","lat":43.2678,"lon":5.39427,"is_reserved":false,"is_disabled":false,"rental_uris":{"android":"levelo://app?vid=6409fcd1-a608-4631-83f6-7474568f5ca2","ios":"levelo://app?vid=6409fcd1-a608-4631-83f6-7474568f5ca2"},"vehicle_type_id":"4","last_reported":1739639275,"current_range_meters":38800,"station_id":"ce4bhh12rcd13ifvqfg0","pricing_plan_id":"cebpf4jnsgd1na2vs0mg"},{"bike_id":"447437fa-0bdd-460c-a5f8-1185f7d00e5d","system_id":"levelo_inurba_marseille","lat":43.2783,"lon":5.39216,"is_reserved":false,"is_disabled":false,"rental_uris":{"android":"levelo://app?vid=447437fa-0bdd-460c-a5f8-1185f7d00e5d","ios":"levelo://app?vid=447437fa-0bdd-460c-a5f8-1185f7d00e5d"},"vehicle_type_id":"4","last_reported":1739639275,"current_range_meters":10000,"station_id":"ce4bhjp2rcd13ifvqga0","pricing_plan_id":"cebpf4jnsgd1na2vs0mg"},{"bike_id":"e06596e0-d4ce-4fa2-8b8c-15efebd754fd","system_id":"levelo_inurba_marseille","lat":43.28489,"lon":5.38398,"is_reserved":false,"is_disabled":false,"rental_uris":{"android":"levelo://app?vid=e06596e0-d4ce-4fa2-8b8c-15efebd754fd","ios":"levelo://app?vid=e06596e0-d4ce-4fa2-8b8c-15efebd754fd"},"vehicle_type_id":"4","last_reported":1739639275,"current_range_meters":6800,"station_id":"ce4bh512rcd13ifvqe3g","pricing_plan_id":"cebpf4jnsgd1na2vs0mg"},{"bike_id":"bbd2fc25-343f-44d6-8202-d69dbfbb512e","system_id":"levelo_inurba_marseille","lat":43.29615,"lon":5.37716,"is_reserved":false,"is_disabled":false,"rental_uris":{"android":"levelo://app?vid=bbd2fc25-343f-44d6-8202-d69dbfbb512e","ios":"levelo://app?vid=bbd2fc25-343f-44d6-8202-d69dbfbb512e"},"vehicle_type_id":"4","last_reported":1739639275,"current_range_meters":38400,"station_id":"ce4bgi92rcd13ifvqb90","pricing_plan_id":"cebpf4jnsgd1na2vs0mg"},{"bike_id":"c2abbac1-b8f8-4d05-8c1f-f0e98711a322","system_id":"levelo_inurba_marseille","lat":43.28427,"lon":5.34992,"is_reserved":false,"is_disabled":false,"rental_uris":{"android":"levelo://app?vid=c2abbac1-b8f8-4d05-8c1f-f0e98711a322","ios":"levelo://app?vid=c2abbac1-b8f8-4d05-8c1f-f0e98711a322"},"vehicle_type_id":"4","last_reported":1739639275,"current_range_meters":24400,"station_id":"ce4bhbh2rcd13ifvqepg","pricing_plan_id":"cebpf4jnsgd1na2vs0mg"},{"bike_id":"65551c02-da59-4771-9239-11231c445f31","system_id":"levelo_inurba_marseille","lat":43.24401,"lon":5.3706,"is_reserved":false,"is_disabled":false,"rental_uris":{"android":"levelo://app?vid=65551c02-da59-4771-9239-11231c445f31","ios":"levelo://app?vid=65551c02-da59-4771-9239-11231c445f31"},"vehicle_type_id":"4","last_reported":1739639275,"current_range_meters":30000,"station_id":"ce4bhhh2rcd13ifvqfk0","pricing_plan_id":"cebpf4jnsgd1na2vs0mg"},{"bike_id":"6234981b-7393-46f7-a388-a6119ab86c84","system_id":"levelo_inurba_marseille","lat":43.25112,"lon":5.40323,"is_reserved":false,"is_disabled":false,"rental_uris":{"android":"levelo://app?vid=6234981b-7393-46f7-a388-a6119ab86c84","ios":"levelo://app?vid=6234981b-7393-46f7-a388-a6119ab86c84"},"vehicle_type_id":"4","last_reported":1739639275,"current_range_meters":6000,"station_id":"ce4bhlh2rcd13ifvqgig","pricing_plan_id":"cebpf4jnsgd1na2vs0mg"},{"bike_id":"9163e481-f89a-48ef-a201-33eebb95fd14","system_id":"levelo_inurba_marseille","lat":43.29906,"lon":5.36524,"is_reserved":false,"is_disabled":false,"rental_uris":{"android":"levelo://app?vid=9163e481-f89a-48ef-a201-33eebb95fd14","ios":"levelo://app?vid=9163e481-f89a-48ef-a201-33eebb95fd14"},"vehicle_type_id":"4","last_reported":1739639275,"current_range_meters":28000,"station_id":"","pricing_plan_id":"cebpf4jnsgd1na2vs0mg"},{"bike_id":"9f912eed-51aa-49cb-84a4-977637263173","system_id":"levelo_inurba_marseille","lat":43.29917,"lon":5.38033,"is_reserved":false,"is_disabled":false,"rental_uris":{"android":"levelo://app?vid=9f912eed-51aa-49cb-84a4-977637263173","ios":"levelo://app?vid=9f912eed-51aa-49cb-84a4-977637263173"},"vehicle_type_id":"4","last_reported":1739639275,"current_range_meters":25600,"station_id":"","pricing_plan_id":"cebpf4jnsgd1na2vs0mg"},{"bike_id":"523ac017-5cff-4c9f-9b72-fccb79644239","system_id":"levelo_inurba_marseille","lat":43.29417,"lon":5.38627,"is_reserved":false,"is_disabled":false,"rental_uris":{"android":"levelo://app?vid=523ac017-5cff-4c9f-9b72-fccb79644239","ios":"levelo://app?vid=523ac017-5cff-4c9f-9b72-fccb79644239"},"vehicle_type_id":"4","last_reported":1739639275,"current_range_meters":38800,"station_id":"ce4bh2h2rcd13ifvqdh0","pricing_plan_id":"cebpf4jnsgd1na2vs0mg"},{"bike_id":"0cec2f35-d5d0-4b16-ae21-b8732725e8e7","system_id":"levelo_inurba_marseille","lat":43.32344,"lon":5.40619,"is_reserved":false,"is_disabled":false,"rental_uris":{"android":"levelo://app?vid=0cec2f35-d5d0-4b16-ae21-b8732725e8e7","ios":"levelo://app?vid=0cec2f35-d5d0-4b16-ae21-b8732725e8e7"},"vehicle_type_id":"4","last_reported":1739639275,"current_range_meters":38000,"station_id":"ce4bhq92rcd13ifvqhjg","pricing_plan_id":"cebpf4jnsgd1na2vs0mg"},{"bike_id":"2387448a-ad1e-4d92-8739-0eed7ccd6f1a","system_id":"levelo_inurba_marseille","lat":43.31899,"lon":5.40807,"is_reserved":false,"is_disabled":false,"rental_uris":{"android":"levelo://app?vid=2387448a-ad1e-4d92-8739-0eed7ccd6f1a","ios":"levelo://app?vid=2387448a-ad1e-4d92-8739-0eed7ccd6f1a"},"vehicle_type_id":"4","last_reported":1739639275,"current_range_meters":27600,"station_id":"ce4bhpp2rcd13ifvqhgg","pricing_plan_id":"cebpf4jnsgd1na2vs0mg"},{"bike_id":"afbdeb5e-6000-4bdb-b0ec-874d7a3416c1","system_id":"levelo_inurba_marseille","lat":43.26938,"lon":5.40249,"is_reserved":false,"is_disabled":false,"rental_uris":{"android":"levelo://app?vid=afbdeb5e-6000-4bdb-b0ec-874d7a3416c1","ios":"levelo://app?vid=afbdeb5e-6000-4bdb-b0ec-874d7a3416c1"},"vehicle_type_id":"4","last_reported":1739639275,"current_range_meters":21600,"station_id":"cjm6bp8fraef2m0cb0m0","pricing_plan_id":"cebpf4jnsgd1na2vs0mg"},{"bike_id":"5b431ab1-d314-4821-8c18-09393d8dee0b","system_id":"levelo_inurba_marseille","lat":43.28481,"lon":5.38549,"is_reserved":false,"is_disabled":false,"rental_uris":{"android":"levelo://app?vid=5b431ab1-d314-4821-8c18-09393d8dee0b","ios":"levelo://app?vid=5b431ab1-d314-4821-8c18-09393d8dee0b"},"vehicle_type_id":"4","last_reported":1739639275,"current_range_meters":37600,"station_id":"ce4bh8p2rcd13ifvqeb0","pricing_plan_id":"cebpf4jnsgd1na2vs0mg"},{"bike_id":"0456510d-4594-47ca-b68b-5f9cbbaa6ee3","system_id":"levelo_inurba_marseille","lat":43.28974,"lon":5.37838,"is_reserved":false,"is_disabled":false,"rental_uris":{"android":"levelo://app?vid=0456510d-4594-47ca-b68b-5f9cbbaa6ee3","ios":"levelo://app?vid=0456510d-4594-47ca-b68b-5f9cbbaa6ee3"},"vehicle_type_id":"4","last_reported":1739639275,"current_range_meters":30400,"station_id":"ce4bh9p2rcd13ifvqed0","pricing_plan_id":"cebpf4jnsgd1na2vs0mg"},{"bike_id":"53b5f8d9-591b-4722-8b93-d03568f78034","system_id":"levelo_inurba_marseille","lat":43.28466,"lon":5.35913,"is_reserved":false,"is_disabled":false,"rental_uris":{"android":"levelo://app?vid=53b5f8d9-591b-4722-8b93-d03568f78034","ios":"levelo://app?vid=53b5f8d9-591b-4722-8b93-d03568f78034"},"vehicle_type_id":"4","last_reported":1739639275,"current_range_meters":24800,"station_id":"ce4bhah2rcd13ifvqei0","pricing_plan_id":"cebpf4jnsgd1na2vs0mg"},{"bike_id":"189061b9-53b2-416d-8fbe-de65cdce2d58","system_id":"levelo_inurba_marseille","lat":43.28617,"lon":5.35111,"is_reserved":false,"is_disabled":false,"rental_uris":{"android":"levelo://app?vid=189061b9-53b2-416d-8fbe-de65cdce2d58","ios":"levelo://app?vid=189061b9-53b2-416d-8fbe-de65cdce2d58"},"vehicle_type_id":"4","last_reported":1739639275,"current_range_meters":19200,"station_id":"ce4bhch2rcd13ifvqeug","pricing_plan_id":"cebpf4jnsgd1na2vs0mg"},{"bike_id":"dab23342-9ce8-4509-b39e-333d62123d35","system_id":"levelo_inurba_marseille","lat":43.29418,"lon":5.38627,"is_reserved":false,"is_disabled":true,"rental_uris":{"android":"levelo://app?vid=dab23342-9ce8-4509-b39e-333d62123d35","ios":"levelo://app?vid=dab23342-9ce8-4509-b39e-333d62123d35"},"vehicle_type_id":"4","last_reported":1739639275,"current_range_meters":1200,"station_id":"ce4bh2h2rcd13ifvqdh0","pricing_plan_id":"cebpf4jnsgd1na2vs0mg"},{"bike_id":"4b070b47-233f-4123-a57f-cb7d3f32fb80","system_id":"levelo_inurba_marseille","lat":43.30214,"lon":5.39483,"is_reserved":false,"is_disabled":false,"rental_uris":{"android":"levelo://app?vid=4b070b47-233f-4123-a57f-cb7d3f32fb80","ios":"levelo://app?vid=4b070b47-233f-4123-a57f-cb7d3f32fb80"},"vehicle_type_id":"4","last_reported":1739639275,"current_range_meters":36000,"station_id":"ce4bh0p2rcd13ifvqd70","pricing_plan_id":"cebpf4jnsgd1na2vs0mg"},{"bike_id":"dbb26da4-f243-44ad-b3b0-c04a7413b8a1","system_id":"levelo_inurba_marseille","lat":43.30544,"lon":5.38433,"is_reserved":false,"is_disabled":false,"rental_uris":{"android":"levelo://app?vid=dbb26da4-f243-44ad-b3b0-c04a7413b8a1","ios":"levelo://app?vid=dbb26da4-f243-44ad-b3b0-c04a7413b8a1"},"vehicle_type_id":"4","last_reported":1739639275,"current_range_meters":17600,"station_id":"ce4bgg92rcd13ifvqb30","pricing_plan_id":"cebpf4jnsgd1na2vs0mg"},{"bike_id":"f00620ae-2110-4dbd-a2e7-cd7bf13fe429","system_id":"levelo_inurba_marseille","lat":43.23188,"lon":5.39991,"is_reserved":false,"is_disabled":true,"rental_uris":{"android":"levelo://app?vid=f00620ae-2110-4dbd-a2e7-cd7bf13fe429","ios":"levelo://app?vid=f00620ae-2110-4dbd-a2e7-cd7bf13fe429"},"vehicle_type_id":"4","last_reported":1739639275,"current_range_meters":8800,"station_id":"ce4bhn12rcd13ifvqgqg","pricing_plan_id":"cebpf4jnsgd1na2vs0mg"},{"bike_id":"c0b322e1-6c7c-4f23-82b7-1aa4057d1a73","system_id":"levelo_inurba_marseille","lat":43.28616,"lon":5.35104,"is_reserved":false,"is_disabled":false,"rental_uris":{"android":"levelo://app?vid=c0b322e1-6c7c-4f23-82b7-1aa4057d1a73","ios":"levelo://app?vid=c0b322e1-6c7c-4f23-82b7-1aa4057d1a73"},"vehicle_type_id":"4","last_reported":1739639275,"current_range_meters":24400,"station_id":"ce4bhch2rcd13ifvqeug","pricing_plan_id":"cebpf4jnsgd1na2vs0mg"},{"bike_id":"59b279cd-9bb0-4e91-a9ed-cd7da0f24062","system_id":"levelo_inurba_marseille","lat":43.29597,"lon":5.37683,"is_reserved":false,"is_disabled":false,"rental_uris":{"android":"levelo://app?vid=59b279cd-9bb0-4e91-a9ed-cd7da0f24062","ios":"levelo://app?vid=59b279cd-9bb0-4e91-a9ed-cd7da0f24062"},"vehicle_type_id":"4","last_reported":1739639275,"current_range_meters":19600,"station_id":"ce4bgi92rcd13ifvqb90","pricing_plan_id":"cebpf4jnsgd1na2vs0mg"},{"bike_id":"ddf1d674-41d6-443f-b0f1-1da7df267862","system_id":"levelo_inurba_marseille","lat":43.23054,"lon":5.35495,"is_reserved":false,"is_disabled":false,"rental_uris":{"android":"levelo://app?vid=ddf1d674-41d6-443f-b0f1-1da7df267862","ios":"levelo://app?vid=ddf1d674-41d6-443f-b0f1-1da7df267862"},"vehicle_type_id":"4","last_reported":1739639275,"current_range_meters":20000,"station_id":"cpo3342slgdg3j2ifvpg","pricing_plan_id":"cebpf4jnsgd1na2vs0mg"},{"bike_id":"300b6025-6639-4c09-87f3-4528f603040e","system_id":"levelo_inurba_marseille","lat":43.26487,"lon":5.39552,"is_reserved":false,"is_disabled":false,"rental_uris":{"android":"levelo://app?vid=300b6025-6639-4c09-87f3-4528f603040e","ios":"levelo://app?vid=300b6025-6639-4c09-87f3-4528f603040e"},"vehicle_type_id":"4","last_reported":1739639275,"current_range_meters":39200,"station_id":"ce4bhi12rcd13ifvqfq0","pricing_plan_id":"cebpf4jnsgd1na2vs0mg"},{"bike_id":"59897d86-c0b3-4acb-bf89-133a9364e1f4","system_id":"levelo_inurba_marseille","lat":43.2306,"lon":5.35508,"is_reserved":false,"is_disabled":true,"rental_uris":{"android":"levelo://app?vid=59897d86-c0b3-4acb-bf89-133a9364e1f4","ios":"levelo://app?vid=59897d86-c0b3-4acb-bf89-133a9364e1f4"},"vehicle_type_id":"4","last_reported":1739639275,"current_range_meters":38800,"station_id":"cpo3342slgdg3j2ifvpg","pricing_plan_id":"cebpf4jnsgd1na2vs0mg"},{"bike_id":"46f7dd7f-3698-4a4b-84b6-cdfa84e75594","system_id":"levelo_inurba_marseille","lat":43.23962,"lon":5.36634,"is_reserved":false,"is_disabled":false,"rental_uris":{"android":"levelo://app?vid=46f7dd7f-3698-4a4b-84b6-cdfa84e75594","ios":"levelo://app?vid=46f7dd7f-3698-4a4b-84b6-cdfa84e75594"},"vehicle_type_id":"4","last_reported":1739639275,"current_range_meters":26800,"station_id":"ce4bhi12rcd13ifvqfp0","pricing_plan_id":"cebpf4jnsgd1na2vs0mg"},{"bike_id":"aee02c28-ebc6-4075-9ab3-c9333cc7886d","system_id":"levelo_inurba_marseille","lat":43.29709,"lon":5.36599,"is_reserved":false,"is_disabled":false,"rental_uris":{"android":"levelo://app?vid=aee02c28-ebc6-4075-9ab3-c9333cc7886d","ios":"levelo://app?vid=aee02c28-ebc6-4075-9ab3-c9333cc7886d"},"vehicle_type_id":"4","last_reported":1739639275,"current_range_meters":29600,"station_id":"ce4bgn12rcd13ifvqbt0","pricing_plan_id":"cebpf4jnsgd1na2vs0mg"},{"bike_id":"3657cb3a-8308-44c8-971b-092680d319de","system_id":"levelo_inurba_marseille","lat":43.23205,"lon":5.35559,"is_reserved":false,"is_disabled":false,"rental_uris":{"android":"levelo://app?vid=3657cb3a-8308-44c8-971b-092680d319de","ios":"levelo://app?vid=3657cb3a-8308-44c8-971b-092680d319de"},"vehicle_type_id":"4","last_reported":1739639275,"current_range_meters":12800,"station_id":"ce4bhu92rcd13ifvqi70","pricing_plan_id":"cebpf4jnsgd1na2vs0mg"},{"bike_id":"48b97706-6a5a-4cb6-bd2f-fddb8b25b5ec","system_id":"levelo_inurba_marseille","lat":43.29298,"lon":5.37158,"is_reserved":false,"is_disabled":false,"rental_uris":{"android":"levelo://app?vid=48b97706-6a5a-4cb6-bd2f-fddb8b25b5ec","ios":"levelo://app?vid=48b97706-6a5a-4cb6-bd2f-fddb8b25b5ec"},"vehicle_type_id":"4","last_reported":1739639275,"current_range_meters":36800,"station_id":"ce4bgh92rcd13ifvqb40","pricing_plan_id":"cebpf4jnsgd1na2vs0mg"},{"bike_id":"43781eb1-2889-4ba8-a4f2-208a747d81be","system_id":"levelo_inurba_marseille","lat":43.2695,"lon":5.40292,"is_reserved":false,"is_disabled":false,"rental_uris":{"android":"levelo://app?vid=43781eb1-2889-4ba8-a4f2-208a747d81be","ios":"levelo://app?vid=43781eb1-2889-4ba8-a4f2-208a747d81be"},"vehicle_type_id":"4","last_reported":1739639275,"current_range_meters":37600,"station_id":"cjm6bp8fraef2m0cb0m0","pricing_plan_id":"cebpf4jnsgd1na2vs0mg"},{"bike_id":"4bc50c17-9aeb-4487-a054-afb81c6c63dc","system_id":"levelo_inurba_marseille","lat":43.27617,"lon":5.36114,"is_reserved":false,"is_disabled":true,"rental_uris":{"android":"levelo://app?vid=4bc50c17-9aeb-4487-a054-afb81c6c63dc","ios":"levelo://app?vid=4bc50c17-9aeb-4487-a054-afb81c6c63dc"},"vehicle_type_id":"4","last_reported":1739639275,"current_range_meters":32000,"station_id":"ce4bgj92rcd13ifvqbe0","pricing_plan_id":"cebpf4jnsgd1na2vs0mg"},{"bike_id":"7945cc24-a25f-47ce-8cf9-8b2f5543dd96","system_id":"levelo_inurba_marseille","lat":43.29799,"lon":5.38088,"is_reserved":false,"is_disabled":false,"rental_uris":{"android":"levelo://app?vid=7945cc24-a25f-47ce-8cf9-8b2f5543dd96","ios":"levelo://app?vid=7945cc24-a25f-47ce-8cf9-8b2f5543dd96"},"vehicle_type_id":"4","last_reported":1739639275,"current_range_meters":34800,"station_id":"ce4bgip2rcd13ifvqbb0","pricing_plan_id":"cebpf4jnsgd1na2vs0mg"},{"bike_id":"b6d01ae4-b0e8-4fc9-84d4-ff2f8bb28dd3","system_id":"levelo_inurba_marseille","lat":43.22934,"lon":5.35377,"is_reserved":false,"is_disabled":false,"rental_uris":{"android":"levelo://app?vid=b6d01ae4-b0e8-4fc9-84d4-ff2f8bb28dd3","ios":"levelo://app?vid=b6d01ae4-b0e8-4fc9-84d4-ff2f8bb28dd3"},"vehicle_type_id":"4","last_reported":1739639275,"current_range_meters":39200,"station_id":"cpo3532slgdg3j2ikp40","pricing_plan_id":"cebpf4jnsgd1na2vs0mg"},{"bike_id":"43dc5574-eed0-4b1d-9289-f32002400d84","system_id":"levelo_inurba_marseille","lat":43.24167,"lon":5.36403,"is_reserved":false,"is_disabled":false,"rental_uris":{"android":"levelo://app?vid=43dc5574-eed0-4b1d-9289-f32002400d84","ios":"levelo://app?vid=43dc5574-eed0-4b1d-9289-f32002400d84"},"vehicle_type_id":"4","last_reported":1739639275,"current_range_meters":10800,"station_id":"cpo36qri1sfpv3e86is0","pricing_plan_id":"cebpf4jnsgd1na2vs0mg"},{"bike_id":"b7675672-ea91-4212-a3c2-1e75ea117425","system_id":"levelo_inurba_marseille","lat":43.2818,"lon":5.42633,"is_reserved":false,"is_disabled":true,"rental_uris":{"android":"levelo://app?vid=b7675672-ea91-4212-a3c2-1e75ea117425","ios":"levelo://app?vid=b7675672-ea91-4212-a3c2-1e75ea117425"},"vehicle_type_id":"4","last_reported":1739639275,"current_range_meters":0,"station_id":"ce4bhnh2rcd13ifvqgug","pricing_plan_id":"cebpf4jnsgd1na2vs0mg"},{"bike_id":"91e27922-e676-45ea-94da-baf83d9c520d","system_id":"levelo_inurba_marseille","lat":43.2804,"lon":5.36943,"is_reserved":false,"is_disabled":true,"rental_uris":{"android":"levelo://app?vid=91e27922-e676-45ea-94da-baf83d9c520d","ios":"levelo://app?vid=91e27922-e676-45ea-94da-baf83d9c520d"},"vehicle_type_id":"4","last_reported":1739639275,"current_range_meters":37600,"station_id":"ce4bha12rcd13ifvqef0","pricing_plan_id":"cebpf4jnsgd1na2vs0mg"},{"bike_id":"8ce8fbd1-463e-4cf3-b6a3-9ba3963e3615","system_id":"levelo_inurba_marseille","lat":43.29371,"lon":5.37869,"is_reserved":false,"is_disabled":false,"rental_uris":{"android":"levelo://app?vid=8ce8fbd1-463e-4cf3-b6a3-9ba3963e3615","ios":"levelo://app?vid=8ce8fbd1-463e-4cf3-b6a3-9ba3963e3615"},"vehicle_type_id":"4","last_reported":1739639275,"current_range_meters":24400,"station_id":"ce4bgjh2rcd13ifvqbf0","pricing_plan_id":"cebpf4jnsgd1na2vs0mg"},{"bike_id":"3267b8a7-1e4e-443c-a66a-46725243df34","system_id":"levelo_inurba_marseille","lat":43.30246,"lon":5.3969,"is_reserved":false,"is_disabled":false,"rental_uris":{"android":"levelo://app?vid=3267b8a7-1e4e-443c-a66a-46725243df34","ios":"levelo://app?vid=3267b8a7-1e4e-443c-a66a-46725243df34"},"vehicle_type_id":"4","last_reported":1739639275,"current_range_meters":38400,"station_id":"","pricing_plan_id":"cebpf4jnsgd1na2vs0mg"},{"bike_id":"2d4261ba-6a4a-4cc9-a038-a1cf8c06d861","system_id":"levelo_inurba_marseille","lat":43.26231,"lon":5.40453,"is_reserved":false,"is_disabled":false,"rental_uris":{"android":"levelo://app?vid=2d4261ba-6a4a-4cc9-a038-a1cf8c06d861","ios":"levelo://app?vid=2d4261ba-6a4a-4cc9-a038-a1cf8c06d861"},"vehicle_type_id":"4","last_reported":1739639275,"current_range_meters":33200,"station_id":"ce4bhmh2rcd13ifvqgmg","pricing_plan_id":"cebpf4jnsgd1na2vs0mg"},{"bike_id":"af910778-c953-4e7b-8a73-65a3680984f2","system_id":"levelo_inurba_marseille","lat":43.301254,"lon":5.387784,"is_reserved":false,"is_disabled":false,"rental_uris":{"android":"levelo://app?vid=af910778-c953-4e7b-8a73-65a3680984f2","ios":"levelo://app?vid=af910778-c953-4e7b-8a73-65a3680984f2"},"vehicle_type_id":"4","last_reported":1739639275,"current_range_meters":2800,"station_id":"ce4bghh2rcd13ifvqb60","pricing_plan_id":"cebpf4jnsgd1na2vs0mg"},{"bike_id":"9bcc3779-160f-4f11-a908-15bc41b1ac43","system_id":"levelo_inurba_marseille","lat":43.27987,"lon":5.40011,"is_reserved":false,"is_disabled":true,"rental_uris":{"android":"levelo://app?vid=9bcc3779-160f-4f11-a908-15bc41b1ac43","ios":"levelo://app?vid=9bcc3779-160f-4f11-a908-15bc41b1ac43"},"vehicle_type_id":"4","last_reported":1739639275,"current_range_meters":6400,"station_id":"ce4bho92rcd13ifvqh4g","pricing_plan_id":"cebpf4jnsgd1na2vs0mg"},{"bike_id":"3c64c24f-16f7-46ec-b068-15fe4ebda356","system_id":"levelo_inurba_marseille","lat":43.29493,"lon":5.36395,"is_reserved":false,"is_disabled":true,"rental_uris":{"android":"levelo://app?vid=3c64c24f-16f7-46ec-b068-15fe4ebda356","ios":"levelo://app?vid=3c64c24f-16f7-46ec-b068-15fe4ebda356"},"vehicle_type_id":"4","last_reported":1739639275,"current_range_meters":21600,"station_id":"","pricing_plan_id":"cebpf4jnsgd1na2vs0mg"},{"bike_id":"07103950-cfc8-4b51-a67a-cac3df3ef5e7","system_id":"levelo_inurba_marseille","lat":43.2407,"lon":5.37764,"is_reserved":false,"is_disabled":false,"rental_uris":{"android":"levelo://app?vid=07103950-cfc8-4b51-a67a-cac3df3ef5e7","ios":"levelo://app?vid=07103950-cfc8-4b51-a67a-cac3df3ef5e7"},"vehicle_type_id":"4","last_reported":1739639275,"current_range_meters":38800,"station_id":"ce4bhnp2rcd13ifvqgvg","pricing_plan_id":"cebpf4jnsgd1na2vs0mg"},{"bike_id":"5cb40838-294b-438d-a3a9-b244f8aff87a","system_id":"levelo_inurba_marseille","lat":43.27906,"lon":5.38014,"is_reserved":false,"is_disabled":false,"rental_uris":{"android":"levelo://app?vid=5cb40838-294b-438d-a3a9-b244f8aff87a","ios":"levelo://app?vid=5cb40838-294b-438d-a3a9-b244f8aff87a"},"vehicle_type_id":"4","last_reported":1739639275,"current_range_meters":22400,"station_id":"ce4bhf92rcd13ifvqf50","pricing_plan_id":"cebpf4jnsgd1na2vs0mg"},{"bike_id":"f66f74df-96d8-4ce3-87c1-7f9b86778635","system_id":"levelo_inurba_marseille","lat":43.22924,"lon":5.35376,"is_reserved":false,"is_disabled":false,"rental_uris":{"android":"levelo://app?vid=f66f74df-96d8-4ce3-87c1-7f9b86778635","ios":"levelo://app?vid=f66f74df-96d8-4ce3-87c1-7f9b86778635"},"vehicle_type_id":"4","last_reported":1739639275,"current_range_meters":22400,"station_id":"cpo3532slgdg3j2ikp40","pricing_plan_id":"cebpf4jnsgd1na2vs0mg"},{"bike_id":"e031351b-efdb-4640-8255-b69e1640bbff","system_id":"levelo_inurba_marseille","lat":43.24178,"lon":5.36388,"is_reserved":false,"is_disabled":false,"rental_uris":{"android":"levelo://app?vid=e031351b-efdb-4640-8255-b69e1640bbff","ios":"levelo://app?vid=e031351b-efdb-4640-8255-b69e1640bbff"},"vehicle_type_id":"4","last_reported":1739639275,"current_range_meters":29600,"station_id":"cpo36qri1sfpv3e86is0","pricing_plan_id":"cebpf4jnsgd1na2vs0mg"},{"bike_id":"9ebb5a9d-4361-463e-bf9a-89d36f38d7f0","system_id":"levelo_inurba_marseille","lat":43.27415,"lon":5.39403,"is_reserved":false,"is_disabled":false,"rental_uris":{"android":"levelo://app?vid=9ebb5a9d-4361-463e-bf9a-89d36f38d7f0","ios":"levelo://app?vid=9ebb5a9d-4361-463e-bf9a-89d36f38d7f0"},"vehicle_type_id":"4","last_reported":1739639275,"current_range_meters":24400,"station_id":"ce4bhdp2rcd13ifvqf20","pricing_plan_id":"cebpf4jnsgd1na2vs0mg"},{"bike_id":"32f51766-4463-487e-b74a-e3bd9b557202","system_id":"levelo_inurba_marseille","lat":43.30441,"lon":5.38894,"is_reserved":false,"is_disabled":false,"rental_uris":{"android":"levelo://app?vid=32f51766-4463-487e-b74a-e3bd9b557202","ios":"levelo://app?vid=32f51766-4463-487e-b74a-e3bd9b557202"},"vehicle_type_id":"4","last_reported":1739639275,"current_range_meters":35600,"station_id":"ce4bgk12rcd13ifvqbi0","pricing_plan_id":"cebpf4jnsgd1na2vs0mg"},{"bike_id":"8f546b78-c917-438d-a243-b7cdec767e05","system_id":"levelo_inurba_marseille","lat":43.30427,"lon":5.39748,"is_reserved":false,"is_disabled":false,"rental_uris":{"android":"levelo://app?vid=8f546b78-c917-438d-a243-b7cdec767e05","ios":"levelo://app?vid=8f546b78-c917-438d-a243-b7cdec767e05"},"vehicle_type_id":"4","last_reported":1739639275,"current_range_meters":17600,"station_id":"ce4bh092rcd13ifvqd20","pricing_plan_id":"cebpf4jnsgd1na2vs0mg"},{"bike_id":"ba38d777-1a6a-4e8a-bb82-1ca05a599168","system_id":"levelo_inurba_marseille","lat":43.29412,"lon":5.38611,"is_reserved":false,"is_disabled":false,"rental_uris":{"android":"levelo://app?vid=ba38d777-1a6a-4e8a-bb82-1ca05a599168","ios":"levelo://app?vid=ba38d777-1a6a-4e8a-bb82-1ca05a599168"},"vehicle_type_id":"4","last_reported":1739639275,"current_range_meters":4800,"station_id":"ce4bh2h2rcd13ifvqdh0","pricing_plan_id":"cebpf4jnsgd1na2vs0mg"},{"bike_id":"59102c6c-1681-46a2-9d38-9c0ebbd20b58","system_id":"levelo_inurba_marseille","lat":43.27214,"lon":5.39198,"is_reserved":false,"is_disabled":false,"rental_uris":{"android":"levelo://app?vid=59102c6c-1681-46a2-9d38-9c0ebbd20b58","ios":"levelo://app?vid=59102c6c-1681-46a2-9d38-9c0ebbd20b58"},"vehicle_type_id":"4","last_reported":1739639275,"current_range_meters":38800,"station_id":"ce4bhhp2rcd13ifvqfm0","pricing_plan_id":"cebpf4jnsgd1na2vs0mg"},{"bike_id":"89e645a1-b1ed-49f5-be27-7fc5d9eb3c6a","system_id":"levelo_inurba_marseille","lat":43.26779,"lon":5.39425,"is_reserved":false,"is_disabled":false,"rental_uris":{"android":"levelo://app?vid=89e645a1-b1ed-49f5-be27-7fc5d9eb3c6a","ios":"levelo://app?vid=89e645a1-b1ed-49f5-be27-7fc5d9eb3c6a"},"vehicle_type_id":"4","last_reported":1739639275,"current_range_meters":33600,"station_id":"ce4bhh12rcd13ifvqfg0","pricing_plan_id":"cebpf4jnsgd1na2vs0mg"},{"bike_id":"d7200c34-f87b-4a12-90a0-0bb68402bf6f","system_id":"levelo_inurba_marseille","lat":43.26932,"lon":5.40267,"is_reserved":false,"is_disabled":false,"rental_uris":{"android":"levelo://app?vid=d7200c34-f87b-4a12-90a0-0bb68402bf6f","ios":"levelo://app?vid=d7200c34-f87b-4a12-90a0-0bb68402bf6f"},"vehicle_type_id":"4","last_reported":1739639275,"current_range_meters":17200,"station_id":"cjm6bp8fraef2m0cb0m0","pricing_plan_id":"cebpf4jnsgd1na2vs0mg"},{"bike_id":"d1d0f41c-c77a-4f7a-8acb-c074e3f56578","system_id":"levelo_inurba_marseille","lat":43.28017,"lon":5.36943,"is_reserved":false,"is_disabled":true,"rental_uris":{"android":"levelo://app?vid=d1d0f41c-c77a-4f7a-8acb-c074e3f56578","ios":"levelo://app?vid=d1d0f41c-c77a-4f7a-8acb-c074e3f56578"},"vehicle_type_id":"4","last_reported":1739639275,"current_range_meters":0,"station_id":"ce4bha12rcd13ifvqef0","pricing_plan_id":"cebpf4jnsgd1na2vs0mg"},{"bike_id":"ad4af932-f51b-41b8-983b-7e431dcc24a9","system_id":"levelo_inurba_marseille","lat":43.337444,"lon":5.374475,"is_reserved":false,"is_disabled":true,"rental_uris":{"android":"levelo://app?vid=ad4af932-f51b-41b8-983b-7e431dcc24a9","ios":"levelo://app?vid=ad4af932-f51b-41b8-983b-7e431dcc24a9"},"vehicle_type_id":"4","last_reported":1739639275,"current_range_meters":0,"station_id":"","pricing_plan_id":"cebpf4jnsgd1na2vs0mg"},{"bike_id":"95d42703-1a37-4cb4-8b06-69616f6b8e6d","system_id":"levelo_inurba_marseille","lat":43.27657,"lon":5.38903,"is_reserved":false,"is_disabled":true,"rental_uris":{"android":"levelo://app?vid=95d42703-1a37-4cb4-8b06-69616f6b8e6d","ios":"levelo://app?vid=95d42703-1a37-4cb4-8b06-69616f6b8e6d"},"vehicle_type_id":"4","last_reported":1739639275,"current_range_meters":36800,"station_id":"ce4bhi12rcd13ifvqfo0","pricing_plan_id":"cebpf4jnsgd1na2vs0mg"},{"bike_id":"81bec61a-1f2c-43a9-b162-eec1d41ccf13","system_id":"levelo_inurba_marseille","lat":43.28338,"lon":5.42995,"is_reserved":false,"is_disabled":false,"rental_uris":{"android":"levelo://app?vid=81bec61a-1f2c-43a9-b162-eec1d41ccf13","ios":"levelo://app?vid=81bec61a-1f2c-43a9-b162-eec1d41ccf13"},"vehicle_type_id":"4","last_reported":1739639275,"current_range_meters":23200,"station_id":"","pricing_plan_id":"cebpf4jnsgd1na2vs0mg"},{"bike_id":"dfb8b4bf-66b7-4f69-91ef-2703e7099d0d","system_id":"levelo_inurba_marseille","lat":43.26782,"lon":5.39403,"is_reserved":false,"is_disabled":true,"rental_uris":{"android":"levelo://app?vid=dfb8b4bf-66b7-4f69-91ef-2703e7099d0d","ios":"levelo://app?vid=dfb8b4bf-66b7-4f69-91ef-2703e7099d0d"},"vehicle_type_id":"4","last_reported":1739639275,"current_range_meters":3600,"station_id":"ce4bhh12rcd13ifvqfg0","pricing_plan_id":"cebpf4jnsgd1na2vs0mg"},{"bike_id":"20db90fe-c599-40db-9c7c-29570dd67b85","system_id":"levelo_inurba_marseille","lat":43.28842,"lon":5.39303,"is_reserved":false,"is_disabled":false,"rental_uris":{"android":"levelo://app?vid=20db90fe-c599-40db-9c7c-29570dd67b85","ios":"levelo://app?vid=20db90fe-c599-40db-9c7c-29570dd67b85"},"vehicle_type_id":"4","last_reported":1739639275,"current_range_meters":38800,"station_id":"ce4bh2p2rcd13ifvqdi0","pricing_plan_id":"cebpf4jnsgd1na2vs0mg"},{"bike_id":"2f3740d3-f086-40be-8a44-40d6980e487e","system_id":"levelo_inurba_marseille","lat":43.29537,"lon":5.3749,"is_reserved":false,"is_disabled":false,"rental_uris":{"android":"levelo://app?vid=2f3740d3-f086-40be-8a44-40d6980e487e","ios":"levelo://app?vid=2f3740d3-f086-40be-8a44-40d6980e487e"},"vehicle_type_id":"4","last_reported":1739639275,"current_range_meters":20400,"station_id":"ce4bgh92rcd13ifvqb50","pricing_plan_id":"cebpf4jnsgd1na2vs0mg"},{"bike_id":"4c44d6ff-b6bd-4bc1-a743-46930cee0b35","system_id":"levelo_inurba_marseille","lat":43.28611,"lon":5.35104,"is_reserved":false,"is_disabled":false,"rental_uris":{"android":"levelo://app?vid=4c44d6ff-b6bd-4bc1-a743-46930cee0b35","ios":"levelo://app?vid=4c44d6ff-b6bd-4bc1-a743-46930cee0b35"},"vehicle_type_id":"4","last_reported":1739639275,"current_range_meters":19600,"station_id":"ce4bhch2rcd13ifvqeug","pricing_plan_id":"cebpf4jnsgd1na2vs0mg"},{"bike_id":"aeb403d4-9cef-44b2-b32c-cb912f49efa3","system_id":"levelo_inurba_marseille","lat":43.23205,"lon":5.35549,"is_reserved":false,"is_disabled":false,"rental_uris":{"android":"levelo://app?vid=aeb403d4-9cef-44b2-b32c-cb912f49efa3","ios":"levelo://app?vid=aeb403d4-9cef-44b2-b32c-cb912f49efa3"},"vehicle_type_id":"4","last_reported":1739639275,"current_range_meters":32800,"station_id":"ce4bhu92rcd13ifvqi70","pricing_plan_id":"cebpf4jnsgd1na2vs0mg"},{"bike_id":"8dd0a8d5-4f68-4b07-8ada-ba8a3b3e47ff","system_id":"levelo_inurba_marseille","lat":43.30278,"lon":5.37708,"is_reserved":false,"is_disabled":false,"rental_uris":{"android":"levelo://app?vid=8dd0a8d5-4f68-4b07-8ada-ba8a3b3e47ff","ios":"levelo://app?vid=8dd0a8d5-4f68-4b07-8ada-ba8a3b3e47ff"},"vehicle_type_id":"4","last_reported":1739639275,"current_range_meters":25600,"station_id":"ce4bguh2rcd13ifvqcj0","pricing_plan_id":"cebpf4jnsgd1na2vs0mg"},{"bike_id":"51a5256f-6050-45fb-beaa-5b25a8871e81","system_id":"levelo_inurba_marseille","lat":43.2439,"lon":5.37065,"is_reserved":false,"is_disabled":false,"rental_uris":{"android":"levelo://app?vid=51a5256f-6050-45fb-beaa-5b25a8871e81","ios":"levelo://app?vid=51a5256f-6050-45fb-beaa-5b25a8871e81"},"vehicle_type_id":"4","last_reported":1739639275,"current_range_meters":30800,"station_id":"ce4bhhh2rcd13ifvqfk0","pricing_plan_id":"cebpf4jnsgd1na2vs0mg"},{"bike_id":"7b0cd108-a771-4507-8c17-f8ba78b8f9b8","system_id":"levelo_inurba_marseille","lat":43.28941,"lon":5.3663,"is_reserved":false,"is_disabled":false,"rental_uris":{"android":"levelo://app?vid=7b0cd108-a771-4507-8c17-f8ba78b8f9b8","ios":"levelo://app?vid=7b0cd108-a771-4507-8c17-f8ba78b8f9b8"},"vehicle_type_id":"4","last_reported":1739639275,"current_range_meters":32000,"station_id":"ce4bhap2rcd13ifvqek0","pricing_plan_id":"cebpf4jnsgd1na2vs0mg"},{"bike_id":"6e9279e1-a299-42cb-b26a-80dd0bd04fc9","system_id":"levelo_inurba_marseille","lat":43.29552,"lon":5.36468,"is_reserved":false,"is_disabled":false,"rental_uris":{"android":"levelo://app?vid=6e9279e1-a299-42cb-b26a-80dd0bd04fc9","ios":"levelo://app?vid=6e9279e1-a299-42cb-b26a-80dd0bd04fc9"},"vehicle_type_id":"4","last_reported":1739639275,"current_range_meters":36000,"station_id":"","pricing_plan_id":"cebpf4jnsgd1na2vs0mg"},{"bike_id":"63ea1146-6635-4ab9-8ded-196ccb45282d","system_id":"levelo_inurba_marseille","lat":43.23063,"lon":5.35485,"is_reserved":false,"is_disabled":false,"rental_uris":{"android":"levelo://app?vid=63ea1146-6635-4ab9-8ded-196ccb45282d","ios":"levelo://app?vid=63ea1146-6635-4ab9-8ded-196ccb45282d"},"vehicle_type_id":"4","last_reported":1739639275,"current_range_meters":16800,"station_id":"cpo3342slgdg3j2ifvpg","pricing_plan_id":"cebpf4jnsgd1na2vs0mg"},{"bike_id":"559d93a6-d7ed-4a87-9e07-ec0d0396d749","system_id":"levelo_inurba_marseille","lat":43.30302,"lon":5.39219,"is_reserved":false,"is_disabled":false,"rental_uris":{"android":"levelo://app?vid=559d93a6-d7ed-4a87-9e07-ec0d0396d749","ios":"levelo://app?vid=559d93a6-d7ed-4a87-9e07-ec0d0396d749"},"vehicle_type_id":"4","last_reported":1739639275,"current_range_meters":28800,"station_id":"ce4bgkh2rcd13ifvqbk0","pricing_plan_id":"cebpf4jnsgd1na2vs0mg"},{"bike_id":"e7eb73dd-98ce-4fdf-88ff-11d6842cbe16","system_id":"levelo_inurba_marseille","lat":43.26947,"lon":5.40255,"is_reserved":false,"is_disabled":false,"rental_uris":{"android":"levelo://app?vid=e7eb73dd-98ce-4fdf-88ff-11d6842cbe16","ios":"levelo://app?vid=e7eb73dd-98ce-4fdf-88ff-11d6842cbe16"},"vehicle_type_id":"4","last_reported":1739639275,"current_range_meters":18000,"station_id":"cjm6bp8fraef2m0cb0m0","pricing_plan_id":"cebpf4jnsgd1na2vs0mg"},{"bike_id":"b276999e-e512-43de-b528-1396fd5e50dd","system_id":"levelo_inurba_marseille","lat":43.27208,"lon":5.39176,"is_reserved":false,"is_disabled":false,"rental_uris":{"android":"levelo://app?vid=b276999e-e512-43de-b528-1396fd5e50dd","ios":"levelo://app?vid=b276999e-e512-43de-b528-1396fd5e50dd"},"vehicle_type_id":"4","last_reported":1739639275,"current_range_meters":36400,"station_id":"ce4bhhp2rcd13ifvqfm0","pricing_plan_id":"cebpf4jnsgd1na2vs0mg"},{"bike_id":"cf298058-aef2-4e7a-afbc-db099f73a671","system_id":"levelo_inurba_marseille","lat":43.2696,"lon":5.38639,"is_reserved":false,"is_disabled":false,"rental_uris":{"android":"levelo://app?vid=cf298058-aef2-4e7a-afbc-db099f73a671","ios":"levelo://app?vid=cf298058-aef2-4e7a-afbc-db099f73a671"},"vehicle_type_id":"4","last_reported":1739639275,"current_range_meters":29600,"station_id":"ce4bhh92rcd13ifvqfh0","pricing_plan_id":"cebpf4jnsgd1na2vs0mg"},{"bike_id":"b5ece461-076f-40dc-81a6-b70ab9440d30","system_id":"levelo_inurba_marseille","lat":43.29007,"lon":5.3561,"is_reserved":false,"is_disabled":false,"rental_uris":{"android":"levelo://app?vid=b5ece461-076f-40dc-81a6-b70ab9440d30","ios":"levelo://app?vid=b5ece461-076f-40dc-81a6-b70ab9440d30"},"vehicle_type_id":"4","last_reported":1739639275,"current_range_meters":32000,"station_id":"ce4bhb92rcd13ifvqen0","pricing_plan_id":"cebpf4jnsgd1na2vs0mg"},{"bike_id":"c1665b9a-8804-49fb-a2e7-87ab5bdd8b6d","system_id":"levelo_inurba_marseille","lat":43.33727,"lon":5.39189,"is_reserved":false,"is_disabled":false,"rental_uris":{"android":"levelo://app?vid=c1665b9a-8804-49fb-a2e7-87ab5bdd8b6d","ios":"levelo://app?vid=c1665b9a-8804-49fb-a2e7-87ab5bdd8b6d"},"vehicle_type_id":"4","last_reported":1739639275,"current_range_meters":38800,"station_id":"ce4bhr92rcd13ifvqhsg","pricing_plan_id":"cebpf4jnsgd1na2vs0mg"},{"bike_id":"f596f3da-761c-45d4-a407-1e8ad2ab6471","system_id":"levelo_inurba_marseille","lat":43.2894,"lon":5.39638,"is_reserved":false,"is_disabled":false,"rental_uris":{"android":"levelo://app?vid=f596f3da-761c-45d4-a407-1e8ad2ab6471","ios":"levelo://app?vid=f596f3da-761c-45d4-a407-1e8ad2ab6471"},"vehicle_type_id":"4","last_reported":1739639275,"current_range_meters":26000,"station_id":"ce4bh3h2rcd13ifvqdn0","pricing_plan_id":"cebpf4jnsgd1na2vs0mg"},{"bike_id":"5c381eca-4257-4fd5-9296-339ca91bf680","system_id":"levelo_inurba_marseille","lat":43.31991,"lon":5.38154,"is_reserved":false,"is_disabled":true,"rental_uris":{"android":"levelo://app?vid=5c381eca-4257-4fd5-9296-339ca91bf680","ios":"levelo://app?vid=5c381eca-4257-4fd5-9296-339ca91bf680"},"vehicle_type_id":"4","last_reported":1739639275,"current_range_meters":0,"station_id":"ce4bhr12rcd13ifvqhpg","pricing_plan_id":"cebpf4jnsgd1na2vs0mg"},{"bike_id":"d157203c-3a5b-4bbc-9638-6eefce740d5e","system_id":"levelo_inurba_marseille","lat":43.23182,"lon":5.35575,"is_reserved":false,"is_disabled":false,"rental_uris":{"android":"levelo://app?vid=d157203c-3a5b-4bbc-9638-6eefce740d5e","ios":"levelo://app?vid=d157203c-3a5b-4bbc-9638-6eefce740d5e"},"vehicle_type_id":"4","last_reported":1739639275,"current_range_meters":24400,"station_id":"ce4bhu92rcd13ifvqi70","pricing_plan_id":"cebpf4jnsgd1na2vs0mg"},{"bike_id":"ab761f08-1e0a-4231-9bcc-bde3a6c90930","system_id":"levelo_inurba_marseille","lat":43.2996,"lon":5.41338,"is_reserved":false,"is_disabled":false,"rental_uris":{"android":"levelo://app?vid=ab761f08-1e0a-4231-9bcc-bde3a6c90930","ios":"levelo://app?vid=ab761f08-1e0a-4231-9bcc-bde3a6c90930"},"vehicle_type_id":"4","last_reported":1739639275,"current_range_meters":38400,"station_id":"ce4bhp12rcd13ifvqh9g","pricing_plan_id":"cebpf4jnsgd1na2vs0mg"},{"bike_id":"3067cc11-ea3d-4497-a8fa-3717c9b08d94","system_id":"levelo_inurba_marseille","lat":43.27318,"lon":5.39111,"is_reserved":false,"is_disabled":true,"rental_uris":{"android":"levelo://app?vid=3067cc11-ea3d-4497-a8fa-3717c9b08d94","ios":"levelo://app?vid=3067cc11-ea3d-4497-a8fa-3717c9b08d94"},"vehicle_type_id":"4","last_reported":1739639275,"current_range_meters":37600,"station_id":"ce4bhgp2rcd13ifvqfe0","pricing_plan_id":"cebpf4jnsgd1na2vs0mg"},{"bike_id":"248ccf3a-b455-4a1f-8c12-3a5bdf3be6e8","system_id":"levelo_inurba_marseille","lat":43.26947,"lon":5.40275,"is_reserved":false,"is_disabled":false,"rental_uris":{"android":"levelo://app?vid=248ccf3a-b455-4a1f-8c12-3a5bdf3be6e8","ios":"levelo://app?vid=248ccf3a-b455-4a1f-8c12-3a5bdf3be6e8"},"vehicle_type_id":"4","last_reported":1739639275,"current_range_meters":24400,"station_id":"cjm6bp8fraef2m0cb0m0","pricing_plan_id":"cebpf4jnsgd1na2vs0mg"},{"bike_id":"6a2bb3c9-0567-4da7-8fd1-380f62448aab","system_id":"levelo_inurba_marseille","lat":43.22923,"lon":5.35403,"is_reserved":false,"is_disabled":false,"rental_uris":{"android":"levelo://app?vid=6a2bb3c9-0567-4da7-8fd1-380f62448aab","ios":"levelo://app?vid=6a2bb3c9-0567-4da7-8fd1-380f62448aab"},"vehicle_type_id":"4","last_reported":1739639275,"current_range_meters":19600,"station_id":"cpo3532slgdg3j2ikp40","pricing_plan_id":"cebpf4jnsgd1na2vs0mg"},{"bike_id":"3296016b-d78b-450b-8128-2d0dd1e5d41b","system_id":"levelo_inurba_marseille","lat":43.24652,"lon":5.38927,"is_reserved":false,"is_disabled":false,"rental_uris":{"android":"levelo://app?vid=3296016b-d78b-450b-8128-2d0dd1e5d41b","ios":"levelo://app?vid=3296016b-d78b-450b-8128-2d0dd1e5d41b"},"vehicle_type_id":"4","last_reported":1739639275,"current_range_meters":39200,"station_id":"ce4bhg12rcd13ifvqf60","pricing_plan_id":"cebpf4jnsgd1na2vs0mg"},{"bike_id":"c966c1ce-0fbe-48df-83a8-da2401316a21","system_id":"levelo_inurba_marseille","lat":43.28939,"lon":5.36405,"is_reserved":false,"is_disabled":false,"rental_uris":{"android":"levelo://app?vid=c966c1ce-0fbe-48df-83a8-da2401316a21","ios":"levelo://app?vid=c966c1ce-0fbe-48df-83a8-da2401316a21"},"vehicle_type_id":"4","last_reported":1739639275,"current_range_meters":10800,"station_id":"ce4bhc92rcd13ifvqetg","pricing_plan_id":"cebpf4jnsgd1na2vs0mg"},{"bike_id":"d80860fa-7cf7-4ae7-befb-26e8065381a1","system_id":"levelo_inurba_marseille","lat":43.232,"lon":5.35548,"is_reserved":false,"is_disabled":false,"rental_uris":{"android":"levelo://app?vid=d80860fa-7cf7-4ae7-befb-26e8065381a1","ios":"levelo://app?vid=d80860fa-7cf7-4ae7-befb-26e8065381a1"},"vehicle_type_id":"4","last_reported":1739639275,"current_range_meters":20800,"station_id":"ce4bhu92rcd13ifvqi70","pricing_plan_id":"cebpf4jnsgd1na2vs0mg"},{"bike_id":"85695123-b09a-43b9-8bf9-c2109d3e7168","system_id":"levelo_inurba_marseille","lat":43.317118,"lon":5.437044,"is_reserved":false,"is_disabled":false,"rental_uris":{"android":"levelo://app?vid=85695123-b09a-43b9-8bf9-c2109d3e7168","ios":"levelo://app?vid=85695123-b09a-43b9-8bf9-c2109d3e7168"},"vehicle_type_id":"4","last_reported":1739639275,"current_range_meters":33200,"station_id":"ce4bhp92rcd13ifvqhcg","pricing_plan_id":"cebpf4jnsgd1na2vs0mg"},{"bike_id":"47ef3a27-cf04-4369-bc44-2fee4bbfaa10","system_id":"levelo_inurba_marseille","lat":43.24669,"lon":5.38179,"is_reserved":false,"is_disabled":true,"rental_uris":{"android":"levelo://app?vid=47ef3a27-cf04-4369-bc44-2fee4bbfaa10","ios":"levelo://app?vid=47ef3a27-cf04-4369-bc44-2fee4bbfaa10"},"vehicle_type_id":"4","last_reported":1739639275,"current_range_meters":13600,"station_id":"ce4bhih2rcd13ifvqfr0","pricing_plan_id":"cebpf4jnsgd1na2vs0mg"},{"bike_id":"102faded-26f9-4ebc-b701-33d277912a5a","system_id":"levelo_inurba_marseille","lat":43.24393,"lon":5.37062,"is_reserved":false,"is_disabled":false,"rental_uris":{"android":"levelo://app?vid=102faded-26f9-4ebc-b701-33d277912a5a","ios":"levelo://app?vid=102faded-26f9-4ebc-b701-33d277912a5a"},"vehicle_type_id":"4","last_reported":1739639275,"current_range_meters":38800,"station_id":"ce4bhhh2rcd13ifvqfk0","pricing_plan_id":"cebpf4jnsgd1na2vs0mg"},{"bike_id":"2d70c426-a0cd-433d-a478-b050fb20b543","system_id":"levelo_inurba_marseille","lat":43.27618,"lon":5.3611,"is_reserved":false,"is_disabled":true,"rental_uris":{"android":"levelo://app?vid=2d70c426-a0cd-433d-a478-b050fb20b543","ios":"levelo://app?vid=2d70c426-a0cd-433d-a478-b050fb20b543"},"vehicle_type_id":"4","last_reported":1739639275,"current_range_meters":800,"station_id":"ce4bgj92rcd13ifvqbe0","pricing_plan_id":"cebpf4jnsgd1na2vs0mg"},{"bike_id":"4972cd35-940a-440b-b824-461ef889e80c","system_id":"levelo_inurba_marseille","lat":43.2816,"lon":5.42649,"is_reserved":false,"is_disabled":false,"rental_uris":{"android":"levelo://app?vid=4972cd35-940a-440b-b824-461ef889e80c","ios":"levelo://app?vid=4972cd35-940a-440b-b824-461ef889e80c"},"vehicle_type_id":"4","last_reported":1739639275,"current_range_meters":29600,"station_id":"ce4bhnh2rcd13ifvqgug","pricing_plan_id":"cebpf4jnsgd1na2vs0mg"},{"bike_id":"be0d9395-3ce0-454c-ae38-910046f84b02","system_id":"levelo_inurba_marseille","lat":43.29445,"lon":5.39752,"is_reserved":false,"is_disabled":false,"rental_uris":{"android":"levelo://app?vid=be0d9395-3ce0-454c-ae38-910046f84b02","ios":"levelo://app?vid=be0d9395-3ce0-454c-ae38-910046f84b02"},"vehicle_type_id":"4","last_reported":1739639275,"current_range_meters":30800,"station_id":"ce4bh3h2rcd13ifvqdo0","pricing_plan_id":"cebpf4jnsgd1na2vs0mg"},{"bike_id":"33df571b-22d0-4619-bb6a-f80f6467d45b","system_id":"levelo_inurba_marseille","lat":43.25826,"lon":5.39436,"is_reserved":false,"is_disabled":false,"rental_uris":{"android":"levelo://app?vid=33df571b-22d0-4619-bb6a-f80f6467d45b","ios":"levelo://app?vid=33df571b-22d0-4619-bb6a-f80f6467d45b"},"vehicle_type_id":"4","last_reported":1739639275,"current_range_meters":38400,"station_id":"ce4bhip2rcd13ifvqft0","pricing_plan_id":"cebpf4jnsgd1na2vs0mg"},{"bike_id":"7324a39c-46eb-4274-9bc8-c87c280daa98","system_id":"levelo_inurba_marseille","lat":43.255748,"lon":5.382429,"is_reserved":false,"is_disabled":false,"rental_uris":{"android":"levelo://app?vid=7324a39c-46eb-4274-9bc8-c87c280daa98","ios":"levelo://app?vid=7324a39c-46eb-4274-9bc8-c87c280daa98"},"vehicle_type_id":"4","last_reported":1739639275,"current_range_meters":38400,"station_id":"ce4bhih2rcd13ifvqfs0","pricing_plan_id":"cebpf4jnsgd1na2vs0mg"},{"bike_id":"e6fd358c-b438-4d60-9a9e-462a59ce875d","system_id":"levelo_inurba_marseille","lat":43.23189,"lon":5.35562,"is_reserved":false,"is_disabled":false,"rental_uris":{"android":"levelo://app?vid=e6fd358c-b438-4d60-9a9e-462a59ce875d","ios":"levelo://app?vid=e6fd358c-b438-4d60-9a9e-462a59ce875d"},"vehicle_type_id":"4","last_reported":1739639275,"current_range_meters":30400,"station_id":"ce4bhu92rcd13ifvqi70","pricing_plan_id":"cebpf4jnsgd1na2vs0mg"},{"bike_id":"f10bf1f4-3ef0-4b47-af81-2e8d844f2c36","system_id":"levelo_inurba_marseille","lat":43.29578,"lon":5.37523,"is_reserved":false,"is_disabled":false,"rental_uris":{"android":"levelo://app?vid=f10bf1f4-3ef0-4b47-af81-2e8d844f2c36","ios":"levelo://app?vid=f10bf1f4-3ef0-4b47-af81-2e8d844f2c36"},"vehicle_type_id":"4","last_reported":1739639275,"current_range_meters":34000,"station_id":"ce4bgh92rcd13ifvqb50","pricing_plan_id":"cebpf4jnsgd1na2vs0mg"},{"bike_id":"72f66f72-18ef-4c90-b90b-cf97109132a0","system_id":"levelo_inurba_marseille","lat":43.29786,"lon":5.38106,"is_reserved":false,"is_disabled":false,"rental_uris":{"android":"levelo://app?vid=72f66f72-18ef-4c90-b90b-cf97109132a0","ios":"levelo://app?vid=72f66f72-18ef-4c90-b90b-cf97109132a0"},"vehicle_type_id":"4","last_reported":1739639275,"current_range_meters":36000,"station_id":"ce4bgip2rcd13ifvqbb0","pricing_plan_id":"cebpf4jnsgd1na2vs0mg"},{"bike_id":"1274720b-049d-476e-b164-f3bfbd75c289","system_id":"levelo_inurba_marseille","lat":43.29096,"lon":5.38117,"is_reserved":false,"is_disabled":false,"rental_uris":{"android":"levelo://app?vid=1274720b-049d-476e-b164-f3bfbd75c289","ios":"levelo://app?vid=1274720b-049d-476e-b164-f3bfbd75c289"},"vehicle_type_id":"4","last_reported":1739639275,"current_range_meters":35200,"station_id":"ce4bh512rcd13ifvqe2g","pricing_plan_id":"cebpf4jnsgd1na2vs0mg"},{"bike_id":"599a865e-6a16-4495-8bb3-92687292955a","system_id":"levelo_inurba_marseille","lat":43.27437,"lon":5.3941,"is_reserved":false,"is_disabled":false,"rental_uris":{"android":"levelo://app?vid=599a865e-6a16-4495-8bb3-92687292955a","ios":"levelo://app?vid=599a865e-6a16-4495-8bb3-92687292955a"},"vehicle_type_id":"4","last_reported":1739639275,"current_range_meters":38400,"station_id":"ce4bhdp2rcd13ifvqf20","pricing_plan_id":"cebpf4jnsgd1na2vs0mg"},{"bike_id":"f8be4ae6-adc2-4520-8321-d6b41cf92103","system_id":"levelo_inurba_marseille","lat":43.23209,"lon":5.35546,"is_reserved":false,"is_disabled":false,"rental_uris":{"android":"levelo://app?vid=f8be4ae6-adc2-4520-8321-d6b41cf92103","ios":"levelo://app?vid=f8be4ae6-adc2-4520-8321-d6b41cf92103"},