{"last_updated":1738706890,"ttl":60,"version":"2.2","data":{"bikes":[{"bike_id":"84598151-c453-4c49-a4d4-90560262791b","system_id":"levelo_inurba_marseille","lat":43.25827,"lon":5.39435,"is_reserved":false,"is_disabled":false,"rental_uris":{"android":"levelo://app?vid=84598151-c453-4c49-a4d4-90560262791b","ios":"levelo://app?vid=84598151-c453-4c49-a4d4-90560262791b"},"vehicle_type_id":"4","last_reported":1738706891,"current_range_meters":38800,"station_id":"ce4bhip2rcd13ifvqft0","pricing_plan_id":"cebpf4jnsgd1na2vs0mg"},{"bike_id":"419c8c22-86a4-4ef5-91f4-a06b4c2e4bba","system_id":"levelo_inurba_marseille","lat":43.22933,"lon":5.35375,"is_reserved":false,"is_disabled":false,"rental_uris":{"android":"levelo://app?vid=419c8c22-86a4-4ef5-91f4-a06b4c2e4bba","ios":"levelo://app?vid=419c8c22-86a4-4ef5-91f4-a06b4c2e4bba"},"vehicle_type_id":"4","last_reported":1738706891,"current_range_meters":28400,"station_id":"cpo3532slgdg3j2ikp40","pricing_plan_id":"cebpf4jnsgd1na2vs0mg"},{"bike_id":"1635dc72-5712-4882-a85d-98d6e3eadc67","system_id":"levelo_inurba_marseille","lat":43.24084,"lon":5.37741,"is_reserved":false,"is_disabled":false,"rental_uris":{"android":"levelo://app?vid=1635dc72-5712-4882-a85d-98d6e3eadc67","ios":"levelo://app?vid=1635dc72-5712-4882-a85d-98d6e3eadc67"},"vehicle_type_id":"4","last_reported":1738706891,"current_range_meters":27200,"station_id":"ce4bhnp2rcd13ifvqgvg","pricing_plan_id":"cebpf4jnsgd1na2vs0mg"},{"bike_id":"5548050e-6a2e-41b8-a548-5dd1660d2b80","system_id":"levelo_inurba_marseille","lat":43.30894,"lon":5.39632,"is_reserved":false,"is_disabled":false,"rental_uris":{"android":"levelo://app?vid=5548050e-6a2e-41b8-a548-5dd1660d2b80","ios":"levelo://app?vid=5548050e-6a2e-41b8-a548-5dd1660d2b80"},"vehicle_type_id":"4","last_reported":1738706891,"current_range_meters":10000,"station_id":"ce4bh012rcd13ifvqcv0","pricing_plan_id":"cebpf4jnsgd1na2vs0mg"},{"bike_id":"1069c2f9-a13e-475a-b117-d9d92327d614","system_id":"levelo_inurba_marseille","lat":43.29007,"lon":5.35622,"is_reserved":false,"is_disabled":false,"rental_uris":{"android":"levelo://app?vid=1069c2f9-a13e-475a-b117-d9d92327d614","ios":"levelo://app?vid=1069c2f9-a13e-475a-b117-d9d92327d614"},"vehicle_type_id":"4","last_reported":1738706891,"current_range_meters":30000,"station_id":"ce4bhb92rcd13ifvqen0","pricing_plan_id":"cebpf4jnsgd1na2vs0mg"},{"bike_id":"26b8c6d0-0da6-44db-91e7-4de5ef76b7aa","system_id":"levelo_inurba_marseille","lat":43.28617,"lon":5.35105,"is_reserved":false,"is_disabled":false,"rental_uris":{"android":"levelo://app?vid=26b8c6d0-0da6-44db-91e7-4de5ef76b7aa","ios":"levelo://app?vid=26b8c6d0-0da6-44db-91e7-4de5ef76b7aa"},"vehicle_type_id":"4","last_reported":1738706891,"current_range_meters":38400,"station_id":"ce4bhch2rcd13ifvqeug","pricing_plan_id":"cebpf4jnsgd1na2vs0mg"},{"bike_id":"995e4103-7b0d-48dd-ab29-ddec983c4cb1","system_id":"levelo_inurba_marseille","lat":43.25171,"lon":5.40317,"is_reserved":false,"is_disabled":false,"rental_uris":{"android":"levelo://app?vid=995e4103-7b0d-48dd-ab29-ddec983c4cb1","ios":"levelo://app?vid=995e4103-7b0d-48dd-ab29-ddec983c4cb1"},"vehicle_type_id":"4","last_reported":1738706891,"current_range_meters":27200,"station_id":"","pricing_plan_id":"cebpf4jnsgd1na2vs0mg"},{"bike_id":"1834cdfa-55d9-40d2-aec4-1230af582f98","system_id":"levelo_inurba_marseille","lat":43.29191,"lon":5.35795,"is_reserved":false,"is_disabled":false,"rental_uris":{"android":"levelo://app?vid=1834cdfa-55d9-40d2-aec4-1230af582f98","ios":"levelo://app?vid=1834cdfa-55d9-40d2-aec4-1230af582f98"},"vehicle_type_id":"4","last_reported":1738706891,"current_range_meters":38800,"station_id":"ce4bhb12rcd13ifvqel0","pricing_plan_id":"cebpf4jnsgd1na2vs0mg"},{"bike_id":"430c9887-709a-4cb8-aaad-24b0546c919e","system_id":"levelo_inurba_marseille","lat":43.29932,"lon":5.36502,"is_reserved":false,"is_disabled":false,"rental_uris":{"android":"levelo://app?vid=430c9887-709a-4cb8-aaad-24b0546c919e","ios":"levelo://app?vid=430c9887-709a-4cb8-aaad-24b0546c919e"},"vehicle_type_id":"4","last_reported":1738706891,"current_range_meters":9200,"station_id":"ce4bgm92rcd13ifvqbr0","pricing_plan_id":"cebpf4jnsgd1na2vs0mg"},{"bike_id":"caf558c3-a9ad-4fe3-92b6-038f06ef09fe","system_id":"levelo_inurba_marseille","lat":43.23187,"lon":5.35531,"is_reserved":false,"is_disabled":false,"rental_uris":{"android":"levelo://app?vid=caf558c3-a9ad-4fe3-92b6-038f06ef09fe","ios":"levelo://app?vid=caf558c3-a9ad-4fe3-92b6-038f06ef09fe"},"vehicle_type_id":"4","last_reported":1738706891,"current_range_meters":14800,"station_id":"ce4bhu92rcd13ifvqi70","pricing_plan_id":"cebpf4jnsgd1na2vs0mg"},{"bike_id":"771a1d8e-de91-48a4-a8db-8c672f063377","system_id":"levelo_inurba_marseille","lat":43.28707,"lon":5.39988,"is_reserved":false,"is_disabled":false,"rental_uris":{"android":"levelo://app?vid=771a1d8e-de91-48a4-a8db-8c672f063377","ios":"levelo://app?vid=771a1d8e-de91-48a4-a8db-8c672f063377"},"vehicle_type_id":"4","last_reported":1738706891,"current_range_meters":23200,"station_id":"ce4bho92rcd13ifvqh3g","pricing_plan_id":"cebpf4jnsgd1na2vs0mg"},{"bike_id":"063214a5-99eb-4918-b0fe-a4120e0e58b0","system_id":"levelo_inurba_marseille","lat":43.31326,"lon":5.39718,"is_reserved":false,"is_disabled":false,"rental_uris":{"android":"levelo://app?vid=063214a5-99eb-4918-b0fe-a4120e0e58b0","ios":"levelo://app?vid=063214a5-99eb-4918-b0fe-a4120e0e58b0"},"vehicle_type_id":"4","last_reported":1738706891,"current_range_meters":30000,"station_id":"ce4bgvp2rcd13ifvqcu0","pricing_plan_id":"cebpf4jnsgd1na2vs0mg"},{"bike_id":"470e6dc2-16c4-4ce2-b19a-ce651153716c","system_id":"levelo_inurba_marseille","lat":43.29833,"lon":5.39338,"is_reserved":false,"is_disabled":false,"rental_uris":{"android":"levelo://app?vid=470e6dc2-16c4-4ce2-b19a-ce651153716c","ios":"levelo://app?vid=470e6dc2-16c4-4ce2-b19a-ce651153716c"},"vehicle_type_id":"4","last_reported":1738706891,"current_range_meters":38800,"station_id":"chh1huq6cuj3fo74tm60","pricing_plan_id":"cebpf4jnsgd1na2vs0mg"},{"bike_id":"a9bd79b5-1c90-4aba-b1e9-d7eabea49915","system_id":"levelo_inurba_marseille","lat":43.31738,"lon":5.42433,"is_reserved":false,"is_disabled":false,"rental_uris":{"android":"levelo://app?vid=a9bd79b5-1c90-4aba-b1e9-d7eabea49915","ios":"levelo://app?vid=a9bd79b5-1c90-4aba-b1e9-d7eabea49915"},"vehicle_type_id":"4","last_reported":1738706891,"current_range_meters":38000,"station_id":"ce4bhp92rcd13ifvqhbg","pricing_plan_id":"cebpf4jnsgd1na2vs0mg"},{"bike_id":"0db77ccd-018c-4148-a078-44d034315823","system_id":"levelo_inurba_marseille","lat":43.28458,"lon":5.37559,"is_reserved":false,"is_disabled":false,"rental_uris":{"android":"levelo://app?vid=0db77ccd-018c-4148-a078-44d034315823","ios":"levelo://app?vid=0db77ccd-018c-4148-a078-44d034315823"},"vehicle_type_id":"4","last_reported":1738706891,"current_range_meters":33200,"station_id":"","pricing_plan_id":"cebpf4jnsgd1na2vs0mg"},{"bike_id":"6a2d4ebb-73b9-49fe-a603-0cc2bbea31cd","system_id":"levelo_inurba_marseille","lat":43.30584,"lon":5.39414,"is_reserved":false,"is_disabled":false,"rental_uris":{"android":"levelo://app?vid=6a2d4ebb-73b9-49fe-a603-0cc2bbea31cd","ios":"levelo://app?vid=6a2d4ebb-73b9-49fe-a603-0cc2bbea31cd"},"vehicle_type_id":"4","last_reported":1738706891,"current_range_meters":20000,"station_id":"ce4bh0p2rcd13ifvqd80","pricing_plan_id":"cebpf4jnsgd1na2vs0mg"},{"bike_id":"1502bae1-4cda-4111-8ca7-1a392cb91b6c","system_id":"levelo_inurba_marseille","lat":43.29435,"lon":5.39755,"is_reserved":false,"is_disabled":false,"rental_uris":{"android":"levelo://app?vid=1502bae1-4cda-4111-8ca7-1a392cb91b6c","ios":"levelo://app?vid=1502bae1-4cda-4111-8ca7-1a392cb91b6c"},"vehicle_type_id":"4","last_reported":1738706891,"current_range_meters":38800,"station_id":"ce4bh3h2rcd13ifvqdo0","pricing_plan_id":"cebpf4jnsgd1na2vs0mg"},{"bike_id":"e348267a-1d36-48c2-b726-858237cd83df","system_id":"levelo_inurba_marseille","lat":43.29879,"lon":5.39743,"is_reserved":false,"is_disabled":false,"rental_uris":{"android":"levelo://app?vid=e348267a-1d36-48c2-b726-858237cd83df","ios":"levelo://app?vid=e348267a-1d36-48c2-b726-858237cd83df"},"vehicle_type_id":"4","last_reported":1738706891,"current_range_meters":25600,"station_id":"ce4bh0h2rcd13ifvqd50","pricing_plan_id":"cebpf4jnsgd1na2vs0mg"},{"bike_id":"f56185a9-012f-40f6-b178-338a8bf6ac85","system_id":"levelo_inurba_marseille","lat":43.3093,"lon":5.401531,"is_reserved":false,"is_disabled":false,"rental_uris":{"android":"levelo://app?vid=f56185a9-012f-40f6-b178-338a8bf6ac85","ios":"levelo://app?vid=f56185a9-012f-40f6-b178-338a8bf6ac85"},"vehicle_type_id":"4","last_reported":1738706891,"current_range_meters":35600,"station_id":"ce4bgvp2rcd13ifvqct0","pricing_plan_id":"cebpf4jnsgd1na2vs0mg"},{"bike_id":"c744e9cb-41cf-4373-9413-9aa23cde4ab9","system_id":"levelo_inurba_marseille","lat":43.30128,"lon":5.38778,"is_reserved":false,"is_disabled":false,"rental_uris":{"android":"levelo://app?vid=c744e9cb-41cf-4373-9413-9aa23cde4ab9","ios":"levelo://app?vid=c744e9cb-41cf-4373-9413-9aa23cde4ab9"},"vehicle_type_id":"4","last_reported":1738706891,"current_range_meters":28000,"station_id":"ce4bghh2rcd13ifvqb60","pricing_plan_id":"cebpf4jnsgd1na2vs0mg"},{"bike_id":"733e5fea-25dd-49bf-906f-98327c943ed7","system_id":"levelo_inurba_marseille","lat":43.30326,"lon":5.40441,"is_reserved":false,"is_disabled":false,"rental_uris":{"android":"levelo://app?vid=733e5fea-25dd-49bf-906f-98327c943ed7","ios":"levelo://app?vid=733e5fea-25dd-49bf-906f-98327c943ed7"},"vehicle_type_id":"4","last_reported":1738706891,"current_range_meters":36800,"station_id":"ce4bh012rcd13ifvqd10","pricing_plan_id":"cebpf4jnsgd1na2vs0mg"},{"bike_id":"f88e9836-7d29-4bff-b116-30872ae8c64b","system_id":"levelo_inurba_marseille","lat":43.27955,"lon":5.41673,"is_reserved":false,"is_disabled":false,"rental_uris":{"android":"levelo://app?vid=f88e9836-7d29-4bff-b116-30872ae8c64b","ios":"levelo://app?vid=f88e9836-7d29-4bff-b116-30872ae8c64b"},"vehicle_type_id":"4","last_reported":1738706891,"current_range_meters":38800,"station_id":"ce4bho12rcd13ifvqh1g","pricing_plan_id":"cebpf4jnsgd1na2vs0mg"},{"bike_id":"585548c3-dfea-4775-b261-9cda396a75ed","system_id":"levelo_inurba_marseille","lat":43.30921,"lon":5.40164,"is_reserved":false,"is_disabled":true,"rental_uris":{"android":"levelo://app?vid=585548c3-dfea-4775-b261-9cda396a75ed","ios":"levelo://app?vid=585548c3-dfea-4775-b261-9cda396a75ed"},"vehicle_type_id":"4","last_reported":1738706891,"current_range_meters":37600,"station_id":"ce4bgvp2rcd13ifvqct0","pricing_plan_id":"cebpf4jnsgd1na2vs0mg"},{"bike_id":"7eaacd34-10f9-4246-8aa1-4a22e07a7c06","system_id":"levelo_inurba_marseille","lat":43.31659,"lon":5.37388,"is_reserved":false,"is_disabled":false,"rental_uris":{"android":"levelo://app?vid=7eaacd34-10f9-4246-8aa1-4a22e07a7c06","ios":"levelo://app?vid=7eaacd34-10f9-4246-8aa1-4a22e07a7c06"},"vehicle_type_id":"4","last_reported":1738706891,"current_range_meters":28400,"station_id":"","pricing_plan_id":"cebpf4jnsgd1na2vs0mg"},{"bike_id":"1572cbca-62ac-4b78-95e4-0e23353e4f06","system_id":"levelo_inurba_marseille","lat":43.2903,"lon":5.3592,"is_reserved":false,"is_disabled":false,"rental_uris":{"android":"levelo://app?vid=1572cbca-62ac-4b78-95e4-0e23353e4f06","ios":"levelo://app?vid=1572cbca-62ac-4b78-95e4-0e23353e4f06"},"vehicle_type_id":"4","last_reported":1738706891,"current_range_meters":12800,"station_id":"ce4bha92rcd13ifvqeg0","pricing_plan_id":"cebpf4jnsgd1na2vs0mg"},{"bike_id":"e959c335-6e92-4b9b-855f-0db0ef28acdf","system_id":"levelo_inurba_marseille","lat":43.28272,"lon":5.3507,"is_reserved":false,"is_disabled":false,"rental_uris":{"android":"levelo://app?vid=e959c335-6e92-4b9b-855f-0db0ef28acdf","ios":"levelo://app?vid=e959c335-6e92-4b9b-855f-0db0ef28acdf"},"vehicle_type_id":"4","last_reported":1738706891,"current_range_meters":17600,"station_id":"ce4bhbp2rcd13ifvqerg","pricing_plan_id":"cebpf4jnsgd1na2vs0mg"},{"bike_id":"81232249-f73a-4ee8-8a83-c51d8a23ad51","system_id":"levelo_inurba_marseille","lat":43.25505,"lon":5.37652,"is_reserved":false,"is_disabled":false,"rental_uris":{"android":"levelo://app?vid=81232249-f73a-4ee8-8a83-c51d8a23ad51","ios":"levelo://app?vid=81232249-f73a-4ee8-8a83-c51d8a23ad51"},"vehicle_type_id":"4","last_reported":1738706891,"current_range_meters":38800,"station_id":"ce4bhh12rcd13ifvqff0","pricing_plan_id":"cebpf4jnsgd1na2vs0mg"},{"bike_id":"1a78f126-15bb-40e4-a379-1a33eae10b94","system_id":"levelo_inurba_marseille","lat":43.32081,"lon":5.36856,"is_reserved":false,"is_disabled":false,"rental_uris":{"android":"levelo://app?vid=1a78f126-15bb-40e4-a379-1a33eae10b94","ios":"levelo://app?vid=1a78f126-15bb-40e4-a379-1a33eae10b94"},"vehicle_type_id":"4","last_reported":1738706891,"current_range_meters":38000,"station_id":"","pricing_plan_id":"cebpf4jnsgd1na2vs0mg"},{"bike_id":"113a57da-01ae-462e-8598-43ef94186069","system_id":"levelo_inurba_marseille","lat":43.28839,"lon":5.39315,"is_reserved":false,"is_disabled":false,"rental_uris":{"android":"levelo://app?vid=113a57da-01ae-462e-8598-43ef94186069","ios":"levelo://app?vid=113a57da-01ae-462e-8598-43ef94186069"},"vehicle_type_id":"4","last_reported":1738706891,"current_range_meters":38800,"station_id":"ce4bh2p2rcd13ifvqdi0","pricing_plan_id":"cebpf4jnsgd1na2vs0mg"},{"bike_id":"a1b82c0a-bb26-4a65-9936-dea7c6beca90","system_id":"levelo_inurba_marseille","lat":43.27915,"lon":5.39583,"is_reserved":false,"is_disabled":false,"rental_uris":{"android":"levelo://app?vid=a1b82c0a-bb26-4a65-9936-dea7c6beca90","ios":"levelo://app?vid=a1b82c0a-bb26-4a65-9936-dea7c6beca90"},"vehicle_type_id":"4","last_reported":1738706891,"current_range_meters":35200,"station_id":"ce4bhf92rcd13ifvqf40","pricing_plan_id":"cebpf4jnsgd1na2vs0mg"},{"bike_id":"c92d27b3-011a-4b9b-85d3-c7a68cdf0054","system_id":"levelo_inurba_marseille","lat":43.324777,"lon":5.365669,"is_reserved":false,"is_disabled":true,"rental_uris":{"android":"levelo://app?vid=c92d27b3-011a-4b9b-85d3-c7a68cdf0054","ios":"levelo://app?vid=c92d27b3-011a-4b9b-85d3-c7a68cdf0054"},"vehicle_type_id":"4","last_reported":1738706891,"current_range_meters":15200,"station_id":"","pricing_plan_id":"cebpf4jnsgd1na2vs0mg"},{"bike_id":"f53cc797-2e23-4ec6-a462-85989923c05c","system_id":"levelo_inurba_marseille","lat":43.25004,"lon":5.38923,"is_reserved":false,"is_disabled":false,"rental_uris":{"android":"levelo://app?vid=f53cc797-2e23-4ec6-a462-85989923c05c","ios":"levelo://app?vid=f53cc797-2e23-4ec6-a462-85989923c05c"},"vehicle_type_id":"4","last_reported":1738706891,"current_range_meters":28400,"station_id":"ce4bhgp2rcd13ifvqfd0","pricing_plan_id":"cebpf4jnsgd1na2vs0mg"},{"bike_id":"a31da492-d404-42a4-a173-3e8c75aeef5d","system_id":"levelo_inurba_marseille","lat":43.24394,"lon":5.37062,"is_reserved":false,"is_disabled":false,"rental_uris":{"android":"levelo://app?vid=a31da492-d404-42a4-a173-3e8c75aeef5d","ios":"levelo://app?vid=a31da492-d404-42a4-a173-3e8c75aeef5d"},"vehicle_type_id":"4","last_reported":1738706891,"current_range_meters":32400,"station_id":"ce4bhhh2rcd13ifvqfk0","pricing_plan_id":"cebpf4jnsgd1na2vs0mg"},{"bike_id":"3cefc9f4-662a-490d-a7a9-f6d840f7ee85","system_id":"levelo_inurba_marseille","lat":43.25575,"lon":5.38224,"is_reserved":false,"is_disabled":false,"rental_uris":{"android":"levelo://app?vid=3cefc9f4-662a-490d-a7a9-f6d840f7ee85","ios":"levelo://app?vid=3cefc9f4-662a-490d-a7a9-f6d840f7ee85"},"vehicle_type_id":"4","last_reported":1738706891,"current_range_meters":20000,"station_id":"ce4bhih2rcd13ifvqfs0","pricing_plan_id":"cebpf4jnsgd1na2vs0mg"},{"bike_id":"a1a7079b-68b5-45ca-9af8-b6bc9f7cd559","system_id":"levelo_inurba_marseille","lat":43.22926,"lon":5.35378,"is_reserved":false,"is_disabled":false,"rental_uris":{"android":"levelo://app?vid=a1a7079b-68b5-45ca-9af8-b6bc9f7cd559","ios":"levelo://app?vid=a1a7079b-68b5-45ca-9af8-b6bc9f7cd559"},"vehicle_type_id":"4","last_reported":1738706891,"current_range_meters":38800,"station_id":"cpo3532slgdg3j2ikp40","pricing_plan_id":"cebpf4jnsgd1na2vs0mg"},{"bike_id":"4cff4c18-6936-40ba-b1b4-9d0ae4647e78","system_id":"levelo_inurba_marseille","lat":43.27545,"lon":5.38464,"is_reserved":false,"is_disabled":false,"rental_uris":{"android":"levelo://app?vid=4cff4c18-6936-40ba-b1b4-9d0ae4647e78","ios":"levelo://app?vid=4cff4c18-6936-40ba-b1b4-9d0ae4647e78"},"vehicle_type_id":"4","last_reported":1738706891,"current_range_meters":31200,"station_id":"ce4bhh92rcd13ifvqfi0","pricing_plan_id":"cebpf4jnsgd1na2vs0mg"},{"bike_id":"b33c305b-93f2-4704-99fc-c1fc7dc94c00","system_id":"levelo_inurba_marseille","lat":43.31176,"lon":5.3871,"is_reserved":false,"is_disabled":false,"rental_uris":{"android":"levelo://app?vid=b33c305b-93f2-4704-99fc-c1fc7dc94c00","ios":"levelo://app?vid=b33c305b-93f2-4704-99fc-c1fc7dc94c00"},"vehicle_type_id":"4","last_reported":1738706891,"current_range_meters":38800,"station_id":"ce4bgv12rcd13ifvqcp0","pricing_plan_id":"cebpf4jnsgd1na2vs0mg"},{"bike_id":"b7406dda-3082-4224-bdff-a31932a4a7c1","system_id":"levelo_inurba_marseille","lat":43.28084,"lon":5.39653,"is_reserved":false,"is_disabled":false,"rental_uris":{"android":"levelo://app?vid=b7406dda-3082-4224-bdff-a31932a4a7c1","ios":"levelo://app?vid=b7406dda-3082-4224-bdff-a31932a4a7c1"},"vehicle_type_id":"4","last_reported":1738706891,"current_range_meters":28800,"station_id":"ce4bho12rcd13ifvqh2g","pricing_plan_id":"cebpf4jnsgd1na2vs0mg"},{"bike_id":"e900f4fe-f287-4f7a-a111-e62d22c31fb5","system_id":"levelo_inurba_marseille","lat":43.25567,"lon":5.3826,"is_reserved":false,"is_disabled":false,"rental_uris":{"android":"levelo://app?vid=e900f4fe-f287-4f7a-a111-e62d22c31fb5","ios":"levelo://app?vid=e900f4fe-f287-4f7a-a111-e62d22c31fb5"},"vehicle_type_id":"4","last_reported":1738706891,"current_range_meters":30400,"station_id":"ce4bhih2rcd13ifvqfs0","pricing_plan_id":"cebpf4jnsgd1na2vs0mg"},{"bike_id":"b4da0a36-b2a2-409b-8b71-70ab4e6718ab","system_id":"levelo_inurba_marseille","lat":43.25572,"lon":5.38239,"is_reserved":false,"is_disabled":false,"rental_uris":{"android":"levelo://app?vid=b4da0a36-b2a2-409b-8b71-70ab4e6718ab","ios":"levelo://app?vid=b4da0a36-b2a2-409b-8b71-70ab4e6718ab"},"vehicle_type_id":"4","last_reported":1738706891,"current_range_meters":18800,"station_id":"ce4bhih2rcd13ifvqfs0","pricing_plan_id":"cebpf4jnsgd1na2vs0mg"},{"bike_id":"3726dff5-00e4-45e5-9db7-c906f7e13ea9","system_id":"levelo_inurba_marseille","lat":43.27209,"lon":5.40959,"is_reserved":false,"is_disabled":false,"rental_uris":{"android":"levelo://app?vid=3726dff5-00e4-45e5-9db7-c906f7e13ea9","ios":"levelo://app?vid=3726dff5-00e4-45e5-9db7-c906f7e13ea9"},"vehicle_type_id":"4","last_reported":1738706891,"current_range_meters":31200,"station_id":"","pricing_plan_id":"cebpf4jnsgd1na2vs0mg"},{"bike_id":"38d9c123-c80e-4d99-abd9-1554da4e609f","system_id":"levelo_inurba_marseille","lat":43.24657,"lon":5.38885,"is_reserved":false,"is_disabled":false,"rental_uris":{"android":"levelo://app?vid=38d9c123-c80e-4d99-abd9-1554da4e609f","ios":"levelo://app?vid=38d9c123-c80e-4d99-abd9-1554da4e609f"},"vehicle_type_id":"4","last_reported":1738706891,"current_range_meters":28400,"station_id":"ce4bhg12rcd13ifvqf60","pricing_plan_id":"cebpf4jnsgd1na2vs0mg"},{"bike_id":"0d30f1f6-cb03-41c8-9ed3-2fe3b5a2ebb5","system_id":"levelo_inurba_marseille","lat":43.2992,"lon":5.38905,"is_reserved":false,"is_disabled":false,"rental_uris":{"android":"levelo://app?vid=0d30f1f6-cb03-41c8-9ed3-2fe3b5a2ebb5","ios":"levelo://app?vid=0d30f1f6-cb03-41c8-9ed3-2fe3b5a2ebb5"},"vehicle_type_id":"4","last_reported":1738706891,"current_range_meters":38800,"station_id":"ce4bh392rcd13ifvqdl0","pricing_plan_id":"cebpf4jnsgd1na2vs0mg"},{"bike_id":"ecfd8047-b75a-4e87-a298-ba28fe0083c2","system_id":"levelo_inurba_marseille","lat":43.296035,"lon":5.380924,"is_reserved":false,"is_disabled":true,"rental_uris":{"android":"levelo://app?vid=ecfd8047-b75a-4e87-a298-ba28fe0083c2","ios":"levelo://app?vid=ecfd8047-b75a-4e87-a298-ba28fe0083c2"},"vehicle_type_id":"4","last_reported":1738706891,"current_range_meters":0,"station_id":"ce4bgl12rcd13ifvqbo0","pricing_plan_id":"cebpf4jnsgd1na2vs0mg"},{"bike_id":"564c1b4c-36d5-4914-adc3-4e98052c8391","system_id":"levelo_inurba_marseille","lat":43.29531,"lon":5.38543,"is_reserved":false,"is_disabled":false,"rental_uris":{"android":"levelo://app?vid=564c1b4c-36d5-4914-adc3-4e98052c8391","ios":"levelo://app?vid=564c1b4c-36d5-4914-adc3-4e98052c8391"},"vehicle_type_id":"4","last_reported":1738706891,"current_range_meters":38000,"station_id":"ce4bgih2rcd13ifvqba0","pricing_plan_id":"cebpf4jnsgd1na2vs0mg"},{"bike_id":"5f9d9d16-cd47-4d54-8a34-1ca6771485e1","system_id":"levelo_inurba_marseille","lat":43.295,"lon":5.3951,"is_reserved":false,"is_disabled":false,"rental_uris":{"android":"levelo://app?vid=5f9d9d16-cd47-4d54-8a34-1ca6771485e1","ios":"levelo://app?vid=5f9d9d16-cd47-4d54-8a34-1ca6771485e1"},"vehicle_type_id":"4","last_reported":1738706891,"current_range_meters":28400,"station_id":"","pricing_plan_id":"cebpf4jnsgd1na2vs0mg"},{"bike_id":"9a3d8afe-6430-4f53-aba8-27d653fab8bf","system_id":"levelo_inurba_marseille","lat":43.25002,"lon":5.38927,"is_reserved":false,"is_disabled":false,"rental_uris":{"android":"levelo://app?vid=9a3d8afe-6430-4f53-aba8-27d653fab8bf","ios":"levelo://app?vid=9a3d8afe-6430-4f53-aba8-27d653fab8bf"},"vehicle_type_id":"4","last_reported":1738706891,"current_range_meters":16400,"station_id":"ce4bhgp2rcd13ifvqfd0","pricing_plan_id":"cebpf4jnsgd1na2vs0mg"},{"bike_id":"272335b6-dc24-496f-b8c5-36817206bf50","system_id":"levelo_inurba_marseille","lat":43.29897,"lon":5.43655,"is_reserved":false,"is_disabled":false,"rental_uris":{"android":"levelo://app?vid=272335b6-dc24-496f-b8c5-36817206bf50","ios":"levelo://app?vid=272335b6-dc24-496f-b8c5-36817206bf50"},"vehicle_type_id":"4","last_reported":1738706891,"current_range_meters":38800,"station_id":"ce4bhpp2rcd13ifvqhfg","pricing_plan_id":"cebpf4jnsgd1na2vs0mg"},{"bike_id":"a1849dca-a7ad-4ef7-bad3-c84d357203f3","system_id":"levelo_inurba_marseille","lat":43.31069,"lon":5.38344,"is_reserved":false,"is_disabled":false,"rental_uris":{"android":"levelo://app?vid=a1849dca-a7ad-4ef7-bad3-c84d357203f3","ios":"levelo://app?vid=a1849dca-a7ad-4ef7-bad3-c84d357203f3"},"vehicle_type_id":"4","last_reported":1738706891,"current_range_meters":27600,"station_id":"ce4bgv92rcd13ifvqcr0","pricing_plan_id":"cebpf4jnsgd1na2vs0mg"},{"bike_id":"c920158d-067a-41ac-b47b-5df40201ff34","system_id":"levelo_inurba_marseille","lat":43.29286,"lon":5.38405,"is_reserved":false,"is_disabled":false,"rental_uris":{"android":"levelo://app?vid=c920158d-067a-41ac-b47b-5df40201ff34","ios":"levelo://app?vid=c920158d-067a-41ac-b47b-5df40201ff34"},"vehicle_type_id":"4","last_reported":1738706891,"current_range_meters":24400,"station_id":"ce4bh692rcd13ifvqea0","pricing_plan_id":"cebpf4jnsgd1na2vs0mg"},{"bike_id":"493f1c72-5d21-485a-9231-2beeb372d468","system_id":"levelo_inurba_marseille","lat":43.29279,"lon":5.40113,"is_reserved":false,"is_disabled":false,"rental_uris":{"android":"levelo://app?vid=493f1c72-5d21-485a-9231-2beeb372d468","ios":"levelo://app?vid=493f1c72-5d21-485a-9231-2beeb372d468"},"vehicle_type_id":"4","last_reported":1738706891,"current_range_meters":32800,"station_id":"ce4bh312rcd13ifvqdk0","pricing_plan_id":"cebpf4jnsgd1na2vs0mg"},{"bike_id":"fcec2196-c533-4670-933c-9ee1e51f8179","system_id":"levelo_inurba_marseille","lat":43.25515,"lon":5.37644,"is_reserved":false,"is_disabled":false,"rental_uris":{"android":"levelo://app?vid=fcec2196-c533-4670-933c-9ee1e51f8179","ios":"levelo://app?vid=fcec2196-c533-4670-933c-9ee1e51f8179"},"vehicle_type_id":"4","last_reported":1738706891,"current_range_meters":38800,"station_id":"ce4bhh12rcd13ifvqff0","pricing_plan_id":"cebpf4jnsgd1na2vs0mg"},{"bike_id":"cf0d534e-429a-4742-b2cb-4793faf704ac","system_id":"levelo_inurba_marseille","lat":43.24642,"lon":5.3891,"is_reserved":false,"is_disabled":false,"rental_uris":{"android":"levelo://app?vid=cf0d534e-429a-4742-b2cb-4793faf704ac","ios":"levelo://app?vid=cf0d534e-429a-4742-b2cb-4793faf704ac"},"vehicle_type_id":"4","last_reported":1738706891,"current_range_meters":38400,"station_id":"ce4bhg12rcd13ifvqf60","pricing_plan_id":"cebpf4jnsgd1na2vs0mg"},{"bike_id":"8990bf66-2391-44c0-90e1-98264103ad0b","system_id":"levelo_inurba_marseille","lat":43.31345,"lon":5.39703,"is_reserved":false,"is_disabled":false,"rental_uris":{"android":"levelo://app?vid=8990bf66-2391-44c0-90e1-98264103ad0b","ios":"levelo://app?vid=8990bf66-2391-44c0-90e1-98264103ad0b"},"vehicle_type_id":"4","last_reported":1738706891,"current_range_meters":38800,"station_id":"ce4bgvp2rcd13ifvqcu0","pricing_plan_id":"cebpf4jnsgd1na2vs0mg"},{"bike_id":"36e507af-56d1-4196-b839-78c6035b3e44","system_id":"levelo_inurba_marseille","lat":43.25867,"lon":5.39935,"is_reserved":false,"is_disabled":false,"rental_uris":{"android":"levelo://app?vid=36e507af-56d1-4196-b839-78c6035b3e44","ios":"levelo://app?vid=36e507af-56d1-4196-b839-78c6035b3e44"},"vehicle_type_id":"4","last_reported":1738706891,"current_range_meters":38000,"station_id":"ce4bhl92rcd13ifvqghg","pricing_plan_id":"cebpf4jnsgd1na2vs0mg"},{"bike_id":"3a5aa9c9-bc8f-448e-aeb5-c9e98d56970c","system_id":"levelo_inurba_marseille","lat":43.33604,"lon":5.40981,"is_reserved":false,"is_disabled":false,"rental_uris":{"android":"levelo://app?vid=3a5aa9c9-bc8f-448e-aeb5-c9e98d56970c","ios":"levelo://app?vid=3a5aa9c9-bc8f-448e-aeb5-c9e98d56970c"},"vehicle_type_id":"4","last_reported":1738706891,"current_range_meters":36800,"station_id":"ce4bhqh2rcd13ifvqhmg","pricing_plan_id":"cebpf4jnsgd1na2vs0mg"},{"bike_id":"933168f7-56a5-492e-a25c-5485ab107683","system_id":"levelo_inurba_marseille","lat":43.3056,"lon":5.38449,"is_reserved":false,"is_disabled":false,"rental_uris":{"android":"levelo://app?vid=933168f7-56a5-492e-a25c-5485ab107683","ios":"levelo://app?vid=933168f7-56a5-492e-a25c-5485ab107683"},"vehicle_type_id":"4","last_reported":1738706891,"current_range_meters":20800,"station_id":"ce4bgg92rcd13ifvqb30","pricing_plan_id":"cebpf4jnsgd1na2vs0mg"},{"bike_id":"d0f83c8b-7d8b-4405-b29d-b6f7f57a005e","system_id":"levelo_inurba_marseille","lat":43.33026,"lon":5.39053,"is_reserved":false,"is_disabled":false,"rental_uris":{"android":"levelo://app?vid=d0f83c8b-7d8b-4405-b29d-b6f7f57a005e","ios":"levelo://app?vid=d0f83c8b-7d8b-4405-b29d-b6f7f57a005e"},"vehicle_type_id":"4","last_reported":1738706891,"current_range_meters":38800,"station_id":"ce4bhr92rcd13ifvqhrg","pricing_plan_id":"cebpf4jnsgd1na2vs0mg"},{"bike_id":"30d68ac6-7ba6-4749-8154-bf914e372a6a","system_id":"levelo_inurba_marseille","lat":43.3236,"lon":5.38837,"is_reserved":false,"is_disabled":false,"rental_uris":{"android":"levelo://app?vid=30d68ac6-7ba6-4749-8154-bf914e372a6a","ios":"levelo://app?vid=30d68ac6-7ba6-4749-8154-bf914e372a6a"},"vehicle_type_id":"4","last_reported":1738706891,"current_range_meters":36400,"station_id":"ce4bhqp2rcd13ifvqhog","pricing_plan_id":"cebpf4jnsgd1na2vs0mg"},{"bike_id":"c5b056ff-c872-48a0-bb26-d9c2657a26db","system_id":"levelo_inurba_marseille","lat":43.30321,"lon":5.4045,"is_reserved":false,"is_disabled":false,"rental_uris":{"android":"levelo://app?vid=c5b056ff-c872-48a0-bb26-d9c2657a26db","ios":"levelo://app?vid=c5b056ff-c872-48a0-bb26-d9c2657a26db"},"vehicle_type_id":"4","last_reported":1738706891,"current_range_meters":10800,"station_id":"ce4bh012rcd13ifvqd10","pricing_plan_id":"cebpf4jnsgd1na2vs0mg"},{"bike_id":"312e32c3-6324-498b-b53b-8d30f4b3f2b5","system_id":"levelo_inurba_marseille","lat":43.30896,"lon":5.40213,"is_reserved":false,"is_disabled":false,"rental_uris":{"android":"levelo://app?vid=312e32c3-6324-498b-b53b-8d30f4b3f2b5","ios":"levelo://app?vid=312e32c3-6324-498b-b53b-8d30f4b3f2b5"},"vehicle_type_id":"4","last_reported":1738706891,"current_range_meters":38400,"station_id":"","pricing_plan_id":"cebpf4jnsgd1na2vs0mg"},{"bike_id":"dadce840-2b69-4ba3-8248-7839803ca39b","system_id":"levelo_inurba_marseille","lat":43.29524,"lon":5.39031,"is_reserved":false,"is_disabled":false,"rental_uris":{"android":"levelo://app?vid=dadce840-2b69-4ba3-8248-7839803ca39b","ios":"levelo://app?vid=dadce840-2b69-4ba3-8248-7839803ca39b"},"vehicle_type_id":"4","last_reported":1738706891,"current_range_meters":25600,"station_id":"ce4bh3p2rcd13ifvqdp0","pricing_plan_id":"cebpf4jnsgd1na2vs0mg"},{"bike_id":"f680809a-e1e0-46e9-9232-13f32fa7a21b","system_id":"levelo_inurba_marseille","lat":43.28558,"lon":5.40501,"is_reserved":false,"is_disabled":false,"rental_uris":{"android":"levelo://app?vid=f680809a-e1e0-46e9-9232-13f32fa7a21b","ios":"levelo://app?vid=f680809a-e1e0-46e9-9232-13f32fa7a21b"},"vehicle_type_id":"4","last_reported":1738706891,"current_range_meters":27600,"station_id":"","pricing_plan_id":"cebpf4jnsgd1na2vs0mg"},{"bike_id":"5012ce34-cb64-4d41-8f9c-62d48daa0237","system_id":"levelo_inurba_marseille","lat":43.27995,"lon":5.40051,"is_reserved":false,"is_disabled":false,"rental_uris":{"android":"levelo://app?vid=5012ce34-cb64-4d41-8f9c-62d48daa0237","ios":"levelo://app?vid=5012ce34-cb64-4d41-8f9c-62d48daa0237"},"vehicle_type_id":"4","last_reported":1738706891,"current_range_meters":17200,"station_id":"ce4bho92rcd13ifvqh4g","pricing_plan_id":"cebpf4jnsgd1na2vs0mg"},{"bike_id":"aeedee71-e83e-4ee6-8827-493e25fcb744","system_id":"levelo_inurba_marseille","lat":43.27936,"lon":5.41069,"is_reserved":false,"is_disabled":false,"rental_uris":{"android":"levelo://app?vid=aeedee71-e83e-4ee6-8827-493e25fcb744","ios":"levelo://app?vid=aeedee71-e83e-4ee6-8827-493e25fcb744"},"vehicle_type_id":"4","last_reported":1738706891,"current_range_meters":16400,"station_id":"ce4bhnp2rcd13ifvqh0g","pricing_plan_id":"cebpf4jnsgd1na2vs0mg"},{"bike_id":"c05d5e1e-808b-41a6-b040-802fe3a55ca8","system_id":"levelo_inurba_marseille","lat":43.28993,"lon":5.37546,"is_reserved":false,"is_disabled":false,"rental_uris":{"android":"levelo://app?vid=c05d5e1e-808b-41a6-b040-802fe3a55ca8","ios":"levelo://app?vid=c05d5e1e-808b-41a6-b040-802fe3a55ca8"},"vehicle_type_id":"4","last_reported":1738706891,"current_range_meters":22400,"station_id":"ce4bh692rcd13ifvqe90","pricing_plan_id":"cebpf4jnsgd1na2vs0mg"},{"bike_id":"3f9cee96-5e5c-4c32-832c-aeb7c03f0cf2","system_id":"levelo_inurba_marseille","lat":43.29703,"lon":5.36617,"is_reserved":false,"is_disabled":false,"rental_uris":{"android":"levelo://app?vid=3f9cee96-5e5c-4c32-832c-aeb7c03f0cf2","ios":"levelo://app?vid=3f9cee96-5e5c-4c32-832c-aeb7c03f0cf2"},"vehicle_type_id":"4","last_reported":1738706891,"current_range_meters":33600,"station_id":"ce4bgn12rcd13ifvqbt0","pricing_plan_id":"cebpf4jnsgd1na2vs0mg"},{"bike_id":"6712f04b-f35d-4e3a-a70d-c89aec85d9b2","system_id":"levelo_inurba_marseille","lat":43.22957,"lon":5.35379,"is_reserved":false,"is_disabled":false,"rental_uris":{"android":"levelo://app?vid=6712f04b-f35d-4e3a-a70d-c89aec85d9b2","ios":"levelo://app?vid=6712f04b-f35d-4e3a-a70d-c89aec85d9b2"},"vehicle_type_id":"4","last_reported":1738706891,"current_range_meters":38800,"station_id":"cpo3532slgdg3j2ikp40","pricing_plan_id":"cebpf4jnsgd1na2vs0mg"},{"bike_id":"5044aa60-48d5-4442-a7ee-5bef833d2152","system_id":"levelo_inurba_marseille","lat":43.27917,"lon":5.39588,"is_reserved":false,"is_disabled":false,"rental_uris":{"android":"levelo://app?vid=5044aa60-48d5-4442-a7ee-5bef833d2152","ios":"levelo://app?vid=5044aa60-48d5-4442-a7ee-5bef833d2152"},"vehicle_type_id":"4","last_reported":1738706891,"current_range_meters":34000,"station_id":"ce4bhf92rcd13ifvqf40","pricing_plan_id":"cebpf4jnsgd1na2vs0mg"},{"bike_id":"e8580140-46e3-443b-9f96-b01ff3d24255","system_id":"levelo_inurba_marseille","lat":43.311662,"lon":5.425262,"is_reserved":false,"is_disabled":false,"rental_uris":{"android":"levelo://app?vid=e8580140-46e3-443b-9f96-b01ff3d24255","ios":"levelo://app?vid=e8580140-46e3-443b-9f96-b01ff3d24255"},"vehicle_type_id":"4","last_reported":1738706891,"current_range_meters":11600,"station_id":"ce4bhp92rcd13ifvqhag","pricing_plan_id":"cebpf4jnsgd1na2vs0mg"},{"bike_id":"8f51f7b4-db37-49a2-ac98-4da47d8beaee","system_id":"levelo_inurba_marseille","lat":43.28053,"lon":5.36942,"is_reserved":false,"is_disabled":false,"rental_uris":{"android":"levelo://app?vid=8f51f7b4-db37-49a2-ac98-4da47d8beaee","ios":"levelo://app?vid=8f51f7b4-db37-49a2-ac98-4da47d8beaee"},"vehicle_type_id":"4","last_reported":1738706891,"current_range_meters":38800,"station_id":"ce4bha12rcd13ifvqef0","pricing_plan_id":"cebpf4jnsgd1na2vs0mg"},{"bike_id":"800ea611-c91c-4654-9ad7-10bcebbff999","system_id":"levelo_inurba_marseille","lat":43.29522,"lon":5.37504,"is_reserved":false,"is_disabled":false,"rental_uris":{"android":"levelo://app?vid=800ea611-c91c-4654-9ad7-10bcebbff999","ios":"levelo://app?vid=800ea611-c91c-4654-9ad7-10bcebbff999"},"vehicle_type_id":"4","last_reported":1738706891,"current_range_meters":19200,"station_id":"ce4bgkp2rcd13ifvqbmg","pricing_plan_id":"cebpf4jnsgd1na2vs0mg"},{"bike_id":"545ec1cf-d4f4-4ead-b4de-b5e594e864b6","system_id":"levelo_inurba_marseille","lat":43.303042,"lon":5.392002,"is_reserved":false,"is_disabled":false,"rental_uris":{"android":"levelo://app?vid=545ec1cf-d4f4-4ead-b4de-b5e594e864b6","ios":"levelo://app?vid=545ec1cf-d4f4-4ead-b4de-b5e594e864b6"},"vehicle_type_id":"4","last_reported":1738706891,"current_range_meters":38800,"station_id":"ce4bgkh2rcd13ifvqbk0","pricing_plan_id":"cebpf4jnsgd1na2vs0mg"},{"bike_id":"827ca05f-17dc-47dd-b033-2d6f43b69e39","system_id":"levelo_inurba_marseille","lat":43.28104,"lon":5.37843,"is_reserved":false,"is_disabled":false,"rental_uris":{"android":"levelo://app?vid=827ca05f-17dc-47dd-b033-2d6f43b69e39","ios":"levelo://app?vid=827ca05f-17dc-47dd-b033-2d6f43b69e39"},"vehicle_type_id":"4","last_reported":1738706891,"current_range_meters":38800,"station_id":"ce4bha12rcd13ifvqee0","pricing_plan_id":"cebpf4jnsgd1na2vs0mg"},{"bike_id":"0888dc6c-9768-41f1-850c-939321da586f","system_id":"levelo_inurba_marseille","lat":43.29075,"lon":5.35921,"is_reserved":false,"is_disabled":false,"rental_uris":{"android":"levelo://app?vid=0888dc6c-9768-41f1-850c-939321da586f","ios":"levelo://app?vid=0888dc6c-9768-41f1-850c-939321da586f"},"vehicle_type_id":"4","last_reported":1738706891,"current_range_meters":38800,"station_id":"ce4bha92rcd13ifvqeg0","pricing_plan_id":"cebpf4jnsgd1na2vs0mg"},{"bike_id":"4b51056f-c9bf-4d1d-a8ae-f2274992a55e","system_id":"levelo_inurba_marseille","lat":43.23198,"lon":5.40005,"is_reserved":false,"is_disabled":false,"rental_uris":{"android":"levelo://app?vid=4b51056f-c9bf-4d1d-a8ae-f2274992a55e","ios":"levelo://app?vid=4b51056f-c9bf-4d1d-a8ae-f2274992a55e"},"vehicle_type_id":"4","last_reported":1738706891,"current_range_meters":16400,"station_id":"ce4bhn12rcd13ifvqgqg","pricing_plan_id":"cebpf4jnsgd1na2vs0mg"},{"bike_id":"4f711729-11db-4481-a558-983b7b381ab1","system_id":"levelo_inurba_marseille","lat":43.33602,"lon":5.41032,"is_reserved":false,"is_disabled":false,"rental_uris":{"android":"levelo://app?vid=4f711729-11db-4481-a558-983b7b381ab1","ios":"levelo://app?vid=4f711729-11db-4481-a558-983b7b381ab1"},"vehicle_type_id":"4","last_reported":1738706891,"current_range_meters":33200,"station_id":"ce4bhqh2rcd13ifvqhmg","pricing_plan_id":"cebpf4jnsgd1na2vs0mg"},{"bike_id":"04c19c1f-0d97-41ab-9dd3-9530e3fdabef","system_id":"levelo_inurba_marseille","lat":43.28716,"lon":5.36093,"is_reserved":false,"is_disabled":false,"rental_uris":{"android":"levelo://app?vid=04c19c1f-0d97-41ab-9dd3-9530e3fdabef","ios":"levelo://app?vid=04c19c1f-0d97-41ab-9dd3-9530e3fdabef"},"vehicle_type_id":"4","last_reported":1738706891,"current_range_meters":16400,"station_id":"cki0cbj6b192h4jlfktg","pricing_plan_id":"cebpf4jnsgd1na2vs0mg"},{"bike_id":"1a3714ed-2f47-45be-8a12-f8dffc386763","system_id":"levelo_inurba_marseille","lat":43.25573,"lon":5.38239,"is_reserved":false,"is_disabled":false,"rental_uris":{"android":"levelo://app?vid=1a3714ed-2f47-45be-8a12-f8dffc386763","ios":"levelo://app?vid=1a3714ed-2f47-45be-8a12-f8dffc386763"},"vehicle_type_id":"4","last_reported":1738706891,"current_range_meters":28000,"station_id":"ce4bhih2rcd13ifvqfs0","pricing_plan_id":"cebpf4jnsgd1na2vs0mg"},{"bike_id":"1fcd64c5-8176-40ba-bc0f-0c3bba0291e2","system_id":"levelo_inurba_marseille","lat":43.250863,"lon":5.395244,"is_reserved":false,"is_disabled":false,"rental_uris":{"android":"levelo://app?vid=1fcd64c5-8176-40ba-bc0f-0c3bba0291e2","ios":"levelo://app?vid=1fcd64c5-8176-40ba-bc0f-0c3bba0291e2"},"vehicle_type_id":"4","last_reported":1738706891,"current_range_meters":38400,"station_id":"ce4bhm12rcd13ifvqgkg","pricing_plan_id":"cebpf4jnsgd1na2vs0mg"},{"bike_id":"278902b4-7b50-4f46-8ac1-6d0f29cc8638","system_id":"levelo_inurba_marseille","lat":43.24381,"lon":5.37064,"is_reserved":false,"is_disabled":false,"rental_uris":{"android":"levelo://app?vid=278902b4-7b50-4f46-8ac1-6d0f29cc8638","ios":"levelo://app?vid=278902b4-7b50-4f46-8ac1-6d0f29cc8638"},"vehicle_type_id":"4","last_reported":1738706891,"current_range_meters":38800,"station_id":"ce4bhhh2rcd13ifvqfk0","pricing_plan_id":"cebpf4jnsgd1na2vs0mg"},{"bike_id":"d6b0cf54-fa2e-4bc8-963e-74d7f8faf1fe","system_id":"levelo_inurba_marseille","lat":43.24657,"lon":5.38159,"is_reserved":false,"is_disabled":false,"rental_uris":{"android":"levelo://app?vid=d6b0cf54-fa2e-4bc8-963e-74d7f8faf1fe","ios":"levelo://app?vid=d6b0cf54-fa2e-4bc8-963e-74d7f8faf1fe"},"vehicle_type_id":"4","last_reported":1738706891,"current_range_meters":4800,"station_id":"ce4bhih2rcd13ifvqfr0","pricing_plan_id":"cebpf4jnsgd1na2vs0mg"},{"bike_id":"c498ce6e-31b6-4b5a-bf27-88958aca9621","system_id":"levelo_inurba_marseille","lat":43.2952,"lon":5.38529,"is_reserved":false,"is_disabled":false,"rental_uris":{"android":"levelo://app?vid=c498ce6e-31b6-4b5a-bf27-88958aca9621","ios":"levelo://app?vid=c498ce6e-31b6-4b5a-bf27-88958aca9621"},"vehicle_type_id":"4","last_reported":1738706891,"current_range_meters":38400,"station_id":"ce4bgih2rcd13ifvqba0","pricing_plan_id":"cebpf4jnsgd1na2vs0mg"},{"bike_id":"8b3eac35-06cf-4eb0-b96f-ceebf5dc2592","system_id":"levelo_inurba_marseille","lat":43.25497,"lon":5.37662,"is_reserved":false,"is_disabled":false,"rental_uris":{"android":"levelo://app?vid=8b3eac35-06cf-4eb0-b96f-ceebf5dc2592","ios":"levelo://app?vid=8b3eac35-06cf-4eb0-b96f-ceebf5dc2592"},"vehicle_type_id":"4","last_reported":1738706891,"current_range_meters":22000,"station_id":"ce4bhh12rcd13ifvqff0","pricing_plan_id":"cebpf4jnsgd1na2vs0mg"},{"bike_id":"97a08849-0937-4210-b532-5a18ef38860c","system_id":"levelo_inurba_marseille","lat":43.29523,"lon":5.39397,"is_reserved":false,"is_disabled":false,"rental_uris":{"android":"levelo://app?vid=97a08849-0937-4210-b532-5a18ef38860c","ios":"levelo://app?vid=97a08849-0937-4210-b532-5a18ef38860c"},"vehicle_type_id":"4","last_reported":1738706891,"current_range_meters":11600,"station_id":"ce4bh292rcd13ifvqdf0","pricing_plan_id":"cebpf4jnsgd1na2vs0mg"},{"bike_id":"3ab0ceb6-cd89-477f-8038-1be761eb4bda","system_id":"levelo_inurba_marseille","lat":43.29535,"lon":5.37492,"is_reserved":false,"is_disabled":true,"rental_uris":{"android":"levelo://app?vid=3ab0ceb6-cd89-477f-8038-1be761eb4bda","ios":"levelo://app?vid=3ab0ceb6-cd89-477f-8038-1be761eb4bda"},"vehicle_type_id":"4","last_reported":1738706891,"current_range_meters":0,"station_id":"ce4bgkp2rcd13ifvqbmg","pricing_plan_id":"cebpf4jnsgd1na2vs0mg"},{"bike_id":"2b34222e-65d7-4275-82a3-4ec28c002700","system_id":"levelo_inurba_marseille","lat":43.24389,"lon":5.37063,"is_reserved":false,"is_disabled":false,"rental_uris":{"android":"levelo://app?vid=2b34222e-65d7-4275-82a3-4ec28c002700","ios":"levelo://app?vid=2b34222e-65d7-4275-82a3-4ec28c002700"},"vehicle_type_id":"4","last_reported":1738706891,"current_range_meters":30800,"station_id":"ce4bhhh2rcd13ifvqfk0","pricing_plan_id":"cebpf4jnsgd1na2vs0mg"},{"bike_id":"b2d6864b-5060-48af-bc3e-cc82b3d1573e","system_id":"levelo_inurba_marseille","lat":43.25724,"lon":5.41107,"is_reserved":false,"is_disabled":false,"rental_uris":{"android":"levelo://app?vid=b2d6864b-5060-48af-bc3e-cc82b3d1573e","ios":"levelo://app?vid=b2d6864b-5060-48af-bc3e-cc82b3d1573e"},"vehicle_type_id":"4","last_reported":1738706891,"current_range_meters":20000,"station_id":"ce4bhkp2rcd13ifvqgd0","pricing_plan_id":"cebpf4jnsgd1na2vs0mg"},{"bike_id":"c85a26e1-f53e-4ec1-b1ea-8b32d23f1f4d","system_id":"levelo_inurba_marseille","lat":43.23065,"lon":5.35495,"is_reserved":false,"is_disabled":false,"rental_uris":{"android":"levelo://app?vid=c85a26e1-f53e-4ec1-b1ea-8b32d23f1f4d","ios":"levelo://app?vid=c85a26e1-f53e-4ec1-b1ea-8b32d23f1f4d"},"vehicle_type_id":"4","last_reported":1738706891,"current_range_meters":24800,"station_id":"cpo3342slgdg3j2ifvpg","pricing_plan_id":"cebpf4jnsgd1na2vs0mg"},{"bike_id":"512a3a23-b079-4568-bc04-d9235c65b5d3","system_id":"levelo_inurba_marseille","lat":43.23967,"lon":5.3663,"is_reserved":false,"is_disabled":false,"rental_uris":{"android":"levelo://app?vid=512a3a23-b079-4568-bc04-d9235c65b5d3","ios":"levelo://app?vid=512a3a23-b079-4568-bc04-d9235c65b5d3"},"vehicle_type_id":"4","last_reported":1738706891,"current_range_meters":16400,"station_id":"ce4bhi12rcd13ifvqfp0","pricing_plan_id":"cebpf4jnsgd1na2vs0mg"},{"bike_id":"de448353-13a2-4302-a75e-76b063abe3f5","system_id":"levelo_inurba_marseille","lat":43.26059,"lon":5.39356,"is_reserved":false,"is_disabled":false,"rental_uris":{"android":"levelo://app?vid=de448353-13a2-4302-a75e-76b063abe3f5","ios":"levelo://app?vid=de448353-13a2-4302-a75e-76b063abe3f5"},"vehicle_type_id":"4","last_reported":1738706891,"current_range_meters":38800,"station_id":"ce4bhh92rcd13ifvqfj0","pricing_plan_id":"cebpf4jnsgd1na2vs0mg"},{"bike_id":"e3fa5aaf-a54f-49f1-9073-60a9cb58ace8","system_id":"levelo_inurba_marseille","lat":43.26839,"lon":5.40627,"is_reserved":false,"is_disabled":false,"rental_uris":{"android":"levelo://app?vid=e3fa5aaf-a54f-49f1-9073-60a9cb58ace8","ios":"levelo://app?vid=e3fa5aaf-a54f-49f1-9073-60a9cb58ace8"},"vehicle_type_id":"4","last_reported":1738706891,"current_range_meters":17600,"station_id":"","pricing_plan_id":"cebpf4jnsgd1na2vs0mg"},{"bike_id":"93439838-63dc-4875-8321-63b2d932473a","system_id":"levelo_inurba_marseille","lat":43.29783,"lon":5.39367,"is_reserved":false,"is_disabled":false,"rental_uris":{"android":"levelo://app?vid=93439838-63dc-4875-8321-63b2d932473a","ios":"levelo://app?vid=93439838-63dc-4875-8321-63b2d932473a"},"vehicle_type_id":"4","last_reported":1738706891,"current_range_meters":38400,"station_id":"chh1huq6cuj3fo74tm60","pricing_plan_id":"cebpf4jnsgd1na2vs0mg"},{"bike_id":"5e57267a-a728-4efc-995b-b462f9f2bad8","system_id":"levelo_inurba_marseille","lat":43.30784,"lon":5.37666,"is_reserved":false,"is_disabled":false,"rental_uris":{"android":"levelo://app?vid=5e57267a-a728-4efc-995b-b462f9f2bad8","ios":"levelo://app?vid=5e57267a-a728-4efc-995b-b462f9f2bad8"},"vehicle_type_id":"4","last_reported":1738706891,"current_range_meters":38000,"station_id":"ce4bgv92rcd13ifvqcq0","pricing_plan_id":"cebpf4jnsgd1na2vs0mg"},{"bike_id":"bde71a62-bff4-4461-9727-c19b8695639f","system_id":"levelo_inurba_marseille","lat":43.25863,"lon":5.39912,"is_reserved":false,"is_disabled":false,"rental_uris":{"android":"levelo://app?vid=bde71a62-bff4-4461-9727-c19b8695639f","ios":"levelo://app?vid=bde71a62-bff4-4461-9727-c19b8695639f"},"vehicle_type_id":"4","last_reported":1738706891,"current_range_meters":38800,"station_id":"ce4bhl92rcd13ifvqghg","pricing_plan_id":"cebpf4jnsgd1na2vs0mg"},{"bike_id":"30588114-472d-4d0f-baf2-61628a171cdf","system_id":"levelo_inurba_marseille","lat":43.2694,"lon":5.38911,"is_reserved":false,"is_disabled":false,"rental_uris":{"android":"levelo://app?vid=30588114-472d-4d0f-baf2-61628a171cdf","ios":"levelo://app?vid=30588114-472d-4d0f-baf2-61628a171cdf"},"vehicle_type_id":"4","last_reported":1738706891,"current_range_meters":38800,"station_id":"ce4bhhh2rcd13ifvqfl0","pricing_plan_id":"cebpf4jnsgd1na2vs0mg"},{"bike_id":"c11b7b30-e92b-44c5-9523-5e4c86fb9eb1","system_id":"levelo_inurba_marseille","lat":43.29531,"lon":5.39385,"is_reserved":false,"is_disabled":false,"rental_uris":{"android":"levelo://app?vid=c11b7b30-e92b-44c5-9523-5e4c86fb9eb1","ios":"levelo://app?vid=c11b7b30-e92b-44c5-9523-5e4c86fb9eb1"},"vehicle_type_id":"4","last_reported":1738706891,"current_range_meters":20800,"station_id":"ce4bh292rcd13ifvqdf0","pricing_plan_id":"cebpf4jnsgd1na2vs0mg"},{"bike_id":"4ee78218-d616-41c7-badf-b0b4807e0395","system_id":"levelo_inurba_marseille","lat":43.307892,"lon":5.378458,"is_reserved":false,"is_disabled":false,"rental_uris":{"android":"levelo://app?vid=4ee78218-d616-41c7-badf-b0b4807e0395","ios":"levelo://app?vid=4ee78218-d616-41c7-badf-b0b4807e0395"},"vehicle_type_id":"4","last_reported":1738706891,"current_range_meters":36400,"station_id":"ce4bgt12rcd13ifvqce0","pricing_plan_id":"cebpf4jnsgd1na2vs0mg"},{"bike_id":"c599a8fc-6e49-4a69-a82c-06b73329fa54","system_id":"levelo_inurba_marseille","lat":43.24544,"lon":5.39533,"is_reserved":false,"is_disabled":false,"rental_uris":{"android":"levelo://app?vid=c599a8fc-6e49-4a69-a82c-06b73329fa54","ios":"levelo://app?vid=c599a8fc-6e49-4a69-a82c-06b73329fa54"},"vehicle_type_id":"4","last_reported":1738706891,"current_range_meters":28400,"station_id":"ce4bhlp2rcd13ifvqgjg","pricing_plan_id":"cebpf4jnsgd1na2vs0mg"},{"bike_id":"1ef98b06-35f8-42b6-b7b3-42b7ff981866","system_id":"levelo_inurba_marseille","lat":43.33014,"lon":5.39042,"is_reserved":false,"is_disabled":false,"rental_uris":{"android":"levelo://app?vid=1ef98b06-35f8-42b6-b7b3-42b7ff981866","ios":"levelo://app?vid=1ef98b06-35f8-42b6-b7b3-42b7ff981866"},"vehicle_type_id":"4","last_reported":1738706891,"current_range_meters":38800,"station_id":"ce4bhr92rcd13ifvqhrg","pricing_plan_id":"cebpf4jnsgd1na2vs0mg"},{"bike_id":"fad1c00d-4059-45de-a64c-5e70bc98c930","system_id":"levelo_inurba_marseille","lat":43.31706,"lon":5.40466,"is_reserved":false,"is_disabled":false,"rental_uris":{"android":"levelo://app?vid=fad1c00d-4059-45de-a64c-5e70bc98c930","ios":"levelo://app?vid=fad1c00d-4059-45de-a64c-5e70bc98c930"},"vehicle_type_id":"4","last_reported":1738706891,"current_range_meters":38800,"station_id":"ce4bh012rcd13ifvqd00","pricing_plan_id":"cebpf4jnsgd1na2vs0mg"},{"bike_id":"2e1fd84a-93c0-4e60-908d-3675bdd34c0e","system_id":"levelo_inurba_marseille","lat":43.22931,"lon":5.3538,"is_reserved":false,"is_disabled":false,"rental_uris":{"android":"levelo://app?vid=2e1fd84a-93c0-4e60-908d-3675bdd34c0e","ios":"levelo://app?vid=2e1fd84a-93c0-4e60-908d-3675bdd34c0e"},"vehicle_type_id":"4","last_reported":1738706891,"current_range_meters":6800,"station_id":"cpo3532slgdg3j2ikp40","pricing_plan_id":"cebpf4jnsgd1na2vs0mg"},{"bike_id":"0dc1ee62-45ea-49a1-844e-25d5f9bcd8a1","system_id":"levelo_inurba_marseille","lat":43.28465,"lon":5.3587,"is_reserved":false,"is_disabled":false,"rental_uris":{"android":"levelo://app?vid=0dc1ee62-45ea-49a1-844e-25d5f9bcd8a1","ios":"levelo://app?vid=0dc1ee62-45ea-49a1-844e-25d5f9bcd8a1"},"vehicle_type_id":"4","last_reported":1738706891,"current_range_meters":20800,"station_id":"ce4bhah2rcd13ifvqei0","pricing_plan_id":"cebpf4jnsgd1na2vs0mg"},{"bike_id":"c2bd934f-62f0-44c0-82bd-0dc4de43b191","system_id":"levelo_inurba_marseille","lat":43.291912,"lon":5.358,"is_reserved":false,"is_disabled":false,"rental_uris":{"android":"levelo://app?vid=c2bd934f-62f0-44c0-82bd-0dc4de43b191","ios":"levelo://app?vid=c2bd934f-62f0-44c0-82bd-0dc4de43b191"},"vehicle_type_id":"4","last_reported":1738706891,"current_range_meters":38800,"station_id":"ce4bhb12rcd13ifvqel0","pricing_plan_id":"cebpf4jnsgd1na2vs0mg"},{"bike_id":"0a4e5f17-bcf4-4389-94ce-534bf413f02b","system_id":"levelo_inurba_marseille","lat":43.28266,"lon":5.3507,"is_reserved":false,"is_disabled":false,"rental_uris":{"android":"levelo://app?vid=0a4e5f17-bcf4-4389-94ce-534bf413f02b","ios":"levelo://app?vid=0a4e5f17-bcf4-4389-94ce-534bf413f02b"},"vehicle_type_id":"4","last_reported":1738706891,"current_range_meters":8800,"station_id":"ce4bhbp2rcd13ifvqerg","pricing_plan_id":"cebpf4jnsgd1na2vs0mg"},{"bike_id":"4fc66d99-c9d0-4a35-b987-a30bb0cdc55b","system_id":"levelo_inurba_marseille","lat":43.24069,"lon":5.37758,"is_reserved":false,"is_disabled":false,"rental_uris":{"android":"levelo://app?vid=4fc66d99-c9d0-4a35-b987-a30bb0cdc55b","ios":"levelo://app?vid=4fc66d99-c9d0-4a35-b987-a30bb0cdc55b"},"vehicle_type_id":"4","last_reported":1738706891,"current_range_meters":38800,"station_id":"ce4bhnp2rcd13ifvqgvg","pricing_plan_id":"cebpf4jnsgd1na2vs0mg"},{"bike_id":"b86fc8d1-9141-4477-a7a0-c5750377a453","system_id":"levelo_inurba_marseille","lat":43.283128,"lon":5.386026,"is_reserved":false,"is_disabled":false,"rental_uris":{"android":"levelo://app?vid=b86fc8d1-9141-4477-a7a0-c5750377a453","ios":"levelo://app?vid=b86fc8d1-9141-4477-a7a0-c5750377a453"},"vehicle_type_id":"4","last_reported":1738706891,"current_range_meters":33200,"station_id":"ce4bgjh2rcd13ifvqbg0","pricing_plan_id":"cebpf4jnsgd1na2vs0mg"},{"bike_id":"92d827f3-8471-4aa2-9f09-488bbb992f3b","system_id":"levelo_inurba_marseille","lat":43.29874,"lon":5.39739,"is_reserved":false,"is_disabled":false,"rental_uris":{"android":"levelo://app?vid=92d827f3-8471-4aa2-9f09-488bbb992f3b","ios":"levelo://app?vid=92d827f3-8471-4aa2-9f09-488bbb992f3b"},"vehicle_type_id":"4","last_reported":1738706891,"current_range_meters":38800,"station_id":"ce4bh0h2rcd13ifvqd50","pricing_plan_id":"cebpf4jnsgd1na2vs0mg"},{"bike_id":"24c81558-a4fc-41f0-ab38-d4fd715f211a","system_id":"levelo_inurba_marseille","lat":43.2782,"lon":5.40711,"is_reserved":false,"is_disabled":false,"rental_uris":{"android":"levelo://app?vid=24c81558-a4fc-41f0-ab38-d4fd715f211a","ios":"levelo://app?vid=24c81558-a4fc-41f0-ab38-d4fd715f211a"},"vehicle_type_id":"4","last_reported":1738706891,"current_range_meters":38800,"station_id":"ce4bhnh2rcd13ifvqgtg","pricing_plan_id":"cebpf4jnsgd1na2vs0mg"},{"bike_id":"4dd4d20b-ede5-47d0-948d-cc2515eca781","system_id":"levelo_inurba_marseille","lat":43.31755,"lon":5.3902,"is_reserved":false,"is_disabled":true,"rental_uris":{"android":"levelo://app?vid=4dd4d20b-ede5-47d0-948d-cc2515eca781","ios":"levelo://app?vid=4dd4d20b-ede5-47d0-948d-cc2515eca781"},"vehicle_type_id":"4","last_reported":1738706891,"current_range_meters":31200,"station_id":"ce4bhqp2rcd13ifvqhng","pricing_plan_id":"cebpf4jnsgd1na2vs0mg"},{"bike_id":"38d5197c-53e9-4ed5-8c6c-9f20d291f067","system_id":"levelo_inurba_marseille","lat":43.28876,"lon":5.35871,"is_reserved":false,"is_disabled":false,"rental_uris":{"android":"levelo://app?vid=38d5197c-53e9-4ed5-8c6c-9f20d291f067","ios":"levelo://app?vid=38d5197c-53e9-4ed5-8c6c-9f20d291f067"},"vehicle_type_id":"4","last_reported":1738706891,"current_range_meters":38000,"station_id":"ce4bhb12rcd13ifvqem0","pricing_plan_id":"cebpf4jnsgd1na2vs0mg"},{"bike_id":"e99e3457-c4b1-4f04-b415-bf64e17c5b09","system_id":"levelo_inurba_marseille","lat":43.25723,"lon":5.41101,"is_reserved":false,"is_disabled":false,"rental_uris":{"android":"levelo://app?vid=e99e3457-c4b1-4f04-b415-bf64e17c5b09","ios":"levelo://app?vid=e99e3457-c4b1-4f04-b415-bf64e17c5b09"},"vehicle_type_id":"4","last_reported":1738706891,"current_range_meters":38800,"station_id":"ce4bhkp2rcd13ifvqgd0","pricing_plan_id":"cebpf4jnsgd1na2vs0mg"},{"bike_id":"4a5efbac-36ac-4037-8212-35b8608b5ebd","system_id":"levelo_inurba_marseille","lat":43.2927,"lon":5.40902,"is_reserved":false,"is_disabled":false,"rental_uris":{"android":"levelo://app?vid=4a5efbac-36ac-4037-8212-35b8608b5ebd","ios":"levelo://app?vid=4a5efbac-36ac-4037-8212-35b8608b5ebd"},"vehicle_type_id":"4","last_reported":1738706891,"current_range_meters":38800,"station_id":"ce4bh192rcd13ifvqdc0","pricing_plan_id":"cebpf4jnsgd1na2vs0mg"},{"bike_id":"ec5dd5cc-14c8-4b95-86d9-c96d037a3a2f","system_id":"levelo_inurba_marseille","lat":43.288526,"lon":5.358507,"is_reserved":false,"is_disabled":false,"rental_uris":{"android":"levelo://app?vid=ec5dd5cc-14c8-4b95-86d9-c96d037a3a2f","ios":"levelo://app?vid=ec5dd5cc-14c8-4b95-86d9-c96d037a3a2f"},"vehicle_type_id":"4","last_reported":1738706891,"current_range_meters":24800,"station_id":"ce4bhb12rcd13ifvqem0","pricing_plan_id":"cebpf4jnsgd1na2vs0mg"},{"bike_id":"d0c4da18-2769-443b-b9f6-8d6062be8386","system_id":"levelo_inurba_marseille","lat":43.3128,"lon":5.40164,"is_reserved":false,"is_disabled":false,"rental_uris":{"android":"levelo://app?vid=d0c4da18-2769-443b-b9f6-8d6062be8386","ios":"levelo://app?vid=d0c4da18-2769-443b-b9f6-8d6062be8386"},"vehicle_type_id":"4","last_reported":1738706891,"current_range_meters":37600,"station_id":"ce4bh092rcd13ifvqd30","pricing_plan_id":"cebpf4jnsgd1na2vs0mg"},{"bike_id":"b96a991c-d3d3-40ca-a1c5-06fc4d42b0ae","system_id":"levelo_inurba_marseille","lat":43.30872,"lon":5.39673,"is_reserved":false,"is_disabled":false,"rental_uris":{"android":"levelo://app?vid=b96a991c-d3d3-40ca-a1c5-06fc4d42b0ae","ios":"levelo://app?vid=b96a991c-d3d3-40ca-a1c5-06fc4d42b0ae"},"vehicle_type_id":"4","last_reported":1738706891,"current_range_meters":36800,"station_id":"ce4bh012rcd13ifvqcv0","pricing_plan_id":"cebpf4jnsgd1na2vs0mg"},{"bike_id":"88f6ec14-1047-428a-bfc8-ed7564b679d3","system_id":"levelo_inurba_marseille","lat":43.24388,"lon":5.37063,"is_reserved":false,"is_disabled":false,"rental_uris":{"android":"levelo://app?vid=88f6ec14-1047-428a-bfc8-ed7564b679d3","ios":"levelo://app?vid=88f6ec14-1047-428a-bfc8-ed7564b679d3"},"vehicle_type_id":"4","last_reported":1738706891,"current_range_meters":38400,"station_id":"ce4bhhh2rcd13ifvqfk0","pricing_plan_id":"cebpf4jnsgd1na2vs0mg"},{"bike_id":"493498c9-6eff-4eb3-afaf-660dd3cc0f90","system_id":"levelo_inurba_marseille","lat":43.2905,"lon":5.35914,"is_reserved":false,"is_disabled":false,"rental_uris":{"android":"levelo://app?vid=493498c9-6eff-4eb3-afaf-660dd3cc0f90","ios":"levelo://app?vid=493498c9-6eff-4eb3-afaf-660dd3cc0f90"},"vehicle_type_id":"4","last_reported":1738706891,"current_range_meters":38000,"station_id":"ce4bha92rcd13ifvqeg0","pricing_plan_id":"cebpf4jnsgd1na2vs0mg"},{"bike_id":"3eb089a4-83c3-4e94-92de-84f6b7286420","system_id":"levelo_inurba_marseille","lat":43.28152,"lon":5.42644,"is_reserved":false,"is_disabled":false,"rental_uris":{"android":"levelo://app?vid=3eb089a4-83c3-4e94-92de-84f6b7286420","ios":"levelo://app?vid=3eb089a4-83c3-4e94-92de-84f6b7286420"},"vehicle_type_id":"4","last_reported":1738706891,"current_range_meters":12800,"station_id":"ce4bhnh2rcd13ifvqgug","pricing_plan_id":"cebpf4jnsgd1na2vs0mg"},{"bike_id":"560cd751-8fcc-4836-ad0c-188afb112b05","system_id":"levelo_inurba_marseille","lat":43.31113,"lon":5.37771,"is_reserved":false,"is_disabled":false,"rental_uris":{"android":"levelo://app?vid=560cd751-8fcc-4836-ad0c-188afb112b05","ios":"levelo://app?vid=560cd751-8fcc-4836-ad0c-188afb112b05"},"vehicle_type_id":"4","last_reported":1738706891,"current_range_meters":38800,"station_id":"ce4bgt92rcd13ifvqcg0","pricing_plan_id":"cebpf4jnsgd1na2vs0mg"},{"bike_id":"b8fc24a0-320f-42c2-8792-c1163eabc5d6","system_id":"levelo_inurba_marseille","lat":43.30801,"lon":5.38155,"is_reserved":false,"is_disabled":false,"rental_uris":{"android":"levelo://app?vid=b8fc24a0-320f-42c2-8792-c1163eabc5d6","ios":"levelo://app?vid=b8fc24a0-320f-42c2-8792-c1163eabc5d6"},"vehicle_type_id":"4","last_reported":1738706891,"current_range_meters":38800,"station_id":"ce4bgt12rcd13ifvqce0","pricing_plan_id":"cebpf4jnsgd1na2vs0mg"},{"bike_id":"2b05073d-60e5-43e5-b13c-86d3deb4df57","system_id":"levelo_inurba_marseille","lat":43.32539,"lon":5.41438,"is_reserved":false,"is_disabled":false,"rental_uris":{"android":"levelo://app?vid=2b05073d-60e5-43e5-b13c-86d3deb4df57","ios":"levelo://app?vid=2b05073d-60e5-43e5-b13c-86d3deb4df57"},"vehicle_type_id":"4","last_reported":1738706891,"current_range_meters":38000,"station_id":"ce4bhq12rcd13ifvqhhg","pricing_plan_id":"cebpf4jnsgd1na2vs0mg"},{"bike_id":"dcdc0f89-424b-480b-860a-becd402a3900","system_id":"levelo_inurba_marseille","lat":43.2397,"lon":5.36634,"is_reserved":false,"is_disabled":false,"rental_uris":{"android":"levelo://app?vid=dcdc0f89-424b-480b-860a-becd402a3900","ios":"levelo://app?vid=dcdc0f89-424b-480b-860a-becd402a3900"},"vehicle_type_id":"4","last_reported":1738706891,"current_range_meters":38000,"station_id":"ce4bhi12rcd13ifvqfp0","pricing_plan_id":"cebpf4jnsgd1na2vs0mg"},{"bike_id":"3894dca2-273b-40ed-8be2-d6f8dae96388","system_id":"levelo_inurba_marseille","lat":43.2862,"lon":5.35102,"is_reserved":false,"is_disabled":false,"rental_uris":{"android":"levelo://app?vid=3894dca2-273b-40ed-8be2-d6f8dae96388","ios":"levelo://app?vid=3894dca2-273b-40ed-8be2-d6f8dae96388"},"vehicle_type_id":"4","last_reported":1738706891,"current_range_meters":38000,"station_id":"ce4bhch2rcd13ifvqeug","pricing_plan_id":"cebpf4jnsgd1na2vs0mg"},{"bike_id":"03215b30-aa65-4b10-b451-ed50967ec88e","system_id":"levelo_inurba_marseille","lat":43.34418,"lon":5.35975,"is_reserved":false,"is_disabled":true,"rental_uris":{"android":"levelo://app?vid=03215b30-aa65-4b10-b451-ed50967ec88e","ios":"levelo://app?vid=03215b30-aa65-4b10-b451-ed50967ec88e"},"vehicle_type_id":"4","last_reported":1738706891,"current_range_meters":0,"station_id":"","pricing_plan_id":"cebpf4jnsgd1na2vs0mg"},{"bike_id":"92b36b43-547a-429b-8926-e74c330f69ba","system_id":"levelo_inurba_marseille","lat":43.29013,"lon":5.35608,"is_reserved":false,"is_disabled":false,"rental_uris":{"android":"levelo://app?vid=92b36b43-547a-429b-8926-e74c330f69ba","ios":"levelo://app?vid=92b36b43-547a-429b-8926-e74c330f69ba"},"vehicle_type_id":"4","last_reported":1738706891,"current_range_meters":28400,"station_id":"ce4bhb92rcd13ifvqen0","pricing_plan_id":"cebpf4jnsgd1na2vs0mg"},{"bike_id":"931c3b97-cce1-4ebe-a291-6c50a6f2810e","system_id":"levelo_inurba_marseille","lat":43.31814,"lon":5.37415,"is_reserved":false,"is_disabled":false,"rental_uris":{"android":"levelo://app?vid=931c3b97-cce1-4ebe-a291-6c50a6f2810e","ios":"levelo://app?vid=931c3b97-cce1-4ebe-a291-6c50a6f2810e"},"vehicle_type_id":"4","last_reported":1738706891,"current_range_meters":8400,"station_id":"","pricing_plan_id":"cebpf4jnsgd1na2vs0mg"},{"bike_id":"2a6c0041-41bf-49e9-aa9a-aa5ccb4a5aac","system_id":"levelo_inurba_marseille","lat":43.3126,"lon":5.40168,"is_reserved":false,"is_disabled":false,"rental_uris":{"android":"levelo://app?vid=2a6c0041-41bf-49e9-aa9a-aa5ccb4a5aac","ios":"levelo://app?vid=2a6c0041-41bf-49e9-aa9a-aa5ccb4a5aac"},"vehicle_type_id":"4","last_reported":1738706891,"current_range_meters":17600,"station_id":"ce4bh092rcd13ifvqd30","pricing_plan_id":"cebpf4jnsgd1na2vs0mg"},{"bike_id":"d1d51ec2-e1ab-4b92-9a4b-f935b04ef436","system_id":"levelo_inurba_marseille","lat":43.25007,"lon":5.38919,"is_reserved":false,"is_disabled":false,"rental_uris":{"android":"levelo://app?vid=d1d51ec2-e1ab-4b92-9a4b-f935b04ef436","ios":"levelo://app?vid=d1d51ec2-e1ab-4b92-9a4b-f935b04ef436"},"vehicle_type_id":"4","last_reported":1738706891,"current_range_meters":22800,"station_id":"ce4bhgp2rcd13ifvqfd0","pricing_plan_id":"cebpf4jnsgd1na2vs0mg"},{"bike_id":"102b9f2d-4c9c-4720-8aef-3f4ab487e1a0","system_id":"levelo_inurba_marseille","lat":43.32343,"lon":5.38888,"is_reserved":false,"is_disabled":false,"rental_uris":{"android":"levelo://app?vid=102b9f2d-4c9c-4720-8aef-3f4ab487e1a0","ios":"levelo://app?vid=102b9f2d-4c9c-4720-8aef-3f4ab487e1a0"},"vehicle_type_id":"4","last_reported":1738706891,"current_range_meters":38800,"station_id":"ce4bhqp2rcd13ifvqhog","pricing_plan_id":"cebpf4jnsgd1na2vs0mg"},{"bike_id":"7a2080c9-d44a-471c-9acd-526428e8e5dc","system_id":"levelo_inurba_marseille","lat":43.22936,"lon":5.35381,"is_reserved":false,"is_disabled":false,"rental_uris":{"android":"levelo://app?vid=7a2080c9-d44a-471c-9acd-526428e8e5dc","ios":"levelo://app?vid=7a2080c9-d44a-471c-9acd-526428e8e5dc"},"vehicle_type_id":"4","last_reported":1738706891,"current_range_meters":38800,"station_id":"cpo3532slgdg3j2ikp40","pricing_plan_id":"cebpf4jnsgd1na2vs0mg"},{"bike_id":"8d32830c-34e5-42b2-8199-bd8081ed2f94","system_id":"levelo_inurba_marseille","lat":43.28843,"lon":5.39309,"is_reserved":false,"is_disabled":false,"rental_uris":{"android":"levelo://app?vid=8d32830c-34e5-42b2-8199-bd8081ed2f94","ios":"levelo://app?vid=8d32830c-34e5-42b2-8199-bd8081ed2f94"},"vehicle_type_id":"4","last_reported":1738706891,"current_range_meters":38800,"station_id":"ce4bh2p2rcd13ifvqdi0","pricing_plan_id":"cebpf4jnsgd1na2vs0mg"},{"bike_id":"3cffe561-5575-4d5f-9a3c-4ee740a5b122","system_id":"levelo_inurba_marseille","lat":43.27948,"lon":5.41054,"is_reserved":false,"is_disabled":false,"rental_uris":{"android":"levelo://app?vid=3cffe561-5575-4d5f-9a3c-4ee740a5b122","ios":"levelo://app?vid=3cffe561-5575-4d5f-9a3c-4ee740a5b122"},"vehicle_type_id":"4","last_reported":1738706891,"current_range_meters":26800,"station_id":"ce4bhnp2rcd13ifvqh0g","pricing_plan_id":"cebpf4jnsgd1na2vs0mg"},{"bike_id":"d500b762-3915-4dff-a06c-7c96151cfc0d","system_id":"levelo_inurba_marseille","lat":43.32551,"lon":5.41442,"is_reserved":false,"is_disabled":false,"rental_uris":{"android":"levelo://app?vid=d500b762-3915-4dff-a06c-7c96151cfc0d","ios":"levelo://app?vid=d500b762-3915-4dff-a06c-7c96151cfc0d"},"vehicle_type_id":"4","last_reported":1738706891,"current_range_meters":38000,"station_id":"ce4bhq12rcd13ifvqhhg","pricing_plan_id":"cebpf4jnsgd1na2vs0mg"},{"bike_id":"f307dfc9-492f-427c-886b-0aebd0c4a217","system_id":"levelo_inurba_marseille","lat":43.241626,"lon":5.364033,"is_reserved":false,"is_disabled":false,"rental_uris":{"android":"levelo://app?vid=f307dfc9-492f-427c-886b-0aebd0c4a217","ios":"levelo://app?vid=f307dfc9-492f-427c-886b-0aebd0c4a217"},"vehicle_type_id":"4","last_reported":1738706891,"current_range_meters":11200,"station_id":"cpo36qri1sfpv3e86is0","pricing_plan_id":"cebpf4jnsgd1na2vs0mg"},{"bike_id":"b2272a44-41b3-4706-bf06-4d1dc73506e4","system_id":"levelo_inurba_marseille","lat":43.28939,"lon":5.39626,"is_reserved":false,"is_disabled":false,"rental_uris":{"android":"levelo://app?vid=b2272a44-41b3-4706-bf06-4d1dc73506e4","ios":"levelo://app?vid=b2272a44-41b3-4706-bf06-4d1dc73506e4"},"vehicle_type_id":"4","last_reported":1738706891,"current_range_meters":38800,"station_id":"ce4bh3h2rcd13ifvqdn0","pricing_plan_id":"cebpf4jnsgd1na2vs0mg"},{"bike_id":"0831d8bb-7237-43f0-9b92-f90b2e362b16","system_id":"levelo_inurba_marseille","lat":43.27814,"lon":5.40712,"is_reserved":false,"is_disabled":false,"rental_uris":{"android":"levelo://app?vid=0831d8bb-7237-43f0-9b92-f90b2e362b16","ios":"levelo://app?vid=0831d8bb-7237-43f0-9b92-f90b2e362b16"},"vehicle_type_id":"4","last_reported":1738706891,"current_range_meters":26000,"station_id":"ce4bhnh2rcd13ifvqgtg","pricing_plan_id":"cebpf4jnsgd1na2vs0mg"},{"bike_id":"12802ce9-6c80-4412-99f0-1c1b99c23a14","system_id":"levelo_inurba_marseille","lat":43.29165,"lon":5.37158,"is_reserved":false,"is_disabled":false,"rental_uris":{"android":"levelo://app?vid=12802ce9-6c80-4412-99f0-1c1b99c23a14","ios":"levelo://app?vid=12802ce9-6c80-4412-99f0-1c1b99c23a14"},"vehicle_type_id":"4","last_reported":1738706891,"current_range_meters":38400,"station_id":"ce4bha92rcd13ifvqeh0","pricing_plan_id":"cebpf4jnsgd1na2vs0mg"},{"bike_id":"66bf59dd-dd17-4505-b43a-4bd47959ec7b","system_id":"levelo_inurba_marseille","lat":43.28659,"lon":5.36352,"is_reserved":false,"is_disabled":true,"rental_uris":{"android":"levelo://app?vid=66bf59dd-dd17-4505-b43a-4bd47959ec7b","ios":"levelo://app?vid=66bf59dd-dd17-4505-b43a-4bd47959ec7b"},"vehicle_type_id":"4","last_reported":1738706891,"current_range_meters":0,"station_id":"ce4bhah2rcd13ifvqej0","pricing_plan_id":"cebpf4jnsgd1na2vs0mg"},{"bike_id":"43784456-3d29-412e-8227-794ace361614","system_id":"levelo_inurba_marseille","lat":43.31205,"lon":5.38705,"is_reserved":false,"is_disabled":false,"rental_uris":{"android":"levelo://app?vid=43784456-3d29-412e-8227-794ace361614","ios":"levelo://app?vid=43784456-3d29-412e-8227-794ace361614"},"vehicle_type_id":"4","last_reported":1738706891,"current_range_meters":19600,"station_id":"ce4bgv12rcd13ifvqcp0","pricing_plan_id":"cebpf4jnsgd1na2vs0mg"},{"bike_id":"6dfe34ee-89dc-4687-a40b-bb003e3c18c6","system_id":"levelo_inurba_marseille","lat":43.28087,"lon":5.37832,"is_reserved":false,"is_disabled":true,"rental_uris":{"android":"levelo://app?vid=6dfe34ee-89dc-4687-a40b-bb003e3c18c6","ios":"levelo://app?vid=6dfe34ee-89dc-4687-a40b-bb003e3c18c6"},"vehicle_type_id":"4","last_reported":1738706891,"current_range_meters":16000,"station_id":"ce4bha12rcd13ifvqee0","pricing_plan_id":"cebpf4jnsgd1na2vs0mg"},{"bike_id":"8e0a0553-d4ce-4a58-bdf9-cddf2b79af95","system_id":"levelo_inurba_marseille","lat":43.27997,"lon":5.40027,"is_reserved":false,"is_disabled":false,"rental_uris":{"android":"levelo://app?vid=8e0a0553-d4ce-4a58-bdf9-cddf2b79af95","ios":"levelo://app?vid=8e0a0553-d4ce-4a58-bdf9-cddf2b79af95"},"vehicle_type_id":"4","last_reported":1738706891,"current_range_meters":38800,"station_id":"ce4bho92rcd13ifvqh4g","pricing_plan_id":"cebpf4jnsgd1na2vs0mg"},{"bike_id":"4b7b6cfe-f9d9-4680-8294-e32eb1a1477e","system_id":"levelo_inurba_marseille","lat":43.29627,"lon":5.40594,"is_reserved":false,"is_disabled":false,"rental_uris":{"android":"levelo://app?vid=4b7b6cfe-f9d9-4680-8294-e32eb1a1477e","ios":"levelo://app?vid=4b7b6cfe-f9d9-4680-8294-e32eb1a1477e"},"vehicle_type_id":"4","last_reported":1738706891,"current_range_meters":36800,"station_id":"ce4bh0h2rcd13ifvqd60","pricing_plan_id":"cebpf4jnsgd1na2vs0mg"},{"bike_id":"4aab5f6d-fa51-4980-b027-491c58f7f391","system_id":"levelo_inurba_marseille","lat":43.28609,"lon":5.35119,"is_reserved":false,"is_disabled":false,"rental_uris":{"android":"levelo://app?vid=4aab5f6d-fa51-4980-b027-491c58f7f391","ios":"levelo://app?vid=4aab5f6d-fa51-4980-b027-491c58f7f391"},"vehicle_type_id":"4","last_reported":1738706891,"current_range_meters":6400,"station_id":"ce4bhch2rcd13ifvqeug","pricing_plan_id":"cebpf4jnsgd1na2vs0mg"},{"bike_id":"6d60913d-cc26-4ecc-b494-5bb2f9b2ea83","system_id":"levelo_inurba_marseille","lat":43.29902,"lon":5.43668,"is_reserved":false,"is_disabled":false,"rental_uris":{"android":"levelo://app?vid=6d60913d-cc26-4ecc-b494-5bb2f9b2ea83","ios":"levelo://app?vid=6d60913d-cc26-4ecc-b494-5bb2f9b2ea83"},"vehicle_type_id":"4","last_reported":1738706891,"current_range_meters":38800,"station_id":"ce4bhpp2rcd13ifvqhfg","pricing_plan_id":"cebpf4jnsgd1na2vs0mg"},{"bike_id":"2fed9ba3-3909-423b-8e60-69abd9978d73","system_id":"levelo_inurba_marseille","lat":43.26811,"lon":5.40287,"is_reserved":false,"is_disabled":false,"rental_uris":{"android":"levelo://app?vid=2fed9ba3-3909-423b-8e60-69abd9978d73","ios":"levelo://app?vid=2fed9ba3-3909-423b-8e60-69abd9978d73"},"vehicle_type_id":"4","last_reported":1738706891,"current_range_meters":38400,"station_id":"ce501612rcd8frsf0b60","pricing_plan_id":"cebpf4jnsgd1na2vs0mg"},{"bike_id":"7d94b587-e333-42e2-a4fa-216e5512865a","system_id":"levelo_inurba_marseille","lat":43.2883,"lon":5.39325,"is_reserved":false,"is_disabled":false,"rental_uris":{"android":"levelo://app?vid=7d94b587-e333-42e2-a4fa-216e5512865a","ios":"levelo://app?vid=7d94b587-e333-42e2-a4fa-216e5512865a"},"vehicle_type_id":"4","last_reported":1738706891,"current_range_meters":11200,"station_id":"ce4bh2p2rcd13ifvqdi0","pricing_plan_id":"cebpf4jnsgd1na2vs0mg"},{"bike_id":"fb1830e2-f6fc-4fde-afda-8615e8ed9c4a","system_id":"levelo_inurba_marseille","lat":43.26191,"lon":5.37462,"is_reserved":false,"is_disabled":false,"rental_uris":{"android":"levelo://app?vid=fb1830e2-f6fc-4fde-afda-8615e8ed9c4a","ios":"levelo://app?vid=fb1830e2-f6fc-4fde-afda-8615e8ed9c4a"},"vehicle_type_id":"4","last_reported":1738706891,"current_range_meters":8000,"station_id":"ce4bhgp2rcd13ifvqfc0","pricing_plan_id":"cebpf4jnsgd1na2vs0mg"},{"bike_id":"32b0730a-f64d-4e71-9fea-c5533d71cda7","system_id":"levelo_inurba_marseille","lat":43.28637,"lon":5.35104,"is_reserved":false,"is_disabled":false,"rental_uris":{"android":"levelo://app?vid=32b0730a-f64d-4e71-9fea-c5533d71cda7","ios":"levelo://app?vid=32b0730a-f64d-4e71-9fea-c5533d71cda7"},"vehicle_type_id":"4","last_reported":1738706891,"current_range_meters":20400,"station_id":"ce4bhch2rcd13ifvqeug","pricing_plan_id":"cebpf4jnsgd1na2vs0mg"},{"bike_id":"6e7c1ac2-e791-43c7-8c36-9db37854d07d","system_id":"levelo_inurba_marseille","lat":43.28614,"lon":5.35113,"is_reserved":false,"is_disabled":true,"rental_uris":{"android":"levelo://app?vid=6e7c1ac2-e791-43c7-8c36-9db37854d07d","ios":"levelo://app?vid=6e7c1ac2-e791-43c7-8c36-9db37854d07d"},"vehicle_type_id":"4","last_reported":1738706891,"current_range_meters":24400,"station_id":"ce4bhch2rcd13ifvqeug","pricing_plan_id":"cebpf4jnsgd1na2vs0mg"},{"bike_id":"2b52254f-933d-4903-ac07-21eb27a1e798","system_id":"levelo_inurba_marseille","lat":43.2719,"lon":5.40994,"is_reserved":false,"is_disabled":false,"rental_uris":{"android":"levelo://app?vid=2b52254f-933d-4903-ac07-21eb27a1e798","ios":"levelo://app?vid=2b52254f-933d-4903-ac07-21eb27a1e798"},"vehicle_type_id":"4","last_reported":1738706891,"current_range_meters":8000,"station_id":"ce4bhl12rcd13ifvqgf0","pricing_plan_id":"cebpf4jnsgd1na2vs0mg"},{"bike_id":"4234e7d0-cb25-4fa2-9b12-2c29c79cd165","system_id":"levelo_inurba_marseille","lat":43.25719,"lon":5.41109,"is_reserved":false,"is_disabled":false,"rental_uris":{"android":"levelo://app?vid=4234e7d0-cb25-4fa2-9b12-2c29c79cd165","ios":"levelo://app?vid=4234e7d0-cb25-4fa2-9b12-2c29c79cd165"},"vehicle_type_id":"4","last_reported":1738706891,"current_range_meters":24800,"station_id":"ce4bhkp2rcd13ifvqgd0","pricing_plan_id":"cebpf4jnsgd1na2vs0mg"},{"bike_id":"1418b524-1535-4478-a5d6-289886b7efa0","system_id":"levelo_inurba_marseille","lat":43.28179,"lon":5.42634,"is_reserved":false,"is_disabled":false,"rental_uris":{"android":"levelo://app?vid=1418b524-1535-4478-a5d6-289886b7efa0","ios":"levelo://app?vid=1418b524-1535-4478-a5d6-289886b7efa0"},"vehicle_type_id":"4","last_reported":1738706891,"current_range_meters":38800,"station_id":"ce4bhnh2rcd13ifvqgug","pricing_plan_id":"cebpf4jnsgd1na2vs0mg"},{"bike_id":"42b83219-1050-4c91-9690-f23f52370e75","system_id":"levelo_inurba_marseille","lat":43.31546,"lon":5.38025,"is_reserved":false,"is_disabled":false,"rental_uris":{"android":"levelo://app?vid=42b83219-1050-4c91-9690-f23f52370e75","ios":"levelo://app?vid=42b83219-1050-4c91-9690-f23f52370e75"},"vehicle_type_id":"4","last_reported":1738706891,"current_range_meters":38800,"station_id":"ce4bhsp2rcd13ifvqi50","pricing_plan_id":"cebpf4jnsgd1na2vs0mg"},{"bike_id":"9b71e329-f58f-4038-b3a1-ec2921912ecf","system_id":"levelo_inurba_marseille","lat":43.28724,"lon":5.36082,"is_reserved":false,"is_disabled":false,"rental_uris":{"android":"levelo://app?vid=9b71e329-f58f-4038-b3a1-ec2921912ecf","ios":"levelo://app?vid=9b71e329-f58f-4038-b3a1-ec2921912ecf"},"vehicle_type_id":"4","last_reported":1738706891,"current_range_meters":21600,"station_id":"cki0cbj6b192h4jlfktg","pricing_plan_id":"cebpf4jnsgd1na2vs0mg"},{"bike_id":"fef859c5-282a-46db-90e8-8b5f1c89ff40","system_id":"levelo_inurba_marseille","lat":43.29866,"lon":5.36257,"is_reserved":false,"is_disabled":false,"rental_uris":{"android":"levelo://app?vid=fef859c5-282a-46db-90e8-8b5f1c89ff40","ios":"levelo://app?vid=fef859c5-282a-46db-90e8-8b5f1c89ff40"},"vehicle_type_id":"4","last_reported":1738706891,"current_range_meters":36800,"station_id":"ce4bgpp2rcd13ifvqc3g","pricing_plan_id":"cebpf4jnsgd1na2vs0mg"},{"bike_id":"d7e70dc9-0697-4281-99ee-ba5da2e99695","system_id":"levelo_inurba_marseille","lat":43.28911,"lon":5.36392,"is_reserved":false,"is_disabled":false,"rental_uris":{"android":"levelo://app?vid=d7e70dc9-0697-4281-99ee-ba5da2e99695","ios":"levelo://app?vid=d7e70dc9-0697-4281-99ee-ba5da2e99695"},"vehicle_type_id":"4","last_reported":1738706891,"current_range_meters":38800,"station_id":"ce4bhc92rcd13ifvqetg","pricing_plan_id":"cebpf4jnsgd1na2vs0mg"},{"bike_id":"64ab4051-628c-4522-bffc-2252fa5fcc2f","system_id":"levelo_inurba_marseille","lat":43.29957,"lon":5.41317,"is_reserved":false,"is_disabled":false,"rental_uris":{"android":"levelo://app?vid=64ab4051-628c-4522-bffc-2252fa5fcc2f","ios":"levelo://app?vid=64ab4051-628c-4522-bffc-2252fa5fcc2f"},"vehicle_type_id":"4","last_reported":1738706891,"current_range_meters":28800,"station_id":"ce4bhp12rcd13ifvqh9g","pricing_plan_id":"cebpf4jnsgd1na2vs0mg"},{"bike_id":"d17ae463-17aa-4a10-a4e8-a59c5bd281a5","system_id":"levelo_inurba_marseille","lat":43.26934,"lon":5.38924,"is_reserved":false,"is_disabled":false,"rental_uris":{"android":"levelo://app?vid=d17ae463-17aa-4a10-a4e8-a59c5bd281a5","ios":"levelo://app?vid=d17ae463-17aa-4a10-a4e8-a59c5bd281a5"},"vehicle_type_id":"4","last_reported":1738706891,"current_range_meters":38000,"station_id":"ce4bhhh2rcd13ifvqfl0","pricing_plan_id":"cebpf4jnsgd1na2vs0mg"},{"bike_id":"424a5a07-8456-47d1-adbc-365c941dd379","system_id":"levelo_inurba_marseille","lat":43.288671,"lon":5.393546,"is_reserved":false,"is_disabled":false,"rental_uris":{"android":"levelo://app?vid=424a5a07-8456-47d1-adbc-365c941dd379","ios":"levelo://app?vid=424a5a07-8456-47d1-adbc-365c941dd379"},"vehicle_type_id":"4","last_reported":1738706891,"current_range_meters":13600,"station_id":"ce4bh2p2rcd13ifvqdi0","pricing_plan_id":"cebpf4jnsgd1na2vs0mg"},{"bike_id":"4a45878b-7b66-4c07-bb6e-71c8f083ef43","system_id":"levelo_inurba_marseille","lat":43.30773,"lon":5.37647,"is_reserved":false,"is_disabled":false,"rental_uris":{"android":"levelo://app?vid=4a45878b-7b66-4c07-bb6e-71c8f083ef43","ios":"levelo://app?vid=4a45878b-7b66-4c07-bb6e-71c8f083ef43"},"vehicle_type_id":"4","last_reported":1738706891,"current_range_meters":36800,"station_id":"ce4bgv92rcd13ifvqcq0","pricing_plan_id":"cebpf4jnsgd1na2vs0mg"},{"bike_id":"94f4ad07-dbad-435e-9ed2-e15c436beef0","system_id":"levelo_inurba_marseille","lat":43.28724,"lon":5.37944,"is_reserved":false,"is_disabled":false,"rental_uris":{"android":"levelo://app?vid=94f4ad07-dbad-435e-9ed2-e15c436beef0","ios":"levelo://app?vid=94f4ad07-dbad-435e-9ed2-e15c436beef0"},"vehicle_type_id":"4","last_reported":1738706891,"current_range_meters":38400,"station_id":"ce4bh9p2rcd13ifvqec0","pricing_plan_id":"cebpf4jnsgd1na2vs0mg"},{"bike_id":"26d397a9-61ee-400d-a6b0-dc8b026ea3e4","system_id":"levelo_inurba_marseille","lat":43.29629,"lon":5.37159,"is_reserved":false,"is_disabled":false,"rental_uris":{"android":"levelo://app?vid=26d397a9-61ee-400d-a6b0-dc8b026ea3e4","ios":"levelo://app?vid=26d397a9-61ee-400d-a6b0-dc8b026ea3e4"},"vehicle_type_id":"4","last_reported":1738706891,"current_range_meters":33200,"station_id":"ce4bgnh2rcd13ifvqc0g","pricing_plan_id":"cebpf4jnsgd1na2vs0mg"},{"bike_id":"b8403442-0d67-4e20-befe-06c81ba961f5","system_id":"levelo_inurba_marseille","lat":43.31893,"lon":5.40732,"is_reserved":false,"is_disabled":false,"rental_uris":{"android":"levelo://app?vid=b8403442-0d67-4e20-befe-06c81ba961f5","ios":"levelo://app?vid=b8403442-0d67-4e20-befe-06c81ba961f5"},"vehicle_type_id":"4","last_reported":1738706891,"current_range_meters":36800,"station_id":"ce4bhq12rcd13ifvqhig","pricing_plan_id":"cebpf4jnsgd1na2vs0mg"},{"bike_id":"712d0a14-a917-44ba-b26a-1a57cb2bf711","system_id":"levelo_inurba_marseille","lat":43.27961,"lon":5.38735,"is_reserved":false,"is_disabled":false,"rental_uris":{"android":"levelo://app?vid=712d0a14-a917-44ba-b26a-1a57cb2bf711","ios":"levelo://app?vid=712d0a14-a917-44ba-b26a-1a57cb2bf711"},"vehicle_type_id":"4","last_reported":1738706891,"current_range_meters":38800,"station_id":"ce4bhg12rcd13ifvqf80","pricing_plan_id":"cebpf4jnsgd1na2vs0mg"},{"bike_id":"5fba90fb-e993-4d8f-99e0-53f38203668f","system_id":"levelo_inurba_marseille","lat":43.23196,"lon":5.39986,"is_reserved":false,"is_disabled":false,"rental_uris":{"android":"levelo://app?vid=5fba90fb-e993-4d8f-99e0-53f38203668f","ios":"levelo://app?vid=5fba90fb-e993-4d8f-99e0-53f38203668f"},"vehicle_type_id":"4","last_reported":1738706891,"current_range_meters":25200,"station_id":"ce4bhn12rcd13ifvqgqg","pricing_plan_id":"cebpf4jnsgd1na2vs0mg"},{"bike_id":"018b2f79-867a-4d69-aab0-76d5f9d05f4b","system_id":"levelo_inurba_marseille","lat":43.31106,"lon":5.3776,"is_reserved":false,"is_disabled":false,"rental_uris":{"android":"levelo://app?vid=018b2f79-867a-4d69-aab0-76d5f9d05f4b","ios":"levelo://app?vid=018b2f79-867a-4d69-aab0-76d5f9d05f4b"},"vehicle_type_id":"4","last_reported":1738706891,"current_range_meters":38800,"station_id":"ce4bgt92rcd13ifvqcg0","pricing_plan_id":"cebpf4jnsgd1na2vs0mg"},{"bike_id":"a9ee38d0-21e8-4d99-8e3f-cc643e32473e","system_id":"levelo_inurba_marseille","lat":43.27819,"lon":5.40732,"is_reserved":false,"is_disabled":false,"rental_uris":{"android":"levelo://app?vid=a9ee38d0-21e8-4d99-8e3f-cc643e32473e","ios":"levelo://app?vid=a9ee38d0-21e8-4d99-8e3f-cc643e32473e"},"vehicle_type_id":"4","last_reported":1738706891,"current_range_meters":38800,"station_id":"ce4bhnh2rcd13ifvqgtg","pricing_plan_id":"cebpf4jnsgd1na2vs0mg"},{"bike_id":"ba40c892-4735-470f-b2ff-aa6277dd0300","system_id":"levelo_inurba_marseille","lat":43.26682,"lon":5.38262,"is_reserved":false,"is_disabled":false,"rental_uris":{"android":"levelo://app?vid=ba40c892-4735-470f-b2ff-aa6277dd0300","ios":"levelo://app?vid=ba40c892-4735-470f-b2ff-aa6277dd0300"},"vehicle_type_id":"4","last_reported":1738706891,"current_range_meters":17200,"station_id":"ce4bhg92rcd13ifvqf90","pricing_plan_id":"cebpf4jnsgd1na2vs0mg"},{"bike_id":"630dd466-e4dd-4ada-8a39-01e92abf0818","system_id":"levelo_inurba_marseille","lat":43.26195,"lon":5.37489,"is_reserved":false,"is_disabled":false,"rental_uris":{"android":"levelo://app?vid=630dd466-e4dd-4ada-8a39-01e92abf0818","ios":"levelo://app?vid=630dd466-e4dd-4ada-8a39-01e92abf0818"},"vehicle_type_id":"4","last_reported":1738706891,"current_range_meters":32000,"station_id":"ce4bhgp2rcd13ifvqfc0","pricing_plan_id":"cebpf4jnsgd1na2vs0mg"},{"bike_id":"ea957554-8f3d-490c-8087-281b2c31d1ae","system_id":"levelo_inurba_marseille","lat":43.30598,"lon":5.39355,"is_reserved":false,"is_disabled":false,"rental_uris":{"android":"levelo://app?vid=ea957554-8f3d-490c-8087-281b2c31d1ae","ios":"levelo://app?vid=ea957554-8f3d-490c-8087-281b2c31d1ae"},"vehicle_type_id":"4","last_reported":1738706891,"current_range_meters":22800,"station_id":"ce4bh0p2rcd13ifvqd80","pricing_plan_id":"cebpf4jnsgd1na2vs0mg"},{"bike_id":"2a69fd46-81ec-4c51-9e86-dad96a18d99e","system_id":"levelo_inurba_marseille","lat":43.2991,"lon":5.38869,"is_reserved":false,"is_disabled":false,"rental_uris":{"android":"levelo://app?vid=2a69fd46-81ec-4c51-9e86-dad96a18d99e","ios":"levelo://app?vid=2a69fd46-81ec-4c51-9e86-dad96a18d99e"},"vehicle_type_id":"4","last_reported":1738706891,"current_range_meters":35600,"station_id":"ce4bh392rcd13ifvqdl0","pricing_plan_id":"cebpf4jnsgd1na2vs0mg"},{"bike_id":"49fbaf9e-467a-4836-bdd2-2c9e8277153b","system_id":"levelo_inurba_marseille","lat":43.30436,"lon":5.38872,"is_reserved":false,"is_disabled":false,"rental_uris":{"android":"levelo://app?vid=49fbaf9e-467a-4836-bdd2-2c9e8277153b","ios":"levelo://app?vid=49fbaf9e-467a-4836-bdd2-2c9e8277153b"},"vehicle_type_id":"4","last_reported":1738706891,"current_range_meters":38800,"station_id":"ce4bgk12rcd13ifvqbi0","pricing_plan_id":"cebpf4jnsgd1na2vs0mg"},{"bike_id":"3034d64e-f78e-468c-b4d6-2520a053438f","system_id":"levelo_inurba_marseille","lat":43.23191,"lon":5.39997,"is_reserved":false,"is_disabled":false,"rental_uris":{"android":"levelo://app?vid=3034d64e-f78e-468c-b4d6-2520a053438f","ios":"levelo://app?vid=3034d64e-f78e-468c-b4d6-2520a053438f"},"vehicle_type_id":"4","last_reported":1738706891,"current_range_meters":38000,"station_id":"ce4bhn12rcd13ifvqgqg","pricing_plan_id":"cebpf4jnsgd1na2vs0mg"},{"bike_id":"0444d04a-5ddc-4adb-90fc-b1be829b71a2","system_id":"levelo_inurba_marseille","lat":43.31285,"lon":5.40173,"is_reserved":false,"is_disabled":false,"rental_uris":{"android":"levelo://app?vid=0444d04a-5ddc-4adb-90fc-b1be829b71a2","ios":"levelo://app?vid=0444d04a-5ddc-4adb-90fc-b1be829b71a2"},"vehicle_type_id":"4","last_reported":1738706891,"current_range_meters":38800,"station_id":"ce4bh092rcd13ifvqd30","pricing_plan_id":"cebpf4jnsgd1na2vs0mg"},{"bike_id":"70eec59f-8e5c-4c4a-8440-79555df8ea8f","system_id":"levelo_inurba_marseille","lat":43.28996,"lon":5.35598,"is_reserved":false,"is_disabled":true,"rental_uris":{"android":"levelo://app?vid=70eec59f-8e5c-4c4a-8440-79555df8ea8f","ios":"levelo://app?vid=70eec59f-8e5c-4c4a-8440-79555df8ea8f"},"vehicle_type_id":"4","last_reported":1738706891,"current_range_meters":13600,"station_id":"ce4bhb92rcd13ifvqen0","pricing_plan_id":"cebpf4jnsgd1na2vs0mg"},{"bike_id":"e1fd63af-2ded-46aa-b95c-acb582af5c06","system_id":"levelo_inurba_marseille","lat":43.2872,"lon":5.39992,"is_reserved":false,"is_disabled":true,"rental_uris":{"android":"levelo://app?vid=e1fd63af-2ded-46aa-b95c-acb582af5c06","ios":"levelo://app?vid=e1fd63af-2ded-46aa-b95c-acb582af5c06"},"vehicle_type_id":"4","last_reported":1738706891,"current_range_meters":0,"station_id":"ce4bho92rcd13ifvqh3g","pricing_plan_id":"cebpf4jnsgd1na2vs0mg"},{"bike_id":"b09ebd01-c975-4878-ac0b-8fd11b1739f7","system_id":"levelo_inurba_marseille","lat":43.28168,"lon":5.42637,"is_reserved":false,"is_disabled":false,"rental_uris":{"android":"levelo://app?vid=b09ebd01-c975-4878-ac0b-8fd11b1739f7","ios":"levelo://app?vid=b09ebd01-c975-4878-ac0b-8fd11b1739f7"},"vehicle_type_id":"4","last_reported":1738706891,"current_range_meters":14400,"station_id":"ce4bhnh2rcd13ifvqgug","pricing_plan_id":"cebpf4jnsgd1na2vs0mg"},{"bike_id":"8c802598-d30c-4f7f-a5d2-9d43932522c0","system_id":"levelo_inurba_marseille","lat":43.31537,"lon":5.38039,"is_reserved":false,"is_disabled":false,"rental_uris":{"android":"levelo://app?vid=8c802598-d30c-4f7f-a5d2-9d43932522c0","ios":"levelo://app?vid=8c802598-d30c-4f7f-a5d2-9d43932522c0"},"vehicle_type_id":"4","last_reported":1738706891,"current_range_meters":38800,"station_id":"ce4bhsp2rcd13ifvqi50","pricing_plan_id":"cebpf4jnsgd1na2vs0mg"},{"bike_id":"73b584a8-c9f2-41cc-9079-90745f05800b","system_id":"levelo_inurba_marseille","lat":43.30079,"lon":5.39097,"is_reserved":false,"is_disabled":false,"rental_uris":{"android":"levelo://app?vid=73b584a8-c9f2-41cc-9079-90745f05800b","ios":"levelo://app?vid=73b584a8-c9f2-41cc-9079-90745f05800b"},"vehicle_type_id":"4","last_reported":1738706891,"current_range_meters":38000,"station_id":"ce4bh192rcd13ifvqdb0","pricing_plan_id":"cebpf4jnsgd1na2vs0mg"},{"bike_id":"a7dc0848-081a-4438-bce6-7e161a91f066","system_id":"levelo_inurba_marseille","lat":43.28156,"lon":5.42632,"is_reserved":false,"is_disabled":false,"rental_uris":{"android":"levelo://app?vid=a7dc0848-081a-4438-bce6-7e161a91f066","ios":"levelo://app?vid=a7dc0848-081a-4438-bce6-7e161a91f066"},"vehicle_type_id":"4","last_reported":1738706891,"current_range_meters":33200,"station_id":"ce4bhnh2rcd13ifvqgug","pricing_plan_id":"cebpf4jnsgd1na2vs0mg"},{"bike_id":"537d148d-4101-4c2e-81be-eedbb9188f59","system_id":"levelo_inurba_marseille","lat":43.26203,"lon":5.37448,"is_reserved":false,"is_disabled":false,"rental_uris":{"android":"levelo://app?vid=537d148d-4101-4c2e-81be-eedbb9188f59","ios":"levelo://app?vid=537d148d-4101-4c2e-81be-eedbb9188f59"},"vehicle_type_id":"4","last_reported":1738706891,"current_range_meters":31200,"station_id":"ce4bhgp2rcd13ifvqfc0","pricing_plan_id":"cebpf4jnsgd1na2vs0mg"},{"bike_id":"f0aed9a0-6bc2-474e-9789-040d214130d6","system_id":"levelo_inurba_marseille","lat":43.28348,"lon":5.38619,"is_reserved":false,"is_disabled":false,"rental_uris":{"android":"levelo://app?vid=f0aed9a0-6bc2-474e-9789-040d214130d6","ios":"levelo://app?vid=f0aed9a0-6bc2-474e-9789-040d214130d6"},"vehicle_type_id":"4","last_reported":1738706891,"current_range_meters":38800,"station_id":"ce4bh492rcd13ifvqdvg","pricing_plan_id":"cebpf4jnsgd1na2vs0mg"},{"bike_id":"9dc60976-d2bc-44c3-87bb-1d52fbe610c3","system_id":"levelo_inurba_marseille","lat":43.28356,"lon":5.38106,"is_reserved":false,"is_disabled":false,"rental_uris":{"android":"levelo://app?vid=9dc60976-d2bc-44c3-87bb-1d52fbe610c3","ios":"levelo://app?vid=9dc60976-d2bc-44c3-87bb-1d52fbe610c3"},"vehicle_type_id":"4","last_reported":1738706891,"current_range_meters":31200,"station_id":"ce4bh412rcd13ifvqdr0","pricing_plan_id":"cebpf4jnsgd1na2vs0mg"},{"bike_id":"2055a81d-8e5e-4bf5-b5e1-2fc40f396b7c","system_id":"levelo_inurba_marseille","lat":43.30559,"lon":5.38419,"is_reserved":false,"is_disabled":true,"rental_uris":{"android":"levelo://app?vid=2055a81d-8e5e-4bf5-b5e1-2fc40f396b7c","ios":"levelo://app?vid=2055a81d-8e5e-4bf5-b5e1-2fc40f396b7c"},"vehicle_type_id":"4","last_reported":1738706891,"current_range_meters":30800,"station_id":"ce4bgg92rcd13ifvqb30","pricing_plan_id":"cebpf4jnsgd1na2vs0mg"},{"bike_id":"60459898-4795-4acb-95dc-4e319e0a4d38","system_id":"levelo_inurba_marseille","lat":43.24653,"lon":5.38893,"is_reserved":false,"is_disabled":false,"rental_uris":{"android":"levelo://app?vid=60459898-4795-4acb-95dc-4e319e0a4d38","ios":"levelo://app?vid=60459898-4795-4acb-95dc-4e319e0a4d38"},"vehicle_type_id":"4","last_reported":1738706891,"current_range_meters":35600,"station_id":"ce4bhg12rcd13ifvqf60","pricing_plan_id":"cebpf4jnsgd1na2vs0mg"},{"bike_id":"84ed939f-9f09-4f60-a7e3-213d6b465b41","system_id":"levelo_inurba_marseille","lat":43.25502,"lon":5.37656,"is_reserved":false,"is_disabled":false,"rental_uris":{"android":"levelo://app?vid=84ed939f-9f09-4f60-a7e3-213d6b465b41","ios":"levelo://app?vid=84ed939f-9f09-4f60-a7e3-213d6b465b41"},"vehicle_type_id":"4","last_reported":1738706891,"current_range_meters":39200,"station_id":"ce4bhh12rcd13ifvqff0","pricing_plan_id":"cebpf4jnsgd1na2vs0mg"},{"bike_id":"722be818-6472-428d-8c9a-db48620784ac","system_id":"levelo_inurba_marseille","lat":43.28404,"lon":5.37518,"is_reserved":false,"is_disabled":false,"rental_uris":{"android":"levelo://app?vid=722be818-6472-428d-8c9a-db48620784ac","ios":"levelo://app?vid=722be818-6472-428d-8c9a-db48620784ac"},"vehicle_type_id":"4","last_reported":1738706891,"current_range_meters":22000,"station_id":"ce4bh412rcd13ifvqds0","pricing_plan_id":"cebpf4jnsgd1na2vs0mg"},{"bike_id":"16112818-6421-41ec-a1db-2c6d44d83c8d","system_id":"levelo_inurba_marseille","lat":43.31067,"lon":5.3836,"is_reserved":false,"is_disabled":false,"rental_uris":{"android":"levelo://app?vid=16112818-6421-41ec-a1db-2c6d44d83c8d","ios":"levelo://app?vid=16112818-6421-41ec-a1db-2c6d44d83c8d"},"vehicle_type_id":"4","last_reported":1738706891,"current_range_meters":38800,"station_id":"ce4bgv92rcd13ifvqcr0","pricing_plan_id":"cebpf4jnsgd1na2vs0mg"},{"bike_id":"bb846df9-2969-480a-aed6-edbcf9c326fb","system_id":"levelo_inurba_marseille","lat":43.24813,"lon":5.37467,"is_reserved":false,"is_disabled":false,"rental_uris":{"android":"levelo://app?vid=bb846df9-2969-480a-aed6-edbcf9c326fb","ios":"levelo://app?vid=bb846df9-2969-480a-aed6-edbcf9c326fb"},"vehicle_type_id":"4","last_reported":1738706891,"current_range_meters":24000,"station_id":"ce4bhgh2rcd13ifvqfb0","pricing_plan_id":"cebpf4jnsgd1na2vs0mg"},{"bike_id":"f7b06ef1-8fe2-49dc-97bf-948e009e701e","system_id":"levelo_inurba_marseille","lat":43.29247,"lon":5.38437,"is_reserved":false,"is_disabled":false,"rental_uris":{"android":"levelo://app?vid=f7b06ef1-8fe2-49dc-97bf-948e009e701e","ios":"levelo://app?vid=f7b06ef1-8fe2-49dc-97bf-948e009e701e"},"vehicle_type_id":"4","last_reported":1738706891,"current_range_meters":38800,"station_id":"ce4bh692rcd13ifvqea0","pricing_plan_id":"cebpf4jnsgd1na2vs0mg"},{"bike_id":"cd07e062-2af1-406e-bcb9-5f1ec4730937","system_id":"levelo_inurba_marseille","lat":43.23067,"lon":5.35494,"is_reserved":false,"is_disabled":false,"rental_uris":{"android":"levelo://app?vid=cd07e062-2af1-406e-bcb9-5f1ec4730937","ios":"levelo://app?vid=cd07e062-2af1-406e-bcb9-5f1ec4730937"},"vehicle_type_id":"4","last_reported":1738706891,"current_range_meters":8000,"station_id":"cpo3342slgdg3j2ifvpg","pricing_plan_id":"cebpf4jnsgd1na2vs0mg"},{"bike_id":"c3644d12-8427-4602-9945-9ef42c46feca","system_id":"levelo_inurba_marseille","lat":43.24154,"lon":5.36505,"is_reserved":false,"is_disabled":false,"rental_uris":{"android":"levelo://app?vid=c3644d12-8427-4602-9945-9ef42c46feca","ios":"levelo://app?vid=c3644d12-8427-4602-9945-9ef42c46feca"},"vehicle_type_id":"4","last_reported":1738706891,"current_range_meters":11200,"station_id":"","pricing_plan_id":"cebpf4jnsgd1na2vs0mg"},{"bike_id":"c63fc382-f0a8-4f5d-988c-41b6516dbf79","system_id":"levelo_inurba_marseille","lat":43.28636,"lon":5.3509,"is_reserved":false,"is_disabled":false,"rental_uris":{"android":"levelo://app?vid=c63fc382-f0a8-4f5d-988c-41b6516dbf79","ios":"levelo://app?vid=c63fc382-f0a8-4f5d-988c-41b6516dbf79"},"vehicle_type_id":"4","last_reported":1738706891,"current_range_meters":14400,"station_id":"ce4bhch2rcd13ifvqeug","pricing_plan_id":"cebpf4jnsgd1na2vs0mg"},{"bike_id":"8a37d487-4adf-4236-809e-9d2f3757a4e6","system_id":"levelo_inurba_marseille","lat":43.30323,"lon":5.36908,"is_reserved":false,"is_disabled":false,"rental_uris":{"android":"levelo://app?vid=8a37d487-4adf-4236-809e-9d2f3757a4e6","ios":"levelo://app?vid=8a37d487-4adf-4236-809e-9d2f3757a4e6"},"vehicle_type_id":"4","last_reported":1738706891,"current_range_meters":30800,"station_id":"ce4bgqh2rcd13ifvqc5g","pricing_plan_id":"cebpf4jnsgd1na2vs0mg"},{"bike_id":"1e7bde43-ab8f-4755-b59a-acd0a53ae759","system_id":"levelo_inurba_marseille","lat":43.31715,"lon":5.42402,"is_reserved":false,"is_disabled":true,"rental_uris":{"android":"levelo://app?vid=1e7bde43-ab8f-4755-b59a-acd0a53ae759","ios":"levelo://app?vid=1e7bde43-ab8f-4755-b59a-acd0a53ae759"},"vehicle_type_id":"4","last_reported":1738706891,"current_range_meters":800,"station_id":"ce4bhp92rcd13ifvqhbg","pricing_plan_id":"cebpf4jnsgd1na2vs0mg"},{"bike_id":"1d90db49-aa0f-4e53-812f-85e887528430","system_id":"levelo_inurba_marseille","lat":43.3068,"lon":5.40089,"is_reserved":false,"is_disabled":false,"rental_uris":{"android":"levelo://app?vid=1d90db49-aa0f-4e53-812f-85e887528430","ios":"levelo://app?vid=1d90db49-aa0f-4e53-812f-85e887528430"},"vehicle_type_id":"4","last_reported":1738706891,"current_range_meters":31200,"station_id":"ce4bh112rcd13ifvqda0","pricing_plan_id":"cebpf4jnsgd1na2vs0mg"},{"bike_id":"e40a7264-a928-4c13-aec0-8ad25395be3d","system_id":"levelo_inurba_marseille","lat":43.30938,"lon":5.40147,"is_reserved":false,"is_disabled":false,"rental_uris":{"android":"levelo://app?vid=e40a7264-a928-4c13-aec0-8ad25395be3d","ios":"levelo://app?vid=e40a7264-a928-4c13-aec0-8ad25395be3d"},"vehicle_type_id":"4","last_reported":1738706891,"current_range_meters":38800,"station_id":"ce4bgvp2rcd13ifvqct0","pricing_plan_id":"cebpf4jnsgd1na2vs0mg"},{"bike_id":"7cc780c4-1ef4-4708-aa2b-f95791a63640","system_id":"levelo_inurba_marseille","lat":43.297893,"lon":5.393363,"is_reserved":false,"is_disabled":false,"rental_uris":{"android":"levelo://app?vid=7cc780c4-1ef4-4708-aa2b-f95791a63640","ios":"levelo://app?vid=7cc780c4-1ef4-4708-aa2b-f95791a63640"},"vehicle_type_id":"4","last_reported":1738706891,"current_range_meters":6000,"station_id":"chh1huq6cuj3fo74tm60","pricing_plan_id":"cebpf4jnsgd1na2vs0mg"},{"bike_id":"fc3d43a2-88f1-4d79-a8d8-9632f212d117","system_id":"levelo_inurba_marseille","lat":43.28452,"lon":5.35879,"is_reserved":false,"is_disabled":false,"rental_uris":{"android":"levelo://app?vid=fc3d43a2-88f1-4d79-a8d8-9632f212d117","ios":"levelo://app?vid=fc3d43a2-88f1-4d79-a8d8-9632f212d117"},"vehicle_type_id":"4","last_reported":1738706891,"current_range_meters":20000,"station_id":"ce4bhah2rcd13ifvqei0","pricing_plan_id":"cebpf4jnsgd1na2vs0mg"},{"bike_id":"6fe92337-370a-4749-be64-c7262d4579f5","system_id":"levelo_inurba_marseille","lat":43.24546,"lon":5.39521,"is_reserved":false,"is_disabled":false,"rental_uris":{"android":"levelo://app?vid=6fe92337-370a-4749-be64-c7262d4579f5","ios":"levelo://app?vid=6fe92337-370a-4749-be64-c7262d4579f5"},"vehicle_type_id":"4","last_reported":1738706891,"current_range_meters":35600,"station_id":"ce4bhlp2rcd13ifvqgjg","pricing_plan_id":"cebpf4jnsgd1na2vs0mg"},{"bike_id":"2c2c852b-4448-4c57-85a3-f391a8a31697","system_id":"levelo_inurba_marseille","lat":43.30269,"lon":5.40078,"is_reserved":false,"is_disabled":false,"rental_uris":{"android":"levelo://app?vid=2c2c852b-4448-4c57-85a3-f391a8a31697","ios":"levelo://app?vid=2c2c852b-4448-4c57-85a3-f391a8a31697"},"vehicle_type_id":"4","last_reported":1738706891,"current_range_meters":6400,"station_id":"ce4bgvh2rcd13ifvqcs0","pricing_plan_id":"cebpf4jnsgd1na2vs0mg"},{"bike_id":"45a7daa2-2a2e-4454-90c3-1009aaecc5bd","system_id":"levelo_inurba_marseille","lat":43.23207,"lon":5.35536,"is_reserved":false,"is_disabled":false,"rental_uris":{"android":"levelo://app?vid=45a7daa2-2a2e-4454-90c3-1009aaecc5bd","ios":"levelo://app?vid=45a7daa2-2a2e-4454-90c3-1009aaecc5bd"},"vehicle_type_id":"4","last_reported":1738706891,"current_range_meters":7200,"station_id":"ce4bhu92rcd13ifvqi70","pricing_plan_id":"cebpf4jnsgd1na2vs0mg"},{"bike_id":"5ddc4b41-2031-4dad-87ac-6b52af96cef4","system_id":"levelo_inurba_marseille","lat":43.26203,"lon":5.3793,"is_reserved":false,"is_disabled":false,"rental_uris":{"android":"levelo://app?vid=5ddc4b41-2031-4dad-87ac-6b52af96cef4","ios":"levelo://app?vid=5ddc4b41-2031-4dad-87ac-6b52af96cef4"},"vehicle_type_id":"4","last_reported":1738706891,"current_range_meters":36000,"station_id":"ce4bhjp2rcd13ifvqg90","pricing_plan_id":"cebpf4jnsgd1na2vs0mg"},{"bike_id":"aece1634-918f-4f68-8bc7-9a7b7abafc1f","system_id":"levelo_inurba_marseille","lat":43.28152,"lon":5.42659,"is_reserved":false,"is_disabled":true,"rental_uris":{"android":"levelo://app?vid=aece1634-918f-4f68-8bc7-9a7b7abafc1f","ios":"levelo://app?vid=aece1634-918f-4f68-8bc7-9a7b7abafc1f"},"vehicle_type_id":"4","last_reported":1738706891,"current_range_meters":33200,"station_id":"ce4bhnh2rcd13ifvqgug","pricing_plan_id":"cebpf4jnsgd1na2vs0mg"},{"bike_id":"b4c4a2b5-8113-41e0-816a-5141dbc28c6d","system_id":"levelo_inurba_marseille","lat":43.28083,"lon":5.39664,"is_reserved":false,"is_disabled":false,"rental_uris":{"android":"levelo://app?vid=b4c4a2b5-8113-41e0-816a-5141dbc28c6d","ios":"levelo://app?vid=b4c4a2b5-8113-41e0-816a-5141dbc28c6d"},"vehicle_type_id":"4","last_reported":1738706891,"current_range_meters":38800,"station_id":"ce4bho12rcd13ifvqh2g","pricing_plan_id":"cebpf4jnsgd1na2vs0mg"},{"bike_id":"e0db35e2-3aa3-4008-9e67-e0c2b481bbc8","system_id":"levelo_inurba_marseille","lat":43.301393,"lon":5.39856,"is_reserved":false,"is_disabled":false,"rental_uris":{"android":"levelo://app?vid=e0db35e2-3aa3-4008-9e67-e0c2b481bbc8","ios":"levelo://app?vid=e0db35e2-3aa3-4008-9e67-e0c2b481bbc8"},"vehicle_type_id":"4","last_reported":1738706891,"current_range_meters":38800,"station_id":"ce4bh0h2rcd13ifvqd40","pricing_plan_id":"cebpf4jnsgd1na2vs0mg"},{"bike_id":"66c18020-551d-4cbf-b6c3-769409c58cea","system_id":"levelo_inurba_marseille","lat":43.29178,"lon":5.37173,"is_reserved":false,"is_disabled":false,"rental_uris":{"android":"levelo://app?vid=66c18020-551d-4cbf-b6c3-769409c58cea","ios":"levelo://app?vid=66c18020-551d-4cbf-b6c3-769409c58cea"},"vehicle_type_id":"4","last_reported":1738706891,"current_range_meters":37600,"station_id":"ce4bha92rcd13ifvqeh0","pricing_plan_id":"cebpf4jnsgd1na2vs0mg"},{"bike_id":"3b1d5f28-8e2f-4cd2-84ee-32e60c8bc1d4","system_id":"levelo_inurba_marseille","lat":43.27969,"lon":5.38694,"is_reserved":false,"is_disabled":true,"rental_uris":{"android":"levelo://app?vid=3b1d5f28-8e2f-4cd2-84ee-32e60c8bc1d4","ios":"levelo://app?vid=3b1d5f28-8e2f-4cd2-84ee-32e60c8bc1d4"},"vehicle_type_id":"4","last_reported":1738706891,"current_range_meters":2000,"station_id":"ce4bhg12rcd13ifvqf80","pricing_plan_id":"cebpf4jnsgd1na2vs0mg"},{"bike_id":"a21453e1-7dd1-439a-9411-5be2637f52a4","system_id":"levelo_inurba_marseille","lat":43.2981,"lon":5.38105,"is_reserved":false,"is_disabled":true,"rental_uris":{"android":"levelo://app?vid=a21453e1-7dd1-439a-9411-5be2637f52a4","ios":"levelo://app?vid=a21453e1-7dd1-439a-9411-5be2637f52a4"},"vehicle_type_id":"4","last_reported":1738706891,"current_range_meters":0,"station_id":"ce4bgip2rcd13ifvqbb0","pricing_plan_id":"cebpf4jnsgd1na2vs0mg"},{"bike_id":"35798297-b936-47d1-8a98-bfdb50e14c75","system_id":"levelo_inurba_marseille","lat":43.32071,"lon":5.4329,"is_reserved":false,"is_disabled":true,"rental_uris":{"android":"levelo://app?vid=35798297-b936-47d1-8a98-bfdb50e14c75","ios":"levelo://app?vid=35798297-b936-47d1-8a98-bfdb50e14c75"},"vehicle_type_id":"4","last_reported":1738706891,"current_range_meters":36400,"station_id":"","pricing_plan_id":"cebpf4jnsgd1na2vs0mg"},{"bike_id":"ea5d774f-7eab-4828-a560-1535ca043c02","system_id":"levelo_inurba_marseille","lat":43.28418,"lon":5.34998,"is_reserved":false,"is_disabled":false,"rental_uris":{"android":"levelo://app?vid=ea5d774f-7eab-4828-a560-1535ca043c02","ios":"levelo://app?vid=ea5d774f-7eab-4828-a560-1535ca043c02"},"vehicle_type_id":"4","last_reported":1738706891,"current_range_meters":38400,"station_id":"ce4bhbh2rcd13ifvqepg","pricing_plan_id":"cebpf4jnsgd1na2vs0mg"},{"bike_id":"e6dc612f-7f56-4634-8aac-2cfefb7b3910","system_id":"levelo_inurba_marseille","lat":43.28285,"lon":5.35049,"is_reserved":false,"is_disabled":true,"rental_uris":{"android":"levelo://app?vid=e6dc612f-7f56-4634-8aac-2cfefb7b3910","ios":"levelo://app?vid=e6dc612f-7f56-4634-8aac-2cfefb7b3910"},"vehicle_type_id":"4","last_reported":1738706891,"current_range_meters":30000,"station_id":"ce4bhbp2rcd13ifvqerg","pricing_plan_id":"cebpf4jnsgd1na2vs0mg"},{"bike_id":"4ab5657a-d02d-42a0-9c03-c6d06f0a7e67","system_id":"levelo_inurba_marseille","lat":43.2558,"lon":5.38242,"is_reserved":false,"is_disabled":false,"rental_uris":{"android":"levelo://app?vid=4ab5657a-d02d-42a0-9c03-c6d06f0a7e67","ios":"levelo://app?vid=4ab5657a-d02d-42a0-9c03-c6d06f0a7e67"},"vehicle_type_id":"4","last_reported":1738706891,"current_range_meters":6000,"station_id":"ce4bhih2rcd13ifvqfs0","pricing_plan_id":"cebpf4jnsgd1na2vs0mg"},{"bike_id":"109f8e45-ad54-46d3-81bb-71f0004f0088","system_id":"levelo_inurba_marseille","lat":43.28701,"lon":5.37412,"is_reserved":false,"is_disabled":false,"rental_uris":{"android":"levelo://app?vid=109f8e45-ad54-46d3-81bb-71f0004f0088","ios":"levelo://app?vid=109f8e45-ad54-46d3-81bb-71f0004f0088"},"vehicle_type_id":"4","last_reported":1738706891,"current_range_meters":38800,"station_id":"ce4bh3p2rcd13ifvqdq0","pricing_plan_id":"cebpf4jnsgd1na2vs0mg"},{"bike_id":"297a4a02-2730-48f7-b051-15a6abe2b802","system_id":"levelo_inurba_marseille","lat":43.312756,"lon":5.40165,"is_reserved":false,"is_disabled":false,"rental_uris":{"android":"levelo://app?vid=297a4a02-2730-48f7-b051-15a6abe2b802","ios":"levelo://app?vid=297a4a02-2730-48f7-b051-15a6abe2b802"},"vehicle_type_id":"4","last_reported":1738706891,"current_range_meters":38400,"station_id":"ce4bh092rcd13ifvqd30","pricing_plan_id":"cebpf4jnsgd1na2vs0mg"},{"bike_id":"637c3436-3246-4528-a804-501c70d08596","system_id":"levelo_inurba_marseille","lat":43.29527,"lon":5.39049,"is_reserved":false,"is_disabled":false,"rental_uris":{"android":"levelo://app?vid=637c3436-3246-4528-a804-501c70d08596","ios":"levelo://app?vid=637c3436-3246-4528-a804-501c70d08596"},"vehicle_type_id":"4","last_reported":1738706891,"current_range_meters":33600,"station_id":"ce4bh3p2rcd13ifvqdp0","pricing_plan_id":"cebpf4jnsgd1na2vs0mg"},{"bike_id":"df57a7ca-9e8e-4f1b-b58c-3794d76979c0","system_id":"levelo_inurba_marseille","lat":43.26948,"lon":5.38928,"is_reserved":false,"is_disabled":false,"rental_uris":{"android":"levelo://app?vid=df57a7ca-9e8e-4f1b-b58c-3794d76979c0","ios":"levelo://app?vid=df57a7ca-9e8e-4f1b-b58c-3794d76979c0"},"vehicle_type_id":"4","last_reported":1738706891,"current_range_meters":38800,"station_id":"ce4bhhh2rcd13ifvqfl0","pricing_plan_id":"cebpf4jnsgd1na2vs0mg"},{"bike_id":"f332de2e-817a-4b62-9bb0-5a775bbf0c27","system_id":"levelo_inurba_marseille","lat":43.315,"lon":5.37319,"is_reserved":false,"is_disabled":false,"rental_uris":{"android":"levelo://app?vid=f332de2e-817a-4b62-9bb0-5a775bbf0c27","ios":"levelo://app?vid=f332de2e-817a-4b62-9bb0-5a775bbf0c27"},"vehicle_type_id":"4","last_reported":1738706891,"current_range_meters":2800,"station_id":"ce4bgt12rcd13ifvqcd0","pricing_plan_id":"cebpf4jnsgd1na2vs0mg"},