{"last_updated":1746306487,"ttl":60,"version":"2.2","data":{"bikes":[{"bike_id":"50547906-fcfe-49e0-99a3-02e1920a11db","system_id":"levelo_inurba_marseille","lat":43.30942,"lon":5.39066,"is_reserved":false,"is_disabled":true,"rental_uris":{"android":"levelo://app?vid=50547906-fcfe-49e0-99a3-02e1920a11db","ios":"levelo://app?vid=50547906-fcfe-49e0-99a3-02e1920a11db"},"vehicle_type_id":"4","last_reported":1746306487,"current_range_meters":2800,"station_id":"ce4bgup2rcd13ifvqco0","pricing_plan_id":"cebpf4jnsgd1na2vs0mg"},{"bike_id":"7a7f0eb2-e6dd-4386-af0b-d5e315fa2ddd","system_id":"levelo_inurba_marseille","lat":43.27979,"lon":5.35365,"is_reserved":false,"is_disabled":false,"rental_uris":{"android":"levelo://app?vid=7a7f0eb2-e6dd-4386-af0b-d5e315fa2ddd","ios":"levelo://app?vid=7a7f0eb2-e6dd-4386-af0b-d5e315fa2ddd"},"vehicle_type_id":"4","last_reported":1746306487,"current_range_meters":2800,"station_id":"","pricing_plan_id":"cebpf4jnsgd1na2vs0mg"},{"bike_id":"beb2536f-b95c-42a3-954e-a55ebb0abeec","system_id":"levelo_inurba_marseille","lat":43.30943,"lon":5.38237,"is_reserved":false,"is_disabled":false,"rental_uris":{"android":"levelo://app?vid=beb2536f-b95c-42a3-954e-a55ebb0abeec","ios":"levelo://app?vid=beb2536f-b95c-42a3-954e-a55ebb0abeec"},"vehicle_type_id":"4","last_reported":1746306487,"current_range_meters":2800,"station_id":"","pricing_plan_id":"cebpf4jnsgd1na2vs0mg"},{"bike_id":"5094c2a7-3791-43aa-b752-b9a45c049295","system_id":"levelo_inurba_marseille","lat":43.30591,"lon":5.39355,"is_reserved":false,"is_disabled":false,"rental_uris":{"android":"levelo://app?vid=5094c2a7-3791-43aa-b752-b9a45c049295","ios":"levelo://app?vid=5094c2a7-3791-43aa-b752-b9a45c049295"},"vehicle_type_id":"4","last_reported":1746306487,"current_range_meters":2800,"station_id":"ce4bh0p2rcd13ifvqd80","pricing_plan_id":"cebpf4jnsgd1na2vs0mg"},{"bike_id":"01094e35-d98b-459b-93b9-6eaae48ab681","system_id":"levelo_inurba_marseille","lat":43.30926,"lon":5.40149,"is_reserved":false,"is_disabled":true,"rental_uris":{"android":"levelo://app?vid=01094e35-d98b-459b-93b9-6eaae48ab681","ios":"levelo://app?vid=01094e35-d98b-459b-93b9-6eaae48ab681"},"vehicle_type_id":"4","last_reported":1746306487,"current_range_meters":3200,"station_id":"ce4bgvp2rcd13ifvqct0","pricing_plan_id":"cebpf4jnsgd1na2vs0mg"},{"bike_id":"adda7ae0-c013-469f-aa0e-1c7cd365aa64","system_id":"levelo_inurba_marseille","lat":43.30319,"lon":5.40438,"is_reserved":false,"is_disabled":false,"rental_uris":{"android":"levelo://app?vid=adda7ae0-c013-469f-aa0e-1c7cd365aa64","ios":"levelo://app?vid=adda7ae0-c013-469f-aa0e-1c7cd365aa64"},"vehicle_type_id":"4","last_reported":1746306487,"current_range_meters":3200,"station_id":"ce4bh012rcd13ifvqd10","pricing_plan_id":"cebpf4jnsgd1na2vs0mg"},{"bike_id":"7c16c196-f7ae-4a7d-9d15-177d0900c105","system_id":"levelo_inurba_marseille","lat":43.3176,"lon":5.39013,"is_reserved":false,"is_disabled":false,"rental_uris":{"android":"levelo://app?vid=7c16c196-f7ae-4a7d-9d15-177d0900c105","ios":"levelo://app?vid=7c16c196-f7ae-4a7d-9d15-177d0900c105"},"vehicle_type_id":"4","last_reported":1746306487,"current_range_meters":2800,"station_id":"ce4bhqp2rcd13ifvqhng","pricing_plan_id":"cebpf4jnsgd1na2vs0mg"},{"bike_id":"5a8122b9-97f5-4e94-b954-193a46a808df","system_id":"levelo_inurba_marseille","lat":43.27614,"lon":5.360957,"is_reserved":false,"is_disabled":true,"rental_uris":{"android":"levelo://app?vid=5a8122b9-97f5-4e94-b954-193a46a808df","ios":"levelo://app?vid=5a8122b9-97f5-4e94-b954-193a46a808df"},"vehicle_type_id":"4","last_reported":1746306487,"current_range_meters":3200,"station_id":"ce4bgj92rcd13ifvqbe0","pricing_plan_id":"cebpf4jnsgd1na2vs0mg"},{"bike_id":"7971fe93-5f1d-4a59-8508-b415e64fcb18","system_id":"levelo_inurba_marseille","lat":43.3096,"lon":5.37359,"is_reserved":false,"is_disabled":false,"rental_uris":{"android":"levelo://app?vid=7971fe93-5f1d-4a59-8508-b415e64fcb18","ios":"levelo://app?vid=7971fe93-5f1d-4a59-8508-b415e64fcb18"},"vehicle_type_id":"4","last_reported":1746306487,"current_range_meters":3200,"station_id":"","pricing_plan_id":"cebpf4jnsgd1na2vs0mg"},{"bike_id":"6a72580c-c76c-4721-b41b-47051e92ac98","system_id":"levelo_inurba_marseille","lat":43.29982,"lon":5.37187,"is_reserved":false,"is_disabled":true,"rental_uris":{"android":"levelo://app?vid=6a72580c-c76c-4721-b41b-47051e92ac98","ios":"levelo://app?vid=6a72580c-c76c-4721-b41b-47051e92ac98"},"vehicle_type_id":"4","last_reported":1746306487,"current_range_meters":3600,"station_id":"ce4bgr92rcd13ifvqc7g","pricing_plan_id":"cebpf4jnsgd1na2vs0mg"},{"bike_id":"8e0a49c7-18ee-4bf6-98bc-be22935476ae","system_id":"levelo_inurba_marseille","lat":43.30299,"lon":5.39224,"is_reserved":false,"is_disabled":false,"rental_uris":{"android":"levelo://app?vid=8e0a49c7-18ee-4bf6-98bc-be22935476ae","ios":"levelo://app?vid=8e0a49c7-18ee-4bf6-98bc-be22935476ae"},"vehicle_type_id":"4","last_reported":1746306487,"current_range_meters":3600,"station_id":"ce4bgkh2rcd13ifvqbk0","pricing_plan_id":"cebpf4jnsgd1na2vs0mg"},{"bike_id":"6db7dfb5-37b1-4d47-a775-6afff9dd8c58","system_id":"levelo_inurba_marseille","lat":43.295258,"lon":5.385469,"is_reserved":false,"is_disabled":false,"rental_uris":{"android":"levelo://app?vid=6db7dfb5-37b1-4d47-a775-6afff9dd8c58","ios":"levelo://app?vid=6db7dfb5-37b1-4d47-a775-6afff9dd8c58"},"vehicle_type_id":"4","last_reported":1746306487,"current_range_meters":4000,"station_id":"ce4bgih2rcd13ifvqba0","pricing_plan_id":"cebpf4jnsgd1na2vs0mg"},{"bike_id":"5d0da596-3574-472d-9e24-8d448d7365db","system_id":"levelo_inurba_marseille","lat":43.30663,"lon":5.40089,"is_reserved":false,"is_disabled":false,"rental_uris":{"android":"levelo://app?vid=5d0da596-3574-472d-9e24-8d448d7365db","ios":"levelo://app?vid=5d0da596-3574-472d-9e24-8d448d7365db"},"vehicle_type_id":"4","last_reported":1746306487,"current_range_meters":4000,"station_id":"ce4bh112rcd13ifvqda0","pricing_plan_id":"cebpf4jnsgd1na2vs0mg"},{"bike_id":"00a0501c-ff29-499e-969a-c80a46a7b25f","system_id":"levelo_inurba_marseille","lat":43.314872,"lon":5.37311,"is_reserved":false,"is_disabled":false,"rental_uris":{"android":"levelo://app?vid=00a0501c-ff29-499e-969a-c80a46a7b25f","ios":"levelo://app?vid=00a0501c-ff29-499e-969a-c80a46a7b25f"},"vehicle_type_id":"4","last_reported":1746306487,"current_range_meters":4000,"station_id":"ce4bgt12rcd13ifvqcd0","pricing_plan_id":"cebpf4jnsgd1na2vs0mg"},{"bike_id":"23119e4f-0e29-493e-a873-544057f83776","system_id":"levelo_inurba_marseille","lat":43.26812,"lon":5.4026,"is_reserved":false,"is_disabled":true,"rental_uris":{"android":"levelo://app?vid=23119e4f-0e29-493e-a873-544057f83776","ios":"levelo://app?vid=23119e4f-0e29-493e-a873-544057f83776"},"vehicle_type_id":"4","last_reported":1746306487,"current_range_meters":4400,"station_id":"ce501612rcd8frsf0b60","pricing_plan_id":"cebpf4jnsgd1na2vs0mg"},{"bike_id":"78647f6c-5b39-4fc3-8ddc-922db495866f","system_id":"levelo_inurba_marseille","lat":43.27815,"lon":5.40719,"is_reserved":false,"is_disabled":true,"rental_uris":{"android":"levelo://app?vid=78647f6c-5b39-4fc3-8ddc-922db495866f","ios":"levelo://app?vid=78647f6c-5b39-4fc3-8ddc-922db495866f"},"vehicle_type_id":"4","last_reported":1746306487,"current_range_meters":4800,"station_id":"ce4bhnh2rcd13ifvqgtg","pricing_plan_id":"cebpf4jnsgd1na2vs0mg"},{"bike_id":"4246c574-50d7-4c63-aca1-6777a16410ed","system_id":"levelo_inurba_marseille","lat":43.272101,"lon":5.391784,"is_reserved":false,"is_disabled":false,"rental_uris":{"android":"levelo://app?vid=4246c574-50d7-4c63-aca1-6777a16410ed","ios":"levelo://app?vid=4246c574-50d7-4c63-aca1-6777a16410ed"},"vehicle_type_id":"4","last_reported":1746306487,"current_range_meters":5600,"station_id":"","pricing_plan_id":"cebpf4jnsgd1na2vs0mg"},{"bike_id":"3dff04a9-fcc1-49ad-b174-9147cc72e3a0","system_id":"levelo_inurba_marseille","lat":43.27171,"lon":5.40994,"is_reserved":false,"is_disabled":false,"rental_uris":{"android":"levelo://app?vid=3dff04a9-fcc1-49ad-b174-9147cc72e3a0","ios":"levelo://app?vid=3dff04a9-fcc1-49ad-b174-9147cc72e3a0"},"vehicle_type_id":"4","last_reported":1746306487,"current_range_meters":5600,"station_id":"ce4bhl12rcd13ifvqgf0","pricing_plan_id":"cebpf4jnsgd1na2vs0mg"},{"bike_id":"b24e1c00-6f34-4818-ab0a-32914331665c","system_id":"levelo_inurba_marseille","lat":43.30783,"lon":5.37649,"is_reserved":false,"is_disabled":false,"rental_uris":{"android":"levelo://app?vid=b24e1c00-6f34-4818-ab0a-32914331665c","ios":"levelo://app?vid=b24e1c00-6f34-4818-ab0a-32914331665c"},"vehicle_type_id":"4","last_reported":1746306487,"current_range_meters":5600,"station_id":"ce4bgv92rcd13ifvqcq0","pricing_plan_id":"cebpf4jnsgd1na2vs0mg"},{"bike_id":"4230721d-a85e-4642-92ff-eef9affe1750","system_id":"levelo_inurba_marseille","lat":43.29103,"lon":5.38152,"is_reserved":false,"is_disabled":false,"rental_uris":{"android":"levelo://app?vid=4230721d-a85e-4642-92ff-eef9affe1750","ios":"levelo://app?vid=4230721d-a85e-4642-92ff-eef9affe1750"},"vehicle_type_id":"4","last_reported":1746306487,"current_range_meters":5600,"station_id":"ce4bh512rcd13ifvqe2g","pricing_plan_id":"cebpf4jnsgd1na2vs0mg"},{"bike_id":"1a7d787b-92c8-471c-a409-26dfa3b3ec08","system_id":"levelo_inurba_marseille","lat":43.31371,"lon":5.38494,"is_reserved":false,"is_disabled":false,"rental_uris":{"android":"levelo://app?vid=1a7d787b-92c8-471c-a409-26dfa3b3ec08","ios":"levelo://app?vid=1a7d787b-92c8-471c-a409-26dfa3b3ec08"},"vehicle_type_id":"4","last_reported":1746306487,"current_range_meters":6400,"station_id":"ce4bgt92rcd13ifvqcf0","pricing_plan_id":"cebpf4jnsgd1na2vs0mg"},{"bike_id":"d11b7274-ad1d-4343-a0b8-143798db8be1","system_id":"levelo_inurba_marseille","lat":43.22924,"lon":5.35378,"is_reserved":false,"is_disabled":true,"rental_uris":{"android":"levelo://app?vid=d11b7274-ad1d-4343-a0b8-143798db8be1","ios":"levelo://app?vid=d11b7274-ad1d-4343-a0b8-143798db8be1"},"vehicle_type_id":"4","last_reported":1746306487,"current_range_meters":6400,"station_id":"cpo3532slgdg3j2ikp40","pricing_plan_id":"cebpf4jnsgd1na2vs0mg"},{"bike_id":"4341dfab-438e-4d1a-8a6a-87a65b8fed8c","system_id":"levelo_inurba_marseille","lat":43.29902,"lon":5.38146,"is_reserved":false,"is_disabled":true,"rental_uris":{"android":"levelo://app?vid=4341dfab-438e-4d1a-8a6a-87a65b8fed8c","ios":"levelo://app?vid=4341dfab-438e-4d1a-8a6a-87a65b8fed8c"},"vehicle_type_id":"4","last_reported":1746306487,"current_range_meters":6400,"station_id":"ce4bgj12rcd13ifvqbc0","pricing_plan_id":"cebpf4jnsgd1na2vs0mg"},{"bike_id":"0655da73-de39-40e3-94f4-0d69de75e44b","system_id":"levelo_inurba_marseille","lat":43.30259,"lon":5.40077,"is_reserved":false,"is_disabled":false,"rental_uris":{"android":"levelo://app?vid=0655da73-de39-40e3-94f4-0d69de75e44b","ios":"levelo://app?vid=0655da73-de39-40e3-94f4-0d69de75e44b"},"vehicle_type_id":"4","last_reported":1746306487,"current_range_meters":6400,"station_id":"ce4bgvh2rcd13ifvqcs0","pricing_plan_id":"cebpf4jnsgd1na2vs0mg"},{"bike_id":"52214297-f226-49eb-ad4f-bba7d1519853","system_id":"levelo_inurba_marseille","lat":43.28567,"lon":5.39491,"is_reserved":false,"is_disabled":false,"rental_uris":{"android":"levelo://app?vid=52214297-f226-49eb-ad4f-bba7d1519853","ios":"levelo://app?vid=52214297-f226-49eb-ad4f-bba7d1519853"},"vehicle_type_id":"4","last_reported":1746306487,"current_range_meters":6400,"station_id":"ce4bh292rcd13ifvqdg0","pricing_plan_id":"cebpf4jnsgd1na2vs0mg"},{"bike_id":"e141d286-5a2c-470e-8ce3-fc63bfe9226f","system_id":"levelo_inurba_marseille","lat":43.33771,"lon":5.41873,"is_reserved":false,"is_disabled":false,"rental_uris":{"android":"levelo://app?vid=e141d286-5a2c-470e-8ce3-fc63bfe9226f","ios":"levelo://app?vid=e141d286-5a2c-470e-8ce3-fc63bfe9226f"},"vehicle_type_id":"4","last_reported":1746306487,"current_range_meters":6400,"station_id":"","pricing_plan_id":"cebpf4jnsgd1na2vs0mg"},{"bike_id":"aaff0e81-af3b-4f2b-a865-1733ccaca8f5","system_id":"levelo_inurba_marseille","lat":43.28722,"lon":5.36081,"is_reserved":false,"is_disabled":false,"rental_uris":{"android":"levelo://app?vid=aaff0e81-af3b-4f2b-a865-1733ccaca8f5","ios":"levelo://app?vid=aaff0e81-af3b-4f2b-a865-1733ccaca8f5"},"vehicle_type_id":"4","last_reported":1746306487,"current_range_meters":6800,"station_id":"cki0cbj6b192h4jlfktg","pricing_plan_id":"cebpf4jnsgd1na2vs0mg"},{"bike_id":"51900178-50f0-47b3-94f6-452e3ee783c8","system_id":"levelo_inurba_marseille","lat":43.29907,"lon":5.43662,"is_reserved":false,"is_disabled":false,"rental_uris":{"android":"levelo://app?vid=51900178-50f0-47b3-94f6-452e3ee783c8","ios":"levelo://app?vid=51900178-50f0-47b3-94f6-452e3ee783c8"},"vehicle_type_id":"4","last_reported":1746306487,"current_range_meters":6800,"station_id":"ce4bhpp2rcd13ifvqhfg","pricing_plan_id":"cebpf4jnsgd1na2vs0mg"},{"bike_id":"308d9f67-3fb6-44b8-ad96-abe11133b5ab","system_id":"levelo_inurba_marseille","lat":43.32367,"lon":5.38883,"is_reserved":false,"is_disabled":false,"rental_uris":{"android":"levelo://app?vid=308d9f67-3fb6-44b8-ad96-abe11133b5ab","ios":"levelo://app?vid=308d9f67-3fb6-44b8-ad96-abe11133b5ab"},"vehicle_type_id":"4","last_reported":1746306487,"current_range_meters":6800,"station_id":"ce4bhqp2rcd13ifvqhog","pricing_plan_id":"cebpf4jnsgd1na2vs0mg"},{"bike_id":"b2be516e-2f32-4594-b4de-c3e58b68706d","system_id":"levelo_inurba_marseille","lat":43.29274,"lon":5.36841,"is_reserved":false,"is_disabled":true,"rental_uris":{"android":"levelo://app?vid=b2be516e-2f32-4594-b4de-c3e58b68706d","ios":"levelo://app?vid=b2be516e-2f32-4594-b4de-c3e58b68706d"},"vehicle_type_id":"4","last_reported":1746306487,"current_range_meters":6800,"station_id":"ce4bhbp2rcd13ifvqesg","pricing_plan_id":"cebpf4jnsgd1na2vs0mg"},{"bike_id":"84666349-12b7-4675-b2c6-fcb2cc4c343c","system_id":"levelo_inurba_marseille","lat":43.30134,"lon":5.38776,"is_reserved":false,"is_disabled":false,"rental_uris":{"android":"levelo://app?vid=84666349-12b7-4675-b2c6-fcb2cc4c343c","ios":"levelo://app?vid=84666349-12b7-4675-b2c6-fcb2cc4c343c"},"vehicle_type_id":"4","last_reported":1746306487,"current_range_meters":6800,"station_id":"ce4bghh2rcd13ifvqb60","pricing_plan_id":"cebpf4jnsgd1na2vs0mg"},{"bike_id":"909825d5-7ad2-409e-b0de-cec7d5b4fa06","system_id":"levelo_inurba_marseille","lat":43.24218,"lon":5.36733,"is_reserved":false,"is_disabled":false,"rental_uris":{"android":"levelo://app?vid=909825d5-7ad2-409e-b0de-cec7d5b4fa06","ios":"levelo://app?vid=909825d5-7ad2-409e-b0de-cec7d5b4fa06"},"vehicle_type_id":"4","last_reported":1746306487,"current_range_meters":6800,"station_id":"","pricing_plan_id":"cebpf4jnsgd1na2vs0mg"},{"bike_id":"fbe272d8-2730-4729-ab66-43ee2cd8e621","system_id":"levelo_inurba_marseille","lat":43.29032,"lon":5.39965,"is_reserved":false,"is_disabled":false,"rental_uris":{"android":"levelo://app?vid=fbe272d8-2730-4729-ab66-43ee2cd8e621","ios":"levelo://app?vid=fbe272d8-2730-4729-ab66-43ee2cd8e621"},"vehicle_type_id":"4","last_reported":1746306487,"current_range_meters":6400,"station_id":"ce4bh392rcd13ifvqdm0","pricing_plan_id":"cebpf4jnsgd1na2vs0mg"},{"bike_id":"d623e401-e476-4fca-8d01-9fe261904313","system_id":"levelo_inurba_marseille","lat":43.2695,"lon":5.3863,"is_reserved":false,"is_disabled":false,"rental_uris":{"android":"levelo://app?vid=d623e401-e476-4fca-8d01-9fe261904313","ios":"levelo://app?vid=d623e401-e476-4fca-8d01-9fe261904313"},"vehicle_type_id":"4","last_reported":1746306487,"current_range_meters":6800,"station_id":"ce4bhh92rcd13ifvqfh0","pricing_plan_id":"cebpf4jnsgd1na2vs0mg"},{"bike_id":"c2aa0a2c-4d82-4691-b59e-d8fd6c9997f4","system_id":"levelo_inurba_marseille","lat":43.26195,"lon":5.37448,"is_reserved":false,"is_disabled":false,"rental_uris":{"android":"levelo://app?vid=c2aa0a2c-4d82-4691-b59e-d8fd6c9997f4","ios":"levelo://app?vid=c2aa0a2c-4d82-4691-b59e-d8fd6c9997f4"},"vehicle_type_id":"4","last_reported":1746306487,"current_range_meters":7200,"station_id":"","pricing_plan_id":"cebpf4jnsgd1na2vs0mg"},{"bike_id":"f2b82d46-aa38-4e41-bdca-3656c46543c7","system_id":"levelo_inurba_marseille","lat":43.29311,"lon":5.38352,"is_reserved":false,"is_disabled":false,"rental_uris":{"android":"levelo://app?vid=f2b82d46-aa38-4e41-bdca-3656c46543c7","ios":"levelo://app?vid=f2b82d46-aa38-4e41-bdca-3656c46543c7"},"vehicle_type_id":"4","last_reported":1746306487,"current_range_meters":7200,"station_id":"","pricing_plan_id":"cebpf4jnsgd1na2vs0mg"},{"bike_id":"cefdacb4-82a9-4405-ab10-c015f12d2cc3","system_id":"levelo_inurba_marseille","lat":43.29514,"lon":5.39039,"is_reserved":false,"is_disabled":false,"rental_uris":{"android":"levelo://app?vid=cefdacb4-82a9-4405-ab10-c015f12d2cc3","ios":"levelo://app?vid=cefdacb4-82a9-4405-ab10-c015f12d2cc3"},"vehicle_type_id":"4","last_reported":1746306487,"current_range_meters":6800,"station_id":"ce4bh3p2rcd13ifvqdp0","pricing_plan_id":"cebpf4jnsgd1na2vs0mg"},{"bike_id":"208c1a96-c46f-4193-b924-3bf7033ea14e","system_id":"levelo_inurba_marseille","lat":43.231886,"lon":5.355639,"is_reserved":false,"is_disabled":false,"rental_uris":{"android":"levelo://app?vid=208c1a96-c46f-4193-b924-3bf7033ea14e","ios":"levelo://app?vid=208c1a96-c46f-4193-b924-3bf7033ea14e"},"vehicle_type_id":"4","last_reported":1746306487,"current_range_meters":7200,"station_id":"ce4bhu92rcd13ifvqi70","pricing_plan_id":"cebpf4jnsgd1na2vs0mg"},{"bike_id":"17bb867a-ff4b-4fc4-aef0-507aca66f5f8","system_id":"levelo_inurba_marseille","lat":43.265118,"lon":5.390784,"is_reserved":false,"is_disabled":false,"rental_uris":{"android":"levelo://app?vid=17bb867a-ff4b-4fc4-aef0-507aca66f5f8","ios":"levelo://app?vid=17bb867a-ff4b-4fc4-aef0-507aca66f5f8"},"vehicle_type_id":"4","last_reported":1746306487,"current_range_meters":7200,"station_id":"ce4bhe12rcd13ifvqf30","pricing_plan_id":"cebpf4jnsgd1na2vs0mg"},{"bike_id":"e341752c-8655-4500-bdaa-1fbfa4780079","system_id":"levelo_inurba_marseille","lat":43.29076,"lon":5.37155,"is_reserved":false,"is_disabled":true,"rental_uris":{"android":"levelo://app?vid=e341752c-8655-4500-bdaa-1fbfa4780079","ios":"levelo://app?vid=e341752c-8655-4500-bdaa-1fbfa4780079"},"vehicle_type_id":"4","last_reported":1746306487,"current_range_meters":8000,"station_id":"ce4bh5p2rcd13ifvqe4g","pricing_plan_id":"cebpf4jnsgd1na2vs0mg"},{"bike_id":"d687def4-930f-4ae7-aed1-fd79a682a5c7","system_id":"levelo_inurba_marseille","lat":43.25726,"lon":5.41108,"is_reserved":false,"is_disabled":false,"rental_uris":{"android":"levelo://app?vid=d687def4-930f-4ae7-aed1-fd79a682a5c7","ios":"levelo://app?vid=d687def4-930f-4ae7-aed1-fd79a682a5c7"},"vehicle_type_id":"4","last_reported":1746306487,"current_range_meters":8000,"station_id":"ce4bhkp2rcd13ifvqgd0","pricing_plan_id":"cebpf4jnsgd1na2vs0mg"},{"bike_id":"39d83911-e17e-4776-b8f2-6450602c8696","system_id":"levelo_inurba_marseille","lat":43.298943,"lon":5.436562,"is_reserved":false,"is_disabled":false,"rental_uris":{"android":"levelo://app?vid=39d83911-e17e-4776-b8f2-6450602c8696","ios":"levelo://app?vid=39d83911-e17e-4776-b8f2-6450602c8696"},"vehicle_type_id":"4","last_reported":1746306487,"current_range_meters":8000,"station_id":"ce4bhpp2rcd13ifvqhfg","pricing_plan_id":"cebpf4jnsgd1na2vs0mg"},{"bike_id":"87382dde-a899-4eff-8c9e-8a681f99fd4d","system_id":"levelo_inurba_marseille","lat":43.29211,"lon":5.369,"is_reserved":false,"is_disabled":false,"rental_uris":{"android":"levelo://app?vid=87382dde-a899-4eff-8c9e-8a681f99fd4d","ios":"levelo://app?vid=87382dde-a899-4eff-8c9e-8a681f99fd4d"},"vehicle_type_id":"4","last_reported":1746306487,"current_range_meters":8000,"station_id":"","pricing_plan_id":"cebpf4jnsgd1na2vs0mg"},{"bike_id":"db5995b0-d38c-4f61-b06e-327b6efc75a9","system_id":"levelo_inurba_marseille","lat":43.24812,"lon":5.37458,"is_reserved":false,"is_disabled":false,"rental_uris":{"android":"levelo://app?vid=db5995b0-d38c-4f61-b06e-327b6efc75a9","ios":"levelo://app?vid=db5995b0-d38c-4f61-b06e-327b6efc75a9"},"vehicle_type_id":"4","last_reported":1746306487,"current_range_meters":8000,"station_id":"ce4bhgh2rcd13ifvqfb0","pricing_plan_id":"cebpf4jnsgd1na2vs0mg"},{"bike_id":"1e757feb-a591-4ebd-8356-726a797198d7","system_id":"levelo_inurba_marseille","lat":43.26957,"lon":5.38632,"is_reserved":false,"is_disabled":false,"rental_uris":{"android":"levelo://app?vid=1e757feb-a591-4ebd-8356-726a797198d7","ios":"levelo://app?vid=1e757feb-a591-4ebd-8356-726a797198d7"},"vehicle_type_id":"4","last_reported":1746306487,"current_range_meters":8000,"station_id":"ce4bhh92rcd13ifvqfh0","pricing_plan_id":"cebpf4jnsgd1na2vs0mg"},{"bike_id":"7d6d18ee-0ef8-4e14-ae57-24b20e7f5fed","system_id":"levelo_inurba_marseille","lat":43.31998,"lon":5.38165,"is_reserved":false,"is_disabled":false,"rental_uris":{"android":"levelo://app?vid=7d6d18ee-0ef8-4e14-ae57-24b20e7f5fed","ios":"levelo://app?vid=7d6d18ee-0ef8-4e14-ae57-24b20e7f5fed"},"vehicle_type_id":"4","last_reported":1746306487,"current_range_meters":8000,"station_id":"ce4bhr12rcd13ifvqhpg","pricing_plan_id":"cebpf4jnsgd1na2vs0mg"},{"bike_id":"42b265ee-2f6e-42e6-be1a-7cd522f1be6f","system_id":"levelo_inurba_marseille","lat":43.278163,"lon":5.40719,"is_reserved":false,"is_disabled":false,"rental_uris":{"android":"levelo://app?vid=42b265ee-2f6e-42e6-be1a-7cd522f1be6f","ios":"levelo://app?vid=42b265ee-2f6e-42e6-be1a-7cd522f1be6f"},"vehicle_type_id":"4","last_reported":1746306487,"current_range_meters":8400,"station_id":"ce4bhnh2rcd13ifvqgtg","pricing_plan_id":"cebpf4jnsgd1na2vs0mg"},{"bike_id":"d5cd72c8-c675-4b3e-8cbd-9e07e258dbc1","system_id":"levelo_inurba_marseille","lat":43.29111,"lon":5.380881,"is_reserved":false,"is_disabled":false,"rental_uris":{"android":"levelo://app?vid=d5cd72c8-c675-4b3e-8cbd-9e07e258dbc1","ios":"levelo://app?vid=d5cd72c8-c675-4b3e-8cbd-9e07e258dbc1"},"vehicle_type_id":"4","last_reported":1746306487,"current_range_meters":8400,"station_id":"ce4bh4p2rcd13ifvqe1g","pricing_plan_id":"cebpf4jnsgd1na2vs0mg"},{"bike_id":"4466a348-ba1c-46d7-981b-a5e5602811c3","system_id":"levelo_inurba_marseille","lat":43.30935,"lon":5.40145,"is_reserved":false,"is_disabled":false,"rental_uris":{"android":"levelo://app?vid=4466a348-ba1c-46d7-981b-a5e5602811c3","ios":"levelo://app?vid=4466a348-ba1c-46d7-981b-a5e5602811c3"},"vehicle_type_id":"4","last_reported":1746306487,"current_range_meters":8400,"station_id":"ce4bgvp2rcd13ifvqct0","pricing_plan_id":"cebpf4jnsgd1na2vs0mg"},{"bike_id":"db9be0c1-80d5-4315-9367-2a96fca91123","system_id":"levelo_inurba_marseille","lat":43.30644,"lon":5.40076,"is_reserved":false,"is_disabled":false,"rental_uris":{"android":"levelo://app?vid=db9be0c1-80d5-4315-9367-2a96fca91123","ios":"levelo://app?vid=db9be0c1-80d5-4315-9367-2a96fca91123"},"vehicle_type_id":"4","last_reported":1746306487,"current_range_meters":8400,"station_id":"ce4bh112rcd13ifvqda0","pricing_plan_id":"cebpf4jnsgd1na2vs0mg"},{"bike_id":"e27ce41e-d31e-4411-a762-387f29d91877","system_id":"levelo_inurba_marseille","lat":43.29559,"lon":5.4229,"is_reserved":false,"is_disabled":false,"rental_uris":{"android":"levelo://app?vid=e27ce41e-d31e-4411-a762-387f29d91877","ios":"levelo://app?vid=e27ce41e-d31e-4411-a762-387f29d91877"},"vehicle_type_id":"4","last_reported":1746306487,"current_range_meters":8400,"station_id":"ce4bhph2rcd13ifvqhdg","pricing_plan_id":"cebpf4jnsgd1na2vs0mg"},{"bike_id":"570b486c-50df-4f1f-97df-caa86c0d419e","system_id":"levelo_inurba_marseille","lat":43.33695,"lon":5.35573,"is_reserved":false,"is_disabled":false,"rental_uris":{"android":"levelo://app?vid=570b486c-50df-4f1f-97df-caa86c0d419e","ios":"levelo://app?vid=570b486c-50df-4f1f-97df-caa86c0d419e"},"vehicle_type_id":"4","last_reported":1746306487,"current_range_meters":8400,"station_id":"","pricing_plan_id":"cebpf4jnsgd1na2vs0mg"},{"bike_id":"268f0122-b4c1-45af-9562-310bf1b622b3","system_id":"levelo_inurba_marseille","lat":43.30889,"lon":5.39653,"is_reserved":false,"is_disabled":false,"rental_uris":{"android":"levelo://app?vid=268f0122-b4c1-45af-9562-310bf1b622b3","ios":"levelo://app?vid=268f0122-b4c1-45af-9562-310bf1b622b3"},"vehicle_type_id":"4","last_reported":1746306487,"current_range_meters":8400,"station_id":"ce4bh012rcd13ifvqcv0","pricing_plan_id":"cebpf4jnsgd1na2vs0mg"},{"bike_id":"ef69e7cc-37df-4e66-bd4f-a85ef9d1ea7e","system_id":"levelo_inurba_marseille","lat":43.27491,"lon":5.424559,"is_reserved":false,"is_disabled":false,"rental_uris":{"android":"levelo://app?vid=ef69e7cc-37df-4e66-bd4f-a85ef9d1ea7e","ios":"levelo://app?vid=ef69e7cc-37df-4e66-bd4f-a85ef9d1ea7e"},"vehicle_type_id":"4","last_reported":1746306487,"current_range_meters":8800,"station_id":"ce4bhn92rcd13ifvqgrg","pricing_plan_id":"cebpf4jnsgd1na2vs0mg"},{"bike_id":"0ca2aeff-c10c-4be3-8c0b-3162193c983e","system_id":"levelo_inurba_marseille","lat":43.30775,"lon":5.37668,"is_reserved":false,"is_disabled":true,"rental_uris":{"android":"levelo://app?vid=0ca2aeff-c10c-4be3-8c0b-3162193c983e","ios":"levelo://app?vid=0ca2aeff-c10c-4be3-8c0b-3162193c983e"},"vehicle_type_id":"4","last_reported":1746306487,"current_range_meters":8800,"station_id":"","pricing_plan_id":"cebpf4jnsgd1na2vs0mg"},{"bike_id":"38a0dbcd-2be8-44bc-838b-f55006af8ebd","system_id":"levelo_inurba_marseille","lat":43.24803,"lon":5.37454,"is_reserved":false,"is_disabled":false,"rental_uris":{"android":"levelo://app?vid=38a0dbcd-2be8-44bc-838b-f55006af8ebd","ios":"levelo://app?vid=38a0dbcd-2be8-44bc-838b-f55006af8ebd"},"vehicle_type_id":"4","last_reported":1746306487,"current_range_meters":8800,"station_id":"ce4bhgh2rcd13ifvqfb0","pricing_plan_id":"cebpf4jnsgd1na2vs0mg"},{"bike_id":"e3bb8c53-9778-422e-96ea-7d06d72dda63","system_id":"levelo_inurba_marseille","lat":43.28204,"lon":5.40379,"is_reserved":false,"is_disabled":false,"rental_uris":{"android":"levelo://app?vid=e3bb8c53-9778-422e-96ea-7d06d72dda63","ios":"levelo://app?vid=e3bb8c53-9778-422e-96ea-7d06d72dda63"},"vehicle_type_id":"4","last_reported":1746306487,"current_range_meters":8800,"station_id":"","pricing_plan_id":"cebpf4jnsgd1na2vs0mg"},{"bike_id":"dfb3396e-96f5-457c-af11-f6f27dad33e9","system_id":"levelo_inurba_marseille","lat":43.272005,"lon":5.364785,"is_reserved":false,"is_disabled":false,"rental_uris":{"android":"levelo://app?vid=dfb3396e-96f5-457c-af11-f6f27dad33e9","ios":"levelo://app?vid=dfb3396e-96f5-457c-af11-f6f27dad33e9"},"vehicle_type_id":"4","last_reported":1746306487,"current_range_meters":9200,"station_id":"","pricing_plan_id":"cebpf4jnsgd1na2vs0mg"},{"bike_id":"721f19a3-6fc8-4aa3-b8d6-b74174066f05","system_id":"levelo_inurba_marseille","lat":43.31997,"lon":5.38134,"is_reserved":false,"is_disabled":false,"rental_uris":{"android":"levelo://app?vid=721f19a3-6fc8-4aa3-b8d6-b74174066f05","ios":"levelo://app?vid=721f19a3-6fc8-4aa3-b8d6-b74174066f05"},"vehicle_type_id":"4","last_reported":1746306487,"current_range_meters":9200,"station_id":"ce4bhr12rcd13ifvqhpg","pricing_plan_id":"cebpf4jnsgd1na2vs0mg"},{"bike_id":"c7e47698-0020-47cf-94a4-404079760935","system_id":"levelo_inurba_marseille","lat":43.28414,"lon":5.375,"is_reserved":false,"is_disabled":true,"rental_uris":{"android":"levelo://app?vid=c7e47698-0020-47cf-94a4-404079760935","ios":"levelo://app?vid=c7e47698-0020-47cf-94a4-404079760935"},"vehicle_type_id":"4","last_reported":1746306487,"current_range_meters":9200,"station_id":"","pricing_plan_id":"cebpf4jnsgd1na2vs0mg"},{"bike_id":"3a6c1c4a-dd80-4e9d-9632-aaca59f6d0aa","system_id":"levelo_inurba_marseille","lat":43.3236,"lon":5.38885,"is_reserved":false,"is_disabled":false,"rental_uris":{"android":"levelo://app?vid=3a6c1c4a-dd80-4e9d-9632-aaca59f6d0aa","ios":"levelo://app?vid=3a6c1c4a-dd80-4e9d-9632-aaca59f6d0aa"},"vehicle_type_id":"4","last_reported":1746306487,"current_range_meters":9200,"station_id":"ce4bhqp2rcd13ifvqhog","pricing_plan_id":"cebpf4jnsgd1na2vs0mg"},{"bike_id":"fd1b15aa-d37b-44e0-8841-1d50c1b0e731","system_id":"levelo_inurba_marseille","lat":43.30646,"lon":5.4009,"is_reserved":false,"is_disabled":false,"rental_uris":{"android":"levelo://app?vid=fd1b15aa-d37b-44e0-8841-1d50c1b0e731","ios":"levelo://app?vid=fd1b15aa-d37b-44e0-8841-1d50c1b0e731"},"vehicle_type_id":"4","last_reported":1746306487,"current_range_meters":9200,"station_id":"ce4bh112rcd13ifvqda0","pricing_plan_id":"cebpf4jnsgd1na2vs0mg"},{"bike_id":"f1ffd2b9-91e9-4bf5-a319-6e95940b0de6","system_id":"levelo_inurba_marseille","lat":43.29562,"lon":5.42291,"is_reserved":false,"is_disabled":false,"rental_uris":{"android":"levelo://app?vid=f1ffd2b9-91e9-4bf5-a319-6e95940b0de6","ios":"levelo://app?vid=f1ffd2b9-91e9-4bf5-a319-6e95940b0de6"},"vehicle_type_id":"4","last_reported":1746306487,"current_range_meters":9200,"station_id":"ce4bhph2rcd13ifvqhdg","pricing_plan_id":"cebpf4jnsgd1na2vs0mg"},{"bike_id":"8df6e310-0880-40a9-a691-cd475dfa3928","system_id":"levelo_inurba_marseille","lat":43.285885,"lon":5.442457,"is_reserved":false,"is_disabled":false,"rental_uris":{"android":"levelo://app?vid=8df6e310-0880-40a9-a691-cd475dfa3928","ios":"levelo://app?vid=8df6e310-0880-40a9-a691-cd475dfa3928"},"vehicle_type_id":"4","last_reported":1746306487,"current_range_meters":9200,"station_id":"","pricing_plan_id":"cebpf4jnsgd1na2vs0mg"},{"bike_id":"a9b758e0-e52e-4865-b74c-53b252768e90","system_id":"levelo_inurba_marseille","lat":43.29278,"lon":5.38432,"is_reserved":false,"is_disabled":false,"rental_uris":{"android":"levelo://app?vid=a9b758e0-e52e-4865-b74c-53b252768e90","ios":"levelo://app?vid=a9b758e0-e52e-4865-b74c-53b252768e90"},"vehicle_type_id":"4","last_reported":1746306487,"current_range_meters":9200,"station_id":"ce4bh692rcd13ifvqea0","pricing_plan_id":"cebpf4jnsgd1na2vs0mg"},{"bike_id":"558e8e48-07cf-4714-a5a4-e6d37e9c12f6","system_id":"levelo_inurba_marseille","lat":43.29276,"lon":5.38433,"is_reserved":false,"is_disabled":false,"rental_uris":{"android":"levelo://app?vid=558e8e48-07cf-4714-a5a4-e6d37e9c12f6","ios":"levelo://app?vid=558e8e48-07cf-4714-a5a4-e6d37e9c12f6"},"vehicle_type_id":"4","last_reported":1746306487,"current_range_meters":9200,"station_id":"ce4bh692rcd13ifvqea0","pricing_plan_id":"cebpf4jnsgd1na2vs0mg"},{"bike_id":"d51bd1f8-5797-40a8-8b2d-1b322c3a66a4","system_id":"levelo_inurba_marseille","lat":43.3093,"lon":5.40142,"is_reserved":false,"is_disabled":false,"rental_uris":{"android":"levelo://app?vid=d51bd1f8-5797-40a8-8b2d-1b322c3a66a4","ios":"levelo://app?vid=d51bd1f8-5797-40a8-8b2d-1b322c3a66a4"},"vehicle_type_id":"4","last_reported":1746306487,"current_range_meters":9600,"station_id":"ce4bgvp2rcd13ifvqct0","pricing_plan_id":"cebpf4jnsgd1na2vs0mg"},{"bike_id":"d7a4de78-f04b-4239-ab82-edd92abdf2cf","system_id":"levelo_inurba_marseille","lat":43.25866,"lon":5.39893,"is_reserved":false,"is_disabled":false,"rental_uris":{"android":"levelo://app?vid=d7a4de78-f04b-4239-ab82-edd92abdf2cf","ios":"levelo://app?vid=d7a4de78-f04b-4239-ab82-edd92abdf2cf"},"vehicle_type_id":"4","last_reported":1746306487,"current_range_meters":9600,"station_id":"ce4bhl92rcd13ifvqghg","pricing_plan_id":"cebpf4jnsgd1na2vs0mg"},{"bike_id":"50e2e532-0880-4941-8ce4-14e3174a9d69","system_id":"levelo_inurba_marseille","lat":43.30893,"lon":5.37188,"is_reserved":false,"is_disabled":false,"rental_uris":{"android":"levelo://app?vid=50e2e532-0880-4941-8ce4-14e3174a9d69","ios":"levelo://app?vid=50e2e532-0880-4941-8ce4-14e3174a9d69"},"vehicle_type_id":"4","last_reported":1746306487,"current_range_meters":9600,"station_id":"ce4bguh2rcd13ifvqckg","pricing_plan_id":"cebpf4jnsgd1na2vs0mg"},{"bike_id":"f0259f55-382d-4317-a5a3-c63365a0d76b","system_id":"levelo_inurba_marseille","lat":43.25534,"lon":5.41788,"is_reserved":false,"is_disabled":false,"rental_uris":{"android":"levelo://app?vid=f0259f55-382d-4317-a5a3-c63365a0d76b","ios":"levelo://app?vid=f0259f55-382d-4317-a5a3-c63365a0d76b"},"vehicle_type_id":"4","last_reported":1746306487,"current_range_meters":10000,"station_id":"","pricing_plan_id":"cebpf4jnsgd1na2vs0mg"},{"bike_id":"fa54570d-4ded-4ba4-bb58-f98876f2ec05","system_id":"levelo_inurba_marseille","lat":43.29032,"lon":5.38641,"is_reserved":false,"is_disabled":false,"rental_uris":{"android":"levelo://app?vid=fa54570d-4ded-4ba4-bb58-f98876f2ec05","ios":"levelo://app?vid=fa54570d-4ded-4ba4-bb58-f98876f2ec05"},"vehicle_type_id":"4","last_reported":1746306487,"current_range_meters":10000,"station_id":"ce4bh4p2rcd13ifvqe0g","pricing_plan_id":"cebpf4jnsgd1na2vs0mg"},{"bike_id":"be9042c4-716a-416e-af52-c92d47776467","system_id":"levelo_inurba_marseille","lat":43.30921,"lon":5.40157,"is_reserved":false,"is_disabled":true,"rental_uris":{"android":"levelo://app?vid=be9042c4-716a-416e-af52-c92d47776467","ios":"levelo://app?vid=be9042c4-716a-416e-af52-c92d47776467"},"vehicle_type_id":"4","last_reported":1746306487,"current_range_meters":10000,"station_id":"ce4bgvp2rcd13ifvqct0","pricing_plan_id":"cebpf4jnsgd1na2vs0mg"},{"bike_id":"5d9a54ab-8ca5-45ce-9e8d-1ecc587fe2f3","system_id":"levelo_inurba_marseille","lat":43.29727,"lon":5.40726,"is_reserved":false,"is_disabled":false,"rental_uris":{"android":"levelo://app?vid=5d9a54ab-8ca5-45ce-9e8d-1ecc587fe2f3","ios":"levelo://app?vid=5d9a54ab-8ca5-45ce-9e8d-1ecc587fe2f3"},"vehicle_type_id":"4","last_reported":1746306487,"current_range_meters":10000,"station_id":"","pricing_plan_id":"cebpf4jnsgd1na2vs0mg"},{"bike_id":"6ae9068b-8534-47e2-832a-cb0e5255371d","system_id":"levelo_inurba_marseille","lat":43.337444,"lon":5.374475,"is_reserved":false,"is_disabled":false,"rental_uris":{"android":"levelo://app?vid=6ae9068b-8534-47e2-832a-cb0e5255371d","ios":"levelo://app?vid=6ae9068b-8534-47e2-832a-cb0e5255371d"},"vehicle_type_id":"4","last_reported":1746306487,"current_range_meters":10000,"station_id":"ce4bgvp2rcd13ifvqct0","pricing_plan_id":"cebpf4jnsgd1na2vs0mg"},{"bike_id":"a3378d96-4b28-4522-9841-a693253e449c","system_id":"levelo_inurba_marseille","lat":43.29582,"lon":5.37504,"is_reserved":false,"is_disabled":false,"rental_uris":{"android":"levelo://app?vid=a3378d96-4b28-4522-9841-a693253e449c","ios":"levelo://app?vid=a3378d96-4b28-4522-9841-a693253e449c"},"vehicle_type_id":"4","last_reported":1746306487,"current_range_meters":10000,"station_id":"ce4bgh92rcd13ifvqb50","pricing_plan_id":"cebpf4jnsgd1na2vs0mg"},{"bike_id":"0e34a68a-1e7e-4217-99de-5fd03012d1b6","system_id":"levelo_inurba_marseille","lat":43.23969,"lon":5.36628,"is_reserved":false,"is_disabled":false,"rental_uris":{"android":"levelo://app?vid=0e34a68a-1e7e-4217-99de-5fd03012d1b6","ios":"levelo://app?vid=0e34a68a-1e7e-4217-99de-5fd03012d1b6"},"vehicle_type_id":"4","last_reported":1746306487,"current_range_meters":10000,"station_id":"ce4bhi12rcd13ifvqfp0","pricing_plan_id":"cebpf4jnsgd1na2vs0mg"},{"bike_id":"5329cbd5-8e11-4cdf-a9e1-2d9d84c30f68","system_id":"levelo_inurba_marseille","lat":43.29259,"lon":5.38446,"is_reserved":false,"is_disabled":false,"rental_uris":{"android":"levelo://app?vid=5329cbd5-8e11-4cdf-a9e1-2d9d84c30f68","ios":"levelo://app?vid=5329cbd5-8e11-4cdf-a9e1-2d9d84c30f68"},"vehicle_type_id":"4","last_reported":1746306487,"current_range_meters":10000,"station_id":"ce4bh692rcd13ifvqea0","pricing_plan_id":"cebpf4jnsgd1na2vs0mg"},{"bike_id":"b2e6128e-f606-414c-9b37-ab35d5f5df0c","system_id":"levelo_inurba_marseille","lat":43.29297,"lon":5.37194,"is_reserved":false,"is_disabled":false,"rental_uris":{"android":"levelo://app?vid=b2e6128e-f606-414c-9b37-ab35d5f5df0c","ios":"levelo://app?vid=b2e6128e-f606-414c-9b37-ab35d5f5df0c"},"vehicle_type_id":"4","last_reported":1746306487,"current_range_meters":10000,"station_id":"ce4bgh92rcd13ifvqb40","pricing_plan_id":"cebpf4jnsgd1na2vs0mg"},{"bike_id":"fb582505-15b6-40c6-97cc-2feebea7d568","system_id":"levelo_inurba_marseille","lat":43.30429,"lon":5.39734,"is_reserved":false,"is_disabled":true,"rental_uris":{"android":"levelo://app?vid=fb582505-15b6-40c6-97cc-2feebea7d568","ios":"levelo://app?vid=fb582505-15b6-40c6-97cc-2feebea7d568"},"vehicle_type_id":"4","last_reported":1746306487,"current_range_meters":10800,"station_id":"ce4bh092rcd13ifvqd20","pricing_plan_id":"cebpf4jnsgd1na2vs0mg"},{"bike_id":"75fa9943-cbe0-4940-a9be-f80f8dede2da","system_id":"levelo_inurba_marseille","lat":43.22509,"lon":5.34762,"is_reserved":false,"is_disabled":false,"rental_uris":{"android":"levelo://app?vid=75fa9943-cbe0-4940-a9be-f80f8dede2da","ios":"levelo://app?vid=75fa9943-cbe0-4940-a9be-f80f8dede2da"},"vehicle_type_id":"4","last_reported":1746306487,"current_range_meters":10800,"station_id":"st_cvj5dfep6f1abm77gieg","pricing_plan_id":"cebpf4jnsgd1na2vs0mg"},{"bike_id":"59c05668-9a78-4683-b670-a7794c85b3b0","system_id":"levelo_inurba_marseille","lat":43.29372,"lon":5.37863,"is_reserved":false,"is_disabled":true,"rental_uris":{"android":"levelo://app?vid=59c05668-9a78-4683-b670-a7794c85b3b0","ios":"levelo://app?vid=59c05668-9a78-4683-b670-a7794c85b3b0"},"vehicle_type_id":"4","last_reported":1746306487,"current_range_meters":10800,"station_id":"ce4bgjh2rcd13ifvqbf0","pricing_plan_id":"cebpf4jnsgd1na2vs0mg"},{"bike_id":"2f2e2422-0ca9-4635-8561-f770e540dc91","system_id":"levelo_inurba_marseille","lat":43.29783,"lon":5.37025,"is_reserved":false,"is_disabled":false,"rental_uris":{"android":"levelo://app?vid=2f2e2422-0ca9-4635-8561-f770e540dc91","ios":"levelo://app?vid=2f2e2422-0ca9-4635-8561-f770e540dc91"},"vehicle_type_id":"4","last_reported":1746306487,"current_range_meters":10800,"station_id":"","pricing_plan_id":"cebpf4jnsgd1na2vs0mg"},{"bike_id":"c9667bec-b4e1-4aba-85da-6ad1e46c0b9d","system_id":"levelo_inurba_marseille","lat":43.27074,"lon":5.42266,"is_reserved":false,"is_disabled":false,"rental_uris":{"android":"levelo://app?vid=c9667bec-b4e1-4aba-85da-6ad1e46c0b9d","ios":"levelo://app?vid=c9667bec-b4e1-4aba-85da-6ad1e46c0b9d"},"vehicle_type_id":"4","last_reported":1746306487,"current_range_meters":10800,"station_id":"ce4bhk92rcd13ifvqgb0","pricing_plan_id":"cebpf4jnsgd1na2vs0mg"},{"bike_id":"d11ad4ed-5483-4abb-b8ae-c4e0f73880b4","system_id":"levelo_inurba_marseille","lat":43.317146,"lon":5.437014,"is_reserved":false,"is_disabled":false,"rental_uris":{"android":"levelo://app?vid=d11ad4ed-5483-4abb-b8ae-c4e0f73880b4","ios":"levelo://app?vid=d11ad4ed-5483-4abb-b8ae-c4e0f73880b4"},"vehicle_type_id":"4","last_reported":1746306487,"current_range_meters":10800,"station_id":"ce4bhp92rcd13ifvqhcg","pricing_plan_id":"cebpf4jnsgd1na2vs0mg"},{"bike_id":"482f00aa-c3ee-446b-8f24-a1d4dffa2e19","system_id":"levelo_inurba_marseille","lat":43.29886,"lon":5.37645,"is_reserved":false,"is_disabled":false,"rental_uris":{"android":"levelo://app?vid=482f00aa-c3ee-446b-8f24-a1d4dffa2e19","ios":"levelo://app?vid=482f00aa-c3ee-446b-8f24-a1d4dffa2e19"},"vehicle_type_id":"4","last_reported":1746306487,"current_range_meters":10800,"station_id":"","pricing_plan_id":"cebpf4jnsgd1na2vs0mg"},{"bike_id":"e793b3d4-524a-408b-aa06-28a36be5f038","system_id":"levelo_inurba_marseille","lat":43.27686,"lon":5.38869,"is_reserved":false,"is_disabled":false,"rental_uris":{"android":"levelo://app?vid=e793b3d4-524a-408b-aa06-28a36be5f038","ios":"levelo://app?vid=e793b3d4-524a-408b-aa06-28a36be5f038"},"vehicle_type_id":"4","last_reported":1746306487,"current_range_meters":10800,"station_id":"ce4bhi12rcd13ifvqfo0","pricing_plan_id":"cebpf4jnsgd1na2vs0mg"},{"bike_id":"c2921c14-d977-4d00-87f6-16a9fd5d06e9","system_id":"levelo_inurba_marseille","lat":43.29415,"lon":5.38622,"is_reserved":false,"is_disabled":false,"rental_uris":{"android":"levelo://app?vid=c2921c14-d977-4d00-87f6-16a9fd5d06e9","ios":"levelo://app?vid=c2921c14-d977-4d00-87f6-16a9fd5d06e9"},"vehicle_type_id":"4","last_reported":1746306487,"current_range_meters":11200,"station_id":"ce4bh2h2rcd13ifvqdh0","pricing_plan_id":"cebpf4jnsgd1na2vs0mg"},{"bike_id":"ff85802d-0bcd-4a45-9f91-6d6fa0c2c4f0","system_id":"levelo_inurba_marseille","lat":43.30929,"lon":5.40141,"is_reserved":false,"is_disabled":false,"rental_uris":{"android":"levelo://app?vid=ff85802d-0bcd-4a45-9f91-6d6fa0c2c4f0","ios":"levelo://app?vid=ff85802d-0bcd-4a45-9f91-6d6fa0c2c4f0"},"vehicle_type_id":"4","last_reported":1746306487,"current_range_meters":11200,"station_id":"ce4bgvp2rcd13ifvqct0","pricing_plan_id":"cebpf4jnsgd1na2vs0mg"},{"bike_id":"c6063f25-88c2-4ee8-8b47-7eeebc20b14f","system_id":"levelo_inurba_marseille","lat":43.24782,"lon":5.37482,"is_reserved":false,"is_disabled":false,"rental_uris":{"android":"levelo://app?vid=c6063f25-88c2-4ee8-8b47-7eeebc20b14f","ios":"levelo://app?vid=c6063f25-88c2-4ee8-8b47-7eeebc20b14f"},"vehicle_type_id":"4","last_reported":1746306487,"current_range_meters":11200,"station_id":"ce4bhgh2rcd13ifvqfb0","pricing_plan_id":"cebpf4jnsgd1na2vs0mg"},{"bike_id":"b9ea3518-110d-4b53-8654-2d398098a322","system_id":"levelo_inurba_marseille","lat":43.26548,"lon":5.37301,"is_reserved":false,"is_disabled":false,"rental_uris":{"android":"levelo://app?vid=b9ea3518-110d-4b53-8654-2d398098a322","ios":"levelo://app?vid=b9ea3518-110d-4b53-8654-2d398098a322"},"vehicle_type_id":"4","last_reported":1746306487,"current_range_meters":11200,"station_id":"ce4bhg12rcd13ifvqf70","pricing_plan_id":"cebpf4jnsgd1na2vs0mg"},{"bike_id":"4d20eac1-6e10-415a-ba44-9463d913f12f","system_id":"levelo_inurba_marseille","lat":43.29787,"lon":5.39083,"is_reserved":false,"is_disabled":false,"rental_uris":{"android":"levelo://app?vid=4d20eac1-6e10-415a-ba44-9463d913f12f","ios":"levelo://app?vid=4d20eac1-6e10-415a-ba44-9463d913f12f"},"vehicle_type_id":"4","last_reported":1746306487,"current_range_meters":11200,"station_id":"","pricing_plan_id":"cebpf4jnsgd1na2vs0mg"},{"bike_id":"5446a9f2-591b-43c1-ba5e-08a9762a2dd7","system_id":"levelo_inurba_marseille","lat":43.24071,"lon":5.37762,"is_reserved":false,"is_disabled":false,"rental_uris":{"android":"levelo://app?vid=5446a9f2-591b-43c1-ba5e-08a9762a2dd7","ios":"levelo://app?vid=5446a9f2-591b-43c1-ba5e-08a9762a2dd7"},"vehicle_type_id":"4","last_reported":1746306487,"current_range_meters":11200,"station_id":"ce4bhnp2rcd13ifvqgvg","pricing_plan_id":"cebpf4jnsgd1na2vs0mg"},{"bike_id":"fd2c3c67-23a6-4380-b7ca-8f23c8f78921","system_id":"levelo_inurba_marseille","lat":43.32387,"lon":5.36778,"is_reserved":false,"is_disabled":false,"rental_uris":{"android":"levelo://app?vid=fd2c3c67-23a6-4380-b7ca-8f23c8f78921","ios":"levelo://app?vid=fd2c3c67-23a6-4380-b7ca-8f23c8f78921"},"vehicle_type_id":"4","last_reported":1746306487,"current_range_meters":11200,"station_id":"ce4bhsh2rcd13ifvqi2g","pricing_plan_id":"cebpf4jnsgd1na2vs0mg"},{"bike_id":"1f6ed0db-99e6-462e-a3dd-d2316ef597da","system_id":"levelo_inurba_marseille","lat":43.29254,"lon":5.38455,"is_reserved":false,"is_disabled":false,"rental_uris":{"android":"levelo://app?vid=1f6ed0db-99e6-462e-a3dd-d2316ef597da","ios":"levelo://app?vid=1f6ed0db-99e6-462e-a3dd-d2316ef597da"},"vehicle_type_id":"4","last_reported":1746306487,"current_range_meters":11200,"station_id":"ce4bh692rcd13ifvqea0","pricing_plan_id":"cebpf4jnsgd1na2vs0mg"},{"bike_id":"3987225f-d0e9-4c92-a517-13af2d2f300c","system_id":"levelo_inurba_marseille","lat":43.29263,"lon":5.38439,"is_reserved":false,"is_disabled":false,"rental_uris":{"android":"levelo://app?vid=3987225f-d0e9-4c92-a517-13af2d2f300c","ios":"levelo://app?vid=3987225f-d0e9-4c92-a517-13af2d2f300c"},"vehicle_type_id":"4","last_reported":1746306487,"current_range_meters":11600,"station_id":"ce4bh692rcd13ifvqea0","pricing_plan_id":"cebpf4jnsgd1na2vs0mg"},{"bike_id":"973331b4-0ac3-4826-a349-2395352aeb67","system_id":"levelo_inurba_marseille","lat":43.2927,"lon":5.38444,"is_reserved":false,"is_disabled":false,"rental_uris":{"android":"levelo://app?vid=973331b4-0ac3-4826-a349-2395352aeb67","ios":"levelo://app?vid=973331b4-0ac3-4826-a349-2395352aeb67"},"vehicle_type_id":"4","last_reported":1746306487,"current_range_meters":11600,"station_id":"ce4bh692rcd13ifvqea0","pricing_plan_id":"cebpf4jnsgd1na2vs0mg"},{"bike_id":"b18dc88a-13cd-4170-8a5c-c71a620f277d","system_id":"levelo_inurba_marseille","lat":43.28071,"lon":5.39655,"is_reserved":false,"is_disabled":false,"rental_uris":{"android":"levelo://app?vid=b18dc88a-13cd-4170-8a5c-c71a620f277d","ios":"levelo://app?vid=b18dc88a-13cd-4170-8a5c-c71a620f277d"},"vehicle_type_id":"4","last_reported":1746306487,"current_range_meters":11600,"station_id":"ce4bho12rcd13ifvqh2g","pricing_plan_id":"cebpf4jnsgd1na2vs0mg"},{"bike_id":"a37779e7-3d8a-4c82-9997-3090313b05d7","system_id":"levelo_inurba_marseille","lat":43.22926,"lon":5.3537,"is_reserved":false,"is_disabled":true,"rental_uris":{"android":"levelo://app?vid=a37779e7-3d8a-4c82-9997-3090313b05d7","ios":"levelo://app?vid=a37779e7-3d8a-4c82-9997-3090313b05d7"},"vehicle_type_id":"4","last_reported":1746306487,"current_range_meters":11600,"station_id":"cpo3532slgdg3j2ikp40","pricing_plan_id":"cebpf4jnsgd1na2vs0mg"},{"bike_id":"5453d414-cef1-4589-be92-1374fcb92d09","system_id":"levelo_inurba_marseille","lat":43.31352,"lon":5.38512,"is_reserved":false,"is_disabled":false,"rental_uris":{"android":"levelo://app?vid=5453d414-cef1-4589-be92-1374fcb92d09","ios":"levelo://app?vid=5453d414-cef1-4589-be92-1374fcb92d09"},"vehicle_type_id":"4","last_reported":1746306487,"current_range_meters":11600,"station_id":"ce4bgt92rcd13ifvqcf0","pricing_plan_id":"cebpf4jnsgd1na2vs0mg"},{"bike_id":"073ee896-7ffd-4eeb-ba0c-a255d4c8e537","system_id":"levelo_inurba_marseille","lat":43.25719,"lon":5.4111,"is_reserved":false,"is_disabled":false,"rental_uris":{"android":"levelo://app?vid=073ee896-7ffd-4eeb-ba0c-a255d4c8e537","ios":"levelo://app?vid=073ee896-7ffd-4eeb-ba0c-a255d4c8e537"},"vehicle_type_id":"4","last_reported":1746306487,"current_range_meters":11600,"station_id":"ce4bhkp2rcd13ifvqgd0","pricing_plan_id":"cebpf4jnsgd1na2vs0mg"},{"bike_id":"e4856e11-0139-477e-a022-4b979369719b","system_id":"levelo_inurba_marseille","lat":43.23961,"lon":5.36634,"is_reserved":false,"is_disabled":false,"rental_uris":{"android":"levelo://app?vid=e4856e11-0139-477e-a022-4b979369719b","ios":"levelo://app?vid=e4856e11-0139-477e-a022-4b979369719b"},"vehicle_type_id":"4","last_reported":1746306487,"current_range_meters":12000,"station_id":"ce4bhi12rcd13ifvqfp0","pricing_plan_id":"cebpf4jnsgd1na2vs0mg"},{"bike_id":"e453ccb6-7c48-47a5-af2a-b50215a57291","system_id":"levelo_inurba_marseille","lat":43.301445,"lon":5.387771,"is_reserved":false,"is_disabled":false,"rental_uris":{"android":"levelo://app?vid=e453ccb6-7c48-47a5-af2a-b50215a57291","ios":"levelo://app?vid=e453ccb6-7c48-47a5-af2a-b50215a57291"},"vehicle_type_id":"4","last_reported":1746306487,"current_range_meters":12000,"station_id":"","pricing_plan_id":"cebpf4jnsgd1na2vs0mg"},{"bike_id":"687a5313-655b-4bfa-8194-8c7e2480da5b","system_id":"levelo_inurba_marseille","lat":43.2927,"lon":5.38447,"is_reserved":false,"is_disabled":false,"rental_uris":{"android":"levelo://app?vid=687a5313-655b-4bfa-8194-8c7e2480da5b","ios":"levelo://app?vid=687a5313-655b-4bfa-8194-8c7e2480da5b"},"vehicle_type_id":"4","last_reported":1746306487,"current_range_meters":12000,"station_id":"ce4bh692rcd13ifvqea0","pricing_plan_id":"cebpf4jnsgd1na2vs0mg"},{"bike_id":"b8028bbc-e0b2-47d7-951d-2ca751c3d28a","system_id":"levelo_inurba_marseille","lat":43.2781,"lon":5.40716,"is_reserved":false,"is_disabled":false,"rental_uris":{"android":"levelo://app?vid=b8028bbc-e0b2-47d7-951d-2ca751c3d28a","ios":"levelo://app?vid=b8028bbc-e0b2-47d7-951d-2ca751c3d28a"},"vehicle_type_id":"4","last_reported":1746306487,"current_range_meters":12400,"station_id":"ce4bhnh2rcd13ifvqgtg","pricing_plan_id":"cebpf4jnsgd1na2vs0mg"},{"bike_id":"f2bfc461-b92a-4932-b76c-9d28140ad7b7","system_id":"levelo_inurba_marseille","lat":43.31225,"lon":5.36851,"is_reserved":false,"is_disabled":false,"rental_uris":{"android":"levelo://app?vid=f2bfc461-b92a-4932-b76c-9d28140ad7b7","ios":"levelo://app?vid=f2bfc461-b92a-4932-b76c-9d28140ad7b7"},"vehicle_type_id":"4","last_reported":1746306487,"current_range_meters":11600,"station_id":"ce4bgl92rcd13ifvqbq0","pricing_plan_id":"cebpf4jnsgd1na2vs0mg"},{"bike_id":"f6bfa512-27bd-40e1-a7cd-d13ed378a740","system_id":"levelo_inurba_marseille","lat":43.28923,"lon":5.36404,"is_reserved":false,"is_disabled":false,"rental_uris":{"android":"levelo://app?vid=f6bfa512-27bd-40e1-a7cd-d13ed378a740","ios":"levelo://app?vid=f6bfa512-27bd-40e1-a7cd-d13ed378a740"},"vehicle_type_id":"4","last_reported":1746306487,"current_range_meters":12000,"station_id":"ce4bhc92rcd13ifvqetg","pricing_plan_id":"cebpf4jnsgd1na2vs0mg"},{"bike_id":"aedf206f-89f3-4f30-9da6-56fb7ff8915b","system_id":"levelo_inurba_marseille","lat":43.28105,"lon":5.40405,"is_reserved":false,"is_disabled":false,"rental_uris":{"android":"levelo://app?vid=aedf206f-89f3-4f30-9da6-56fb7ff8915b","ios":"levelo://app?vid=aedf206f-89f3-4f30-9da6-56fb7ff8915b"},"vehicle_type_id":"4","last_reported":1746306487,"current_range_meters":12400,"station_id":"","pricing_plan_id":"cebpf4jnsgd1na2vs0mg"},{"bike_id":"c6f8e040-5bf9-4978-ae8c-54656fe006c8","system_id":"levelo_inurba_marseille","lat":43.29774,"lon":5.37109,"is_reserved":false,"is_disabled":false,"rental_uris":{"android":"levelo://app?vid=c6f8e040-5bf9-4978-ae8c-54656fe006c8","ios":"levelo://app?vid=c6f8e040-5bf9-4978-ae8c-54656fe006c8"},"vehicle_type_id":"4","last_reported":1746306487,"current_range_meters":12000,"station_id":"ce4bgop2rcd13ifvqc1g","pricing_plan_id":"cebpf4jnsgd1na2vs0mg"},{"bike_id":"f35268d4-94a8-4701-9e8d-df556eacb339","system_id":"levelo_inurba_marseille","lat":43.23962,"lon":5.36632,"is_reserved":false,"is_disabled":false,"rental_uris":{"android":"levelo://app?vid=f35268d4-94a8-4701-9e8d-df556eacb339","ios":"levelo://app?vid=f35268d4-94a8-4701-9e8d-df556eacb339"},"vehicle_type_id":"4","last_reported":1746306487,"current_range_meters":12000,"station_id":"ce4bhi12rcd13ifvqfp0","pricing_plan_id":"cebpf4jnsgd1na2vs0mg"},{"bike_id":"a0666bf4-5a43-434a-af0c-c46f8a61c241","system_id":"levelo_inurba_marseille","lat":43.29266,"lon":5.38446,"is_reserved":false,"is_disabled":false,"rental_uris":{"android":"levelo://app?vid=a0666bf4-5a43-434a-af0c-c46f8a61c241","ios":"levelo://app?vid=a0666bf4-5a43-434a-af0c-c46f8a61c241"},"vehicle_type_id":"4","last_reported":1746306487,"current_range_meters":12400,"station_id":"ce4bh692rcd13ifvqea0","pricing_plan_id":"cebpf4jnsgd1na2vs0mg"},{"bike_id":"93e72e23-47e3-4d5b-9943-cc438ac53ec6","system_id":"levelo_inurba_marseille","lat":43.27569,"lon":5.38428,"is_reserved":false,"is_disabled":false,"rental_uris":{"android":"levelo://app?vid=93e72e23-47e3-4d5b-9943-cc438ac53ec6","ios":"levelo://app?vid=93e72e23-47e3-4d5b-9943-cc438ac53ec6"},"vehicle_type_id":"4","last_reported":1746306487,"current_range_meters":12000,"station_id":"ce4bhh92rcd13ifvqfi0","pricing_plan_id":"cebpf4jnsgd1na2vs0mg"},{"bike_id":"8be6211e-d1a4-487d-8ad2-db0341818da3","system_id":"levelo_inurba_marseille","lat":43.29255,"lon":5.38444,"is_reserved":false,"is_disabled":false,"rental_uris":{"android":"levelo://app?vid=8be6211e-d1a4-487d-8ad2-db0341818da3","ios":"levelo://app?vid=8be6211e-d1a4-487d-8ad2-db0341818da3"},"vehicle_type_id":"4","last_reported":1746306487,"current_range_meters":12400,"station_id":"ce4bh692rcd13ifvqea0","pricing_plan_id":"cebpf4jnsgd1na2vs0mg"},{"bike_id":"274ad913-cb5d-44ea-8484-26eae07424ea","system_id":"levelo_inurba_marseille","lat":43.258692,"lon":5.399111,"is_reserved":false,"is_disabled":true,"rental_uris":{"android":"levelo://app?vid=274ad913-cb5d-44ea-8484-26eae07424ea","ios":"levelo://app?vid=274ad913-cb5d-44ea-8484-26eae07424ea"},"vehicle_type_id":"4","last_reported":1746306487,"current_range_meters":12400,"station_id":"ce4bhl92rcd13ifvqghg","pricing_plan_id":"cebpf4jnsgd1na2vs0mg"},{"bike_id":"060c4231-f31c-48cf-a21a-eb7af0c41563","system_id":"levelo_inurba_marseille","lat":43.26962,"lon":5.38628,"is_reserved":false,"is_disabled":false,"rental_uris":{"android":"levelo://app?vid=060c4231-f31c-48cf-a21a-eb7af0c41563","ios":"levelo://app?vid=060c4231-f31c-48cf-a21a-eb7af0c41563"},"vehicle_type_id":"4","last_reported":1746306487,"current_range_meters":12400,"station_id":"ce4bhh92rcd13ifvqfh0","pricing_plan_id":"cebpf4jnsgd1na2vs0mg"},{"bike_id":"84d700f6-2f96-487e-a70c-cc0564835950","system_id":"levelo_inurba_marseille","lat":43.29417,"lon":5.38634,"is_reserved":false,"is_disabled":false,"rental_uris":{"android":"levelo://app?vid=84d700f6-2f96-487e-a70c-cc0564835950","ios":"levelo://app?vid=84d700f6-2f96-487e-a70c-cc0564835950"},"vehicle_type_id":"4","last_reported":1746306487,"current_range_meters":12800,"station_id":"ce4bh2h2rcd13ifvqdh0","pricing_plan_id":"cebpf4jnsgd1na2vs0mg"},{"bike_id":"1d59b5c9-cca4-43f9-a7f4-1bb7ebcfb8ae","system_id":"levelo_inurba_marseille","lat":43.27373,"lon":5.362545,"is_reserved":false,"is_disabled":true,"rental_uris":{"android":"levelo://app?vid=1d59b5c9-cca4-43f9-a7f4-1bb7ebcfb8ae","ios":"levelo://app?vid=1d59b5c9-cca4-43f9-a7f4-1bb7ebcfb8ae"},"vehicle_type_id":"4","last_reported":1746306487,"current_range_meters":12800,"station_id":"","pricing_plan_id":"cebpf4jnsgd1na2vs0mg"},{"bike_id":"d7b181be-ee58-4855-b042-8918014bba6f","system_id":"levelo_inurba_marseille","lat":43.28155,"lon":5.42646,"is_reserved":false,"is_disabled":false,"rental_uris":{"android":"levelo://app?vid=d7b181be-ee58-4855-b042-8918014bba6f","ios":"levelo://app?vid=d7b181be-ee58-4855-b042-8918014bba6f"},"vehicle_type_id":"4","last_reported":1746306487,"current_range_meters":12400,"station_id":"ce4bhnh2rcd13ifvqgug","pricing_plan_id":"cebpf4jnsgd1na2vs0mg"},{"bike_id":"4e69ffd7-c5cc-48d5-a5b0-f7f4fbcce5c9","system_id":"levelo_inurba_marseille","lat":43.27831,"lon":5.39222,"is_reserved":false,"is_disabled":false,"rental_uris":{"android":"levelo://app?vid=4e69ffd7-c5cc-48d5-a5b0-f7f4fbcce5c9","ios":"levelo://app?vid=4e69ffd7-c5cc-48d5-a5b0-f7f4fbcce5c9"},"vehicle_type_id":"4","last_reported":1746306487,"current_range_meters":12800,"station_id":"ce4bhjp2rcd13ifvqga0","pricing_plan_id":"cebpf4jnsgd1na2vs0mg"},{"bike_id":"3bd56796-a588-4245-b00a-65ccc252ae20","system_id":"levelo_inurba_marseille","lat":43.32339,"lon":5.40614,"is_reserved":false,"is_disabled":false,"rental_uris":{"android":"levelo://app?vid=3bd56796-a588-4245-b00a-65ccc252ae20","ios":"levelo://app?vid=3bd56796-a588-4245-b00a-65ccc252ae20"},"vehicle_type_id":"4","last_reported":1746306487,"current_range_meters":12800,"station_id":"ce4bhq92rcd13ifvqhjg","pricing_plan_id":"cebpf4jnsgd1na2vs0mg"},{"bike_id":"6338e318-2f80-4349-ae11-615c887b4fb9","system_id":"levelo_inurba_marseille","lat":43.25936,"lon":5.40854,"is_reserved":false,"is_disabled":false,"rental_uris":{"android":"levelo://app?vid=6338e318-2f80-4349-ae11-615c887b4fb9","ios":"levelo://app?vid=6338e318-2f80-4349-ae11-615c887b4fb9"},"vehicle_type_id":"4","last_reported":1746306487,"current_range_meters":12800,"station_id":"ce4bhm92rcd13ifvqglg","pricing_plan_id":"cebpf4jnsgd1na2vs0mg"},{"bike_id":"d89d505d-883e-4cce-919b-4f18f9cfd11d","system_id":"levelo_inurba_marseille","lat":43.27907,"lon":5.38007,"is_reserved":false,"is_disabled":false,"rental_uris":{"android":"levelo://app?vid=d89d505d-883e-4cce-919b-4f18f9cfd11d","ios":"levelo://app?vid=d89d505d-883e-4cce-919b-4f18f9cfd11d"},"vehicle_type_id":"4","last_reported":1746306487,"current_range_meters":12400,"station_id":"ce4bhf92rcd13ifvqf50","pricing_plan_id":"cebpf4jnsgd1na2vs0mg"},{"bike_id":"02835caf-942f-4fbc-9430-3f943e9f207e","system_id":"levelo_inurba_marseille","lat":43.29922,"lon":5.37474,"is_reserved":false,"is_disabled":false,"rental_uris":{"android":"levelo://app?vid=02835caf-942f-4fbc-9430-3f943e9f207e","ios":"levelo://app?vid=02835caf-942f-4fbc-9430-3f943e9f207e"},"vehicle_type_id":"4","last_reported":1746306487,"current_range_meters":13600,"station_id":"ce4bgjh2rcd13ifvqbg0","pricing_plan_id":"cebpf4jnsgd1na2vs0mg"},{"bike_id":"72962faf-d3bc-4ddf-8e4e-764663ae385e","system_id":"levelo_inurba_marseille","lat":43.28707,"lon":5.39981,"is_reserved":false,"is_disabled":false,"rental_uris":{"android":"levelo://app?vid=72962faf-d3bc-4ddf-8e4e-764663ae385e","ios":"levelo://app?vid=72962faf-d3bc-4ddf-8e4e-764663ae385e"},"vehicle_type_id":"4","last_reported":1746306487,"current_range_meters":12400,"station_id":"ce4bho92rcd13ifvqh3g","pricing_plan_id":"cebpf4jnsgd1na2vs0mg"},{"bike_id":"03848bfd-762d-4444-ba9b-bc6bd21e0332","system_id":"levelo_inurba_marseille","lat":43.311639,"lon":5.377539,"is_reserved":false,"is_disabled":false,"rental_uris":{"android":"levelo://app?vid=03848bfd-762d-4444-ba9b-bc6bd21e0332","ios":"levelo://app?vid=03848bfd-762d-4444-ba9b-bc6bd21e0332"},"vehicle_type_id":"4","last_reported":1746306487,"current_range_meters":13600,"station_id":"ce4bgt92rcd13ifvqcg0","pricing_plan_id":"cebpf4jnsgd1na2vs0mg"},{"bike_id":"4cd32815-4894-41a0-9a3d-e6c837dcaeea","system_id":"levelo_inurba_marseille","lat":43.299728,"lon":5.384929,"is_reserved":false,"is_disabled":true,"rental_uris":{"android":"levelo://app?vid=4cd32815-4894-41a0-9a3d-e6c837dcaeea","ios":"levelo://app?vid=4cd32815-4894-41a0-9a3d-e6c837dcaeea"},"vehicle_type_id":"4","last_reported":1746306487,"current_range_meters":13600,"station_id":"ce4bgj92rcd13ifvqbd0","pricing_plan_id":"cebpf4jnsgd1na2vs0mg"},{"bike_id":"ff9ad7c5-499b-41d7-afd7-753de1422db3","system_id":"levelo_inurba_marseille","lat":43.28441,"lon":5.3917,"is_reserved":false,"is_disabled":false,"rental_uris":{"android":"levelo://app?vid=ff9ad7c5-499b-41d7-afd7-753de1422db3","ios":"levelo://app?vid=ff9ad7c5-499b-41d7-afd7-753de1422db3"},"vehicle_type_id":"4","last_reported":1746306487,"current_range_meters":13600,"station_id":"ce4bhoh2rcd13ifvqh5g","pricing_plan_id":"cebpf4jnsgd1na2vs0mg"},{"bike_id":"b58e25ac-fe1f-4788-92e1-9ce65ce7ec55","system_id":"levelo_inurba_marseille","lat":43.245472,"lon":5.395212,"is_reserved":false,"is_disabled":false,"rental_uris":{"android":"levelo://app?vid=b58e25ac-fe1f-4788-92e1-9ce65ce7ec55","ios":"levelo://app?vid=b58e25ac-fe1f-4788-92e1-9ce65ce7ec55"},"vehicle_type_id":"4","last_reported":1746306487,"current_range_meters":13600,"station_id":"ce4bhlp2rcd13ifvqgjg","pricing_plan_id":"cebpf4jnsgd1na2vs0mg"},{"bike_id":"e2bfb7be-d253-4cda-a036-0a8a34aefdc2","system_id":"levelo_inurba_marseille","lat":43.264988,"lon":5.395229,"is_reserved":false,"is_disabled":false,"rental_uris":{"android":"levelo://app?vid=e2bfb7be-d253-4cda-a036-0a8a34aefdc2","ios":"levelo://app?vid=e2bfb7be-d253-4cda-a036-0a8a34aefdc2"},"vehicle_type_id":"4","last_reported":1746306487,"current_range_meters":13600,"station_id":"ce4bhi12rcd13ifvqfq0","pricing_plan_id":"cebpf4jnsgd1na2vs0mg"},{"bike_id":"26681c7f-a9b3-4854-808d-b72da1c77ee9","system_id":"levelo_inurba_marseille","lat":43.30653,"lon":5.40099,"is_reserved":false,"is_disabled":false,"rental_uris":{"android":"levelo://app?vid=26681c7f-a9b3-4854-808d-b72da1c77ee9","ios":"levelo://app?vid=26681c7f-a9b3-4854-808d-b72da1c77ee9"},"vehicle_type_id":"4","last_reported":1746306487,"current_range_meters":14000,"station_id":"ce4bh112rcd13ifvqda0","pricing_plan_id":"cebpf4jnsgd1na2vs0mg"},{"bike_id":"39b66824-32e8-4e14-97a9-1519db792fae","system_id":"levelo_inurba_marseille","lat":43.31217,"lon":5.36852,"is_reserved":false,"is_disabled":false,"rental_uris":{"android":"levelo://app?vid=39b66824-32e8-4e14-97a9-1519db792fae","ios":"levelo://app?vid=39b66824-32e8-4e14-97a9-1519db792fae"},"vehicle_type_id":"4","last_reported":1746306487,"current_range_meters":14000,"station_id":"ce4bgl92rcd13ifvqbq0","pricing_plan_id":"cebpf4jnsgd1na2vs0mg"},{"bike_id":"95f97665-341f-4b0c-b46e-ad5f323448b6","system_id":"levelo_inurba_marseille","lat":43.29915,"lon":5.37469,"is_reserved":false,"is_disabled":false,"rental_uris":{"android":"levelo://app?vid=95f97665-341f-4b0c-b46e-ad5f323448b6","ios":"levelo://app?vid=95f97665-341f-4b0c-b46e-ad5f323448b6"},"vehicle_type_id":"4","last_reported":1746306487,"current_range_meters":14000,"station_id":"ce4bgjh2rcd13ifvqbg0","pricing_plan_id":"cebpf4jnsgd1na2vs0mg"},{"bike_id":"3e84121a-71ad-4261-b6a9-37316f8cbd59","system_id":"levelo_inurba_marseille","lat":43.290229,"lon":5.386458,"is_reserved":false,"is_disabled":true,"rental_uris":{"android":"levelo://app?vid=3e84121a-71ad-4261-b6a9-37316f8cbd59","ios":"levelo://app?vid=3e84121a-71ad-4261-b6a9-37316f8cbd59"},"vehicle_type_id":"4","last_reported":1746306487,"current_range_meters":14000,"station_id":"ce4bh4p2rcd13ifvqe0g","pricing_plan_id":"cebpf4jnsgd1na2vs0mg"},{"bike_id":"a9c466a4-ebf3-48b6-a9e6-f7720a5c52dd","system_id":"levelo_inurba_marseille","lat":43.29409,"lon":5.38619,"is_reserved":false,"is_disabled":false,"rental_uris":{"android":"levelo://app?vid=a9c466a4-ebf3-48b6-a9e6-f7720a5c52dd","ios":"levelo://app?vid=a9c466a4-ebf3-48b6-a9e6-f7720a5c52dd"},"vehicle_type_id":"4","last_reported":1746306487,"current_range_meters":14400,"station_id":"ce4bh2h2rcd13ifvqdh0","pricing_plan_id":"cebpf4jnsgd1na2vs0mg"},{"bike_id":"c70388ce-12a4-4ea7-8419-8ce79239f3bf","system_id":"levelo_inurba_marseille","lat":43.29519,"lon":5.38549,"is_reserved":false,"is_disabled":false,"rental_uris":{"android":"levelo://app?vid=c70388ce-12a4-4ea7-8419-8ce79239f3bf","ios":"levelo://app?vid=c70388ce-12a4-4ea7-8419-8ce79239f3bf"},"vehicle_type_id":"4","last_reported":1746306487,"current_range_meters":14400,"station_id":"ce4bgih2rcd13ifvqba0","pricing_plan_id":"cebpf4jnsgd1na2vs0mg"},{"bike_id":"52b2b11c-fa93-4c1e-a120-3fdc360b4a73","system_id":"levelo_inurba_marseille","lat":43.28048,"lon":5.36942,"is_reserved":false,"is_disabled":false,"rental_uris":{"android":"levelo://app?vid=52b2b11c-fa93-4c1e-a120-3fdc360b4a73","ios":"levelo://app?vid=52b2b11c-fa93-4c1e-a120-3fdc360b4a73"},"vehicle_type_id":"4","last_reported":1746306487,"current_range_meters":14400,"station_id":"ce4bha12rcd13ifvqef0","pricing_plan_id":"cebpf4jnsgd1na2vs0mg"},{"bike_id":"e55fd5af-37f4-4b6d-baac-d987b6a25545","system_id":"levelo_inurba_marseille","lat":43.301313,"lon":5.398717,"is_reserved":false,"is_disabled":false,"rental_uris":{"android":"levelo://app?vid=e55fd5af-37f4-4b6d-baac-d987b6a25545","ios":"levelo://app?vid=e55fd5af-37f4-4b6d-baac-d987b6a25545"},"vehicle_type_id":"4","last_reported":1746306487,"current_range_meters":14800,"station_id":"ce4bh0h2rcd13ifvqd40","pricing_plan_id":"cebpf4jnsgd1na2vs0mg"},{"bike_id":"fc6a36bc-7ba2-40ea-bbe0-e8851bad0c28","system_id":"levelo_inurba_marseille","lat":43.28848,"lon":5.39326,"is_reserved":false,"is_disabled":false,"rental_uris":{"android":"levelo://app?vid=fc6a36bc-7ba2-40ea-bbe0-e8851bad0c28","ios":"levelo://app?vid=fc6a36bc-7ba2-40ea-bbe0-e8851bad0c28"},"vehicle_type_id":"4","last_reported":1746306487,"current_range_meters":14800,"station_id":"ce4bh2p2rcd13ifvqdi0","pricing_plan_id":"cebpf4jnsgd1na2vs0mg"},{"bike_id":"73b86ef6-a1fd-469d-9745-4e2b9ac701fa","system_id":"levelo_inurba_marseille","lat":43.27834,"lon":5.39218,"is_reserved":false,"is_disabled":false,"rental_uris":{"android":"levelo://app?vid=73b86ef6-a1fd-469d-9745-4e2b9ac701fa","ios":"levelo://app?vid=73b86ef6-a1fd-469d-9745-4e2b9ac701fa"},"vehicle_type_id":"4","last_reported":1746306487,"current_range_meters":14400,"station_id":"ce4bhjp2rcd13ifvqga0","pricing_plan_id":"cebpf4jnsgd1na2vs0mg"},{"bike_id":"fc532d5d-4a35-4b8e-a0d5-96c5e2b5ffcd","system_id":"levelo_inurba_marseille","lat":43.29583,"lon":5.37499,"is_reserved":false,"is_disabled":false,"rental_uris":{"android":"levelo://app?vid=fc532d5d-4a35-4b8e-a0d5-96c5e2b5ffcd","ios":"levelo://app?vid=fc532d5d-4a35-4b8e-a0d5-96c5e2b5ffcd"},"vehicle_type_id":"4","last_reported":1746306487,"current_range_meters":15200,"station_id":"ce4bgh92rcd13ifvqb50","pricing_plan_id":"cebpf4jnsgd1na2vs0mg"},{"bike_id":"a124f25e-b867-4c63-a86e-8c6c46cf2ec8","system_id":"levelo_inurba_marseille","lat":43.31227,"lon":5.36865,"is_reserved":false,"is_disabled":false,"rental_uris":{"android":"levelo://app?vid=a124f25e-b867-4c63-a86e-8c6c46cf2ec8","ios":"levelo://app?vid=a124f25e-b867-4c63-a86e-8c6c46cf2ec8"},"vehicle_type_id":"4","last_reported":1746306487,"current_range_meters":14800,"station_id":"ce4bgl92rcd13ifvqbq0","pricing_plan_id":"cebpf4jnsgd1na2vs0mg"},{"bike_id":"42aa5df6-7b6e-4ece-a165-d3a51389cf8a","system_id":"levelo_inurba_marseille","lat":43.2807,"lon":5.39647,"is_reserved":false,"is_disabled":false,"rental_uris":{"android":"levelo://app?vid=42aa5df6-7b6e-4ece-a165-d3a51389cf8a","ios":"levelo://app?vid=42aa5df6-7b6e-4ece-a165-d3a51389cf8a"},"vehicle_type_id":"4","last_reported":1746306487,"current_range_meters":15200,"station_id":"ce4bho12rcd13ifvqh2g","pricing_plan_id":"cebpf4jnsgd1na2vs0mg"},{"bike_id":"f5adbbdd-5b4f-4fe9-81e4-22abfa51995d","system_id":"levelo_inurba_marseille","lat":43.2942,"lon":5.38631,"is_reserved":false,"is_disabled":false,"rental_uris":{"android":"levelo://app?vid=f5adbbdd-5b4f-4fe9-81e4-22abfa51995d","ios":"levelo://app?vid=f5adbbdd-5b4f-4fe9-81e4-22abfa51995d"},"vehicle_type_id":"4","last_reported":1746306487,"current_range_meters":15200,"station_id":"ce4bh2h2rcd13ifvqdh0","pricing_plan_id":"cebpf4jnsgd1na2vs0mg"},{"bike_id":"bf97f516-0373-4a5c-add8-29bfe5bec158","system_id":"levelo_inurba_marseille","lat":43.23151,"lon":5.43722,"is_reserved":false,"is_disabled":false,"rental_uris":{"android":"levelo://app?vid=bf97f516-0373-4a5c-add8-29bfe5bec158","ios":"levelo://app?vid=bf97f516-0373-4a5c-add8-29bfe5bec158"},"vehicle_type_id":"4","last_reported":1746306487,"current_range_meters":15200,"station_id":"ce4bhmp2rcd13ifvqgog","pricing_plan_id":"cebpf4jnsgd1na2vs0mg"},{"bike_id":"2dd369dd-e675-4da6-be03-73ff5354bd10","system_id":"levelo_inurba_marseille","lat":43.28716,"lon":5.373658,"is_reserved":false,"is_disabled":false,"rental_uris":{"android":"levelo://app?vid=2dd369dd-e675-4da6-be03-73ff5354bd10","ios":"levelo://app?vid=2dd369dd-e675-4da6-be03-73ff5354bd10"},"vehicle_type_id":"4","last_reported":1746306487,"current_range_meters":15200,"station_id":"ce4bh3p2rcd13ifvqdq0","pricing_plan_id":"cebpf4jnsgd1na2vs0mg"},{"bike_id":"45e5406b-3f46-4269-ad1a-ff7df61e88e0","system_id":"levelo_inurba_marseille","lat":43.29265,"lon":5.38444,"is_reserved":false,"is_disabled":false,"rental_uris":{"android":"levelo://app?vid=45e5406b-3f46-4269-ad1a-ff7df61e88e0","ios":"levelo://app?vid=45e5406b-3f46-4269-ad1a-ff7df61e88e0"},"vehicle_type_id":"4","last_reported":1746306487,"current_range_meters":16000,"station_id":"ce4bh692rcd13ifvqea0","pricing_plan_id":"cebpf4jnsgd1na2vs0mg"},{"bike_id":"b51e8583-0fb2-49ca-9c11-9dbce28dfa5d","system_id":"levelo_inurba_marseille","lat":43.231938,"lon":5.355503,"is_reserved":false,"is_disabled":false,"rental_uris":{"android":"levelo://app?vid=b51e8583-0fb2-49ca-9c11-9dbce28dfa5d","ios":"levelo://app?vid=b51e8583-0fb2-49ca-9c11-9dbce28dfa5d"},"vehicle_type_id":"4","last_reported":1746306487,"current_range_meters":16000,"station_id":"ce4bhu92rcd13ifvqi70","pricing_plan_id":"cebpf4jnsgd1na2vs0mg"},{"bike_id":"a5b4534c-e8a9-42ad-889e-f11268fa61a7","system_id":"levelo_inurba_marseille","lat":43.29417,"lon":5.3863,"is_reserved":false,"is_disabled":false,"rental_uris":{"android":"levelo://app?vid=a5b4534c-e8a9-42ad-889e-f11268fa61a7","ios":"levelo://app?vid=a5b4534c-e8a9-42ad-889e-f11268fa61a7"},"vehicle_type_id":"4","last_reported":1746306487,"current_range_meters":16000,"station_id":"ce4bh2h2rcd13ifvqdh0","pricing_plan_id":"cebpf4jnsgd1na2vs0mg"},{"bike_id":"aa968411-97dd-4910-a329-e7b82d99bf19","system_id":"levelo_inurba_marseille","lat":43.30779,"lon":5.37648,"is_reserved":false,"is_disabled":false,"rental_uris":{"android":"levelo://app?vid=aa968411-97dd-4910-a329-e7b82d99bf19","ios":"levelo://app?vid=aa968411-97dd-4910-a329-e7b82d99bf19"},"vehicle_type_id":"4","last_reported":1746306487,"current_range_meters":16000,"station_id":"ce4bgv92rcd13ifvqcq0","pricing_plan_id":"cebpf4jnsgd1na2vs0mg"},{"bike_id":"62833c51-00b3-43f2-9ca0-3fb0b91c3c0a","system_id":"levelo_inurba_marseille","lat":43.31352,"lon":5.38499,"is_reserved":false,"is_disabled":false,"rental_uris":{"android":"levelo://app?vid=62833c51-00b3-43f2-9ca0-3fb0b91c3c0a","ios":"levelo://app?vid=62833c51-00b3-43f2-9ca0-3fb0b91c3c0a"},"vehicle_type_id":"4","last_reported":1746306487,"current_range_meters":16000,"station_id":"ce4bgt92rcd13ifvqcf0","pricing_plan_id":"cebpf4jnsgd1na2vs0mg"},{"bike_id":"e14f0e0b-57ce-42d5-80f6-e3d891b564d1","system_id":"levelo_inurba_marseille","lat":43.27075,"lon":5.42268,"is_reserved":false,"is_disabled":false,"rental_uris":{"android":"levelo://app?vid=e14f0e0b-57ce-42d5-80f6-e3d891b564d1","ios":"levelo://app?vid=e14f0e0b-57ce-42d5-80f6-e3d891b564d1"},"vehicle_type_id":"4","last_reported":1746306487,"current_range_meters":16000,"station_id":"ce4bhk92rcd13ifvqgb0","pricing_plan_id":"cebpf4jnsgd1na2vs0mg"},{"bike_id":"fb80c1da-d845-467b-9c3b-2f591f4d56ae","system_id":"levelo_inurba_marseille","lat":43.323406,"lon":5.37422,"is_reserved":false,"is_disabled":false,"rental_uris":{"android":"levelo://app?vid=fb80c1da-d845-467b-9c3b-2f591f4d56ae","ios":"levelo://app?vid=fb80c1da-d845-467b-9c3b-2f591f4d56ae"},"vehicle_type_id":"4","last_reported":1746306487,"current_range_meters":16400,"station_id":"","pricing_plan_id":"cebpf4jnsgd1na2vs0mg"},{"bike_id":"57b577a6-05e4-403f-8e08-8a8bb593ff51","system_id":"levelo_inurba_marseille","lat":43.28943,"lon":5.36626,"is_reserved":false,"is_disabled":true,"rental_uris":{"android":"levelo://app?vid=57b577a6-05e4-403f-8e08-8a8bb593ff51","ios":"levelo://app?vid=57b577a6-05e4-403f-8e08-8a8bb593ff51"},"vehicle_type_id":"4","last_reported":1746306487,"current_range_meters":16400,"station_id":"ce4bhap2rcd13ifvqek0","pricing_plan_id":"cebpf4jnsgd1na2vs0mg"},{"bike_id":"2f253395-3465-4c2f-8f96-0677d9517199","system_id":"levelo_inurba_marseille","lat":43.29262,"lon":5.38453,"is_reserved":false,"is_disabled":false,"rental_uris":{"android":"levelo://app?vid=2f253395-3465-4c2f-8f96-0677d9517199","ios":"levelo://app?vid=2f253395-3465-4c2f-8f96-0677d9517199"},"vehicle_type_id":"4","last_reported":1746306487,"current_range_meters":16400,"station_id":"ce4bh692rcd13ifvqea0","pricing_plan_id":"cebpf4jnsgd1na2vs0mg"},{"bike_id":"ebb3d409-a942-472a-92de-d86c8cef9261","system_id":"levelo_inurba_marseille","lat":43.24386,"lon":5.37053,"is_reserved":false,"is_disabled":false,"rental_uris":{"android":"levelo://app?vid=ebb3d409-a942-472a-92de-d86c8cef9261","ios":"levelo://app?vid=ebb3d409-a942-472a-92de-d86c8cef9261"},"vehicle_type_id":"4","last_reported":1746306487,"current_range_meters":16400,"station_id":"ce4bhhh2rcd13ifvqfk0","pricing_plan_id":"cebpf4jnsgd1na2vs0mg"},{"bike_id":"afe26da8-c150-4841-946f-711e82647dd0","system_id":"levelo_inurba_marseille","lat":43.29268,"lon":5.38446,"is_reserved":false,"is_disabled":false,"rental_uris":{"android":"levelo://app?vid=afe26da8-c150-4841-946f-711e82647dd0","ios":"levelo://app?vid=afe26da8-c150-4841-946f-711e82647dd0"},"vehicle_type_id":"4","last_reported":1746306487,"current_range_meters":16400,"station_id":"ce4bh692rcd13ifvqea0","pricing_plan_id":"cebpf4jnsgd1na2vs0mg"},{"bike_id":"7f94af4d-81ec-4f11-8ad5-90fb2fdafca2","system_id":"levelo_inurba_marseille","lat":43.28012,"lon":5.36948,"is_reserved":false,"is_disabled":false,"rental_uris":{"android":"levelo://app?vid=7f94af4d-81ec-4f11-8ad5-90fb2fdafca2","ios":"levelo://app?vid=7f94af4d-81ec-4f11-8ad5-90fb2fdafca2"},"vehicle_type_id":"4","last_reported":1746306487,"current_range_meters":16400,"station_id":"ce4bha12rcd13ifvqef0","pricing_plan_id":"cebpf4jnsgd1na2vs0mg"},{"bike_id":"377a50af-940e-4162-b907-c8d8e911d094","system_id":"levelo_inurba_marseille","lat":43.29436,"lon":5.38583,"is_reserved":false,"is_disabled":false,"rental_uris":{"android":"levelo://app?vid=377a50af-940e-4162-b907-c8d8e911d094","ios":"levelo://app?vid=377a50af-940e-4162-b907-c8d8e911d094"},"vehicle_type_id":"4","last_reported":1746306487,"current_range_meters":16400,"station_id":"ce4bh2h2rcd13ifvqdh0","pricing_plan_id":"cebpf4jnsgd1na2vs0mg"},{"bike_id":"2e77da1e-29de-44e8-bf46-95df44d856e9","system_id":"levelo_inurba_marseille","lat":43.29417,"lon":5.38613,"is_reserved":false,"is_disabled":false,"rental_uris":{"android":"levelo://app?vid=2e77da1e-29de-44e8-bf46-95df44d856e9","ios":"levelo://app?vid=2e77da1e-29de-44e8-bf46-95df44d856e9"},"vehicle_type_id":"4","last_reported":1746306487,"current_range_meters":16400,"station_id":"ce4bh2h2rcd13ifvqdh0","pricing_plan_id":"cebpf4jnsgd1na2vs0mg"},{"bike_id":"a82e1b14-54e0-4bd4-b02f-692e7f71524b","system_id":"levelo_inurba_marseille","lat":43.29423,"lon":5.3861,"is_reserved":false,"is_disabled":false,"rental_uris":{"android":"levelo://app?vid=a82e1b14-54e0-4bd4-b02f-692e7f71524b","ios":"levelo://app?vid=a82e1b14-54e0-4bd4-b02f-692e7f71524b"},"vehicle_type_id":"4","last_reported":1746306487,"current_range_meters":16400,"station_id":"ce4bh2h2rcd13ifvqdh0","pricing_plan_id":"cebpf4jnsgd1na2vs0mg"},{"bike_id":"4cc851da-e1ec-42ff-95e4-8b92ad8a1e2f","system_id":"levelo_inurba_marseille","lat":43.300307,"lon":5.401747,"is_reserved":false,"is_disabled":false,"rental_uris":{"android":"levelo://app?vid=4cc851da-e1ec-42ff-95e4-8b92ad8a1e2f","ios":"levelo://app?vid=4cc851da-e1ec-42ff-95e4-8b92ad8a1e2f"},"vehicle_type_id":"4","last_reported":1746306487,"current_range_meters":16400,"station_id":"","pricing_plan_id":"cebpf4jnsgd1na2vs0mg"},{"bike_id":"ed2bb2c0-0169-44b4-994e-e3a453cd8966","system_id":"levelo_inurba_marseille","lat":43.24805,"lon":5.37451,"is_reserved":false,"is_disabled":false,"rental_uris":{"android":"levelo://app?vid=ed2bb2c0-0169-44b4-994e-e3a453cd8966","ios":"levelo://app?vid=ed2bb2c0-0169-44b4-994e-e3a453cd8966"},"vehicle_type_id":"4","last_reported":1746306487,"current_range_meters":16400,"station_id":"ce4bhgh2rcd13ifvqfb0","pricing_plan_id":"cebpf4jnsgd1na2vs0mg"},{"bike_id":"437a36a1-0b4a-4bb8-89dd-30a4379415e7","system_id":"levelo_inurba_marseille","lat":43.29593,"lon":5.38088,"is_reserved":false,"is_disabled":false,"rental_uris":{"android":"levelo://app?vid=437a36a1-0b4a-4bb8-89dd-30a4379415e7","ios":"levelo://app?vid=437a36a1-0b4a-4bb8-89dd-30a4379415e7"},"vehicle_type_id":"4","last_reported":1746306487,"current_range_meters":16800,"station_id":"ce4bgl12rcd13ifvqbo0","pricing_plan_id":"cebpf4jnsgd1na2vs0mg"},{"bike_id":"c9c0ffdb-aaab-40a5-aa8c-97dfd85a8dca","system_id":"levelo_inurba_marseille","lat":43.31531,"lon":5.38038,"is_reserved":false,"is_disabled":false,"rental_uris":{"android":"levelo://app?vid=c9c0ffdb-aaab-40a5-aa8c-97dfd85a8dca","ios":"levelo://app?vid=c9c0ffdb-aaab-40a5-aa8c-97dfd85a8dca"},"vehicle_type_id":"4","last_reported":1746306487,"current_range_meters":16400,"station_id":"ce4bhsp2rcd13ifvqi50","pricing_plan_id":"cebpf4jnsgd1na2vs0mg"},{"bike_id":"2daf09ec-1696-4167-9e55-54a2898d3406","system_id":"levelo_inurba_marseille","lat":43.31358,"lon":5.38489,"is_reserved":false,"is_disabled":false,"rental_uris":{"android":"levelo://app?vid=2daf09ec-1696-4167-9e55-54a2898d3406","ios":"levelo://app?vid=2daf09ec-1696-4167-9e55-54a2898d3406"},"vehicle_type_id":"4","last_reported":1746306487,"current_range_meters":16800,"station_id":"ce4bgt92rcd13ifvqcf0","pricing_plan_id":"cebpf4jnsgd1na2vs0mg"},{"bike_id":"f0f88df4-916a-40a3-931a-95b5db28b2df","system_id":"levelo_inurba_marseille","lat":43.29524,"lon":5.3904,"is_reserved":false,"is_disabled":false,"rental_uris":{"android":"levelo://app?vid=f0f88df4-916a-40a3-931a-95b5db28b2df","ios":"levelo://app?vid=f0f88df4-916a-40a3-931a-95b5db28b2df"},"vehicle_type_id":"4","last_reported":1746306487,"current_range_meters":16800,"station_id":"ce4bh3p2rcd13ifvqdp0","pricing_plan_id":"cebpf4jnsgd1na2vs0mg"},{"bike_id":"84f8590e-e62c-455d-9352-00a5d95a85c5","system_id":"levelo_inurba_marseille","lat":43.30328,"lon":5.40439,"is_reserved":false,"is_disabled":false,"rental_uris":{"android":"levelo://app?vid=84f8590e-e62c-455d-9352-00a5d95a85c5","ios":"levelo://app?vid=84f8590e-e62c-455d-9352-00a5d95a85c5"},"vehicle_type_id":"4","last_reported":1746306487,"current_range_meters":16800,"station_id":"ce4bh012rcd13ifvqd10","pricing_plan_id":"cebpf4jnsgd1na2vs0mg"},{"bike_id":"c2ba4a3c-285d-44be-ac42-234c433ab8e3","system_id":"levelo_inurba_marseille","lat":43.287023,"lon":5.373748,"is_reserved":false,"is_disabled":false,"rental_uris":{"android":"levelo://app?vid=c2ba4a3c-285d-44be-ac42-234c433ab8e3","ios":"levelo://app?vid=c2ba4a3c-285d-44be-ac42-234c433ab8e3"},"vehicle_type_id":"4","last_reported":1746306487,"current_range_meters":17200,"station_id":"ce4bh3p2rcd13ifvqdq0","pricing_plan_id":"cebpf4jnsgd1na2vs0mg"},{"bike_id":"459e633a-9a5a-4d53-ae84-68a4b6105a86","system_id":"levelo_inurba_marseille","lat":43.30782,"lon":5.37648,"is_reserved":false,"is_disabled":false,"rental_uris":{"android":"levelo://app?vid=459e633a-9a5a-4d53-ae84-68a4b6105a86","ios":"levelo://app?vid=459e633a-9a5a-4d53-ae84-68a4b6105a86"},"vehicle_type_id":"4","last_reported":1746306487,"current_range_meters":17200,"station_id":"ce4bgv92rcd13ifvqcq0","pricing_plan_id":"cebpf4jnsgd1na2vs0mg"},{"bike_id":"f0054bf8-e6c7-4842-94ab-f21167449ef7","system_id":"levelo_inurba_marseille","lat":43.29278,"lon":5.38438,"is_reserved":false,"is_disabled":false,"rental_uris":{"android":"levelo://app?vid=f0054bf8-e6c7-4842-94ab-f21167449ef7","ios":"levelo://app?vid=f0054bf8-e6c7-4842-94ab-f21167449ef7"},"vehicle_type_id":"4","last_reported":1746306487,"current_range_meters":17200,"station_id":"ce4bh692rcd13ifvqea0","pricing_plan_id":"cebpf4jnsgd1na2vs0mg"},{"bike_id":"0283fb21-7415-49fd-9a5a-f73639f75e70","system_id":"levelo_inurba_marseille","lat":43.29264,"lon":5.38448,"is_reserved":false,"is_disabled":false,"rental_uris":{"android":"levelo://app?vid=0283fb21-7415-49fd-9a5a-f73639f75e70","ios":"levelo://app?vid=0283fb21-7415-49fd-9a5a-f73639f75e70"},"vehicle_type_id":"4","last_reported":1746306487,"current_range_meters":17200,"station_id":"ce4bh692rcd13ifvqea0","pricing_plan_id":"cebpf4jnsgd1na2vs0mg"},{"bike_id":"a3e9038e-4f54-4aa7-8c5b-b1fe8ab46bfe","system_id":"levelo_inurba_marseille","lat":43.27908,"lon":5.38017,"is_reserved":false,"is_disabled":false,"rental_uris":{"android":"levelo://app?vid=a3e9038e-4f54-4aa7-8c5b-b1fe8ab46bfe","ios":"levelo://app?vid=a3e9038e-4f54-4aa7-8c5b-b1fe8ab46bfe"},"vehicle_type_id":"4","last_reported":1746306487,"current_range_meters":17200,"station_id":"ce4bhf92rcd13ifvqf50","pricing_plan_id":"cebpf4jnsgd1na2vs0mg"},{"bike_id":"e7e7ccc9-d3b3-42d0-9b5b-a17380cdc76e","system_id":"levelo_inurba_marseille","lat":43.28659,"lon":5.36361,"is_reserved":false,"is_disabled":false,"rental_uris":{"android":"levelo://app?vid=e7e7ccc9-d3b3-42d0-9b5b-a17380cdc76e","ios":"levelo://app?vid=e7e7ccc9-d3b3-42d0-9b5b-a17380cdc76e"},"vehicle_type_id":"4","last_reported":1746306487,"current_range_meters":16800,"station_id":"ce4bhah2rcd13ifvqej0","pricing_plan_id":"cebpf4jnsgd1na2vs0mg"},{"bike_id":"846ab101-44a4-4989-afc8-f830a5499e34","system_id":"levelo_inurba_marseille","lat":43.31324,"lon":5.397,"is_reserved":false,"is_disabled":false,"rental_uris":{"android":"levelo://app?vid=846ab101-44a4-4989-afc8-f830a5499e34","ios":"levelo://app?vid=846ab101-44a4-4989-afc8-f830a5499e34"},"vehicle_type_id":"4","last_reported":1746306487,"current_range_meters":16800,"station_id":"ce4bgvp2rcd13ifvqcu0","pricing_plan_id":"cebpf4jnsgd1na2vs0mg"},{"bike_id":"f465d441-dee5-4916-a2b2-63b707c25a24","system_id":"levelo_inurba_marseille","lat":43.31354,"lon":5.38492,"is_reserved":false,"is_disabled":false,"rental_uris":{"android":"levelo://app?vid=f465d441-dee5-4916-a2b2-63b707c25a24","ios":"levelo://app?vid=f465d441-dee5-4916-a2b2-63b707c25a24"},"vehicle_type_id":"4","last_reported":1746306487,"current_range_meters":17200,"station_id":"ce4bgt92rcd13ifvqcf0","pricing_plan_id":"cebpf4jnsgd1na2vs0mg"},{"bike_id":"3a9205d8-8e69-4279-83d2-def0f9054cf9","system_id":"levelo_inurba_marseille","lat":43.24804,"lon":5.37459,"is_reserved":false,"is_disabled":false,"rental_uris":{"android":"levelo://app?vid=3a9205d8-8e69-4279-83d2-def0f9054cf9","ios":"levelo://app?vid=3a9205d8-8e69-4279-83d2-def0f9054cf9"},"vehicle_type_id":"4","last_reported":1746306487,"current_range_meters":17200,"station_id":"ce4bhgh2rcd13ifvqfb0","pricing_plan_id":"cebpf4jnsgd1na2vs0mg"},{"bike_id":"4e16dd93-bd72-4279-9cbb-7dc91e09c08c","system_id":"levelo_inurba_marseille","lat":43.29195,"lon":5.39317,"is_reserved":false,"is_disabled":false,"rental_uris":{"android":"levelo://app?vid=4e16dd93-bd72-4279-9cbb-7dc91e09c08c","ios":"levelo://app?vid=4e16dd93-bd72-4279-9cbb-7dc91e09c08c"},"vehicle_type_id":"4","last_reported":1746306487,"current_range_meters":17200,"station_id":"ce4bh192rcd13ifvqdd0","pricing_plan_id":"cebpf4jnsgd1na2vs0mg"},{"bike_id":"a4f9e8d7-c60b-4569-9e6a-ca435fceed0a","system_id":"levelo_inurba_marseille","lat":43.27558,"lon":5.38426,"is_reserved":false,"is_disabled":false,"rental_uris":{"android":"levelo://app?vid=a4f9e8d7-c60b-4569-9e6a-ca435fceed0a","ios":"levelo://app?vid=a4f9e8d7-c60b-4569-9e6a-ca435fceed0a"},"vehicle_type_id":"4","last_reported":1746306487,"current_range_meters":17200,"station_id":"ce4bhh92rcd13ifvqfi0","pricing_plan_id":"cebpf4jnsgd1na2vs0mg"},{"bike_id":"a66e0266-e21c-403c-b8e3-5301a812c232","system_id":"levelo_inurba_marseille","lat":43.24056,"lon":5.37746,"is_reserved":false,"is_disabled":false,"rental_uris":{"android":"levelo://app?vid=a66e0266-e21c-403c-b8e3-5301a812c232","ios":"levelo://app?vid=a66e0266-e21c-403c-b8e3-5301a812c232"},"vehicle_type_id":"4","last_reported":1746306487,"current_range_meters":17600,"station_id":"ce4bhnp2rcd13ifvqgvg","pricing_plan_id":"cebpf4jnsgd1na2vs0mg"},{"bike_id":"9f08e594-54ce-4d32-afb4-4d40b8070c5f","system_id":"levelo_inurba_marseille","lat":43.29908,"lon":5.37481,"is_reserved":false,"is_disabled":false,"rental_uris":{"android":"levelo://app?vid=9f08e594-54ce-4d32-afb4-4d40b8070c5f","ios":"levelo://app?vid=9f08e594-54ce-4d32-afb4-4d40b8070c5f"},"vehicle_type_id":"4","last_reported":1746306487,"current_range_meters":17600,"station_id":"ce4bgjh2rcd13ifvqbg0","pricing_plan_id":"cebpf4jnsgd1na2vs0mg"},{"bike_id":"8a1c92bd-6777-477a-9eaf-2b1631a1f0a6","system_id":"levelo_inurba_marseille","lat":43.30931,"lon":5.40139,"is_reserved":false,"is_disabled":false,"rental_uris":{"android":"levelo://app?vid=8a1c92bd-6777-477a-9eaf-2b1631a1f0a6","ios":"levelo://app?vid=8a1c92bd-6777-477a-9eaf-2b1631a1f0a6"},"vehicle_type_id":"4","last_reported":1746306487,"current_range_meters":17600,"station_id":"ce4bgvp2rcd13ifvqct0","pricing_plan_id":"cebpf4jnsgd1na2vs0mg"},{"bike_id":"59ca59f5-44bd-491d-843c-a7e5f5555f4e","system_id":"levelo_inurba_marseille","lat":43.24664,"lon":5.3817,"is_reserved":false,"is_disabled":false,"rental_uris":{"android":"levelo://app?vid=59ca59f5-44bd-491d-843c-a7e5f5555f4e","ios":"levelo://app?vid=59ca59f5-44bd-491d-843c-a7e5f5555f4e"},"vehicle_type_id":"4","last_reported":1746306487,"current_range_meters":17200,"station_id":"ce4bhih2rcd13ifvqfr0","pricing_plan_id":"cebpf4jnsgd1na2vs0mg"},{"bike_id":"cc39cdc5-0417-4f88-b75a-a7a63ab3f1d6","system_id":"levelo_inurba_marseille","lat":43.31358,"lon":5.38256,"is_reserved":false,"is_disabled":false,"rental_uris":{"android":"levelo://app?vid=cc39cdc5-0417-4f88-b75a-a7a63ab3f1d6","ios":"levelo://app?vid=cc39cdc5-0417-4f88-b75a-a7a63ab3f1d6"},"vehicle_type_id":"4","last_reported":1746306487,"current_range_meters":17600,"station_id":"","pricing_plan_id":"cebpf4jnsgd1na2vs0mg"},{"bike_id":"b29e25d9-4cda-4a03-8582-2d116784037f","system_id":"levelo_inurba_marseille","lat":43.25498,"lon":5.37649,"is_reserved":false,"is_disabled":false,"rental_uris":{"android":"levelo://app?vid=b29e25d9-4cda-4a03-8582-2d116784037f","ios":"levelo://app?vid=b29e25d9-4cda-4a03-8582-2d116784037f"},"vehicle_type_id":"4","last_reported":1746306487,"current_range_meters":17600,"station_id":"ce4bhh12rcd13ifvqff0","pricing_plan_id":"cebpf4jnsgd1na2vs0mg"},{"bike_id":"22188dcc-d5f7-4825-9bb6-487e84be62a7","system_id":"levelo_inurba_marseille","lat":43.30597,"lon":5.37227,"is_reserved":false,"is_disabled":false,"rental_uris":{"android":"levelo://app?vid=22188dcc-d5f7-4825-9bb6-487e84be62a7","ios":"levelo://app?vid=22188dcc-d5f7-4825-9bb6-487e84be62a7"},"vehicle_type_id":"4","last_reported":1746306487,"current_range_meters":17200,"station_id":"ce4bgqh2rcd13ifvqc4g","pricing_plan_id":"cebpf4jnsgd1na2vs0mg"},{"bike_id":"a42afdc4-f23a-4ada-a549-a2a90441a179","system_id":"levelo_inurba_marseille","lat":43.30632,"lon":5.4008,"is_reserved":false,"is_disabled":false,"rental_uris":{"android":"levelo://app?vid=a42afdc4-f23a-4ada-a549-a2a90441a179","ios":"levelo://app?vid=a42afdc4-f23a-4ada-a549-a2a90441a179"},"vehicle_type_id":"4","last_reported":1746306487,"current_range_meters":17600,"station_id":"ce4bh112rcd13ifvqda0","pricing_plan_id":"cebpf4jnsgd1na2vs0mg"},{"bike_id":"389ab642-2fe0-402b-98aa-ba7e38be9817","system_id":"levelo_inurba_marseille","lat":43.30642,"lon":5.40073,"is_reserved":false,"is_disabled":false,"rental_uris":{"android":"levelo://app?vid=389ab642-2fe0-402b-98aa-ba7e38be9817","ios":"levelo://app?vid=389ab642-2fe0-402b-98aa-ba7e38be9817"},"vehicle_type_id":"4","last_reported":1746306487,"current_range_meters":17600,"station_id":"ce4bh112rcd13ifvqda0","pricing_plan_id":"cebpf4jnsgd1na2vs0mg"},{"bike_id":"1033a85c-1590-42c5-a6b2-f5fd07928b13","system_id":"levelo_inurba_marseille","lat":43.29557,"lon":5.42295,"is_reserved":false,"is_disabled":false,"rental_uris":{"android":"levelo://app?vid=1033a85c-1590-42c5-a6b2-f5fd07928b13","ios":"levelo://app?vid=1033a85c-1590-42c5-a6b2-f5fd07928b13"},"vehicle_type_id":"4","last_reported":1746306487,"current_range_meters":18000,"station_id":"ce4bhph2rcd13ifvqhdg","pricing_plan_id":"cebpf4jnsgd1na2vs0mg"},{"bike_id":"af949d19-ff12-451e-b7c6-5a61d84f79d2","system_id":"levelo_inurba_marseille","lat":43.29417,"lon":5.38628,"is_reserved":false,"is_disabled":false,"rental_uris":{"android":"levelo://app?vid=af949d19-ff12-451e-b7c6-5a61d84f79d2","ios":"levelo://app?vid=af949d19-ff12-451e-b7c6-5a61d84f79d2"},"vehicle_type_id":"4","last_reported":1746306487,"current_range_meters":18000,"station_id":"ce4bh2h2rcd13ifvqdh0","pricing_plan_id":"cebpf4jnsgd1na2vs0mg"},{"bike_id":"2f20e6bc-0934-491d-9f47-c917c487b029","system_id":"levelo_inurba_marseille","lat":43.2836,"lon":5.38101,"is_reserved":false,"is_disabled":false,"rental_uris":{"android":"levelo://app?vid=2f20e6bc-0934-491d-9f47-c917c487b029","ios":"levelo://app?vid=2f20e6bc-0934-491d-9f47-c917c487b029"},"vehicle_type_id":"4","last_reported":1746306487,"current_range_meters":18000,"station_id":"","pricing_plan_id":"cebpf4jnsgd1na2vs0mg"},{"bike_id":"51235c2d-0e67-4d96-812f-18476e613e46","system_id":"levelo_inurba_marseille","lat":43.31685,"lon":5.40466,"is_reserved":false,"is_disabled":false,"rental_uris":{"android":"levelo://app?vid=51235c2d-0e67-4d96-812f-18476e613e46","ios":"levelo://app?vid=51235c2d-0e67-4d96-812f-18476e613e46"},"vehicle_type_id":"4","last_reported":1746306487,"current_range_meters":18000,"station_id":"ce4bh012rcd13ifvqd00","pricing_plan_id":"cebpf4jnsgd1na2vs0mg"},{"bike_id":"6765a444-8479-4f77-9826-524ed5f0b675","system_id":"levelo_inurba_marseille","lat":43.29868,"lon":5.39727,"is_reserved":false,"is_disabled":false,"rental_uris":{"android":"levelo://app?vid=6765a444-8479-4f77-9826-524ed5f0b675","ios":"levelo://app?vid=6765a444-8479-4f77-9826-524ed5f0b675"},"vehicle_type_id":"4","last_reported":1746306487,"current_range_meters":18000,"station_id":"ce4bh0h2rcd13ifvqd50","pricing_plan_id":"cebpf4jnsgd1na2vs0mg"},{"bike_id":"43f220ab-0408-46b3-abe5-60437ce3bc1e","system_id":"levelo_inurba_marseille","lat":43.23216,"lon":5.3556,"is_reserved":false,"is_disabled":false,"rental_uris":{"android":"levelo://app?vid=43f220ab-0408-46b3-abe5-60437ce3bc1e","ios":"levelo://app?vid=43f220ab-0408-46b3-abe5-60437ce3bc1e"},"vehicle_type_id":"4","last_reported":1746306487,"current_range_meters":18800,"station_id":"ce4bhu92rcd13ifvqi70","pricing_plan_id":"cebpf4jnsgd1na2vs0mg"},{"bike_id":"36ba41e4-71e5-4435-857e-58cb28890d47","system_id":"levelo_inurba_marseille","lat":43.27971,"lon":5.38725,"is_reserved":false,"is_disabled":false,"rental_uris":{"android":"levelo://app?vid=36ba41e4-71e5-4435-857e-58cb28890d47","ios":"levelo://app?vid=36ba41e4-71e5-4435-857e-58cb28890d47"},"vehicle_type_id":"4","last_reported":1746306487,"current_range_meters":18800,"station_id":"ce4bhg12rcd13ifvqf80","pricing_plan_id":"cebpf4jnsgd1na2vs0mg"},{"bike_id":"dcfcea3e-9b1b-4d63-8605-b82ef7cd8e04","system_id":"levelo_inurba_marseille","lat":43.307831,"lon":5.376418,"is_reserved":false,"is_disabled":false,"rental_uris":{"android":"levelo://app?vid=dcfcea3e-9b1b-4d63-8605-b82ef7cd8e04","ios":"levelo://app?vid=dcfcea3e-9b1b-4d63-8605-b82ef7cd8e04"},"vehicle_type_id":"4","last_reported":1746306487,"current_range_meters":18800,"station_id":"ce4bgv92rcd13ifvqcq0","pricing_plan_id":"cebpf4jnsgd1na2vs0mg"},{"bike_id":"86b26b56-3573-42a8-ae99-1ff808ff1f63","system_id":"levelo_inurba_marseille","lat":43.30689,"lon":5.37371,"is_reserved":false,"is_disabled":false,"rental_uris":{"android":"levelo://app?vid=86b26b56-3573-42a8-ae99-1ff808ff1f63","ios":"levelo://app?vid=86b26b56-3573-42a8-ae99-1ff808ff1f63"},"vehicle_type_id":"4","last_reported":1746306487,"current_range_meters":18800,"station_id":"","pricing_plan_id":"cebpf4jnsgd1na2vs0mg"},{"bike_id":"aa3112fb-8eac-4fa6-b1e9-9cf06e132dbc","system_id":"levelo_inurba_marseille","lat":43.29375,"lon":5.37856,"is_reserved":false,"is_disabled":false,"rental_uris":{"android":"levelo://app?vid=aa3112fb-8eac-4fa6-b1e9-9cf06e132dbc","ios":"levelo://app?vid=aa3112fb-8eac-4fa6-b1e9-9cf06e132dbc"},"vehicle_type_id":"4","last_reported":1746306487,"current_range_meters":18000,"station_id":"ce4bgjh2rcd13ifvqbf0","pricing_plan_id":"cebpf4jnsgd1na2vs0mg"},{"bike_id":"73866467-7499-4216-8928-772606dca3c2","system_id":"levelo_inurba_marseille","lat":43.30425,"lon":5.3889,"is_reserved":false,"is_disabled":false,"rental_uris":{"android":"levelo://app?vid=73866467-7499-4216-8928-772606dca3c2","ios":"levelo://app?vid=73866467-7499-4216-8928-772606dca3c2"},"vehicle_type_id":"4","last_reported":1746306487,"current_range_meters":18800,"station_id":"ce4bgk12rcd13ifvqbi0","pricing_plan_id":"cebpf4jnsgd1na2vs0mg"},{"bike_id":"f3a6baad-da4a-4754-9b64-cf2f8194b8c8","system_id":"levelo_inurba_marseille","lat":43.29557,"lon":5.42295,"is_reserved":false,"is_disabled":false,"rental_uris":{"android":"levelo://app?vid=f3a6baad-da4a-4754-9b64-cf2f8194b8c8","ios":"levelo://app?vid=f3a6baad-da4a-4754-9b64-cf2f8194b8c8"},"vehicle_type_id":"4","last_reported":1746306487,"current_range_meters":18800,"station_id":"ce4bhph2rcd13ifvqhdg","pricing_plan_id":"cebpf4jnsgd1na2vs0mg"},{"bike_id":"83ac374c-b8f1-4572-bdb1-e1729e4aa079","system_id":"levelo_inurba_marseille","lat":43.31366,"lon":5.38494,"is_reserved":false,"is_disabled":false,"rental_uris":{"android":"levelo://app?vid=83ac374c-b8f1-4572-bdb1-e1729e4aa079","ios":"levelo://app?vid=83ac374c-b8f1-4572-bdb1-e1729e4aa079"},"vehicle_type_id":"4","last_reported":1746306487,"current_range_meters":18800,"station_id":"ce4bgt92rcd13ifvqcf0","pricing_plan_id":"cebpf4jnsgd1na2vs0mg"},{"bike_id":"33a01469-5768-42db-8c74-2f7f782aff35","system_id":"levelo_inurba_marseille","lat":43.29162,"lon":5.386,"is_reserved":false,"is_disabled":false,"rental_uris":{"android":"levelo://app?vid=33a01469-5768-42db-8c74-2f7f782aff35","ios":"levelo://app?vid=33a01469-5768-42db-8c74-2f7f782aff35"},"vehicle_type_id":"4","last_reported":1746306487,"current_range_meters":19200,"station_id":"","pricing_plan_id":"cebpf4jnsgd1na2vs0mg"},{"bike_id":"838953c0-5207-4dd4-a4c4-6cd84e5c58c8","system_id":"levelo_inurba_marseille","lat":43.28029,"lon":5.36944,"is_reserved":false,"is_disabled":false,"rental_uris":{"android":"levelo://app?vid=838953c0-5207-4dd4-a4c4-6cd84e5c58c8","ios":"levelo://app?vid=838953c0-5207-4dd4-a4c4-6cd84e5c58c8"},"vehicle_type_id":"4","last_reported":1746306487,"current_range_meters":19200,"station_id":"ce4bha12rcd13ifvqef0","pricing_plan_id":"cebpf4jnsgd1na2vs0mg"},{"bike_id":"16795f1b-5be3-4026-a95e-7842747acfc3","system_id":"levelo_inurba_marseille","lat":43.32335,"lon":5.40614,"is_reserved":false,"is_disabled":false,"rental_uris":{"android":"levelo://app?vid=16795f1b-5be3-4026-a95e-7842747acfc3","ios":"levelo://app?vid=16795f1b-5be3-4026-a95e-7842747acfc3"},"vehicle_type_id":"4","last_reported":1746306487,"current_range_meters":19200,"station_id":"ce4bhq92rcd13ifvqhjg","pricing_plan_id":"cebpf4jnsgd1na2vs0mg"},{"bike_id":"0e5c66e1-7791-401d-bb71-48df9bce7d1a","system_id":"levelo_inurba_marseille","lat":43.27206,"lon":5.39191,"is_reserved":false,"is_disabled":false,"rental_uris":{"android":"levelo://app?vid=0e5c66e1-7791-401d-bb71-48df9bce7d1a","ios":"levelo://app?vid=0e5c66e1-7791-401d-bb71-48df9bce7d1a"},"vehicle_type_id":"4","last_reported":1746306487,"current_range_meters":18800,"station_id":"ce4bhhp2rcd13ifvqfm0","pricing_plan_id":"cebpf4jnsgd1na2vs0mg"},{"bike_id":"d88f884f-838b-4b2b-b06a-b2ccab545b54","system_id":"levelo_inurba_marseille","lat":43.29185,"lon":5.39326,"is_reserved":false,"is_disabled":false,"rental_uris":{"android":"levelo://app?vid=d88f884f-838b-4b2b-b06a-b2ccab545b54","ios":"levelo://app?vid=d88f884f-838b-4b2b-b06a-b2ccab545b54"},"vehicle_type_id":"4","last_reported":1746306487,"current_range_meters":19200,"station_id":"ce4bh192rcd13ifvqdd0","pricing_plan_id":"cebpf4jnsgd1na2vs0mg"},{"bike_id":"375c39ea-3955-4087-b245-eea504915cd1","system_id":"levelo_inurba_marseille","lat":43.29417,"lon":5.38627,"is_reserved":false,"is_disabled":false,"rental_uris":{"android":"levelo://app?vid=375c39ea-3955-4087-b245-eea504915cd1","ios":"levelo://app?vid=375c39ea-3955-4087-b245-eea504915cd1"},"vehicle_type_id":"4","last_reported":1746306487,"current_range_meters":19200,"station_id":"ce4bh2h2rcd13ifvqdh0","pricing_plan_id":"cebpf4jnsgd1na2vs0mg"},{"bike_id":"ed18508f-1431-4895-9241-da34b0a7ca80","system_id":"levelo_inurba_marseille","lat":43.31365,"lon":5.384966,"is_reserved":false,"is_disabled":false,"rental_uris":{"android":"levelo://app?vid=ed18508f-1431-4895-9241-da34b0a7ca80","ios":"levelo://app?vid=ed18508f-1431-4895-9241-da34b0a7ca80"},"vehicle_type_id":"4","last_reported":1746306487,"current_range_meters":19200,"station_id":"ce4bgt92rcd13ifvqcf0","pricing_plan_id":"cebpf4jnsgd1na2vs0mg"},{"bike_id":"a6efb4da-95e4-42a5-bf1a-582d6df993e4","system_id":"levelo_inurba_marseille","lat":43.24079,"lon":5.37774,"is_reserved":false,"is_disabled":false,"rental_uris":{"android":"levelo://app?vid=a6efb4da-95e4-42a5-bf1a-582d6df993e4","ios":"levelo://app?vid=a6efb4da-95e4-42a5-bf1a-582d6df993e4"},"vehicle_type_id":"4","last_reported":1746306487,"current_range_meters":19600,"station_id":"ce4bhnp2rcd13ifvqgvg","pricing_plan_id":"cebpf4jnsgd1na2vs0mg"},{"bike_id":"1cb20923-3b0d-4df1-a3ee-be944d3f904f","system_id":"levelo_inurba_marseille","lat":43.32333,"lon":5.40619,"is_reserved":false,"is_disabled":false,"rental_uris":{"android":"levelo://app?vid=1cb20923-3b0d-4df1-a3ee-be944d3f904f","ios":"levelo://app?vid=1cb20923-3b0d-4df1-a3ee-be944d3f904f"},"vehicle_type_id":"4","last_reported":1746306487,"current_range_meters":19600,"station_id":"ce4bhq92rcd13ifvqhjg","pricing_plan_id":"cebpf4jnsgd1na2vs0mg"},{"bike_id":"8376029f-9d8e-4f59-a856-76e0d3d3fa99","system_id":"levelo_inurba_marseille","lat":43.25503,"lon":5.37654,"is_reserved":false,"is_disabled":false,"rental_uris":{"android":"levelo://app?vid=8376029f-9d8e-4f59-a856-76e0d3d3fa99","ios":"levelo://app?vid=8376029f-9d8e-4f59-a856-76e0d3d3fa99"},"vehicle_type_id":"4","last_reported":1746306487,"current_range_meters":19200,"station_id":"ce4bhh12rcd13ifvqff0","pricing_plan_id":"cebpf4jnsgd1na2vs0mg"},{"bike_id":"43af9a1a-2376-432f-bf29-fc1500ea86a8","system_id":"levelo_inurba_marseille","lat":43.29534,"lon":5.38546,"is_reserved":false,"is_disabled":false,"rental_uris":{"android":"levelo://app?vid=43af9a1a-2376-432f-bf29-fc1500ea86a8","ios":"levelo://app?vid=43af9a1a-2376-432f-bf29-fc1500ea86a8"},"vehicle_type_id":"4","last_reported":1746306487,"current_range_meters":19600,"station_id":"ce4bgih2rcd13ifvqba0","pricing_plan_id":"cebpf4jnsgd1na2vs0mg"},{"bike_id":"eaf9ff8d-620c-4f15-a8f3-fd41b4cf696a","system_id":"levelo_inurba_marseille","lat":43.29415,"lon":5.38626,"is_reserved":false,"is_disabled":false,"rental_uris":{"android":"levelo://app?vid=eaf9ff8d-620c-4f15-a8f3-fd41b4cf696a","ios":"levelo://app?vid=eaf9ff8d-620c-4f15-a8f3-fd41b4cf696a"},"vehicle_type_id":"4","last_reported":1746306487,"current_range_meters":19600,"station_id":"ce4bh2h2rcd13ifvqdh0","pricing_plan_id":"cebpf4jnsgd1na2vs0mg"},{"bike_id":"1b972972-75ac-4cb5-8d6d-b9f9b864e3c5","system_id":"levelo_inurba_marseille","lat":43.28442,"lon":5.39194,"is_reserved":false,"is_disabled":false,"rental_uris":{"android":"levelo://app?vid=1b972972-75ac-4cb5-8d6d-b9f9b864e3c5","ios":"levelo://app?vid=1b972972-75ac-4cb5-8d6d-b9f9b864e3c5"},"vehicle_type_id":"4","last_reported":1746306487,"current_range_meters":19600,"station_id":"ce4bhoh2rcd13ifvqh5g","pricing_plan_id":"cebpf4jnsgd1na2vs0mg"},{"bike_id":"cef4fb9c-2cce-44b8-a4dc-1a76affeeb57","system_id":"levelo_inurba_marseille","lat":43.2956,"lon":5.42288,"is_reserved":false,"is_disabled":false,"rental_uris":{"android":"levelo://app?vid=cef4fb9c-2cce-44b8-a4dc-1a76affeeb57","ios":"levelo://app?vid=cef4fb9c-2cce-44b8-a4dc-1a76affeeb57"},"vehicle_type_id":"4","last_reported":1746306487,"current_range_meters":19600,"station_id":"ce4bhph2rcd13ifvqhdg","pricing_plan_id":"cebpf4jnsgd1na2vs0mg"},{"bike_id":"3e9ceedf-f3e1-4b03-93d9-ad4cb0cf3d86","system_id":"levelo_inurba_marseille","lat":43.30878,"lon":5.39648,"is_reserved":false,"is_disabled":false,"rental_uris":{"android":"levelo://app?vid=3e9ceedf-f3e1-4b03-93d9-ad4cb0cf3d86","ios":"levelo://app?vid=3e9ceedf-f3e1-4b03-93d9-ad4cb0cf3d86"},"vehicle_type_id":"4","last_reported":1746306487,"current_range_meters":19600,"station_id":"ce4bh012rcd13ifvqcv0","pricing_plan_id":"cebpf4jnsgd1na2vs0mg"},{"bike_id":"4c2ec1d6-94a3-42b1-9c0b-805adc49f5ee","system_id":"levelo_inurba_marseille","lat":43.30232,"lon":5.39709,"is_reserved":false,"is_disabled":false,"rental_uris":{"android":"levelo://app?vid=4c2ec1d6-94a3-42b1-9c0b-805adc49f5ee","ios":"levelo://app?vid=4c2ec1d6-94a3-42b1-9c0b-805adc49f5ee"},"vehicle_type_id":"4","last_reported":1746306487,"current_range_meters":19600,"station_id":"","pricing_plan_id":"cebpf4jnsgd1na2vs0mg"},{"bike_id":"5d8b520f-e341-4e39-83a9-96594f98caf8","system_id":"levelo_inurba_marseille","lat":43.29528,"lon":5.39034,"is_reserved":false,"is_disabled":false,"rental_uris":{"android":"levelo://app?vid=5d8b520f-e341-4e39-83a9-96594f98caf8","ios":"levelo://app?vid=5d8b520f-e341-4e39-83a9-96594f98caf8"},"vehicle_type_id":"4","last_reported":1746306487,"current_range_meters":20000,"station_id":"ce4bh3p2rcd13ifvqdp0","pricing_plan_id":"cebpf4jnsgd1na2vs0mg"},{"bike_id":"0abe7365-362a-4c2d-949a-e32faf9d4099","system_id":"levelo_inurba_marseille","lat":43.21181,"lon":5.35087,"is_reserved":false,"is_disabled":true,"rental_uris":{"android":"levelo://app?vid=0abe7365-362a-4c2d-949a-e32faf9d4099","ios":"levelo://app?vid=0abe7365-362a-4c2d-949a-e32faf9d4099"},"vehicle_type_id":"4","last_reported":1746306487,"current_range_meters":20000,"station_id":"st_cvj6sg6p6f1abm77japg","pricing_plan_id":"cebpf4jnsgd1na2vs0mg"},{"bike_id":"c934a038-999c-4097-b244-e68883d621e3","system_id":"levelo_inurba_marseille","lat":43.3055,"lon":5.36529,"is_reserved":false,"is_disabled":true,"rental_uris":{"android":"levelo://app?vid=c934a038-999c-4097-b244-e68883d621e3","ios":"levelo://app?vid=c934a038-999c-4097-b244-e68883d621e3"},"vehicle_type_id":"4","last_reported":1746306487,"current_range_meters":20400,"station_id":"ce4bgs12rcd13ifvqcag","pricing_plan_id":"cebpf4jnsgd1na2vs0mg"},{"bike_id":"30e55c43-077b-4d5c-9870-41f21d7440d6","system_id":"levelo_inurba_marseille","lat":43.29451,"lon":5.38599,"is_reserved":false,"is_disabled":false,"rental_uris":{"android":"levelo://app?vid=30e55c43-077b-4d5c-9870-41f21d7440d6","ios":"levelo://app?vid=30e55c43-077b-4d5c-9870-41f21d7440d6"},"vehicle_type_id":"4","last_reported":1746306487,"current_range_meters":20000,"station_id":"ce4bh2h2rcd13ifvqdh0","pricing_plan_id":"cebpf4jnsgd1na2vs0mg"},{"bike_id":"da86dbc1-1e83-43ca-9dfc-bf9622d5f196","system_id":"levelo_inurba_marseille","lat":43.30319,"lon":5.40432,"is_reserved":false,"is_disabled":false,"rental_uris":{"android":"levelo://app?vid=da86dbc1-1e83-43ca-9dfc-bf9622d5f196","ios":"levelo://app?vid=da86dbc1-1e83-43ca-9dfc-bf9622d5f196"},"vehicle_type_id":"4","last_reported":1746306487,"current_range_meters":20000,"station_id":"ce4bh012rcd13ifvqd10","pricing_plan_id":"cebpf4jnsgd1na2vs0mg"},