{"last_updated":1703200033,"ttl":30,"version":"2.2","data":{"bikes":[{"bike_id":"a4ab263b-343d-4319-8f06-42ad4dff6672","system_id":"levelo_inurba_marseille","lat":43.314811,"lon":5.373103,"is_reserved":false,"is_disabled":false,"rental_uris":{"android":"levelo://app?vid=a4ab263b-343d-4319-8f06-42ad4dff6672","ios":"levelo://app?vid=a4ab263b-343d-4319-8f06-42ad4dff6672"},"vehicle_type_id":"4","last_reported":1703200033,"current_range_meters":6800,"station_id":"ce4bgt12rcd13ifvqcd0","pricing_plan_id":"free"},{"bike_id":"492b87f2-ef87-4d81-abd0-12d5e227433c","system_id":"levelo_inurba_marseille","lat":43.309039,"lon":5.371797,"is_reserved":false,"is_disabled":false,"rental_uris":{"android":"levelo://app?vid=492b87f2-ef87-4d81-abd0-12d5e227433c","ios":"levelo://app?vid=492b87f2-ef87-4d81-abd0-12d5e227433c"},"vehicle_type_id":"4","last_reported":1703200033,"current_range_meters":28400,"station_id":"ce4bguh2rcd13ifvqckg","pricing_plan_id":"free"},{"bike_id":"f558af9e-816d-4927-8f8c-5cf13710a33d","system_id":"levelo_inurba_marseille","lat":43.309039,"lon":5.371797,"is_reserved":false,"is_disabled":false,"rental_uris":{"android":"levelo://app?vid=f558af9e-816d-4927-8f8c-5cf13710a33d","ios":"levelo://app?vid=f558af9e-816d-4927-8f8c-5cf13710a33d"},"vehicle_type_id":"4","last_reported":1703200033,"current_range_meters":24800,"station_id":"ce4bguh2rcd13ifvqckg","pricing_plan_id":"free"},{"bike_id":"a3b00ee6-46aa-4401-9ca1-14ed5c31feed","system_id":"levelo_inurba_marseille","lat":43.305989,"lon":5.37225,"is_reserved":false,"is_disabled":false,"rental_uris":{"android":"levelo://app?vid=a3b00ee6-46aa-4401-9ca1-14ed5c31feed","ios":"levelo://app?vid=a3b00ee6-46aa-4401-9ca1-14ed5c31feed"},"vehicle_type_id":"4","last_reported":1703200033,"current_range_meters":30400,"station_id":"ce4bgqh2rcd13ifvqc4g","pricing_plan_id":"free"},{"bike_id":"386c82fe-10d7-49c7-8d0b-ee164cbd52f7","system_id":"levelo_inurba_marseille","lat":43.305989,"lon":5.37225,"is_reserved":false,"is_disabled":false,"rental_uris":{"android":"levelo://app?vid=386c82fe-10d7-49c7-8d0b-ee164cbd52f7","ios":"levelo://app?vid=386c82fe-10d7-49c7-8d0b-ee164cbd52f7"},"vehicle_type_id":"4","last_reported":1703200033,"current_range_meters":30000,"station_id":"ce4bgqh2rcd13ifvqc4g","pricing_plan_id":"free"},{"bike_id":"ba4d5fb8-43c1-4710-979c-1373bd66711d","system_id":"levelo_inurba_marseille","lat":43.31273,"lon":5.37756,"is_reserved":false,"is_disabled":false,"rental_uris":{"android":"levelo://app?vid=ba4d5fb8-43c1-4710-979c-1373bd66711d","ios":"levelo://app?vid=ba4d5fb8-43c1-4710-979c-1373bd66711d"},"vehicle_type_id":"4","last_reported":1703200033,"current_range_meters":0,"station_id":"","pricing_plan_id":"free"},{"bike_id":"2c7b79af-09e0-4238-8c42-2ce974430ca4","system_id":"levelo_inurba_marseille","lat":43.305989,"lon":5.37225,"is_reserved":false,"is_disabled":false,"rental_uris":{"android":"levelo://app?vid=2c7b79af-09e0-4238-8c42-2ce974430ca4","ios":"levelo://app?vid=2c7b79af-09e0-4238-8c42-2ce974430ca4"},"vehicle_type_id":"4","last_reported":1703200033,"current_range_meters":9600,"station_id":"ce4bgqh2rcd13ifvqc4g","pricing_plan_id":"free"},{"bike_id":"84ac105c-28b8-4208-8ee2-1e11b00693cd","system_id":"levelo_inurba_marseille","lat":43.305989,"lon":5.37225,"is_reserved":false,"is_disabled":false,"rental_uris":{"android":"levelo://app?vid=84ac105c-28b8-4208-8ee2-1e11b00693cd","ios":"levelo://app?vid=84ac105c-28b8-4208-8ee2-1e11b00693cd"},"vehicle_type_id":"4","last_reported":1703200033,"current_range_meters":18400,"station_id":"ce4bgqh2rcd13ifvqc4g","pricing_plan_id":"free"},{"bike_id":"c66d9ebf-7919-4160-84b9-f352c9d60c59","system_id":"levelo_inurba_marseille","lat":43.311131,"lon":5.377651,"is_reserved":false,"is_disabled":false,"rental_uris":{"android":"levelo://app?vid=c66d9ebf-7919-4160-84b9-f352c9d60c59","ios":"levelo://app?vid=c66d9ebf-7919-4160-84b9-f352c9d60c59"},"vehicle_type_id":"4","last_reported":1703200033,"current_range_meters":20800,"station_id":"ce4bgt92rcd13ifvqcg0","pricing_plan_id":"free"},{"bike_id":"31724e76-5e00-4f03-a74c-9b5776384339","system_id":"levelo_inurba_marseille","lat":43.307945,"lon":5.376487,"is_reserved":false,"is_disabled":false,"rental_uris":{"android":"levelo://app?vid=31724e76-5e00-4f03-a74c-9b5776384339","ios":"levelo://app?vid=31724e76-5e00-4f03-a74c-9b5776384339"},"vehicle_type_id":"4","last_reported":1703200033,"current_range_meters":20400,"station_id":"ce4bgv92rcd13ifvqcq0","pricing_plan_id":"free"},{"bike_id":"5096e4c6-f9a0-45fa-8669-4e275df70f30","system_id":"levelo_inurba_marseille","lat":43.307945,"lon":5.376487,"is_reserved":false,"is_disabled":false,"rental_uris":{"android":"levelo://app?vid=5096e4c6-f9a0-45fa-8669-4e275df70f30","ios":"levelo://app?vid=5096e4c6-f9a0-45fa-8669-4e275df70f30"},"vehicle_type_id":"4","last_reported":1703200033,"current_range_meters":14800,"station_id":"ce4bgv92rcd13ifvqcq0","pricing_plan_id":"free"},{"bike_id":"d735b789-2c72-4755-af41-1a8298915b83","system_id":"levelo_inurba_marseille","lat":43.307945,"lon":5.376487,"is_reserved":false,"is_disabled":false,"rental_uris":{"android":"levelo://app?vid=d735b789-2c72-4755-af41-1a8298915b83","ios":"levelo://app?vid=d735b789-2c72-4755-af41-1a8298915b83"},"vehicle_type_id":"4","last_reported":1703200033,"current_range_meters":17600,"station_id":"ce4bgv92rcd13ifvqcq0","pricing_plan_id":"free"},{"bike_id":"22bc17d1-ff8b-4310-9fa0-9af6c0cd0cb5","system_id":"levelo_inurba_marseille","lat":43.30304,"lon":5.368987,"is_reserved":false,"is_disabled":false,"rental_uris":{"android":"levelo://app?vid=22bc17d1-ff8b-4310-9fa0-9af6c0cd0cb5","ios":"levelo://app?vid=22bc17d1-ff8b-4310-9fa0-9af6c0cd0cb5"},"vehicle_type_id":"4","last_reported":1703200033,"current_range_meters":23200,"station_id":"ce4bgqh2rcd13ifvqc5g","pricing_plan_id":"free"},{"bike_id":"6c662160-2878-403e-9cb2-748204edb49f","system_id":"levelo_inurba_marseille","lat":43.315379,"lon":5.380289,"is_reserved":false,"is_disabled":false,"rental_uris":{"android":"levelo://app?vid=6c662160-2878-403e-9cb2-748204edb49f","ios":"levelo://app?vid=6c662160-2878-403e-9cb2-748204edb49f"},"vehicle_type_id":"4","last_reported":1703200033,"current_range_meters":6800,"station_id":"ce4bhsp2rcd13ifvqi50","pricing_plan_id":"free"},{"bike_id":"882be059-391f-4de1-8692-150c5db58c11","system_id":"levelo_inurba_marseille","lat":43.31531,"lon":5.38044,"is_reserved":false,"is_disabled":false,"rental_uris":{"android":"levelo://app?vid=882be059-391f-4de1-8692-150c5db58c11","ios":"levelo://app?vid=882be059-391f-4de1-8692-150c5db58c11"},"vehicle_type_id":"4","last_reported":1703200033,"current_range_meters":0,"station_id":"ce4bhsp2rcd13ifvqi50","pricing_plan_id":"free"},{"bike_id":"a93d2dad-c0a9-4b29-80e8-6798190215d1","system_id":"levelo_inurba_marseille","lat":43.3019,"lon":5.366263,"is_reserved":false,"is_disabled":false,"rental_uris":{"android":"levelo://app?vid=a93d2dad-c0a9-4b29-80e8-6798190215d1","ios":"levelo://app?vid=a93d2dad-c0a9-4b29-80e8-6798190215d1"},"vehicle_type_id":"4","last_reported":1703200033,"current_range_meters":0,"station_id":"ce4bgrh2rcd13ifvqc8g","pricing_plan_id":"free"},{"bike_id":"26e4b55d-4243-4287-9e88-fbeda384b486","system_id":"levelo_inurba_marseille","lat":43.310856,"lon":5.38191,"is_reserved":false,"is_disabled":false,"rental_uris":{"android":"levelo://app?vid=26e4b55d-4243-4287-9e88-fbeda384b486","ios":"levelo://app?vid=26e4b55d-4243-4287-9e88-fbeda384b486"},"vehicle_type_id":"4","last_reported":1703200033,"current_range_meters":12400,"station_id":"","pricing_plan_id":"free"},{"bike_id":"0f29f9fc-ade1-445d-ba8d-4631c9525c9b","system_id":"levelo_inurba_marseille","lat":43.30636,"lon":5.37995,"is_reserved":false,"is_disabled":false,"rental_uris":{"android":"levelo://app?vid=0f29f9fc-ade1-445d-ba8d-4631c9525c9b","ios":"levelo://app?vid=0f29f9fc-ade1-445d-ba8d-4631c9525c9b"},"vehicle_type_id":"4","last_reported":1703200033,"current_range_meters":0,"station_id":"","pricing_plan_id":"free"},{"bike_id":"94e934b2-8e2a-4bc6-8564-c64f5b52329b","system_id":"levelo_inurba_marseille","lat":43.308012,"lon":5.381511,"is_reserved":false,"is_disabled":false,"rental_uris":{"android":"levelo://app?vid=94e934b2-8e2a-4bc6-8564-c64f5b52329b","ios":"levelo://app?vid=94e934b2-8e2a-4bc6-8564-c64f5b52329b"},"vehicle_type_id":"4","last_reported":1703200033,"current_range_meters":15200,"station_id":"ce4bgt12rcd13ifvqce0","pricing_plan_id":"free"},{"bike_id":"b7891d1b-5287-414b-b771-3d17f6c0ba18","system_id":"levelo_inurba_marseille","lat":43.308012,"lon":5.381511,"is_reserved":false,"is_disabled":false,"rental_uris":{"android":"levelo://app?vid=b7891d1b-5287-414b-b771-3d17f6c0ba18","ios":"levelo://app?vid=b7891d1b-5287-414b-b771-3d17f6c0ba18"},"vehicle_type_id":"4","last_reported":1703200033,"current_range_meters":10000,"station_id":"ce4bgt12rcd13ifvqce0","pricing_plan_id":"free"},{"bike_id":"ea63f5ff-ed2a-4a1c-a64b-fef4232b63de","system_id":"levelo_inurba_marseille","lat":43.324771,"lon":5.36557,"is_reserved":false,"is_disabled":false,"rental_uris":{"android":"levelo://app?vid=ea63f5ff-ed2a-4a1c-a64b-fef4232b63de","ios":"levelo://app?vid=ea63f5ff-ed2a-4a1c-a64b-fef4232b63de"},"vehicle_type_id":"4","last_reported":1703200033,"current_range_meters":4800,"station_id":"ce4bhs12rcd13ifvqhvg","pricing_plan_id":"free"},{"bike_id":"dc0f6af5-c02c-4610-baea-e5c6ca16f530","system_id":"levelo_inurba_marseille","lat":43.31996,"lon":5.381473,"is_reserved":false,"is_disabled":false,"rental_uris":{"android":"levelo://app?vid=dc0f6af5-c02c-4610-baea-e5c6ca16f530","ios":"levelo://app?vid=dc0f6af5-c02c-4610-baea-e5c6ca16f530"},"vehicle_type_id":"4","last_reported":1703200033,"current_range_meters":30400,"station_id":"ce4bhr12rcd13ifvqhpg","pricing_plan_id":"free"},{"bike_id":"0effb7f6-23e5-4f02-a1eb-80bdf14a191a","system_id":"levelo_inurba_marseille","lat":43.319921,"lon":5.381529,"is_reserved":false,"is_disabled":false,"rental_uris":{"android":"levelo://app?vid=0effb7f6-23e5-4f02-a1eb-80bdf14a191a","ios":"levelo://app?vid=0effb7f6-23e5-4f02-a1eb-80bdf14a191a"},"vehicle_type_id":"4","last_reported":1703200033,"current_range_meters":30800,"station_id":"ce4bhr12rcd13ifvqhpg","pricing_plan_id":"free"},{"bike_id":"51360f23-00df-4b8c-b369-faeb35be788d","system_id":"levelo_inurba_marseille","lat":43.319935,"lon":5.381699,"is_reserved":false,"is_disabled":false,"rental_uris":{"android":"levelo://app?vid=51360f23-00df-4b8c-b369-faeb35be788d","ios":"levelo://app?vid=51360f23-00df-4b8c-b369-faeb35be788d"},"vehicle_type_id":"4","last_reported":1703200033,"current_range_meters":29200,"station_id":"ce4bhr12rcd13ifvqhpg","pricing_plan_id":"free"},{"bike_id":"500571ea-4fba-4810-9e11-0fd87d0b12b3","system_id":"levelo_inurba_marseille","lat":43.319935,"lon":5.381699,"is_reserved":false,"is_disabled":false,"rental_uris":{"android":"levelo://app?vid=500571ea-4fba-4810-9e11-0fd87d0b12b3","ios":"levelo://app?vid=500571ea-4fba-4810-9e11-0fd87d0b12b3"},"vehicle_type_id":"4","last_reported":1703200033,"current_range_meters":29200,"station_id":"ce4bhr12rcd13ifvqhpg","pricing_plan_id":"free"},{"bike_id":"af0ab532-e26f-41d4-b9ce-17ae08ae4cee","system_id":"levelo_inurba_marseille","lat":43.320005,"lon":5.381601,"is_reserved":false,"is_disabled":false,"rental_uris":{"android":"levelo://app?vid=af0ab532-e26f-41d4-b9ce-17ae08ae4cee","ios":"levelo://app?vid=af0ab532-e26f-41d4-b9ce-17ae08ae4cee"},"vehicle_type_id":"4","last_reported":1703200033,"current_range_meters":8800,"station_id":"ce4bhr12rcd13ifvqhpg","pricing_plan_id":"free"},{"bike_id":"c5cae810-39cc-4218-86e0-83a8342df03b","system_id":"levelo_inurba_marseille","lat":43.325749,"lon":5.366367,"is_reserved":false,"is_disabled":false,"rental_uris":{"android":"levelo://app?vid=c5cae810-39cc-4218-86e0-83a8342df03b","ios":"levelo://app?vid=c5cae810-39cc-4218-86e0-83a8342df03b"},"vehicle_type_id":"4","last_reported":1703200033,"current_range_meters":11200,"station_id":"","pricing_plan_id":"free"},{"bike_id":"3aea89b6-755e-4359-a601-4864342ce6fa","system_id":"levelo_inurba_marseille","lat":43.313571,"lon":5.384829,"is_reserved":false,"is_disabled":false,"rental_uris":{"android":"levelo://app?vid=3aea89b6-755e-4359-a601-4864342ce6fa","ios":"levelo://app?vid=3aea89b6-755e-4359-a601-4864342ce6fa"},"vehicle_type_id":"4","last_reported":1703200033,"current_range_meters":26000,"station_id":"ce4bgt92rcd13ifvqcf0","pricing_plan_id":"free"},{"bike_id":"81aec213-9378-4c0d-838c-dfef85908a05","system_id":"levelo_inurba_marseille","lat":43.299724,"lon":5.371829,"is_reserved":false,"is_disabled":false,"rental_uris":{"android":"levelo://app?vid=81aec213-9378-4c0d-838c-dfef85908a05","ios":"levelo://app?vid=81aec213-9378-4c0d-838c-dfef85908a05"},"vehicle_type_id":"4","last_reported":1703200033,"current_range_meters":28000,"station_id":"ce4bgr92rcd13ifvqc7g","pricing_plan_id":"free"},{"bike_id":"6ea60728-5303-4bc9-a978-ed7d31e11b8f","system_id":"levelo_inurba_marseille","lat":43.308012,"lon":5.381511,"is_reserved":false,"is_disabled":false,"rental_uris":{"android":"levelo://app?vid=6ea60728-5303-4bc9-a978-ed7d31e11b8f","ios":"levelo://app?vid=6ea60728-5303-4bc9-a978-ed7d31e11b8f"},"vehicle_type_id":"4","last_reported":1703200033,"current_range_meters":800,"station_id":"ce4bgt12rcd13ifvqce0","pricing_plan_id":"free"},{"bike_id":"76f32eff-77ff-43ae-a091-dc6f022bbd1d","system_id":"levelo_inurba_marseille","lat":43.311722,"lon":5.387247,"is_reserved":false,"is_disabled":false,"rental_uris":{"android":"levelo://app?vid=76f32eff-77ff-43ae-a091-dc6f022bbd1d","ios":"levelo://app?vid=76f32eff-77ff-43ae-a091-dc6f022bbd1d"},"vehicle_type_id":"4","last_reported":1703200033,"current_range_meters":11200,"station_id":"ce4bgv12rcd13ifvqcp0","pricing_plan_id":"free"},{"bike_id":"f508f070-016e-40b2-a648-7943914095e0","system_id":"levelo_inurba_marseille","lat":43.311722,"lon":5.387247,"is_reserved":false,"is_disabled":false,"rental_uris":{"android":"levelo://app?vid=f508f070-016e-40b2-a648-7943914095e0","ios":"levelo://app?vid=f508f070-016e-40b2-a648-7943914095e0"},"vehicle_type_id":"4","last_reported":1703200033,"current_range_meters":8400,"station_id":"ce4bgv12rcd13ifvqcp0","pricing_plan_id":"free"},{"bike_id":"928fdd51-0699-4bb5-a7c6-01bef3d83e58","system_id":"levelo_inurba_marseille","lat":43.311722,"lon":5.387247,"is_reserved":false,"is_disabled":false,"rental_uris":{"android":"levelo://app?vid=928fdd51-0699-4bb5-a7c6-01bef3d83e58","ios":"levelo://app?vid=928fdd51-0699-4bb5-a7c6-01bef3d83e58"},"vehicle_type_id":"4","last_reported":1703200033,"current_range_meters":9600,"station_id":"ce4bgv12rcd13ifvqcp0","pricing_plan_id":"free"},{"bike_id":"aa26c708-c384-40e3-b40c-f93f26be9d99","system_id":"levelo_inurba_marseille","lat":43.311722,"lon":5.387247,"is_reserved":false,"is_disabled":false,"rental_uris":{"android":"levelo://app?vid=aa26c708-c384-40e3-b40c-f93f26be9d99","ios":"levelo://app?vid=aa26c708-c384-40e3-b40c-f93f26be9d99"},"vehicle_type_id":"4","last_reported":1703200033,"current_range_meters":19200,"station_id":"ce4bgv12rcd13ifvqcp0","pricing_plan_id":"free"},{"bike_id":"0cdbd0f0-d3c9-4a82-8c6d-6ffa03bfbf25","system_id":"levelo_inurba_marseille","lat":43.326937,"lon":5.373183,"is_reserved":false,"is_disabled":false,"rental_uris":{"android":"levelo://app?vid=0cdbd0f0-d3c9-4a82-8c6d-6ffa03bfbf25","ios":"levelo://app?vid=0cdbd0f0-d3c9-4a82-8c6d-6ffa03bfbf25"},"vehicle_type_id":"4","last_reported":1703200033,"current_range_meters":18800,"station_id":"","pricing_plan_id":"free"},{"bike_id":"1378810b-812d-44e5-847a-1b7aeb90e4c4","system_id":"levelo_inurba_marseille","lat":43.29882,"lon":5.375,"is_reserved":false,"is_disabled":false,"rental_uris":{"android":"levelo://app?vid=1378810b-812d-44e5-847a-1b7aeb90e4c4","ios":"levelo://app?vid=1378810b-812d-44e5-847a-1b7aeb90e4c4"},"vehicle_type_id":"4","last_reported":1703200033,"current_range_meters":12800,"station_id":"","pricing_plan_id":"free"},{"bike_id":"ae1f8c4d-1e19-4507-b3e2-1aab6bd85eb3","system_id":"levelo_inurba_marseille","lat":43.297794,"lon":5.370888,"is_reserved":false,"is_disabled":false,"rental_uris":{"android":"levelo://app?vid=ae1f8c4d-1e19-4507-b3e2-1aab6bd85eb3","ios":"levelo://app?vid=ae1f8c4d-1e19-4507-b3e2-1aab6bd85eb3"},"vehicle_type_id":"4","last_reported":1703200033,"current_range_meters":26000,"station_id":"ce4bgop2rcd13ifvqc1g","pricing_plan_id":"free"},{"bike_id":"f6678c52-8fdb-46d8-969e-3297a365c131","system_id":"levelo_inurba_marseille","lat":43.322872,"lon":5.382756,"is_reserved":false,"is_disabled":false,"rental_uris":{"android":"levelo://app?vid=f6678c52-8fdb-46d8-969e-3297a365c131","ios":"levelo://app?vid=f6678c52-8fdb-46d8-969e-3297a365c131"},"vehicle_type_id":"4","last_reported":1703200033,"current_range_meters":28000,"station_id":"ce4bhr12rcd13ifvqhqg","pricing_plan_id":"free"},{"bike_id":"d7592f09-4877-4e0b-aefe-e164f740256a","system_id":"levelo_inurba_marseille","lat":43.297774,"lon":5.370875,"is_reserved":false,"is_disabled":false,"rental_uris":{"android":"levelo://app?vid=d7592f09-4877-4e0b-aefe-e164f740256a","ios":"levelo://app?vid=d7592f09-4877-4e0b-aefe-e164f740256a"},"vehicle_type_id":"4","last_reported":1703200033,"current_range_meters":19200,"station_id":"ce4bgop2rcd13ifvqc1g","pricing_plan_id":"free"},{"bike_id":"b58c4005-ed15-40ec-b249-38d0c39e7d3b","system_id":"levelo_inurba_marseille","lat":43.322872,"lon":5.382756,"is_reserved":false,"is_disabled":false,"rental_uris":{"android":"levelo://app?vid=b58c4005-ed15-40ec-b249-38d0c39e7d3b","ios":"levelo://app?vid=b58c4005-ed15-40ec-b249-38d0c39e7d3b"},"vehicle_type_id":"4","last_reported":1703200033,"current_range_meters":12000,"station_id":"ce4bhr12rcd13ifvqhqg","pricing_plan_id":"free"},{"bike_id":"2d0ccb8c-a8f7-4ee9-8463-316526ef0ad5","system_id":"levelo_inurba_marseille","lat":43.322872,"lon":5.382756,"is_reserved":false,"is_disabled":false,"rental_uris":{"android":"levelo://app?vid=2d0ccb8c-a8f7-4ee9-8463-316526ef0ad5","ios":"levelo://app?vid=2d0ccb8c-a8f7-4ee9-8463-316526ef0ad5"},"vehicle_type_id":"4","last_reported":1703200033,"current_range_meters":31200,"station_id":"ce4bhr12rcd13ifvqhqg","pricing_plan_id":"free"},{"bike_id":"e299beb3-acc1-46fa-9fec-22d2fe5e6b13","system_id":"levelo_inurba_marseille","lat":43.32828,"lon":5.36675,"is_reserved":false,"is_disabled":false,"rental_uris":{"android":"levelo://app?vid=e299beb3-acc1-46fa-9fec-22d2fe5e6b13","ios":"levelo://app?vid=e299beb3-acc1-46fa-9fec-22d2fe5e6b13"},"vehicle_type_id":"4","last_reported":1703200033,"current_range_meters":20400,"station_id":"ce4bhs92rcd13ifvqi0g","pricing_plan_id":"free"},{"bike_id":"8bf0395d-c27d-407d-bf00-1fe14b7d1f01","system_id":"levelo_inurba_marseille","lat":43.32829,"lon":5.36682,"is_reserved":false,"is_disabled":false,"rental_uris":{"android":"levelo://app?vid=8bf0395d-c27d-407d-bf00-1fe14b7d1f01","ios":"levelo://app?vid=8bf0395d-c27d-407d-bf00-1fe14b7d1f01"},"vehicle_type_id":"4","last_reported":1703200033,"current_range_meters":8000,"station_id":"ce4bhs92rcd13ifvqi0g","pricing_plan_id":"free"},{"bike_id":"684c5c3f-3697-417a-8f5a-512984e93bcf","system_id":"levelo_inurba_marseille","lat":43.297163,"lon":5.365866,"is_reserved":false,"is_disabled":false,"rental_uris":{"android":"levelo://app?vid=684c5c3f-3697-417a-8f5a-512984e93bcf","ios":"levelo://app?vid=684c5c3f-3697-417a-8f5a-512984e93bcf"},"vehicle_type_id":"4","last_reported":1703200033,"current_range_meters":19600,"station_id":"ce4bgn12rcd13ifvqbt0","pricing_plan_id":"free"},{"bike_id":"1f57f18c-ccdd-49e7-9dd0-7597527b24e2","system_id":"levelo_inurba_marseille","lat":43.297163,"lon":5.365866,"is_reserved":false,"is_disabled":false,"rental_uris":{"android":"levelo://app?vid=1f57f18c-ccdd-49e7-9dd0-7597527b24e2","ios":"levelo://app?vid=1f57f18c-ccdd-49e7-9dd0-7597527b24e2"},"vehicle_type_id":"4","last_reported":1703200033,"current_range_meters":30400,"station_id":"ce4bgn12rcd13ifvqbt0","pricing_plan_id":"free"},{"bike_id":"220dbcc5-f9b9-4ec1-a000-a1e02fed0e9b","system_id":"levelo_inurba_marseille","lat":43.295963,"lon":5.367824,"is_reserved":false,"is_disabled":false,"rental_uris":{"android":"levelo://app?vid=220dbcc5-f9b9-4ec1-a000-a1e02fed0e9b","ios":"levelo://app?vid=220dbcc5-f9b9-4ec1-a000-a1e02fed0e9b"},"vehicle_type_id":"4","last_reported":1703200033,"current_range_meters":23200,"station_id":"","pricing_plan_id":"free"},{"bike_id":"9fd87c5b-caac-42bb-9ac7-74e69eb66d64","system_id":"levelo_inurba_marseille","lat":43.296131,"lon":5.370773,"is_reserved":false,"is_disabled":false,"rental_uris":{"android":"levelo://app?vid=9fd87c5b-caac-42bb-9ac7-74e69eb66d64","ios":"levelo://app?vid=9fd87c5b-caac-42bb-9ac7-74e69eb66d64"},"vehicle_type_id":"4","last_reported":1703200033,"current_range_meters":21200,"station_id":"ce4bgnh2rcd13ifvqc0g","pricing_plan_id":"free"},{"bike_id":"e59074bb-49fe-49a4-9b5c-50c0e3847ad9","system_id":"levelo_inurba_marseille","lat":43.29573,"lon":5.367355,"is_reserved":false,"is_disabled":false,"rental_uris":{"android":"levelo://app?vid=e59074bb-49fe-49a4-9b5c-50c0e3847ad9","ios":"levelo://app?vid=e59074bb-49fe-49a4-9b5c-50c0e3847ad9"},"vehicle_type_id":"4","last_reported":1703200033,"current_range_meters":28800,"station_id":"ce4bgph2rcd13ifvqc2g","pricing_plan_id":"free"},{"bike_id":"4f54cf3c-bc14-4472-9670-f84d828b8526","system_id":"levelo_inurba_marseille","lat":43.296921,"lon":5.376579,"is_reserved":false,"is_disabled":false,"rental_uris":{"android":"levelo://app?vid=4f54cf3c-bc14-4472-9670-f84d828b8526","ios":"levelo://app?vid=4f54cf3c-bc14-4472-9670-f84d828b8526"},"vehicle_type_id":"4","last_reported":1703200033,"current_range_meters":26000,"station_id":"ce4bgkh2rcd13ifvqbl0","pricing_plan_id":"free"},{"bike_id":"ca7235b9-ffbe-441c-a990-4a1406f4c65e","system_id":"levelo_inurba_marseille","lat":43.296921,"lon":5.376579,"is_reserved":false,"is_disabled":false,"rental_uris":{"android":"levelo://app?vid=ca7235b9-ffbe-441c-a990-4a1406f4c65e","ios":"levelo://app?vid=ca7235b9-ffbe-441c-a990-4a1406f4c65e"},"vehicle_type_id":"4","last_reported":1703200033,"current_range_meters":12000,"station_id":"ce4bgkh2rcd13ifvqbl0","pricing_plan_id":"free"},{"bike_id":"834b9782-39e8-4602-8b8d-ea95026281ec","system_id":"levelo_inurba_marseille","lat":43.317579,"lon":5.390159,"is_reserved":false,"is_disabled":false,"rental_uris":{"android":"levelo://app?vid=834b9782-39e8-4602-8b8d-ea95026281ec","ios":"levelo://app?vid=834b9782-39e8-4602-8b8d-ea95026281ec"},"vehicle_type_id":"4","last_reported":1703200033,"current_range_meters":2400,"station_id":"ce4bhqp2rcd13ifvqhng","pricing_plan_id":"free"},{"bike_id":"7b89b0ee-9ba8-4aaf-8663-348001241aa8","system_id":"levelo_inurba_marseille","lat":43.317557,"lon":5.390173,"is_reserved":false,"is_disabled":false,"rental_uris":{"android":"levelo://app?vid=7b89b0ee-9ba8-4aaf-8663-348001241aa8","ios":"levelo://app?vid=7b89b0ee-9ba8-4aaf-8663-348001241aa8"},"vehicle_type_id":"4","last_reported":1703200033,"current_range_meters":27200,"station_id":"ce4bhqp2rcd13ifvqhng","pricing_plan_id":"free"},{"bike_id":"53d02047-2fc2-4d30-88b2-583fd58923ab","system_id":"levelo_inurba_marseille","lat":43.317557,"lon":5.390173,"is_reserved":false,"is_disabled":false,"rental_uris":{"android":"levelo://app?vid=53d02047-2fc2-4d30-88b2-583fd58923ab","ios":"levelo://app?vid=53d02047-2fc2-4d30-88b2-583fd58923ab"},"vehicle_type_id":"4","last_reported":1703200033,"current_range_meters":27200,"station_id":"ce4bhqp2rcd13ifvqhng","pricing_plan_id":"free"},{"bike_id":"f3d7f964-1dd0-4cec-86e9-52a2f6051f19","system_id":"levelo_inurba_marseille","lat":43.304278,"lon":5.388868,"is_reserved":false,"is_disabled":false,"rental_uris":{"android":"levelo://app?vid=f3d7f964-1dd0-4cec-86e9-52a2f6051f19","ios":"levelo://app?vid=f3d7f964-1dd0-4cec-86e9-52a2f6051f19"},"vehicle_type_id":"4","last_reported":1703200033,"current_range_meters":26400,"station_id":"ce4bgk12rcd13ifvqbi0","pricing_plan_id":"free"},{"bike_id":"f3d911e0-8d07-465b-a7e8-98e8b4523194","system_id":"levelo_inurba_marseille","lat":43.296263,"lon":5.377094,"is_reserved":false,"is_disabled":false,"rental_uris":{"android":"levelo://app?vid=f3d911e0-8d07-465b-a7e8-98e8b4523194","ios":"levelo://app?vid=f3d911e0-8d07-465b-a7e8-98e8b4523194"},"vehicle_type_id":"4","last_reported":1703200033,"current_range_meters":2400,"station_id":"ce4bgi92rcd13ifvqb90","pricing_plan_id":"free"},{"bike_id":"241df012-63dc-4295-8c76-3f65120d4d88","system_id":"levelo_inurba_marseille","lat":43.299707,"lon":5.384859,"is_reserved":false,"is_disabled":false,"rental_uris":{"android":"levelo://app?vid=241df012-63dc-4295-8c76-3f65120d4d88","ios":"levelo://app?vid=241df012-63dc-4295-8c76-3f65120d4d88"},"vehicle_type_id":"4","last_reported":1703200033,"current_range_meters":28000,"station_id":"ce4bgj92rcd13ifvqbd0","pricing_plan_id":"free"},{"bike_id":"4ec7f9ee-3059-4281-9f08-dc41f2a9f5d0","system_id":"levelo_inurba_marseille","lat":43.323621,"lon":5.388811,"is_reserved":false,"is_disabled":false,"rental_uris":{"android":"levelo://app?vid=4ec7f9ee-3059-4281-9f08-dc41f2a9f5d0","ios":"levelo://app?vid=4ec7f9ee-3059-4281-9f08-dc41f2a9f5d0"},"vehicle_type_id":"4","last_reported":1703200033,"current_range_meters":8800,"station_id":"ce4bhqp2rcd13ifvqhog","pricing_plan_id":"free"},{"bike_id":"7825f2e2-5dc0-48bf-9610-bf0be308ff43","system_id":"levelo_inurba_marseille","lat":43.32365,"lon":5.38884,"is_reserved":false,"is_disabled":false,"rental_uris":{"android":"levelo://app?vid=7825f2e2-5dc0-48bf-9610-bf0be308ff43","ios":"levelo://app?vid=7825f2e2-5dc0-48bf-9610-bf0be308ff43"},"vehicle_type_id":"4","last_reported":1703200033,"current_range_meters":1200,"station_id":"ce4bhqp2rcd13ifvqhog","pricing_plan_id":"free"},{"bike_id":"6bc005d8-6c9e-4ae1-b98d-409c3cb65d81","system_id":"levelo_inurba_marseille","lat":43.32367,"lon":5.388836,"is_reserved":false,"is_disabled":false,"rental_uris":{"android":"levelo://app?vid=6bc005d8-6c9e-4ae1-b98d-409c3cb65d81","ios":"levelo://app?vid=6bc005d8-6c9e-4ae1-b98d-409c3cb65d81"},"vehicle_type_id":"4","last_reported":1703200033,"current_range_meters":14800,"station_id":"ce4bhqp2rcd13ifvqhog","pricing_plan_id":"free"},{"bike_id":"f72fa905-6acb-4138-a921-55bce7b19561","system_id":"levelo_inurba_marseille","lat":43.293259,"lon":5.371586,"is_reserved":false,"is_disabled":false,"rental_uris":{"android":"levelo://app?vid=f72fa905-6acb-4138-a921-55bce7b19561","ios":"levelo://app?vid=f72fa905-6acb-4138-a921-55bce7b19561"},"vehicle_type_id":"4","last_reported":1703200033,"current_range_meters":26000,"station_id":"ce4bgh92rcd13ifvqb40","pricing_plan_id":"free"},{"bike_id":"7675877b-e927-451e-b9b8-f979ce345ae1","system_id":"levelo_inurba_marseille","lat":43.293009,"lon":5.374584,"is_reserved":false,"is_disabled":false,"rental_uris":{"android":"levelo://app?vid=7675877b-e927-451e-b9b8-f979ce345ae1","ios":"levelo://app?vid=7675877b-e927-451e-b9b8-f979ce345ae1"},"vehicle_type_id":"4","last_reported":1703200033,"current_range_meters":1200,"station_id":"ce4bgi12rcd13ifvqb70","pricing_plan_id":"free"},{"bike_id":"3c6065a3-e76d-4db8-bfd2-e2018d755b15","system_id":"levelo_inurba_marseille","lat":43.30595,"lon":5.39359,"is_reserved":false,"is_disabled":false,"rental_uris":{"android":"levelo://app?vid=3c6065a3-e76d-4db8-bfd2-e2018d755b15","ios":"levelo://app?vid=3c6065a3-e76d-4db8-bfd2-e2018d755b15"},"vehicle_type_id":"4","last_reported":1703200033,"current_range_meters":8800,"station_id":"ce4bh0p2rcd13ifvqd80","pricing_plan_id":"free"},{"bike_id":"3a1cf1b3-4346-40f1-b720-230a13a0cac5","system_id":"levelo_inurba_marseille","lat":43.302992,"lon":5.392136,"is_reserved":false,"is_disabled":false,"rental_uris":{"android":"levelo://app?vid=3a1cf1b3-4346-40f1-b720-230a13a0cac5","ios":"levelo://app?vid=3a1cf1b3-4346-40f1-b720-230a13a0cac5"},"vehicle_type_id":"4","last_reported":1703200033,"current_range_meters":4800,"station_id":"ce4bgkh2rcd13ifvqbk0","pricing_plan_id":"free"},{"bike_id":"b92d8c08-4834-44b1-858c-d7cabc5a10f3","system_id":"levelo_inurba_marseille","lat":43.292629,"lon":5.376194,"is_reserved":false,"is_disabled":false,"rental_uris":{"android":"levelo://app?vid=b92d8c08-4834-44b1-858c-d7cabc5a10f3","ios":"levelo://app?vid=b92d8c08-4834-44b1-858c-d7cabc5a10f3"},"vehicle_type_id":"4","last_reported":1703200033,"current_range_meters":25200,"station_id":"","pricing_plan_id":"free"},{"bike_id":"e2cd3274-80e1-44d0-b122-63a88b800651","system_id":"levelo_inurba_marseille","lat":43.29864,"lon":5.38906,"is_reserved":false,"is_disabled":false,"rental_uris":{"android":"levelo://app?vid=e2cd3274-80e1-44d0-b122-63a88b800651","ios":"levelo://app?vid=e2cd3274-80e1-44d0-b122-63a88b800651"},"vehicle_type_id":"4","last_reported":1703200033,"current_range_meters":7600,"station_id":"","pricing_plan_id":"free"},{"bike_id":"5066ad13-2803-49f4-869a-be1bd76f0d11","system_id":"levelo_inurba_marseille","lat":43.291994,"lon":5.357886,"is_reserved":false,"is_disabled":false,"rental_uris":{"android":"levelo://app?vid=5066ad13-2803-49f4-869a-be1bd76f0d11","ios":"levelo://app?vid=5066ad13-2803-49f4-869a-be1bd76f0d11"},"vehicle_type_id":"4","last_reported":1703200033,"current_range_meters":0,"station_id":"ce4bhb12rcd13ifvqel0","pricing_plan_id":"free"},{"bike_id":"b4b912dd-25bf-44d2-98c8-dfbf78288a63","system_id":"levelo_inurba_marseille","lat":43.291994,"lon":5.357886,"is_reserved":false,"is_disabled":false,"rental_uris":{"android":"levelo://app?vid=b4b912dd-25bf-44d2-98c8-dfbf78288a63","ios":"levelo://app?vid=b4b912dd-25bf-44d2-98c8-dfbf78288a63"},"vehicle_type_id":"4","last_reported":1703200033,"current_range_meters":13600,"station_id":"ce4bhb12rcd13ifvqel0","pricing_plan_id":"free"},{"bike_id":"bcb17db0-4c96-4c3f-9c44-3da4921a3ab0","system_id":"levelo_inurba_marseille","lat":43.313291,"lon":5.396838,"is_reserved":false,"is_disabled":false,"rental_uris":{"android":"levelo://app?vid=bcb17db0-4c96-4c3f-9c44-3da4921a3ab0","ios":"levelo://app?vid=bcb17db0-4c96-4c3f-9c44-3da4921a3ab0"},"vehicle_type_id":"4","last_reported":1703200033,"current_range_meters":26400,"station_id":"ce4bgvp2rcd13ifvqcu0","pricing_plan_id":"free"},{"bike_id":"7600b465-ae55-430f-a74a-3301103ebfcf","system_id":"levelo_inurba_marseille","lat":43.313291,"lon":5.396838,"is_reserved":false,"is_disabled":false,"rental_uris":{"android":"levelo://app?vid=7600b465-ae55-430f-a74a-3301103ebfcf","ios":"levelo://app?vid=7600b465-ae55-430f-a74a-3301103ebfcf"},"vehicle_type_id":"4","last_reported":1703200033,"current_range_meters":29600,"station_id":"ce4bgvp2rcd13ifvqcu0","pricing_plan_id":"free"},{"bike_id":"6d67199e-5b51-4ba4-94ac-430245e36f8b","system_id":"levelo_inurba_marseille","lat":43.313291,"lon":5.396838,"is_reserved":false,"is_disabled":false,"rental_uris":{"android":"levelo://app?vid=6d67199e-5b51-4ba4-94ac-430245e36f8b","ios":"levelo://app?vid=6d67199e-5b51-4ba4-94ac-430245e36f8b"},"vehicle_type_id":"4","last_reported":1703200033,"current_range_meters":16400,"station_id":"ce4bgvp2rcd13ifvqcu0","pricing_plan_id":"free"},{"bike_id":"16349042-18f1-4e7d-97f4-7178285831ac","system_id":"levelo_inurba_marseille","lat":43.309038,"lon":5.396546,"is_reserved":false,"is_disabled":false,"rental_uris":{"android":"levelo://app?vid=16349042-18f1-4e7d-97f4-7178285831ac","ios":"levelo://app?vid=16349042-18f1-4e7d-97f4-7178285831ac"},"vehicle_type_id":"4","last_reported":1703200033,"current_range_meters":4000,"station_id":"ce4bh012rcd13ifvqcv0","pricing_plan_id":"free"},{"bike_id":"69639dcb-a01c-47c8-a5f5-8d1c2f62795e","system_id":"levelo_inurba_marseille","lat":43.313291,"lon":5.396838,"is_reserved":false,"is_disabled":false,"rental_uris":{"android":"levelo://app?vid=69639dcb-a01c-47c8-a5f5-8d1c2f62795e","ios":"levelo://app?vid=69639dcb-a01c-47c8-a5f5-8d1c2f62795e"},"vehicle_type_id":"4","last_reported":1703200033,"current_range_meters":5200,"station_id":"ce4bgvp2rcd13ifvqcu0","pricing_plan_id":"free"},{"bike_id":"c3948eec-28f0-4303-b549-fabdcb143893","system_id":"levelo_inurba_marseille","lat":43.313291,"lon":5.396838,"is_reserved":false,"is_disabled":false,"rental_uris":{"android":"levelo://app?vid=c3948eec-28f0-4303-b549-fabdcb143893","ios":"levelo://app?vid=c3948eec-28f0-4303-b549-fabdcb143893"},"vehicle_type_id":"4","last_reported":1703200033,"current_range_meters":18400,"station_id":"ce4bgvp2rcd13ifvqcu0","pricing_plan_id":"free"},{"bike_id":"434d14e8-130f-405b-8158-613dd2934d56","system_id":"levelo_inurba_marseille","lat":43.313291,"lon":5.396838,"is_reserved":false,"is_disabled":false,"rental_uris":{"android":"levelo://app?vid=434d14e8-130f-405b-8158-613dd2934d56","ios":"levelo://app?vid=434d14e8-130f-405b-8158-613dd2934d56"},"vehicle_type_id":"4","last_reported":1703200033,"current_range_meters":31200,"station_id":"ce4bgvp2rcd13ifvqcu0","pricing_plan_id":"free"},{"bike_id":"98d32d63-4e61-4cb1-8956-26130116eb84","system_id":"levelo_inurba_marseille","lat":43.313291,"lon":5.396838,"is_reserved":false,"is_disabled":false,"rental_uris":{"android":"levelo://app?vid=98d32d63-4e61-4cb1-8956-26130116eb84","ios":"levelo://app?vid=98d32d63-4e61-4cb1-8956-26130116eb84"},"vehicle_type_id":"4","last_reported":1703200033,"current_range_meters":7200,"station_id":"ce4bgvp2rcd13ifvqcu0","pricing_plan_id":"free"},{"bike_id":"e15180be-0f1e-4dc8-acdb-8d6edc541f43","system_id":"levelo_inurba_marseille","lat":43.313291,"lon":5.396838,"is_reserved":false,"is_disabled":false,"rental_uris":{"android":"levelo://app?vid=e15180be-0f1e-4dc8-acdb-8d6edc541f43","ios":"levelo://app?vid=e15180be-0f1e-4dc8-acdb-8d6edc541f43"},"vehicle_type_id":"4","last_reported":1703200033,"current_range_meters":18400,"station_id":"ce4bgvp2rcd13ifvqcu0","pricing_plan_id":"free"},{"bike_id":"429d051d-e7af-4a1d-81db-ac4f095bf4cd","system_id":"levelo_inurba_marseille","lat":43.309038,"lon":5.396546,"is_reserved":false,"is_disabled":false,"rental_uris":{"android":"levelo://app?vid=429d051d-e7af-4a1d-81db-ac4f095bf4cd","ios":"levelo://app?vid=429d051d-e7af-4a1d-81db-ac4f095bf4cd"},"vehicle_type_id":"4","last_reported":1703200033,"current_range_meters":8800,"station_id":"ce4bh012rcd13ifvqcv0","pricing_plan_id":"free"},{"bike_id":"569df881-44aa-4fb0-bd43-e2c14ad0998e","system_id":"levelo_inurba_marseille","lat":43.309038,"lon":5.396546,"is_reserved":false,"is_disabled":false,"rental_uris":{"android":"levelo://app?vid=569df881-44aa-4fb0-bd43-e2c14ad0998e","ios":"levelo://app?vid=569df881-44aa-4fb0-bd43-e2c14ad0998e"},"vehicle_type_id":"4","last_reported":1703200033,"current_range_meters":31200,"station_id":"ce4bh012rcd13ifvqcv0","pricing_plan_id":"free"},{"bike_id":"9d58efe2-96e6-4766-9ebc-c407ffa9d805","system_id":"levelo_inurba_marseille","lat":43.309038,"lon":5.396546,"is_reserved":false,"is_disabled":false,"rental_uris":{"android":"levelo://app?vid=9d58efe2-96e6-4766-9ebc-c407ffa9d805","ios":"levelo://app?vid=9d58efe2-96e6-4766-9ebc-c407ffa9d805"},"vehicle_type_id":"4","last_reported":1703200033,"current_range_meters":18400,"station_id":"ce4bh012rcd13ifvqcv0","pricing_plan_id":"free"},{"bike_id":"45f99cda-befa-42ee-a2ee-ea05b8e79130","system_id":"levelo_inurba_marseille","lat":43.313291,"lon":5.396838,"is_reserved":false,"is_disabled":false,"rental_uris":{"android":"levelo://app?vid=45f99cda-befa-42ee-a2ee-ea05b8e79130","ios":"levelo://app?vid=45f99cda-befa-42ee-a2ee-ea05b8e79130"},"vehicle_type_id":"4","last_reported":1703200033,"current_range_meters":29600,"station_id":"ce4bgvp2rcd13ifvqcu0","pricing_plan_id":"free"},{"bike_id":"2b006d69-4f76-4ed4-abec-b77aa64c31cb","system_id":"levelo_inurba_marseille","lat":43.309047,"lon":5.396551,"is_reserved":false,"is_disabled":false,"rental_uris":{"android":"levelo://app?vid=2b006d69-4f76-4ed4-abec-b77aa64c31cb","ios":"levelo://app?vid=2b006d69-4f76-4ed4-abec-b77aa64c31cb"},"vehicle_type_id":"4","last_reported":1703200033,"current_range_meters":18800,"station_id":"ce4bh012rcd13ifvqcv0","pricing_plan_id":"free"},{"bike_id":"95a3e35a-3104-4144-8d27-87d5a86d65e6","system_id":"levelo_inurba_marseille","lat":43.313291,"lon":5.396838,"is_reserved":false,"is_disabled":false,"rental_uris":{"android":"levelo://app?vid=95a3e35a-3104-4144-8d27-87d5a86d65e6","ios":"levelo://app?vid=95a3e35a-3104-4144-8d27-87d5a86d65e6"},"vehicle_type_id":"4","last_reported":1703200033,"current_range_meters":22400,"station_id":"ce4bgvp2rcd13ifvqcu0","pricing_plan_id":"free"},{"bike_id":"9a72a070-340e-4e31-86ee-2eadf9466fe5","system_id":"levelo_inurba_marseille","lat":43.309038,"lon":5.396546,"is_reserved":false,"is_disabled":false,"rental_uris":{"android":"levelo://app?vid=9a72a070-340e-4e31-86ee-2eadf9466fe5","ios":"levelo://app?vid=9a72a070-340e-4e31-86ee-2eadf9466fe5"},"vehicle_type_id":"4","last_reported":1703200033,"current_range_meters":10400,"station_id":"ce4bh012rcd13ifvqcv0","pricing_plan_id":"free"},{"bike_id":"dadec077-0df0-4e3f-a2e2-94987a23d35f","system_id":"levelo_inurba_marseille","lat":43.313291,"lon":5.396838,"is_reserved":false,"is_disabled":false,"rental_uris":{"android":"levelo://app?vid=dadec077-0df0-4e3f-a2e2-94987a23d35f","ios":"levelo://app?vid=dadec077-0df0-4e3f-a2e2-94987a23d35f"},"vehicle_type_id":"4","last_reported":1703200033,"current_range_meters":29200,"station_id":"ce4bgvp2rcd13ifvqcu0","pricing_plan_id":"free"},{"bike_id":"888ab3f5-711d-4c9d-a655-ee5593bdfbc9","system_id":"levelo_inurba_marseille","lat":43.29529,"lon":5.385581,"is_reserved":false,"is_disabled":false,"rental_uris":{"android":"levelo://app?vid=888ab3f5-711d-4c9d-a655-ee5593bdfbc9","ios":"levelo://app?vid=888ab3f5-711d-4c9d-a655-ee5593bdfbc9"},"vehicle_type_id":"4","last_reported":1703200033,"current_range_meters":25200,"station_id":"ce4bgih2rcd13ifvqba0","pricing_plan_id":"free"},{"bike_id":"e0b733d2-1149-4b09-a7e6-851a2c15bca4","system_id":"levelo_inurba_marseille","lat":43.293528,"lon":5.383511,"is_reserved":false,"is_disabled":false,"rental_uris":{"android":"levelo://app?vid=e0b733d2-1149-4b09-a7e6-851a2c15bca4","ios":"levelo://app?vid=e0b733d2-1149-4b09-a7e6-851a2c15bca4"},"vehicle_type_id":"4","last_reported":1703200033,"current_range_meters":3200,"station_id":"","pricing_plan_id":"free"},{"bike_id":"cf733848-d84b-499e-87a3-c89b7cff5fb7","system_id":"levelo_inurba_marseille","lat":43.30218,"lon":5.39472,"is_reserved":false,"is_disabled":false,"rental_uris":{"android":"levelo://app?vid=cf733848-d84b-499e-87a3-c89b7cff5fb7","ios":"levelo://app?vid=cf733848-d84b-499e-87a3-c89b7cff5fb7"},"vehicle_type_id":"4","last_reported":1703200033,"current_range_meters":0,"station_id":"ce4bh0p2rcd13ifvqd70","pricing_plan_id":"free"},{"bike_id":"db895390-4419-486d-8265-8334c5090090","system_id":"levelo_inurba_marseille","lat":43.290624,"lon":5.359245,"is_reserved":false,"is_disabled":false,"rental_uris":{"android":"levelo://app?vid=db895390-4419-486d-8265-8334c5090090","ios":"levelo://app?vid=db895390-4419-486d-8265-8334c5090090"},"vehicle_type_id":"4","last_reported":1703200033,"current_range_meters":18800,"station_id":"ce4bha92rcd13ifvqeg0","pricing_plan_id":"free"},{"bike_id":"20aefd0d-4e21-4f4f-8108-d84f6ad10e13","system_id":"levelo_inurba_marseille","lat":43.290327,"lon":5.375711,"is_reserved":false,"is_disabled":false,"rental_uris":{"android":"levelo://app?vid=20aefd0d-4e21-4f4f-8108-d84f6ad10e13","ios":"levelo://app?vid=20aefd0d-4e21-4f4f-8108-d84f6ad10e13"},"vehicle_type_id":"4","last_reported":1703200033,"current_range_meters":0,"station_id":"ce4bh692rcd13ifvqe90","pricing_plan_id":"free"},{"bike_id":"5d5d7646-344d-48b9-9034-7f883ec9ad4a","system_id":"levelo_inurba_marseille","lat":43.294162,"lon":5.386292,"is_reserved":false,"is_disabled":false,"rental_uris":{"android":"levelo://app?vid=5d5d7646-344d-48b9-9034-7f883ec9ad4a","ios":"levelo://app?vid=5d5d7646-344d-48b9-9034-7f883ec9ad4a"},"vehicle_type_id":"4","last_reported":1703200033,"current_range_meters":16800,"station_id":"ce4bh2h2rcd13ifvqdh0","pricing_plan_id":"free"},{"bike_id":"aaf369e7-b0c4-4783-bce7-5c4e29d8ca47","system_id":"levelo_inurba_marseille","lat":43.29261,"lon":5.38445,"is_reserved":false,"is_disabled":false,"rental_uris":{"android":"levelo://app?vid=aaf369e7-b0c4-4783-bce7-5c4e29d8ca47","ios":"levelo://app?vid=aaf369e7-b0c4-4783-bce7-5c4e29d8ca47"},"vehicle_type_id":"4","last_reported":1703200033,"current_range_meters":0,"station_id":"ce4bh692rcd13ifvqea0","pricing_plan_id":"free"},{"bike_id":"172aa6bc-4bb0-4030-9da2-5dc735cbc145","system_id":"levelo_inurba_marseille","lat":43.304296,"lon":5.397513,"is_reserved":false,"is_disabled":false,"rental_uris":{"android":"levelo://app?vid=172aa6bc-4bb0-4030-9da2-5dc735cbc145","ios":"levelo://app?vid=172aa6bc-4bb0-4030-9da2-5dc735cbc145"},"vehicle_type_id":"4","last_reported":1703200033,"current_range_meters":15200,"station_id":"ce4bh092rcd13ifvqd20","pricing_plan_id":"free"},{"bike_id":"de68e452-23c9-4df1-a51c-1f8969ea80bf","system_id":"levelo_inurba_marseille","lat":43.304296,"lon":5.397513,"is_reserved":false,"is_disabled":false,"rental_uris":{"android":"levelo://app?vid=de68e452-23c9-4df1-a51c-1f8969ea80bf","ios":"levelo://app?vid=de68e452-23c9-4df1-a51c-1f8969ea80bf"},"vehicle_type_id":"4","last_reported":1703200033,"current_range_meters":16400,"station_id":"ce4bh092rcd13ifvqd20","pricing_plan_id":"free"},{"bike_id":"4eb255d5-3dcd-4eaf-b86c-a5f726c59d86","system_id":"levelo_inurba_marseille","lat":43.304274,"lon":5.397513,"is_reserved":false,"is_disabled":false,"rental_uris":{"android":"levelo://app?vid=4eb255d5-3dcd-4eaf-b86c-a5f726c59d86","ios":"levelo://app?vid=4eb255d5-3dcd-4eaf-b86c-a5f726c59d86"},"vehicle_type_id":"4","last_reported":1703200033,"current_range_meters":13200,"station_id":"ce4bh092rcd13ifvqd20","pricing_plan_id":"free"},{"bike_id":"fe04619a-837f-4215-99fb-c7797369a2b1","system_id":"levelo_inurba_marseille","lat":43.330442,"lon":5.389148,"is_reserved":false,"is_disabled":false,"rental_uris":{"android":"levelo://app?vid=fe04619a-837f-4215-99fb-c7797369a2b1","ios":"levelo://app?vid=fe04619a-837f-4215-99fb-c7797369a2b1"},"vehicle_type_id":"4","last_reported":1703200033,"current_range_meters":20000,"station_id":"ce4bhr92rcd13ifvqhrg","pricing_plan_id":"free"},{"bike_id":"d1ec01e1-0aa6-4edf-955c-50bb28240103","system_id":"levelo_inurba_marseille","lat":43.29781,"lon":5.39334,"is_reserved":false,"is_disabled":false,"rental_uris":{"android":"levelo://app?vid=d1ec01e1-0aa6-4edf-955c-50bb28240103","ios":"levelo://app?vid=d1ec01e1-0aa6-4edf-955c-50bb28240103"},"vehicle_type_id":"4","last_reported":1703200033,"current_range_meters":20400,"station_id":"chh1huq6cuj3fo74tm60","pricing_plan_id":"free"},{"bike_id":"35a9c6ce-a812-4193-a62e-ac16dcd1226a","system_id":"levelo_inurba_marseille","lat":43.28856,"lon":5.358371,"is_reserved":false,"is_disabled":false,"rental_uris":{"android":"levelo://app?vid=35a9c6ce-a812-4193-a62e-ac16dcd1226a","ios":"levelo://app?vid=35a9c6ce-a812-4193-a62e-ac16dcd1226a"},"vehicle_type_id":"4","last_reported":1703200033,"current_range_meters":6400,"station_id":"ce4bhb12rcd13ifvqem0","pricing_plan_id":"free"},{"bike_id":"2d69ba61-662c-4ce0-8aea-66e66ad60cb7","system_id":"levelo_inurba_marseille","lat":43.28856,"lon":5.358371,"is_reserved":false,"is_disabled":false,"rental_uris":{"android":"levelo://app?vid=2d69ba61-662c-4ce0-8aea-66e66ad60cb7","ios":"levelo://app?vid=2d69ba61-662c-4ce0-8aea-66e66ad60cb7"},"vehicle_type_id":"4","last_reported":1703200033,"current_range_meters":0,"station_id":"ce4bhb12rcd13ifvqem0","pricing_plan_id":"free"},{"bike_id":"95a5d527-02e9-4477-bca4-7a559443ba1e","system_id":"levelo_inurba_marseille","lat":43.28856,"lon":5.358371,"is_reserved":false,"is_disabled":false,"rental_uris":{"android":"levelo://app?vid=95a5d527-02e9-4477-bca4-7a559443ba1e","ios":"levelo://app?vid=95a5d527-02e9-4477-bca4-7a559443ba1e"},"vehicle_type_id":"4","last_reported":1703200033,"current_range_meters":5200,"station_id":"ce4bhb12rcd13ifvqem0","pricing_plan_id":"free"},{"bike_id":"41cf56c2-064a-488c-8678-1cb6b2316c86","system_id":"levelo_inurba_marseille","lat":43.312609,"lon":5.401662,"is_reserved":false,"is_disabled":false,"rental_uris":{"android":"levelo://app?vid=41cf56c2-064a-488c-8678-1cb6b2316c86","ios":"levelo://app?vid=41cf56c2-064a-488c-8678-1cb6b2316c86"},"vehicle_type_id":"4","last_reported":1703200033,"current_range_meters":17600,"station_id":"ce4bh092rcd13ifvqd30","pricing_plan_id":"free"},{"bike_id":"67abd277-34ea-4c59-887b-fda661dbaabf","system_id":"levelo_inurba_marseille","lat":43.312609,"lon":5.401662,"is_reserved":false,"is_disabled":false,"rental_uris":{"android":"levelo://app?vid=67abd277-34ea-4c59-887b-fda661dbaabf","ios":"levelo://app?vid=67abd277-34ea-4c59-887b-fda661dbaabf"},"vehicle_type_id":"4","last_reported":1703200033,"current_range_meters":13600,"station_id":"ce4bh092rcd13ifvqd30","pricing_plan_id":"free"},{"bike_id":"0758ba9b-eec1-4a13-8fa3-d200e4b83daf","system_id":"levelo_inurba_marseille","lat":43.312609,"lon":5.401662,"is_reserved":false,"is_disabled":false,"rental_uris":{"android":"levelo://app?vid=0758ba9b-eec1-4a13-8fa3-d200e4b83daf","ios":"levelo://app?vid=0758ba9b-eec1-4a13-8fa3-d200e4b83daf"},"vehicle_type_id":"4","last_reported":1703200033,"current_range_meters":17200,"station_id":"ce4bh092rcd13ifvqd30","pricing_plan_id":"free"},{"bike_id":"f686e92f-8790-4c07-83c0-e05c875b57d5","system_id":"levelo_inurba_marseille","lat":43.309371,"lon":5.401449,"is_reserved":false,"is_disabled":false,"rental_uris":{"android":"levelo://app?vid=f686e92f-8790-4c07-83c0-e05c875b57d5","ios":"levelo://app?vid=f686e92f-8790-4c07-83c0-e05c875b57d5"},"vehicle_type_id":"4","last_reported":1703200033,"current_range_meters":8800,"station_id":"ce4bgvp2rcd13ifvqct0","pricing_plan_id":"free"},{"bike_id":"ebf3225b-de32-4ebc-a384-2b27cb8bd7c4","system_id":"levelo_inurba_marseille","lat":43.309371,"lon":5.401449,"is_reserved":false,"is_disabled":false,"rental_uris":{"android":"levelo://app?vid=ebf3225b-de32-4ebc-a384-2b27cb8bd7c4","ios":"levelo://app?vid=ebf3225b-de32-4ebc-a384-2b27cb8bd7c4"},"vehicle_type_id":"4","last_reported":1703200033,"current_range_meters":0,"station_id":"ce4bgvp2rcd13ifvqct0","pricing_plan_id":"free"},{"bike_id":"e1a15999-4e71-4737-bb98-fc09469ec223","system_id":"levelo_inurba_marseille","lat":43.312609,"lon":5.401662,"is_reserved":false,"is_disabled":false,"rental_uris":{"android":"levelo://app?vid=e1a15999-4e71-4737-bb98-fc09469ec223","ios":"levelo://app?vid=e1a15999-4e71-4737-bb98-fc09469ec223"},"vehicle_type_id":"4","last_reported":1703200033,"current_range_meters":16800,"station_id":"ce4bh092rcd13ifvqd30","pricing_plan_id":"free"},{"bike_id":"c62081a9-054a-47fc-8011-a33d30c94aca","system_id":"levelo_inurba_marseille","lat":43.30929,"lon":5.40144,"is_reserved":false,"is_disabled":false,"rental_uris":{"android":"levelo://app?vid=c62081a9-054a-47fc-8011-a33d30c94aca","ios":"levelo://app?vid=c62081a9-054a-47fc-8011-a33d30c94aca"},"vehicle_type_id":"4","last_reported":1703200033,"current_range_meters":9200,"station_id":"ce4bgvp2rcd13ifvqct0","pricing_plan_id":"free"},{"bike_id":"1a59bbe6-4ce8-4bd7-8490-51717c6c735e","system_id":"levelo_inurba_marseille","lat":43.312609,"lon":5.401662,"is_reserved":false,"is_disabled":false,"rental_uris":{"android":"levelo://app?vid=1a59bbe6-4ce8-4bd7-8490-51717c6c735e","ios":"levelo://app?vid=1a59bbe6-4ce8-4bd7-8490-51717c6c735e"},"vehicle_type_id":"4","last_reported":1703200033,"current_range_meters":4800,"station_id":"ce4bh092rcd13ifvqd30","pricing_plan_id":"free"},{"bike_id":"da224aca-9757-4a57-88ba-cd0e45a5fdd2","system_id":"levelo_inurba_marseille","lat":43.309371,"lon":5.401449,"is_reserved":false,"is_disabled":false,"rental_uris":{"android":"levelo://app?vid=da224aca-9757-4a57-88ba-cd0e45a5fdd2","ios":"levelo://app?vid=da224aca-9757-4a57-88ba-cd0e45a5fdd2"},"vehicle_type_id":"4","last_reported":1703200033,"current_range_meters":10400,"station_id":"ce4bgvp2rcd13ifvqct0","pricing_plan_id":"free"},{"bike_id":"284f9061-f39d-4a8d-b72d-d997729b14de","system_id":"levelo_inurba_marseille","lat":43.312609,"lon":5.401662,"is_reserved":false,"is_disabled":false,"rental_uris":{"android":"levelo://app?vid=284f9061-f39d-4a8d-b72d-d997729b14de","ios":"levelo://app?vid=284f9061-f39d-4a8d-b72d-d997729b14de"},"vehicle_type_id":"4","last_reported":1703200033,"current_range_meters":3200,"station_id":"ce4bh092rcd13ifvqd30","pricing_plan_id":"free"},{"bike_id":"5c81a891-9f9f-45af-8799-b5e5314532fa","system_id":"levelo_inurba_marseille","lat":43.33756,"lon":5.37433,"is_reserved":false,"is_disabled":false,"rental_uris":{"android":"levelo://app?vid=5c81a891-9f9f-45af-8799-b5e5314532fa","ios":"levelo://app?vid=5c81a891-9f9f-45af-8799-b5e5314532fa"},"vehicle_type_id":"4","last_reported":1703200033,"current_range_meters":24800,"station_id":"","pricing_plan_id":"free"},{"bike_id":"77e6b6ed-e434-41b9-8e36-952127e579ff","system_id":"levelo_inurba_marseille","lat":43.306412,"lon":5.401035,"is_reserved":false,"is_disabled":false,"rental_uris":{"android":"levelo://app?vid=77e6b6ed-e434-41b9-8e36-952127e579ff","ios":"levelo://app?vid=77e6b6ed-e434-41b9-8e36-952127e579ff"},"vehicle_type_id":"4","last_reported":1703200033,"current_range_meters":5600,"station_id":"ce4bh112rcd13ifvqda0","pricing_plan_id":"free"},{"bike_id":"337955db-d8ba-4f5e-b077-77e188f45be6","system_id":"levelo_inurba_marseille","lat":43.306625,"lon":5.400925,"is_reserved":false,"is_disabled":false,"rental_uris":{"android":"levelo://app?vid=337955db-d8ba-4f5e-b077-77e188f45be6","ios":"levelo://app?vid=337955db-d8ba-4f5e-b077-77e188f45be6"},"vehicle_type_id":"4","last_reported":1703200033,"current_range_meters":20400,"station_id":"ce4bh112rcd13ifvqda0","pricing_plan_id":"free"},{"bike_id":"763fa1e9-ee9c-42de-8f1e-f64d2f8cdbc0","system_id":"levelo_inurba_marseille","lat":43.306412,"lon":5.401035,"is_reserved":false,"is_disabled":false,"rental_uris":{"android":"levelo://app?vid=763fa1e9-ee9c-42de-8f1e-f64d2f8cdbc0","ios":"levelo://app?vid=763fa1e9-ee9c-42de-8f1e-f64d2f8cdbc0"},"vehicle_type_id":"4","last_reported":1703200033,"current_range_meters":12800,"station_id":"ce4bh112rcd13ifvqda0","pricing_plan_id":"free"},{"bike_id":"a4d298b7-c127-45cd-9124-4eff460c842c","system_id":"levelo_inurba_marseille","lat":43.301338,"lon":5.398616,"is_reserved":false,"is_disabled":false,"rental_uris":{"android":"levelo://app?vid=a4d298b7-c127-45cd-9124-4eff460c842c","ios":"levelo://app?vid=a4d298b7-c127-45cd-9124-4eff460c842c"},"vehicle_type_id":"4","last_reported":1703200033,"current_range_meters":4800,"station_id":"ce4bh0h2rcd13ifvqd40","pricing_plan_id":"free"},{"bike_id":"5f147c6d-83bf-4674-b7cd-cac60e2f3776","system_id":"levelo_inurba_marseille","lat":43.28727,"lon":5.36078,"is_reserved":false,"is_disabled":false,"rental_uris":{"android":"levelo://app?vid=5f147c6d-83bf-4674-b7cd-cac60e2f3776","ios":"levelo://app?vid=5f147c6d-83bf-4674-b7cd-cac60e2f3776"},"vehicle_type_id":"4","last_reported":1703200033,"current_range_meters":22800,"station_id":"cki0cbj6b192h4jlfktg","pricing_plan_id":"free"},{"bike_id":"986bbb1d-0459-4b21-829b-5da168e40ec0","system_id":"levelo_inurba_marseille","lat":43.28727,"lon":5.36078,"is_reserved":false,"is_disabled":false,"rental_uris":{"android":"levelo://app?vid=986bbb1d-0459-4b21-829b-5da168e40ec0","ios":"levelo://app?vid=986bbb1d-0459-4b21-829b-5da168e40ec0"},"vehicle_type_id":"4","last_reported":1703200033,"current_range_meters":9200,"station_id":"cki0cbj6b192h4jlfktg","pricing_plan_id":"free"},{"bike_id":"e63c5e04-8e78-4297-b9b1-7f8e3ad98104","system_id":"levelo_inurba_marseille","lat":43.28727,"lon":5.36078,"is_reserved":false,"is_disabled":false,"rental_uris":{"android":"levelo://app?vid=e63c5e04-8e78-4297-b9b1-7f8e3ad98104","ios":"levelo://app?vid=e63c5e04-8e78-4297-b9b1-7f8e3ad98104"},"vehicle_type_id":"4","last_reported":1703200033,"current_range_meters":21600,"station_id":"cki0cbj6b192h4jlfktg","pricing_plan_id":"free"},{"bike_id":"a96b6b94-efb1-4357-a5ac-d7d9e034cee8","system_id":"levelo_inurba_marseille","lat":43.286591,"lon":5.363346,"is_reserved":false,"is_disabled":false,"rental_uris":{"android":"levelo://app?vid=a96b6b94-efb1-4357-a5ac-d7d9e034cee8","ios":"levelo://app?vid=a96b6b94-efb1-4357-a5ac-d7d9e034cee8"},"vehicle_type_id":"4","last_reported":1703200033,"current_range_meters":12800,"station_id":"ce4bhah2rcd13ifvqej0","pricing_plan_id":"free"},{"bike_id":"901d1908-4990-4e58-aa83-abb419e3b86b","system_id":"levelo_inurba_marseille","lat":43.286961,"lon":5.373785,"is_reserved":false,"is_disabled":false,"rental_uris":{"android":"levelo://app?vid=901d1908-4990-4e58-aa83-abb419e3b86b","ios":"levelo://app?vid=901d1908-4990-4e58-aa83-abb419e3b86b"},"vehicle_type_id":"4","last_reported":1703200033,"current_range_meters":29600,"station_id":"ce4bh3p2rcd13ifvqdq0","pricing_plan_id":"free"},{"bike_id":"e3c12787-3f7b-4bfc-9d77-caf5ab1028ee","system_id":"levelo_inurba_marseille","lat":43.286593,"lon":5.363346,"is_reserved":false,"is_disabled":false,"rental_uris":{"android":"levelo://app?vid=e3c12787-3f7b-4bfc-9d77-caf5ab1028ee","ios":"levelo://app?vid=e3c12787-3f7b-4bfc-9d77-caf5ab1028ee"},"vehicle_type_id":"4","last_reported":1703200033,"current_range_meters":8400,"station_id":"ce4bhah2rcd13ifvqej0","pricing_plan_id":"free"},{"bike_id":"89433364-ad66-4313-8d46-f7ba412fb27c","system_id":"levelo_inurba_marseille","lat":43.295194,"lon":5.39397,"is_reserved":false,"is_disabled":false,"rental_uris":{"android":"levelo://app?vid=89433364-ad66-4313-8d46-f7ba412fb27c","ios":"levelo://app?vid=89433364-ad66-4313-8d46-f7ba412fb27c"},"vehicle_type_id":"4","last_reported":1703200033,"current_range_meters":20000,"station_id":"ce4bh292rcd13ifvqdf0","pricing_plan_id":"free"},{"bike_id":"657b4d30-11c4-4174-ae70-5f17e3ee8719","system_id":"levelo_inurba_marseille","lat":43.286039,"lon":5.370679,"is_reserved":false,"is_disabled":false,"rental_uris":{"android":"levelo://app?vid=657b4d30-11c4-4174-ae70-5f17e3ee8719","ios":"levelo://app?vid=657b4d30-11c4-4174-ae70-5f17e3ee8719"},"vehicle_type_id":"4","last_reported":1703200033,"current_range_meters":31200,"station_id":"ce4bht12rcd13ifvqi60","pricing_plan_id":"free"},{"bike_id":"430baf06-062a-4867-a119-822c567c5487","system_id":"levelo_inurba_marseille","lat":43.286039,"lon":5.370679,"is_reserved":false,"is_disabled":false,"rental_uris":{"android":"levelo://app?vid=430baf06-062a-4867-a119-822c567c5487","ios":"levelo://app?vid=430baf06-062a-4867-a119-822c567c5487"},"vehicle_type_id":"4","last_reported":1703200033,"current_range_meters":4400,"station_id":"ce4bht12rcd13ifvqi60","pricing_plan_id":"free"},{"bike_id":"4d882ab1-2188-4a1b-93c0-ea8a8c1f82e2","system_id":"levelo_inurba_marseille","lat":43.286039,"lon":5.370679,"is_reserved":false,"is_disabled":false,"rental_uris":{"android":"levelo://app?vid=4d882ab1-2188-4a1b-93c0-ea8a8c1f82e2","ios":"levelo://app?vid=4d882ab1-2188-4a1b-93c0-ea8a8c1f82e2"},"vehicle_type_id":"4","last_reported":1703200033,"current_range_meters":30800,"station_id":"ce4bht12rcd13ifvqi60","pricing_plan_id":"free"},{"bike_id":"983ef4bd-15ac-4651-8cde-3bd14abec0b1","system_id":"levelo_inurba_marseille","lat":43.28604,"lon":5.37068,"is_reserved":false,"is_disabled":false,"rental_uris":{"android":"levelo://app?vid=983ef4bd-15ac-4651-8cde-3bd14abec0b1","ios":"levelo://app?vid=983ef4bd-15ac-4651-8cde-3bd14abec0b1"},"vehicle_type_id":"4","last_reported":1703200033,"current_range_meters":0,"station_id":"ce4bht12rcd13ifvqi60","pricing_plan_id":"free"},{"bike_id":"b5ba4e31-c8a5-4cda-8e3b-5ca032e9d193","system_id":"levelo_inurba_marseille","lat":43.316821,"lon":5.404737,"is_reserved":false,"is_disabled":false,"rental_uris":{"android":"levelo://app?vid=b5ba4e31-c8a5-4cda-8e3b-5ca032e9d193","ios":"levelo://app?vid=b5ba4e31-c8a5-4cda-8e3b-5ca032e9d193"},"vehicle_type_id":"4","last_reported":1703200033,"current_range_meters":15200,"station_id":"ce4bh012rcd13ifvqd00","pricing_plan_id":"free"},{"bike_id":"1e55e673-918d-4cf6-80fd-f45266ebab14","system_id":"levelo_inurba_marseille","lat":43.291994,"lon":5.392907,"is_reserved":false,"is_disabled":false,"rental_uris":{"android":"levelo://app?vid=1e55e673-918d-4cf6-80fd-f45266ebab14","ios":"levelo://app?vid=1e55e673-918d-4cf6-80fd-f45266ebab14"},"vehicle_type_id":"4","last_reported":1703200033,"current_range_meters":16400,"station_id":"ce4bh192rcd13ifvqdd0","pricing_plan_id":"free"},{"bike_id":"bbde1f42-39d2-4490-bb59-99d5e62269d1","system_id":"levelo_inurba_marseille","lat":43.291994,"lon":5.392907,"is_reserved":false,"is_disabled":false,"rental_uris":{"android":"levelo://app?vid=bbde1f42-39d2-4490-bb59-99d5e62269d1","ios":"levelo://app?vid=bbde1f42-39d2-4490-bb59-99d5e62269d1"},"vehicle_type_id":"4","last_reported":1703200033,"current_range_meters":14800,"station_id":"ce4bh192rcd13ifvqdd0","pricing_plan_id":"free"},{"bike_id":"9f6fd695-f9c2-4bb4-b99c-d03d84e28ba5","system_id":"levelo_inurba_marseille","lat":43.284538,"lon":5.358657,"is_reserved":false,"is_disabled":false,"rental_uris":{"android":"levelo://app?vid=9f6fd695-f9c2-4bb4-b99c-d03d84e28ba5","ios":"levelo://app?vid=9f6fd695-f9c2-4bb4-b99c-d03d84e28ba5"},"vehicle_type_id":"4","last_reported":1703200033,"current_range_meters":25200,"station_id":"ce4bhah2rcd13ifvqei0","pricing_plan_id":"free"},{"bike_id":"f126ae5e-6708-48a4-b28e-207953f4a8c6","system_id":"levelo_inurba_marseille","lat":43.284538,"lon":5.358657,"is_reserved":false,"is_disabled":false,"rental_uris":{"android":"levelo://app?vid=f126ae5e-6708-48a4-b28e-207953f4a8c6","ios":"levelo://app?vid=f126ae5e-6708-48a4-b28e-207953f4a8c6"},"vehicle_type_id":"4","last_reported":1703200033,"current_range_meters":7200,"station_id":"ce4bhah2rcd13ifvqei0","pricing_plan_id":"free"},{"bike_id":"7c2636e3-4942-4723-b44c-8451a7ead0ad","system_id":"levelo_inurba_marseille","lat":43.284538,"lon":5.358657,"is_reserved":false,"is_disabled":false,"rental_uris":{"android":"levelo://app?vid=7c2636e3-4942-4723-b44c-8451a7ead0ad","ios":"levelo://app?vid=7c2636e3-4942-4723-b44c-8451a7ead0ad"},"vehicle_type_id":"4","last_reported":1703200033,"current_range_meters":22800,"station_id":"ce4bhah2rcd13ifvqei0","pricing_plan_id":"free"},{"bike_id":"d831b56a-b1fc-47e5-b882-a485e822b747","system_id":"levelo_inurba_marseille","lat":43.284609,"lon":5.359001,"is_reserved":false,"is_disabled":false,"rental_uris":{"android":"levelo://app?vid=d831b56a-b1fc-47e5-b882-a485e822b747","ios":"levelo://app?vid=d831b56a-b1fc-47e5-b882-a485e822b747"},"vehicle_type_id":"4","last_reported":1703200033,"current_range_meters":0,"station_id":"ce4bhah2rcd13ifvqei0","pricing_plan_id":"free"},{"bike_id":"81bd09d0-ce4c-4a7e-981c-d4a1fbb9d52d","system_id":"levelo_inurba_marseille","lat":43.284538,"lon":5.358657,"is_reserved":false,"is_disabled":false,"rental_uris":{"android":"levelo://app?vid=81bd09d0-ce4c-4a7e-981c-d4a1fbb9d52d","ios":"levelo://app?vid=81bd09d0-ce4c-4a7e-981c-d4a1fbb9d52d"},"vehicle_type_id":"4","last_reported":1703200033,"current_range_meters":16800,"station_id":"ce4bhah2rcd13ifvqei0","pricing_plan_id":"free"},{"bike_id":"9382ba44-52c5-40f8-a4e8-d5c089cb2a27","system_id":"levelo_inurba_marseille","lat":43.284538,"lon":5.358657,"is_reserved":false,"is_disabled":false,"rental_uris":{"android":"levelo://app?vid=9382ba44-52c5-40f8-a4e8-d5c089cb2a27","ios":"levelo://app?vid=9382ba44-52c5-40f8-a4e8-d5c089cb2a27"},"vehicle_type_id":"4","last_reported":1703200033,"current_range_meters":18000,"station_id":"ce4bhah2rcd13ifvqei0","pricing_plan_id":"free"},{"bike_id":"19554e25-1206-46b5-ad61-7ba9baa9dc30","system_id":"levelo_inurba_marseille","lat":43.294314,"lon":5.397498,"is_reserved":false,"is_disabled":false,"rental_uris":{"android":"levelo://app?vid=19554e25-1206-46b5-ad61-7ba9baa9dc30","ios":"levelo://app?vid=19554e25-1206-46b5-ad61-7ba9baa9dc30"},"vehicle_type_id":"4","last_reported":1703200033,"current_range_meters":8400,"station_id":"ce4bh3h2rcd13ifvqdo0","pricing_plan_id":"free"},{"bike_id":"f7c2aeb9-a3c6-4b74-a8a6-659c1c459c89","system_id":"levelo_inurba_marseille","lat":43.283998,"lon":5.375062,"is_reserved":false,"is_disabled":false,"rental_uris":{"android":"levelo://app?vid=f7c2aeb9-a3c6-4b74-a8a6-659c1c459c89","ios":"levelo://app?vid=f7c2aeb9-a3c6-4b74-a8a6-659c1c459c89"},"vehicle_type_id":"4","last_reported":1703200033,"current_range_meters":10800,"station_id":"ce4bh412rcd13ifvqds0","pricing_plan_id":"free"},{"bike_id":"629c2cf0-2e97-47c3-a884-ce7ebdf0c869","system_id":"levelo_inurba_marseille","lat":43.283998,"lon":5.375062,"is_reserved":false,"is_disabled":false,"rental_uris":{"android":"levelo://app?vid=629c2cf0-2e97-47c3-a884-ce7ebdf0c869","ios":"levelo://app?vid=629c2cf0-2e97-47c3-a884-ce7ebdf0c869"},"vehicle_type_id":"4","last_reported":1703200033,"current_range_meters":16000,"station_id":"ce4bh412rcd13ifvqds0","pricing_plan_id":"free"},{"bike_id":"b876af62-3f73-4295-9263-d892ac26c721","system_id":"levelo_inurba_marseille","lat":43.28388,"lon":5.3755,"is_reserved":false,"is_disabled":false,"rental_uris":{"android":"levelo://app?vid=b876af62-3f73-4295-9263-d892ac26c721","ios":"levelo://app?vid=b876af62-3f73-4295-9263-d892ac26c721"},"vehicle_type_id":"4","last_reported":1703200033,"current_range_meters":0,"station_id":"","pricing_plan_id":"free"},{"bike_id":"8f4042c6-ee99-4b3a-bf61-7102ce6de64f","system_id":"levelo_inurba_marseille","lat":43.283998,"lon":5.375062,"is_reserved":false,"is_disabled":false,"rental_uris":{"android":"levelo://app?vid=8f4042c6-ee99-4b3a-bf61-7102ce6de64f","ios":"levelo://app?vid=8f4042c6-ee99-4b3a-bf61-7102ce6de64f"},"vehicle_type_id":"4","last_reported":1703200033,"current_range_meters":20800,"station_id":"ce4bh412rcd13ifvqds0","pricing_plan_id":"free"},{"bike_id":"392ea336-aaff-4806-aa13-8b5bd892e442","system_id":"levelo_inurba_marseille","lat":43.286595,"lon":5.386795,"is_reserved":false,"is_disabled":false,"rental_uris":{"android":"levelo://app?vid=392ea336-aaff-4806-aa13-8b5bd892e442","ios":"levelo://app?vid=392ea336-aaff-4806-aa13-8b5bd892e442"},"vehicle_type_id":"4","last_reported":1703200033,"current_range_meters":17600,"station_id":"ce4bh492rcd13ifvqdug","pricing_plan_id":"free"},{"bike_id":"9d6893e2-7192-4a6d-82e0-69c0a3078e44","system_id":"levelo_inurba_marseille","lat":43.319179,"lon":5.407725,"is_reserved":false,"is_disabled":false,"rental_uris":{"android":"levelo://app?vid=9d6893e2-7192-4a6d-82e0-69c0a3078e44","ios":"levelo://app?vid=9d6893e2-7192-4a6d-82e0-69c0a3078e44"},"vehicle_type_id":"4","last_reported":1703200033,"current_range_meters":14800,"station_id":"ce4bhq12rcd13ifvqhig","pricing_plan_id":"free"},{"bike_id":"cfca9082-0855-487b-ac51-4306eda03ffd","system_id":"levelo_inurba_marseille","lat":43.319179,"lon":5.407725,"is_reserved":false,"is_disabled":false,"rental_uris":{"android":"levelo://app?vid=cfca9082-0855-487b-ac51-4306eda03ffd","ios":"levelo://app?vid=cfca9082-0855-487b-ac51-4306eda03ffd"},"vehicle_type_id":"4","last_reported":1703200033,"current_range_meters":3600,"station_id":"ce4bhq12rcd13ifvqhig","pricing_plan_id":"free"},{"bike_id":"dfdadb00-295f-4147-bb7b-992e830130a9","system_id":"levelo_inurba_marseille","lat":43.323464,"lon":5.406297,"is_reserved":false,"is_disabled":false,"rental_uris":{"android":"levelo://app?vid=dfdadb00-295f-4147-bb7b-992e830130a9","ios":"levelo://app?vid=dfdadb00-295f-4147-bb7b-992e830130a9"},"vehicle_type_id":"4","last_reported":1703200033,"current_range_meters":31600,"station_id":"ce4bhq92rcd13ifvqhjg","pricing_plan_id":"free"},{"bike_id":"687269d2-e082-4930-b7b6-db76459f0cad","system_id":"levelo_inurba_marseille","lat":43.323464,"lon":5.406297,"is_reserved":false,"is_disabled":false,"rental_uris":{"android":"levelo://app?vid=687269d2-e082-4930-b7b6-db76459f0cad","ios":"levelo://app?vid=687269d2-e082-4930-b7b6-db76459f0cad"},"vehicle_type_id":"4","last_reported":1703200033,"current_range_meters":8800,"station_id":"ce4bhq92rcd13ifvqhjg","pricing_plan_id":"free"},{"bike_id":"aa1bea3e-ff5f-4c49-a630-426ec3e7598d","system_id":"levelo_inurba_marseille","lat":43.323464,"lon":5.406297,"is_reserved":false,"is_disabled":false,"rental_uris":{"android":"levelo://app?vid=aa1bea3e-ff5f-4c49-a630-426ec3e7598d","ios":"levelo://app?vid=aa1bea3e-ff5f-4c49-a630-426ec3e7598d"},"vehicle_type_id":"4","last_reported":1703200033,"current_range_meters":31600,"station_id":"ce4bhq92rcd13ifvqhjg","pricing_plan_id":"free"},{"bike_id":"361799b8-0ade-4629-b104-c461534604f1","system_id":"levelo_inurba_marseille","lat":43.323464,"lon":5.406297,"is_reserved":false,"is_disabled":false,"rental_uris":{"android":"levelo://app?vid=361799b8-0ade-4629-b104-c461534604f1","ios":"levelo://app?vid=361799b8-0ade-4629-b104-c461534604f1"},"vehicle_type_id":"4","last_reported":1703200033,"current_range_meters":4800,"station_id":"ce4bhq92rcd13ifvqhjg","pricing_plan_id":"free"},{"bike_id":"27d7a4e4-05d1-4f00-bc79-0e664efd1da6","system_id":"levelo_inurba_marseille","lat":43.294314,"lon":5.397498,"is_reserved":false,"is_disabled":false,"rental_uris":{"android":"levelo://app?vid=27d7a4e4-05d1-4f00-bc79-0e664efd1da6","ios":"levelo://app?vid=27d7a4e4-05d1-4f00-bc79-0e664efd1da6"},"vehicle_type_id":"4","last_reported":1703200033,"current_range_meters":28800,"station_id":"ce4bh3h2rcd13ifvqdo0","pricing_plan_id":"free"},{"bike_id":"8785336d-3dfd-4f26-bfca-3d884280a672","system_id":"levelo_inurba_marseille","lat":43.297946,"lon":5.404063,"is_reserved":false,"is_disabled":false,"rental_uris":{"android":"levelo://app?vid=8785336d-3dfd-4f26-bfca-3d884280a672","ios":"levelo://app?vid=8785336d-3dfd-4f26-bfca-3d884280a672"},"vehicle_type_id":"4","last_reported":1703200033,"current_range_meters":25200,"station_id":"ce4bh112rcd13ifvqd90","pricing_plan_id":"free"},{"bike_id":"184516a7-8044-4c17-afdb-1b2fcaab9723","system_id":"levelo_inurba_marseille","lat":43.288497,"lon":5.393089,"is_reserved":false,"is_disabled":false,"rental_uris":{"android":"levelo://app?vid=184516a7-8044-4c17-afdb-1b2fcaab9723","ios":"levelo://app?vid=184516a7-8044-4c17-afdb-1b2fcaab9723"},"vehicle_type_id":"4","last_reported":1703200033,"current_range_meters":3600,"station_id":"ce4bh2p2rcd13ifvqdi0","pricing_plan_id":"free"},{"bike_id":"06c8bb8e-756c-44fe-bac3-bdeaffa885c7","system_id":"levelo_inurba_marseille","lat":43.283494,"lon":5.380945,"is_reserved":false,"is_disabled":false,"rental_uris":{"android":"levelo://app?vid=06c8bb8e-756c-44fe-bac3-bdeaffa885c7","ios":"levelo://app?vid=06c8bb8e-756c-44fe-bac3-bdeaffa885c7"},"vehicle_type_id":"4","last_reported":1703200033,"current_range_meters":10800,"station_id":"ce4bh412rcd13ifvqdr0","pricing_plan_id":"free"},{"bike_id":"d56a2764-677e-4209-adfa-b8c19fb45def","system_id":"levelo_inurba_marseille","lat":43.32398,"lon":5.40657,"is_reserved":false,"is_disabled":false,"rental_uris":{"android":"levelo://app?vid=d56a2764-677e-4209-adfa-b8c19fb45def","ios":"levelo://app?vid=d56a2764-677e-4209-adfa-b8c19fb45def"},"vehicle_type_id":"4","last_reported":1703200033,"current_range_meters":16000,"station_id":"","pricing_plan_id":"free"},{"bike_id":"0f42eedd-bd33-445f-91fc-4e7504a96eb4","system_id":"levelo_inurba_marseille","lat":43.324321,"lon":5.407069,"is_reserved":false,"is_disabled":false,"rental_uris":{"android":"levelo://app?vid=0f42eedd-bd33-445f-91fc-4e7504a96eb4","ios":"levelo://app?vid=0f42eedd-bd33-445f-91fc-4e7504a96eb4"},"vehicle_type_id":"4","last_reported":1703200033,"current_range_meters":15200,"station_id":"","pricing_plan_id":"free"},{"bike_id":"45cca92d-8ec9-4654-9717-7656d91fe9d6","system_id":"levelo_inurba_marseille","lat":43.292724,"lon":5.401131,"is_reserved":false,"is_disabled":false,"rental_uris":{"android":"levelo://app?vid=45cca92d-8ec9-4654-9717-7656d91fe9d6","ios":"levelo://app?vid=45cca92d-8ec9-4654-9717-7656d91fe9d6"},"vehicle_type_id":"4","last_reported":1703200033,"current_range_meters":27200,"station_id":"ce4bh312rcd13ifvqdk0","pricing_plan_id":"free"},{"bike_id":"90b26108-4dd8-43f2-a4e1-3cf57f5e6f6d","system_id":"levelo_inurba_marseille","lat":43.28039,"lon":5.369297,"is_reserved":false,"is_disabled":false,"rental_uris":{"android":"levelo://app?vid=90b26108-4dd8-43f2-a4e1-3cf57f5e6f6d","ios":"levelo://app?vid=90b26108-4dd8-43f2-a4e1-3cf57f5e6f6d"},"vehicle_type_id":"4","last_reported":1703200033,"current_range_meters":24400,"station_id":"ce4bha12rcd13ifvqef0","pricing_plan_id":"free"},{"bike_id":"65cc50fe-2134-4b29-bb15-9a4245357cdd","system_id":"levelo_inurba_marseille","lat":43.280382,"lon":5.369291,"is_reserved":false,"is_disabled":false,"rental_uris":{"android":"levelo://app?vid=65cc50fe-2134-4b29-bb15-9a4245357cdd","ios":"levelo://app?vid=65cc50fe-2134-4b29-bb15-9a4245357cdd"},"vehicle_type_id":"4","last_reported":1703200033,"current_range_meters":30800,"station_id":"ce4bha12rcd13ifvqef0","pricing_plan_id":"free"},{"bike_id":"d455de63-4ee9-4350-af98-c8f411895641","system_id":"levelo_inurba_marseille","lat":43.28039,"lon":5.369297,"is_reserved":false,"is_disabled":false,"rental_uris":{"android":"levelo://app?vid=d455de63-4ee9-4350-af98-c8f411895641","ios":"levelo://app?vid=d455de63-4ee9-4350-af98-c8f411895641"},"vehicle_type_id":"4","last_reported":1703200033,"current_range_meters":31200,"station_id":"ce4bha12rcd13ifvqef0","pricing_plan_id":"free"},{"bike_id":"627ee24a-ccdb-420e-9d05-bfb5e49c7be0","system_id":"levelo_inurba_marseille","lat":43.29041,"lon":5.399634,"is_reserved":false,"is_disabled":false,"rental_uris":{"android":"levelo://app?vid=627ee24a-ccdb-420e-9d05-bfb5e49c7be0","ios":"levelo://app?vid=627ee24a-ccdb-420e-9d05-bfb5e49c7be0"},"vehicle_type_id":"4","last_reported":1703200033,"current_range_meters":20800,"station_id":"ce4bh392rcd13ifvqdm0","pricing_plan_id":"free"},{"bike_id":"a30705de-d6ba-47c3-830b-c32bd6ed473a","system_id":"levelo_inurba_marseille","lat":43.28125,"lon":5.381957,"is_reserved":false,"is_disabled":false,"rental_uris":{"android":"levelo://app?vid=a30705de-d6ba-47c3-830b-c32bd6ed473a","ios":"levelo://app?vid=a30705de-d6ba-47c3-830b-c32bd6ed473a"},"vehicle_type_id":"4","last_reported":1703200033,"current_range_meters":19200,"station_id":"","pricing_plan_id":"free"},{"bike_id":"babe4483-c6c5-491e-85d2-9879a1697949","system_id":"levelo_inurba_marseille","lat":43.284462,"lon":5.392121,"is_reserved":false,"is_disabled":false,"rental_uris":{"android":"levelo://app?vid=babe4483-c6c5-491e-85d2-9879a1697949","ios":"levelo://app?vid=babe4483-c6c5-491e-85d2-9879a1697949"},"vehicle_type_id":"4","last_reported":1703200033,"current_range_meters":29600,"station_id":"ce4bhoh2rcd13ifvqh5g","pricing_plan_id":"free"},{"bike_id":"d260b4a0-c2c3-46f6-bdc2-af4b18bb17c3","system_id":"levelo_inurba_marseille","lat":43.304188,"lon":5.412904,"is_reserved":false,"is_disabled":false,"rental_uris":{"android":"levelo://app?vid=d260b4a0-c2c3-46f6-bdc2-af4b18bb17c3","ios":"levelo://app?vid=d260b4a0-c2c3-46f6-bdc2-af4b18bb17c3"},"vehicle_type_id":"4","last_reported":1703200033,"current_range_meters":22400,"station_id":"ce4bhop2rcd13ifvqh8g","pricing_plan_id":"free"},{"bike_id":"7600fc08-cfb1-4e11-b521-d39c27b76b5c","system_id":"levelo_inurba_marseille","lat":43.28573,"lon":5.394992,"is_reserved":false,"is_disabled":false,"rental_uris":{"android":"levelo://app?vid=7600fc08-cfb1-4e11-b521-d39c27b76b5c","ios":"levelo://app?vid=7600fc08-cfb1-4e11-b521-d39c27b76b5c"},"vehicle_type_id":"4","last_reported":1703200033,"current_range_meters":31200,"station_id":"ce4bh292rcd13ifvqdg0","pricing_plan_id":"free"},{"bike_id":"fac80a83-a280-44fe-86f0-3ec94d048ca3","system_id":"levelo_inurba_marseille","lat":43.28573,"lon":5.394992,"is_reserved":false,"is_disabled":false,"rental_uris":{"android":"levelo://app?vid=fac80a83-a280-44fe-86f0-3ec94d048ca3","ios":"levelo://app?vid=fac80a83-a280-44fe-86f0-3ec94d048ca3"},"vehicle_type_id":"4","last_reported":1703200033,"current_range_meters":0,"station_id":"ce4bh292rcd13ifvqdg0","pricing_plan_id":"free"},{"bike_id":"1a2a7a79-5229-40dd-ad78-17531549a2e1","system_id":"levelo_inurba_marseille","lat":43.28573,"lon":5.394992,"is_reserved":false,"is_disabled":false,"rental_uris":{"android":"levelo://app?vid=1a2a7a79-5229-40dd-ad78-17531549a2e1","ios":"levelo://app?vid=1a2a7a79-5229-40dd-ad78-17531549a2e1"},"vehicle_type_id":"4","last_reported":1703200033,"current_range_meters":24400,"station_id":"ce4bh292rcd13ifvqdg0","pricing_plan_id":"free"},{"bike_id":"8e916718-8e97-4602-92d8-836b75f84880","system_id":"levelo_inurba_marseille","lat":43.326605,"lon":5.409903,"is_reserved":false,"is_disabled":false,"rental_uris":{"android":"levelo://app?vid=8e916718-8e97-4602-92d8-836b75f84880","ios":"levelo://app?vid=8e916718-8e97-4602-92d8-836b75f84880"},"vehicle_type_id":"4","last_reported":1703200033,"current_range_meters":30400,"station_id":"ce4bhpp2rcd13ifvqhgg","pricing_plan_id":"free"},{"bike_id":"c6c4b41e-832f-4e93-9f60-b7b00967f991","system_id":"levelo_inurba_marseille","lat":43.304188,"lon":5.412904,"is_reserved":false,"is_disabled":false,"rental_uris":{"android":"levelo://app?vid=c6c4b41e-832f-4e93-9f60-b7b00967f991","ios":"levelo://app?vid=c6c4b41e-832f-4e93-9f60-b7b00967f991"},"vehicle_type_id":"4","last_reported":1703200033,"current_range_meters":4800,"station_id":"ce4bhop2rcd13ifvqh8g","pricing_plan_id":"free"},{"bike_id":"90eb121a-6af5-47c3-86a0-b9e3b81032aa","system_id":"levelo_inurba_marseille","lat":43.304188,"lon":5.412904,"is_reserved":false,"is_disabled":false,"rental_uris":{"android":"levelo://app?vid=90eb121a-6af5-47c3-86a0-b9e3b81032aa","ios":"levelo://app?vid=90eb121a-6af5-47c3-86a0-b9e3b81032aa"},"vehicle_type_id":"4","last_reported":1703200033,"current_range_meters":26000,"station_id":"ce4bhop2rcd13ifvqh8g","pricing_plan_id":"free"},{"bike_id":"7f302279-6c81-430d-b83b-d444e2cd8d7d","system_id":"levelo_inurba_marseille","lat":43.279064,"lon":5.380021,"is_reserved":false,"is_disabled":false,"rental_uris":{"android":"levelo://app?vid=7f302279-6c81-430d-b83b-d444e2cd8d7d","ios":"levelo://app?vid=7f302279-6c81-430d-b83b-d444e2cd8d7d"},"vehicle_type_id":"4","last_reported":1703200033,"current_range_meters":16400,"station_id":"ce4bhf92rcd13ifvqf50","pricing_plan_id":"free"},{"bike_id":"293d9a93-c09e-4c70-bb8c-3499c5a3a700","system_id":"levelo_inurba_marseille","lat":43.279087,"lon":5.380114,"is_reserved":false,"is_disabled":false,"rental_uris":{"android":"levelo://app?vid=293d9a93-c09e-4c70-bb8c-3499c5a3a700","ios":"levelo://app?vid=293d9a93-c09e-4c70-bb8c-3499c5a3a700"},"vehicle_type_id":"4","last_reported":1703200033,"current_range_meters":0,"station_id":"ce4bhf92rcd13ifvqf50","pricing_plan_id":"free"},{"bike_id":"0ebf4172-fc00-4b21-8981-ef3779a8e29c","system_id":"levelo_inurba_marseille","lat":43.279087,"lon":5.380114,"is_reserved":false,"is_disabled":false,"rental_uris":{"android":"levelo://app?vid=0ebf4172-fc00-4b21-8981-ef3779a8e29c","ios":"levelo://app?vid=0ebf4172-fc00-4b21-8981-ef3779a8e29c"},"vehicle_type_id":"4","last_reported":1703200033,"current_range_meters":31200,"station_id":"ce4bhf92rcd13ifvqf50","pricing_plan_id":"free"},{"bike_id":"a8b042bc-e039-4100-8b4b-c360dfe4140d","system_id":"levelo_inurba_marseille","lat":43.287154,"lon":5.399979,"is_reserved":false,"is_disabled":false,"rental_uris":{"android":"levelo://app?vid=a8b042bc-e039-4100-8b4b-c360dfe4140d","ios":"levelo://app?vid=a8b042bc-e039-4100-8b4b-c360dfe4140d"},"vehicle_type_id":"4","last_reported":1703200033,"current_range_meters":6800,"station_id":"ce4bho92rcd13ifvqh3g","pricing_plan_id":"free"},{"bike_id":"48333063-39d2-4787-9182-2e3d7215c22a","system_id":"levelo_inurba_marseille","lat":43.28702,"lon":5.39978,"is_reserved":false,"is_disabled":false,"rental_uris":{"android":"levelo://app?vid=48333063-39d2-4787-9182-2e3d7215c22a","ios":"levelo://app?vid=48333063-39d2-4787-9182-2e3d7215c22a"},"vehicle_type_id":"4","last_reported":1703200033,"current_range_meters":15200,"station_id":"ce4bho92rcd13ifvqh3g","pricing_plan_id":"free"},{"bike_id":"8cbe0d6a-8ef4-4658-8bc9-c24e9404d940","system_id":"levelo_inurba_marseille","lat":43.287154,"lon":5.399979,"is_reserved":false,"is_disabled":false,"rental_uris":{"android":"levelo://app?vid=8cbe0d6a-8ef4-4658-8bc9-c24e9404d940","ios":"levelo://app?vid=8cbe0d6a-8ef4-4658-8bc9-c24e9404d940"},"vehicle_type_id":"4","last_reported":1703200033,"current_range_meters":24800,"station_id":"ce4bho92rcd13ifvqh3g","pricing_plan_id":"free"},{"bike_id":"170ab2bf-d29f-4d5f-982a-a6ad40f685fd","system_id":"levelo_inurba_marseille","lat":43.28622,"lon":5.39988,"is_reserved":false,"is_disabled":false,"rental_uris":{"android":"levelo://app?vid=170ab2bf-d29f-4d5f-982a-a6ad40f685fd","ios":"levelo://app?vid=170ab2bf-d29f-4d5f-982a-a6ad40f685fd"},"vehicle_type_id":"4","last_reported":1703200033,"current_range_meters":15600,"station_id":"","pricing_plan_id":"free"},{"bike_id":"d421cad1-6533-4885-9cde-5b8f0aa16d67","system_id":"levelo_inurba_marseille","lat":43.299577,"lon":5.413277,"is_reserved":false,"is_disabled":false,"rental_uris":{"android":"levelo://app?vid=d421cad1-6533-4885-9cde-5b8f0aa16d67","ios":"levelo://app?vid=d421cad1-6533-4885-9cde-5b8f0aa16d67"},"vehicle_type_id":"4","last_reported":1703200033,"current_range_meters":6800,"station_id":"ce4bhp12rcd13ifvqh9g","pricing_plan_id":"free"},{"bike_id":"aa6eeeb9-266d-4245-a0d8-1432a7450451","system_id":"levelo_inurba_marseille","lat":43.279742,"lon":5.38744,"is_reserved":false,"is_disabled":false,"rental_uris":{"android":"levelo://app?vid=aa6eeeb9-266d-4245-a0d8-1432a7450451","ios":"levelo://app?vid=aa6eeeb9-266d-4245-a0d8-1432a7450451"},"vehicle_type_id":"4","last_reported":1703200033,"current_range_meters":26800,"station_id":"ce4bhg12rcd13ifvqf80","pricing_plan_id":"free"},{"bike_id":"9c0b68dd-985d-45a8-8ffd-4b6b5ce40508","system_id":"levelo_inurba_marseille","lat":43.29263,"lon":5.40894,"is_reserved":false,"is_disabled":false,"rental_uris":{"android":"levelo://app?vid=9c0b68dd-985d-45a8-8ffd-4b6b5ce40508","ios":"levelo://app?vid=9c0b68dd-985d-45a8-8ffd-4b6b5ce40508"},"vehicle_type_id":"4","last_reported":1703200033,"current_range_meters":4000,"station_id":"ce4bh192rcd13ifvqdc0","pricing_plan_id":"free"},{"bike_id":"a13602f1-bd1c-4930-88ca-c8033fef8a2d","system_id":"levelo_inurba_marseille","lat":43.292569,"lon":5.409107,"is_reserved":false,"is_disabled":false,"rental_uris":{"android":"levelo://app?vid=a13602f1-bd1c-4930-88ca-c8033fef8a2d","ios":"levelo://app?vid=a13602f1-bd1c-4930-88ca-c8033fef8a2d"},"vehicle_type_id":"4","last_reported":1703200033,"current_range_meters":0,"station_id":"ce4bh192rcd13ifvqdc0","pricing_plan_id":"free"},{"bike_id":"7695b463-3262-4109-9e54-70fff2b29732","system_id":"levelo_inurba_marseille","lat":43.292569,"lon":5.409107,"is_reserved":false,"is_disabled":false,"rental_uris":{"android":"levelo://app?vid=7695b463-3262-4109-9e54-70fff2b29732","ios":"levelo://app?vid=7695b463-3262-4109-9e54-70fff2b29732"},"vehicle_type_id":"4","last_reported":1703200033,"current_range_meters":18400,"station_id":"ce4bh192rcd13ifvqdc0","pricing_plan_id":"free"},{"bike_id":"8d9d10e2-ac2a-420d-a5f9-d371b704ea94","system_id":"levelo_inurba_marseille","lat":43.292569,"lon":5.409107,"is_reserved":false,"is_disabled":false,"rental_uris":{"android":"levelo://app?vid=8d9d10e2-ac2a-420d-a5f9-d371b704ea94","ios":"levelo://app?vid=8d9d10e2-ac2a-420d-a5f9-d371b704ea94"},"vehicle_type_id":"4","last_reported":1703200033,"current_range_meters":11200,"station_id":"ce4bh192rcd13ifvqdc0","pricing_plan_id":"free"},{"bike_id":"a3a9ee9e-bbe8-4e23-9267-4f64c69ca7b1","system_id":"levelo_inurba_marseille","lat":43.292569,"lon":5.409107,"is_reserved":false,"is_disabled":false,"rental_uris":{"android":"levelo://app?vid=a3a9ee9e-bbe8-4e23-9267-4f64c69ca7b1","ios":"levelo://app?vid=a3a9ee9e-bbe8-4e23-9267-4f64c69ca7b1"},"vehicle_type_id":"4","last_reported":1703200033,"current_range_meters":3600,"station_id":"ce4bh192rcd13ifvqdc0","pricing_plan_id":"free"},{"bike_id":"ce0e9fc3-e69f-4802-94b0-e30fd9af3603","system_id":"levelo_inurba_marseille","lat":43.292569,"lon":5.409107,"is_reserved":false,"is_disabled":false,"rental_uris":{"android":"levelo://app?vid=ce0e9fc3-e69f-4802-94b0-e30fd9af3603","ios":"levelo://app?vid=ce0e9fc3-e69f-4802-94b0-e30fd9af3603"},"vehicle_type_id":"4","last_reported":1703200033,"current_range_meters":5200,"station_id":"ce4bh192rcd13ifvqdc0","pricing_plan_id":"free"},{"bike_id":"515731b8-9e9c-44f1-a190-39c368ddcb1f","system_id":"levelo_inurba_marseille","lat":43.292569,"lon":5.409107,"is_reserved":false,"is_disabled":false,"rental_uris":{"android":"levelo://app?vid=515731b8-9e9c-44f1-a190-39c368ddcb1f","ios":"levelo://app?vid=515731b8-9e9c-44f1-a190-39c368ddcb1f"},"vehicle_type_id":"4","last_reported":1703200033,"current_range_meters":1600,"station_id":"ce4bh192rcd13ifvqdc0","pricing_plan_id":"free"},{"bike_id":"ed47a379-ff26-4271-8a21-5d800d0ed53a","system_id":"levelo_inurba_marseille","lat":43.280784,"lon":5.396622,"is_reserved":false,"is_disabled":false,"rental_uris":{"android":"levelo://app?vid=ed47a379-ff26-4271-8a21-5d800d0ed53a","ios":"levelo://app?vid=ed47a379-ff26-4271-8a21-5d800d0ed53a"},"vehicle_type_id":"4","last_reported":1703200033,"current_range_meters":28000,"station_id":"ce4bho12rcd13ifvqh2g","pricing_plan_id":"free"},{"bike_id":"8dd69acf-c793-447a-8783-89367ca6bd4c","system_id":"levelo_inurba_marseille","lat":43.280784,"lon":5.396622,"is_reserved":false,"is_disabled":false,"rental_uris":{"android":"levelo://app?vid=8dd69acf-c793-447a-8783-89367ca6bd4c","ios":"levelo://app?vid=8dd69acf-c793-447a-8783-89367ca6bd4c"},"vehicle_type_id":"4","last_reported":1703200033,"current_range_meters":27200,"station_id":"ce4bho12rcd13ifvqh2g","pricing_plan_id":"free"},{"bike_id":"9cef12ab-b4b5-4181-96ad-1f5b5ea92799","system_id":"levelo_inurba_marseille","lat":43.278401,"lon":5.392152,"is_reserved":false,"is_disabled":false,"rental_uris":{"android":"levelo://app?vid=9cef12ab-b4b5-4181-96ad-1f5b5ea92799","ios":"levelo://app?vid=9cef12ab-b4b5-4181-96ad-1f5b5ea92799"},"vehicle_type_id":"4","last_reported":1703200033,"current_range_meters":15600,"station_id":"ce4bhjp2rcd13ifvqga0","pricing_plan_id":"free"},{"bike_id":"e10cc150-4041-48d5-aaa1-023406c60c29","system_id":"levelo_inurba_marseille","lat":43.273613,"lon":5.362705,"is_reserved":false,"is_disabled":false,"rental_uris":{"android":"levelo://app?vid=e10cc150-4041-48d5-aaa1-023406c60c29","ios":"levelo://app?vid=e10cc150-4041-48d5-aaa1-023406c60c29"},"vehicle_type_id":"4","last_reported":1703200033,"current_range_meters":14000,"station_id":"ce4bhbh2rcd13ifvqeo0","pricing_plan_id":"free"},{"bike_id":"abe7b8a3-3af6-4156-a136-f077a1595c56","system_id":"levelo_inurba_marseille","lat":43.273609,"lon":5.362708,"is_reserved":false,"is_disabled":false,"rental_uris":{"android":"levelo://app?vid=abe7b8a3-3af6-4156-a136-f077a1595c56","ios":"levelo://app?vid=abe7b8a3-3af6-4156-a136-f077a1595c56"},"vehicle_type_id":"4","last_reported":1703200033,"current_range_meters":26800,"station_id":"ce4bhbh2rcd13ifvqeo0","pricing_plan_id":"free"},{"bike_id":"f1edc802-0ccc-4821-9ca7-279093c88d45","system_id":"levelo_inurba_marseille","lat":43.336134,"lon":5.410341,"is_reserved":false,"is_disabled":false,"rental_uris":{"android":"levelo://app?vid=f1edc802-0ccc-4821-9ca7-279093c88d45","ios":"levelo://app?vid=f1edc802-0ccc-4821-9ca7-279093c88d45"},"vehicle_type_id":"4","last_reported":1703200033,"current_range_meters":27600,"station_id":"ce4bhqh2rcd13ifvqhmg","pricing_plan_id":"free"},{"bike_id":"4e262e8c-f8ed-4c5c-a4e0-e80eb57f56dc","system_id":"levelo_inurba_marseille","lat":43.276771,"lon":5.388799,"is_reserved":false,"is_disabled":false,"rental_uris":{"android":"levelo://app?vid=4e262e8c-f8ed-4c5c-a4e0-e80eb57f56dc","ios":"levelo://app?vid=4e262e8c-f8ed-4c5c-a4e0-e80eb57f56dc"},"vehicle_type_id":"4","last_reported":1703200033,"current_range_meters":27200,"station_id":"ce4bhi12rcd13ifvqfo0","pricing_plan_id":"free"},{"bike_id":"b3b1917b-e8fd-4337-a586-ebe5889634cc","system_id":"levelo_inurba_marseille","lat":43.279952,"lon":5.400085,"is_reserved":false,"is_disabled":false,"rental_uris":{"android":"levelo://app?vid=b3b1917b-e8fd-4337-a586-ebe5889634cc","ios":"levelo://app?vid=b3b1917b-e8fd-4337-a586-ebe5889634cc"},"vehicle_type_id":"4","last_reported":1703200033,"current_range_meters":27200,"station_id":"ce4bho92rcd13ifvqh4g","pricing_plan_id":"free"},{"bike_id":"498eff31-f366-4e6d-8222-0820a528cb33","system_id":"levelo_inurba_marseille","lat":43.317121,"lon":5.423936,"is_reserved":false,"is_disabled":false,"rental_uris":{"android":"levelo://app?vid=498eff31-f366-4e6d-8222-0820a528cb33","ios":"levelo://app?vid=498eff31-f366-4e6d-8222-0820a528cb33"},"vehicle_type_id":"4","last_reported":1703200033,"current_range_meters":22400,"station_id":"ce4bhp92rcd13ifvqhbg","pricing_plan_id":"free"},{"bike_id":"db97d23b-b358-42c7-9b7c-756cec040fbb","system_id":"levelo_inurba_marseille","lat":43.317121,"lon":5.423936,"is_reserved":false,"is_disabled":false,"rental_uris":{"android":"levelo://app?vid=db97d23b-b358-42c7-9b7c-756cec040fbb","ios":"levelo://app?vid=db97d23b-b358-42c7-9b7c-756cec040fbb"},"vehicle_type_id":"4","last_reported":1703200033,"current_range_meters":31200,"station_id":"ce4bhp92rcd13ifvqhbg","pricing_plan_id":"free"},{"bike_id":"7ada0439-e02f-43f4-a65c-6cdbad12b2d5","system_id":"levelo_inurba_marseille","lat":43.317121,"lon":5.423936,"is_reserved":false,"is_disabled":false,"rental_uris":{"android":"levelo://app?vid=7ada0439-e02f-43f4-a65c-6cdbad12b2d5","ios":"levelo://app?vid=7ada0439-e02f-43f4-a65c-6cdbad12b2d5"},"vehicle_type_id":"4","last_reported":1703200033,"current_range_meters":28800,"station_id":"ce4bhp92rcd13ifvqhbg","pricing_plan_id":"free"},{"bike_id":"097bc4e0-b542-4537-a4e9-cb2bbc6d2077","system_id":"levelo_inurba_marseille","lat":43.340804,"lon":5.410219,"is_reserved":false,"is_disabled":false,"rental_uris":{"android":"levelo://app?vid=097bc4e0-b542-4537-a4e9-cb2bbc6d2077","ios":"levelo://app?vid=097bc4e0-b542-4537-a4e9-cb2bbc6d2077"},"vehicle_type_id":"4","last_reported":1703200033,"current_range_meters":30400,"station_id":"ce4bhqh2rcd13ifvqhlg","pricing_plan_id":"free"},{"bike_id":"dd3b354f-ef7d-4ece-a4ae-e057233bd1a0","system_id":"levelo_inurba_marseille","lat":43.279952,"lon":5.400085,"is_reserved":false,"is_disabled":false,"rental_uris":{"android":"levelo://app?vid=dd3b354f-ef7d-4ece-a4ae-e057233bd1a0","ios":"levelo://app?vid=dd3b354f-ef7d-4ece-a4ae-e057233bd1a0"},"vehicle_type_id":"4","last_reported":1703200033,"current_range_meters":800,"station_id":"ce4bho92rcd13ifvqh4g","pricing_plan_id":"free"},{"bike_id":"df066566-a58a-4414-8f38-e9f8059d609c","system_id":"levelo_inurba_marseille","lat":43.274099,"lon":5.394019,"is_reserved":false,"is_disabled":false,"rental_uris":{"android":"levelo://app?vid=df066566-a58a-4414-8f38-e9f8059d609c","ios":"levelo://app?vid=df066566-a58a-4414-8f38-e9f8059d609c"},"vehicle_type_id":"4","last_reported":1703200033,"current_range_meters":19600,"station_id":"ce4bhdp2rcd13ifvqf20","pricing_plan_id":"free"},{"bike_id":"10df5cb7-10ce-4fe9-834e-75fedc0ac786","system_id":"levelo_inurba_marseille","lat":43.274099,"lon":5.394019,"is_reserved":false,"is_disabled":false,"rental_uris":{"android":"levelo://app?vid=10df5cb7-10ce-4fe9-834e-75fedc0ac786","ios":"levelo://app?vid=10df5cb7-10ce-4fe9-834e-75fedc0ac786"},"vehicle_type_id":"4","last_reported":1703200033,"current_range_meters":15200,"station_id":"ce4bhdp2rcd13ifvqf20","pricing_plan_id":"free"},{"bike_id":"50b8bc8f-42a8-4d7c-8185-2a49e5214b8b","system_id":"levelo_inurba_marseille","lat":43.274103,"lon":5.394016,"is_reserved":false,"is_disabled":false,"rental_uris":{"android":"levelo://app?vid=50b8bc8f-42a8-4d7c-8185-2a49e5214b8b","ios":"levelo://app?vid=50b8bc8f-42a8-4d7c-8185-2a49e5214b8b"},"vehicle_type_id":"4","last_reported":1703200033,"current_range_meters":2400,"station_id":"ce4bhdp2rcd13ifvqf20","pricing_plan_id":"free"},{"bike_id":"bc96446b-31f5-4313-822f-625edd6d0b52","system_id":"levelo_inurba_marseille","lat":43.295523,"lon":5.422926,"is_reserved":false,"is_disabled":false,"rental_uris":{"android":"levelo://app?vid=bc96446b-31f5-4313-822f-625edd6d0b52","ios":"levelo://app?vid=bc96446b-31f5-4313-822f-625edd6d0b52"},"vehicle_type_id":"4","last_reported":1703200033,"current_range_meters":26400,"station_id":"ce4bhph2rcd13ifvqhdg","pricing_plan_id":"free"},{"bike_id":"96484c65-8dd7-4167-a438-a7d837c6b7a7","system_id":"levelo_inurba_marseille","lat":43.295523,"lon":5.422926,"is_reserved":false,"is_disabled":false,"rental_uris":{"android":"levelo://app?vid=96484c65-8dd7-4167-a438-a7d837c6b7a7","ios":"levelo://app?vid=96484c65-8dd7-4167-a438-a7d837c6b7a7"},"vehicle_type_id":"4","last_reported":1703200033,"current_range_meters":31200,"station_id":"ce4bhph2rcd13ifvqhdg","pricing_plan_id":"free"},{"bike_id":"0454933a-5656-4345-852e-0e25afae89fb","system_id":"levelo_inurba_marseille","lat":43.295523,"lon":5.422926,"is_reserved":false,"is_disabled":false,"rental_uris":{"android":"levelo://app?vid=0454933a-5656-4345-852e-0e25afae89fb","ios":"levelo://app?vid=0454933a-5656-4345-852e-0e25afae89fb"},"vehicle_type_id":"4","last_reported":1703200033,"current_range_meters":29200,"station_id":"ce4bhph2rcd13ifvqhdg","pricing_plan_id":"free"},{"bike_id":"a80c78b0-54bd-4c06-a456-7ff9cb5fb92c","system_id":"levelo_inurba_marseille","lat":43.295559,"lon":5.422828,"is_reserved":false,"is_disabled":false,"rental_uris":{"android":"levelo://app?vid=a80c78b0-54bd-4c06-a456-7ff9cb5fb92c","ios":"levelo://app?vid=a80c78b0-54bd-4c06-a456-7ff9cb5fb92c"},"vehicle_type_id":"4","last_reported":1703200033,"current_range_meters":11600,"station_id":"ce4bhph2rcd13ifvqhdg","pricing_plan_id":"free"},{"bike_id":"7b50e92c-923d-47a0-98cd-9b6ef12b5315","system_id":"levelo_inurba_marseille","lat":43.295523,"lon":5.422926,"is_reserved":false,"is_disabled":false,"rental_uris":{"android":"levelo://app?vid=7b50e92c-923d-47a0-98cd-9b6ef12b5315","ios":"levelo://app?vid=7b50e92c-923d-47a0-98cd-9b6ef12b5315"},"vehicle_type_id":"4","last_reported":1703200033,"current_range_meters":25200,"station_id":"ce4bhph2rcd13ifvqhdg","pricing_plan_id":"free"},{"bike_id":"9449eb80-d18a-481d-bf00-b32c1d52c065","system_id":"levelo_inurba_marseille","lat":43.295523,"lon":5.422926,"is_reserved":false,"is_disabled":false,"rental_uris":{"android":"levelo://app?vid=9449eb80-d18a-481d-bf00-b32c1d52c065","ios":"levelo://app?vid=9449eb80-d18a-481d-bf00-b32c1d52c065"},"vehicle_type_id":"4","last_reported":1703200033,"current_range_meters":6000,"station_id":"ce4bhph2rcd13ifvqhdg","pricing_plan_id":"free"},{"bike_id":"218ca4ab-a316-43a6-87cd-acfc23cd8e62","system_id":"levelo_inurba_marseille","lat":43.295523,"lon":5.422926,"is_reserved":false,"is_disabled":false,"rental_uris":{"android":"levelo://app?vid=218ca4ab-a316-43a6-87cd-acfc23cd8e62","ios":"levelo://app?vid=218ca4ab-a316-43a6-87cd-acfc23cd8e62"},"vehicle_type_id":"4","last_reported":1703200033,"current_range_meters":21200,"station_id":"ce4bhph2rcd13ifvqhdg","pricing_plan_id":"free"},{"bike_id":"b55db1a0-b820-479b-9929-7610c21584c5","system_id":"levelo_inurba_marseille","lat":43.295511,"lon":5.422926,"is_reserved":false,"is_disabled":false,"rental_uris":{"android":"levelo://app?vid=b55db1a0-b820-479b-9929-7610c21584c5","ios":"levelo://app?vid=b55db1a0-b820-479b-9929-7610c21584c5"},"vehicle_type_id":"4","last_reported":1703200033,"current_range_meters":25200,"station_id":"ce4bhph2rcd13ifvqhdg","pricing_plan_id":"free"},{"bike_id":"7d800ac1-1b26-47dd-97c6-49cd89d9ab11","system_id":"levelo_inurba_marseille","lat":43.295511,"lon":5.422926,"is_reserved":false,"is_disabled":false,"rental_uris":{"android":"levelo://app?vid=7d800ac1-1b26-47dd-97c6-49cd89d9ab11","ios":"levelo://app?vid=7d800ac1-1b26-47dd-97c6-49cd89d9ab11"},"vehicle_type_id":"4","last_reported":1703200033,"current_range_meters":14400,"station_id":"ce4bhph2rcd13ifvqhdg","pricing_plan_id":"free"},{"bike_id":"23d13786-8601-4dce-a424-5d4a35dea444","system_id":"levelo_inurba_marseille","lat":43.295511,"lon":5.422926,"is_reserved":false,"is_disabled":false,"rental_uris":{"android":"levelo://app?vid=23d13786-8601-4dce-a424-5d4a35dea444","ios":"levelo://app?vid=23d13786-8601-4dce-a424-5d4a35dea444"},"vehicle_type_id":"4","last_reported":1703200033,"current_range_meters":18000,"station_id":"ce4bhph2rcd13ifvqhdg","pricing_plan_id":"free"},{"bike_id":"4ceb2552-471f-4db1-a87a-1979c2ee1faf","system_id":"levelo_inurba_marseille","lat":43.295511,"lon":5.422926,"is_reserved":false,"is_disabled":false,"rental_uris":{"android":"levelo://app?vid=4ceb2552-471f-4db1-a87a-1979c2ee1faf","ios":"levelo://app?vid=4ceb2552-471f-4db1-a87a-1979c2ee1faf"},"vehicle_type_id":"4","last_reported":1703200033,"current_range_meters":9200,"station_id":"ce4bhph2rcd13ifvqhdg","pricing_plan_id":"free"},{"bike_id":"9f2b1114-cc48-4150-8294-6c7a458bf29d","system_id":"levelo_inurba_marseille","lat":43.278128,"lon":5.407195,"is_reserved":false,"is_disabled":false,"rental_uris":{"android":"levelo://app?vid=9f2b1114-cc48-4150-8294-6c7a458bf29d","ios":"levelo://app?vid=9f2b1114-cc48-4150-8294-6c7a458bf29d"},"vehicle_type_id":"4","last_reported":1703200033,"current_range_meters":14800,"station_id":"ce4bhnh2rcd13ifvqgtg","pricing_plan_id":"free"},{"bike_id":"4c5533f9-37d0-4c34-9e51-5d21edfb20ad","system_id":"levelo_inurba_marseille","lat":43.278128,"lon":5.407195,"is_reserved":false,"is_disabled":false,"rental_uris":{"android":"levelo://app?vid=4c5533f9-37d0-4c34-9e51-5d21edfb20ad","ios":"levelo://app?vid=4c5533f9-37d0-4c34-9e51-5d21edfb20ad"},"vehicle_type_id":"4","last_reported":1703200033,"current_range_meters":22400,"station_id":"ce4bhnh2rcd13ifvqgtg","pricing_plan_id":"free"},{"bike_id":"2385a3dc-ecc5-4c8e-b554-c8e4b25ef268","system_id":"levelo_inurba_marseille","lat":43.278128,"lon":5.407195,"is_reserved":false,"is_disabled":false,"rental_uris":{"android":"levelo://app?vid=2385a3dc-ecc5-4c8e-b554-c8e4b25ef268","ios":"levelo://app?vid=2385a3dc-ecc5-4c8e-b554-c8e4b25ef268"},"vehicle_type_id":"4","last_reported":1703200033,"current_range_meters":24400,"station_id":"ce4bhnh2rcd13ifvqgtg","pricing_plan_id":"free"},{"bike_id":"59d66a0a-b392-45cf-9cfd-32926820ebdd","system_id":"levelo_inurba_marseille","lat":43.278108,"lon":5.40711,"is_reserved":false,"is_disabled":false,"rental_uris":{"android":"levelo://app?vid=59d66a0a-b392-45cf-9cfd-32926820ebdd","ios":"levelo://app?vid=59d66a0a-b392-45cf-9cfd-32926820ebdd"},"vehicle_type_id":"4","last_reported":1703200033,"current_range_meters":0,"station_id":"ce4bhnh2rcd13ifvqgtg","pricing_plan_id":"free"},{"bike_id":"199d6611-9c4f-4815-877f-00c49477778f","system_id":"levelo_inurba_marseille","lat":43.278128,"lon":5.407195,"is_reserved":false,"is_disabled":false,"rental_uris":{"android":"levelo://app?vid=199d6611-9c4f-4815-877f-00c49477778f","ios":"levelo://app?vid=199d6611-9c4f-4815-877f-00c49477778f"},"vehicle_type_id":"4","last_reported":1703200033,"current_range_meters":10000,"station_id":"ce4bhnh2rcd13ifvqgtg","pricing_plan_id":"free"},{"bike_id":"b979e0ac-564d-4365-807b-d6390958382e","system_id":"levelo_inurba_marseille","lat":43.278128,"lon":5.407195,"is_reserved":false,"is_disabled":false,"rental_uris":{"android":"levelo://app?vid=b979e0ac-564d-4365-807b-d6390958382e","ios":"levelo://app?vid=b979e0ac-564d-4365-807b-d6390958382e"},"vehicle_type_id":"4","last_reported":1703200033,"current_range_meters":25600,"station_id":"ce4bhnh2rcd13ifvqgtg","pricing_plan_id":"free"},{"bike_id":"72b2f34c-31f6-4eb9-823e-d44187203595","system_id":"levelo_inurba_marseille","lat":43.279465,"lon":5.410561,"is_reserved":false,"is_disabled":false,"rental_uris":{"android":"levelo://app?vid=72b2f34c-31f6-4eb9-823e-d44187203595","ios":"levelo://app?vid=72b2f34c-31f6-4eb9-823e-d44187203595"},"vehicle_type_id":"4","last_reported":1703200033,"current_range_meters":6000,"station_id":"ce4bhnp2rcd13ifvqh0g","pricing_plan_id":"free"},{"bike_id":"56e77a7b-e5be-46cd-ac56-fbe5af53b827","system_id":"levelo_inurba_marseille","lat":43.27996,"lon":5.416624,"is_reserved":false,"is_disabled":false,"rental_uris":{"android":"levelo://app?vid=56e77a7b-e5be-46cd-ac56-fbe5af53b827","ios":"levelo://app?vid=56e77a7b-e5be-46cd-ac56-fbe5af53b827"},"vehicle_type_id":"4","last_reported":1703200033,"current_range_meters":10400,"station_id":"ce4bho12rcd13ifvqh1g","pricing_plan_id":"free"},{"bike_id":"9692d61b-7af5-4076-aa8d-aca8a3a47860","system_id":"levelo_inurba_marseille","lat":43.27996,"lon":5.416624,"is_reserved":false,"is_disabled":false,"rental_uris":{"android":"levelo://app?vid=9692d61b-7af5-4076-aa8d-aca8a3a47860","ios":"levelo://app?vid=9692d61b-7af5-4076-aa8d-aca8a3a47860"},"vehicle_type_id":"4","last_reported":1703200033,"current_range_meters":21200,"station_id":"ce4bho12rcd13ifvqh1g","pricing_plan_id":"free"},{"bike_id":"ce0c4d09-c919-48d9-92ee-b40420eed1b4","system_id":"levelo_inurba_marseille","lat":43.27996,"lon":5.416624,"is_reserved":false,"is_disabled":false,"rental_uris":{"android":"levelo://app?vid=ce0c4d09-c919-48d9-92ee-b40420eed1b4","ios":"levelo://app?vid=ce0c4d09-c919-48d9-92ee-b40420eed1b4"},"vehicle_type_id":"4","last_reported":1703200033,"current_range_meters":14800,"station_id":"ce4bho12rcd13ifvqh1g","pricing_plan_id":"free"},{"bike_id":"57a7d671-dfda-4301-b34c-9843199a6119","system_id":"levelo_inurba_marseille","lat":43.27996,"lon":5.416624,"is_reserved":false,"is_disabled":false,"rental_uris":{"android":"levelo://app?vid=57a7d671-dfda-4301-b34c-9843199a6119","ios":"levelo://app?vid=57a7d671-dfda-4301-b34c-9843199a6119"},"vehicle_type_id":"4","last_reported":1703200033,"current_range_meters":21600,"station_id":"ce4bho12rcd13ifvqh1g","pricing_plan_id":"free"},{"bike_id":"73c210fb-a655-4271-85b4-334effb9941b","system_id":"levelo_inurba_marseille","lat":43.27996,"lon":5.416624,"is_reserved":false,"is_disabled":false,"rental_uris":{"android":"levelo://app?vid=73c210fb-a655-4271-85b4-334effb9941b","ios":"levelo://app?vid=73c210fb-a655-4271-85b4-334effb9941b"},"vehicle_type_id":"4","last_reported":1703200033,"current_range_meters":29600,"station_id":"ce4bho12rcd13ifvqh1g","pricing_plan_id":"free"},{"bike_id":"56874854-692d-4d9c-82a9-b6ca4904d248","system_id":"levelo_inurba_marseille","lat":43.26949,"lon":5.40262,"is_reserved":false,"is_disabled":false,"rental_uris":{"android":"levelo://app?vid=56874854-692d-4d9c-82a9-b6ca4904d248","ios":"levelo://app?vid=56874854-692d-4d9c-82a9-b6ca4904d248"},"vehicle_type_id":"4","last_reported":1703200033,"current_range_meters":0,"station_id":"cjm6bp8fraef2m0cb0m0","pricing_plan_id":"free"},{"bike_id":"1f3bda48-d49e-40ce-a903-80fd1ccef8c6","system_id":"levelo_inurba_marseille","lat":43.26949,"lon":5.40262,"is_reserved":false,"is_disabled":false,"rental_uris":{"android":"levelo://app?vid=1f3bda48-d49e-40ce-a903-80fd1ccef8c6","ios":"levelo://app?vid=1f3bda48-d49e-40ce-a903-80fd1ccef8c6"},"vehicle_type_id":"4","last_reported":1703200033,"current_range_meters":26000,"station_id":"cjm6bp8fraef2m0cb0m0","pricing_plan_id":"free"},{"bike_id":"f9bd8812-361b-4cf8-a08f-c5df49e9a80a","system_id":"levelo_inurba_marseille","lat":43.31711,"lon":5.43705,"is_reserved":false,"is_disabled":false,"rental_uris":{"android":"levelo://app?vid=f9bd8812-361b-4cf8-a08f-c5df49e9a80a","ios":"levelo://app?vid=f9bd8812-361b-4cf8-a08f-c5df49e9a80a"},"vehicle_type_id":"4","last_reported":1703200033,"current_range_meters":18400,"station_id":"ce4bhp92rcd13ifvqhcg","pricing_plan_id":"free"},{"bike_id":"2e62984b-8771-47f8-8e36-d6a6f38059c0","system_id":"levelo_inurba_marseille","lat":43.317104,"lon":5.436818,"is_reserved":false,"is_disabled":false,"rental_uris":{"android":"levelo://app?vid=2e62984b-8771-47f8-8e36-d6a6f38059c0","ios":"levelo://app?vid=2e62984b-8771-47f8-8e36-d6a6f38059c0"},"vehicle_type_id":"4","last_reported":1703200033,"current_range_meters":28400,"station_id":"ce4bhp92rcd13ifvqhcg","pricing_plan_id":"free"},{"bike_id":"2d6427c7-a10a-4b24-b0a5-95d867c65295","system_id":"levelo_inurba_marseille","lat":43.317104,"lon":5.436818,"is_reserved":false,"is_disabled":false,"rental_uris":{"android":"levelo://app?vid=2d6427c7-a10a-4b24-b0a5-95d867c65295","ios":"levelo://app?vid=2d6427c7-a10a-4b24-b0a5-95d867c65295"},"vehicle_type_id":"4","last_reported":1703200033,"current_range_meters":22400,"station_id":"ce4bhp92rcd13ifvqhcg","pricing_plan_id":"free"},{"bike_id":"56adf3c8-c8d4-4438-805b-e2423bf864eb","system_id":"levelo_inurba_marseille","lat":43.26202,"lon":5.379299,"is_reserved":false,"is_disabled":false,"rental_uris":{"android":"levelo://app?vid=56adf3c8-c8d4-4438-805b-e2423bf864eb","ios":"levelo://app?vid=56adf3c8-c8d4-4438-805b-e2423bf864eb"},