{"last_updated":1736518135,"ttl":60,"version":"2.2","data":{"bikes":[{"bike_id":"e2b3fd38-d142-4ce0-be92-a15441af280b","system_id":"levelo_inurba_marseille","lat":43.28346,"lon":5.38099,"is_reserved":false,"is_disabled":false,"rental_uris":{"android":"levelo://app?vid=e2b3fd38-d142-4ce0-be92-a15441af280b","ios":"levelo://app?vid=e2b3fd38-d142-4ce0-be92-a15441af280b"},"vehicle_type_id":"4","last_reported":1736518135,"current_range_meters":16400,"station_id":"ce4bh412rcd13ifvqdr0","pricing_plan_id":"cebpf4jnsgd1na2vs0mg"},{"bike_id":"9ff24b9e-60a3-48d4-8cde-0ae6dfde2dc8","system_id":"levelo_inurba_marseille","lat":43.33023,"lon":5.3904,"is_reserved":false,"is_disabled":false,"rental_uris":{"android":"levelo://app?vid=9ff24b9e-60a3-48d4-8cde-0ae6dfde2dc8","ios":"levelo://app?vid=9ff24b9e-60a3-48d4-8cde-0ae6dfde2dc8"},"vehicle_type_id":"4","last_reported":1736518135,"current_range_meters":33600,"station_id":"ce4bhr92rcd13ifvqhrg","pricing_plan_id":"cebpf4jnsgd1na2vs0mg"},{"bike_id":"904ec056-d480-4488-8bf8-9c7706c0a216","system_id":"levelo_inurba_marseille","lat":43.31074,"lon":5.3835,"is_reserved":false,"is_disabled":false,"rental_uris":{"android":"levelo://app?vid=904ec056-d480-4488-8bf8-9c7706c0a216","ios":"levelo://app?vid=904ec056-d480-4488-8bf8-9c7706c0a216"},"vehicle_type_id":"4","last_reported":1736518135,"current_range_meters":35200,"station_id":"ce4bgv92rcd13ifvqcr0","pricing_plan_id":"cebpf4jnsgd1na2vs0mg"},{"bike_id":"6369c140-3323-465a-a3e4-b9f4b2637437","system_id":"levelo_inurba_marseille","lat":43.2591,"lon":5.40882,"is_reserved":false,"is_disabled":false,"rental_uris":{"android":"levelo://app?vid=6369c140-3323-465a-a3e4-b9f4b2637437","ios":"levelo://app?vid=6369c140-3323-465a-a3e4-b9f4b2637437"},"vehicle_type_id":"4","last_reported":1736518135,"current_range_meters":30000,"station_id":"ce4bhm92rcd13ifvqglg","pricing_plan_id":"cebpf4jnsgd1na2vs0mg"},{"bike_id":"2d6c236c-6962-4db0-8c1c-2f479db973ca","system_id":"levelo_inurba_marseille","lat":43.25825,"lon":5.39436,"is_reserved":false,"is_disabled":false,"rental_uris":{"android":"levelo://app?vid=2d6c236c-6962-4db0-8c1c-2f479db973ca","ios":"levelo://app?vid=2d6c236c-6962-4db0-8c1c-2f479db973ca"},"vehicle_type_id":"4","last_reported":1736518135,"current_range_meters":36400,"station_id":"ce4bhip2rcd13ifvqft0","pricing_plan_id":"cebpf4jnsgd1na2vs0mg"},{"bike_id":"bcedf3ff-330c-4e84-9124-07223d7f7a39","system_id":"levelo_inurba_marseille","lat":43.29364,"lon":5.37867,"is_reserved":false,"is_disabled":false,"rental_uris":{"android":"levelo://app?vid=bcedf3ff-330c-4e84-9124-07223d7f7a39","ios":"levelo://app?vid=bcedf3ff-330c-4e84-9124-07223d7f7a39"},"vehicle_type_id":"4","last_reported":1736518135,"current_range_meters":33600,"station_id":"ce4bgjh2rcd13ifvqbf0","pricing_plan_id":"cebpf4jnsgd1na2vs0mg"},{"bike_id":"df97f605-c008-483e-890f-2ebfb2c7d6fc","system_id":"levelo_inurba_marseille","lat":43.29797,"lon":5.37105,"is_reserved":false,"is_disabled":false,"rental_uris":{"android":"levelo://app?vid=df97f605-c008-483e-890f-2ebfb2c7d6fc","ios":"levelo://app?vid=df97f605-c008-483e-890f-2ebfb2c7d6fc"},"vehicle_type_id":"4","last_reported":1736518135,"current_range_meters":22800,"station_id":"ce4bgop2rcd13ifvqc1g","pricing_plan_id":"cebpf4jnsgd1na2vs0mg"},{"bike_id":"c4a7fdf7-5d27-45c1-9206-cbc2c13a640e","system_id":"levelo_inurba_marseille","lat":43.29068,"lon":5.37168,"is_reserved":false,"is_disabled":false,"rental_uris":{"android":"levelo://app?vid=c4a7fdf7-5d27-45c1-9206-cbc2c13a640e","ios":"levelo://app?vid=c4a7fdf7-5d27-45c1-9206-cbc2c13a640e"},"vehicle_type_id":"4","last_reported":1736518135,"current_range_meters":39200,"station_id":"ce4bh5p2rcd13ifvqe4g","pricing_plan_id":"cebpf4jnsgd1na2vs0mg"},{"bike_id":"3db0d231-5ae3-43f1-bf83-bda0d7bf8dc0","system_id":"levelo_inurba_marseille","lat":43.29755,"lon":5.37065,"is_reserved":false,"is_disabled":false,"rental_uris":{"android":"levelo://app?vid=3db0d231-5ae3-43f1-bf83-bda0d7bf8dc0","ios":"levelo://app?vid=3db0d231-5ae3-43f1-bf83-bda0d7bf8dc0"},"vehicle_type_id":"4","last_reported":1736518135,"current_range_meters":39200,"station_id":"ce4bgop2rcd13ifvqc1g","pricing_plan_id":"cebpf4jnsgd1na2vs0mg"},{"bike_id":"bede01d0-1e08-44c9-9061-b0004f918f02","system_id":"levelo_inurba_marseille","lat":43.27415,"lon":5.39415,"is_reserved":false,"is_disabled":false,"rental_uris":{"android":"levelo://app?vid=bede01d0-1e08-44c9-9061-b0004f918f02","ios":"levelo://app?vid=bede01d0-1e08-44c9-9061-b0004f918f02"},"vehicle_type_id":"4","last_reported":1736518135,"current_range_meters":33200,"station_id":"ce4bhdp2rcd13ifvqf20","pricing_plan_id":"cebpf4jnsgd1na2vs0mg"},{"bike_id":"9b9f7a00-78fa-4c6e-9a55-5c7cdd99b601","system_id":"levelo_inurba_marseille","lat":43.2803,"lon":5.36945,"is_reserved":false,"is_disabled":false,"rental_uris":{"android":"levelo://app?vid=9b9f7a00-78fa-4c6e-9a55-5c7cdd99b601","ios":"levelo://app?vid=9b9f7a00-78fa-4c6e-9a55-5c7cdd99b601"},"vehicle_type_id":"4","last_reported":1736518135,"current_range_meters":38400,"station_id":"ce4bha12rcd13ifvqef0","pricing_plan_id":"cebpf4jnsgd1na2vs0mg"},{"bike_id":"4f80c260-0010-44df-8ee9-ba0ff172397b","system_id":"levelo_inurba_marseille","lat":43.27214,"lon":5.39183,"is_reserved":false,"is_disabled":false,"rental_uris":{"android":"levelo://app?vid=4f80c260-0010-44df-8ee9-ba0ff172397b","ios":"levelo://app?vid=4f80c260-0010-44df-8ee9-ba0ff172397b"},"vehicle_type_id":"4","last_reported":1736518135,"current_range_meters":2800,"station_id":"ce4bhhp2rcd13ifvqfm0","pricing_plan_id":"cebpf4jnsgd1na2vs0mg"},{"bike_id":"38cdaa98-c0b1-49c7-979d-de4768f275b1","system_id":"levelo_inurba_marseille","lat":43.28718,"lon":5.37933,"is_reserved":false,"is_disabled":false,"rental_uris":{"android":"levelo://app?vid=38cdaa98-c0b1-49c7-979d-de4768f275b1","ios":"levelo://app?vid=38cdaa98-c0b1-49c7-979d-de4768f275b1"},"vehicle_type_id":"4","last_reported":1736518135,"current_range_meters":38800,"station_id":"ce4bh9p2rcd13ifvqec0","pricing_plan_id":"cebpf4jnsgd1na2vs0mg"},{"bike_id":"04745ce5-c863-4d05-a4b1-70a293af40c0","system_id":"levelo_inurba_marseille","lat":43.29255,"lon":5.40918,"is_reserved":false,"is_disabled":false,"rental_uris":{"android":"levelo://app?vid=04745ce5-c863-4d05-a4b1-70a293af40c0","ios":"levelo://app?vid=04745ce5-c863-4d05-a4b1-70a293af40c0"},"vehicle_type_id":"4","last_reported":1736518135,"current_range_meters":9600,"station_id":"ce4bh192rcd13ifvqdc0","pricing_plan_id":"cebpf4jnsgd1na2vs0mg"},{"bike_id":"004c2ac5-7f25-4e48-8a80-9a02537f6ba6","system_id":"levelo_inurba_marseille","lat":43.32116,"lon":5.36755,"is_reserved":false,"is_disabled":false,"rental_uris":{"android":"levelo://app?vid=004c2ac5-7f25-4e48-8a80-9a02537f6ba6","ios":"levelo://app?vid=004c2ac5-7f25-4e48-8a80-9a02537f6ba6"},"vehicle_type_id":"4","last_reported":1736518135,"current_range_meters":36000,"station_id":"ce4bhrh2rcd13ifvqhug","pricing_plan_id":"cebpf4jnsgd1na2vs0mg"},{"bike_id":"44c06cf5-53b4-4d6c-a76e-d21df06ce45b","system_id":"levelo_inurba_marseille","lat":43.26209,"lon":5.3745,"is_reserved":false,"is_disabled":false,"rental_uris":{"android":"levelo://app?vid=44c06cf5-53b4-4d6c-a76e-d21df06ce45b","ios":"levelo://app?vid=44c06cf5-53b4-4d6c-a76e-d21df06ce45b"},"vehicle_type_id":"4","last_reported":1736518135,"current_range_meters":32000,"station_id":"ce4bhgp2rcd13ifvqfc0","pricing_plan_id":"cebpf4jnsgd1na2vs0mg"},{"bike_id":"49d154ab-b066-4a04-b00a-22a27742a39e","system_id":"levelo_inurba_marseille","lat":43.24162,"lon":5.39752,"is_reserved":false,"is_disabled":false,"rental_uris":{"android":"levelo://app?vid=49d154ab-b066-4a04-b00a-22a27742a39e","ios":"levelo://app?vid=49d154ab-b066-4a04-b00a-22a27742a39e"},"vehicle_type_id":"4","last_reported":1736518135,"current_range_meters":39200,"station_id":"ce4bhn12rcd13ifvqgpg","pricing_plan_id":"cebpf4jnsgd1na2vs0mg"},{"bike_id":"72ecc5ed-b1d8-4329-b672-c35e91ae155c","system_id":"levelo_inurba_marseille","lat":43.30274,"lon":5.37688,"is_reserved":false,"is_disabled":false,"rental_uris":{"android":"levelo://app?vid=72ecc5ed-b1d8-4329-b672-c35e91ae155c","ios":"levelo://app?vid=72ecc5ed-b1d8-4329-b672-c35e91ae155c"},"vehicle_type_id":"4","last_reported":1736518135,"current_range_meters":27200,"station_id":"ce4bguh2rcd13ifvqcj0","pricing_plan_id":"cebpf4jnsgd1na2vs0mg"},{"bike_id":"9ba9b015-c1d3-4202-9813-5166f411a487","system_id":"levelo_inurba_marseille","lat":43.29267,"lon":5.3685,"is_reserved":false,"is_disabled":false,"rental_uris":{"android":"levelo://app?vid=9ba9b015-c1d3-4202-9813-5166f411a487","ios":"levelo://app?vid=9ba9b015-c1d3-4202-9813-5166f411a487"},"vehicle_type_id":"4","last_reported":1736518135,"current_range_meters":19200,"station_id":"ce4bhbp2rcd13ifvqesg","pricing_plan_id":"cebpf4jnsgd1na2vs0mg"},{"bike_id":"9f35e75c-ba6d-4f8b-b521-eefbbebfb95e","system_id":"levelo_inurba_marseille","lat":43.24664,"lon":5.3817,"is_reserved":false,"is_disabled":false,"rental_uris":{"android":"levelo://app?vid=9f35e75c-ba6d-4f8b-b521-eefbbebfb95e","ios":"levelo://app?vid=9f35e75c-ba6d-4f8b-b521-eefbbebfb95e"},"vehicle_type_id":"4","last_reported":1736518135,"current_range_meters":16400,"station_id":"ce4bhih2rcd13ifvqfr0","pricing_plan_id":"cebpf4jnsgd1na2vs0mg"},{"bike_id":"43763b96-2b58-48a5-9f4d-21555e52e118","system_id":"levelo_inurba_marseille","lat":43.30431,"lon":5.38892,"is_reserved":false,"is_disabled":false,"rental_uris":{"android":"levelo://app?vid=43763b96-2b58-48a5-9f4d-21555e52e118","ios":"levelo://app?vid=43763b96-2b58-48a5-9f4d-21555e52e118"},"vehicle_type_id":"4","last_reported":1736518135,"current_range_meters":34800,"station_id":"ce4bgk12rcd13ifvqbi0","pricing_plan_id":"cebpf4jnsgd1na2vs0mg"},{"bike_id":"e5ee832b-7cb3-447a-9fc8-6f7b787813f7","system_id":"levelo_inurba_marseille","lat":43.28418,"lon":5.35001,"is_reserved":false,"is_disabled":false,"rental_uris":{"android":"levelo://app?vid=e5ee832b-7cb3-447a-9fc8-6f7b787813f7","ios":"levelo://app?vid=e5ee832b-7cb3-447a-9fc8-6f7b787813f7"},"vehicle_type_id":"4","last_reported":1736518135,"current_range_meters":13600,"station_id":"ce4bhbh2rcd13ifvqepg","pricing_plan_id":"cebpf4jnsgd1na2vs0mg"},{"bike_id":"bd23ba2f-bea5-46b2-ac92-163ad121c7de","system_id":"levelo_inurba_marseille","lat":43.28936,"lon":5.36635,"is_reserved":false,"is_disabled":false,"rental_uris":{"android":"levelo://app?vid=bd23ba2f-bea5-46b2-ac92-163ad121c7de","ios":"levelo://app?vid=bd23ba2f-bea5-46b2-ac92-163ad121c7de"},"vehicle_type_id":"4","last_reported":1736518135,"current_range_meters":16400,"station_id":"ce4bhap2rcd13ifvqek0","pricing_plan_id":"cebpf4jnsgd1na2vs0mg"},{"bike_id":"b696ba41-b5d2-4648-9e5a-4e638929fba0","system_id":"levelo_inurba_marseille","lat":43.24087,"lon":5.37748,"is_reserved":false,"is_disabled":false,"rental_uris":{"android":"levelo://app?vid=b696ba41-b5d2-4648-9e5a-4e638929fba0","ios":"levelo://app?vid=b696ba41-b5d2-4648-9e5a-4e638929fba0"},"vehicle_type_id":"4","last_reported":1736518135,"current_range_meters":24800,"station_id":"ce4bhnp2rcd13ifvqgvg","pricing_plan_id":"cebpf4jnsgd1na2vs0mg"},{"bike_id":"dc6f076d-fe55-4e1d-b50b-4ffd6cd21346","system_id":"levelo_inurba_marseille","lat":43.30932,"lon":5.36852,"is_reserved":false,"is_disabled":false,"rental_uris":{"android":"levelo://app?vid=dc6f076d-fe55-4e1d-b50b-4ffd6cd21346","ios":"levelo://app?vid=dc6f076d-fe55-4e1d-b50b-4ffd6cd21346"},"vehicle_type_id":"4","last_reported":1736518135,"current_range_meters":39200,"station_id":"ce4bgn92rcd13ifvqbvg","pricing_plan_id":"cebpf4jnsgd1na2vs0mg"},{"bike_id":"9d5535df-7edb-47f9-ac14-54793dd626e0","system_id":"levelo_inurba_marseille","lat":43.22936,"lon":5.35385,"is_reserved":false,"is_disabled":false,"rental_uris":{"android":"levelo://app?vid=9d5535df-7edb-47f9-ac14-54793dd626e0","ios":"levelo://app?vid=9d5535df-7edb-47f9-ac14-54793dd626e0"},"vehicle_type_id":"4","last_reported":1736518135,"current_range_meters":24800,"station_id":"cpo3532slgdg3j2ikp40","pricing_plan_id":"cebpf4jnsgd1na2vs0mg"},{"bike_id":"40aa582d-815a-4ab4-b49f-d3b3d622ee04","system_id":"levelo_inurba_marseille","lat":43.23061,"lon":5.35491,"is_reserved":false,"is_disabled":false,"rental_uris":{"android":"levelo://app?vid=40aa582d-815a-4ab4-b49f-d3b3d622ee04","ios":"levelo://app?vid=40aa582d-815a-4ab4-b49f-d3b3d622ee04"},"vehicle_type_id":"4","last_reported":1736518135,"current_range_meters":5600,"station_id":"cpo3342slgdg3j2ifvpg","pricing_plan_id":"cebpf4jnsgd1na2vs0mg"},{"bike_id":"6b750947-fb43-40e2-9931-495446cc2b3f","system_id":"levelo_inurba_marseille","lat":43.22924,"lon":5.35376,"is_reserved":false,"is_disabled":true,"rental_uris":{"android":"levelo://app?vid=6b750947-fb43-40e2-9931-495446cc2b3f","ios":"levelo://app?vid=6b750947-fb43-40e2-9931-495446cc2b3f"},"vehicle_type_id":"4","last_reported":1736518135,"current_range_meters":0,"station_id":"cpo3532slgdg3j2ikp40","pricing_plan_id":"cebpf4jnsgd1na2vs0mg"},{"bike_id":"79195621-a3d8-4750-bafe-68914d6ba656","system_id":"levelo_inurba_marseille","lat":43.30559,"lon":5.36529,"is_reserved":false,"is_disabled":false,"rental_uris":{"android":"levelo://app?vid=79195621-a3d8-4750-bafe-68914d6ba656","ios":"levelo://app?vid=79195621-a3d8-4750-bafe-68914d6ba656"},"vehicle_type_id":"4","last_reported":1736518135,"current_range_meters":33600,"station_id":"ce4bgs12rcd13ifvqcag","pricing_plan_id":"cebpf4jnsgd1na2vs0mg"},{"bike_id":"a695196c-79fc-477c-ba43-5e8d0411f6ec","system_id":"levelo_inurba_marseille","lat":43.3021,"lon":5.39477,"is_reserved":false,"is_disabled":false,"rental_uris":{"android":"levelo://app?vid=a695196c-79fc-477c-ba43-5e8d0411f6ec","ios":"levelo://app?vid=a695196c-79fc-477c-ba43-5e8d0411f6ec"},"vehicle_type_id":"4","last_reported":1736518135,"current_range_meters":37600,"station_id":"ce4bh0p2rcd13ifvqd70","pricing_plan_id":"cebpf4jnsgd1na2vs0mg"},{"bike_id":"5b79b006-d7c3-4b04-9541-c9d77e2d63cb","system_id":"levelo_inurba_marseille","lat":43.31722,"lon":5.40445,"is_reserved":false,"is_disabled":true,"rental_uris":{"android":"levelo://app?vid=5b79b006-d7c3-4b04-9541-c9d77e2d63cb","ios":"levelo://app?vid=5b79b006-d7c3-4b04-9541-c9d77e2d63cb"},"vehicle_type_id":"4","last_reported":1736518135,"current_range_meters":17200,"station_id":"ce4bh012rcd13ifvqd00","pricing_plan_id":"cebpf4jnsgd1na2vs0mg"},{"bike_id":"1f5ef9f6-050f-4f79-a9ce-badba66ed461","system_id":"levelo_inurba_marseille","lat":43.27944,"lon":5.41048,"is_reserved":false,"is_disabled":false,"rental_uris":{"android":"levelo://app?vid=1f5ef9f6-050f-4f79-a9ce-badba66ed461","ios":"levelo://app?vid=1f5ef9f6-050f-4f79-a9ce-badba66ed461"},"vehicle_type_id":"4","last_reported":1736518135,"current_range_meters":21600,"station_id":"ce4bhnp2rcd13ifvqh0g","pricing_plan_id":"cebpf4jnsgd1na2vs0mg"},{"bike_id":"dbe4d7d2-95f9-4a28-b000-f9ac7c3f52eb","system_id":"levelo_inurba_marseille","lat":43.29184,"lon":5.39313,"is_reserved":false,"is_disabled":true,"rental_uris":{"android":"levelo://app?vid=dbe4d7d2-95f9-4a28-b000-f9ac7c3f52eb","ios":"levelo://app?vid=dbe4d7d2-95f9-4a28-b000-f9ac7c3f52eb"},"vehicle_type_id":"4","last_reported":1736518135,"current_range_meters":0,"station_id":"ce4bh192rcd13ifvqdd0","pricing_plan_id":"cebpf4jnsgd1na2vs0mg"},{"bike_id":"4af16076-0c4c-4b77-bf13-a9dfad761f4a","system_id":"levelo_inurba_marseille","lat":43.26037,"lon":5.37563,"is_reserved":false,"is_disabled":false,"rental_uris":{"android":"levelo://app?vid=4af16076-0c4c-4b77-bf13-a9dfad761f4a","ios":"levelo://app?vid=4af16076-0c4c-4b77-bf13-a9dfad761f4a"},"vehicle_type_id":"4","last_reported":1736518135,"current_range_meters":35600,"station_id":"ce4bhgh2rcd13ifvqfa0","pricing_plan_id":"cebpf4jnsgd1na2vs0mg"},{"bike_id":"6dbf6a89-389f-4a82-9170-0fbbb2ab1c6d","system_id":"levelo_inurba_marseille","lat":43.29253,"lon":5.38443,"is_reserved":false,"is_disabled":false,"rental_uris":{"android":"levelo://app?vid=6dbf6a89-389f-4a82-9170-0fbbb2ab1c6d","ios":"levelo://app?vid=6dbf6a89-389f-4a82-9170-0fbbb2ab1c6d"},"vehicle_type_id":"4","last_reported":1736518135,"current_range_meters":38000,"station_id":"ce4bh692rcd13ifvqea0","pricing_plan_id":"cebpf4jnsgd1na2vs0mg"},{"bike_id":"41a15443-cb33-4a4d-bed3-45d58d234457","system_id":"levelo_inurba_marseille","lat":43.29001,"lon":5.35613,"is_reserved":false,"is_disabled":false,"rental_uris":{"android":"levelo://app?vid=41a15443-cb33-4a4d-bed3-45d58d234457","ios":"levelo://app?vid=41a15443-cb33-4a4d-bed3-45d58d234457"},"vehicle_type_id":"4","last_reported":1736518135,"current_range_meters":15200,"station_id":"ce4bhb92rcd13ifvqen0","pricing_plan_id":"cebpf4jnsgd1na2vs0mg"},{"bike_id":"6d907632-b7a4-409f-98d5-031bae93ab87","system_id":"levelo_inurba_marseille","lat":43.23968,"lon":5.36627,"is_reserved":false,"is_disabled":false,"rental_uris":{"android":"levelo://app?vid=6d907632-b7a4-409f-98d5-031bae93ab87","ios":"levelo://app?vid=6d907632-b7a4-409f-98d5-031bae93ab87"},"vehicle_type_id":"4","last_reported":1736518135,"current_range_meters":38800,"station_id":"ce4bhi12rcd13ifvqfp0","pricing_plan_id":"cebpf4jnsgd1na2vs0mg"},{"bike_id":"dbfd3303-8c4b-422b-b335-0e31aa3c2851","system_id":"levelo_inurba_marseille","lat":43.28417,"lon":5.34976,"is_reserved":false,"is_disabled":false,"rental_uris":{"android":"levelo://app?vid=dbfd3303-8c4b-422b-b335-0e31aa3c2851","ios":"levelo://app?vid=dbfd3303-8c4b-422b-b335-0e31aa3c2851"},"vehicle_type_id":"4","last_reported":1736518135,"current_range_meters":20400,"station_id":"ce4bhbh2rcd13ifvqepg","pricing_plan_id":"cebpf4jnsgd1na2vs0mg"},{"bike_id":"a32b2dfc-af23-42dc-a0fd-205aa8242f3d","system_id":"levelo_inurba_marseille","lat":43.27563,"lon":5.38433,"is_reserved":false,"is_disabled":false,"rental_uris":{"android":"levelo://app?vid=a32b2dfc-af23-42dc-a0fd-205aa8242f3d","ios":"levelo://app?vid=a32b2dfc-af23-42dc-a0fd-205aa8242f3d"},"vehicle_type_id":"4","last_reported":1736518135,"current_range_meters":30000,"station_id":"ce4bhh92rcd13ifvqfi0","pricing_plan_id":"cebpf4jnsgd1na2vs0mg"},{"bike_id":"237b367f-69c6-422c-b184-44b6091e4d4e","system_id":"levelo_inurba_marseille","lat":43.23966,"lon":5.3664,"is_reserved":false,"is_disabled":false,"rental_uris":{"android":"levelo://app?vid=237b367f-69c6-422c-b184-44b6091e4d4e","ios":"levelo://app?vid=237b367f-69c6-422c-b184-44b6091e4d4e"},"vehicle_type_id":"4","last_reported":1736518135,"current_range_meters":27600,"station_id":"ce4bhi12rcd13ifvqfp0","pricing_plan_id":"cebpf4jnsgd1na2vs0mg"},{"bike_id":"e317371f-3cb8-4455-a218-71b01dcac120","system_id":"levelo_inurba_marseille","lat":43.29541,"lon":5.37495,"is_reserved":false,"is_disabled":false,"rental_uris":{"android":"levelo://app?vid=e317371f-3cb8-4455-a218-71b01dcac120","ios":"levelo://app?vid=e317371f-3cb8-4455-a218-71b01dcac120"},"vehicle_type_id":"4","last_reported":1736518135,"current_range_meters":33600,"station_id":"ce4bgkp2rcd13ifvqbmg","pricing_plan_id":"cebpf4jnsgd1na2vs0mg"},{"bike_id":"a86a72b7-d050-4ab0-8014-c84184bf5783","system_id":"levelo_inurba_marseille","lat":43.2455,"lon":5.39526,"is_reserved":false,"is_disabled":false,"rental_uris":{"android":"levelo://app?vid=a86a72b7-d050-4ab0-8014-c84184bf5783","ios":"levelo://app?vid=a86a72b7-d050-4ab0-8014-c84184bf5783"},"vehicle_type_id":"4","last_reported":1736518135,"current_range_meters":38000,"station_id":"ce4bhlp2rcd13ifvqgjg","pricing_plan_id":"cebpf4jnsgd1na2vs0mg"},{"bike_id":"6a1345e2-7a74-4188-b540-d3c2c45cbe9e","system_id":"levelo_inurba_marseille","lat":43.24081,"lon":5.37752,"is_reserved":false,"is_disabled":false,"rental_uris":{"android":"levelo://app?vid=6a1345e2-7a74-4188-b540-d3c2c45cbe9e","ios":"levelo://app?vid=6a1345e2-7a74-4188-b540-d3c2c45cbe9e"},"vehicle_type_id":"4","last_reported":1736518135,"current_range_meters":15200,"station_id":"ce4bhnp2rcd13ifvqgvg","pricing_plan_id":"cebpf4jnsgd1na2vs0mg"},{"bike_id":"60c97533-95bd-4324-a21f-a804a4e55da7","system_id":"levelo_inurba_marseille","lat":43.26689,"lon":5.38267,"is_reserved":false,"is_disabled":false,"rental_uris":{"android":"levelo://app?vid=60c97533-95bd-4324-a21f-a804a4e55da7","ios":"levelo://app?vid=60c97533-95bd-4324-a21f-a804a4e55da7"},"vehicle_type_id":"4","last_reported":1736518135,"current_range_meters":38800,"station_id":"ce4bhg92rcd13ifvqf90","pricing_plan_id":"cebpf4jnsgd1na2vs0mg"},{"bike_id":"b9dc92fc-dcef-4cdb-9a77-1bbdbb69d4e3","system_id":"levelo_inurba_marseille","lat":43.27842,"lon":5.39215,"is_reserved":false,"is_disabled":false,"rental_uris":{"android":"levelo://app?vid=b9dc92fc-dcef-4cdb-9a77-1bbdbb69d4e3","ios":"levelo://app?vid=b9dc92fc-dcef-4cdb-9a77-1bbdbb69d4e3"},"vehicle_type_id":"4","last_reported":1736518135,"current_range_meters":31200,"station_id":"ce4bhjp2rcd13ifvqga0","pricing_plan_id":"cebpf4jnsgd1na2vs0mg"},{"bike_id":"f8f038bf-963e-4cc7-92aa-d346a08a0d6a","system_id":"levelo_inurba_marseille","lat":43.27423,"lon":5.39414,"is_reserved":false,"is_disabled":false,"rental_uris":{"android":"levelo://app?vid=f8f038bf-963e-4cc7-92aa-d346a08a0d6a","ios":"levelo://app?vid=f8f038bf-963e-4cc7-92aa-d346a08a0d6a"},"vehicle_type_id":"4","last_reported":1736518135,"current_range_meters":38400,"station_id":"ce4bhdp2rcd13ifvqf20","pricing_plan_id":"cebpf4jnsgd1na2vs0mg"},{"bike_id":"dc7c3254-8743-46e0-83e6-a66225f60699","system_id":"levelo_inurba_marseille","lat":43.312062,"lon":5.369054,"is_reserved":false,"is_disabled":false,"rental_uris":{"android":"levelo://app?vid=dc7c3254-8743-46e0-83e6-a66225f60699","ios":"levelo://app?vid=dc7c3254-8743-46e0-83e6-a66225f60699"},"vehicle_type_id":"4","last_reported":1736518135,"current_range_meters":30000,"station_id":"ce4bgl92rcd13ifvqbq0","pricing_plan_id":"cebpf4jnsgd1na2vs0mg"},{"bike_id":"426ee80e-06b0-4d0f-86a5-ea8ad64aaa11","system_id":"levelo_inurba_marseille","lat":43.2891,"lon":5.43781,"is_reserved":false,"is_disabled":false,"rental_uris":{"android":"levelo://app?vid=426ee80e-06b0-4d0f-86a5-ea8ad64aaa11","ios":"levelo://app?vid=426ee80e-06b0-4d0f-86a5-ea8ad64aaa11"},"vehicle_type_id":"4","last_reported":1736518135,"current_range_meters":21600,"station_id":"","pricing_plan_id":"cebpf4jnsgd1na2vs0mg"},{"bike_id":"26e99618-7509-4292-89a6-e22bb8ba9da0","system_id":"levelo_inurba_marseille","lat":43.337653,"lon":5.374393,"is_reserved":false,"is_disabled":false,"rental_uris":{"android":"levelo://app?vid=26e99618-7509-4292-89a6-e22bb8ba9da0","ios":"levelo://app?vid=26e99618-7509-4292-89a6-e22bb8ba9da0"},"vehicle_type_id":"4","last_reported":1736518135,"current_range_meters":38000,"station_id":"","pricing_plan_id":"cebpf4jnsgd1na2vs0mg"},{"bike_id":"7b6d1b7a-b3af-4444-bfb8-14edec7e5e23","system_id":"levelo_inurba_marseille","lat":43.2842,"lon":5.34975,"is_reserved":false,"is_disabled":false,"rental_uris":{"android":"levelo://app?vid=7b6d1b7a-b3af-4444-bfb8-14edec7e5e23","ios":"levelo://app?vid=7b6d1b7a-b3af-4444-bfb8-14edec7e5e23"},"vehicle_type_id":"4","last_reported":1736518135,"current_range_meters":30800,"station_id":"ce4bhbh2rcd13ifvqepg","pricing_plan_id":"cebpf4jnsgd1na2vs0mg"},{"bike_id":"b6de231e-022b-4a43-af39-e314d05cf7e6","system_id":"levelo_inurba_marseille","lat":43.31307,"lon":5.3672,"is_reserved":false,"is_disabled":false,"rental_uris":{"android":"levelo://app?vid=b6de231e-022b-4a43-af39-e314d05cf7e6","ios":"levelo://app?vid=b6de231e-022b-4a43-af39-e314d05cf7e6"},"vehicle_type_id":"4","last_reported":1736518135,"current_range_meters":30800,"station_id":"ce4bgr92rcd13ifvqc6g","pricing_plan_id":"cebpf4jnsgd1na2vs0mg"},{"bike_id":"2ff4e172-01b2-4ce7-ac46-4fbccfd6169d","system_id":"levelo_inurba_marseille","lat":43.29189,"lon":5.3932,"is_reserved":false,"is_disabled":false,"rental_uris":{"android":"levelo://app?vid=2ff4e172-01b2-4ce7-ac46-4fbccfd6169d","ios":"levelo://app?vid=2ff4e172-01b2-4ce7-ac46-4fbccfd6169d"},"vehicle_type_id":"4","last_reported":1736518135,"current_range_meters":38400,"station_id":"ce4bh192rcd13ifvqdd0","pricing_plan_id":"cebpf4jnsgd1na2vs0mg"},{"bike_id":"ce1cbfca-a1ba-4987-834e-2bac6c97e5ff","system_id":"levelo_inurba_marseille","lat":43.26921,"lon":5.38624,"is_reserved":false,"is_disabled":false,"rental_uris":{"android":"levelo://app?vid=ce1cbfca-a1ba-4987-834e-2bac6c97e5ff","ios":"levelo://app?vid=ce1cbfca-a1ba-4987-834e-2bac6c97e5ff"},"vehicle_type_id":"4","last_reported":1736518135,"current_range_meters":26000,"station_id":"ce4bhh92rcd13ifvqfh0","pricing_plan_id":"cebpf4jnsgd1na2vs0mg"},{"bike_id":"2837a76e-1964-41aa-834f-ffc821525c0d","system_id":"levelo_inurba_marseille","lat":43.31212,"lon":5.36913,"is_reserved":false,"is_disabled":false,"rental_uris":{"android":"levelo://app?vid=2837a76e-1964-41aa-834f-ffc821525c0d","ios":"levelo://app?vid=2837a76e-1964-41aa-834f-ffc821525c0d"},"vehicle_type_id":"4","last_reported":1736518135,"current_range_meters":38800,"station_id":"ce4bgl92rcd13ifvqbq0","pricing_plan_id":"cebpf4jnsgd1na2vs0mg"},{"bike_id":"a8607ece-6ec2-41dd-9b5b-9637fdf504d9","system_id":"levelo_inurba_marseille","lat":43.27204,"lon":5.39193,"is_reserved":false,"is_disabled":false,"rental_uris":{"android":"levelo://app?vid=a8607ece-6ec2-41dd-9b5b-9637fdf504d9","ios":"levelo://app?vid=a8607ece-6ec2-41dd-9b5b-9637fdf504d9"},"vehicle_type_id":"4","last_reported":1736518135,"current_range_meters":38800,"station_id":"ce4bhhp2rcd13ifvqfm0","pricing_plan_id":"cebpf4jnsgd1na2vs0mg"},{"bike_id":"88472096-b5e0-4d06-a84a-d349a2857239","system_id":"levelo_inurba_marseille","lat":43.31065,"lon":5.40097,"is_reserved":false,"is_disabled":false,"rental_uris":{"android":"levelo://app?vid=88472096-b5e0-4d06-a84a-d349a2857239","ios":"levelo://app?vid=88472096-b5e0-4d06-a84a-d349a2857239"},"vehicle_type_id":"4","last_reported":1736518135,"current_range_meters":28800,"station_id":"","pricing_plan_id":"cebpf4jnsgd1na2vs0mg"},{"bike_id":"e662f410-002e-4ddd-a73b-d91d78e1c666","system_id":"levelo_inurba_marseille","lat":43.312323,"lon":5.368837,"is_reserved":false,"is_disabled":false,"rental_uris":{"android":"levelo://app?vid=e662f410-002e-4ddd-a73b-d91d78e1c666","ios":"levelo://app?vid=e662f410-002e-4ddd-a73b-d91d78e1c666"},"vehicle_type_id":"4","last_reported":1736518135,"current_range_meters":33200,"station_id":"ce4bgl92rcd13ifvqbq0","pricing_plan_id":"cebpf4jnsgd1na2vs0mg"},{"bike_id":"e519fcb6-e49e-46cd-876f-5b5682d8a951","system_id":"levelo_inurba_marseille","lat":43.2455,"lon":5.39528,"is_reserved":false,"is_disabled":false,"rental_uris":{"android":"levelo://app?vid=e519fcb6-e49e-46cd-876f-5b5682d8a951","ios":"levelo://app?vid=e519fcb6-e49e-46cd-876f-5b5682d8a951"},"vehicle_type_id":"4","last_reported":1736518135,"current_range_meters":10800,"station_id":"ce4bhlp2rcd13ifvqgjg","pricing_plan_id":"cebpf4jnsgd1na2vs0mg"},{"bike_id":"afe1dfde-0d60-4886-b6a1-cd2ad9b42bf7","system_id":"levelo_inurba_marseille","lat":43.3188,"lon":5.38642,"is_reserved":false,"is_disabled":false,"rental_uris":{"android":"levelo://app?vid=afe1dfde-0d60-4886-b6a1-cd2ad9b42bf7","ios":"levelo://app?vid=afe1dfde-0d60-4886-b6a1-cd2ad9b42bf7"},"vehicle_type_id":"4","last_reported":1736518135,"current_range_meters":29600,"station_id":"","pricing_plan_id":"cebpf4jnsgd1na2vs0mg"},{"bike_id":"480cd41f-653d-46d3-815f-210dd2b75784","system_id":"levelo_inurba_marseille","lat":43.28112,"lon":5.37841,"is_reserved":false,"is_disabled":false,"rental_uris":{"android":"levelo://app?vid=480cd41f-653d-46d3-815f-210dd2b75784","ios":"levelo://app?vid=480cd41f-653d-46d3-815f-210dd2b75784"},"vehicle_type_id":"4","last_reported":1736518135,"current_range_meters":8400,"station_id":"ce4bha12rcd13ifvqee0","pricing_plan_id":"cebpf4jnsgd1na2vs0mg"},{"bike_id":"43bc90f5-c805-4d4b-8897-6568d7ddd388","system_id":"levelo_inurba_marseille","lat":43.29291,"lon":5.37176,"is_reserved":false,"is_disabled":false,"rental_uris":{"android":"levelo://app?vid=43bc90f5-c805-4d4b-8897-6568d7ddd388","ios":"levelo://app?vid=43bc90f5-c805-4d4b-8897-6568d7ddd388"},"vehicle_type_id":"4","last_reported":1736518135,"current_range_meters":39200,"station_id":"ce4bgh92rcd13ifvqb40","pricing_plan_id":"cebpf4jnsgd1na2vs0mg"},{"bike_id":"80609ff8-7d7d-4ae2-9159-aea837c7c52b","system_id":"levelo_inurba_marseille","lat":43.23974,"lon":5.36627,"is_reserved":false,"is_disabled":false,"rental_uris":{"android":"levelo://app?vid=80609ff8-7d7d-4ae2-9159-aea837c7c52b","ios":"levelo://app?vid=80609ff8-7d7d-4ae2-9159-aea837c7c52b"},"vehicle_type_id":"4","last_reported":1736518135,"current_range_meters":16000,"station_id":"ce4bhi12rcd13ifvqfp0","pricing_plan_id":"cebpf4jnsgd1na2vs0mg"},{"bike_id":"c1f187e7-2ef7-4a0a-bdb8-e9896554a9e3","system_id":"levelo_inurba_marseille","lat":43.24179,"lon":5.39728,"is_reserved":false,"is_disabled":false,"rental_uris":{"android":"levelo://app?vid=c1f187e7-2ef7-4a0a-bdb8-e9896554a9e3","ios":"levelo://app?vid=c1f187e7-2ef7-4a0a-bdb8-e9896554a9e3"},"vehicle_type_id":"4","last_reported":1736518135,"current_range_meters":24400,"station_id":"ce4bhn12rcd13ifvqgpg","pricing_plan_id":"cebpf4jnsgd1na2vs0mg"},{"bike_id":"3d32f181-9ead-43ba-a048-ac397f96ae7e","system_id":"levelo_inurba_marseille","lat":43.28704,"lon":5.40004,"is_reserved":false,"is_disabled":false,"rental_uris":{"android":"levelo://app?vid=3d32f181-9ead-43ba-a048-ac397f96ae7e","ios":"levelo://app?vid=3d32f181-9ead-43ba-a048-ac397f96ae7e"},"vehicle_type_id":"4","last_reported":1736518135,"current_range_meters":30800,"station_id":"ce4bho92rcd13ifvqh3g","pricing_plan_id":"cebpf4jnsgd1na2vs0mg"},{"bike_id":"134d2ae8-82b1-4e38-bf6f-f31055f15993","system_id":"levelo_inurba_marseille","lat":43.30146,"lon":5.38768,"is_reserved":false,"is_disabled":false,"rental_uris":{"android":"levelo://app?vid=134d2ae8-82b1-4e38-bf6f-f31055f15993","ios":"levelo://app?vid=134d2ae8-82b1-4e38-bf6f-f31055f15993"},"vehicle_type_id":"4","last_reported":1736518135,"current_range_meters":18000,"station_id":"ce4bghh2rcd13ifvqb60","pricing_plan_id":"cebpf4jnsgd1na2vs0mg"},{"bike_id":"eccda36e-f31d-4d01-b219-d2103b9a6ede","system_id":"levelo_inurba_marseille","lat":43.27618,"lon":5.36113,"is_reserved":false,"is_disabled":false,"rental_uris":{"android":"levelo://app?vid=eccda36e-f31d-4d01-b219-d2103b9a6ede","ios":"levelo://app?vid=eccda36e-f31d-4d01-b219-d2103b9a6ede"},"vehicle_type_id":"4","last_reported":1736518135,"current_range_meters":38800,"station_id":"ce4bgj92rcd13ifvqbe0","pricing_plan_id":"cebpf4jnsgd1na2vs0mg"},{"bike_id":"5edb9b21-4917-4f45-9961-6635931db922","system_id":"levelo_inurba_marseille","lat":43.22931,"lon":5.3538,"is_reserved":false,"is_disabled":false,"rental_uris":{"android":"levelo://app?vid=5edb9b21-4917-4f45-9961-6635931db922","ios":"levelo://app?vid=5edb9b21-4917-4f45-9961-6635931db922"},"vehicle_type_id":"4","last_reported":1736518135,"current_range_meters":37600,"station_id":"cpo3532slgdg3j2ikp40","pricing_plan_id":"cebpf4jnsgd1na2vs0mg"},{"bike_id":"6c16b955-c13c-49a6-a5bb-29559922d02c","system_id":"levelo_inurba_marseille","lat":43.23962,"lon":5.366298,"is_reserved":false,"is_disabled":false,"rental_uris":{"android":"levelo://app?vid=6c16b955-c13c-49a6-a5bb-29559922d02c","ios":"levelo://app?vid=6c16b955-c13c-49a6-a5bb-29559922d02c"},"vehicle_type_id":"4","last_reported":1736518135,"current_range_meters":25200,"station_id":"ce4bhi12rcd13ifvqfp0","pricing_plan_id":"cebpf4jnsgd1na2vs0mg"},{"bike_id":"e5b661c0-5639-40a4-90a1-dcef1f99f698","system_id":"levelo_inurba_marseille","lat":43.30479,"lon":5.37903,"is_reserved":false,"is_disabled":false,"rental_uris":{"android":"levelo://app?vid=e5b661c0-5639-40a4-90a1-dcef1f99f698","ios":"levelo://app?vid=e5b661c0-5639-40a4-90a1-dcef1f99f698"},"vehicle_type_id":"4","last_reported":1736518135,"current_range_meters":33600,"station_id":"ce4bgup2rcd13ifvqcn0","pricing_plan_id":"cebpf4jnsgd1na2vs0mg"},{"bike_id":"dd95b172-24fd-4056-9bb1-1ba37d74b460","system_id":"levelo_inurba_marseille","lat":43.25577,"lon":5.38248,"is_reserved":false,"is_disabled":false,"rental_uris":{"android":"levelo://app?vid=dd95b172-24fd-4056-9bb1-1ba37d74b460","ios":"levelo://app?vid=dd95b172-24fd-4056-9bb1-1ba37d74b460"},"vehicle_type_id":"4","last_reported":1736518135,"current_range_meters":16000,"station_id":"ce4bhih2rcd13ifvqfs0","pricing_plan_id":"cebpf4jnsgd1na2vs0mg"},{"bike_id":"8edf90de-637c-46ca-b4f6-4449b64ce09d","system_id":"levelo_inurba_marseille","lat":43.26793,"lon":5.39415,"is_reserved":false,"is_disabled":false,"rental_uris":{"android":"levelo://app?vid=8edf90de-637c-46ca-b4f6-4449b64ce09d","ios":"levelo://app?vid=8edf90de-637c-46ca-b4f6-4449b64ce09d"},"vehicle_type_id":"4","last_reported":1736518135,"current_range_meters":8800,"station_id":"ce4bhh12rcd13ifvqfg0","pricing_plan_id":"cebpf4jnsgd1na2vs0mg"},{"bike_id":"f46cfdd7-3486-4733-bbe3-7e009c42ce9b","system_id":"levelo_inurba_marseille","lat":43.27673,"lon":5.38867,"is_reserved":false,"is_disabled":false,"rental_uris":{"android":"levelo://app?vid=f46cfdd7-3486-4733-bbe3-7e009c42ce9b","ios":"levelo://app?vid=f46cfdd7-3486-4733-bbe3-7e009c42ce9b"},"vehicle_type_id":"4","last_reported":1736518135,"current_range_meters":35600,"station_id":"ce4bhi12rcd13ifvqfo0","pricing_plan_id":"cebpf4jnsgd1na2vs0mg"},{"bike_id":"e247b89a-68d3-4787-a893-22107163a77e","system_id":"levelo_inurba_marseille","lat":43.231874,"lon":5.399838,"is_reserved":false,"is_disabled":false,"rental_uris":{"android":"levelo://app?vid=e247b89a-68d3-4787-a893-22107163a77e","ios":"levelo://app?vid=e247b89a-68d3-4787-a893-22107163a77e"},"vehicle_type_id":"4","last_reported":1736518135,"current_range_meters":29600,"station_id":"ce4bhn12rcd13ifvqgqg","pricing_plan_id":"cebpf4jnsgd1na2vs0mg"},{"bike_id":"a1a982e7-e625-4dfa-991a-019bb63c806f","system_id":"levelo_inurba_marseille","lat":43.23953,"lon":5.36663,"is_reserved":false,"is_disabled":false,"rental_uris":{"android":"levelo://app?vid=a1a982e7-e625-4dfa-991a-019bb63c806f","ios":"levelo://app?vid=a1a982e7-e625-4dfa-991a-019bb63c806f"},"vehicle_type_id":"4","last_reported":1736518135,"current_range_meters":22800,"station_id":"ce4bhi12rcd13ifvqfp0","pricing_plan_id":"cebpf4jnsgd1na2vs0mg"},{"bike_id":"066fc890-cce1-4b7e-a941-320c51e991c9","system_id":"levelo_inurba_marseille","lat":43.23965,"lon":5.36628,"is_reserved":false,"is_disabled":false,"rental_uris":{"android":"levelo://app?vid=066fc890-cce1-4b7e-a941-320c51e991c9","ios":"levelo://app?vid=066fc890-cce1-4b7e-a941-320c51e991c9"},"vehicle_type_id":"4","last_reported":1736518135,"current_range_meters":25200,"station_id":"ce4bhi12rcd13ifvqfp0","pricing_plan_id":"cebpf4jnsgd1na2vs0mg"},{"bike_id":"e71db8cf-7b3c-485e-a8dd-487e8221434b","system_id":"levelo_inurba_marseille","lat":43.3053,"lon":5.3673,"is_reserved":false,"is_disabled":false,"rental_uris":{"android":"levelo://app?vid=e71db8cf-7b3c-485e-a8dd-487e8221434b","ios":"levelo://app?vid=e71db8cf-7b3c-485e-a8dd-487e8221434b"},"vehicle_type_id":"4","last_reported":1736518135,"current_range_meters":38800,"station_id":"ce4bgrp2rcd13ifvqc9g","pricing_plan_id":"cebpf4jnsgd1na2vs0mg"},{"bike_id":"db2bb327-84ca-49b3-a980-9c69d6ef41a2","system_id":"levelo_inurba_marseille","lat":43.23188,"lon":5.35553,"is_reserved":false,"is_disabled":false,"rental_uris":{"android":"levelo://app?vid=db2bb327-84ca-49b3-a980-9c69d6ef41a2","ios":"levelo://app?vid=db2bb327-84ca-49b3-a980-9c69d6ef41a2"},"vehicle_type_id":"4","last_reported":1736518135,"current_range_meters":38000,"station_id":"ce4bhu92rcd13ifvqi70","pricing_plan_id":"cebpf4jnsgd1na2vs0mg"},{"bike_id":"b1cd05bd-cc6d-452b-8b8c-f24ee7fb627f","system_id":"levelo_inurba_marseille","lat":43.25825,"lon":5.39438,"is_reserved":false,"is_disabled":false,"rental_uris":{"android":"levelo://app?vid=b1cd05bd-cc6d-452b-8b8c-f24ee7fb627f","ios":"levelo://app?vid=b1cd05bd-cc6d-452b-8b8c-f24ee7fb627f"},"vehicle_type_id":"4","last_reported":1736518135,"current_range_meters":36400,"station_id":"ce4bhip2rcd13ifvqft0","pricing_plan_id":"cebpf4jnsgd1na2vs0mg"},{"bike_id":"01a6abdc-f5fa-4f9f-b49d-c9c5dcd58854","system_id":"levelo_inurba_marseille","lat":43.32657,"lon":5.40993,"is_reserved":false,"is_disabled":false,"rental_uris":{"android":"levelo://app?vid=01a6abdc-f5fa-4f9f-b49d-c9c5dcd58854","ios":"levelo://app?vid=01a6abdc-f5fa-4f9f-b49d-c9c5dcd58854"},"vehicle_type_id":"4","last_reported":1736518135,"current_range_meters":34800,"station_id":"ce4bhpp2rcd13ifvqhgg","pricing_plan_id":"cebpf4jnsgd1na2vs0mg"},{"bike_id":"9d27d288-9638-4ffa-a41f-98c9e72676c0","system_id":"levelo_inurba_marseille","lat":43.23193,"lon":5.3556,"is_reserved":false,"is_disabled":false,"rental_uris":{"android":"levelo://app?vid=9d27d288-9638-4ffa-a41f-98c9e72676c0","ios":"levelo://app?vid=9d27d288-9638-4ffa-a41f-98c9e72676c0"},"vehicle_type_id":"4","last_reported":1736518135,"current_range_meters":8400,"station_id":"ce4bhu92rcd13ifvqi70","pricing_plan_id":"cebpf4jnsgd1na2vs0mg"},{"bike_id":"5aee579e-4d1a-4cdd-b13b-286ee35e83d9","system_id":"levelo_inurba_marseille","lat":43.25928,"lon":5.40935,"is_reserved":false,"is_disabled":false,"rental_uris":{"android":"levelo://app?vid=5aee579e-4d1a-4cdd-b13b-286ee35e83d9","ios":"levelo://app?vid=5aee579e-4d1a-4cdd-b13b-286ee35e83d9"},"vehicle_type_id":"4","last_reported":1736518135,"current_range_meters":36800,"station_id":"ce4bhm92rcd13ifvqglg","pricing_plan_id":"cebpf4jnsgd1na2vs0mg"},{"bike_id":"4f9797a2-da38-42f3-9e53-d0d3b5f6b7d1","system_id":"levelo_inurba_marseille","lat":43.29908,"lon":5.37468,"is_reserved":false,"is_disabled":false,"rental_uris":{"android":"levelo://app?vid=4f9797a2-da38-42f3-9e53-d0d3b5f6b7d1","ios":"levelo://app?vid=4f9797a2-da38-42f3-9e53-d0d3b5f6b7d1"},"vehicle_type_id":"4","last_reported":1736518135,"current_range_meters":24400,"station_id":"ce4bgjh2rcd13ifvqbg0","pricing_plan_id":"cebpf4jnsgd1na2vs0mg"},{"bike_id":"11585661-9606-4540-9904-4049c3c3dbe3","system_id":"levelo_inurba_marseille","lat":43.29633,"lon":5.37174,"is_reserved":false,"is_disabled":false,"rental_uris":{"android":"levelo://app?vid=11585661-9606-4540-9904-4049c3c3dbe3","ios":"levelo://app?vid=11585661-9606-4540-9904-4049c3c3dbe3"},"vehicle_type_id":"4","last_reported":1736518135,"current_range_meters":12800,"station_id":"ce4bgnh2rcd13ifvqc0g","pricing_plan_id":"cebpf4jnsgd1na2vs0mg"},{"bike_id":"14260f59-5e6c-465e-be91-94b0442db1da","system_id":"levelo_inurba_marseille","lat":43.27844,"lon":5.39199,"is_reserved":false,"is_disabled":false,"rental_uris":{"android":"levelo://app?vid=14260f59-5e6c-465e-be91-94b0442db1da","ios":"levelo://app?vid=14260f59-5e6c-465e-be91-94b0442db1da"},"vehicle_type_id":"4","last_reported":1736518135,"current_range_meters":38000,"station_id":"ce4bhjp2rcd13ifvqga0","pricing_plan_id":"cebpf4jnsgd1na2vs0mg"},{"bike_id":"520802de-4b10-4c66-bb47-65456a727275","system_id":"levelo_inurba_marseille","lat":43.337622,"lon":5.374385,"is_reserved":false,"is_disabled":false,"rental_uris":{"android":"levelo://app?vid=520802de-4b10-4c66-bb47-65456a727275","ios":"levelo://app?vid=520802de-4b10-4c66-bb47-65456a727275"},"vehicle_type_id":"4","last_reported":1736518135,"current_range_meters":35200,"station_id":"","pricing_plan_id":"cebpf4jnsgd1na2vs0mg"},{"bike_id":"af9b5cb3-fb99-43dc-b90b-3dfba9b8350f","system_id":"levelo_inurba_marseille","lat":43.28133,"lon":5.42651,"is_reserved":false,"is_disabled":false,"rental_uris":{"android":"levelo://app?vid=af9b5cb3-fb99-43dc-b90b-3dfba9b8350f","ios":"levelo://app?vid=af9b5cb3-fb99-43dc-b90b-3dfba9b8350f"},"vehicle_type_id":"4","last_reported":1736518135,"current_range_meters":29600,"station_id":"ce4bhnh2rcd13ifvqgug","pricing_plan_id":"cebpf4jnsgd1na2vs0mg"},{"bike_id":"bc72b692-fa80-4572-afe8-0e7949eae868","system_id":"levelo_inurba_marseille","lat":43.33739,"lon":5.37436,"is_reserved":false,"is_disabled":false,"rental_uris":{"android":"levelo://app?vid=bc72b692-fa80-4572-afe8-0e7949eae868","ios":"levelo://app?vid=bc72b692-fa80-4572-afe8-0e7949eae868"},"vehicle_type_id":"4","last_reported":1736518135,"current_range_meters":27200,"station_id":"","pricing_plan_id":"cebpf4jnsgd1na2vs0mg"},{"bike_id":"b7a9af4a-f050-47c0-8298-26fae1024e10","system_id":"levelo_inurba_marseille","lat":43.26685,"lon":5.38265,"is_reserved":false,"is_disabled":false,"rental_uris":{"android":"levelo://app?vid=b7a9af4a-f050-47c0-8298-26fae1024e10","ios":"levelo://app?vid=b7a9af4a-f050-47c0-8298-26fae1024e10"},"vehicle_type_id":"4","last_reported":1736518135,"current_range_meters":38800,"station_id":"ce4bhg92rcd13ifvqf90","pricing_plan_id":"cebpf4jnsgd1na2vs0mg"},{"bike_id":"8c8645f7-db44-4c99-ae0c-0617340f021e","system_id":"levelo_inurba_marseille","lat":43.275,"lon":5.42463,"is_reserved":false,"is_disabled":false,"rental_uris":{"android":"levelo://app?vid=8c8645f7-db44-4c99-ae0c-0617340f021e","ios":"levelo://app?vid=8c8645f7-db44-4c99-ae0c-0617340f021e"},"vehicle_type_id":"4","last_reported":1736518135,"current_range_meters":9200,"station_id":"ce4bhn92rcd13ifvqgrg","pricing_plan_id":"cebpf4jnsgd1na2vs0mg"},{"bike_id":"825f53ce-ee85-45e7-b139-fd95388a67ef","system_id":"levelo_inurba_marseille","lat":43.299793,"lon":5.390671,"is_reserved":false,"is_disabled":false,"rental_uris":{"android":"levelo://app?vid=825f53ce-ee85-45e7-b139-fd95388a67ef","ios":"levelo://app?vid=825f53ce-ee85-45e7-b139-fd95388a67ef"},"vehicle_type_id":"4","last_reported":1736518135,"current_range_meters":9200,"station_id":"ce4bh392rcd13ifvqdl0","pricing_plan_id":"cebpf4jnsgd1na2vs0mg"},{"bike_id":"9ed1c0a7-5035-4dde-954f-378a0451f32a","system_id":"levelo_inurba_marseille","lat":43.23967,"lon":5.36627,"is_reserved":false,"is_disabled":false,"rental_uris":{"android":"levelo://app?vid=9ed1c0a7-5035-4dde-954f-378a0451f32a","ios":"levelo://app?vid=9ed1c0a7-5035-4dde-954f-378a0451f32a"},"vehicle_type_id":"4","last_reported":1736518135,"current_range_meters":38800,"station_id":"ce4bhi12rcd13ifvqfp0","pricing_plan_id":"cebpf4jnsgd1na2vs0mg"},{"bike_id":"b630439d-1cc1-462c-ad1e-b9dbabf938fa","system_id":"levelo_inurba_marseille","lat":43.27827,"lon":5.39212,"is_reserved":false,"is_disabled":false,"rental_uris":{"android":"levelo://app?vid=b630439d-1cc1-462c-ad1e-b9dbabf938fa","ios":"levelo://app?vid=b630439d-1cc1-462c-ad1e-b9dbabf938fa"},"vehicle_type_id":"4","last_reported":1736518135,"current_range_meters":30400,"station_id":"ce4bhjp2rcd13ifvqga0","pricing_plan_id":"cebpf4jnsgd1na2vs0mg"},{"bike_id":"90d16c5f-2614-4833-a289-7d7de073d9ad","system_id":"levelo_inurba_marseille","lat":43.29417,"lon":5.38625,"is_reserved":false,"is_disabled":false,"rental_uris":{"android":"levelo://app?vid=90d16c5f-2614-4833-a289-7d7de073d9ad","ios":"levelo://app?vid=90d16c5f-2614-4833-a289-7d7de073d9ad"},"vehicle_type_id":"4","last_reported":1736518135,"current_range_meters":18000,"station_id":"ce4bh2h2rcd13ifvqdh0","pricing_plan_id":"cebpf4jnsgd1na2vs0mg"},{"bike_id":"e42c8aba-5e9c-4b6d-a259-edb8ae8ea104","system_id":"levelo_inurba_marseille","lat":43.32662,"lon":5.40992,"is_reserved":false,"is_disabled":false,"rental_uris":{"android":"levelo://app?vid=e42c8aba-5e9c-4b6d-a259-edb8ae8ea104","ios":"levelo://app?vid=e42c8aba-5e9c-4b6d-a259-edb8ae8ea104"},"vehicle_type_id":"4","last_reported":1736518135,"current_range_meters":30800,"station_id":"ce4bhpp2rcd13ifvqhgg","pricing_plan_id":"cebpf4jnsgd1na2vs0mg"},{"bike_id":"3499c2e3-a89c-4eb9-b8bb-035633a0657e","system_id":"levelo_inurba_marseille","lat":43.28949,"lon":5.39626,"is_reserved":false,"is_disabled":false,"rental_uris":{"android":"levelo://app?vid=3499c2e3-a89c-4eb9-b8bb-035633a0657e","ios":"levelo://app?vid=3499c2e3-a89c-4eb9-b8bb-035633a0657e"},"vehicle_type_id":"4","last_reported":1736518135,"current_range_meters":38800,"station_id":"ce4bh3h2rcd13ifvqdn0","pricing_plan_id":"cebpf4jnsgd1na2vs0mg"},{"bike_id":"af1d8654-7f66-4539-8667-313d56746f24","system_id":"levelo_inurba_marseille","lat":43.25062,"lon":5.39536,"is_reserved":false,"is_disabled":false,"rental_uris":{"android":"levelo://app?vid=af1d8654-7f66-4539-8667-313d56746f24","ios":"levelo://app?vid=af1d8654-7f66-4539-8667-313d56746f24"},"vehicle_type_id":"4","last_reported":1736518135,"current_range_meters":38800,"station_id":"ce4bhm12rcd13ifvqgkg","pricing_plan_id":"cebpf4jnsgd1na2vs0mg"},{"bike_id":"60271d0f-3a77-4626-8905-d712a41f6304","system_id":"levelo_inurba_marseille","lat":43.28463,"lon":5.35893,"is_reserved":false,"is_disabled":false,"rental_uris":{"android":"levelo://app?vid=60271d0f-3a77-4626-8905-d712a41f6304","ios":"levelo://app?vid=60271d0f-3a77-4626-8905-d712a41f6304"},"vehicle_type_id":"4","last_reported":1736518135,"current_range_meters":38000,"station_id":"ce4bhah2rcd13ifvqei0","pricing_plan_id":"cebpf4jnsgd1na2vs0mg"},{"bike_id":"98bcf38a-05c6-4388-9f91-b43cae5829c4","system_id":"levelo_inurba_marseille","lat":43.34141,"lon":5.40908,"is_reserved":false,"is_disabled":false,"rental_uris":{"android":"levelo://app?vid=98bcf38a-05c6-4388-9f91-b43cae5829c4","ios":"levelo://app?vid=98bcf38a-05c6-4388-9f91-b43cae5829c4"},"vehicle_type_id":"4","last_reported":1736518135,"current_range_meters":27200,"station_id":"ce4bhqh2rcd13ifvqhlg","pricing_plan_id":"cebpf4jnsgd1na2vs0mg"},{"bike_id":"8cb9fdf6-0750-4e49-82a3-13b1a5517995","system_id":"levelo_inurba_marseille","lat":43.23151,"lon":5.43719,"is_reserved":false,"is_disabled":false,"rental_uris":{"android":"levelo://app?vid=8cb9fdf6-0750-4e49-82a3-13b1a5517995","ios":"levelo://app?vid=8cb9fdf6-0750-4e49-82a3-13b1a5517995"},"vehicle_type_id":"4","last_reported":1736518135,"current_range_meters":19200,"station_id":"ce4bhmp2rcd13ifvqgog","pricing_plan_id":"cebpf4jnsgd1na2vs0mg"},{"bike_id":"7a0a8a69-615c-43f3-a001-073b74f4a57b","system_id":"levelo_inurba_marseille","lat":43.255712,"lon":5.382394,"is_reserved":false,"is_disabled":false,"rental_uris":{"android":"levelo://app?vid=7a0a8a69-615c-43f3-a001-073b74f4a57b","ios":"levelo://app?vid=7a0a8a69-615c-43f3-a001-073b74f4a57b"},"vehicle_type_id":"4","last_reported":1736518135,"current_range_meters":26800,"station_id":"ce4bhih2rcd13ifvqfs0","pricing_plan_id":"cebpf4jnsgd1na2vs0mg"},{"bike_id":"50feb37a-834e-41bf-a542-63d3cc1f179c","system_id":"levelo_inurba_marseille","lat":43.29908,"lon":5.38149,"is_reserved":false,"is_disabled":false,"rental_uris":{"android":"levelo://app?vid=50feb37a-834e-41bf-a542-63d3cc1f179c","ios":"levelo://app?vid=50feb37a-834e-41bf-a542-63d3cc1f179c"},"vehicle_type_id":"4","last_reported":1736518135,"current_range_meters":39200,"station_id":"ce4bgj12rcd13ifvqbc0","pricing_plan_id":"cebpf4jnsgd1na2vs0mg"},{"bike_id":"04b99ebe-7927-40e6-9554-a7aa6d8ff5da","system_id":"levelo_inurba_marseille","lat":43.33016,"lon":5.39048,"is_reserved":false,"is_disabled":false,"rental_uris":{"android":"levelo://app?vid=04b99ebe-7927-40e6-9554-a7aa6d8ff5da","ios":"levelo://app?vid=04b99ebe-7927-40e6-9554-a7aa6d8ff5da"},"vehicle_type_id":"4","last_reported":1736518135,"current_range_meters":38800,"station_id":"ce4bhr92rcd13ifvqhrg","pricing_plan_id":"cebpf4jnsgd1na2vs0mg"},{"bike_id":"ed64b1fe-3eec-4913-99d6-73929977a8cf","system_id":"levelo_inurba_marseille","lat":43.31171,"lon":5.38717,"is_reserved":false,"is_disabled":false,"rental_uris":{"android":"levelo://app?vid=ed64b1fe-3eec-4913-99d6-73929977a8cf","ios":"levelo://app?vid=ed64b1fe-3eec-4913-99d6-73929977a8cf"},"vehicle_type_id":"4","last_reported":1736518135,"current_range_meters":38400,"station_id":"ce4bgv12rcd13ifvqcp0","pricing_plan_id":"cebpf4jnsgd1na2vs0mg"},{"bike_id":"fbed77ab-2ed1-46b1-b44f-6d1dab5a94f3","system_id":"levelo_inurba_marseille","lat":43.29793,"lon":5.38105,"is_reserved":false,"is_disabled":false,"rental_uris":{"android":"levelo://app?vid=fbed77ab-2ed1-46b1-b44f-6d1dab5a94f3","ios":"levelo://app?vid=fbed77ab-2ed1-46b1-b44f-6d1dab5a94f3"},"vehicle_type_id":"4","last_reported":1736518135,"current_range_meters":10000,"station_id":"ce4bgip2rcd13ifvqbb0","pricing_plan_id":"cebpf4jnsgd1na2vs0mg"},{"bike_id":"b949c1bc-0657-4b07-9653-e40c96867bbe","system_id":"levelo_inurba_marseille","lat":43.30655,"lon":5.40071,"is_reserved":false,"is_disabled":false,"rental_uris":{"android":"levelo://app?vid=b949c1bc-0657-4b07-9653-e40c96867bbe","ios":"levelo://app?vid=b949c1bc-0657-4b07-9653-e40c96867bbe"},"vehicle_type_id":"4","last_reported":1736518135,"current_range_meters":38800,"station_id":"ce4bh112rcd13ifvqda0","pricing_plan_id":"cebpf4jnsgd1na2vs0mg"},{"bike_id":"54471564-bd33-4455-b850-4f293cdf3987","system_id":"levelo_inurba_marseille","lat":43.23071,"lon":5.35494,"is_reserved":false,"is_disabled":false,"rental_uris":{"android":"levelo://app?vid=54471564-bd33-4455-b850-4f293cdf3987","ios":"levelo://app?vid=54471564-bd33-4455-b850-4f293cdf3987"},"vehicle_type_id":"4","last_reported":1736518135,"current_range_meters":12400,"station_id":"cpo3342slgdg3j2ifvpg","pricing_plan_id":"cebpf4jnsgd1na2vs0mg"},{"bike_id":"71e570f6-1bdf-4c49-ac3c-9ac53bfae001","system_id":"levelo_inurba_marseille","lat":43.30321,"lon":5.40438,"is_reserved":false,"is_disabled":false,"rental_uris":{"android":"levelo://app?vid=71e570f6-1bdf-4c49-ac3c-9ac53bfae001","ios":"levelo://app?vid=71e570f6-1bdf-4c49-ac3c-9ac53bfae001"},"vehicle_type_id":"4","last_reported":1736518135,"current_range_meters":6400,"station_id":"ce4bh012rcd13ifvqd10","pricing_plan_id":"cebpf4jnsgd1na2vs0mg"},{"bike_id":"e71cd0ba-5b89-48f8-91a7-2d09b1c47425","system_id":"levelo_inurba_marseille","lat":43.32656,"lon":5.40994,"is_reserved":false,"is_disabled":false,"rental_uris":{"android":"levelo://app?vid=e71cd0ba-5b89-48f8-91a7-2d09b1c47425","ios":"levelo://app?vid=e71cd0ba-5b89-48f8-91a7-2d09b1c47425"},"vehicle_type_id":"4","last_reported":1736518135,"current_range_meters":4400,"station_id":"ce4bhpp2rcd13ifvqhgg","pricing_plan_id":"cebpf4jnsgd1na2vs0mg"},{"bike_id":"5ecc8615-e1bd-4d04-8ab0-d6ffe1e2ef8c","system_id":"levelo_inurba_marseille","lat":43.27495,"lon":5.42455,"is_reserved":false,"is_disabled":false,"rental_uris":{"android":"levelo://app?vid=5ecc8615-e1bd-4d04-8ab0-d6ffe1e2ef8c","ios":"levelo://app?vid=5ecc8615-e1bd-4d04-8ab0-d6ffe1e2ef8c"},"vehicle_type_id":"4","last_reported":1736518135,"current_range_meters":16400,"station_id":"ce4bhn92rcd13ifvqgrg","pricing_plan_id":"cebpf4jnsgd1na2vs0mg"},{"bike_id":"ceb92aec-d98c-4169-9bda-16d3f42a8ac3","system_id":"levelo_inurba_marseille","lat":43.31081,"lon":5.42429,"is_reserved":false,"is_disabled":false,"rental_uris":{"android":"levelo://app?vid=ceb92aec-d98c-4169-9bda-16d3f42a8ac3","ios":"levelo://app?vid=ceb92aec-d98c-4169-9bda-16d3f42a8ac3"},"vehicle_type_id":"4","last_reported":1736518135,"current_range_meters":38000,"station_id":"ce4bhp92rcd13ifvqhag","pricing_plan_id":"cebpf4jnsgd1na2vs0mg"},{"bike_id":"c0428676-c11a-41ec-a23f-5a5988828fcb","system_id":"levelo_inurba_marseille","lat":43.2657,"lon":5.39032,"is_reserved":false,"is_disabled":false,"rental_uris":{"android":"levelo://app?vid=c0428676-c11a-41ec-a23f-5a5988828fcb","ios":"levelo://app?vid=c0428676-c11a-41ec-a23f-5a5988828fcb"},"vehicle_type_id":"4","last_reported":1736518135,"current_range_meters":36400,"station_id":"ce4bhe12rcd13ifvqf30","pricing_plan_id":"cebpf4jnsgd1na2vs0mg"},{"bike_id":"9e6f5268-e3fc-41d2-8beb-9b86b69a8242","system_id":"levelo_inurba_marseille","lat":43.30587,"lon":5.39352,"is_reserved":false,"is_disabled":false,"rental_uris":{"android":"levelo://app?vid=9e6f5268-e3fc-41d2-8beb-9b86b69a8242","ios":"levelo://app?vid=9e6f5268-e3fc-41d2-8beb-9b86b69a8242"},"vehicle_type_id":"4","last_reported":1736518135,"current_range_meters":16400,"station_id":"ce4bh0p2rcd13ifvqd80","pricing_plan_id":"cebpf4jnsgd1na2vs0mg"},{"bike_id":"8c6eca0e-fb09-45a5-8c17-b5ab39d7e7e0","system_id":"levelo_inurba_marseille","lat":43.30411,"lon":5.39749,"is_reserved":false,"is_disabled":false,"rental_uris":{"android":"levelo://app?vid=8c6eca0e-fb09-45a5-8c17-b5ab39d7e7e0","ios":"levelo://app?vid=8c6eca0e-fb09-45a5-8c17-b5ab39d7e7e0"},"vehicle_type_id":"4","last_reported":1736518135,"current_range_meters":10800,"station_id":"ce4bh092rcd13ifvqd20","pricing_plan_id":"cebpf4jnsgd1na2vs0mg"},{"bike_id":"2e414a70-54b3-420b-bc06-3746b6491a4b","system_id":"levelo_inurba_marseille","lat":43.24543,"lon":5.39531,"is_reserved":false,"is_disabled":false,"rental_uris":{"android":"levelo://app?vid=2e414a70-54b3-420b-bc06-3746b6491a4b","ios":"levelo://app?vid=2e414a70-54b3-420b-bc06-3746b6491a4b"},"vehicle_type_id":"4","last_reported":1736518135,"current_range_meters":32400,"station_id":"ce4bhlp2rcd13ifvqgjg","pricing_plan_id":"cebpf4jnsgd1na2vs0mg"},{"bike_id":"5297b66f-0e55-4ec8-88f8-4daa23208aa8","system_id":"levelo_inurba_marseille","lat":43.29845,"lon":5.36265,"is_reserved":false,"is_disabled":false,"rental_uris":{"android":"levelo://app?vid=5297b66f-0e55-4ec8-88f8-4daa23208aa8","ios":"levelo://app?vid=5297b66f-0e55-4ec8-88f8-4daa23208aa8"},"vehicle_type_id":"4","last_reported":1736518135,"current_range_meters":38800,"station_id":"ce4bgpp2rcd13ifvqc3g","pricing_plan_id":"cebpf4jnsgd1na2vs0mg"},{"bike_id":"2e7ea7d5-7238-43f9-bbc4-34a31ebd788a","system_id":"levelo_inurba_marseille","lat":43.30139,"lon":5.38779,"is_reserved":false,"is_disabled":false,"rental_uris":{"android":"levelo://app?vid=2e7ea7d5-7238-43f9-bbc4-34a31ebd788a","ios":"levelo://app?vid=2e7ea7d5-7238-43f9-bbc4-34a31ebd788a"},"vehicle_type_id":"4","last_reported":1736518135,"current_range_meters":19200,"station_id":"ce4bhoh2rcd13ifvqh6g","pricing_plan_id":"cebpf4jnsgd1na2vs0mg"},{"bike_id":"bb09aba3-e725-4db5-9d0b-860b910730c7","system_id":"levelo_inurba_marseille","lat":43.31327,"lon":5.39695,"is_reserved":false,"is_disabled":false,"rental_uris":{"android":"levelo://app?vid=bb09aba3-e725-4db5-9d0b-860b910730c7","ios":"levelo://app?vid=bb09aba3-e725-4db5-9d0b-860b910730c7"},"vehicle_type_id":"4","last_reported":1736518135,"current_range_meters":4000,"station_id":"ce4bgvp2rcd13ifvqcu0","pricing_plan_id":"cebpf4jnsgd1na2vs0mg"},{"bike_id":"c0a472c1-c188-44e6-bb32-ed0f78a35c7b","system_id":"levelo_inurba_marseille","lat":43.27053,"lon":5.40263,"is_reserved":false,"is_disabled":false,"rental_uris":{"android":"levelo://app?vid=c0a472c1-c188-44e6-bb32-ed0f78a35c7b","ios":"levelo://app?vid=c0a472c1-c188-44e6-bb32-ed0f78a35c7b"},"vehicle_type_id":"4","last_reported":1736518135,"current_range_meters":38400,"station_id":"ce4bhk92rcd13ifvqgc0","pricing_plan_id":"cebpf4jnsgd1na2vs0mg"},{"bike_id":"315b0a81-0cdc-4bde-b4a3-0c4d420190bc","system_id":"levelo_inurba_marseille","lat":43.27614,"lon":5.36101,"is_reserved":false,"is_disabled":false,"rental_uris":{"android":"levelo://app?vid=315b0a81-0cdc-4bde-b4a3-0c4d420190bc","ios":"levelo://app?vid=315b0a81-0cdc-4bde-b4a3-0c4d420190bc"},"vehicle_type_id":"4","last_reported":1736518135,"current_range_meters":38800,"station_id":"ce4bgj92rcd13ifvqbe0","pricing_plan_id":"cebpf4jnsgd1na2vs0mg"},{"bike_id":"a289439e-8db9-4471-bb8a-91801b4bf274","system_id":"levelo_inurba_marseille","lat":43.29878,"lon":5.39743,"is_reserved":false,"is_disabled":false,"rental_uris":{"android":"levelo://app?vid=a289439e-8db9-4471-bb8a-91801b4bf274","ios":"levelo://app?vid=a289439e-8db9-4471-bb8a-91801b4bf274"},"vehicle_type_id":"4","last_reported":1736518135,"current_range_meters":37600,"station_id":"ce4bh0h2rcd13ifvqd50","pricing_plan_id":"cebpf4jnsgd1na2vs0mg"},{"bike_id":"b2983a6f-df92-4973-9633-68f223ecd0ba","system_id":"levelo_inurba_marseille","lat":43.28966,"lon":5.36623,"is_reserved":false,"is_disabled":false,"rental_uris":{"android":"levelo://app?vid=b2983a6f-df92-4973-9633-68f223ecd0ba","ios":"levelo://app?vid=b2983a6f-df92-4973-9633-68f223ecd0ba"},"vehicle_type_id":"4","last_reported":1736518135,"current_range_meters":6000,"station_id":"ce4bhah2rcd13ifvqej0","pricing_plan_id":"cebpf4jnsgd1na2vs0mg"},{"bike_id":"dab217a0-b2df-4ca9-a812-c80195b1fbf4","system_id":"levelo_inurba_marseille","lat":43.31327,"lon":5.36717,"is_reserved":false,"is_disabled":false,"rental_uris":{"android":"levelo://app?vid=dab217a0-b2df-4ca9-a812-c80195b1fbf4","ios":"levelo://app?vid=dab217a0-b2df-4ca9-a812-c80195b1fbf4"},"vehicle_type_id":"4","last_reported":1736518135,"current_range_meters":39200,"station_id":"ce4bgr92rcd13ifvqc6g","pricing_plan_id":"cebpf4jnsgd1na2vs0mg"},{"bike_id":"d4b9ec52-492e-41b6-8dae-be3aec56cf81","system_id":"levelo_inurba_marseille","lat":43.28621,"lon":5.35112,"is_reserved":false,"is_disabled":false,"rental_uris":{"android":"levelo://app?vid=d4b9ec52-492e-41b6-8dae-be3aec56cf81","ios":"levelo://app?vid=d4b9ec52-492e-41b6-8dae-be3aec56cf81"},"vehicle_type_id":"4","last_reported":1736518135,"current_range_meters":10000,"station_id":"ce4bhch2rcd13ifvqeug","pricing_plan_id":"cebpf4jnsgd1na2vs0mg"},{"bike_id":"7897eb0c-86bc-48ef-866a-68a1a07453a9","system_id":"levelo_inurba_marseille","lat":43.29096,"lon":5.3815,"is_reserved":false,"is_disabled":false,"rental_uris":{"android":"levelo://app?vid=7897eb0c-86bc-48ef-866a-68a1a07453a9","ios":"levelo://app?vid=7897eb0c-86bc-48ef-866a-68a1a07453a9"},"vehicle_type_id":"4","last_reported":1736518135,"current_range_meters":23200,"station_id":"ce4bh512rcd13ifvqe2g","pricing_plan_id":"cebpf4jnsgd1na2vs0mg"},{"bike_id":"458c3d58-e6a5-4d1a-8df2-05d9cb3e0072","system_id":"levelo_inurba_marseille","lat":43.25574,"lon":5.38232,"is_reserved":false,"is_disabled":false,"rental_uris":{"android":"levelo://app?vid=458c3d58-e6a5-4d1a-8df2-05d9cb3e0072","ios":"levelo://app?vid=458c3d58-e6a5-4d1a-8df2-05d9cb3e0072"},"vehicle_type_id":"4","last_reported":1736518135,"current_range_meters":16800,"station_id":"ce4bhih2rcd13ifvqfs0","pricing_plan_id":"cebpf4jnsgd1na2vs0mg"},{"bike_id":"10f7d31a-ef8d-4e8a-acbf-8aa9a8c72143","system_id":"levelo_inurba_marseille","lat":43.24392,"lon":5.37066,"is_reserved":false,"is_disabled":false,"rental_uris":{"android":"levelo://app?vid=10f7d31a-ef8d-4e8a-acbf-8aa9a8c72143","ios":"levelo://app?vid=10f7d31a-ef8d-4e8a-acbf-8aa9a8c72143"},"vehicle_type_id":"4","last_reported":1736518135,"current_range_meters":23200,"station_id":"ce4bhhh2rcd13ifvqfk0","pricing_plan_id":"cebpf4jnsgd1na2vs0mg"},{"bike_id":"33ff91ea-97ec-4692-8415-a03c3750c978","system_id":"levelo_inurba_marseille","lat":43.28469,"lon":5.38421,"is_reserved":false,"is_disabled":false,"rental_uris":{"android":"levelo://app?vid=33ff91ea-97ec-4692-8415-a03c3750c978","ios":"levelo://app?vid=33ff91ea-97ec-4692-8415-a03c3750c978"},"vehicle_type_id":"4","last_reported":1736518135,"current_range_meters":38800,"station_id":"ce4bh512rcd13ifvqe3g","pricing_plan_id":"cebpf4jnsgd1na2vs0mg"},{"bike_id":"2091591e-5ff2-41c9-b2cd-a9091a5748b0","system_id":"levelo_inurba_marseille","lat":43.30642,"lon":5.40101,"is_reserved":false,"is_disabled":false,"rental_uris":{"android":"levelo://app?vid=2091591e-5ff2-41c9-b2cd-a9091a5748b0","ios":"levelo://app?vid=2091591e-5ff2-41c9-b2cd-a9091a5748b0"},"vehicle_type_id":"4","last_reported":1736518135,"current_range_meters":36800,"station_id":"ce4bh112rcd13ifvqda0","pricing_plan_id":"cebpf4jnsgd1na2vs0mg"},{"bike_id":"96f09216-8806-4f0e-908d-6ebe96172e03","system_id":"levelo_inurba_marseille","lat":43.27982,"lon":5.41661,"is_reserved":false,"is_disabled":false,"rental_uris":{"android":"levelo://app?vid=96f09216-8806-4f0e-908d-6ebe96172e03","ios":"levelo://app?vid=96f09216-8806-4f0e-908d-6ebe96172e03"},"vehicle_type_id":"4","last_reported":1736518135,"current_range_meters":6000,"station_id":"ce4bho12rcd13ifvqh1g","pricing_plan_id":"cebpf4jnsgd1na2vs0mg"},{"bike_id":"a7bc95ca-7675-4abc-af32-806270d67639","system_id":"levelo_inurba_marseille","lat":43.2932,"lon":5.37165,"is_reserved":false,"is_disabled":false,"rental_uris":{"android":"levelo://app?vid=a7bc95ca-7675-4abc-af32-806270d67639","ios":"levelo://app?vid=a7bc95ca-7675-4abc-af32-806270d67639"},"vehicle_type_id":"4","last_reported":1736518135,"current_range_meters":30400,"station_id":"ce4bgh92rcd13ifvqb40","pricing_plan_id":"cebpf4jnsgd1na2vs0mg"},{"bike_id":"81e650fb-946f-4e41-a04f-8169232bb99d","system_id":"levelo_inurba_marseille","lat":43.23181,"lon":5.3998,"is_reserved":false,"is_disabled":false,"rental_uris":{"android":"levelo://app?vid=81e650fb-946f-4e41-a04f-8169232bb99d","ios":"levelo://app?vid=81e650fb-946f-4e41-a04f-8169232bb99d"},"vehicle_type_id":"4","last_reported":1736518135,"current_range_meters":20400,"station_id":"ce4bhn12rcd13ifvqgqg","pricing_plan_id":"cebpf4jnsgd1na2vs0mg"},{"bike_id":"c150f8af-fc8f-4eb5-ac98-0b06dadf4ce0","system_id":"levelo_inurba_marseille","lat":43.25581,"lon":5.3826,"is_reserved":false,"is_disabled":false,"rental_uris":{"android":"levelo://app?vid=c150f8af-fc8f-4eb5-ac98-0b06dadf4ce0","ios":"levelo://app?vid=c150f8af-fc8f-4eb5-ac98-0b06dadf4ce0"},"vehicle_type_id":"4","last_reported":1736518135,"current_range_meters":33200,"station_id":"ce4bhih2rcd13ifvqfs0","pricing_plan_id":"cebpf4jnsgd1na2vs0mg"},{"bike_id":"fab49d65-1149-4350-bcee-2119296a3172","system_id":"levelo_inurba_marseille","lat":43.23201,"lon":5.35562,"is_reserved":false,"is_disabled":false,"rental_uris":{"android":"levelo://app?vid=fab49d65-1149-4350-bcee-2119296a3172","ios":"levelo://app?vid=fab49d65-1149-4350-bcee-2119296a3172"},"vehicle_type_id":"4","last_reported":1736518135,"current_range_meters":3600,"station_id":"ce4bhu92rcd13ifvqi70","pricing_plan_id":"cebpf4jnsgd1na2vs0mg"},{"bike_id":"83b954cb-b1cd-4e51-b5e1-c2bfd0e62ed1","system_id":"levelo_inurba_marseille","lat":43.28852,"lon":5.39334,"is_reserved":false,"is_disabled":false,"rental_uris":{"android":"levelo://app?vid=83b954cb-b1cd-4e51-b5e1-c2bfd0e62ed1","ios":"levelo://app?vid=83b954cb-b1cd-4e51-b5e1-c2bfd0e62ed1"},"vehicle_type_id":"4","last_reported":1736518135,"current_range_meters":22400,"station_id":"ce4bh2p2rcd13ifvqdi0","pricing_plan_id":"cebpf4jnsgd1na2vs0mg"},{"bike_id":"b9eae0bb-8010-4eb9-90f8-e9011b9a4c76","system_id":"levelo_inurba_marseille","lat":43.33702,"lon":5.37467,"is_reserved":false,"is_disabled":false,"rental_uris":{"android":"levelo://app?vid=b9eae0bb-8010-4eb9-90f8-e9011b9a4c76","ios":"levelo://app?vid=b9eae0bb-8010-4eb9-90f8-e9011b9a4c76"},"vehicle_type_id":"4","last_reported":1736518135,"current_range_meters":38800,"station_id":"","pricing_plan_id":"cebpf4jnsgd1na2vs0mg"},{"bike_id":"30e9f014-0a6e-4b5f-a4b7-873d8aefd349","system_id":"levelo_inurba_marseille","lat":43.311218,"lon":5.377707,"is_reserved":false,"is_disabled":false,"rental_uris":{"android":"levelo://app?vid=30e9f014-0a6e-4b5f-a4b7-873d8aefd349","ios":"levelo://app?vid=30e9f014-0a6e-4b5f-a4b7-873d8aefd349"},"vehicle_type_id":"4","last_reported":1736518135,"current_range_meters":38800,"station_id":"ce4bgt92rcd13ifvqcg0","pricing_plan_id":"cebpf4jnsgd1na2vs0mg"},{"bike_id":"60ce1b70-e47d-4caf-abee-52e7d5bfe299","system_id":"levelo_inurba_marseille","lat":43.24641,"lon":5.38908,"is_reserved":false,"is_disabled":false,"rental_uris":{"android":"levelo://app?vid=60ce1b70-e47d-4caf-abee-52e7d5bfe299","ios":"levelo://app?vid=60ce1b70-e47d-4caf-abee-52e7d5bfe299"},"vehicle_type_id":"4","last_reported":1736518135,"current_range_meters":34800,"station_id":"ce4bhg12rcd13ifvqf60","pricing_plan_id":"cebpf4jnsgd1na2vs0mg"},{"bike_id":"d3e10827-29dc-456a-95f9-479f74aa36f6","system_id":"levelo_inurba_marseille","lat":43.29843,"lon":5.36268,"is_reserved":false,"is_disabled":false,"rental_uris":{"android":"levelo://app?vid=d3e10827-29dc-456a-95f9-479f74aa36f6","ios":"levelo://app?vid=d3e10827-29dc-456a-95f9-479f74aa36f6"},"vehicle_type_id":"4","last_reported":1736518135,"current_range_meters":38800,"station_id":"ce4bgpp2rcd13ifvqc3g","pricing_plan_id":"cebpf4jnsgd1na2vs0mg"},{"bike_id":"2f8ad459-3412-488c-8718-46949f130497","system_id":"levelo_inurba_marseille","lat":43.24397,"lon":5.37062,"is_reserved":false,"is_disabled":false,"rental_uris":{"android":"levelo://app?vid=2f8ad459-3412-488c-8718-46949f130497","ios":"levelo://app?vid=2f8ad459-3412-488c-8718-46949f130497"},"vehicle_type_id":"4","last_reported":1736518135,"current_range_meters":31200,"station_id":"ce4bhhh2rcd13ifvqfk0","pricing_plan_id":"cebpf4jnsgd1na2vs0mg"},{"bike_id":"408554f9-e938-4c8d-b712-51774be7b111","system_id":"levelo_inurba_marseille","lat":43.30556,"lon":5.36526,"is_reserved":false,"is_disabled":false,"rental_uris":{"android":"levelo://app?vid=408554f9-e938-4c8d-b712-51774be7b111","ios":"levelo://app?vid=408554f9-e938-4c8d-b712-51774be7b111"},"vehicle_type_id":"4","last_reported":1736518135,"current_range_meters":38800,"station_id":"ce4bgs12rcd13ifvqcag","pricing_plan_id":"cebpf4jnsgd1na2vs0mg"},{"bike_id":"3607acd2-34b3-465b-ae97-191747e34093","system_id":"levelo_inurba_marseille","lat":43.27495,"lon":5.42455,"is_reserved":false,"is_disabled":false,"rental_uris":{"android":"levelo://app?vid=3607acd2-34b3-465b-ae97-191747e34093","ios":"levelo://app?vid=3607acd2-34b3-465b-ae97-191747e34093"},"vehicle_type_id":"4","last_reported":1736518135,"current_range_meters":25600,"station_id":"ce4bhn92rcd13ifvqgrg","pricing_plan_id":"cebpf4jnsgd1na2vs0mg"},{"bike_id":"cffdbb96-5acd-4130-9896-e23d0afde4e8","system_id":"levelo_inurba_marseille","lat":43.27576,"lon":5.38432,"is_reserved":false,"is_disabled":false,"rental_uris":{"android":"levelo://app?vid=cffdbb96-5acd-4130-9896-e23d0afde4e8","ios":"levelo://app?vid=cffdbb96-5acd-4130-9896-e23d0afde4e8"},"vehicle_type_id":"4","last_reported":1736518135,"current_range_meters":32800,"station_id":"ce4bhh92rcd13ifvqfi0","pricing_plan_id":"cebpf4jnsgd1na2vs0mg"},{"bike_id":"8d872538-ed06-4821-9549-69e5b16c1289","system_id":"levelo_inurba_marseille","lat":43.24807,"lon":5.37458,"is_reserved":false,"is_disabled":false,"rental_uris":{"android":"levelo://app?vid=8d872538-ed06-4821-9549-69e5b16c1289","ios":"levelo://app?vid=8d872538-ed06-4821-9549-69e5b16c1289"},"vehicle_type_id":"4","last_reported":1736518135,"current_range_meters":22000,"station_id":"ce4bhgh2rcd13ifvqfb0","pricing_plan_id":"cebpf4jnsgd1na2vs0mg"},{"bike_id":"7b521ce6-875a-4cbb-9fae-a6ba6a0ba13b","system_id":"levelo_inurba_marseille","lat":43.281525,"lon":5.42644,"is_reserved":false,"is_disabled":false,"rental_uris":{"android":"levelo://app?vid=7b521ce6-875a-4cbb-9fae-a6ba6a0ba13b","ios":"levelo://app?vid=7b521ce6-875a-4cbb-9fae-a6ba6a0ba13b"},"vehicle_type_id":"4","last_reported":1736518135,"current_range_meters":36800,"station_id":"ce4bhnh2rcd13ifvqgug","pricing_plan_id":"cebpf4jnsgd1na2vs0mg"},{"bike_id":"04c144bb-885d-4367-8bc8-e2ccfca26ca3","system_id":"levelo_inurba_marseille","lat":43.31304,"lon":5.39718,"is_reserved":false,"is_disabled":true,"rental_uris":{"android":"levelo://app?vid=04c144bb-885d-4367-8bc8-e2ccfca26ca3","ios":"levelo://app?vid=04c144bb-885d-4367-8bc8-e2ccfca26ca3"},"vehicle_type_id":"4","last_reported":1736518135,"current_range_meters":25600,"station_id":"ce4bgvp2rcd13ifvqcu0","pricing_plan_id":"cebpf4jnsgd1na2vs0mg"},{"bike_id":"fc1057d4-90a1-4917-8219-50abd6b84da3","system_id":"levelo_inurba_marseille","lat":43.32115,"lon":5.36777,"is_reserved":false,"is_disabled":false,"rental_uris":{"android":"levelo://app?vid=fc1057d4-90a1-4917-8219-50abd6b84da3","ios":"levelo://app?vid=fc1057d4-90a1-4917-8219-50abd6b84da3"},"vehicle_type_id":"4","last_reported":1736518135,"current_range_meters":22800,"station_id":"ce4bhrh2rcd13ifvqhug","pricing_plan_id":"cebpf4jnsgd1na2vs0mg"},{"bike_id":"f03ff58f-d6d7-49cd-85c4-5e481c7878fa","system_id":"levelo_inurba_marseille","lat":43.28476,"lon":5.3841,"is_reserved":false,"is_disabled":false,"rental_uris":{"android":"levelo://app?vid=f03ff58f-d6d7-49cd-85c4-5e481c7878fa","ios":"levelo://app?vid=f03ff58f-d6d7-49cd-85c4-5e481c7878fa"},"vehicle_type_id":"4","last_reported":1736518135,"current_range_meters":38800,"station_id":"ce4bh512rcd13ifvqe3g","pricing_plan_id":"cebpf4jnsgd1na2vs0mg"},{"bike_id":"7475f743-fa68-4b23-ab37-60e01b01184f","system_id":"levelo_inurba_marseille","lat":43.321082,"lon":5.367833,"is_reserved":false,"is_disabled":false,"rental_uris":{"android":"levelo://app?vid=7475f743-fa68-4b23-ab37-60e01b01184f","ios":"levelo://app?vid=7475f743-fa68-4b23-ab37-60e01b01184f"},"vehicle_type_id":"4","last_reported":1736518135,"current_range_meters":31200,"station_id":"ce4bhrh2rcd13ifvqhug","pricing_plan_id":"cebpf4jnsgd1na2vs0mg"},{"bike_id":"39e8b8db-a45b-47ac-924f-708d2b3bef9a","system_id":"levelo_inurba_marseille","lat":43.28631,"lon":5.35093,"is_reserved":false,"is_disabled":false,"rental_uris":{"android":"levelo://app?vid=39e8b8db-a45b-47ac-924f-708d2b3bef9a","ios":"levelo://app?vid=39e8b8db-a45b-47ac-924f-708d2b3bef9a"},"vehicle_type_id":"4","last_reported":1736518135,"current_range_meters":18800,"station_id":"ce4bhch2rcd13ifvqeug","pricing_plan_id":"cebpf4jnsgd1na2vs0mg"},{"bike_id":"9fb5e059-d02c-4680-ab39-5cb91e702f42","system_id":"levelo_inurba_marseille","lat":43.2927,"lon":5.40117,"is_reserved":false,"is_disabled":false,"rental_uris":{"android":"levelo://app?vid=9fb5e059-d02c-4680-ab39-5cb91e702f42","ios":"levelo://app?vid=9fb5e059-d02c-4680-ab39-5cb91e702f42"},"vehicle_type_id":"4","last_reported":1736518135,"current_range_meters":32000,"station_id":"ce4bh312rcd13ifvqdk0","pricing_plan_id":"cebpf4jnsgd1na2vs0mg"},{"bike_id":"7ef069b1-82d0-4f96-9e76-7212b2022e78","system_id":"levelo_inurba_marseille","lat":43.27418,"lon":5.39413,"is_reserved":false,"is_disabled":false,"rental_uris":{"android":"levelo://app?vid=7ef069b1-82d0-4f96-9e76-7212b2022e78","ios":"levelo://app?vid=7ef069b1-82d0-4f96-9e76-7212b2022e78"},"vehicle_type_id":"4","last_reported":1736518135,"current_range_meters":36000,"station_id":"ce4bhdp2rcd13ifvqf20","pricing_plan_id":"cebpf4jnsgd1na2vs0mg"},{"bike_id":"d8b37533-1e4f-475e-837e-47479c1d586f","system_id":"levelo_inurba_marseille","lat":43.23156,"lon":5.43711,"is_reserved":false,"is_disabled":false,"rental_uris":{"android":"levelo://app?vid=d8b37533-1e4f-475e-837e-47479c1d586f","ios":"levelo://app?vid=d8b37533-1e4f-475e-837e-47479c1d586f"},"vehicle_type_id":"4","last_reported":1736518135,"current_range_meters":37600,"station_id":"ce4bhmp2rcd13ifvqgog","pricing_plan_id":"cebpf4jnsgd1na2vs0mg"},{"bike_id":"0615edb5-484f-4422-be48-09cdc2ddcd47","system_id":"levelo_inurba_marseille","lat":43.24176,"lon":5.39731,"is_reserved":false,"is_disabled":false,"rental_uris":{"android":"levelo://app?vid=0615edb5-484f-4422-be48-09cdc2ddcd47","ios":"levelo://app?vid=0615edb5-484f-4422-be48-09cdc2ddcd47"},"vehicle_type_id":"4","last_reported":1736518135,"current_range_meters":36000,"station_id":"ce4bhn12rcd13ifvqgpg","pricing_plan_id":"cebpf4jnsgd1na2vs0mg"},{"bike_id":"e2544aba-a350-44bf-ba9f-d261b2f4eb98","system_id":"levelo_inurba_marseille","lat":43.279468,"lon":5.410524,"is_reserved":false,"is_disabled":true,"rental_uris":{"android":"levelo://app?vid=e2544aba-a350-44bf-ba9f-d261b2f4eb98","ios":"levelo://app?vid=e2544aba-a350-44bf-ba9f-d261b2f4eb98"},"vehicle_type_id":"4","last_reported":1736518135,"current_range_meters":1600,"station_id":"ce4bhnp2rcd13ifvqh0g","pricing_plan_id":"cebpf4jnsgd1na2vs0mg"},{"bike_id":"d680e422-77b0-4b31-b495-73fa10f59858","system_id":"levelo_inurba_marseille","lat":43.28708,"lon":5.37934,"is_reserved":false,"is_disabled":false,"rental_uris":{"android":"levelo://app?vid=d680e422-77b0-4b31-b495-73fa10f59858","ios":"levelo://app?vid=d680e422-77b0-4b31-b495-73fa10f59858"},"vehicle_type_id":"4","last_reported":1736518135,"current_range_meters":26000,"station_id":"ce4bh9p2rcd13ifvqec0","pricing_plan_id":"cebpf4jnsgd1na2vs0mg"},{"bike_id":"2eb264c8-1e8d-4f17-a831-3cda07857865","system_id":"levelo_inurba_marseille","lat":43.32111,"lon":5.36775,"is_reserved":false,"is_disabled":false,"rental_uris":{"android":"levelo://app?vid=2eb264c8-1e8d-4f17-a831-3cda07857865","ios":"levelo://app?vid=2eb264c8-1e8d-4f17-a831-3cda07857865"},"vehicle_type_id":"4","last_reported":1736518135,"current_range_meters":34800,"station_id":"ce4bhrh2rcd13ifvqhug","pricing_plan_id":"cebpf4jnsgd1na2vs0mg"},{"bike_id":"0d684914-d55c-447b-a269-bb2affa18f83","system_id":"levelo_inurba_marseille","lat":43.28926,"lon":5.38374,"is_reserved":false,"is_disabled":false,"rental_uris":{"android":"levelo://app?vid=0d684914-d55c-447b-a269-bb2affa18f83","ios":"levelo://app?vid=0d684914-d55c-447b-a269-bb2affa18f83"},"vehicle_type_id":"4","last_reported":1736518135,"current_range_meters":38800,"station_id":"ce4bh612rcd13ifvqe6g","pricing_plan_id":"cebpf4jnsgd1na2vs0mg"},{"bike_id":"1e2223a2-c032-49e7-8dbf-982df86a0520","system_id":"levelo_inurba_marseille","lat":43.22922,"lon":5.35383,"is_reserved":false,"is_disabled":false,"rental_uris":{"android":"levelo://app?vid=1e2223a2-c032-49e7-8dbf-982df86a0520","ios":"levelo://app?vid=1e2223a2-c032-49e7-8dbf-982df86a0520"},"vehicle_type_id":"4","last_reported":1736518135,"current_range_meters":32000,"station_id":"cpo3532slgdg3j2ikp40","pricing_plan_id":"cebpf4jnsgd1na2vs0mg"},{"bike_id":"027a053a-b7bd-4a0d-8309-e9ee15ccbeae","system_id":"levelo_inurba_marseille","lat":43.28443,"lon":5.39151,"is_reserved":false,"is_disabled":false,"rental_uris":{"android":"levelo://app?vid=027a053a-b7bd-4a0d-8309-e9ee15ccbeae","ios":"levelo://app?vid=027a053a-b7bd-4a0d-8309-e9ee15ccbeae"},"vehicle_type_id":"4","last_reported":1736518135,"current_range_meters":38800,"station_id":"ce4bhoh2rcd13ifvqh5g","pricing_plan_id":"cebpf4jnsgd1na2vs0mg"},{"bike_id":"145cfbb0-a64d-4e6e-9f48-a8948b305dc3","system_id":"levelo_inurba_marseille","lat":43.30539,"lon":5.3653,"is_reserved":false,"is_disabled":false,"rental_uris":{"android":"levelo://app?vid=145cfbb0-a64d-4e6e-9f48-a8948b305dc3","ios":"levelo://app?vid=145cfbb0-a64d-4e6e-9f48-a8948b305dc3"},"vehicle_type_id":"4","last_reported":1736518135,"current_range_meters":30000,"station_id":"ce4bgs12rcd13ifvqcag","pricing_plan_id":"cebpf4jnsgd1na2vs0mg"},{"bike_id":"816c2567-570f-4dea-94a5-cee630be949a","system_id":"levelo_inurba_marseille","lat":43.255764,"lon":5.382364,"is_reserved":false,"is_disabled":true,"rental_uris":{"android":"levelo://app?vid=816c2567-570f-4dea-94a5-cee630be949a","ios":"levelo://app?vid=816c2567-570f-4dea-94a5-cee630be949a"},"vehicle_type_id":"4","last_reported":1736518135,"current_range_meters":37600,"station_id":"ce4bhih2rcd13ifvqfs0","pricing_plan_id":"cebpf4jnsgd1na2vs0mg"},{"bike_id":"be8a233f-ad85-41b2-af03-bfa1e3033438","system_id":"levelo_inurba_marseille","lat":43.23193,"lon":5.35551,"is_reserved":false,"is_disabled":false,"rental_uris":{"android":"levelo://app?vid=be8a233f-ad85-41b2-af03-bfa1e3033438","ios":"levelo://app?vid=be8a233f-ad85-41b2-af03-bfa1e3033438"},"vehicle_type_id":"4","last_reported":1736518135,"current_range_meters":24400,"station_id":"ce4bhu92rcd13ifvqi70","pricing_plan_id":"cebpf4jnsgd1na2vs0mg"},{"bike_id":"d7284d59-0fa0-4e55-88c3-9102035d8a99","system_id":"levelo_inurba_marseille","lat":43.30252,"lon":5.401,"is_reserved":false,"is_disabled":true,"rental_uris":{"android":"levelo://app?vid=d7284d59-0fa0-4e55-88c3-9102035d8a99","ios":"levelo://app?vid=d7284d59-0fa0-4e55-88c3-9102035d8a99"},"vehicle_type_id":"4","last_reported":1736518135,"current_range_meters":14400,"station_id":"ce4bgvh2rcd13ifvqcs0","pricing_plan_id":"cebpf4jnsgd1na2vs0mg"},{"bike_id":"0bdeb971-ad4a-4345-aca1-ced646282b0d","system_id":"levelo_inurba_marseille","lat":43.31356,"lon":5.38508,"is_reserved":false,"is_disabled":false,"rental_uris":{"android":"levelo://app?vid=0bdeb971-ad4a-4345-aca1-ced646282b0d","ios":"levelo://app?vid=0bdeb971-ad4a-4345-aca1-ced646282b0d"},"vehicle_type_id":"4","last_reported":1736518135,"current_range_meters":38800,"station_id":"ce4bgt92rcd13ifvqcf0","pricing_plan_id":"cebpf4jnsgd1na2vs0mg"},{"bike_id":"e353f29f-0a9a-4cc5-95e5-17e8120ba90a","system_id":"levelo_inurba_marseille","lat":43.31342,"lon":5.36722,"is_reserved":false,"is_disabled":false,"rental_uris":{"android":"levelo://app?vid=e353f29f-0a9a-4cc5-95e5-17e8120ba90a","ios":"levelo://app?vid=e353f29f-0a9a-4cc5-95e5-17e8120ba90a"},"vehicle_type_id":"4","last_reported":1736518135,"current_range_meters":13600,"station_id":"ce4bgr92rcd13ifvqc6g","pricing_plan_id":"cebpf4jnsgd1na2vs0mg"},{"bike_id":"401ff55f-764c-4de4-a59d-3b941aac169a","system_id":"levelo_inurba_marseille","lat":43.26069,"lon":5.39394,"is_reserved":false,"is_disabled":false,"rental_uris":{"android":"levelo://app?vid=401ff55f-764c-4de4-a59d-3b941aac169a","ios":"levelo://app?vid=401ff55f-764c-4de4-a59d-3b941aac169a"},"vehicle_type_id":"4","last_reported":1736518135,"current_range_meters":9600,"station_id":"ce4bhh92rcd13ifvqfj0","pricing_plan_id":"cebpf4jnsgd1na2vs0mg"},{"bike_id":"7c6b4ab8-094c-4fb3-b826-f64ede01dc18","system_id":"levelo_inurba_marseille","lat":43.29309,"lon":5.37154,"is_reserved":false,"is_disabled":false,"rental_uris":{"android":"levelo://app?vid=7c6b4ab8-094c-4fb3-b826-f64ede01dc18","ios":"levelo://app?vid=7c6b4ab8-094c-4fb3-b826-f64ede01dc18"},"vehicle_type_id":"4","last_reported":1736518135,"current_range_meters":30000,"station_id":"ce4bgh92rcd13ifvqb40","pricing_plan_id":"cebpf4jnsgd1na2vs0mg"},{"bike_id":"4420f604-31b1-4342-852b-728b56ca993d","system_id":"levelo_inurba_marseille","lat":43.27491,"lon":5.4246,"is_reserved":false,"is_disabled":false,"rental_uris":{"android":"levelo://app?vid=4420f604-31b1-4342-852b-728b56ca993d","ios":"levelo://app?vid=4420f604-31b1-4342-852b-728b56ca993d"},"vehicle_type_id":"4","last_reported":1736518135,"current_range_meters":12000,"station_id":"ce4bhn92rcd13ifvqgrg","pricing_plan_id":"cebpf4jnsgd1na2vs0mg"},{"bike_id":"0751221b-37bf-4486-a78f-e3467767c553","system_id":"levelo_inurba_marseille","lat":43.255813,"lon":5.382528,"is_reserved":false,"is_disabled":false,"rental_uris":{"android":"levelo://app?vid=0751221b-37bf-4486-a78f-e3467767c553","ios":"levelo://app?vid=0751221b-37bf-4486-a78f-e3467767c553"},"vehicle_type_id":"4","last_reported":1736518135,"current_range_meters":39200,"station_id":"ce4bhih2rcd13ifvqfs0","pricing_plan_id":"cebpf4jnsgd1na2vs0mg"},{"bike_id":"8fe1ede3-317d-4b2c-a480-b24340bbe859","system_id":"levelo_inurba_marseille","lat":43.29174,"lon":5.37141,"is_reserved":false,"is_disabled":false,"rental_uris":{"android":"levelo://app?vid=8fe1ede3-317d-4b2c-a480-b24340bbe859","ios":"levelo://app?vid=8fe1ede3-317d-4b2c-a480-b24340bbe859"},"vehicle_type_id":"4","last_reported":1736518135,"current_range_meters":18000,"station_id":"ce4bha92rcd13ifvqeh0","pricing_plan_id":"cebpf4jnsgd1na2vs0mg"},{"bike_id":"ad480116-0bc3-416a-8b7c-87a526f228e4","system_id":"levelo_inurba_marseille","lat":43.30301,"lon":5.36908,"is_reserved":false,"is_disabled":false,"rental_uris":{"android":"levelo://app?vid=ad480116-0bc3-416a-8b7c-87a526f228e4","ios":"levelo://app?vid=ad480116-0bc3-416a-8b7c-87a526f228e4"},"vehicle_type_id":"4","last_reported":1736518135,"current_range_meters":36400,"station_id":"ce4bgqh2rcd13ifvqc5g","pricing_plan_id":"cebpf4jnsgd1na2vs0mg"},{"bike_id":"58dd46b8-d6be-435b-b0a2-f5003f4697ba","system_id":"levelo_inurba_marseille","lat":43.26198,"lon":5.37452,"is_reserved":false,"is_disabled":false,"rental_uris":{"android":"levelo://app?vid=58dd46b8-d6be-435b-b0a2-f5003f4697ba","ios":"levelo://app?vid=58dd46b8-d6be-435b-b0a2-f5003f4697ba"},"vehicle_type_id":"4","last_reported":1736518135,"current_range_meters":36400,"station_id":"ce4bhgp2rcd13ifvqfc0","pricing_plan_id":"cebpf4jnsgd1na2vs0mg"},{"bike_id":"fc9288ed-9da0-4c7f-9aba-d64070cdbf51","system_id":"levelo_inurba_marseille","lat":43.23162,"lon":5.43707,"is_reserved":false,"is_disabled":false,"rental_uris":{"android":"levelo://app?vid=fc9288ed-9da0-4c7f-9aba-d64070cdbf51","ios":"levelo://app?vid=fc9288ed-9da0-4c7f-9aba-d64070cdbf51"},"vehicle_type_id":"4","last_reported":1736518135,"current_range_meters":37600,"station_id":"ce4bhmp2rcd13ifvqgog","pricing_plan_id":"cebpf4jnsgd1na2vs0mg"},{"bike_id":"ad28bd53-1c8c-44ea-9a1c-1e5a5b2498fe","system_id":"levelo_inurba_marseille","lat":43.24157,"lon":5.36412,"is_reserved":false,"is_disabled":false,"rental_uris":{"android":"levelo://app?vid=ad28bd53-1c8c-44ea-9a1c-1e5a5b2498fe","ios":"levelo://app?vid=ad28bd53-1c8c-44ea-9a1c-1e5a5b2498fe"},"vehicle_type_id":"4","last_reported":1736518135,"current_range_meters":10000,"station_id":"cpo36qri1sfpv3e86is0","pricing_plan_id":"cebpf4jnsgd1na2vs0mg"},{"bike_id":"36e63bb0-e819-4f2e-b051-513a78efe4e5","system_id":"levelo_inurba_marseille","lat":43.2815,"lon":5.42646,"is_reserved":false,"is_disabled":false,"rental_uris":{"android":"levelo://app?vid=36e63bb0-e819-4f2e-b051-513a78efe4e5","ios":"levelo://app?vid=36e63bb0-e819-4f2e-b051-513a78efe4e5"},"vehicle_type_id":"4","last_reported":1736518135,"current_range_meters":39200,"station_id":"ce4bhnh2rcd13ifvqgug","pricing_plan_id":"cebpf4jnsgd1na2vs0mg"},{"bike_id":"06a24c84-e112-4c9e-899a-548645a1dec3","system_id":"levelo_inurba_marseille","lat":43.28074,"lon":5.3966,"is_reserved":false,"is_disabled":false,"rental_uris":{"android":"levelo://app?vid=06a24c84-e112-4c9e-899a-548645a1dec3","ios":"levelo://app?vid=06a24c84-e112-4c9e-899a-548645a1dec3"},"vehicle_type_id":"4","last_reported":1736518135,"current_range_meters":37600,"station_id":"ce4bho12rcd13ifvqh2g","pricing_plan_id":"cebpf4jnsgd1na2vs0mg"},{"bike_id":"e3dc1723-c304-42fb-b1ea-ebc3611aa765","system_id":"levelo_inurba_marseille","lat":43.25948,"lon":5.40919,"is_reserved":false,"is_disabled":false,"rental_uris":{"android":"levelo://app?vid=e3dc1723-c304-42fb-b1ea-ebc3611aa765","ios":"levelo://app?vid=e3dc1723-c304-42fb-b1ea-ebc3611aa765"},"vehicle_type_id":"4","last_reported":1736518135,"current_range_meters":38000,"station_id":"ce4bhm92rcd13ifvqglg","pricing_plan_id":"cebpf4jnsgd1na2vs0mg"},{"bike_id":"cacbecaa-d0d2-491f-962c-8a73d096f1c7","system_id":"levelo_inurba_marseille","lat":43.30143,"lon":5.38068,"is_reserved":false,"is_disabled":false,"rental_uris":{"android":"levelo://app?vid=cacbecaa-d0d2-491f-962c-8a73d096f1c7","ios":"levelo://app?vid=cacbecaa-d0d2-491f-962c-8a73d096f1c7"},"vehicle_type_id":"4","last_reported":1736518135,"current_range_meters":36400,"station_id":"ce4bgjp2rcd13ifvqbh0","pricing_plan_id":"cebpf4jnsgd1na2vs0mg"},{"bike_id":"773431f8-dd0e-4883-bb1d-27127804067c","system_id":"levelo_inurba_marseille","lat":43.2928,"lon":5.40123,"is_reserved":false,"is_disabled":false,"rental_uris":{"android":"levelo://app?vid=773431f8-dd0e-4883-bb1d-27127804067c","ios":"levelo://app?vid=773431f8-dd0e-4883-bb1d-27127804067c"},"vehicle_type_id":"4","last_reported":1736518135,"current_range_meters":36000,"station_id":"ce4bh312rcd13ifvqdk0","pricing_plan_id":"cebpf4jnsgd1na2vs0mg"},{"bike_id":"ba65f4cd-536e-4955-bee4-a1b5090e6126","system_id":"levelo_inurba_marseille","lat":43.32662,"lon":5.40996,"is_reserved":false,"is_disabled":false,"rental_uris":{"android":"levelo://app?vid=ba65f4cd-536e-4955-bee4-a1b5090e6126","ios":"levelo://app?vid=ba65f4cd-536e-4955-bee4-a1b5090e6126"},"vehicle_type_id":"4","last_reported":1736518135,"current_range_meters":14800,"station_id":"ce4bhpp2rcd13ifvqhgg","pricing_plan_id":"cebpf4jnsgd1na2vs0mg"},{"bike_id":"6e8e6bea-72ca-41c7-a8ec-410f6770b43a","system_id":"levelo_inurba_marseille","lat":43.303221,"lon":5.369022,"is_reserved":false,"is_disabled":false,"rental_uris":{"android":"levelo://app?vid=6e8e6bea-72ca-41c7-a8ec-410f6770b43a","ios":"levelo://app?vid=6e8e6bea-72ca-41c7-a8ec-410f6770b43a"},"vehicle_type_id":"4","last_reported":1736518135,"current_range_meters":35600,"station_id":"ce4bgqh2rcd13ifvqc5g","pricing_plan_id":"cebpf4jnsgd1na2vs0mg"},{"bike_id":"b8acbba0-a715-4ced-a2aa-0517db10ac9d","system_id":"levelo_inurba_marseille","lat":43.22929,"lon":5.35382,"is_reserved":false,"is_disabled":true,"rental_uris":{"android":"levelo://app?vid=b8acbba0-a715-4ced-a2aa-0517db10ac9d","ios":"levelo://app?vid=b8acbba0-a715-4ced-a2aa-0517db10ac9d"},"vehicle_type_id":"4","last_reported":1736518135,"current_range_meters":8000,"station_id":"cpo3532slgdg3j2ikp40","pricing_plan_id":"cebpf4jnsgd1na2vs0mg"},{"bike_id":"60746ec5-f322-442a-a951-a6a7ef203d24","system_id":"levelo_inurba_marseille","lat":43.25017,"lon":5.38988,"is_reserved":false,"is_disabled":false,"rental_uris":{"android":"levelo://app?vid=60746ec5-f322-442a-a951-a6a7ef203d24","ios":"levelo://app?vid=60746ec5-f322-442a-a951-a6a7ef203d24"},"vehicle_type_id":"4","last_reported":1736518135,"current_range_meters":22400,"station_id":"","pricing_plan_id":"cebpf4jnsgd1na2vs0mg"},{"bike_id":"d8cd2afd-bc7a-4684-94a5-2d0ffa50d950","system_id":"levelo_inurba_marseille","lat":43.24804,"lon":5.37453,"is_reserved":false,"is_disabled":false,"rental_uris":{"android":"levelo://app?vid=d8cd2afd-bc7a-4684-94a5-2d0ffa50d950","ios":"levelo://app?vid=d8cd2afd-bc7a-4684-94a5-2d0ffa50d950"},"vehicle_type_id":"4","last_reported":1736518135,"current_range_meters":12800,"station_id":"ce4bhgh2rcd13ifvqfb0","pricing_plan_id":"cebpf4jnsgd1na2vs0mg"},{"bike_id":"ad113f76-a766-497a-90be-d1902352af36","system_id":"levelo_inurba_marseille","lat":43.32113,"lon":5.36773,"is_reserved":false,"is_disabled":false,"rental_uris":{"android":"levelo://app?vid=ad113f76-a766-497a-90be-d1902352af36","ios":"levelo://app?vid=ad113f76-a766-497a-90be-d1902352af36"},"vehicle_type_id":"4","last_reported":1736518135,"current_range_meters":38400,"station_id":"ce4bhrh2rcd13ifvqhug","pricing_plan_id":"cebpf4jnsgd1na2vs0mg"},{"bike_id":"9f45806b-0439-44e8-9147-35b59088d5f3","system_id":"levelo_inurba_marseille","lat":43.24165,"lon":5.364294,"is_reserved":false,"is_disabled":false,"rental_uris":{"android":"levelo://app?vid=9f45806b-0439-44e8-9147-35b59088d5f3","ios":"levelo://app?vid=9f45806b-0439-44e8-9147-35b59088d5f3"},"vehicle_type_id":"4","last_reported":1736518135,"current_range_meters":14000,"station_id":"cpo36qri1sfpv3e86is0","pricing_plan_id":"cebpf4jnsgd1na2vs0mg"},{"bike_id":"4f2db52a-906f-41f3-941d-0f612978cfa0","system_id":"levelo_inurba_marseille","lat":43.2835,"lon":5.381,"is_reserved":false,"is_disabled":false,"rental_uris":{"android":"levelo://app?vid=4f2db52a-906f-41f3-941d-0f612978cfa0","ios":"levelo://app?vid=4f2db52a-906f-41f3-941d-0f612978cfa0"},"vehicle_type_id":"4","last_reported":1736518135,"current_range_meters":37600,"station_id":"ce4bh412rcd13ifvqdr0","pricing_plan_id":"cebpf4jnsgd1na2vs0mg"},{"bike_id":"377730c6-0336-4c78-9c46-cdee41ff19a9","system_id":"levelo_inurba_marseille","lat":43.27939,"lon":5.41042,"is_reserved":false,"is_disabled":true,"rental_uris":{"android":"levelo://app?vid=377730c6-0336-4c78-9c46-cdee41ff19a9","ios":"levelo://app?vid=377730c6-0336-4c78-9c46-cdee41ff19a9"},"vehicle_type_id":"4","last_reported":1736518135,"current_range_meters":0,"station_id":"ce4bhnp2rcd13ifvqh0g","pricing_plan_id":"cebpf4jnsgd1na2vs0mg"},{"bike_id":"c90d1336-07f9-4b85-a89b-f0513cdd170d","system_id":"levelo_inurba_marseille","lat":43.30544,"lon":5.36559,"is_reserved":false,"is_disabled":false,"rental_uris":{"android":"levelo://app?vid=c90d1336-07f9-4b85-a89b-f0513cdd170d","ios":"levelo://app?vid=c90d1336-07f9-4b85-a89b-f0513cdd170d"},"vehicle_type_id":"4","last_reported":1736518135,"current_range_meters":29600,"station_id":"ce4bgs12rcd13ifvqcag","pricing_plan_id":"cebpf4jnsgd1na2vs0mg"},{"bike_id":"69689a84-aa34-48e6-8abf-e56354e3d93c","system_id":"levelo_inurba_marseille","lat":43.29537,"lon":5.37488,"is_reserved":false,"is_disabled":true,"rental_uris":{"android":"levelo://app?vid=69689a84-aa34-48e6-8abf-e56354e3d93c","ios":"levelo://app?vid=69689a84-aa34-48e6-8abf-e56354e3d93c"},"vehicle_type_id":"4","last_reported":1736518135,"current_range_meters":34800,"station_id":"ce4bgkp2rcd13ifvqbmg","pricing_plan_id":"cebpf4jnsgd1na2vs0mg"},{"bike_id":"266859f2-18fe-482a-8c9f-5bdad982c716","system_id":"levelo_inurba_marseille","lat":43.27944,"lon":5.4105,"is_reserved":false,"is_disabled":false,"rental_uris":{"android":"levelo://app?vid=266859f2-18fe-482a-8c9f-5bdad982c716","ios":"levelo://app?vid=266859f2-18fe-482a-8c9f-5bdad982c716"},"vehicle_type_id":"4","last_reported":1736518135,"current_range_meters":3600,"station_id":"ce4bhnp2rcd13ifvqh0g","pricing_plan_id":"cebpf4jnsgd1na2vs0mg"},{"bike_id":"a134ed48-3d04-4fb3-80af-23b5de8a4aef","system_id":"levelo_inurba_marseille","lat":43.31894,"lon":5.40728,"is_reserved":false,"is_disabled":false,"rental_uris":{"android":"levelo://app?vid=a134ed48-3d04-4fb3-80af-23b5de8a4aef","ios":"levelo://app?vid=a134ed48-3d04-4fb3-80af-23b5de8a4aef"},"vehicle_type_id":"4","last_reported":1736518135,"current_range_meters":8000,"station_id":"ce4bhq12rcd13ifvqhig","pricing_plan_id":"cebpf4jnsgd1na2vs0mg"},{"bike_id":"73aa5087-f471-497b-96f6-2ea0a9f90c62","system_id":"levelo_inurba_marseille","lat":43.29565,"lon":5.37505,"is_reserved":false,"is_disabled":true,"rental_uris":{"android":"levelo://app?vid=73aa5087-f471-497b-96f6-2ea0a9f90c62","ios":"levelo://app?vid=73aa5087-f471-497b-96f6-2ea0a9f90c62"},"vehicle_type_id":"4","last_reported":1736518135,"current_range_meters":1200,"station_id":"ce4bgh92rcd13ifvqb50","pricing_plan_id":"cebpf4jnsgd1na2vs0mg"},{"bike_id":"65ddbdec-8fb0-4476-b841-bb2985286249","system_id":"levelo_inurba_marseille","lat":43.26544,"lon":5.37304,"is_reserved":false,"is_disabled":false,"rental_uris":{"android":"levelo://app?vid=65ddbdec-8fb0-4476-b841-bb2985286249","ios":"levelo://app?vid=65ddbdec-8fb0-4476-b841-bb2985286249"},"vehicle_type_id":"4","last_reported":1736518135,"current_range_meters":32000,"station_id":"ce4bhg12rcd13ifvqf70","pricing_plan_id":"cebpf4jnsgd1na2vs0mg"},{"bike_id":"1caf5bee-703b-4f75-b89c-79056d14594b","system_id":"levelo_inurba_marseille","lat":43.272339,"lon":5.39185,"is_reserved":false,"is_disabled":false,"rental_uris":{"android":"levelo://app?vid=1caf5bee-703b-4f75-b89c-79056d14594b","ios":"levelo://app?vid=1caf5bee-703b-4f75-b89c-79056d14594b"},"vehicle_type_id":"4","last_reported":1736518135,"current_range_meters":9200,"station_id":"ce4bhhp2rcd13ifvqfm0","pricing_plan_id":"cebpf4jnsgd1na2vs0mg"},{"bike_id":"01739e89-2f45-4595-bb79-abe74adb0b49","system_id":"levelo_inurba_marseille","lat":43.29005,"lon":5.35613,"is_reserved":false,"is_disabled":false,"rental_uris":{"android":"levelo://app?vid=01739e89-2f45-4595-bb79-abe74adb0b49","ios":"levelo://app?vid=01739e89-2f45-4595-bb79-abe74adb0b49"},"vehicle_type_id":"4","last_reported":1736518135,"current_range_meters":16400,"station_id":"ce4bhb92rcd13ifvqen0","pricing_plan_id":"cebpf4jnsgd1na2vs0mg"},{"bike_id":"79d4d31b-e814-4db1-9d24-013e65778338","system_id":"levelo_inurba_marseille","lat":43.26189,"lon":5.37455,"is_reserved":false,"is_disabled":false,"rental_uris":{"android":"levelo://app?vid=79d4d31b-e814-4db1-9d24-013e65778338","ios":"levelo://app?vid=79d4d31b-e814-4db1-9d24-013e65778338"},"vehicle_type_id":"4","last_reported":1736518135,"current_range_meters":22400,"station_id":"ce4bhgp2rcd13ifvqfc0","pricing_plan_id":"cebpf4jnsgd1na2vs0mg"},{"bike_id":"540321aa-f923-4627-a507-8c8cba7f7708","system_id":"levelo_inurba_marseille","lat":43.30329,"lon":5.40433,"is_reserved":false,"is_disabled":false,"rental_uris":{"android":"levelo://app?vid=540321aa-f923-4627-a507-8c8cba7f7708","ios":"levelo://app?vid=540321aa-f923-4627-a507-8c8cba7f7708"},"vehicle_type_id":"4","last_reported":1736518135,"current_range_meters":21600,"station_id":"ce4bh012rcd13ifvqd10","pricing_plan_id":"cebpf4jnsgd1na2vs0mg"},{"bike_id":"68187e5c-8a2e-467b-94cb-f5bf1ea6d290","system_id":"levelo_inurba_marseille","lat":43.29813,"lon":5.4042,"is_reserved":false,"is_disabled":false,"rental_uris":{"android":"levelo://app?vid=68187e5c-8a2e-467b-94cb-f5bf1ea6d290","ios":"levelo://app?vid=68187e5c-8a2e-467b-94cb-f5bf1ea6d290"},"vehicle_type_id":"4","last_reported":1736518135,"current_range_meters":38800,"station_id":"ce4bh112rcd13ifvqd90","pricing_plan_id":"cebpf4jnsgd1na2vs0mg"},{"bike_id":"ae54dad7-c469-4240-857f-4e11b87544b0","system_id":"levelo_inurba_marseille","lat":43.28983,"lon":5.37838,"is_reserved":false,"is_disabled":false,"rental_uris":{"android":"levelo://app?vid=ae54dad7-c469-4240-857f-4e11b87544b0","ios":"levelo://app?vid=ae54dad7-c469-4240-857f-4e11b87544b0"},"vehicle_type_id":"4","last_reported":1736518135,"current_range_meters":35600,"station_id":"ce4bh9p2rcd13ifvqed0","pricing_plan_id":"cebpf4jnsgd1na2vs0mg"},{"bike_id":"f95a3f6e-e375-4dc4-9d6e-2ae8c5602a90","system_id":"levelo_inurba_marseille","lat":43.28639,"lon":5.351,"is_reserved":false,"is_disabled":false,"rental_uris":{"android":"levelo://app?vid=f95a3f6e-e375-4dc4-9d6e-2ae8c5602a90","ios":"levelo://app?vid=f95a3f6e-e375-4dc4-9d6e-2ae8c5602a90"},"vehicle_type_id":"4","last_reported":1736518135,"current_range_meters":24800,"station_id":"ce4bhch2rcd13ifvqeug","pricing_plan_id":"cebpf4jnsgd1na2vs0mg"},{"bike_id":"bceda76b-7eb8-491f-a170-13b4ba74011a","system_id":"levelo_inurba_marseille","lat":43.29589,"lon":5.38084,"is_reserved":false,"is_disabled":false,"rental_uris":{"android":"levelo://app?vid=bceda76b-7eb8-491f-a170-13b4ba74011a","ios":"levelo://app?vid=bceda76b-7eb8-491f-a170-13b4ba74011a"},"vehicle_type_id":"4","last_reported":1736518135,"current_range_meters":30800,"station_id":"ce4bgl12rcd13ifvqbo0","pricing_plan_id":"cebpf4jnsgd1na2vs0mg"},{"bike_id":"017eef80-ebc7-46d5-8d0a-aa8a9dbb05cd","system_id":"levelo_inurba_marseille","lat":43.29196,"lon":5.36077,"is_reserved":false,"is_disabled":false,"rental_uris":{"android":"levelo://app?vid=017eef80-ebc7-46d5-8d0a-aa8a9dbb05cd","ios":"levelo://app?vid=017eef80-ebc7-46d5-8d0a-aa8a9dbb05cd"},"vehicle_type_id":"4","last_reported":1736518135,"current_range_meters":33600,"station_id":"ce4bhbh2rcd13ifvqeqg","pricing_plan_id":"cebpf4jnsgd1na2vs0mg"},{"bike_id":"3a9366c6-502a-444b-b374-6877acc3af2b","system_id":"levelo_inurba_marseille","lat":43.3172,"lon":5.4241,"is_reserved":false,"is_disabled":false,"rental_uris":{"android":"levelo://app?vid=3a9366c6-502a-444b-b374-6877acc3af2b","ios":"levelo://app?vid=3a9366c6-502a-444b-b374-6877acc3af2b"},"vehicle_type_id":"4","last_reported":1736518135,"current_range_meters":6000,"station_id":"ce4bhp92rcd13ifvqhbg","pricing_plan_id":"cebpf4jnsgd1na2vs0mg"},{"bike_id":"fa13c2ee-7838-41d7-9228-ae3f8138ebea","system_id":"levelo_inurba_marseille","lat":43.26929,"lon":5.38922,"is_reserved":false,"is_disabled":false,"rental_uris":{"android":"levelo://app?vid=fa13c2ee-7838-41d7-9228-ae3f8138ebea","ios":"levelo://app?vid=fa13c2ee-7838-41d7-9228-ae3f8138ebea"},"vehicle_type_id":"4","last_reported":1736518135,"current_range_meters":38400,"station_id":"ce4bhhh2rcd13ifvqfl0","pricing_plan_id":"cebpf4jnsgd1na2vs0mg"},{"bike_id":"77cf3074-a2d1-4cc7-ab76-83cd53c98874","system_id":"levelo_inurba_marseille","lat":43.30412,"lon":5.39751,"is_reserved":false,"is_disabled":false,"rental_uris":{"android":"levelo://app?vid=77cf3074-a2d1-4cc7-ab76-83cd53c98874","ios":"levelo://app?vid=77cf3074-a2d1-4cc7-ab76-83cd53c98874"},"vehicle_type_id":"4","last_reported":1736518135,"current_range_meters":22400,"station_id":"ce4bh092rcd13ifvqd20","pricing_plan_id":"cebpf4jnsgd1na2vs0mg"},{"bike_id":"bd391813-4d53-4b94-afa0-eb59214510d5","system_id":"levelo_inurba_marseille","lat":43.298738,"lon":5.397296,"is_reserved":false,"is_disabled":false,"rental_uris":{"android":"levelo://app?vid=bd391813-4d53-4b94-afa0-eb59214510d5","ios":"levelo://app?vid=bd391813-4d53-4b94-afa0-eb59214510d5"},"vehicle_type_id":"4","last_reported":1736518135,"current_range_meters":39200,"station_id":"ce4bh0h2rcd13ifvqd50","pricing_plan_id":"cebpf4jnsgd1na2vs0mg"},{"bike_id":"c4a85191-4eb5-4d65-871c-bf6cfd3c59dc","system_id":"levelo_inurba_marseille","lat":43.24088,"lon":5.377584,"is_reserved":false,"is_disabled":false,"rental_uris":{"android":"levelo://app?vid=c4a85191-4eb5-4d65-871c-bf6cfd3c59dc","ios":"levelo://app?vid=c4a85191-4eb5-4d65-871c-bf6cfd3c59dc"},"vehicle_type_id":"4","last_reported":1736518135,"current_range_meters":38800,"station_id":"ce4bhnp2rcd13ifvqgvg","pricing_plan_id":"cebpf4jnsgd1na2vs0mg"},{"bike_id":"ec63bd21-6ae0-45b9-8b9b-cfc34e5ac0d7","system_id":"levelo_inurba_marseille","lat":43.28932,"lon":5.36634,"is_reserved":false,"is_disabled":false,"rental_uris":{"android":"levelo://app?vid=ec63bd21-6ae0-45b9-8b9b-cfc34e5ac0d7","ios":"levelo://app?vid=ec63bd21-6ae0-45b9-8b9b-cfc34e5ac0d7"},"vehicle_type_id":"4","last_reported":1736518135,"current_range_meters":20000,"station_id":"ce4bhap2rcd13ifvqek0","pricing_plan_id":"cebpf4jnsgd1na2vs0mg"},{"bike_id":"ca2450e7-5c66-4bdc-b528-943118702b91","system_id":"levelo_inurba_marseille","lat":43.337214,"lon":5.391923,"is_reserved":false,"is_disabled":false,"rental_uris":{"android":"levelo://app?vid=ca2450e7-5c66-4bdc-b528-943118702b91","ios":"levelo://app?vid=ca2450e7-5c66-4bdc-b528-943118702b91"},"vehicle_type_id":"4","last_reported":1736518135,"current_range_meters":39200,"station_id":"ce4bhr92rcd13ifvqhsg","pricing_plan_id":"cebpf4jnsgd1na2vs0mg"},{"bike_id":"b7a8ad17-39d7-435e-ad14-3db032ea18d2","system_id":"levelo_inurba_marseille","lat":43.267899,"lon":5.393975,"is_reserved":false,"is_disabled":true,"rental_uris":{"android":"levelo://app?vid=b7a8ad17-39d7-435e-ad14-3db032ea18d2","ios":"levelo://app?vid=b7a8ad17-39d7-435e-ad14-3db032ea18d2"},"vehicle_type_id":"4","last_reported":1736518135,"current_range_meters":2000,"station_id":"ce4bhh12rcd13ifvqfg0","pricing_plan_id":"cebpf4jnsgd1na2vs0mg"},{"bike_id":"d63cba63-f0fc-41b9-8b65-19b6a4a2abda","system_id":"levelo_inurba_marseille","lat":43.30953,"lon":5.39051,"is_reserved":false,"is_disabled":true,"rental_uris":{"android":"levelo://app?vid=d63cba63-f0fc-41b9-8b65-19b6a4a2abda","ios":"levelo://app?vid=d63cba63-f0fc-41b9-8b65-19b6a4a2abda"},"vehicle_type_id":"4","last_reported":1736518135,"current_range_meters":1200,"station_id":"ce4bgup2rcd13ifvqco0","pricing_plan_id":"cebpf4jnsgd1na2vs0mg"},{"bike_id":"d5f7e953-050c-4cea-99af-495b991331e3","system_id":"levelo_inurba_marseille","lat":43.317663,"lon":5.375753,"is_reserved":false,"is_disabled":false,"rental_uris":{"android":"levelo://app?vid=d5f7e953-050c-4cea-99af-495b991331e3","ios":"levelo://app?vid=d5f7e953-050c-4cea-99af-495b991331e3"},"vehicle_type_id":"4","last_reported":1736518135,"current_range_meters":39200,"station_id":"","pricing_plan_id":"cebpf4jnsgd1na2vs0mg"},{"bike_id":"d5dff930-e2bc-46cf-9212-d2bb4fe30533","system_id":"levelo_inurba_marseille","lat":43.29815,"lon":5.381079,"is_reserved":false,"is_disabled":false,"rental_uris":{"android":"levelo://app?vid=d5dff930-e2bc-46cf-9212-d2bb4fe30533","ios":"levelo://app?vid=d5dff930-e2bc-46cf-9212-d2bb4fe30533"},"vehicle_type_id":"4","last_reported":1736518135,"current_range_meters":28400,"station_id":"ce4bgip2rcd13ifvqbb0","pricing_plan_id":"cebpf4jnsgd1na2vs0mg"},{"bike_id":"a1164a90-2dc8-4478-8d43-814a6b95fb9e","system_id":"levelo_inurba_marseille","lat":43.337444,"lon":5.374475,"is_reserved":false,"is_disabled":false,"rental_uris":{"android":"levelo://app?vid=a1164a90-2dc8-4478-8d43-814a6b95fb9e","ios":"levelo://app?vid=a1164a90-2dc8-4478-8d43-814a6b95fb9e"},"vehicle_type_id":"4","last_reported":1736518135,"current_range_meters":38400,"station_id":"","pricing_plan_id":"cebpf4jnsgd1na2vs0mg"},{"bike_id":"545dc71a-d34b-4108-9699-bffefc67d26e","system_id":"levelo_inurba_marseille","lat":43.32294,"lon":5.38268,"is_reserved":false,"is_disabled":false,"rental_uris":{"android":"levelo://app?vid=545dc71a-d34b-4108-9699-bffefc67d26e","ios":"levelo://app?vid=545dc71a-d34b-4108-9699-bffefc67d26e"},"vehicle_type_id":"4","last_reported":1736518135,"current_range_meters":34000,"station_id":"ce4bhr12rcd13ifvqhqg","pricing_plan_id":"cebpf4jnsgd1na2vs0mg"},{"bike_id":"9d3a4573-25ed-4269-939e-85cfd880532b","system_id":"levelo_inurba_marseille","lat":43.31192,"lon":5.36881,"is_reserved":false,"is_disabled":false,"rental_uris":{"android":"levelo://app?vid=9d3a4573-25ed-4269-939e-85cfd880532b","ios":"levelo://app?vid=9d3a4573-25ed-4269-939e-85cfd880532b"},"vehicle_type_id":"4","last_reported":1736518135,"current_range_meters":38000,"station_id":"ce4bgl92rcd13ifvqbq0","pricing_plan_id":"cebpf4jnsgd1na2vs0mg"},{"bike_id":"4468c091-8854-4e21-a0fb-54bccb6bad49","system_id":"levelo_inurba_marseille","lat":43.25003,"lon":5.38925,"is_reserved":false,"is_disabled":false,"rental_uris":{"android":"levelo://app?vid=4468c091-8854-4e21-a0fb-54bccb6bad49","ios":"levelo://app?vid=4468c091-8854-4e21-a0fb-54bccb6bad49"},"vehicle_type_id":"4","last_reported":1736518135,"current_range_meters":30400,"station_id":"ce4bhgp2rcd13ifvqfd0","pricing_plan_id":"cebpf4jnsgd1na2vs0mg"},{"bike_id":"e0739682-451f-4d8d-86ee-39a6dca12c77","system_id":"levelo_inurba_marseille","lat":43.29309,"lon":5.37169,"is_reserved":false,"is_disabled":false,"rental_uris":{"android":"levelo://app?vid=e0739682-451f-4d8d-86ee-39a6dca12c77","ios":"levelo://app?vid=e0739682-451f-4d8d-86ee-39a6dca12c77"},"vehicle_type_id":"4","last_reported":1736518135,"current_range_meters":36000,"station_id":"ce4bgh92rcd13ifvqb40","pricing_plan_id":"cebpf4jnsgd1na2vs0mg"},