{"last_updated":1692716792,"ttl":30,"version":"2.2","data":{"bikes":[{"bike_id":"9485b353-006a-4320-9d29-b1c019c11f01","system_id":"levelo_inurba_marseille","lat":43.31342,"lon":5.36736,"is_reserved":false,"is_disabled":false,"rental_uris":{"android":"levelo://app?vid=9485b353-006a-4320-9d29-b1c019c11f01","ios":"levelo://app?vid=9485b353-006a-4320-9d29-b1c019c11f01"},"vehicle_type_id":"4","last_reported":1692716792,"current_range_meters":16400,"station_id":"ce4bgr92rcd13ifvqc6g","pricing_plan_id":"free"},{"bike_id":"e9eeeed3-acb6-4c52-98b9-a46412949e7d","system_id":"levelo_inurba_marseille","lat":43.31341,"lon":5.367098,"is_reserved":false,"is_disabled":false,"rental_uris":{"android":"levelo://app?vid=e9eeeed3-acb6-4c52-98b9-a46412949e7d","ios":"levelo://app?vid=e9eeeed3-acb6-4c52-98b9-a46412949e7d"},"vehicle_type_id":"4","last_reported":1692716792,"current_range_meters":31200,"station_id":"ce4bgr92rcd13ifvqc6g","pricing_plan_id":"free"},{"bike_id":"3258b1ec-7c24-4d23-9c20-048826f90751","system_id":"levelo_inurba_marseille","lat":43.31341,"lon":5.367098,"is_reserved":false,"is_disabled":false,"rental_uris":{"android":"levelo://app?vid=3258b1ec-7c24-4d23-9c20-048826f90751","ios":"levelo://app?vid=3258b1ec-7c24-4d23-9c20-048826f90751"},"vehicle_type_id":"4","last_reported":1692716792,"current_range_meters":31200,"station_id":"ce4bgr92rcd13ifvqc6g","pricing_plan_id":"free"},{"bike_id":"fd099c45-a377-4688-b669-d2f276048a9b","system_id":"levelo_inurba_marseille","lat":43.31341,"lon":5.367098,"is_reserved":false,"is_disabled":false,"rental_uris":{"android":"levelo://app?vid=fd099c45-a377-4688-b669-d2f276048a9b","ios":"levelo://app?vid=fd099c45-a377-4688-b669-d2f276048a9b"},"vehicle_type_id":"4","last_reported":1692716792,"current_range_meters":30000,"station_id":"ce4bgr92rcd13ifvqc6g","pricing_plan_id":"free"},{"bike_id":"5ab89f05-ab79-4437-9ce3-c414ddb50201","system_id":"levelo_inurba_marseille","lat":43.312239,"lon":5.368562,"is_reserved":false,"is_disabled":false,"rental_uris":{"android":"levelo://app?vid=5ab89f05-ab79-4437-9ce3-c414ddb50201","ios":"levelo://app?vid=5ab89f05-ab79-4437-9ce3-c414ddb50201"},"vehicle_type_id":"4","last_reported":1692716792,"current_range_meters":28000,"station_id":"ce4bgl92rcd13ifvqbq0","pricing_plan_id":"free"},{"bike_id":"994b4e38-1388-4a4d-9580-96ae2fe7fa31","system_id":"levelo_inurba_marseille","lat":43.312239,"lon":5.368562,"is_reserved":false,"is_disabled":false,"rental_uris":{"android":"levelo://app?vid=994b4e38-1388-4a4d-9580-96ae2fe7fa31","ios":"levelo://app?vid=994b4e38-1388-4a4d-9580-96ae2fe7fa31"},"vehicle_type_id":"4","last_reported":1692716792,"current_range_meters":31600,"station_id":"ce4bgl92rcd13ifvqbq0","pricing_plan_id":"free"},{"bike_id":"d030e022-5b5b-45e9-9318-7014f0d3a097","system_id":"levelo_inurba_marseille","lat":43.312239,"lon":5.368562,"is_reserved":false,"is_disabled":false,"rental_uris":{"android":"levelo://app?vid=d030e022-5b5b-45e9-9318-7014f0d3a097","ios":"levelo://app?vid=d030e022-5b5b-45e9-9318-7014f0d3a097"},"vehicle_type_id":"4","last_reported":1692716792,"current_range_meters":31200,"station_id":"ce4bgl92rcd13ifvqbq0","pricing_plan_id":"free"},{"bike_id":"f22ca441-4e4e-4660-b824-b2f46943e54d","system_id":"levelo_inurba_marseille","lat":43.312239,"lon":5.368562,"is_reserved":false,"is_disabled":false,"rental_uris":{"android":"levelo://app?vid=f22ca441-4e4e-4660-b824-b2f46943e54d","ios":"levelo://app?vid=f22ca441-4e4e-4660-b824-b2f46943e54d"},"vehicle_type_id":"4","last_reported":1692716792,"current_range_meters":31200,"station_id":"ce4bgl92rcd13ifvqbq0","pricing_plan_id":"free"},{"bike_id":"14bbd9a8-88ea-40b9-abe5-e9bddda19ff2","system_id":"levelo_inurba_marseille","lat":43.312239,"lon":5.368562,"is_reserved":false,"is_disabled":false,"rental_uris":{"android":"levelo://app?vid=14bbd9a8-88ea-40b9-abe5-e9bddda19ff2","ios":"levelo://app?vid=14bbd9a8-88ea-40b9-abe5-e9bddda19ff2"},"vehicle_type_id":"4","last_reported":1692716792,"current_range_meters":10800,"station_id":"ce4bgl92rcd13ifvqbq0","pricing_plan_id":"free"},{"bike_id":"76eb0c01-b373-4c3a-bccc-daa1f432c782","system_id":"levelo_inurba_marseille","lat":43.31221,"lon":5.3687,"is_reserved":false,"is_disabled":false,"rental_uris":{"android":"levelo://app?vid=76eb0c01-b373-4c3a-bccc-daa1f432c782","ios":"levelo://app?vid=76eb0c01-b373-4c3a-bccc-daa1f432c782"},"vehicle_type_id":"4","last_reported":1692716792,"current_range_meters":22800,"station_id":"ce4bgl92rcd13ifvqbq0","pricing_plan_id":"free"},{"bike_id":"2b331c66-c3d1-429c-b942-b51172453dd2","system_id":"levelo_inurba_marseille","lat":43.312239,"lon":5.368562,"is_reserved":false,"is_disabled":false,"rental_uris":{"android":"levelo://app?vid=2b331c66-c3d1-429c-b942-b51172453dd2","ios":"levelo://app?vid=2b331c66-c3d1-429c-b942-b51172453dd2"},"vehicle_type_id":"4","last_reported":1692716792,"current_range_meters":31200,"station_id":"ce4bgl92rcd13ifvqbq0","pricing_plan_id":"free"},{"bike_id":"dac10324-9d4e-4ac6-a117-2dd00b81e278","system_id":"levelo_inurba_marseille","lat":43.309076,"lon":5.368465,"is_reserved":false,"is_disabled":false,"rental_uris":{"android":"levelo://app?vid=dac10324-9d4e-4ac6-a117-2dd00b81e278","ios":"levelo://app?vid=dac10324-9d4e-4ac6-a117-2dd00b81e278"},"vehicle_type_id":"4","last_reported":1692716792,"current_range_meters":31600,"station_id":"ce4bgn92rcd13ifvqbvg","pricing_plan_id":"free"},{"bike_id":"4de1af2e-b3ac-431b-a941-d7d5c42cb47f","system_id":"levelo_inurba_marseille","lat":43.309076,"lon":5.368465,"is_reserved":false,"is_disabled":false,"rental_uris":{"android":"levelo://app?vid=4de1af2e-b3ac-431b-a941-d7d5c42cb47f","ios":"levelo://app?vid=4de1af2e-b3ac-431b-a941-d7d5c42cb47f"},"vehicle_type_id":"4","last_reported":1692716792,"current_range_meters":8000,"station_id":"ce4bgn92rcd13ifvqbvg","pricing_plan_id":"free"},{"bike_id":"77c18581-4efb-463f-923d-ca0798bfd730","system_id":"levelo_inurba_marseille","lat":43.309076,"lon":5.368465,"is_reserved":false,"is_disabled":false,"rental_uris":{"android":"levelo://app?vid=77c18581-4efb-463f-923d-ca0798bfd730","ios":"levelo://app?vid=77c18581-4efb-463f-923d-ca0798bfd730"},"vehicle_type_id":"4","last_reported":1692716792,"current_range_meters":27200,"station_id":"ce4bgn92rcd13ifvqbvg","pricing_plan_id":"free"},{"bike_id":"e640c4cf-fff3-43e9-b754-557854bff65e","system_id":"levelo_inurba_marseille","lat":43.309076,"lon":5.368465,"is_reserved":false,"is_disabled":false,"rental_uris":{"android":"levelo://app?vid=e640c4cf-fff3-43e9-b754-557854bff65e","ios":"levelo://app?vid=e640c4cf-fff3-43e9-b754-557854bff65e"},"vehicle_type_id":"4","last_reported":1692716792,"current_range_meters":31600,"station_id":"ce4bgn92rcd13ifvqbvg","pricing_plan_id":"free"},{"bike_id":"7becb911-e047-4594-8ff3-a5edf75b1ace","system_id":"levelo_inurba_marseille","lat":43.309076,"lon":5.368465,"is_reserved":false,"is_disabled":false,"rental_uris":{"android":"levelo://app?vid=7becb911-e047-4594-8ff3-a5edf75b1ace","ios":"levelo://app?vid=7becb911-e047-4594-8ff3-a5edf75b1ace"},"vehicle_type_id":"4","last_reported":1692716792,"current_range_meters":29200,"station_id":"ce4bgn92rcd13ifvqbvg","pricing_plan_id":"free"},{"bike_id":"90d4cd67-85b4-4a67-9c6c-6619d7e440df","system_id":"levelo_inurba_marseille","lat":43.309076,"lon":5.368465,"is_reserved":false,"is_disabled":false,"rental_uris":{"android":"levelo://app?vid=90d4cd67-85b4-4a67-9c6c-6619d7e440df","ios":"levelo://app?vid=90d4cd67-85b4-4a67-9c6c-6619d7e440df"},"vehicle_type_id":"4","last_reported":1692716792,"current_range_meters":20000,"station_id":"ce4bgn92rcd13ifvqbvg","pricing_plan_id":"free"},{"bike_id":"6611f49f-e122-4bad-8c77-b00546d71877","system_id":"levelo_inurba_marseille","lat":43.309076,"lon":5.368465,"is_reserved":false,"is_disabled":false,"rental_uris":{"android":"levelo://app?vid=6611f49f-e122-4bad-8c77-b00546d71877","ios":"levelo://app?vid=6611f49f-e122-4bad-8c77-b00546d71877"},"vehicle_type_id":"4","last_reported":1692716792,"current_range_meters":31600,"station_id":"ce4bgn92rcd13ifvqbvg","pricing_plan_id":"free"},{"bike_id":"9b128d95-fd7a-47a6-bbaf-fae4a365eada","system_id":"levelo_inurba_marseille","lat":43.309076,"lon":5.368465,"is_reserved":false,"is_disabled":false,"rental_uris":{"android":"levelo://app?vid=9b128d95-fd7a-47a6-bbaf-fae4a365eada","ios":"levelo://app?vid=9b128d95-fd7a-47a6-bbaf-fae4a365eada"},"vehicle_type_id":"4","last_reported":1692716792,"current_range_meters":27200,"station_id":"ce4bgn92rcd13ifvqbvg","pricing_plan_id":"free"},{"bike_id":"e26f72ba-6ec7-4c96-b59c-86d145842a71","system_id":"levelo_inurba_marseille","lat":43.309076,"lon":5.368465,"is_reserved":false,"is_disabled":false,"rental_uris":{"android":"levelo://app?vid=e26f72ba-6ec7-4c96-b59c-86d145842a71","ios":"levelo://app?vid=e26f72ba-6ec7-4c96-b59c-86d145842a71"},"vehicle_type_id":"4","last_reported":1692716792,"current_range_meters":18000,"station_id":"ce4bgn92rcd13ifvqbvg","pricing_plan_id":"free"},{"bike_id":"4d463470-36ea-4e58-987a-686953b9c1af","system_id":"levelo_inurba_marseille","lat":43.309076,"lon":5.368465,"is_reserved":false,"is_disabled":false,"rental_uris":{"android":"levelo://app?vid=4d463470-36ea-4e58-987a-686953b9c1af","ios":"levelo://app?vid=4d463470-36ea-4e58-987a-686953b9c1af"},"vehicle_type_id":"4","last_reported":1692716792,"current_range_meters":28000,"station_id":"ce4bgn92rcd13ifvqbvg","pricing_plan_id":"free"},{"bike_id":"e46816fb-11aa-4aae-8bc8-8aed8499b836","system_id":"levelo_inurba_marseille","lat":43.30907,"lon":5.36849,"is_reserved":false,"is_disabled":false,"rental_uris":{"android":"levelo://app?vid=e46816fb-11aa-4aae-8bc8-8aed8499b836","ios":"levelo://app?vid=e46816fb-11aa-4aae-8bc8-8aed8499b836"},"vehicle_type_id":"4","last_reported":1692716792,"current_range_meters":19200,"station_id":"ce4bgn92rcd13ifvqbvg","pricing_plan_id":"free"},{"bike_id":"5d2856ad-19c0-423d-8533-ff3810144930","system_id":"levelo_inurba_marseille","lat":43.309076,"lon":5.368465,"is_reserved":false,"is_disabled":false,"rental_uris":{"android":"levelo://app?vid=5d2856ad-19c0-423d-8533-ff3810144930","ios":"levelo://app?vid=5d2856ad-19c0-423d-8533-ff3810144930"},"vehicle_type_id":"4","last_reported":1692716792,"current_range_meters":31200,"station_id":"ce4bgn92rcd13ifvqbvg","pricing_plan_id":"free"},{"bike_id":"42d45342-8e33-420c-bf04-ff48ea5fabdc","system_id":"levelo_inurba_marseille","lat":43.309076,"lon":5.368465,"is_reserved":false,"is_disabled":false,"rental_uris":{"android":"levelo://app?vid=42d45342-8e33-420c-bf04-ff48ea5fabdc","ios":"levelo://app?vid=42d45342-8e33-420c-bf04-ff48ea5fabdc"},"vehicle_type_id":"4","last_reported":1692716792,"current_range_meters":31200,"station_id":"ce4bgn92rcd13ifvqbvg","pricing_plan_id":"free"},{"bike_id":"79252725-5b7d-4a43-b4db-0d882e1f9130","system_id":"levelo_inurba_marseille","lat":43.309076,"lon":5.368465,"is_reserved":false,"is_disabled":false,"rental_uris":{"android":"levelo://app?vid=79252725-5b7d-4a43-b4db-0d882e1f9130","ios":"levelo://app?vid=79252725-5b7d-4a43-b4db-0d882e1f9130"},"vehicle_type_id":"4","last_reported":1692716792,"current_range_meters":31200,"station_id":"ce4bgn92rcd13ifvqbvg","pricing_plan_id":"free"},{"bike_id":"92283285-1408-4377-87c8-8aaf37a13156","system_id":"levelo_inurba_marseille","lat":43.3089,"lon":5.37195,"is_reserved":false,"is_disabled":false,"rental_uris":{"android":"levelo://app?vid=92283285-1408-4377-87c8-8aaf37a13156","ios":"levelo://app?vid=92283285-1408-4377-87c8-8aaf37a13156"},"vehicle_type_id":"4","last_reported":1692716792,"current_range_meters":12800,"station_id":"ce4bguh2rcd13ifvqckg","pricing_plan_id":"free"},{"bike_id":"46740717-cd70-47aa-90e0-377232f2cae9","system_id":"levelo_inurba_marseille","lat":43.30977,"lon":5.37521,"is_reserved":false,"is_disabled":false,"rental_uris":{"android":"levelo://app?vid=46740717-cd70-47aa-90e0-377232f2cae9","ios":"levelo://app?vid=46740717-cd70-47aa-90e0-377232f2cae9"},"vehicle_type_id":"4","last_reported":1692716792,"current_range_meters":24800,"station_id":"","pricing_plan_id":"free"},{"bike_id":"9fbe6e18-d192-44c2-98b5-cafb68b41aa4","system_id":"levelo_inurba_marseille","lat":43.30559,"lon":5.36535,"is_reserved":false,"is_disabled":false,"rental_uris":{"android":"levelo://app?vid=9fbe6e18-d192-44c2-98b5-cafb68b41aa4","ios":"levelo://app?vid=9fbe6e18-d192-44c2-98b5-cafb68b41aa4"},"vehicle_type_id":"4","last_reported":1692716792,"current_range_meters":26800,"station_id":"ce4bgs12rcd13ifvqcag","pricing_plan_id":"free"},{"bike_id":"dae5e21c-64bc-4215-ad5a-fcc75d8f963b","system_id":"levelo_inurba_marseille","lat":43.305439,"lon":5.366924,"is_reserved":false,"is_disabled":false,"rental_uris":{"android":"levelo://app?vid=dae5e21c-64bc-4215-ad5a-fcc75d8f963b","ios":"levelo://app?vid=dae5e21c-64bc-4215-ad5a-fcc75d8f963b"},"vehicle_type_id":"4","last_reported":1692716792,"current_range_meters":26000,"station_id":"ce4bgrp2rcd13ifvqc9g","pricing_plan_id":"free"},{"bike_id":"5f2611e5-e733-49de-a7b8-d04383119989","system_id":"levelo_inurba_marseille","lat":43.305305,"lon":5.36698,"is_reserved":false,"is_disabled":false,"rental_uris":{"android":"levelo://app?vid=5f2611e5-e733-49de-a7b8-d04383119989","ios":"levelo://app?vid=5f2611e5-e733-49de-a7b8-d04383119989"},"vehicle_type_id":"4","last_reported":1692716792,"current_range_meters":24800,"station_id":"ce4bgrp2rcd13ifvqc9g","pricing_plan_id":"free"},{"bike_id":"70a0285f-f6e9-430f-8222-f60bb3bad175","system_id":"levelo_inurba_marseille","lat":43.30537,"lon":5.36536,"is_reserved":false,"is_disabled":false,"rental_uris":{"android":"levelo://app?vid=70a0285f-f6e9-430f-8222-f60bb3bad175","ios":"levelo://app?vid=70a0285f-f6e9-430f-8222-f60bb3bad175"},"vehicle_type_id":"4","last_reported":1692716792,"current_range_meters":26000,"station_id":"ce4bgs12rcd13ifvqcag","pricing_plan_id":"free"},{"bike_id":"bced27e1-2fc6-4450-aef6-842cec9bb198","system_id":"levelo_inurba_marseille","lat":43.30533,"lon":5.36524,"is_reserved":false,"is_disabled":false,"rental_uris":{"android":"levelo://app?vid=bced27e1-2fc6-4450-aef6-842cec9bb198","ios":"levelo://app?vid=bced27e1-2fc6-4450-aef6-842cec9bb198"},"vehicle_type_id":"4","last_reported":1692716792,"current_range_meters":25200,"station_id":"ce4bgs12rcd13ifvqcag","pricing_plan_id":"free"},{"bike_id":"f7e5c826-d7fa-4555-96c0-75d4b2be6bb4","system_id":"levelo_inurba_marseille","lat":43.305706,"lon":5.365654,"is_reserved":false,"is_disabled":false,"rental_uris":{"android":"levelo://app?vid=f7e5c826-d7fa-4555-96c0-75d4b2be6bb4","ios":"levelo://app?vid=f7e5c826-d7fa-4555-96c0-75d4b2be6bb4"},"vehicle_type_id":"4","last_reported":1692716792,"current_range_meters":31200,"station_id":"ce4bgs12rcd13ifvqcag","pricing_plan_id":"free"},{"bike_id":"d4316ae3-8c52-4a36-9bba-4c28a2560414","system_id":"levelo_inurba_marseille","lat":43.305989,"lon":5.37225,"is_reserved":false,"is_disabled":false,"rental_uris":{"android":"levelo://app?vid=d4316ae3-8c52-4a36-9bba-4c28a2560414","ios":"levelo://app?vid=d4316ae3-8c52-4a36-9bba-4c28a2560414"},"vehicle_type_id":"4","last_reported":1692716792,"current_range_meters":4800,"station_id":"ce4bgqh2rcd13ifvqc4g","pricing_plan_id":"free"},{"bike_id":"8bd1d12c-f052-4051-b697-d1f31a584191","system_id":"levelo_inurba_marseille","lat":43.305989,"lon":5.37225,"is_reserved":false,"is_disabled":false,"rental_uris":{"android":"levelo://app?vid=8bd1d12c-f052-4051-b697-d1f31a584191","ios":"levelo://app?vid=8bd1d12c-f052-4051-b697-d1f31a584191"},"vehicle_type_id":"4","last_reported":1692716792,"current_range_meters":15600,"station_id":"ce4bgqh2rcd13ifvqc4g","pricing_plan_id":"free"},{"bike_id":"95b5d9fa-a596-49a4-93c4-b6d7c29ff84d","system_id":"levelo_inurba_marseille","lat":43.311131,"lon":5.377651,"is_reserved":false,"is_disabled":false,"rental_uris":{"android":"levelo://app?vid=95b5d9fa-a596-49a4-93c4-b6d7c29ff84d","ios":"levelo://app?vid=95b5d9fa-a596-49a4-93c4-b6d7c29ff84d"},"vehicle_type_id":"4","last_reported":1692716792,"current_range_meters":31200,"station_id":"ce4bgt92rcd13ifvqcg0","pricing_plan_id":"free"},{"bike_id":"00431a28-70e6-4845-b9ef-b453eb3f0e77","system_id":"levelo_inurba_marseille","lat":43.311125,"lon":5.377624,"is_reserved":false,"is_disabled":false,"rental_uris":{"android":"levelo://app?vid=00431a28-70e6-4845-b9ef-b453eb3f0e77","ios":"levelo://app?vid=00431a28-70e6-4845-b9ef-b453eb3f0e77"},"vehicle_type_id":"4","last_reported":1692716792,"current_range_meters":26000,"station_id":"ce4bgt92rcd13ifvqcg0","pricing_plan_id":"free"},{"bike_id":"37033d89-7799-4440-881a-fd642f17fa21","system_id":"levelo_inurba_marseille","lat":43.30781,"lon":5.37652,"is_reserved":false,"is_disabled":false,"rental_uris":{"android":"levelo://app?vid=37033d89-7799-4440-881a-fd642f17fa21","ios":"levelo://app?vid=37033d89-7799-4440-881a-fd642f17fa21"},"vehicle_type_id":"4","last_reported":1692716792,"current_range_meters":24400,"station_id":"ce4bgv92rcd13ifvqcq0","pricing_plan_id":"free"},{"bike_id":"874e34a8-80c1-4d79-8e18-aa1bd38adad4","system_id":"levelo_inurba_marseille","lat":43.317065,"lon":5.377313,"is_reserved":false,"is_disabled":false,"rental_uris":{"android":"levelo://app?vid=874e34a8-80c1-4d79-8e18-aa1bd38adad4","ios":"levelo://app?vid=874e34a8-80c1-4d79-8e18-aa1bd38adad4"},"vehicle_type_id":"4","last_reported":1692716792,"current_range_meters":0,"station_id":"ce4bgth2rcd13ifvqch0","pricing_plan_id":"free"},{"bike_id":"16b78517-b021-4a0f-804d-ba352469ac32","system_id":"levelo_inurba_marseille","lat":43.317075,"lon":5.377367,"is_reserved":false,"is_disabled":false,"rental_uris":{"android":"levelo://app?vid=16b78517-b021-4a0f-804d-ba352469ac32","ios":"levelo://app?vid=16b78517-b021-4a0f-804d-ba352469ac32"},"vehicle_type_id":"4","last_reported":1692716792,"current_range_meters":25600,"station_id":"ce4bgth2rcd13ifvqch0","pricing_plan_id":"free"},{"bike_id":"645b8662-d2d9-44e7-8668-acf63eadff2a","system_id":"levelo_inurba_marseille","lat":43.31722,"lon":5.37755,"is_reserved":false,"is_disabled":false,"rental_uris":{"android":"levelo://app?vid=645b8662-d2d9-44e7-8668-acf63eadff2a","ios":"levelo://app?vid=645b8662-d2d9-44e7-8668-acf63eadff2a"},"vehicle_type_id":"4","last_reported":1692716792,"current_range_meters":27200,"station_id":"ce4bgth2rcd13ifvqch0","pricing_plan_id":"free"},{"bike_id":"91d2a8ae-24a8-401f-b690-286e05f4878c","system_id":"levelo_inurba_marseille","lat":43.308012,"lon":5.381511,"is_reserved":false,"is_disabled":false,"rental_uris":{"android":"levelo://app?vid=91d2a8ae-24a8-401f-b690-286e05f4878c","ios":"levelo://app?vid=91d2a8ae-24a8-401f-b690-286e05f4878c"},"vehicle_type_id":"4","last_reported":1692716792,"current_range_meters":24400,"station_id":"ce4bgt12rcd13ifvqce0","pricing_plan_id":"free"},{"bike_id":"594f6403-c824-4678-9cbc-4f0cdf8185ba","system_id":"levelo_inurba_marseille","lat":43.308012,"lon":5.381511,"is_reserved":false,"is_disabled":false,"rental_uris":{"android":"levelo://app?vid=594f6403-c824-4678-9cbc-4f0cdf8185ba","ios":"levelo://app?vid=594f6403-c824-4678-9cbc-4f0cdf8185ba"},"vehicle_type_id":"4","last_reported":1692716792,"current_range_meters":30400,"station_id":"ce4bgt12rcd13ifvqce0","pricing_plan_id":"free"},{"bike_id":"3440c1df-0a89-4693-9840-12676b95c510","system_id":"levelo_inurba_marseille","lat":43.307898,"lon":5.381549,"is_reserved":false,"is_disabled":false,"rental_uris":{"android":"levelo://app?vid=3440c1df-0a89-4693-9840-12676b95c510","ios":"levelo://app?vid=3440c1df-0a89-4693-9840-12676b95c510"},"vehicle_type_id":"4","last_reported":1692716792,"current_range_meters":0,"station_id":"ce4bgt92rcd13ifvqcg0","pricing_plan_id":"free"},{"bike_id":"1bb96294-6ff1-474e-96c1-eb1713b439f3","system_id":"levelo_inurba_marseille","lat":43.304606,"lon":5.379026,"is_reserved":false,"is_disabled":false,"rental_uris":{"android":"levelo://app?vid=1bb96294-6ff1-474e-96c1-eb1713b439f3","ios":"levelo://app?vid=1bb96294-6ff1-474e-96c1-eb1713b439f3"},"vehicle_type_id":"4","last_reported":1692716792,"current_range_meters":11200,"station_id":"ce4bgup2rcd13ifvqcn0","pricing_plan_id":"free"},{"bike_id":"503e2cfe-00ae-494c-bc27-6b4e32b3c81c","system_id":"levelo_inurba_marseille","lat":43.304606,"lon":5.379026,"is_reserved":false,"is_disabled":false,"rental_uris":{"android":"levelo://app?vid=503e2cfe-00ae-494c-bc27-6b4e32b3c81c","ios":"levelo://app?vid=503e2cfe-00ae-494c-bc27-6b4e32b3c81c"},"vehicle_type_id":"4","last_reported":1692716792,"current_range_meters":31200,"station_id":"ce4bgup2rcd13ifvqcn0","pricing_plan_id":"free"},{"bike_id":"4255cacf-da35-4c34-a2aa-1225c8b8d88a","system_id":"levelo_inurba_marseille","lat":43.3014,"lon":5.3741,"is_reserved":false,"is_disabled":false,"rental_uris":{"android":"levelo://app?vid=4255cacf-da35-4c34-a2aa-1225c8b8d88a","ios":"levelo://app?vid=4255cacf-da35-4c34-a2aa-1225c8b8d88a"},"vehicle_type_id":"4","last_reported":1692716792,"current_range_meters":25600,"station_id":"ce4bgs92rcd13ifvqcc0","pricing_plan_id":"free"},{"bike_id":"1fdaa27b-2f73-4172-b72b-58f25d96b1fd","system_id":"levelo_inurba_marseille","lat":43.313571,"lon":5.384829,"is_reserved":false,"is_disabled":false,"rental_uris":{"android":"levelo://app?vid=1fdaa27b-2f73-4172-b72b-58f25d96b1fd","ios":"levelo://app?vid=1fdaa27b-2f73-4172-b72b-58f25d96b1fd"},"vehicle_type_id":"4","last_reported":1692716792,"current_range_meters":7600,"station_id":"ce4bgt92rcd13ifvqcf0","pricing_plan_id":"free"},{"bike_id":"3570a6a5-c831-4ac7-a09b-fc93414deff6","system_id":"levelo_inurba_marseille","lat":43.31997,"lon":5.38154,"is_reserved":false,"is_disabled":false,"rental_uris":{"android":"levelo://app?vid=3570a6a5-c831-4ac7-a09b-fc93414deff6","ios":"levelo://app?vid=3570a6a5-c831-4ac7-a09b-fc93414deff6"},"vehicle_type_id":"4","last_reported":1692716792,"current_range_meters":13600,"station_id":"ce4bhr12rcd13ifvqhpg","pricing_plan_id":"free"},{"bike_id":"e034918f-6004-4d26-b914-1a5da44e9d5f","system_id":"levelo_inurba_marseille","lat":43.319935,"lon":5.381699,"is_reserved":false,"is_disabled":false,"rental_uris":{"android":"levelo://app?vid=e034918f-6004-4d26-b914-1a5da44e9d5f","ios":"levelo://app?vid=e034918f-6004-4d26-b914-1a5da44e9d5f"},"vehicle_type_id":"4","last_reported":1692716792,"current_range_meters":8000,"station_id":"ce4bhr12rcd13ifvqhpg","pricing_plan_id":"free"},{"bike_id":"1764a957-c27c-47ba-9836-527efe1d7679","system_id":"levelo_inurba_marseille","lat":43.313571,"lon":5.384829,"is_reserved":false,"is_disabled":false,"rental_uris":{"android":"levelo://app?vid=1764a957-c27c-47ba-9836-527efe1d7679","ios":"levelo://app?vid=1764a957-c27c-47ba-9836-527efe1d7679"},"vehicle_type_id":"4","last_reported":1692716792,"current_range_meters":31200,"station_id":"ce4bgt92rcd13ifvqcf0","pricing_plan_id":"free"},{"bike_id":"3d2c76a0-be00-4c8b-871a-a257ed9fac36","system_id":"levelo_inurba_marseille","lat":43.29937,"lon":5.36555,"is_reserved":false,"is_disabled":false,"rental_uris":{"android":"levelo://app?vid=3d2c76a0-be00-4c8b-871a-a257ed9fac36","ios":"levelo://app?vid=3d2c76a0-be00-4c8b-871a-a257ed9fac36"},"vehicle_type_id":"4","last_reported":1692716792,"current_range_meters":21200,"station_id":"ce4bgm92rcd13ifvqbr0","pricing_plan_id":"free"},{"bike_id":"460256f5-4977-460c-aae5-453b37723b11","system_id":"levelo_inurba_marseille","lat":43.299724,"lon":5.371829,"is_reserved":false,"is_disabled":false,"rental_uris":{"android":"levelo://app?vid=460256f5-4977-460c-aae5-453b37723b11","ios":"levelo://app?vid=460256f5-4977-460c-aae5-453b37723b11"},"vehicle_type_id":"4","last_reported":1692716792,"current_range_meters":22800,"station_id":"ce4bgr92rcd13ifvqc7g","pricing_plan_id":"free"},{"bike_id":"f6033b16-90b8-45c0-9818-a2b97d1e2190","system_id":"levelo_inurba_marseille","lat":43.299724,"lon":5.371829,"is_reserved":false,"is_disabled":false,"rental_uris":{"android":"levelo://app?vid=f6033b16-90b8-45c0-9818-a2b97d1e2190","ios":"levelo://app?vid=f6033b16-90b8-45c0-9818-a2b97d1e2190"},"vehicle_type_id":"4","last_reported":1692716792,"current_range_meters":0,"station_id":"ce4bgr92rcd13ifvqc7g","pricing_plan_id":"free"},{"bike_id":"486862f5-3fc4-4a5c-844e-889451de9430","system_id":"levelo_inurba_marseille","lat":43.29977,"lon":5.37172,"is_reserved":false,"is_disabled":false,"rental_uris":{"android":"levelo://app?vid=486862f5-3fc4-4a5c-844e-889451de9430","ios":"levelo://app?vid=486862f5-3fc4-4a5c-844e-889451de9430"},"vehicle_type_id":"4","last_reported":1692716792,"current_range_meters":28400,"station_id":"ce4bgr92rcd13ifvqc7g","pricing_plan_id":"free"},{"bike_id":"95dc9ecf-047e-4c3a-bb12-a5676cb36ad4","system_id":"levelo_inurba_marseille","lat":43.3216,"lon":5.38166,"is_reserved":false,"is_disabled":false,"rental_uris":{"android":"levelo://app?vid=95dc9ecf-047e-4c3a-bb12-a5676cb36ad4","ios":"levelo://app?vid=95dc9ecf-047e-4c3a-bb12-a5676cb36ad4"},"vehicle_type_id":"4","last_reported":1692716792,"current_range_meters":6800,"station_id":"","pricing_plan_id":"free"},{"bike_id":"33e362ee-7963-4dd9-8cd7-11d8d6ee2667","system_id":"levelo_inurba_marseille","lat":43.29855,"lon":5.3629,"is_reserved":false,"is_disabled":false,"rental_uris":{"android":"levelo://app?vid=33e362ee-7963-4dd9-8cd7-11d8d6ee2667","ios":"levelo://app?vid=33e362ee-7963-4dd9-8cd7-11d8d6ee2667"},"vehicle_type_id":"4","last_reported":1692716792,"current_range_meters":27200,"station_id":"ce4bgpp2rcd13ifvqc3g","pricing_plan_id":"free"},{"bike_id":"6498eac1-15ad-419c-b5c8-3da5a159248a","system_id":"levelo_inurba_marseille","lat":43.298433,"lon":5.362774,"is_reserved":false,"is_disabled":false,"rental_uris":{"android":"levelo://app?vid=6498eac1-15ad-419c-b5c8-3da5a159248a","ios":"levelo://app?vid=6498eac1-15ad-419c-b5c8-3da5a159248a"},"vehicle_type_id":"4","last_reported":1692716792,"current_range_meters":23600,"station_id":"ce4bgpp2rcd13ifvqc3g","pricing_plan_id":"free"},{"bike_id":"4657bf8a-ad0c-4243-9818-48d5de62ce64","system_id":"levelo_inurba_marseille","lat":43.29842,"lon":5.36263,"is_reserved":false,"is_disabled":false,"rental_uris":{"android":"levelo://app?vid=4657bf8a-ad0c-4243-9818-48d5de62ce64","ios":"levelo://app?vid=4657bf8a-ad0c-4243-9818-48d5de62ce64"},"vehicle_type_id":"4","last_reported":1692716792,"current_range_meters":31200,"station_id":"ce4bgpp2rcd13ifvqc3g","pricing_plan_id":"free"},{"bike_id":"b885f463-e8c5-42cc-902f-7152167ce1c7","system_id":"levelo_inurba_marseille","lat":43.299243,"lon":5.37481,"is_reserved":false,"is_disabled":false,"rental_uris":{"android":"levelo://app?vid=b885f463-e8c5-42cc-902f-7152167ce1c7","ios":"levelo://app?vid=b885f463-e8c5-42cc-902f-7152167ce1c7"},"vehicle_type_id":"4","last_reported":1692716792,"current_range_meters":31200,"station_id":"ce4bgjh2rcd13ifvqbg0","pricing_plan_id":"free"},{"bike_id":"a87c2fc9-7ff3-4050-ac19-d5cdb9d947f4","system_id":"levelo_inurba_marseille","lat":43.311722,"lon":5.387247,"is_reserved":false,"is_disabled":false,"rental_uris":{"android":"levelo://app?vid=a87c2fc9-7ff3-4050-ac19-d5cdb9d947f4","ios":"levelo://app?vid=a87c2fc9-7ff3-4050-ac19-d5cdb9d947f4"},"vehicle_type_id":"4","last_reported":1692716792,"current_range_meters":8000,"station_id":"ce4bgv12rcd13ifvqcp0","pricing_plan_id":"free"},{"bike_id":"48773837-8a01-4137-95bb-600dc54ff51e","system_id":"levelo_inurba_marseille","lat":43.32291,"lon":5.38242,"is_reserved":false,"is_disabled":false,"rental_uris":{"android":"levelo://app?vid=48773837-8a01-4137-95bb-600dc54ff51e","ios":"levelo://app?vid=48773837-8a01-4137-95bb-600dc54ff51e"},"vehicle_type_id":"4","last_reported":1692716792,"current_range_meters":28000,"station_id":"ce4bhr12rcd13ifvqhqg","pricing_plan_id":"free"},{"bike_id":"57b3c8e3-0546-49ca-a7f5-1c479f4487e4","system_id":"levelo_inurba_marseille","lat":43.32287,"lon":5.38267,"is_reserved":false,"is_disabled":false,"rental_uris":{"android":"levelo://app?vid=57b3c8e3-0546-49ca-a7f5-1c479f4487e4","ios":"levelo://app?vid=57b3c8e3-0546-49ca-a7f5-1c479f4487e4"},"vehicle_type_id":"4","last_reported":1692716792,"current_range_meters":28000,"station_id":"ce4bhr12rcd13ifvqhqg","pricing_plan_id":"free"},{"bike_id":"aa4d7b61-c42e-4663-81bc-a6886a60ac0e","system_id":"levelo_inurba_marseille","lat":43.32297,"lon":5.38257,"is_reserved":false,"is_disabled":false,"rental_uris":{"android":"levelo://app?vid=aa4d7b61-c42e-4663-81bc-a6886a60ac0e","ios":"levelo://app?vid=aa4d7b61-c42e-4663-81bc-a6886a60ac0e"},"vehicle_type_id":"4","last_reported":1692716792,"current_range_meters":26000,"station_id":"ce4bhr12rcd13ifvqhqg","pricing_plan_id":"free"},{"bike_id":"c4f64bda-f78b-44c7-8bdb-9d067cd420a4","system_id":"levelo_inurba_marseille","lat":43.32827,"lon":5.36668,"is_reserved":false,"is_disabled":false,"rental_uris":{"android":"levelo://app?vid=c4f64bda-f78b-44c7-8bdb-9d067cd420a4","ios":"levelo://app?vid=c4f64bda-f78b-44c7-8bdb-9d067cd420a4"},"vehicle_type_id":"4","last_reported":1692716792,"current_range_meters":24800,"station_id":"ce4bhs92rcd13ifvqi0g","pricing_plan_id":"free"},{"bike_id":"eb70974a-c524-46d9-b5be-026bf2b9f1f4","system_id":"levelo_inurba_marseille","lat":43.32832,"lon":5.36696,"is_reserved":false,"is_disabled":false,"rental_uris":{"android":"levelo://app?vid=eb70974a-c524-46d9-b5be-026bf2b9f1f4","ios":"levelo://app?vid=eb70974a-c524-46d9-b5be-026bf2b9f1f4"},"vehicle_type_id":"4","last_reported":1692716792,"current_range_meters":20800,"station_id":"ce4bhs92rcd13ifvqi0g","pricing_plan_id":"free"},{"bike_id":"dd789220-e7b5-42c1-b9dc-dc4243148021","system_id":"levelo_inurba_marseille","lat":43.297163,"lon":5.365866,"is_reserved":false,"is_disabled":false,"rental_uris":{"android":"levelo://app?vid=dd789220-e7b5-42c1-b9dc-dc4243148021","ios":"levelo://app?vid=dd789220-e7b5-42c1-b9dc-dc4243148021"},"vehicle_type_id":"4","last_reported":1692716792,"current_range_meters":31200,"station_id":"ce4bgn12rcd13ifvqbt0","pricing_plan_id":"free"},{"bike_id":"b72b4a1b-8d9a-4429-9dbd-b18c4b34a9a6","system_id":"levelo_inurba_marseille","lat":43.297163,"lon":5.365866,"is_reserved":false,"is_disabled":false,"rental_uris":{"android":"levelo://app?vid=b72b4a1b-8d9a-4429-9dbd-b18c4b34a9a6","ios":"levelo://app?vid=b72b4a1b-8d9a-4429-9dbd-b18c4b34a9a6"},"vehicle_type_id":"4","last_reported":1692716792,"current_range_meters":31600,"station_id":"ce4bgn12rcd13ifvqbt0","pricing_plan_id":"free"},{"bike_id":"d1901974-3cb5-4681-8951-dd691568bfac","system_id":"levelo_inurba_marseille","lat":43.297163,"lon":5.365866,"is_reserved":false,"is_disabled":false,"rental_uris":{"android":"levelo://app?vid=d1901974-3cb5-4681-8951-dd691568bfac","ios":"levelo://app?vid=d1901974-3cb5-4681-8951-dd691568bfac"},"vehicle_type_id":"4","last_reported":1692716792,"current_range_meters":15600,"station_id":"ce4bgn12rcd13ifvqbt0","pricing_plan_id":"free"},{"bike_id":"f32bfd29-abf7-4950-869b-b2ec494e014c","system_id":"levelo_inurba_marseille","lat":43.297163,"lon":5.365866,"is_reserved":false,"is_disabled":false,"rental_uris":{"android":"levelo://app?vid=f32bfd29-abf7-4950-869b-b2ec494e014c","ios":"levelo://app?vid=f32bfd29-abf7-4950-869b-b2ec494e014c"},"vehicle_type_id":"4","last_reported":1692716792,"current_range_meters":31200,"station_id":"ce4bgn12rcd13ifvqbt0","pricing_plan_id":"free"},{"bike_id":"61819081-2721-4a2d-9e7c-d138bb3e31d2","system_id":"levelo_inurba_marseille","lat":43.297163,"lon":5.365866,"is_reserved":false,"is_disabled":false,"rental_uris":{"android":"levelo://app?vid=61819081-2721-4a2d-9e7c-d138bb3e31d2","ios":"levelo://app?vid=61819081-2721-4a2d-9e7c-d138bb3e31d2"},"vehicle_type_id":"4","last_reported":1692716792,"current_range_meters":31200,"station_id":"ce4bgn12rcd13ifvqbt0","pricing_plan_id":"free"},{"bike_id":"a520c0e4-9a3e-4c8b-a582-27a7a0b5eb34","system_id":"levelo_inurba_marseille","lat":43.32848,"lon":5.36678,"is_reserved":false,"is_disabled":false,"rental_uris":{"android":"levelo://app?vid=a520c0e4-9a3e-4c8b-a582-27a7a0b5eb34","ios":"levelo://app?vid=a520c0e4-9a3e-4c8b-a582-27a7a0b5eb34"},"vehicle_type_id":"4","last_reported":1692716792,"current_range_meters":17200,"station_id":"ce4bhs92rcd13ifvqi0g","pricing_plan_id":"free"},{"bike_id":"36017930-83be-4972-9a55-0f20d3cb2a7f","system_id":"levelo_inurba_marseille","lat":43.2968,"lon":5.37291,"is_reserved":false,"is_disabled":false,"rental_uris":{"android":"levelo://app?vid=36017930-83be-4972-9a55-0f20d3cb2a7f","ios":"levelo://app?vid=36017930-83be-4972-9a55-0f20d3cb2a7f"},"vehicle_type_id":"4","last_reported":1692716792,"current_range_meters":23200,"station_id":"ce4bgk12rcd13ifvqbj0","pricing_plan_id":"free"},{"bike_id":"bb155e93-116e-494a-9911-2df351c7dae8","system_id":"levelo_inurba_marseille","lat":43.296129,"lon":5.370777,"is_reserved":false,"is_disabled":false,"rental_uris":{"android":"levelo://app?vid=bb155e93-116e-494a-9911-2df351c7dae8","ios":"levelo://app?vid=bb155e93-116e-494a-9911-2df351c7dae8"},"vehicle_type_id":"4","last_reported":1692716792,"current_range_meters":28800,"station_id":"ce4bgnh2rcd13ifvqc0g","pricing_plan_id":"free"},{"bike_id":"d3139180-8ba9-4c91-b6e4-8baae3c22113","system_id":"levelo_inurba_marseille","lat":43.29623,"lon":5.37153,"is_reserved":false,"is_disabled":false,"rental_uris":{"android":"levelo://app?vid=d3139180-8ba9-4c91-b6e4-8baae3c22113","ios":"levelo://app?vid=d3139180-8ba9-4c91-b6e4-8baae3c22113"},"vehicle_type_id":"4","last_reported":1692716792,"current_range_meters":30400,"station_id":"","pricing_plan_id":"free"},{"bike_id":"a4006dcb-7aaa-45de-b3ec-ca9fd271983e","system_id":"levelo_inurba_marseille","lat":43.2962,"lon":5.37142,"is_reserved":false,"is_disabled":false,"rental_uris":{"android":"levelo://app?vid=a4006dcb-7aaa-45de-b3ec-ca9fd271983e","ios":"levelo://app?vid=a4006dcb-7aaa-45de-b3ec-ca9fd271983e"},"vehicle_type_id":"4","last_reported":1692716792,"current_range_meters":26000,"station_id":"","pricing_plan_id":"free"},{"bike_id":"fa43f431-bb2b-4216-a4d0-2c99045a3cc1","system_id":"levelo_inurba_marseille","lat":43.29573,"lon":5.367355,"is_reserved":false,"is_disabled":false,"rental_uris":{"android":"levelo://app?vid=fa43f431-bb2b-4216-a4d0-2c99045a3cc1","ios":"levelo://app?vid=fa43f431-bb2b-4216-a4d0-2c99045a3cc1"},"vehicle_type_id":"4","last_reported":1692716792,"current_range_meters":22400,"station_id":"ce4bgph2rcd13ifvqc2g","pricing_plan_id":"free"},{"bike_id":"4eebe6ed-fd85-4961-a6f1-3eedfd1fd165","system_id":"levelo_inurba_marseille","lat":43.29573,"lon":5.367355,"is_reserved":false,"is_disabled":false,"rental_uris":{"android":"levelo://app?vid=4eebe6ed-fd85-4961-a6f1-3eedfd1fd165","ios":"levelo://app?vid=4eebe6ed-fd85-4961-a6f1-3eedfd1fd165"},"vehicle_type_id":"4","last_reported":1692716792,"current_range_meters":31200,"station_id":"ce4bgph2rcd13ifvqc2g","pricing_plan_id":"free"},{"bike_id":"1547e2a9-5ded-4d0b-a968-bf2c5e23e5c0","system_id":"levelo_inurba_marseille","lat":43.29573,"lon":5.367355,"is_reserved":false,"is_disabled":false,"rental_uris":{"android":"levelo://app?vid=1547e2a9-5ded-4d0b-a968-bf2c5e23e5c0","ios":"levelo://app?vid=1547e2a9-5ded-4d0b-a968-bf2c5e23e5c0"},"vehicle_type_id":"4","last_reported":1692716792,"current_range_meters":12400,"station_id":"ce4bgph2rcd13ifvqc2g","pricing_plan_id":"free"},{"bike_id":"bf03044f-63d9-488c-b60f-c9730543aa30","system_id":"levelo_inurba_marseille","lat":43.29573,"lon":5.367355,"is_reserved":false,"is_disabled":false,"rental_uris":{"android":"levelo://app?vid=bf03044f-63d9-488c-b60f-c9730543aa30","ios":"levelo://app?vid=bf03044f-63d9-488c-b60f-c9730543aa30"},"vehicle_type_id":"4","last_reported":1692716792,"current_range_meters":30000,"station_id":"ce4bgph2rcd13ifvqc2g","pricing_plan_id":"free"},{"bike_id":"2c93ce6f-c5e1-4ec9-9941-ebb7469bb8f2","system_id":"levelo_inurba_marseille","lat":43.31732,"lon":5.39009,"is_reserved":false,"is_disabled":false,"rental_uris":{"android":"levelo://app?vid=2c93ce6f-c5e1-4ec9-9941-ebb7469bb8f2","ios":"levelo://app?vid=2c93ce6f-c5e1-4ec9-9941-ebb7469bb8f2"},"vehicle_type_id":"4","last_reported":1692716792,"current_range_meters":27200,"station_id":"ce4bhqp2rcd13ifvqhng","pricing_plan_id":"free"},{"bike_id":"a4df99ce-0488-49dd-a888-94686f562e88","system_id":"levelo_inurba_marseille","lat":43.2957,"lon":5.37515,"is_reserved":false,"is_disabled":false,"rental_uris":{"android":"levelo://app?vid=a4df99ce-0488-49dd-a888-94686f562e88","ios":"levelo://app?vid=a4df99ce-0488-49dd-a888-94686f562e88"},"vehicle_type_id":"4","last_reported":1692716792,"current_range_meters":30000,"station_id":"ce4bgh92rcd13ifvqb50","pricing_plan_id":"free"},{"bike_id":"02612fc4-528c-4db4-8fdf-4f16e3846038","system_id":"levelo_inurba_marseille","lat":43.296277,"lon":5.377108,"is_reserved":false,"is_disabled":false,"rental_uris":{"android":"levelo://app?vid=02612fc4-528c-4db4-8fdf-4f16e3846038","ios":"levelo://app?vid=02612fc4-528c-4db4-8fdf-4f16e3846038"},"vehicle_type_id":"4","last_reported":1692716792,"current_range_meters":31200,"station_id":"ce4bgi92rcd13ifvqb90","pricing_plan_id":"free"},{"bike_id":"af1da328-8f73-487e-86c3-2344e1b13085","system_id":"levelo_inurba_marseille","lat":43.295279,"lon":5.375048,"is_reserved":false,"is_disabled":false,"rental_uris":{"android":"levelo://app?vid=af1da328-8f73-487e-86c3-2344e1b13085","ios":"levelo://app?vid=af1da328-8f73-487e-86c3-2344e1b13085"},"vehicle_type_id":"4","last_reported":1692716792,"current_range_meters":21200,"station_id":"ce4bgkp2rcd13ifvqbmg","pricing_plan_id":"free"},{"bike_id":"b2239b86-0c9d-4b05-ba9a-8399c5ae4522","system_id":"levelo_inurba_marseille","lat":43.295279,"lon":5.375048,"is_reserved":false,"is_disabled":false,"rental_uris":{"android":"levelo://app?vid=b2239b86-0c9d-4b05-ba9a-8399c5ae4522","ios":"levelo://app?vid=b2239b86-0c9d-4b05-ba9a-8399c5ae4522"},"vehicle_type_id":"4","last_reported":1692716792,"current_range_meters":1600,"station_id":"ce4bgkp2rcd13ifvqbmg","pricing_plan_id":"free"},{"bike_id":"ea2ebb83-5273-42d2-bfc8-45feb8456ebd","system_id":"levelo_inurba_marseille","lat":43.29522,"lon":5.3749,"is_reserved":false,"is_disabled":false,"rental_uris":{"android":"levelo://app?vid=ea2ebb83-5273-42d2-bfc8-45feb8456ebd","ios":"levelo://app?vid=ea2ebb83-5273-42d2-bfc8-45feb8456ebd"},"vehicle_type_id":"4","last_reported":1692716792,"current_range_meters":22800,"station_id":"ce4bgkp2rcd13ifvqbmg","pricing_plan_id":"free"},{"bike_id":"3e8f3fa7-7b9d-4f7b-9e71-a9f146e6eae5","system_id":"levelo_inurba_marseille","lat":43.299724,"lon":5.384848,"is_reserved":false,"is_disabled":false,"rental_uris":{"android":"levelo://app?vid=3e8f3fa7-7b9d-4f7b-9e71-a9f146e6eae5","ios":"levelo://app?vid=3e8f3fa7-7b9d-4f7b-9e71-a9f146e6eae5"},"vehicle_type_id":"4","last_reported":1692716792,"current_range_meters":10000,"station_id":"ce4bgj92rcd13ifvqbd0","pricing_plan_id":"free"},{"bike_id":"c5300209-05a3-48fe-bc32-134ab7296acd","system_id":"levelo_inurba_marseille","lat":43.32362,"lon":5.38875,"is_reserved":false,"is_disabled":false,"rental_uris":{"android":"levelo://app?vid=c5300209-05a3-48fe-bc32-134ab7296acd","ios":"levelo://app?vid=c5300209-05a3-48fe-bc32-134ab7296acd"},"vehicle_type_id":"4","last_reported":1692716792,"current_range_meters":26400,"station_id":"ce4bhqp2rcd13ifvqhog","pricing_plan_id":"free"},{"bike_id":"00883cd9-a56a-4720-bb55-237d0136a4a1","system_id":"levelo_inurba_marseille","lat":43.32367,"lon":5.38877,"is_reserved":false,"is_disabled":false,"rental_uris":{"android":"levelo://app?vid=00883cd9-a56a-4720-bb55-237d0136a4a1","ios":"levelo://app?vid=00883cd9-a56a-4720-bb55-237d0136a4a1"},"vehicle_type_id":"4","last_reported":1692716792,"current_range_meters":13200,"station_id":"ce4bhqp2rcd13ifvqhog","pricing_plan_id":"free"},{"bike_id":"4f0d603a-830b-4371-a7b4-8524012fa473","system_id":"levelo_inurba_marseille","lat":43.323712,"lon":5.388791,"is_reserved":false,"is_disabled":false,"rental_uris":{"android":"levelo://app?vid=4f0d603a-830b-4371-a7b4-8524012fa473","ios":"levelo://app?vid=4f0d603a-830b-4371-a7b4-8524012fa473"},"vehicle_type_id":"4","last_reported":1692716792,"current_range_meters":6800,"station_id":"ce4bhqp2rcd13ifvqhog","pricing_plan_id":"free"},{"bike_id":"6638d34a-5689-47d4-857b-5f315b3330bc","system_id":"levelo_inurba_marseille","lat":43.29601,"lon":5.381084,"is_reserved":false,"is_disabled":false,"rental_uris":{"android":"levelo://app?vid=6638d34a-5689-47d4-857b-5f315b3330bc","ios":"levelo://app?vid=6638d34a-5689-47d4-857b-5f315b3330bc"},"vehicle_type_id":"4","last_reported":1692716792,"current_range_meters":7600,"station_id":"ce4bgl12rcd13ifvqbo0","pricing_plan_id":"free"},{"bike_id":"c348d259-2e91-4a62-abba-485bb6398b28","system_id":"levelo_inurba_marseille","lat":43.29312,"lon":5.37181,"is_reserved":false,"is_disabled":false,"rental_uris":{"android":"levelo://app?vid=c348d259-2e91-4a62-abba-485bb6398b28","ios":"levelo://app?vid=c348d259-2e91-4a62-abba-485bb6398b28"},"vehicle_type_id":"4","last_reported":1692716792,"current_range_meters":15600,"station_id":"ce4bgh92rcd13ifvqb40","pricing_plan_id":"free"},{"bike_id":"d8519647-19ce-4c78-b0d1-6a2314908389","system_id":"levelo_inurba_marseille","lat":43.31874,"lon":5.39362,"is_reserved":false,"is_disabled":false,"rental_uris":{"android":"levelo://app?vid=d8519647-19ce-4c78-b0d1-6a2314908389","ios":"levelo://app?vid=d8519647-19ce-4c78-b0d1-6a2314908389"},"vehicle_type_id":"4","last_reported":1692716792,"current_range_meters":26800,"station_id":"","pricing_plan_id":"free"},{"bike_id":"38fef587-7cc5-4800-b069-87b8f296a10a","system_id":"levelo_inurba_marseille","lat":43.29304,"lon":5.37452,"is_reserved":false,"is_disabled":false,"rental_uris":{"android":"levelo://app?vid=38fef587-7cc5-4800-b069-87b8f296a10a","ios":"levelo://app?vid=38fef587-7cc5-4800-b069-87b8f296a10a"},"vehicle_type_id":"4","last_reported":1692716792,"current_range_meters":31200,"station_id":"ce4bgi12rcd13ifvqb70","pricing_plan_id":"free"},{"bike_id":"0724f352-a262-45b7-9b71-9a09ff17d945","system_id":"levelo_inurba_marseille","lat":43.30298,"lon":5.39211,"is_reserved":false,"is_disabled":false,"rental_uris":{"android":"levelo://app?vid=0724f352-a262-45b7-9b71-9a09ff17d945","ios":"levelo://app?vid=0724f352-a262-45b7-9b71-9a09ff17d945"},"vehicle_type_id":"4","last_reported":1692716792,"current_range_meters":31200,"station_id":"ce4bgkh2rcd13ifvqbk0","pricing_plan_id":"free"},{"bike_id":"4490755d-4d8a-44b8-bf3c-2e3783f86566","system_id":"levelo_inurba_marseille","lat":43.2936,"lon":5.37835,"is_reserved":false,"is_disabled":false,"rental_uris":{"android":"levelo://app?vid=4490755d-4d8a-44b8-bf3c-2e3783f86566","ios":"levelo://app?vid=4490755d-4d8a-44b8-bf3c-2e3783f86566"},"vehicle_type_id":"4","last_reported":1692716792,"current_range_meters":13200,"station_id":"ce4bgjh2rcd13ifvqbf0","pricing_plan_id":"free"},{"bike_id":"05dcb724-7ddb-409e-83ea-680e6b427151","system_id":"levelo_inurba_marseille","lat":43.291994,"lon":5.357886,"is_reserved":false,"is_disabled":false,"rental_uris":{"android":"levelo://app?vid=05dcb724-7ddb-409e-83ea-680e6b427151","ios":"levelo://app?vid=05dcb724-7ddb-409e-83ea-680e6b427151"},"vehicle_type_id":"4","last_reported":1692716792,"current_range_meters":1200,"station_id":"ce4bhb12rcd13ifvqel0","pricing_plan_id":"free"},{"bike_id":"65a337ec-4909-44de-858f-5a88951d4e58","system_id":"levelo_inurba_marseille","lat":43.308871,"lon":5.396616,"is_reserved":false,"is_disabled":false,"rental_uris":{"android":"levelo://app?vid=65a337ec-4909-44de-858f-5a88951d4e58","ios":"levelo://app?vid=65a337ec-4909-44de-858f-5a88951d4e58"},"vehicle_type_id":"4","last_reported":1692716792,"current_range_meters":6800,"station_id":"ce4bh012rcd13ifvqcv0","pricing_plan_id":"free"},{"bike_id":"39b5b5cf-86ef-48ea-a176-58e554756417","system_id":"levelo_inurba_marseille","lat":43.302008,"lon":5.394694,"is_reserved":false,"is_disabled":false,"rental_uris":{"android":"levelo://app?vid=39b5b5cf-86ef-48ea-a176-58e554756417","ios":"levelo://app?vid=39b5b5cf-86ef-48ea-a176-58e554756417"},"vehicle_type_id":"4","last_reported":1692716792,"current_range_meters":31200,"station_id":"ce4bh0p2rcd13ifvqd70","pricing_plan_id":"free"},{"bike_id":"bfe7f396-e363-404e-8404-68c8dd858e2f","system_id":"levelo_inurba_marseille","lat":43.29051,"lon":5.35919,"is_reserved":false,"is_disabled":false,"rental_uris":{"android":"levelo://app?vid=bfe7f396-e363-404e-8404-68c8dd858e2f","ios":"levelo://app?vid=bfe7f396-e363-404e-8404-68c8dd858e2f"},"vehicle_type_id":"4","last_reported":1692716792,"current_range_meters":9200,"station_id":"","pricing_plan_id":"free"},{"bike_id":"f9aafaa9-e993-4eda-bf2c-bcc8deb720d3","system_id":"levelo_inurba_marseille","lat":43.289468,"lon":5.363719,"is_reserved":false,"is_disabled":false,"rental_uris":{"android":"levelo://app?vid=f9aafaa9-e993-4eda-bf2c-bcc8deb720d3","ios":"levelo://app?vid=f9aafaa9-e993-4eda-bf2c-bcc8deb720d3"},"vehicle_type_id":"4","last_reported":1692716792,"current_range_meters":26800,"station_id":"ce4bhc92rcd13ifvqetg","pricing_plan_id":"free"},{"bike_id":"efdd5993-28d6-46a2-8fea-abd19db579db","system_id":"levelo_inurba_marseille","lat":43.289468,"lon":5.363719,"is_reserved":false,"is_disabled":false,"rental_uris":{"android":"levelo://app?vid=efdd5993-28d6-46a2-8fea-abd19db579db","ios":"levelo://app?vid=efdd5993-28d6-46a2-8fea-abd19db579db"},"vehicle_type_id":"4","last_reported":1692716792,"current_range_meters":23200,"station_id":"ce4bhc92rcd13ifvqetg","pricing_plan_id":"free"},{"bike_id":"9ab9efdc-33a9-4c1c-9083-0cd955c44042","system_id":"levelo_inurba_marseille","lat":43.304274,"lon":5.397513,"is_reserved":false,"is_disabled":false,"rental_uris":{"android":"levelo://app?vid=9ab9efdc-33a9-4c1c-9083-0cd955c44042","ios":"levelo://app?vid=9ab9efdc-33a9-4c1c-9083-0cd955c44042"},"vehicle_type_id":"4","last_reported":1692716792,"current_range_meters":18000,"station_id":"ce4bh092rcd13ifvqd20","pricing_plan_id":"free"},{"bike_id":"845aae74-d4e3-4b5b-be10-990c1a3c2086","system_id":"levelo_inurba_marseille","lat":43.33037,"lon":5.38916,"is_reserved":false,"is_disabled":false,"rental_uris":{"android":"levelo://app?vid=845aae74-d4e3-4b5b-be10-990c1a3c2086","ios":"levelo://app?vid=845aae74-d4e3-4b5b-be10-990c1a3c2086"},"vehicle_type_id":"4","last_reported":1692716792,"current_range_meters":30400,"station_id":"ce4bhr92rcd13ifvqhrg","pricing_plan_id":"free"},{"bike_id":"cb0ed4ce-59ba-44de-b9d0-d39a432ad945","system_id":"levelo_inurba_marseille","lat":43.290073,"lon":5.356199,"is_reserved":false,"is_disabled":false,"rental_uris":{"android":"levelo://app?vid=cb0ed4ce-59ba-44de-b9d0-d39a432ad945","ios":"levelo://app?vid=cb0ed4ce-59ba-44de-b9d0-d39a432ad945"},"vehicle_type_id":"4","last_reported":1692716792,"current_range_meters":26000,"station_id":"ce4bhb92rcd13ifvqen0","pricing_plan_id":"free"},{"bike_id":"7691d65d-d321-467f-86e8-b26ac6013c5b","system_id":"levelo_inurba_marseille","lat":43.33043,"lon":5.38917,"is_reserved":false,"is_disabled":false,"rental_uris":{"android":"levelo://app?vid=7691d65d-d321-467f-86e8-b26ac6013c5b","ios":"levelo://app?vid=7691d65d-d321-467f-86e8-b26ac6013c5b"},"vehicle_type_id":"4","last_reported":1692716792,"current_range_meters":28400,"station_id":"ce4bhr92rcd13ifvqhrg","pricing_plan_id":"free"},{"bike_id":"b0e0ae0a-2bc1-4a56-890f-24dc2485e7d8","system_id":"levelo_inurba_marseille","lat":43.33041,"lon":5.38921,"is_reserved":false,"is_disabled":false,"rental_uris":{"android":"levelo://app?vid=b0e0ae0a-2bc1-4a56-890f-24dc2485e7d8","ios":"levelo://app?vid=b0e0ae0a-2bc1-4a56-890f-24dc2485e7d8"},"vehicle_type_id":"4","last_reported":1692716792,"current_range_meters":26000,"station_id":"ce4bhr92rcd13ifvqhrg","pricing_plan_id":"free"},{"bike_id":"ae12a8f0-200d-4c74-9e8f-dd19d9d9f868","system_id":"levelo_inurba_marseille","lat":43.30476,"lon":5.39802,"is_reserved":false,"is_disabled":false,"rental_uris":{"android":"levelo://app?vid=ae12a8f0-200d-4c74-9e8f-dd19d9d9f868","ios":"levelo://app?vid=ae12a8f0-200d-4c74-9e8f-dd19d9d9f868"},"vehicle_type_id":"4","last_reported":1692716792,"current_range_meters":6400,"station_id":"","pricing_plan_id":"free"},{"bike_id":"a3d49bc9-fe1e-44e4-95a1-f6194cfa7d35","system_id":"levelo_inurba_marseille","lat":43.33043,"lon":5.38923,"is_reserved":false,"is_disabled":false,"rental_uris":{"android":"levelo://app?vid=a3d49bc9-fe1e-44e4-95a1-f6194cfa7d35","ios":"levelo://app?vid=a3d49bc9-fe1e-44e4-95a1-f6194cfa7d35"},"vehicle_type_id":"4","last_reported":1692716792,"current_range_meters":26800,"station_id":"ce4bhr92rcd13ifvqhrg","pricing_plan_id":"free"},{"bike_id":"6ed0c82a-03cb-458e-b1a1-39e6865a4f55","system_id":"levelo_inurba_marseille","lat":43.29004,"lon":5.35614,"is_reserved":false,"is_disabled":false,"rental_uris":{"android":"levelo://app?vid=6ed0c82a-03cb-458e-b1a1-39e6865a4f55","ios":"levelo://app?vid=6ed0c82a-03cb-458e-b1a1-39e6865a4f55"},"vehicle_type_id":"4","last_reported":1692716792,"current_range_meters":20000,"station_id":"ce4bhb92rcd13ifvqen0","pricing_plan_id":"free"},{"bike_id":"62732d91-77aa-4193-b5f8-0e6a02dcce21","system_id":"levelo_inurba_marseille","lat":43.295169,"lon":5.390426,"is_reserved":false,"is_disabled":false,"rental_uris":{"android":"levelo://app?vid=62732d91-77aa-4193-b5f8-0e6a02dcce21","ios":"levelo://app?vid=62732d91-77aa-4193-b5f8-0e6a02dcce21"},"vehicle_type_id":"4","last_reported":1692716792,"current_range_meters":15200,"station_id":"ce4bh3p2rcd13ifvqdp0","pricing_plan_id":"free"},{"bike_id":"d2a040a7-d5b2-4d6d-a89d-8fa40d00a1d7","system_id":"levelo_inurba_marseille","lat":43.29019,"lon":5.3812,"is_reserved":false,"is_disabled":false,"rental_uris":{"android":"levelo://app?vid=d2a040a7-d5b2-4d6d-a89d-8fa40d00a1d7","ios":"levelo://app?vid=d2a040a7-d5b2-4d6d-a89d-8fa40d00a1d7"},"vehicle_type_id":"4","last_reported":1692716792,"current_range_meters":14000,"station_id":"ce4bh4p2rcd13ifvqe1g","pricing_plan_id":"free"},{"bike_id":"22e13f00-eb9c-4859-b6f2-bb44665a9a11","system_id":"levelo_inurba_marseille","lat":43.30927,"lon":5.40133,"is_reserved":false,"is_disabled":false,"rental_uris":{"android":"levelo://app?vid=22e13f00-eb9c-4859-b6f2-bb44665a9a11","ios":"levelo://app?vid=22e13f00-eb9c-4859-b6f2-bb44665a9a11"},"vehicle_type_id":"4","last_reported":1692716792,"current_range_meters":30400,"station_id":"ce4bgvp2rcd13ifvqct0","pricing_plan_id":"free"},{"bike_id":"2fc66d89-21e7-40d5-b0b0-803905e3a71b","system_id":"levelo_inurba_marseille","lat":43.312609,"lon":5.401662,"is_reserved":false,"is_disabled":false,"rental_uris":{"android":"levelo://app?vid=2fc66d89-21e7-40d5-b0b0-803905e3a71b","ios":"levelo://app?vid=2fc66d89-21e7-40d5-b0b0-803905e3a71b"},"vehicle_type_id":"4","last_reported":1692716792,"current_range_meters":24400,"station_id":"ce4bh092rcd13ifvqd30","pricing_plan_id":"free"},{"bike_id":"b0933e4a-be41-4e7f-b5cb-11fa57384a25","system_id":"levelo_inurba_marseille","lat":43.30646,"lon":5.40089,"is_reserved":false,"is_disabled":false,"rental_uris":{"android":"levelo://app?vid=b0933e4a-be41-4e7f-b5cb-11fa57384a25","ios":"levelo://app?vid=b0933e4a-be41-4e7f-b5cb-11fa57384a25"},"vehicle_type_id":"4","last_reported":1692716792,"current_range_meters":18000,"station_id":"ce4bh112rcd13ifvqda0","pricing_plan_id":"free"},{"bike_id":"9ce0fbe0-d4ec-48f3-8e3e-b86784c22339","system_id":"levelo_inurba_marseille","lat":43.30141,"lon":5.39847,"is_reserved":false,"is_disabled":false,"rental_uris":{"android":"levelo://app?vid=9ce0fbe0-d4ec-48f3-8e3e-b86784c22339","ios":"levelo://app?vid=9ce0fbe0-d4ec-48f3-8e3e-b86784c22339"},"vehicle_type_id":"4","last_reported":1692716792,"current_range_meters":27200,"station_id":"ce4bh0h2rcd13ifvqd40","pricing_plan_id":"free"},{"bike_id":"501acb75-a677-416a-bebc-ae0146c00ebe","system_id":"levelo_inurba_marseille","lat":43.30141,"lon":5.39851,"is_reserved":false,"is_disabled":false,"rental_uris":{"android":"levelo://app?vid=501acb75-a677-416a-bebc-ae0146c00ebe","ios":"levelo://app?vid=501acb75-a677-416a-bebc-ae0146c00ebe"},"vehicle_type_id":"4","last_reported":1692716792,"current_range_meters":0,"station_id":"ce4bh0h2rcd13ifvqd40","pricing_plan_id":"free"},{"bike_id":"192f53dc-21d7-4f4e-93ad-97fc2f98e488","system_id":"levelo_inurba_marseille","lat":43.30133,"lon":5.39866,"is_reserved":false,"is_disabled":false,"rental_uris":{"android":"levelo://app?vid=192f53dc-21d7-4f4e-93ad-97fc2f98e488","ios":"levelo://app?vid=192f53dc-21d7-4f4e-93ad-97fc2f98e488"},"vehicle_type_id":"4","last_reported":1692716792,"current_range_meters":8400,"station_id":"ce4bh0h2rcd13ifvqd40","pricing_plan_id":"free"},{"bike_id":"48b7c413-31fd-4c64-aaa3-39fc66c456c5","system_id":"levelo_inurba_marseille","lat":43.30126,"lon":5.3987,"is_reserved":false,"is_disabled":false,"rental_uris":{"android":"levelo://app?vid=48b7c413-31fd-4c64-aaa3-39fc66c456c5","ios":"levelo://app?vid=48b7c413-31fd-4c64-aaa3-39fc66c456c5"},"vehicle_type_id":"4","last_reported":1692716792,"current_range_meters":28400,"station_id":"ce4bh0h2rcd13ifvqd40","pricing_plan_id":"free"},{"bike_id":"6b8573e3-dd4a-4cd0-890e-a0bc600efcc9","system_id":"levelo_inurba_marseille","lat":43.286961,"lon":5.373785,"is_reserved":false,"is_disabled":false,"rental_uris":{"android":"levelo://app?vid=6b8573e3-dd4a-4cd0-890e-a0bc600efcc9","ios":"levelo://app?vid=6b8573e3-dd4a-4cd0-890e-a0bc600efcc9"},"vehicle_type_id":"4","last_reported":1692716792,"current_range_meters":13200,"station_id":"ce4bh3p2rcd13ifvqdq0","pricing_plan_id":"free"},{"bike_id":"75199276-b705-4ad7-b6a9-49aeaa84628a","system_id":"levelo_inurba_marseille","lat":43.286591,"lon":5.363346,"is_reserved":false,"is_disabled":false,"rental_uris":{"android":"levelo://app?vid=75199276-b705-4ad7-b6a9-49aeaa84628a","ios":"levelo://app?vid=75199276-b705-4ad7-b6a9-49aeaa84628a"},"vehicle_type_id":"4","last_reported":1692716792,"current_range_meters":28800,"station_id":"ce4bhah2rcd13ifvqej0","pricing_plan_id":"free"},{"bike_id":"e69bdf42-477b-4894-b5d3-2c747db28f27","system_id":"levelo_inurba_marseille","lat":43.328119,"lon":5.396442,"is_reserved":false,"is_disabled":false,"rental_uris":{"android":"levelo://app?vid=e69bdf42-477b-4894-b5d3-2c747db28f27","ios":"levelo://app?vid=e69bdf42-477b-4894-b5d3-2c747db28f27"},"vehicle_type_id":"4","last_reported":1692716792,"current_range_meters":14800,"station_id":"","pricing_plan_id":"free"},{"bike_id":"7f3a94ed-cf82-4904-b528-2ab8dbce6659","system_id":"levelo_inurba_marseille","lat":43.290318,"lon":5.38651,"is_reserved":false,"is_disabled":false,"rental_uris":{"android":"levelo://app?vid=7f3a94ed-cf82-4904-b528-2ab8dbce6659","ios":"levelo://app?vid=7f3a94ed-cf82-4904-b528-2ab8dbce6659"},"vehicle_type_id":"4","last_reported":1692716792,"current_range_meters":19600,"station_id":"","pricing_plan_id":"free"},{"bike_id":"90086a3b-0ce5-4469-890f-f92eaaeb2db2","system_id":"levelo_inurba_marseille","lat":43.290336,"lon":5.386425,"is_reserved":false,"is_disabled":false,"rental_uris":{"android":"levelo://app?vid=90086a3b-0ce5-4469-890f-f92eaaeb2db2","ios":"levelo://app?vid=90086a3b-0ce5-4469-890f-f92eaaeb2db2"},"vehicle_type_id":"4","last_reported":1692716792,"current_range_meters":23600,"station_id":"ce4bh4p2rcd13ifvqe0g","pricing_plan_id":"free"},{"bike_id":"53a27181-9e38-4f03-82a9-f9c69656ec9f","system_id":"levelo_inurba_marseille","lat":43.286039,"lon":5.370681,"is_reserved":false,"is_disabled":false,"rental_uris":{"android":"levelo://app?vid=53a27181-9e38-4f03-82a9-f9c69656ec9f","ios":"levelo://app?vid=53a27181-9e38-4f03-82a9-f9c69656ec9f"},"vehicle_type_id":"4","last_reported":1692716792,"current_range_meters":18800,"station_id":"ce4bht12rcd13ifvqi60","pricing_plan_id":"free"},{"bike_id":"996b3fba-b917-44db-9cd2-2e47419af7e4","system_id":"levelo_inurba_marseille","lat":43.287185,"lon":5.379373,"is_reserved":false,"is_disabled":false,"rental_uris":{"android":"levelo://app?vid=996b3fba-b917-44db-9cd2-2e47419af7e4","ios":"levelo://app?vid=996b3fba-b917-44db-9cd2-2e47419af7e4"},"vehicle_type_id":"4","last_reported":1692716792,"current_range_meters":22000,"station_id":"ce4bh9p2rcd13ifvqec0","pricing_plan_id":"free"},{"bike_id":"530c7869-fb49-49d7-adcb-f3e183a4e682","system_id":"levelo_inurba_marseille","lat":43.316517,"lon":5.404375,"is_reserved":false,"is_disabled":false,"rental_uris":{"android":"levelo://app?vid=530c7869-fb49-49d7-adcb-f3e183a4e682","ios":"levelo://app?vid=530c7869-fb49-49d7-adcb-f3e183a4e682"},"vehicle_type_id":"4","last_reported":1692716792,"current_range_meters":0,"station_id":"ce4bh012rcd13ifvqd00","pricing_plan_id":"free"},{"bike_id":"7da9e437-1e79-4b5f-9ab0-65254ac17dd7","system_id":"levelo_inurba_marseille","lat":43.31665,"lon":5.40447,"is_reserved":false,"is_disabled":false,"rental_uris":{"android":"levelo://app?vid=7da9e437-1e79-4b5f-9ab0-65254ac17dd7","ios":"levelo://app?vid=7da9e437-1e79-4b5f-9ab0-65254ac17dd7"},"vehicle_type_id":"4","last_reported":1692716792,"current_range_meters":31200,"station_id":"ce4bh012rcd13ifvqd00","pricing_plan_id":"free"},{"bike_id":"e87e555a-9199-4b85-aaf1-b84c91e88162","system_id":"levelo_inurba_marseille","lat":43.284538,"lon":5.358657,"is_reserved":false,"is_disabled":false,"rental_uris":{"android":"levelo://app?vid=e87e555a-9199-4b85-aaf1-b84c91e88162","ios":"levelo://app?vid=e87e555a-9199-4b85-aaf1-b84c91e88162"},"vehicle_type_id":"4","last_reported":1692716792,"current_range_meters":21600,"station_id":"ce4bhah2rcd13ifvqei0","pricing_plan_id":"free"},{"bike_id":"c7fa2bb2-6f2f-4921-86b4-a03ef2ec84bc","system_id":"levelo_inurba_marseille","lat":43.28463,"lon":5.35891,"is_reserved":false,"is_disabled":false,"rental_uris":{"android":"levelo://app?vid=c7fa2bb2-6f2f-4921-86b4-a03ef2ec84bc","ios":"levelo://app?vid=c7fa2bb2-6f2f-4921-86b4-a03ef2ec84bc"},"vehicle_type_id":"4","last_reported":1692716792,"current_range_meters":0,"station_id":"ce4bhah2rcd13ifvqei0","pricing_plan_id":"free"},{"bike_id":"61735bab-f7dd-4b5c-b3ba-32904e679e6d","system_id":"levelo_inurba_marseille","lat":43.284613,"lon":5.35901,"is_reserved":false,"is_disabled":false,"rental_uris":{"android":"levelo://app?vid=61735bab-f7dd-4b5c-b3ba-32904e679e6d","ios":"levelo://app?vid=61735bab-f7dd-4b5c-b3ba-32904e679e6d"},"vehicle_type_id":"4","last_reported":1692716792,"current_range_meters":18000,"station_id":"ce4bhah2rcd13ifvqei0","pricing_plan_id":"free"},{"bike_id":"8078e323-ec50-4871-9a9f-fa3b24975a11","system_id":"levelo_inurba_marseille","lat":43.285856,"lon":5.350771,"is_reserved":false,"is_disabled":false,"rental_uris":{"android":"levelo://app?vid=8078e323-ec50-4871-9a9f-fa3b24975a11","ios":"levelo://app?vid=8078e323-ec50-4871-9a9f-fa3b24975a11"},"vehicle_type_id":"4","last_reported":1692716792,"current_range_meters":31200,"station_id":"ce4bhch2rcd13ifvqeug","pricing_plan_id":"free"},{"bike_id":"b4babb76-a523-4099-b86f-797e0a90b8e6","system_id":"levelo_inurba_marseille","lat":43.2862,"lon":5.35103,"is_reserved":false,"is_disabled":false,"rental_uris":{"android":"levelo://app?vid=b4babb76-a523-4099-b86f-797e0a90b8e6","ios":"levelo://app?vid=b4babb76-a523-4099-b86f-797e0a90b8e6"},"vehicle_type_id":"4","last_reported":1692716792,"current_range_meters":17600,"station_id":"ce4bhch2rcd13ifvqeug","pricing_plan_id":"free"},{"bike_id":"2fb706f0-92b0-43c0-a0ec-c39aa0db220c","system_id":"levelo_inurba_marseille","lat":43.2862,"lon":5.35103,"is_reserved":false,"is_disabled":false,"rental_uris":{"android":"levelo://app?vid=2fb706f0-92b0-43c0-a0ec-c39aa0db220c","ios":"levelo://app?vid=2fb706f0-92b0-43c0-a0ec-c39aa0db220c"},"vehicle_type_id":"4","last_reported":1692716792,"current_range_meters":28800,"station_id":"ce4bhch2rcd13ifvqeug","pricing_plan_id":"free"},{"bike_id":"faa9f4c1-9f99-4256-aa53-07103553689a","system_id":"levelo_inurba_marseille","lat":43.286179,"lon":5.351078,"is_reserved":false,"is_disabled":false,"rental_uris":{"android":"levelo://app?vid=faa9f4c1-9f99-4256-aa53-07103553689a","ios":"levelo://app?vid=faa9f4c1-9f99-4256-aa53-07103553689a"},"vehicle_type_id":"4","last_reported":1692716792,"current_range_meters":14400,"station_id":"ce4bhch2rcd13ifvqeug","pricing_plan_id":"free"},{"bike_id":"6bbe974b-7c27-4a29-a7ee-11a5e4f31584","system_id":"levelo_inurba_marseille","lat":43.28619,"lon":5.351,"is_reserved":false,"is_disabled":false,"rental_uris":{"android":"levelo://app?vid=6bbe974b-7c27-4a29-a7ee-11a5e4f31584","ios":"levelo://app?vid=6bbe974b-7c27-4a29-a7ee-11a5e4f31584"},"vehicle_type_id":"4","last_reported":1692716792,"current_range_meters":24800,"station_id":"ce4bhch2rcd13ifvqeug","pricing_plan_id":"free"},{"bike_id":"25918e11-4dea-4965-9979-d793dd53b173","system_id":"levelo_inurba_marseille","lat":43.285856,"lon":5.350771,"is_reserved":false,"is_disabled":false,"rental_uris":{"android":"levelo://app?vid=25918e11-4dea-4965-9979-d793dd53b173","ios":"levelo://app?vid=25918e11-4dea-4965-9979-d793dd53b173"},"vehicle_type_id":"4","last_reported":1692716792,"current_range_meters":31200,"station_id":"ce4bhch2rcd13ifvqeug","pricing_plan_id":"free"},{"bike_id":"0629c5b9-f673-46ff-a93d-942d4a6f321c","system_id":"levelo_inurba_marseille","lat":43.28619,"lon":5.35099,"is_reserved":false,"is_disabled":false,"rental_uris":{"android":"levelo://app?vid=0629c5b9-f673-46ff-a93d-942d4a6f321c","ios":"levelo://app?vid=0629c5b9-f673-46ff-a93d-942d4a6f321c"},"vehicle_type_id":"4","last_reported":1692716792,"current_range_meters":31200,"station_id":"ce4bhch2rcd13ifvqeug","pricing_plan_id":"free"},{"bike_id":"52c236de-7130-4d40-a6bf-f0b9e6085659","system_id":"levelo_inurba_marseille","lat":43.28617,"lon":5.35104,"is_reserved":false,"is_disabled":false,"rental_uris":{"android":"levelo://app?vid=52c236de-7130-4d40-a6bf-f0b9e6085659","ios":"levelo://app?vid=52c236de-7130-4d40-a6bf-f0b9e6085659"},"vehicle_type_id":"4","last_reported":1692716792,"current_range_meters":17600,"station_id":"ce4bhch2rcd13ifvqeug","pricing_plan_id":"free"},{"bike_id":"62920862-f536-47dc-ae4f-0dd31520453b","system_id":"levelo_inurba_marseille","lat":43.28615,"lon":5.351058,"is_reserved":false,"is_disabled":false,"rental_uris":{"android":"levelo://app?vid=62920862-f536-47dc-ae4f-0dd31520453b","ios":"levelo://app?vid=62920862-f536-47dc-ae4f-0dd31520453b"},"vehicle_type_id":"4","last_reported":1692716792,"current_range_meters":9200,"station_id":"ce4bhch2rcd13ifvqeug","pricing_plan_id":"free"},{"bike_id":"c7c2cf17-253f-4b8d-a47d-7136af8156af","system_id":"levelo_inurba_marseille","lat":43.28615,"lon":5.35104,"is_reserved":false,"is_disabled":false,"rental_uris":{"android":"levelo://app?vid=c7c2cf17-253f-4b8d-a47d-7136af8156af","ios":"levelo://app?vid=c7c2cf17-253f-4b8d-a47d-7136af8156af"},"vehicle_type_id":"4","last_reported":1692716792,"current_range_meters":25600,"station_id":"ce4bhch2rcd13ifvqeug","pricing_plan_id":"free"},{"bike_id":"834aea52-8495-473b-ac98-d99b34db80b3","system_id":"levelo_inurba_marseille","lat":43.28614,"lon":5.35107,"is_reserved":false,"is_disabled":false,"rental_uris":{"android":"levelo://app?vid=834aea52-8495-473b-ac98-d99b34db80b3","ios":"levelo://app?vid=834aea52-8495-473b-ac98-d99b34db80b3"},"vehicle_type_id":"4","last_reported":1692716792,"current_range_meters":8800,"station_id":"ce4bhch2rcd13ifvqeug","pricing_plan_id":"free"},{"bike_id":"f92c4d62-67b8-48d5-a447-e53302a3a1b3","system_id":"levelo_inurba_marseille","lat":43.28612,"lon":5.35113,"is_reserved":false,"is_disabled":false,"rental_uris":{"android":"levelo://app?vid=f92c4d62-67b8-48d5-a447-e53302a3a1b3","ios":"levelo://app?vid=f92c4d62-67b8-48d5-a447-e53302a3a1b3"},"vehicle_type_id":"4","last_reported":1692716792,"current_range_meters":15200,"station_id":"ce4bhch2rcd13ifvqeug","pricing_plan_id":"free"},{"bike_id":"9f447a9f-be6b-4b1d-b9ef-d87fa99811a2","system_id":"levelo_inurba_marseille","lat":43.28612,"lon":5.35111,"is_reserved":false,"is_disabled":false,"rental_uris":{"android":"levelo://app?vid=9f447a9f-be6b-4b1d-b9ef-d87fa99811a2","ios":"levelo://app?vid=9f447a9f-be6b-4b1d-b9ef-d87fa99811a2"},"vehicle_type_id":"4","last_reported":1692716792,"current_range_meters":13200,"station_id":"ce4bhch2rcd13ifvqeug","pricing_plan_id":"free"},{"bike_id":"111d18bb-72d4-440a-a602-10dbebf1f0cb","system_id":"levelo_inurba_marseille","lat":43.28616,"lon":5.35098,"is_reserved":false,"is_disabled":false,"rental_uris":{"android":"levelo://app?vid=111d18bb-72d4-440a-a602-10dbebf1f0cb","ios":"levelo://app?vid=111d18bb-72d4-440a-a602-10dbebf1f0cb"},"vehicle_type_id":"4","last_reported":1692716792,"current_range_meters":22000,"station_id":"ce4bhch2rcd13ifvqeug","pricing_plan_id":"free"},{"bike_id":"35eec3a1-aa54-4990-8eb4-78e6c0dd24d0","system_id":"levelo_inurba_marseille","lat":43.28616,"lon":5.35096,"is_reserved":false,"is_disabled":false,"rental_uris":{"android":"levelo://app?vid=35eec3a1-aa54-4990-8eb4-78e6c0dd24d0","ios":"levelo://app?vid=35eec3a1-aa54-4990-8eb4-78e6c0dd24d0"},"vehicle_type_id":"4","last_reported":1692716792,"current_range_meters":18800,"station_id":"ce4bhch2rcd13ifvqeug","pricing_plan_id":"free"},{"bike_id":"bd9be685-db05-4921-86d6-17a18186f3d5","system_id":"levelo_inurba_marseille","lat":43.28614,"lon":5.35102,"is_reserved":false,"is_disabled":false,"rental_uris":{"android":"levelo://app?vid=bd9be685-db05-4921-86d6-17a18186f3d5","ios":"levelo://app?vid=bd9be685-db05-4921-86d6-17a18186f3d5"},"vehicle_type_id":"4","last_reported":1692716792,"current_range_meters":30400,"station_id":"ce4bhch2rcd13ifvqeug","pricing_plan_id":"free"},{"bike_id":"a5e126fe-d230-4324-ac2f-6bb0ed99250e","system_id":"levelo_inurba_marseille","lat":43.28613,"lon":5.35104,"is_reserved":false,"is_disabled":false,"rental_uris":{"android":"levelo://app?vid=a5e126fe-d230-4324-ac2f-6bb0ed99250e","ios":"levelo://app?vid=a5e126fe-d230-4324-ac2f-6bb0ed99250e"},"vehicle_type_id":"4","last_reported":1692716792,"current_range_meters":14400,"station_id":"ce4bhch2rcd13ifvqeug","pricing_plan_id":"free"},{"bike_id":"2363d3b5-6c15-401a-a59c-ee80bd4af927","system_id":"levelo_inurba_marseille","lat":43.28415,"lon":5.37522,"is_reserved":false,"is_disabled":false,"rental_uris":{"android":"levelo://app?vid=2363d3b5-6c15-401a-a59c-ee80bd4af927","ios":"levelo://app?vid=2363d3b5-6c15-401a-a59c-ee80bd4af927"},"vehicle_type_id":"4","last_reported":1692716792,"current_range_meters":8800,"station_id":"ce4bh412rcd13ifvqds0","pricing_plan_id":"free"},{"bike_id":"8c7ad6db-30d9-4526-9bb9-b69daa5a3473","system_id":"levelo_inurba_marseille","lat":43.28407,"lon":5.37502,"is_reserved":false,"is_disabled":false,"rental_uris":{"android":"levelo://app?vid=8c7ad6db-30d9-4526-9bb9-b69daa5a3473","ios":"levelo://app?vid=8c7ad6db-30d9-4526-9bb9-b69daa5a3473"},"vehicle_type_id":"4","last_reported":1692716792,"current_range_meters":16800,"station_id":"ce4bh412rcd13ifvqds0","pricing_plan_id":"free"},{"bike_id":"f2e479ca-ada6-4d26-94b9-4198ac91d518","system_id":"levelo_inurba_marseille","lat":43.28404,"lon":5.37511,"is_reserved":false,"is_disabled":false,"rental_uris":{"android":"levelo://app?vid=f2e479ca-ada6-4d26-94b9-4198ac91d518","ios":"levelo://app?vid=f2e479ca-ada6-4d26-94b9-4198ac91d518"},"vehicle_type_id":"4","last_reported":1692716792,"current_range_meters":4400,"station_id":"ce4bh412rcd13ifvqds0","pricing_plan_id":"free"},{"bike_id":"f931b1e4-b086-456e-92e9-412506f891d3","system_id":"levelo_inurba_marseille","lat":43.31886,"lon":5.40729,"is_reserved":false,"is_disabled":false,"rental_uris":{"android":"levelo://app?vid=f931b1e4-b086-456e-92e9-412506f891d3","ios":"levelo://app?vid=f931b1e4-b086-456e-92e9-412506f891d3"},"vehicle_type_id":"4","last_reported":1692716792,"current_range_meters":17600,"station_id":"","pricing_plan_id":"free"},{"bike_id":"5898ffc0-0911-42a9-9d22-e2a8fb4da97f","system_id":"levelo_inurba_marseille","lat":43.31887,"lon":5.40736,"is_reserved":false,"is_disabled":false,"rental_uris":{"android":"levelo://app?vid=5898ffc0-0911-42a9-9d22-e2a8fb4da97f","ios":"levelo://app?vid=5898ffc0-0911-42a9-9d22-e2a8fb4da97f"},"vehicle_type_id":"4","last_reported":1692716792,"current_range_meters":27600,"station_id":"ce4bhq12rcd13ifvqhig","pricing_plan_id":"free"},{"bike_id":"9b736ed2-d601-448e-bdf6-cae1c14ab18b","system_id":"levelo_inurba_marseille","lat":43.30312,"lon":5.40624,"is_reserved":false,"is_disabled":false,"rental_uris":{"android":"levelo://app?vid=9b736ed2-d601-448e-bdf6-cae1c14ab18b","ios":"levelo://app?vid=9b736ed2-d601-448e-bdf6-cae1c14ab18b"},"vehicle_type_id":"4","last_reported":1692716792,"current_range_meters":7600,"station_id":"","pricing_plan_id":"free"},{"bike_id":"4ca4c199-2b71-4416-99ae-754c8af0d44a","system_id":"levelo_inurba_marseille","lat":43.28485,"lon":5.35087,"is_reserved":false,"is_disabled":false,"rental_uris":{"android":"levelo://app?vid=4ca4c199-2b71-4416-99ae-754c8af0d44a","ios":"levelo://app?vid=4ca4c199-2b71-4416-99ae-754c8af0d44a"},"vehicle_type_id":"4","last_reported":1692716792,"current_range_meters":18800,"station_id":"","pricing_plan_id":"free"},{"bike_id":"0bf55939-c969-487d-9229-ee63458068ce","system_id":"levelo_inurba_marseille","lat":43.337168,"lon":5.391825,"is_reserved":false,"is_disabled":false,"rental_uris":{"android":"levelo://app?vid=0bf55939-c969-487d-9229-ee63458068ce","ios":"levelo://app?vid=0bf55939-c969-487d-9229-ee63458068ce"},"vehicle_type_id":"4","last_reported":1692716792,"current_range_meters":1600,"station_id":"ce4bhr92rcd13ifvqhsg","pricing_plan_id":"free"},{"bike_id":"221fe9ea-3f9b-4fe2-bc49-befa2f420eb1","system_id":"levelo_inurba_marseille","lat":43.323464,"lon":5.406297,"is_reserved":false,"is_disabled":false,"rental_uris":{"android":"levelo://app?vid=221fe9ea-3f9b-4fe2-bc49-befa2f420eb1","ios":"levelo://app?vid=221fe9ea-3f9b-4fe2-bc49-befa2f420eb1"},"vehicle_type_id":"4","last_reported":1692716792,"current_range_meters":30800,"station_id":"ce4bhq92rcd13ifvqhjg","pricing_plan_id":"free"},{"bike_id":"05bcee62-f23c-4427-a13d-c5bcb6bf31e5","system_id":"levelo_inurba_marseille","lat":43.2848,"lon":5.384084,"is_reserved":false,"is_disabled":false,"rental_uris":{"android":"levelo://app?vid=05bcee62-f23c-4427-a13d-c5bcb6bf31e5","ios":"levelo://app?vid=05bcee62-f23c-4427-a13d-c5bcb6bf31e5"},"vehicle_type_id":"4","last_reported":1692716792,"current_range_meters":11600,"station_id":"ce4bh512rcd13ifvqe3g","pricing_plan_id":"free"},{"bike_id":"e73595c3-c7a3-494c-a441-dc925776ba8f","system_id":"levelo_inurba_marseille","lat":43.323464,"lon":5.406297,"is_reserved":false,"is_disabled":false,"rental_uris":{"android":"levelo://app?vid=e73595c3-c7a3-494c-a441-dc925776ba8f","ios":"levelo://app?vid=e73595c3-c7a3-494c-a441-dc925776ba8f"},"vehicle_type_id":"4","last_reported":1692716792,"current_range_meters":30400,"station_id":"ce4bhq92rcd13ifvqhjg","pricing_plan_id":"free"},{"bike_id":"81207e02-e329-4cea-9b6c-33ba9c0267d2","system_id":"levelo_inurba_marseille","lat":43.284793,"lon":5.384119,"is_reserved":false,"is_disabled":false,"rental_uris":{"android":"levelo://app?vid=81207e02-e329-4cea-9b6c-33ba9c0267d2","ios":"levelo://app?vid=81207e02-e329-4cea-9b6c-33ba9c0267d2"},"vehicle_type_id":"4","last_reported":1692716792,"current_range_meters":31200,"station_id":"ce4bh512rcd13ifvqe3g","pricing_plan_id":"free"},{"bike_id":"be48ab08-fa73-45c6-87bd-595d31181a71","system_id":"levelo_inurba_marseille","lat":43.298,"lon":5.40405,"is_reserved":false,"is_disabled":false,"rental_uris":{"android":"levelo://app?vid=be48ab08-fa73-45c6-87bd-595d31181a71","ios":"levelo://app?vid=be48ab08-fa73-45c6-87bd-595d31181a71"},"vehicle_type_id":"4","last_reported":1692716792,"current_range_meters":24000,"station_id":"ce4bh112rcd13ifvqd90","pricing_plan_id":"free"},{"bike_id":"2ea73967-988f-4f1a-aa76-7f33a11c4098","system_id":"levelo_inurba_marseille","lat":43.30676,"lon":5.40854,"is_reserved":false,"is_disabled":false,"rental_uris":{"android":"levelo://app?vid=2ea73967-988f-4f1a-aa76-7f33a11c4098","ios":"levelo://app?vid=2ea73967-988f-4f1a-aa76-7f33a11c4098"},"vehicle_type_id":"4","last_reported":1692716792,"current_range_meters":19600,"station_id":"","pricing_plan_id":"free"},{"bike_id":"f5f3ffcc-5656-4956-b68a-f9365d7a2c0d","system_id":"levelo_inurba_marseille","lat":43.283498,"lon":5.380948,"is_reserved":false,"is_disabled":false,"rental_uris":{"android":"levelo://app?vid=f5f3ffcc-5656-4956-b68a-f9365d7a2c0d","ios":"levelo://app?vid=f5f3ffcc-5656-4956-b68a-f9365d7a2c0d"},"vehicle_type_id":"4","last_reported":1692716792,"current_range_meters":21600,"station_id":"ce4bh412rcd13ifvqdr0","pricing_plan_id":"free"},{"bike_id":"f858f518-6fba-4784-a084-27c189e8ac82","system_id":"levelo_inurba_marseille","lat":43.283498,"lon":5.380948,"is_reserved":false,"is_disabled":false,"rental_uris":{"android":"levelo://app?vid=f858f518-6fba-4784-a084-27c189e8ac82","ios":"levelo://app?vid=f858f518-6fba-4784-a084-27c189e8ac82"},"vehicle_type_id":"4","last_reported":1692716792,"current_range_meters":12000,"station_id":"ce4bh412rcd13ifvqdr0","pricing_plan_id":"free"},{"bike_id":"d2a2b9ca-0650-4e4c-8d79-ae988df407a0","system_id":"levelo_inurba_marseille","lat":43.2842,"lon":5.34997,"is_reserved":false,"is_disabled":false,"rental_uris":{"android":"levelo://app?vid=d2a2b9ca-0650-4e4c-8d79-ae988df407a0","ios":"levelo://app?vid=d2a2b9ca-0650-4e4c-8d79-ae988df407a0"},"vehicle_type_id":"4","last_reported":1692716792,"current_range_meters":12000,"station_id":"ce4bhbh2rcd13ifvqepg","pricing_plan_id":"free"},{"bike_id":"92bf6422-0f8a-42ad-aa77-9ff30a1d32ae","system_id":"levelo_inurba_marseille","lat":43.284219,"lon":5.3497,"is_reserved":false,"is_disabled":false,"rental_uris":{"android":"levelo://app?vid=92bf6422-0f8a-42ad-aa77-9ff30a1d32ae","ios":"levelo://app?vid=92bf6422-0f8a-42ad-aa77-9ff30a1d32ae"},"vehicle_type_id":"4","last_reported":1692716792,"current_range_meters":31200,"station_id":"ce4bhbh2rcd13ifvqepg","pricing_plan_id":"free"},{"bike_id":"69f7af38-b6e6-49d0-a607-e66df3369a9c","system_id":"levelo_inurba_marseille","lat":43.284219,"lon":5.3497,"is_reserved":false,"is_disabled":false,"rental_uris":{"android":"levelo://app?vid=69f7af38-b6e6-49d0-a607-e66df3369a9c","ios":"levelo://app?vid=69f7af38-b6e6-49d0-a607-e66df3369a9c"},"vehicle_type_id":"4","last_reported":1692716792,"current_range_meters":29200,"station_id":"ce4bhbh2rcd13ifvqepg","pricing_plan_id":"free"},{"bike_id":"3dfe7921-ccd7-4c4b-85f3-ea4b59f7060c","system_id":"levelo_inurba_marseille","lat":43.284219,"lon":5.3497,"is_reserved":false,"is_disabled":false,"rental_uris":{"android":"levelo://app?vid=3dfe7921-ccd7-4c4b-85f3-ea4b59f7060c","ios":"levelo://app?vid=3dfe7921-ccd7-4c4b-85f3-ea4b59f7060c"},"vehicle_type_id":"4","last_reported":1692716792,"current_range_meters":20800,"station_id":"ce4bhbh2rcd13ifvqepg","pricing_plan_id":"free"},{"bike_id":"67427477-7a73-4378-bb50-f1edb7a3aecc","system_id":"levelo_inurba_marseille","lat":43.28419,"lon":5.34979,"is_reserved":false,"is_disabled":false,"rental_uris":{"android":"levelo://app?vid=67427477-7a73-4378-bb50-f1edb7a3aecc","ios":"levelo://app?vid=67427477-7a73-4378-bb50-f1edb7a3aecc"},"vehicle_type_id":"4","last_reported":1692716792,"current_range_meters":25200,"station_id":"ce4bhbh2rcd13ifvqepg","pricing_plan_id":"free"},{"bike_id":"7e598581-f8a0-4027-b919-b32ae9288629","system_id":"levelo_inurba_marseille","lat":43.284219,"lon":5.3497,"is_reserved":false,"is_disabled":false,"rental_uris":{"android":"levelo://app?vid=7e598581-f8a0-4027-b919-b32ae9288629","ios":"levelo://app?vid=7e598581-f8a0-4027-b919-b32ae9288629"},"vehicle_type_id":"4","last_reported":1692716792,"current_range_meters":30800,"station_id":"ce4bhbh2rcd13ifvqepg","pricing_plan_id":"free"},{"bike_id":"c93d23e8-67b2-4473-bf55-4bfd785bb4b8","system_id":"levelo_inurba_marseille","lat":43.284217,"lon":5.349697,"is_reserved":false,"is_disabled":false,"rental_uris":{"android":"levelo://app?vid=c93d23e8-67b2-4473-bf55-4bfd785bb4b8","ios":"levelo://app?vid=c93d23e8-67b2-4473-bf55-4bfd785bb4b8"},"vehicle_type_id":"4","last_reported":1692716792,"current_range_meters":22800,"station_id":"ce4bhbh2rcd13ifvqepg","pricing_plan_id":"free"},{"bike_id":"6a22290c-557f-447e-9dfe-d56b55b54a77","system_id":"levelo_inurba_marseille","lat":43.28415,"lon":5.34983,"is_reserved":false,"is_disabled":false,"rental_uris":{"android":"levelo://app?vid=6a22290c-557f-447e-9dfe-d56b55b54a77","ios":"levelo://app?vid=6a22290c-557f-447e-9dfe-d56b55b54a77"},"vehicle_type_id":"4","last_reported":1692716792,"current_range_meters":27200,"station_id":"ce4bhbh2rcd13ifvqepg","pricing_plan_id":"free"},{"bike_id":"c5bd5e89-3edb-4513-9b6c-ed9b625acc77","system_id":"levelo_inurba_marseille","lat":43.284217,"lon":5.349697,"is_reserved":false,"is_disabled":false,"rental_uris":{"android":"levelo://app?vid=c5bd5e89-3edb-4513-9b6c-ed9b625acc77","ios":"levelo://app?vid=c5bd5e89-3edb-4513-9b6c-ed9b625acc77"},"vehicle_type_id":"4","last_reported":1692716792,"current_range_meters":11200,"station_id":"ce4bhbh2rcd13ifvqepg","pricing_plan_id":"free"},{"bike_id":"3b9a36a8-4b3f-4ab9-bdf1-a3d9a86ad504","system_id":"levelo_inurba_marseille","lat":43.284217,"lon":5.349697,"is_reserved":false,"is_disabled":false,"rental_uris":{"android":"levelo://app?vid=3b9a36a8-4b3f-4ab9-bdf1-a3d9a86ad504","ios":"levelo://app?vid=3b9a36a8-4b3f-4ab9-bdf1-a3d9a86ad504"},"vehicle_type_id":"4","last_reported":1692716792,"current_range_meters":31200,"station_id":"ce4bhbh2rcd13ifvqepg","pricing_plan_id":"free"},{"bike_id":"244436c1-153b-4811-8f1d-a75c8279267c","system_id":"levelo_inurba_marseille","lat":43.28412,"lon":5.34981,"is_reserved":false,"is_disabled":false,"rental_uris":{"android":"levelo://app?vid=244436c1-153b-4811-8f1d-a75c8279267c","ios":"levelo://app?vid=244436c1-153b-4811-8f1d-a75c8279267c"},"vehicle_type_id":"4","last_reported":1692716792,"current_range_meters":16800,"station_id":"ce4bhbh2rcd13ifvqepg","pricing_plan_id":"free"},{"bike_id":"505b2579-c3f1-4cac-89d1-6e18521825a9","system_id":"levelo_inurba_marseille","lat":43.28412,"lon":5.34981,"is_reserved":false,"is_disabled":false,"rental_uris":{"android":"levelo://app?vid=505b2579-c3f1-4cac-89d1-6e18521825a9","ios":"levelo://app?vid=505b2579-c3f1-4cac-89d1-6e18521825a9"},"vehicle_type_id":"4","last_reported":1692716792,"current_range_meters":19600,"station_id":"ce4bhbh2rcd13ifvqepg","pricing_plan_id":"free"},{"bike_id":"3c3b5488-e143-4795-80b1-ce2c083d17bb","system_id":"levelo_inurba_marseille","lat":43.28415,"lon":5.34969,"is_reserved":false,"is_disabled":false,"rental_uris":{"android":"levelo://app?vid=3c3b5488-e143-4795-80b1-ce2c083d17bb","ios":"levelo://app?vid=3c3b5488-e143-4795-80b1-ce2c083d17bb"},"vehicle_type_id":"4","last_reported":1692716792,"current_range_meters":23200,"station_id":"ce4bhbh2rcd13ifvqepg","pricing_plan_id":"free"},{"bike_id":"d3daf003-9d6a-40bb-a0e7-00fdd9d0fafd","system_id":"levelo_inurba_marseille","lat":43.284217,"lon":5.349697,"is_reserved":false,"is_disabled":false,"rental_uris":{"android":"levelo://app?vid=d3daf003-9d6a-40bb-a0e7-00fdd9d0fafd","ios":"levelo://app?vid=d3daf003-9d6a-40bb-a0e7-00fdd9d0fafd"},"vehicle_type_id":"4","last_reported":1692716792,"current_range_meters":16000,"station_id":"ce4bhbh2rcd13ifvqepg","pricing_plan_id":"free"},{"bike_id":"3ac58c3a-6cdc-4901-a81c-c8142912851c","system_id":"levelo_inurba_marseille","lat":43.284219,"lon":5.3497,"is_reserved":false,"is_disabled":false,"rental_uris":{"android":"levelo://app?vid=3ac58c3a-6cdc-4901-a81c-c8142912851c","ios":"levelo://app?vid=3ac58c3a-6cdc-4901-a81c-c8142912851c"},"vehicle_type_id":"4","last_reported":1692716792,"current_range_meters":21200,"station_id":"ce4bhbh2rcd13ifvqepg","pricing_plan_id":"free"},{"bike_id":"a47739e2-5a65-4fff-8649-aa681873a54e","system_id":"levelo_inurba_marseille","lat":43.284217,"lon":5.349697,"is_reserved":false,"is_disabled":false,"rental_uris":{"android":"levelo://app?vid=a47739e2-5a65-4fff-8649-aa681873a54e","ios":"levelo://app?vid=a47739e2-5a65-4fff-8649-aa681873a54e"},"vehicle_type_id":"4","last_reported":1692716792,"current_range_meters":31200,"station_id":"ce4bhbh2rcd13ifvqepg","pricing_plan_id":"free"},{"bike_id":"ced11c47-a744-4c3a-98c6-35cdbed65062","system_id":"levelo_inurba_marseille","lat":43.284217,"lon":5.349697,"is_reserved":false,"is_disabled":false,"rental_uris":{"android":"levelo://app?vid=ced11c47-a744-4c3a-98c6-35cdbed65062","ios":"levelo://app?vid=ced11c47-a744-4c3a-98c6-35cdbed65062"},"vehicle_type_id":"4","last_reported":1692716792,"current_range_meters":21200,"station_id":"ce4bhbh2rcd13ifvqepg","pricing_plan_id":"free"},{"bike_id":"f50aca5f-cf5b-4020-925f-826a2e34874f","system_id":"levelo_inurba_marseille","lat":43.289363,"lon":5.396322,"is_reserved":false,"is_disabled":false,"rental_uris":{"android":"levelo://app?vid=f50aca5f-cf5b-4020-925f-826a2e34874f","ios":"levelo://app?vid=f50aca5f-cf5b-4020-925f-826a2e34874f"},"vehicle_type_id":"4","last_reported":1692716792,"current_range_meters":31200,"station_id":"ce4bh3h2rcd13ifvqdn0","pricing_plan_id":"free"},{"bike_id":"79ae07f7-3d9b-456b-927e-8e880eafedba","system_id":"levelo_inurba_marseille","lat":43.32572,"lon":5.40673,"is_reserved":false,"is_disabled":false,"rental_uris":{"android":"levelo://app?vid=79ae07f7-3d9b-456b-927e-8e880eafedba","ios":"levelo://app?vid=79ae07f7-3d9b-456b-927e-8e880eafedba"},"vehicle_type_id":"4","last_reported":1692716792,"current_range_meters":800,"station_id":"","pricing_plan_id":"free"},{"bike_id":"6e3782e4-57c2-4d87-ae41-0bb5b52309a2","system_id":"levelo_inurba_marseille","lat":43.292724,"lon":5.401131,"is_reserved":false,"is_disabled":false,"rental_uris":{"android":"levelo://app?vid=6e3782e4-57c2-4d87-ae41-0bb5b52309a2","ios":"levelo://app?vid=6e3782e4-57c2-4d87-ae41-0bb5b52309a2"},"vehicle_type_id":"4","last_reported":1692716792,"current_range_meters":1600,"station_id":"ce4bh312rcd13ifvqdk0","pricing_plan_id":"free"},{"bike_id":"e7cd2ccb-976b-4498-aba1-13939a60aa2b","system_id":"levelo_inurba_marseille","lat":43.28283,"lon":5.35067,"is_reserved":false,"is_disabled":false,"rental_uris":{"android":"levelo://app?vid=e7cd2ccb-976b-4498-aba1-13939a60aa2b","ios":"levelo://app?vid=e7cd2ccb-976b-4498-aba1-13939a60aa2b"},"vehicle_type_id":"4","last_reported":1692716792,"current_range_meters":28000,"station_id":"ce4bhbp2rcd13ifvqerg","pricing_plan_id":"free"},{"bike_id":"c90b663e-9e74-46dc-8091-7b267a4ceaec","system_id":"levelo_inurba_marseille","lat":43.282754,"lon":5.350519,"is_reserved":false,"is_disabled":false,"rental_uris":{"android":"levelo://app?vid=c90b663e-9e74-46dc-8091-7b267a4ceaec","ios":"levelo://app?vid=c90b663e-9e74-46dc-8091-7b267a4ceaec"},"vehicle_type_id":"4","last_reported":1692716792,"current_range_meters":9600,"station_id":"ce4bhbp2rcd13ifvqerg","pricing_plan_id":"free"},{"bike_id":"5a8cf80a-f2f0-40d7-9b2c-918aab18fc5f","system_id":"levelo_inurba_marseille","lat":43.282809,"lon":5.350661,"is_reserved":false,"is_disabled":false,"rental_uris":{"android":"levelo://app?vid=5a8cf80a-f2f0-40d7-9b2c-918aab18fc5f","ios":"levelo://app?vid=5a8cf80a-f2f0-40d7-9b2c-918aab18fc5f"},"vehicle_type_id":"4","last_reported":1692716792,"current_range_meters":11200,"station_id":"ce4bhbp2rcd13ifvqerg","pricing_plan_id":"free"},{"bike_id":"765d74f8-405d-4e38-ba5a-392579c5f282","system_id":"levelo_inurba_marseille","lat":43.28272,"lon":5.35088,"is_reserved":false,"is_disabled":false,"rental_uris":{"android":"levelo://app?vid=765d74f8-405d-4e38-ba5a-392579c5f282","ios":"levelo://app?vid=765d74f8-405d-4e38-ba5a-392579c5f282"},"vehicle_type_id":"4","last_reported":1692716792,"current_range_meters":31200,"station_id":"ce4bhbp2rcd13ifvqerg","pricing_plan_id":"free"},{"bike_id":"a648e4b9-af93-4b28-982e-e42c178ed1d0","system_id":"levelo_inurba_marseille","lat":43.28275,"lon":5.35072,"is_reserved":false,"is_disabled":false,"rental_uris":{"android":"levelo://app?vid=a648e4b9-af93-4b28-982e-e42c178ed1d0","ios":"levelo://app?vid=a648e4b9-af93-4b28-982e-e42c178ed1d0"},"vehicle_type_id":"4","last_reported":1692716792,"current_range_meters":31200,"station_id":"ce4bhbp2rcd13ifvqerg","pricing_plan_id":"free"},{"bike_id":"8d020656-9781-483f-8529-499a83255bd4","system_id":"levelo_inurba_marseille","lat":43.28272,"lon":5.35076,"is_reserved":false,"is_disabled":false,"rental_uris":{"android":"levelo://app?vid=8d020656-9781-483f-8529-499a83255bd4","ios":"levelo://app?vid=8d020656-9781-483f-8529-499a83255bd4"},"vehicle_type_id":"4","last_reported":1692716792,"current_range_meters":16400,"station_id":"ce4bhbp2rcd13ifvqerg","pricing_plan_id":"free"},{"bike_id":"88940920-727e-47f8-bee6-24feedff1167","system_id":"levelo_inurba_marseille","lat":43.282754,"lon":5.350519,"is_reserved":false,"is_disabled":false,"rental_uris":{"android":"levelo://app?vid=88940920-727e-47f8-bee6-24feedff1167","ios":"levelo://app?vid=88940920-727e-47f8-bee6-24feedff1167"},"vehicle_type_id":"4","last_reported":1692716792,"current_range_meters":29600,"station_id":"ce4bhbp2rcd13ifvqerg","pricing_plan_id":"free"},{"bike_id":"97665d79-dc46-4992-8999-8c7f31b1a802","system_id":"levelo_inurba_marseille","lat":43.28272,"lon":5.35074,"is_reserved":false,"is_disabled":false,"rental_uris":{"android":"levelo://app?vid=97665d79-dc46-4992-8999-8c7f31b1a802","ios":"levelo://app?vid=97665d79-dc46-4992-8999-8c7f31b1a802"},"vehicle_type_id":"4","last_reported":1692716792,"current_range_meters":31200,"station_id":"ce4bhbp2rcd13ifvqerg","pricing_plan_id":"free"},{"bike_id":"45e7d3d6-2a8b-43a4-a356-557b8e1fb5cb","system_id":"levelo_inurba_marseille","lat":43.2827,"lon":5.35078,"is_reserved":false,"is_disabled":false,"rental_uris":{"android":"levelo://app?vid=45e7d3d6-2a8b-43a4-a356-557b8e1fb5cb","ios":"levelo://app?vid=45e7d3d6-2a8b-43a4-a356-557b8e1fb5cb"},"vehicle_type_id":"4","last_reported":1692716792,"current_range_meters":20400,"station_id":"ce4bhbp2rcd13ifvqerg","pricing_plan_id":"free"},{"bike_id":"a1ecd9b9-d75d-4beb-93c9-16b72c60f041","system_id":"levelo_inurba_marseille","lat":43.28271,"lon":5.35071,"is_reserved":false,"is_disabled":false,"rental_uris":{"android":"levelo://app?vid=a1ecd9b9-d75d-4beb-93c9-16b72c60f041","ios":"levelo://app?vid=a1ecd9b9-d75d-4beb-93c9-16b72c60f041"},"vehicle_type_id":"4","last_reported":1692716792,"current_range_meters":31200,"station_id":"ce4bhbp2rcd13ifvqerg","pricing_plan_id":"free"},{"bike_id":"7552b8d8-c70a-4dbc-8f4f-5468c32bb93d","system_id":"levelo_inurba_marseille","lat":43.28271,"lon":5.35061,"is_reserved":false,"is_disabled":false,"rental_uris":{"android":"levelo://app?vid=7552b8d8-c70a-4dbc-8f4f-5468c32bb93d","ios":"levelo://app?vid=7552b8d8-c70a-4dbc-8f4f-5468c32bb93d"},"vehicle_type_id":"4","last_reported":1692716792,"current_range_meters":17600,"station_id":"ce4bhbp2rcd13ifvqerg","pricing_plan_id":"free"},{"bike_id":"bd124cff-f6b3-48f1-b343-b34bb8f17740","system_id":"levelo_inurba_marseille","lat":43.28272,"lon":5.35057,"is_reserved":false,"is_disabled":false,"rental_uris":{"android":"levelo://app?vid=bd124cff-f6b3-48f1-b343-b34bb8f17740","ios":"levelo://app?vid=bd124cff-f6b3-48f1-b343-b34bb8f17740"},"vehicle_type_id":"4","last_reported":1692716792,"current_range_meters":22000,"station_id":"ce4bhbp2rcd13ifvqerg","pricing_plan_id":"free"},{"bike_id":"31d3c370-a569-421c-b780-634aa5d193d1","system_id":"levelo_inurba_marseille","lat":43.28267,"lon":5.35071,"is_reserved":false,"is_disabled":false,"rental_uris":{"android":"levelo://app?vid=31d3c370-a569-421c-b780-634aa5d193d1","ios":"levelo://app?vid=31d3c370-a569-421c-b780-634aa5d193d1"},"vehicle_type_id":"4","last_reported":1692716792,"current_range_meters":22000,"station_id":"ce4bhbp2rcd13ifvqerg","pricing_plan_id":"free"},{"bike_id":"bcf4f588-6ed1-44f6-8caf-e08422e00fcb","system_id":"levelo_inurba_marseille","lat":43.28272,"lon":5.35053,"is_reserved":false,"is_disabled":false,"rental_uris":{"android":"levelo://app?vid=bcf4f588-6ed1-44f6-8caf-e08422e00fcb","ios":"levelo://app?vid=bcf4f588-6ed1-44f6-8caf-e08422e00fcb"},"vehicle_type_id":"4","last_reported":1692716792,"current_range_meters":31200,"station_id":"ce4bhbp2rcd13ifvqerg","pricing_plan_id":"free"},{"bike_id":"b58361d5-af6f-4c34-8b5c-09f9592fc314","system_id":"levelo_inurba_marseille","lat":43.2827,"lon":5.35054,"is_reserved":false,"is_disabled":false,"rental_uris":{"android":"levelo://app?vid=b58361d5-af6f-4c34-8b5c-09f9592fc314","ios":"levelo://app?vid=b58361d5-af6f-4c34-8b5c-09f9592fc314"},"vehicle_type_id":"4","last_reported":1692716792,"current_range_meters":9600,"station_id":"ce4bhbp2rcd13ifvqerg","pricing_plan_id":"free"},{"bike_id":"031212e7-e4dd-47a0-a878-7cf31f5eccd5","system_id":"levelo_inurba_marseille","lat":43.28269,"lon":5.35057,"is_reserved":false,"is_disabled":false,"rental_uris":{"android":"levelo://app?vid=031212e7-e4dd-47a0-a878-7cf31f5eccd5","ios":"levelo://app?vid=031212e7-e4dd-47a0-a878-7cf31f5eccd5"},"vehicle_type_id":"4","last_reported":1692716792,"current_range_meters":31200,"station_id":"ce4bhbp2rcd13ifvqerg","pricing_plan_id":"free"},{"bike_id":"5a431e20-8a94-41f5-a22c-35cc41238e05","system_id":"levelo_inurba_marseille","lat":43.282744,"lon":5.350533,"is_reserved":false,"is_disabled":false,"rental_uris":{"android":"levelo://app?vid=5a431e20-8a94-41f5-a22c-35cc41238e05","ios":"levelo://app?vid=5a431e20-8a94-41f5-a22c-35cc41238e05"},"vehicle_type_id":"4","last_reported":1692716792,"current_range_meters":26800,"station_id":"ce4bhbp2rcd13ifvqerg","pricing_plan_id":"free"},{"bike_id":"a11fee1d-d4da-443b-be7a-e8edec069d32","system_id":"levelo_inurba_marseille","lat":43.282754,"lon":5.350519,"is_reserved":false,"is_disabled":false,"rental_uris":{"android":"levelo://app?vid=a11fee1d-d4da-443b-be7a-e8edec069d32","ios":"levelo://app?vid=a11fee1d-d4da-443b-be7a-e8edec069d32"},"vehicle_type_id":"4","last_reported":1692716792,"current_range_meters":14800,"station_id":"ce4bhbp2rcd13ifvqerg","pricing_plan_id":"free"},{"bike_id":"2b1aa41a-cbc9-4920-9db2-a4bbea444c0c","system_id":"levelo_inurba_marseille","lat":43.28265,"lon":5.35068,"is_reserved":false,"is_disabled":false,"rental_uris":{"android":"levelo://app?vid=2b1aa41a-cbc9-4920-9db2-a4bbea444c0c","ios":"levelo://app?vid=2b1aa41a-cbc9-4920-9db2-a4bbea444c0c"},"vehicle_type_id":"4","last_reported":1692716792,"current_range_meters":31200,"station_id":"ce4bhbp2rcd13ifvqerg","pricing_plan_id":"free"},{"bike_id":"ee9349d6-a4c6-4bd2-b248-742a1b6897b4","system_id":"levelo_inurba_marseille","lat":43.282744,"lon":5.350533,"is_reserved":false,"is_disabled":false,"rental_uris":{"android":"levelo://app?vid=ee9349d6-a4c6-4bd2-b248-742a1b6897b4","ios":"levelo://app?vid=ee9349d6-a4c6-4bd2-b248-742a1b6897b4"},"vehicle_type_id":"4","last_reported":1692716792,"current_range_meters":18800,"station_id":"ce4bhbp2rcd13ifvqerg","pricing_plan_id":"free"},{"bike_id":"60657b80-7b7b-427f-a08e-6a93cabf41c9","system_id":"levelo_inurba_marseille","lat":43.282754,"lon":5.350519,"is_reserved":false,"is_disabled":false,"rental_uris":{"android":"levelo://app?vid=60657b80-7b7b-427f-a08e-6a93cabf41c9","ios":"levelo://app?vid=60657b80-7b7b-427f-a08e-6a93cabf41c9"},"vehicle_type_id":"4","last_reported":1692716792,"current_range_meters":19200,"station_id":"ce4bhbp2rcd13ifvqerg","pricing_plan_id":"free"},{"bike_id":"4f76bb8b-534a-4667-99f2-697a723881bd","system_id":"levelo_inurba_marseille","lat":43.28267,"lon":5.35058,"is_reserved":false,"is_disabled":false,"rental_uris":{"android":"levelo://app?vid=4f76bb8b-534a-4667-99f2-697a723881bd","ios":"levelo://app?vid=4f76bb8b-534a-4667-99f2-697a723881bd"},"vehicle_type_id":"4","last_reported":1692716792,"current_range_meters":31200,"station_id":"ce4bhbp2rcd13ifvqerg","pricing_plan_id":"free"},{"bike_id":"3ecece7a-2395-4583-824b-383f3438c988","system_id":"levelo_inurba_marseille","lat":43.28269,"lon":5.35051,"is_reserved":false,"is_disabled":false,"rental_uris":{"android":"levelo://app?vid=3ecece7a-2395-4583-824b-383f3438c988","ios":"levelo://app?vid=3ecece7a-2395-4583-824b-383f3438c988"},"vehicle_type_id":"4","last_reported":1692716792,"current_range_meters":20000,"station_id":"ce4bhbp2rcd13ifvqerg","pricing_plan_id":"free"},{"bike_id":"f621ded8-b170-4083-a60c-f975b682a3ed","system_id":"levelo_inurba_marseille","lat":43.282744,"lon":5.350533,"is_reserved":false,"is_disabled":false,"rental_uris":{"android":"levelo://app?vid=f621ded8-b170-4083-a60c-f975b682a3ed","ios":"levelo://app?vid=f621ded8-b170-4083-a60c-f975b682a3ed"},"vehicle_type_id":"4","last_reported":1692716792,"current_range_meters":22000,"station_id":"ce4bhbp2rcd13ifvqerg","pricing_plan_id":"free"},{"bike_id":"8ba3eac1-39b3-4dad-9912-42885ea7f59d","system_id":"levelo_inurba_marseille","lat":43.28265,"lon":5.35063,"is_reserved":false,"is_disabled":false,"rental_uris":{"android":"levelo://app?vid=8ba3eac1-39b3-4dad-9912-42885ea7f59d","ios":"levelo://app?vid=8ba3eac1-39b3-4dad-9912-42885ea7f59d"},"vehicle_type_id":"4","last_reported":1692716792,"current_range_meters":23200,"station_id":"ce4bhbp2rcd13ifvqerg","pricing_plan_id":"free"},{"bike_id":"ff7fae91-73d9-48ff-8a01-508039ea7b75","system_id":"levelo_inurba_marseille","lat":43.282744,"lon":5.350533,"is_reserved":false,"is_disabled":false,"rental_uris":{"android":"levelo://app?vid=ff7fae91-73d9-48ff-8a01-508039ea7b75","ios":"levelo://app?vid=ff7fae91-73d9-48ff-8a01-508039ea7b75"},"vehicle_type_id":"4","last_reported":1692716792,"current_range_meters":0,"station_id":"ce4bhbp2rcd13ifvqerg","pricing_plan_id":"free"},{"bike_id":"3544f6f4-06eb-4ef4-8f71-cc8480101a4c","system_id":"levelo_inurba_marseille","lat":43.282744,"lon":5.350533,"is_reserved":false,"is_disabled":false,"rental_uris":{"android":"levelo://app?vid=3544f6f4-06eb-4ef4-8f71-cc8480101a4c","ios":"levelo://app?vid=3544f6f4-06eb-4ef4-8f71-cc8480101a4c"},"vehicle_type_id":"4","last_reported":1692716792,"current_range_meters":21200,"station_id":"ce4bhbp2rcd13ifvqerg","pricing_plan_id":"free"},{"bike_id":"28851f45-fcdd-4ad6-a884-7271806f58f0","system_id":"levelo_inurba_marseille","lat":43.28264,"lon":5.35062,"is_reserved":false,"is_disabled":false,"rental_uris":{"android":"levelo://app?vid=28851f45-fcdd-4ad6-a884-7271806f58f0","ios":"levelo://app?vid=28851f45-fcdd-4ad6-a884-7271806f58f0"},"vehicle_type_id":"4","last_reported":1692716792,"current_range_meters":31200,"station_id":"ce4bhbp2rcd13ifvqerg","pricing_plan_id":"free"},{"bike_id":"18538c8c-3f21-4a9e-bba0-cea21f40719c","system_id":"levelo_inurba_marseille","lat":43.282744,"lon":5.350533,"is_reserved":false,"is_disabled":false,"rental_uris":{"android":"levelo://app?vid=18538c8c-3f21-4a9e-bba0-cea21f40719c","ios":"levelo://app?vid=18538c8c-3f21-4a9e-bba0-cea21f40719c"},"vehicle_type_id":"4","last_reported":1692716792,"current_range_meters":8000,"station_id":"ce4bhbp2rcd13ifvqerg","pricing_plan_id":"free"},{"bike_id":"db44107e-74a3-46b3-afeb-b87ba30fb25e","system_id":"levelo_inurba_marseille","lat":43.28265,"lon":5.35057,"is_reserved":false,"is_disabled":false,"rental_uris":{"android":"levelo://app?vid=db44107e-74a3-46b3-afeb-b87ba30fb25e","ios":"levelo://app?vid=db44107e-74a3-46b3-afeb-b87ba30fb25e"},"vehicle_type_id":"4","last_reported":1692716792,"current_range_meters":31200,"station_id":"ce4bhbp2rcd13ifvqerg","pricing_plan_id":"free"},{"bike_id":"f4339a41-ac28-41dc-873b-32beacd416c4","system_id":"levelo_inurba_marseille","lat":43.282744,"lon":5.350533,"is_reserved":false,"is_disabled":false,"rental_uris":{"android":"levelo://app?vid=f4339a41-ac28-41dc-873b-32beacd416c4","ios":"levelo://app?vid=f4339a41-ac28-41dc-873b-32beacd416c4"},"vehicle_type_id":"4","last_reported":1692716792,"current_range_meters":28000,"station_id":"ce4bhbp2rcd13ifvqerg","pricing_plan_id":"free"},{"bike_id":"a65e7466-a096-4ee9-8631-2f3590960859","system_id":"levelo_inurba_marseille","lat":43.282744,"lon":5.350533,"is_reserved":false,"is_disabled":false,"rental_uris":{"android":"levelo://app?vid=a65e7466-a096-4ee9-8631-2f3590960859","ios":"levelo://app?vid=a65e7466-a096-4ee9-8631-2f3590960859"},"vehicle_type_id":"4","last_reported":1692716792,"current_range_meters":22000,"station_id":"ce4bhbp2rcd13ifvqerg","pricing_plan_id":"free"},{"bike_id":"7dd32657-ffa0-47e6-ad10-53a769a68f30","system_id":"levelo_inurba_marseille","lat":43.282744,"lon":5.350533,"is_reserved":false,"is_disabled":false,"rental_uris":{"android":"levelo://app?vid=7dd32657-ffa0-47e6-ad10-53a769a68f30","ios":"levelo://app?vid=7dd32657-ffa0-47e6-ad10-53a769a68f30"},"vehicle_type_id":"4","last_reported":1692716792,"current_range_meters":23600,"station_id":"ce4bhbp2rcd13ifvqerg","pricing_plan_id":"free"},{"bike_id":"b0b226d6-c590-42d6-a7d0-c9de4153d77f","system_id":"levelo_inurba_marseille","lat":43.282744,"lon":5.350533,"is_reserved":false,"is_disabled":false,"rental_uris":{"android":"levelo://app?vid=b0b226d6-c590-42d6-a7d0-c9de4153d77f","ios":"levelo://app?vid=b0b226d6-c590-42d6-a7d0-c9de4153d77f"},"vehicle_type_id":"4","last_reported":1692716792,"current_range_meters":31200,"station_id":"ce4bhbp2rcd13ifvqerg","pricing_plan_id":"free"},{"bike_id":"0bb5163f-a5dc-482a-b256-516cebc16337","system_id":"levelo_inurba_marseille","lat":43.282744,"lon":5.350533,"is_reserved":false,"is_disabled":false,"rental_uris":{"android":"levelo://app?vid=0bb5163f-a5dc-482a-b256-516cebc16337","ios":"levelo://app?vid=0bb5163f-a5dc-482a-b256-516cebc16337"},"vehicle_type_id":"4","last_reported":1692716792,"current_range_meters":24400,"station_id":"ce4bhbp2rcd13ifvqerg","pricing_plan_id":"free"},{"bike_id":"91f22b12-a1ff-45cd-b990-20eb6964688d","system_id":"levelo_inurba_marseille","lat":43.28261,"lon":5.3506,"is_reserved":false,"is_disabled":false,"rental_uris":{"android":"levelo://app?vid=91f22b12-a1ff-45cd-b990-20eb6964688d","ios":"levelo://app?vid=91f22b12-a1ff-45cd-b990-20eb6964688d"},"vehicle_type_id":"4","last_reported":1692716792,"current_range_meters":31200,"station_id":"ce4bhbp2rcd13ifvqerg","pricing_plan_id":"free"},{"bike_id":"5fe403f8-7659-426b-a24f-0deb7251c87b","system_id":"levelo_inurba_marseille","lat":43.282744,"lon":5.350533,"is_reserved":false,"is_disabled":false,"rental_uris":{"android":"levelo://app?vid=5fe403f8-7659-426b-a24f-0deb7251c87b","ios":"levelo://app?vid=5fe403f8-7659-426b-a24f-0deb7251c87b"},"vehicle_type_id":"4","last_reported":1692716792,"current_range_meters":10800,"station_id":"ce4bhbp2rcd13ifvqerg","pricing_plan_id":"free"},{"bike_id":"96a0356f-6144-4599-9490-2a45133d2fd5","system_id":"levelo_inurba_marseille","lat":43.282744,"lon":5.350533,"is_reserved":false,"is_disabled":false,"rental_uris":{"android":"levelo://app?vid=96a0356f-6144-4599-9490-2a45133d2fd5","ios":"levelo://app?vid=96a0356f-6144-4599-9490-2a45133d2fd5"},"vehicle_type_id":"4","last_reported":1692716792,"current_range_meters":30000,"station_id":"ce4bhbp2rcd13ifvqerg","pricing_plan_id":"free"},{"bike_id":"9c752e9c-f94a-4d55-93f0-146a66baa5b8","system_id":"levelo_inurba_marseille","lat":43.282744,"lon":5.350533,"is_reserved":false,"is_disabled":false,"rental_uris":{"android":"levelo://app?vid=9c752e9c-f94a-4d55-93f0-146a66baa5b8","ios":"levelo://app?vid=9c752e9c-f94a-4d55-93f0-146a66baa5b8"},"vehicle_type_id":"4","last_reported":1692716792,"current_range_meters":12000,"station_id":"ce4bhbp2rcd13ifvqerg","pricing_plan_id":"free"},{"bike_id":"875fc2e0-4d63-44d9-b01c-51bee62c383f","system_id":"levelo_inurba_marseille","lat":43.282744,"lon":5.350533,"is_reserved":false,"is_disabled":false,"rental_uris":{"android":"levelo://app?vid=875fc2e0-4d63-44d9-b01c-51bee62c383f","ios":"levelo://app?vid=875fc2e0-4d63-44d9-b01c-51bee62c383f"},"vehicle_type_id":"4","last_reported":1692716792,"current_range_meters":20800,"station_id":"ce4bhbp2rcd13ifvqerg","pricing_plan_id":"free"},{"bike_id":"fe32dc0d-c3f3-47f0-aeef-361e483c9751","system_id":"levelo_inurba_marseille","lat":43.280385,"lon":5.369509,"is_reserved":false,"is_disabled":false,"rental_uris":{"android":"levelo://app?vid=fe32dc0d-c3f3-47f0-aeef-361e483c9751","ios":"levelo://app?vid=fe32dc0d-c3f3-47f0-aeef-361e483c9751"},"vehicle_type_id":"4","last_reported":1692716792,"current_range_meters":22400,"station_id":"","pricing_plan_id":"free"},{"bike_id":"ab62284f-fdec-4ce9-a71a-a48cd2981802","system_id":"levelo_inurba_marseille","lat":43.282744,"lon":5.350533,"is_reserved":false,"is_disabled":false,"rental_uris":{"android":"levelo://app?vid=ab62284f-fdec-4ce9-a71a-a48cd2981802","ios":"levelo://app?vid=ab62284f-fdec-4ce9-a71a-a48cd2981802"},"vehicle_type_id":"4","last_reported":1692716792,"current_range_meters":800,"station_id":"ce4bhbp2rcd13ifvqerg","pricing_plan_id":"free"},{"bike_id":"1527a32d-ff00-487d-a754-af614335ea58","system_id":"levelo_inurba_marseille","lat":43.28032,"lon":5.36935,"is_reserved":false,"is_disabled":false,"rental_uris":{"android":"levelo://app?vid=1527a32d-ff00-487d-a754-af614335ea58","ios":"levelo://app?vid=1527a32d-ff00-487d-a754-af614335ea58"},