{"last_updated":1740640154,"ttl":60,"version":"2.2","data":{"bikes":[{"bike_id":"d006149d-ec29-4e4d-9da6-bef83682956d","system_id":"levelo_inurba_marseille","lat":43.29573,"lon":5.39965,"is_reserved":false,"is_disabled":false,"rental_uris":{"android":"levelo://app?vid=d006149d-ec29-4e4d-9da6-bef83682956d","ios":"levelo://app?vid=d006149d-ec29-4e4d-9da6-bef83682956d"},"vehicle_type_id":"4","last_reported":1740640154,"current_range_meters":2800,"station_id":"ce4bh312rcd13ifvqdj0","pricing_plan_id":"cebpf4jnsgd1na2vs0mg"},{"bike_id":"a1879da5-9e75-4549-8cce-fa10e10e4d66","system_id":"levelo_inurba_marseille","lat":43.32329,"lon":5.40798,"is_reserved":false,"is_disabled":false,"rental_uris":{"android":"levelo://app?vid=a1879da5-9e75-4549-8cce-fa10e10e4d66","ios":"levelo://app?vid=a1879da5-9e75-4549-8cce-fa10e10e4d66"},"vehicle_type_id":"4","last_reported":1740640154,"current_range_meters":2800,"station_id":"","pricing_plan_id":"cebpf4jnsgd1na2vs0mg"},{"bike_id":"094d501d-057a-4788-84d0-72458931299e","system_id":"levelo_inurba_marseille","lat":43.28479,"lon":5.38423,"is_reserved":false,"is_disabled":false,"rental_uris":{"android":"levelo://app?vid=094d501d-057a-4788-84d0-72458931299e","ios":"levelo://app?vid=094d501d-057a-4788-84d0-72458931299e"},"vehicle_type_id":"4","last_reported":1740640154,"current_range_meters":2000,"station_id":"ce4bh512rcd13ifvqe3g","pricing_plan_id":"cebpf4jnsgd1na2vs0mg"},{"bike_id":"2508f5a9-f626-4e6d-aa3f-975762bbcdc4","system_id":"levelo_inurba_marseille","lat":43.28936,"lon":5.36639,"is_reserved":false,"is_disabled":false,"rental_uris":{"android":"levelo://app?vid=2508f5a9-f626-4e6d-aa3f-975762bbcdc4","ios":"levelo://app?vid=2508f5a9-f626-4e6d-aa3f-975762bbcdc4"},"vehicle_type_id":"4","last_reported":1740640154,"current_range_meters":3200,"station_id":"ce4bhap2rcd13ifvqek0","pricing_plan_id":"cebpf4jnsgd1na2vs0mg"},{"bike_id":"22a29715-5d59-4595-9fd4-61ac67feb20e","system_id":"levelo_inurba_marseille","lat":43.29367,"lon":5.378312,"is_reserved":false,"is_disabled":false,"rental_uris":{"android":"levelo://app?vid=22a29715-5d59-4595-9fd4-61ac67feb20e","ios":"levelo://app?vid=22a29715-5d59-4595-9fd4-61ac67feb20e"},"vehicle_type_id":"4","last_reported":1740640154,"current_range_meters":2800,"station_id":"ce4bgjh2rcd13ifvqbf0","pricing_plan_id":"cebpf4jnsgd1na2vs0mg"},{"bike_id":"0d58bdd4-45b5-40db-9ced-11725c0c62bd","system_id":"levelo_inurba_marseille","lat":43.32362,"lon":5.40625,"is_reserved":false,"is_disabled":true,"rental_uris":{"android":"levelo://app?vid=0d58bdd4-45b5-40db-9ced-11725c0c62bd","ios":"levelo://app?vid=0d58bdd4-45b5-40db-9ced-11725c0c62bd"},"vehicle_type_id":"4","last_reported":1740640154,"current_range_meters":2800,"station_id":"ce4bhq92rcd13ifvqhjg","pricing_plan_id":"cebpf4jnsgd1na2vs0mg"},{"bike_id":"839daaae-1b88-4bb0-aed6-d3481931dbe8","system_id":"levelo_inurba_marseille","lat":43.3095,"lon":5.39035,"is_reserved":false,"is_disabled":false,"rental_uris":{"android":"levelo://app?vid=839daaae-1b88-4bb0-aed6-d3481931dbe8","ios":"levelo://app?vid=839daaae-1b88-4bb0-aed6-d3481931dbe8"},"vehicle_type_id":"4","last_reported":1740640154,"current_range_meters":1600,"station_id":"ce4bgup2rcd13ifvqco0","pricing_plan_id":"cebpf4jnsgd1na2vs0mg"},{"bike_id":"77d72656-ec37-44f1-ab2b-c05ee9e3e3e9","system_id":"levelo_inurba_marseille","lat":43.29269,"lon":5.37563,"is_reserved":false,"is_disabled":false,"rental_uris":{"android":"levelo://app?vid=77d72656-ec37-44f1-ab2b-c05ee9e3e3e9","ios":"levelo://app?vid=77d72656-ec37-44f1-ab2b-c05ee9e3e3e9"},"vehicle_type_id":"4","last_reported":1740640154,"current_range_meters":3200,"station_id":"","pricing_plan_id":"cebpf4jnsgd1na2vs0mg"},{"bike_id":"1f0dcaf3-20ff-45bc-b4ef-8f34cf36e226","system_id":"levelo_inurba_marseille","lat":43.27826,"lon":5.40711,"is_reserved":false,"is_disabled":true,"rental_uris":{"android":"levelo://app?vid=1f0dcaf3-20ff-45bc-b4ef-8f34cf36e226","ios":"levelo://app?vid=1f0dcaf3-20ff-45bc-b4ef-8f34cf36e226"},"vehicle_type_id":"4","last_reported":1740640154,"current_range_meters":3200,"station_id":"ce4bhnh2rcd13ifvqgtg","pricing_plan_id":"cebpf4jnsgd1na2vs0mg"},{"bike_id":"04f94eee-fb54-48fb-9403-6e681b694afb","system_id":"levelo_inurba_marseille","lat":43.293506,"lon":5.401463,"is_reserved":false,"is_disabled":false,"rental_uris":{"android":"levelo://app?vid=04f94eee-fb54-48fb-9403-6e681b694afb","ios":"levelo://app?vid=04f94eee-fb54-48fb-9403-6e681b694afb"},"vehicle_type_id":"4","last_reported":1740640154,"current_range_meters":3600,"station_id":"","pricing_plan_id":"cebpf4jnsgd1na2vs0mg"},{"bike_id":"7c95904b-ee6c-442a-a902-49c0c9d387e4","system_id":"levelo_inurba_marseille","lat":43.24387,"lon":5.37066,"is_reserved":false,"is_disabled":false,"rental_uris":{"android":"levelo://app?vid=7c95904b-ee6c-442a-a902-49c0c9d387e4","ios":"levelo://app?vid=7c95904b-ee6c-442a-a902-49c0c9d387e4"},"vehicle_type_id":"4","last_reported":1740640154,"current_range_meters":3600,"station_id":"ce4bhhh2rcd13ifvqfk0","pricing_plan_id":"cebpf4jnsgd1na2vs0mg"},{"bike_id":"39c490fa-7a92-47db-bc32-fe7f8b3890e2","system_id":"levelo_inurba_marseille","lat":43.29289,"lon":5.36831,"is_reserved":false,"is_disabled":true,"rental_uris":{"android":"levelo://app?vid=39c490fa-7a92-47db-bc32-fe7f8b3890e2","ios":"levelo://app?vid=39c490fa-7a92-47db-bc32-fe7f8b3890e2"},"vehicle_type_id":"4","last_reported":1740640154,"current_range_meters":3600,"station_id":"ce4bhbp2rcd13ifvqesg","pricing_plan_id":"cebpf4jnsgd1na2vs0mg"},{"bike_id":"dda9179a-ad89-4a94-958d-1644fead7881","system_id":"levelo_inurba_marseille","lat":43.30598,"lon":5.39357,"is_reserved":false,"is_disabled":false,"rental_uris":{"android":"levelo://app?vid=dda9179a-ad89-4a94-958d-1644fead7881","ios":"levelo://app?vid=dda9179a-ad89-4a94-958d-1644fead7881"},"vehicle_type_id":"4","last_reported":1740640154,"current_range_meters":3600,"station_id":"ce4bh0p2rcd13ifvqd80","pricing_plan_id":"cebpf4jnsgd1na2vs0mg"},{"bike_id":"42f871f8-18c0-4a1c-9a68-89c4fc0cfcf4","system_id":"levelo_inurba_marseille","lat":43.28131,"lon":5.41218,"is_reserved":false,"is_disabled":false,"rental_uris":{"android":"levelo://app?vid=42f871f8-18c0-4a1c-9a68-89c4fc0cfcf4","ios":"levelo://app?vid=42f871f8-18c0-4a1c-9a68-89c4fc0cfcf4"},"vehicle_type_id":"4","last_reported":1740640154,"current_range_meters":4000,"station_id":"","pricing_plan_id":"cebpf4jnsgd1na2vs0mg"},{"bike_id":"e3ed74ba-8236-4d02-9903-031916667cf5","system_id":"levelo_inurba_marseille","lat":43.33771,"lon":5.37444,"is_reserved":false,"is_disabled":false,"rental_uris":{"android":"levelo://app?vid=e3ed74ba-8236-4d02-9903-031916667cf5","ios":"levelo://app?vid=e3ed74ba-8236-4d02-9903-031916667cf5"},"vehicle_type_id":"4","last_reported":1740640154,"current_range_meters":4400,"station_id":"","pricing_plan_id":"cebpf4jnsgd1na2vs0mg"},{"bike_id":"a27cdc45-2ff2-4eff-a824-899c9b6197ab","system_id":"levelo_inurba_marseille","lat":43.25935,"lon":5.40899,"is_reserved":false,"is_disabled":false,"rental_uris":{"android":"levelo://app?vid=a27cdc45-2ff2-4eff-a824-899c9b6197ab","ios":"levelo://app?vid=a27cdc45-2ff2-4eff-a824-899c9b6197ab"},"vehicle_type_id":"4","last_reported":1740640154,"current_range_meters":17200,"station_id":"ce4bhm92rcd13ifvqglg","pricing_plan_id":"cebpf4jnsgd1na2vs0mg"},{"bike_id":"aa8dc2a3-0ed6-4bbb-97fa-e0f4d7b4b792","system_id":"levelo_inurba_marseille","lat":43.29806,"lon":5.38101,"is_reserved":false,"is_disabled":false,"rental_uris":{"android":"levelo://app?vid=aa8dc2a3-0ed6-4bbb-97fa-e0f4d7b4b792","ios":"levelo://app?vid=aa8dc2a3-0ed6-4bbb-97fa-e0f4d7b4b792"},"vehicle_type_id":"4","last_reported":1740640154,"current_range_meters":4400,"station_id":"ce4bgip2rcd13ifvqbb0","pricing_plan_id":"cebpf4jnsgd1na2vs0mg"},{"bike_id":"411b5315-e03f-43f4-b5cd-9f0caf8d3081","system_id":"levelo_inurba_marseille","lat":43.23198,"lon":5.39998,"is_reserved":false,"is_disabled":false,"rental_uris":{"android":"levelo://app?vid=411b5315-e03f-43f4-b5cd-9f0caf8d3081","ios":"levelo://app?vid=411b5315-e03f-43f4-b5cd-9f0caf8d3081"},"vehicle_type_id":"4","last_reported":1740640154,"current_range_meters":4400,"station_id":"ce4bhn12rcd13ifvqgqg","pricing_plan_id":"cebpf4jnsgd1na2vs0mg"},{"bike_id":"ed7cc96f-fff5-4ce7-9f21-9622f3a6c425","system_id":"levelo_inurba_marseille","lat":43.23187,"lon":5.39982,"is_reserved":false,"is_disabled":false,"rental_uris":{"android":"levelo://app?vid=ed7cc96f-fff5-4ce7-9f21-9622f3a6c425","ios":"levelo://app?vid=ed7cc96f-fff5-4ce7-9f21-9622f3a6c425"},"vehicle_type_id":"4","last_reported":1740640154,"current_range_meters":4800,"station_id":"ce4bhn12rcd13ifvqgqg","pricing_plan_id":"cebpf4jnsgd1na2vs0mg"},{"bike_id":"8b77da35-3145-4c33-be84-75dbb6cad8a6","system_id":"levelo_inurba_marseille","lat":43.26959,"lon":5.38639,"is_reserved":false,"is_disabled":false,"rental_uris":{"android":"levelo://app?vid=8b77da35-3145-4c33-be84-75dbb6cad8a6","ios":"levelo://app?vid=8b77da35-3145-4c33-be84-75dbb6cad8a6"},"vehicle_type_id":"4","last_reported":1740640154,"current_range_meters":4800,"station_id":"ce4bhh92rcd13ifvqfh0","pricing_plan_id":"cebpf4jnsgd1na2vs0mg"},{"bike_id":"bf9f58e6-20a6-4464-9dd2-7b2e3b36e791","system_id":"levelo_inurba_marseille","lat":43.28924,"lon":5.36274,"is_reserved":false,"is_disabled":false,"rental_uris":{"android":"levelo://app?vid=bf9f58e6-20a6-4464-9dd2-7b2e3b36e791","ios":"levelo://app?vid=bf9f58e6-20a6-4464-9dd2-7b2e3b36e791"},"vehicle_type_id":"4","last_reported":1740640154,"current_range_meters":5600,"station_id":"ce4bgnh2rcd13ifvqc0g","pricing_plan_id":"cebpf4jnsgd1na2vs0mg"},{"bike_id":"fd3fc325-4124-4ec4-8b0f-e834d9473dfd","system_id":"levelo_inurba_marseille","lat":43.29255,"lon":5.40909,"is_reserved":false,"is_disabled":false,"rental_uris":{"android":"levelo://app?vid=fd3fc325-4124-4ec4-8b0f-e834d9473dfd","ios":"levelo://app?vid=fd3fc325-4124-4ec4-8b0f-e834d9473dfd"},"vehicle_type_id":"4","last_reported":1740640154,"current_range_meters":4400,"station_id":"ce4bh192rcd13ifvqdc0","pricing_plan_id":"cebpf4jnsgd1na2vs0mg"},{"bike_id":"b5368874-e19e-4e33-8e44-b3ac25e43af6","system_id":"levelo_inurba_marseille","lat":43.31314,"lon":5.37082,"is_reserved":false,"is_disabled":false,"rental_uris":{"android":"levelo://app?vid=b5368874-e19e-4e33-8e44-b3ac25e43af6","ios":"levelo://app?vid=b5368874-e19e-4e33-8e44-b3ac25e43af6"},"vehicle_type_id":"4","last_reported":1740640154,"current_range_meters":5600,"station_id":"","pricing_plan_id":"cebpf4jnsgd1na2vs0mg"},{"bike_id":"68db716c-6572-40ea-b079-987ee4623b4d","system_id":"levelo_inurba_marseille","lat":43.26868,"lon":5.40969,"is_reserved":false,"is_disabled":false,"rental_uris":{"android":"levelo://app?vid=68db716c-6572-40ea-b079-987ee4623b4d","ios":"levelo://app?vid=68db716c-6572-40ea-b079-987ee4623b4d"},"vehicle_type_id":"4","last_reported":1740640154,"current_range_meters":5600,"station_id":"","pricing_plan_id":"cebpf4jnsgd1na2vs0mg"},{"bike_id":"26b18852-1457-40e7-acd7-9e5d84039a45","system_id":"levelo_inurba_marseille","lat":43.28154,"lon":5.42644,"is_reserved":false,"is_disabled":false,"rental_uris":{"android":"levelo://app?vid=26b18852-1457-40e7-acd7-9e5d84039a45","ios":"levelo://app?vid=26b18852-1457-40e7-acd7-9e5d84039a45"},"vehicle_type_id":"4","last_reported":1740640154,"current_range_meters":6800,"station_id":"ce4bhnh2rcd13ifvqgug","pricing_plan_id":"cebpf4jnsgd1na2vs0mg"},{"bike_id":"70fa00c4-be33-4417-aecc-15176e05bec9","system_id":"levelo_inurba_marseille","lat":43.28474,"lon":5.35893,"is_reserved":false,"is_disabled":false,"rental_uris":{"android":"levelo://app?vid=70fa00c4-be33-4417-aecc-15176e05bec9","ios":"levelo://app?vid=70fa00c4-be33-4417-aecc-15176e05bec9"},"vehicle_type_id":"4","last_reported":1740640154,"current_range_meters":5600,"station_id":"ce4bhah2rcd13ifvqei0","pricing_plan_id":"cebpf4jnsgd1na2vs0mg"},{"bike_id":"93f4a3f1-9fab-4954-b0c5-0ef2a2c9b84d","system_id":"levelo_inurba_marseille","lat":43.27488,"lon":5.42461,"is_reserved":false,"is_disabled":false,"rental_uris":{"android":"levelo://app?vid=93f4a3f1-9fab-4954-b0c5-0ef2a2c9b84d","ios":"levelo://app?vid=93f4a3f1-9fab-4954-b0c5-0ef2a2c9b84d"},"vehicle_type_id":"4","last_reported":1740640154,"current_range_meters":6000,"station_id":"ce4bhn92rcd13ifvqgrg","pricing_plan_id":"cebpf4jnsgd1na2vs0mg"},{"bike_id":"96538e64-3767-44af-950d-21bd547be24d","system_id":"levelo_inurba_marseille","lat":43.3042,"lon":5.39753,"is_reserved":false,"is_disabled":false,"rental_uris":{"android":"levelo://app?vid=96538e64-3767-44af-950d-21bd547be24d","ios":"levelo://app?vid=96538e64-3767-44af-950d-21bd547be24d"},"vehicle_type_id":"4","last_reported":1740640154,"current_range_meters":6000,"station_id":"ce4bh092rcd13ifvqd20","pricing_plan_id":"cebpf4jnsgd1na2vs0mg"},{"bike_id":"fab08096-3c45-4414-abab-ffa9243aa1d4","system_id":"levelo_inurba_marseille","lat":43.32323,"lon":5.38926,"is_reserved":false,"is_disabled":false,"rental_uris":{"android":"levelo://app?vid=fab08096-3c45-4414-abab-ffa9243aa1d4","ios":"levelo://app?vid=fab08096-3c45-4414-abab-ffa9243aa1d4"},"vehicle_type_id":"4","last_reported":1740640154,"current_range_meters":3600,"station_id":"","pricing_plan_id":"cebpf4jnsgd1na2vs0mg"},{"bike_id":"64d1dcdb-2974-4aea-a074-f7aa761c6db6","system_id":"levelo_inurba_marseille","lat":43.25092,"lon":5.41072,"is_reserved":false,"is_disabled":false,"rental_uris":{"android":"levelo://app?vid=64d1dcdb-2974-4aea-a074-f7aa761c6db6","ios":"levelo://app?vid=64d1dcdb-2974-4aea-a074-f7aa761c6db6"},"vehicle_type_id":"4","last_reported":1740640154,"current_range_meters":6800,"station_id":"","pricing_plan_id":"cebpf4jnsgd1na2vs0mg"},{"bike_id":"43999b17-82a3-4776-9265-eb44ae135068","system_id":"levelo_inurba_marseille","lat":43.30868,"lon":5.39691,"is_reserved":false,"is_disabled":false,"rental_uris":{"android":"levelo://app?vid=43999b17-82a3-4776-9265-eb44ae135068","ios":"levelo://app?vid=43999b17-82a3-4776-9265-eb44ae135068"},"vehicle_type_id":"4","last_reported":1740640154,"current_range_meters":6400,"station_id":"","pricing_plan_id":"cebpf4jnsgd1na2vs0mg"},{"bike_id":"fd749d3e-13c0-4845-9576-ccfbc237ffe0","system_id":"levelo_inurba_marseille","lat":43.28256,"lon":5.35086,"is_reserved":false,"is_disabled":false,"rental_uris":{"android":"levelo://app?vid=fd749d3e-13c0-4845-9576-ccfbc237ffe0","ios":"levelo://app?vid=fd749d3e-13c0-4845-9576-ccfbc237ffe0"},"vehicle_type_id":"4","last_reported":1740640154,"current_range_meters":6800,"station_id":"ce4bhbp2rcd13ifvqerg","pricing_plan_id":"cebpf4jnsgd1na2vs0mg"},{"bike_id":"5c47d4c3-83ff-4b25-91fb-a87385c61f6a","system_id":"levelo_inurba_marseille","lat":43.3172,"lon":5.43711,"is_reserved":false,"is_disabled":false,"rental_uris":{"android":"levelo://app?vid=5c47d4c3-83ff-4b25-91fb-a87385c61f6a","ios":"levelo://app?vid=5c47d4c3-83ff-4b25-91fb-a87385c61f6a"},"vehicle_type_id":"4","last_reported":1740640154,"current_range_meters":6800,"station_id":"ce4bhp92rcd13ifvqhcg","pricing_plan_id":"cebpf4jnsgd1na2vs0mg"},{"bike_id":"5925fc9d-0217-43db-be70-d313f2b8e15c","system_id":"levelo_inurba_marseille","lat":43.28119,"lon":5.42664,"is_reserved":false,"is_disabled":false,"rental_uris":{"android":"levelo://app?vid=5925fc9d-0217-43db-be70-d313f2b8e15c","ios":"levelo://app?vid=5925fc9d-0217-43db-be70-d313f2b8e15c"},"vehicle_type_id":"4","last_reported":1740640154,"current_range_meters":6800,"station_id":"ce4bhnh2rcd13ifvqgug","pricing_plan_id":"cebpf4jnsgd1na2vs0mg"},{"bike_id":"80d17f27-9cb7-4958-bc84-6012f4c67bf9","system_id":"levelo_inurba_marseille","lat":43.30877,"lon":5.39656,"is_reserved":false,"is_disabled":false,"rental_uris":{"android":"levelo://app?vid=80d17f27-9cb7-4958-bc84-6012f4c67bf9","ios":"levelo://app?vid=80d17f27-9cb7-4958-bc84-6012f4c67bf9"},"vehicle_type_id":"4","last_reported":1740640154,"current_range_meters":6800,"station_id":"ce4bh012rcd13ifvqcv0","pricing_plan_id":"cebpf4jnsgd1na2vs0mg"},{"bike_id":"a18d2462-6430-4fa5-8ce7-637ac348b4cd","system_id":"levelo_inurba_marseille","lat":43.2795,"lon":5.41039,"is_reserved":false,"is_disabled":false,"rental_uris":{"android":"levelo://app?vid=a18d2462-6430-4fa5-8ce7-637ac348b4cd","ios":"levelo://app?vid=a18d2462-6430-4fa5-8ce7-637ac348b4cd"},"vehicle_type_id":"4","last_reported":1740640154,"current_range_meters":6800,"station_id":"ce4bhnp2rcd13ifvqh0g","pricing_plan_id":"cebpf4jnsgd1na2vs0mg"},{"bike_id":"749b8865-8421-4153-8fd1-9d77ec509272","system_id":"levelo_inurba_marseille","lat":43.28851,"lon":5.36349,"is_reserved":false,"is_disabled":false,"rental_uris":{"android":"levelo://app?vid=749b8865-8421-4153-8fd1-9d77ec509272","ios":"levelo://app?vid=749b8865-8421-4153-8fd1-9d77ec509272"},"vehicle_type_id":"4","last_reported":1740640154,"current_range_meters":6800,"station_id":"","pricing_plan_id":"cebpf4jnsgd1na2vs0mg"},{"bike_id":"8f4f5c61-91cc-4fd5-85ad-d5b23eff483d","system_id":"levelo_inurba_marseille","lat":43.2977,"lon":5.36296,"is_reserved":false,"is_disabled":false,"rental_uris":{"android":"levelo://app?vid=8f4f5c61-91cc-4fd5-85ad-d5b23eff483d","ios":"levelo://app?vid=8f4f5c61-91cc-4fd5-85ad-d5b23eff483d"},"vehicle_type_id":"4","last_reported":1740640154,"current_range_meters":7200,"station_id":"","pricing_plan_id":"cebpf4jnsgd1na2vs0mg"},{"bike_id":"939c031e-684f-4a3f-8b91-979871392d85","system_id":"levelo_inurba_marseille","lat":43.30887,"lon":5.3963,"is_reserved":false,"is_disabled":false,"rental_uris":{"android":"levelo://app?vid=939c031e-684f-4a3f-8b91-979871392d85","ios":"levelo://app?vid=939c031e-684f-4a3f-8b91-979871392d85"},"vehicle_type_id":"4","last_reported":1740640154,"current_range_meters":8000,"station_id":"ce4bh012rcd13ifvqcv0","pricing_plan_id":"cebpf4jnsgd1na2vs0mg"},{"bike_id":"954ce63b-1d42-4ba1-9eb0-83c6377ed1bd","system_id":"levelo_inurba_marseille","lat":43.30633,"lon":5.401,"is_reserved":false,"is_disabled":false,"rental_uris":{"android":"levelo://app?vid=954ce63b-1d42-4ba1-9eb0-83c6377ed1bd","ios":"levelo://app?vid=954ce63b-1d42-4ba1-9eb0-83c6377ed1bd"},"vehicle_type_id":"4","last_reported":1740640154,"current_range_meters":8400,"station_id":"ce4bh112rcd13ifvqda0","pricing_plan_id":"cebpf4jnsgd1na2vs0mg"},{"bike_id":"6b286004-f086-4023-9675-02a95f8e917b","system_id":"levelo_inurba_marseille","lat":43.30951,"lon":5.39014,"is_reserved":false,"is_disabled":true,"rental_uris":{"android":"levelo://app?vid=6b286004-f086-4023-9675-02a95f8e917b","ios":"levelo://app?vid=6b286004-f086-4023-9675-02a95f8e917b"},"vehicle_type_id":"4","last_reported":1740640154,"current_range_meters":8000,"station_id":"ce4bgup2rcd13ifvqco0","pricing_plan_id":"cebpf4jnsgd1na2vs0mg"},{"bike_id":"c7b09eff-3ec0-49b3-a4b6-8c9e5a905d76","system_id":"levelo_inurba_marseille","lat":43.30469,"lon":5.37927,"is_reserved":false,"is_disabled":false,"rental_uris":{"android":"levelo://app?vid=c7b09eff-3ec0-49b3-a4b6-8c9e5a905d76","ios":"levelo://app?vid=c7b09eff-3ec0-49b3-a4b6-8c9e5a905d76"},"vehicle_type_id":"4","last_reported":1740640154,"current_range_meters":8400,"station_id":"ce4bgup2rcd13ifvqcn0","pricing_plan_id":"cebpf4jnsgd1na2vs0mg"},{"bike_id":"719baaea-c293-42a3-a0f8-1e9953de7b58","system_id":"levelo_inurba_marseille","lat":43.265672,"lon":5.390121,"is_reserved":false,"is_disabled":true,"rental_uris":{"android":"levelo://app?vid=719baaea-c293-42a3-a0f8-1e9953de7b58","ios":"levelo://app?vid=719baaea-c293-42a3-a0f8-1e9953de7b58"},"vehicle_type_id":"4","last_reported":1740640154,"current_range_meters":8000,"station_id":"ce4bhe12rcd13ifvqf30","pricing_plan_id":"cebpf4jnsgd1na2vs0mg"},{"bike_id":"26d1edd1-2a52-428c-b2a6-7dd75e71037c","system_id":"levelo_inurba_marseille","lat":43.28619,"lon":5.35113,"is_reserved":false,"is_disabled":false,"rental_uris":{"android":"levelo://app?vid=26d1edd1-2a52-428c-b2a6-7dd75e71037c","ios":"levelo://app?vid=26d1edd1-2a52-428c-b2a6-7dd75e71037c"},"vehicle_type_id":"4","last_reported":1740640154,"current_range_meters":8400,"station_id":"ce4bhch2rcd13ifvqeug","pricing_plan_id":"cebpf4jnsgd1na2vs0mg"},{"bike_id":"4746a1ec-b2f2-4dc3-a6a0-3d3864b285bf","system_id":"levelo_inurba_marseille","lat":43.30897,"lon":5.3962,"is_reserved":false,"is_disabled":false,"rental_uris":{"android":"levelo://app?vid=4746a1ec-b2f2-4dc3-a6a0-3d3864b285bf","ios":"levelo://app?vid=4746a1ec-b2f2-4dc3-a6a0-3d3864b285bf"},"vehicle_type_id":"4","last_reported":1740640154,"current_range_meters":8400,"station_id":"ce4bh012rcd13ifvqcv0","pricing_plan_id":"cebpf4jnsgd1na2vs0mg"},{"bike_id":"016677d5-73fa-4b9c-819d-b10927eb5aa6","system_id":"levelo_inurba_marseille","lat":43.30478,"lon":5.379033,"is_reserved":false,"is_disabled":false,"rental_uris":{"android":"levelo://app?vid=016677d5-73fa-4b9c-819d-b10927eb5aa6","ios":"levelo://app?vid=016677d5-73fa-4b9c-819d-b10927eb5aa6"},"vehicle_type_id":"4","last_reported":1740640154,"current_range_meters":8000,"station_id":"ce4bgup2rcd13ifvqcn0","pricing_plan_id":"cebpf4jnsgd1na2vs0mg"},{"bike_id":"946ffe70-3e7c-49a6-8659-388e8c6a00a1","system_id":"levelo_inurba_marseille","lat":43.26954,"lon":5.38637,"is_reserved":false,"is_disabled":false,"rental_uris":{"android":"levelo://app?vid=946ffe70-3e7c-49a6-8659-388e8c6a00a1","ios":"levelo://app?vid=946ffe70-3e7c-49a6-8659-388e8c6a00a1"},"vehicle_type_id":"4","last_reported":1740640154,"current_range_meters":10800,"station_id":"ce4bhh92rcd13ifvqfh0","pricing_plan_id":"cebpf4jnsgd1na2vs0mg"},{"bike_id":"1e37517c-7c13-497e-93a6-2c0209fd3d04","system_id":"levelo_inurba_marseille","lat":43.28622,"lon":5.35114,"is_reserved":false,"is_disabled":false,"rental_uris":{"android":"levelo://app?vid=1e37517c-7c13-497e-93a6-2c0209fd3d04","ios":"levelo://app?vid=1e37517c-7c13-497e-93a6-2c0209fd3d04"},"vehicle_type_id":"4","last_reported":1740640154,"current_range_meters":8400,"station_id":"ce4bhch2rcd13ifvqeug","pricing_plan_id":"cebpf4jnsgd1na2vs0mg"},{"bike_id":"1d70c622-10e8-4a33-8612-a7dc67991c51","system_id":"levelo_inurba_marseille","lat":43.31746,"lon":5.37784,"is_reserved":false,"is_disabled":false,"rental_uris":{"android":"levelo://app?vid=1d70c622-10e8-4a33-8612-a7dc67991c51","ios":"levelo://app?vid=1d70c622-10e8-4a33-8612-a7dc67991c51"},"vehicle_type_id":"4","last_reported":1740640154,"current_range_meters":8400,"station_id":"ce4bgth2rcd13ifvqch0","pricing_plan_id":"cebpf4jnsgd1na2vs0mg"},{"bike_id":"cc5b8803-1413-4f2d-912e-42c063433ae4","system_id":"levelo_inurba_marseille","lat":43.321062,"lon":5.367694,"is_reserved":false,"is_disabled":false,"rental_uris":{"android":"levelo://app?vid=cc5b8803-1413-4f2d-912e-42c063433ae4","ios":"levelo://app?vid=cc5b8803-1413-4f2d-912e-42c063433ae4"},"vehicle_type_id":"4","last_reported":1740640154,"current_range_meters":8400,"station_id":"ce4bhrh2rcd13ifvqhug","pricing_plan_id":"cebpf4jnsgd1na2vs0mg"},{"bike_id":"52a02ec7-8e0c-4781-ae9b-a63b7edaabaf","system_id":"levelo_inurba_marseille","lat":43.28271,"lon":5.35063,"is_reserved":false,"is_disabled":false,"rental_uris":{"android":"levelo://app?vid=52a02ec7-8e0c-4781-ae9b-a63b7edaabaf","ios":"levelo://app?vid=52a02ec7-8e0c-4781-ae9b-a63b7edaabaf"},"vehicle_type_id":"4","last_reported":1740640154,"current_range_meters":8400,"station_id":"ce4bhbp2rcd13ifvqerg","pricing_plan_id":"cebpf4jnsgd1na2vs0mg"},{"bike_id":"48629be7-0cbd-43a1-9464-c2ac347ae9ff","system_id":"levelo_inurba_marseille","lat":43.23153,"lon":5.43707,"is_reserved":false,"is_disabled":false,"rental_uris":{"android":"levelo://app?vid=48629be7-0cbd-43a1-9464-c2ac347ae9ff","ios":"levelo://app?vid=48629be7-0cbd-43a1-9464-c2ac347ae9ff"},"vehicle_type_id":"4","last_reported":1740640154,"current_range_meters":8400,"station_id":"ce4bhmp2rcd13ifvqgog","pricing_plan_id":"cebpf4jnsgd1na2vs0mg"},{"bike_id":"cc0f0a33-8776-49b0-b177-6d3fba0c78fd","system_id":"levelo_inurba_marseille","lat":43.31332,"lon":5.39716,"is_reserved":false,"is_disabled":false,"rental_uris":{"android":"levelo://app?vid=cc0f0a33-8776-49b0-b177-6d3fba0c78fd","ios":"levelo://app?vid=cc0f0a33-8776-49b0-b177-6d3fba0c78fd"},"vehicle_type_id":"4","last_reported":1740640154,"current_range_meters":8400,"station_id":"ce4bgvp2rcd13ifvqcu0","pricing_plan_id":"cebpf4jnsgd1na2vs0mg"},{"bike_id":"3b5a8764-56c8-4a2d-9d9e-a9aeeab2dd3c","system_id":"levelo_inurba_marseille","lat":43.3232,"lon":5.36598,"is_reserved":false,"is_disabled":false,"rental_uris":{"android":"levelo://app?vid=3b5a8764-56c8-4a2d-9d9e-a9aeeab2dd3c","ios":"levelo://app?vid=3b5a8764-56c8-4a2d-9d9e-a9aeeab2dd3c"},"vehicle_type_id":"4","last_reported":1740640154,"current_range_meters":8400,"station_id":"","pricing_plan_id":"cebpf4jnsgd1na2vs0mg"},{"bike_id":"128d9f19-560e-4907-b2b5-99db2fe70c71","system_id":"levelo_inurba_marseille","lat":43.30628,"lon":5.40081,"is_reserved":false,"is_disabled":false,"rental_uris":{"android":"levelo://app?vid=128d9f19-560e-4907-b2b5-99db2fe70c71","ios":"levelo://app?vid=128d9f19-560e-4907-b2b5-99db2fe70c71"},"vehicle_type_id":"4","last_reported":1740640154,"current_range_meters":8800,"station_id":"ce4bh112rcd13ifvqda0","pricing_plan_id":"cebpf4jnsgd1na2vs0mg"},{"bike_id":"fa6f968e-cca2-43e5-8828-eebc8c2654e8","system_id":"levelo_inurba_marseille","lat":43.30492,"lon":5.37908,"is_reserved":false,"is_disabled":false,"rental_uris":{"android":"levelo://app?vid=fa6f968e-cca2-43e5-8828-eebc8c2654e8","ios":"levelo://app?vid=fa6f968e-cca2-43e5-8828-eebc8c2654e8"},"vehicle_type_id":"4","last_reported":1740640154,"current_range_meters":8800,"station_id":"ce4bgup2rcd13ifvqcn0","pricing_plan_id":"cebpf4jnsgd1na2vs0mg"},{"bike_id":"0a2459c8-c21a-41cd-a3d9-208198a3328b","system_id":"levelo_inurba_marseille","lat":43.299715,"lon":5.384679,"is_reserved":false,"is_disabled":false,"rental_uris":{"android":"levelo://app?vid=0a2459c8-c21a-41cd-a3d9-208198a3328b","ios":"levelo://app?vid=0a2459c8-c21a-41cd-a3d9-208198a3328b"},"vehicle_type_id":"4","last_reported":1740640154,"current_range_meters":8800,"station_id":"ce4bhsp2rcd13ifvqi50","pricing_plan_id":"cebpf4jnsgd1na2vs0mg"},{"bike_id":"e19f7dab-e7ec-4a64-957b-25d1ae9239da","system_id":"levelo_inurba_marseille","lat":43.29555,"lon":5.38192,"is_reserved":false,"is_disabled":false,"rental_uris":{"android":"levelo://app?vid=e19f7dab-e7ec-4a64-957b-25d1ae9239da","ios":"levelo://app?vid=e19f7dab-e7ec-4a64-957b-25d1ae9239da"},"vehicle_type_id":"4","last_reported":1740640154,"current_range_meters":8800,"station_id":"","pricing_plan_id":"cebpf4jnsgd1na2vs0mg"},{"bike_id":"81011008-4f27-4615-8d97-c7d494737292","system_id":"levelo_inurba_marseille","lat":43.29037,"lon":5.39971,"is_reserved":false,"is_disabled":false,"rental_uris":{"android":"levelo://app?vid=81011008-4f27-4615-8d97-c7d494737292","ios":"levelo://app?vid=81011008-4f27-4615-8d97-c7d494737292"},"vehicle_type_id":"4","last_reported":1740640154,"current_range_meters":10800,"station_id":"ce4bh392rcd13ifvqdm0","pricing_plan_id":"cebpf4jnsgd1na2vs0mg"},{"bike_id":"b007f058-4163-4bbe-ba13-50835769bd43","system_id":"levelo_inurba_marseille","lat":43.3169,"lon":5.43751,"is_reserved":false,"is_disabled":false,"rental_uris":{"android":"levelo://app?vid=b007f058-4163-4bbe-ba13-50835769bd43","ios":"levelo://app?vid=b007f058-4163-4bbe-ba13-50835769bd43"},"vehicle_type_id":"4","last_reported":1740640154,"current_range_meters":8800,"station_id":"ce4bhp92rcd13ifvqhcg","pricing_plan_id":"cebpf4jnsgd1na2vs0mg"},{"bike_id":"284a0e7b-046c-4a6a-972f-6192daeb9a55","system_id":"levelo_inurba_marseille","lat":43.29517,"lon":5.39437,"is_reserved":false,"is_disabled":true,"rental_uris":{"android":"levelo://app?vid=284a0e7b-046c-4a6a-972f-6192daeb9a55","ios":"levelo://app?vid=284a0e7b-046c-4a6a-972f-6192daeb9a55"},"vehicle_type_id":"4","last_reported":1740640154,"current_range_meters":8800,"station_id":"ce4bh292rcd13ifvqdf0","pricing_plan_id":"cebpf4jnsgd1na2vs0mg"},{"bike_id":"e8cd389f-5545-4c8b-8c8c-06153761c005","system_id":"levelo_inurba_marseille","lat":43.31993,"lon":5.38161,"is_reserved":false,"is_disabled":false,"rental_uris":{"android":"levelo://app?vid=e8cd389f-5545-4c8b-8c8c-06153761c005","ios":"levelo://app?vid=e8cd389f-5545-4c8b-8c8c-06153761c005"},"vehicle_type_id":"4","last_reported":1740640154,"current_range_meters":8800,"station_id":"ce4bhr12rcd13ifvqhpg","pricing_plan_id":"cebpf4jnsgd1na2vs0mg"},{"bike_id":"53f6206c-2750-42e7-a8f3-9533b6f35c4a","system_id":"levelo_inurba_marseille","lat":43.28628,"lon":5.35109,"is_reserved":false,"is_disabled":false,"rental_uris":{"android":"levelo://app?vid=53f6206c-2750-42e7-a8f3-9533b6f35c4a","ios":"levelo://app?vid=53f6206c-2750-42e7-a8f3-9533b6f35c4a"},"vehicle_type_id":"4","last_reported":1740640154,"current_range_meters":8800,"station_id":"ce4bhch2rcd13ifvqeug","pricing_plan_id":"cebpf4jnsgd1na2vs0mg"},{"bike_id":"9f4ebea0-1844-4cd6-b15a-4bdeb3ff54e9","system_id":"levelo_inurba_marseille","lat":43.298674,"lon":5.389058,"is_reserved":false,"is_disabled":true,"rental_uris":{"android":"levelo://app?vid=9f4ebea0-1844-4cd6-b15a-4bdeb3ff54e9","ios":"levelo://app?vid=9f4ebea0-1844-4cd6-b15a-4bdeb3ff54e9"},"vehicle_type_id":"4","last_reported":1740640154,"current_range_meters":9200,"station_id":"ce4bh392rcd13ifvqdl0","pricing_plan_id":"cebpf4jnsgd1na2vs0mg"},{"bike_id":"71eb7e46-ed31-49fe-a574-192da2be6707","system_id":"levelo_inurba_marseille","lat":43.27947,"lon":5.41048,"is_reserved":false,"is_disabled":false,"rental_uris":{"android":"levelo://app?vid=71eb7e46-ed31-49fe-a574-192da2be6707","ios":"levelo://app?vid=71eb7e46-ed31-49fe-a574-192da2be6707"},"vehicle_type_id":"4","last_reported":1740640154,"current_range_meters":9200,"station_id":"ce4bhnp2rcd13ifvqh0g","pricing_plan_id":"cebpf4jnsgd1na2vs0mg"},{"bike_id":"5f308289-7956-46f1-aa7a-534abc78d8d6","system_id":"levelo_inurba_marseille","lat":43.30157,"lon":5.3808,"is_reserved":false,"is_disabled":false,"rental_uris":{"android":"levelo://app?vid=5f308289-7956-46f1-aa7a-534abc78d8d6","ios":"levelo://app?vid=5f308289-7956-46f1-aa7a-534abc78d8d6"},"vehicle_type_id":"4","last_reported":1740640154,"current_range_meters":8800,"station_id":"ce4bgjp2rcd13ifvqbh0","pricing_plan_id":"cebpf4jnsgd1na2vs0mg"},{"bike_id":"2da828eb-ceb1-490f-ba6e-6557a2f25d6b","system_id":"levelo_inurba_marseille","lat":43.25595,"lon":5.38237,"is_reserved":false,"is_disabled":false,"rental_uris":{"android":"levelo://app?vid=2da828eb-ceb1-490f-ba6e-6557a2f25d6b","ios":"levelo://app?vid=2da828eb-ceb1-490f-ba6e-6557a2f25d6b"},"vehicle_type_id":"4","last_reported":1740640154,"current_range_meters":9200,"station_id":"ce4bhih2rcd13ifvqfs0","pricing_plan_id":"cebpf4jnsgd1na2vs0mg"},{"bike_id":"ad9571bc-5194-4f71-90ef-f1cb0835f36e","system_id":"levelo_inurba_marseille","lat":43.25494,"lon":5.37667,"is_reserved":false,"is_disabled":false,"rental_uris":{"android":"levelo://app?vid=ad9571bc-5194-4f71-90ef-f1cb0835f36e","ios":"levelo://app?vid=ad9571bc-5194-4f71-90ef-f1cb0835f36e"},"vehicle_type_id":"4","last_reported":1740640154,"current_range_meters":9200,"station_id":"ce4bhh12rcd13ifvqff0","pricing_plan_id":"cebpf4jnsgd1na2vs0mg"},{"bike_id":"71074f1c-f645-45f2-b94d-c6d4f7b15b0f","system_id":"levelo_inurba_marseille","lat":43.26955,"lon":5.38647,"is_reserved":false,"is_disabled":false,"rental_uris":{"android":"levelo://app?vid=71074f1c-f645-45f2-b94d-c6d4f7b15b0f","ios":"levelo://app?vid=71074f1c-f645-45f2-b94d-c6d4f7b15b0f"},"vehicle_type_id":"4","last_reported":1740640154,"current_range_meters":9200,"station_id":"ce4bhh92rcd13ifvqfh0","pricing_plan_id":"cebpf4jnsgd1na2vs0mg"},{"bike_id":"6ae58686-677b-433a-b1fd-9e5656a994c1","system_id":"levelo_inurba_marseille","lat":43.28941,"lon":5.3963,"is_reserved":false,"is_disabled":false,"rental_uris":{"android":"levelo://app?vid=6ae58686-677b-433a-b1fd-9e5656a994c1","ios":"levelo://app?vid=6ae58686-677b-433a-b1fd-9e5656a994c1"},"vehicle_type_id":"4","last_reported":1740640154,"current_range_meters":9200,"station_id":"ce4bh3h2rcd13ifvqdn0","pricing_plan_id":"cebpf4jnsgd1na2vs0mg"},{"bike_id":"f80b506c-38f2-45b2-8ae3-fef2bd454d37","system_id":"levelo_inurba_marseille","lat":43.30477,"lon":5.37908,"is_reserved":false,"is_disabled":false,"rental_uris":{"android":"levelo://app?vid=f80b506c-38f2-45b2-8ae3-fef2bd454d37","ios":"levelo://app?vid=f80b506c-38f2-45b2-8ae3-fef2bd454d37"},"vehicle_type_id":"4","last_reported":1740640154,"current_range_meters":9200,"station_id":"ce4bgup2rcd13ifvqcn0","pricing_plan_id":"cebpf4jnsgd1na2vs0mg"},{"bike_id":"e73c725f-cc57-48ef-9566-1c5b22375391","system_id":"levelo_inurba_marseille","lat":43.30151,"lon":5.38089,"is_reserved":false,"is_disabled":false,"rental_uris":{"android":"levelo://app?vid=e73c725f-cc57-48ef-9566-1c5b22375391","ios":"levelo://app?vid=e73c725f-cc57-48ef-9566-1c5b22375391"},"vehicle_type_id":"4","last_reported":1740640154,"current_range_meters":9200,"station_id":"ce4bgjp2rcd13ifvqbh0","pricing_plan_id":"cebpf4jnsgd1na2vs0mg"},{"bike_id":"240631fb-e1ef-49c9-bf78-176ba3465e14","system_id":"levelo_inurba_marseille","lat":43.288446,"lon":5.358564,"is_reserved":false,"is_disabled":false,"rental_uris":{"android":"levelo://app?vid=240631fb-e1ef-49c9-bf78-176ba3465e14","ios":"levelo://app?vid=240631fb-e1ef-49c9-bf78-176ba3465e14"},"vehicle_type_id":"4","last_reported":1740640154,"current_range_meters":9600,"station_id":"ce4bhb12rcd13ifvqem0","pricing_plan_id":"cebpf4jnsgd1na2vs0mg"},{"bike_id":"dd88527c-397a-4ed6-9011-4f72ef02a408","system_id":"levelo_inurba_marseille","lat":43.3067,"lon":5.4066,"is_reserved":false,"is_disabled":false,"rental_uris":{"android":"levelo://app?vid=dd88527c-397a-4ed6-9011-4f72ef02a408","ios":"levelo://app?vid=dd88527c-397a-4ed6-9011-4f72ef02a408"},"vehicle_type_id":"4","last_reported":1740640154,"current_range_meters":9600,"station_id":"","pricing_plan_id":"cebpf4jnsgd1na2vs0mg"},{"bike_id":"4a681b3f-8836-426a-9f32-7d1f832eac75","system_id":"levelo_inurba_marseille","lat":43.28369,"lon":5.38631,"is_reserved":false,"is_disabled":false,"rental_uris":{"android":"levelo://app?vid=4a681b3f-8836-426a-9f32-7d1f832eac75","ios":"levelo://app?vid=4a681b3f-8836-426a-9f32-7d1f832eac75"},"vehicle_type_id":"4","last_reported":1740640154,"current_range_meters":9600,"station_id":"ce4bh492rcd13ifvqdvg","pricing_plan_id":"cebpf4jnsgd1na2vs0mg"},{"bike_id":"07231509-f031-44bd-a024-8b5dd56e800b","system_id":"levelo_inurba_marseille","lat":43.31639,"lon":5.39621,"is_reserved":false,"is_disabled":false,"rental_uris":{"android":"levelo://app?vid=07231509-f031-44bd-a024-8b5dd56e800b","ios":"levelo://app?vid=07231509-f031-44bd-a024-8b5dd56e800b"},"vehicle_type_id":"4","last_reported":1740640154,"current_range_meters":9600,"station_id":"","pricing_plan_id":"cebpf4jnsgd1na2vs0mg"},{"bike_id":"d3f43e6e-1b05-4616-9044-edb6ecfb67b7","system_id":"levelo_inurba_marseille","lat":43.304697,"lon":5.379147,"is_reserved":false,"is_disabled":false,"rental_uris":{"android":"levelo://app?vid=d3f43e6e-1b05-4616-9044-edb6ecfb67b7","ios":"levelo://app?vid=d3f43e6e-1b05-4616-9044-edb6ecfb67b7"},"vehicle_type_id":"4","last_reported":1740640154,"current_range_meters":9200,"station_id":"ce4bgup2rcd13ifvqcn0","pricing_plan_id":"cebpf4jnsgd1na2vs0mg"},{"bike_id":"297e0534-dfe8-437f-a8cf-46f8f61d5eef","system_id":"levelo_inurba_marseille","lat":43.2794,"lon":5.41041,"is_reserved":false,"is_disabled":false,"rental_uris":{"android":"levelo://app?vid=297e0534-dfe8-437f-a8cf-46f8f61d5eef","ios":"levelo://app?vid=297e0534-dfe8-437f-a8cf-46f8f61d5eef"},"vehicle_type_id":"4","last_reported":1740640154,"current_range_meters":9600,"station_id":"ce4bhnp2rcd13ifvqh0g","pricing_plan_id":"cebpf4jnsgd1na2vs0mg"},{"bike_id":"2ddd76cf-99e2-47b6-baa1-5133bc8aab87","system_id":"levelo_inurba_marseille","lat":43.26954,"lon":5.38633,"is_reserved":false,"is_disabled":false,"rental_uris":{"android":"levelo://app?vid=2ddd76cf-99e2-47b6-baa1-5133bc8aab87","ios":"levelo://app?vid=2ddd76cf-99e2-47b6-baa1-5133bc8aab87"},"vehicle_type_id":"4","last_reported":1740640154,"current_range_meters":9600,"station_id":"ce4bhh92rcd13ifvqfh0","pricing_plan_id":"cebpf4jnsgd1na2vs0mg"},{"bike_id":"2e1fd0a6-9414-40e1-aaf3-7539414e18fc","system_id":"levelo_inurba_marseille","lat":43.31274,"lon":5.40176,"is_reserved":false,"is_disabled":false,"rental_uris":{"android":"levelo://app?vid=2e1fd0a6-9414-40e1-aaf3-7539414e18fc","ios":"levelo://app?vid=2e1fd0a6-9414-40e1-aaf3-7539414e18fc"},"vehicle_type_id":"4","last_reported":1740640154,"current_range_meters":9600,"station_id":"ce4bh092rcd13ifvqd30","pricing_plan_id":"cebpf4jnsgd1na2vs0mg"},{"bike_id":"a425e775-b361-4ab4-93f9-fa2ea28a8286","system_id":"levelo_inurba_marseille","lat":43.32488,"lon":5.36592,"is_reserved":false,"is_disabled":false,"rental_uris":{"android":"levelo://app?vid=a425e775-b361-4ab4-93f9-fa2ea28a8286","ios":"levelo://app?vid=a425e775-b361-4ab4-93f9-fa2ea28a8286"},"vehicle_type_id":"4","last_reported":1740640154,"current_range_meters":9600,"station_id":"ce4bhs12rcd13ifvqhvg","pricing_plan_id":"cebpf4jnsgd1na2vs0mg"},{"bike_id":"bae3f5a8-b733-4a2f-b3e7-02d576ff7327","system_id":"levelo_inurba_marseille","lat":43.30588,"lon":5.39357,"is_reserved":false,"is_disabled":false,"rental_uris":{"android":"levelo://app?vid=bae3f5a8-b733-4a2f-b3e7-02d576ff7327","ios":"levelo://app?vid=bae3f5a8-b733-4a2f-b3e7-02d576ff7327"},"vehicle_type_id":"4","last_reported":1740640154,"current_range_meters":9600,"station_id":"ce4bh0p2rcd13ifvqd80","pricing_plan_id":"cebpf4jnsgd1na2vs0mg"},{"bike_id":"9721a8d2-5ed5-4c5c-8f41-41104e93930e","system_id":"levelo_inurba_marseille","lat":43.27982,"lon":5.38689,"is_reserved":false,"is_disabled":false,"rental_uris":{"android":"levelo://app?vid=9721a8d2-5ed5-4c5c-8f41-41104e93930e","ios":"levelo://app?vid=9721a8d2-5ed5-4c5c-8f41-41104e93930e"},"vehicle_type_id":"4","last_reported":1740640154,"current_range_meters":9600,"station_id":"ce4bhg12rcd13ifvqf80","pricing_plan_id":"cebpf4jnsgd1na2vs0mg"},{"bike_id":"4ce43591-ef0d-44cc-9c76-e913f385759d","system_id":"levelo_inurba_marseille","lat":43.29003,"lon":5.35616,"is_reserved":false,"is_disabled":false,"rental_uris":{"android":"levelo://app?vid=4ce43591-ef0d-44cc-9c76-e913f385759d","ios":"levelo://app?vid=4ce43591-ef0d-44cc-9c76-e913f385759d"},"vehicle_type_id":"4","last_reported":1740640154,"current_range_meters":10000,"station_id":"ce4bhb92rcd13ifvqen0","pricing_plan_id":"cebpf4jnsgd1na2vs0mg"},{"bike_id":"f66913d8-adc8-4497-b81a-8613461ae8a9","system_id":"levelo_inurba_marseille","lat":43.28424,"lon":5.34998,"is_reserved":false,"is_disabled":false,"rental_uris":{"android":"levelo://app?vid=f66913d8-adc8-4497-b81a-8613461ae8a9","ios":"levelo://app?vid=f66913d8-adc8-4497-b81a-8613461ae8a9"},"vehicle_type_id":"4","last_reported":1740640154,"current_range_meters":10000,"station_id":"ce4bhbh2rcd13ifvqepg","pricing_plan_id":"cebpf4jnsgd1na2vs0mg"},{"bike_id":"620faf8f-9860-4e84-b6cd-4559a0b9a89c","system_id":"levelo_inurba_marseille","lat":43.32449,"lon":5.36517,"is_reserved":false,"is_disabled":false,"rental_uris":{"android":"levelo://app?vid=620faf8f-9860-4e84-b6cd-4559a0b9a89c","ios":"levelo://app?vid=620faf8f-9860-4e84-b6cd-4559a0b9a89c"},"vehicle_type_id":"4","last_reported":1740640154,"current_range_meters":10000,"station_id":"ce4bhs12rcd13ifvqhvg","pricing_plan_id":"cebpf4jnsgd1na2vs0mg"},{"bike_id":"bac9b201-1a84-4e22-b219-5b7702367b53","system_id":"levelo_inurba_marseille","lat":43.29436,"lon":5.39762,"is_reserved":false,"is_disabled":false,"rental_uris":{"android":"levelo://app?vid=bac9b201-1a84-4e22-b219-5b7702367b53","ios":"levelo://app?vid=bac9b201-1a84-4e22-b219-5b7702367b53"},"vehicle_type_id":"4","last_reported":1740640154,"current_range_meters":10000,"station_id":"ce4bh3h2rcd13ifvqdo0","pricing_plan_id":"cebpf4jnsgd1na2vs0mg"},{"bike_id":"3a78ebcc-aa9e-4901-8296-dc819baef0af","system_id":"levelo_inurba_marseille","lat":43.29028,"lon":5.38648,"is_reserved":false,"is_disabled":false,"rental_uris":{"android":"levelo://app?vid=3a78ebcc-aa9e-4901-8296-dc819baef0af","ios":"levelo://app?vid=3a78ebcc-aa9e-4901-8296-dc819baef0af"},"vehicle_type_id":"4","last_reported":1740640154,"current_range_meters":9600,"station_id":"ce4bh4p2rcd13ifvqe0g","pricing_plan_id":"cebpf4jnsgd1na2vs0mg"},{"bike_id":"7b33f413-8f08-43ef-9261-24eef4ff1549","system_id":"levelo_inurba_marseille","lat":43.23967,"lon":5.36652,"is_reserved":false,"is_disabled":false,"rental_uris":{"android":"levelo://app?vid=7b33f413-8f08-43ef-9261-24eef4ff1549","ios":"levelo://app?vid=7b33f413-8f08-43ef-9261-24eef4ff1549"},"vehicle_type_id":"4","last_reported":1740640154,"current_range_meters":10000,"station_id":"ce4bhi12rcd13ifvqfp0","pricing_plan_id":"cebpf4jnsgd1na2vs0mg"},{"bike_id":"fec1fe1c-b0c4-410d-9c4c-f92357be5239","system_id":"levelo_inurba_marseille","lat":43.31487,"lon":5.37306,"is_reserved":false,"is_disabled":false,"rental_uris":{"android":"levelo://app?vid=fec1fe1c-b0c4-410d-9c4c-f92357be5239","ios":"levelo://app?vid=fec1fe1c-b0c4-410d-9c4c-f92357be5239"},"vehicle_type_id":"4","last_reported":1740640154,"current_range_meters":8800,"station_id":"ce4bgt12rcd13ifvqcd0","pricing_plan_id":"cebpf4jnsgd1na2vs0mg"},{"bike_id":"7f5c8962-3c26-494a-9dd5-ffc07bce14b6","system_id":"levelo_inurba_marseille","lat":43.30483,"lon":5.37904,"is_reserved":false,"is_disabled":false,"rental_uris":{"android":"levelo://app?vid=7f5c8962-3c26-494a-9dd5-ffc07bce14b6","ios":"levelo://app?vid=7f5c8962-3c26-494a-9dd5-ffc07bce14b6"},"vehicle_type_id":"4","last_reported":1740640154,"current_range_meters":10800,"station_id":"ce4bgup2rcd13ifvqcn0","pricing_plan_id":"cebpf4jnsgd1na2vs0mg"},{"bike_id":"afd98e29-9e65-49b1-96e9-da6c0e62de76","system_id":"levelo_inurba_marseille","lat":43.29283,"lon":5.38241,"is_reserved":false,"is_disabled":false,"rental_uris":{"android":"levelo://app?vid=afd98e29-9e65-49b1-96e9-da6c0e62de76","ios":"levelo://app?vid=afd98e29-9e65-49b1-96e9-da6c0e62de76"},"vehicle_type_id":"4","last_reported":1740640154,"current_range_meters":10800,"station_id":"","pricing_plan_id":"cebpf4jnsgd1na2vs0mg"},{"bike_id":"32c78026-eae4-4cf3-91d4-dc2fc0b3e466","system_id":"levelo_inurba_marseille","lat":43.31501,"lon":5.373,"is_reserved":false,"is_disabled":false,"rental_uris":{"android":"levelo://app?vid=32c78026-eae4-4cf3-91d4-dc2fc0b3e466","ios":"levelo://app?vid=32c78026-eae4-4cf3-91d4-dc2fc0b3e466"},"vehicle_type_id":"4","last_reported":1740640154,"current_range_meters":10800,"station_id":"ce4bgt12rcd13ifvqcd0","pricing_plan_id":"cebpf4jnsgd1na2vs0mg"},{"bike_id":"6a848e29-3e81-45c5-b377-24e3a4d9570a","system_id":"levelo_inurba_marseille","lat":43.30465,"lon":5.37915,"is_reserved":false,"is_disabled":false,"rental_uris":{"android":"levelo://app?vid=6a848e29-3e81-45c5-b377-24e3a4d9570a","ios":"levelo://app?vid=6a848e29-3e81-45c5-b377-24e3a4d9570a"},"vehicle_type_id":"4","last_reported":1740640154,"current_range_meters":10800,"station_id":"ce4bgup2rcd13ifvqcn0","pricing_plan_id":"cebpf4jnsgd1na2vs0mg"},{"bike_id":"9ea15ae9-9c11-486a-bb35-d4dcef991c05","system_id":"levelo_inurba_marseille","lat":43.28609,"lon":5.35112,"is_reserved":false,"is_disabled":false,"rental_uris":{"android":"levelo://app?vid=9ea15ae9-9c11-486a-bb35-d4dcef991c05","ios":"levelo://app?vid=9ea15ae9-9c11-486a-bb35-d4dcef991c05"},"vehicle_type_id":"4","last_reported":1740640154,"current_range_meters":10800,"station_id":"ce4bhch2rcd13ifvqeug","pricing_plan_id":"cebpf4jnsgd1na2vs0mg"},{"bike_id":"3b5eb973-61df-4c9f-b3f4-58839f85ef14","system_id":"levelo_inurba_marseille","lat":43.25103,"lon":5.40322,"is_reserved":false,"is_disabled":false,"rental_uris":{"android":"levelo://app?vid=3b5eb973-61df-4c9f-b3f4-58839f85ef14","ios":"levelo://app?vid=3b5eb973-61df-4c9f-b3f4-58839f85ef14"},"vehicle_type_id":"4","last_reported":1740640154,"current_range_meters":10800,"station_id":"ce4bhlh2rcd13ifvqgig","pricing_plan_id":"cebpf4jnsgd1na2vs0mg"},{"bike_id":"e25af8c3-2266-4503-a838-a8174b2fb4f8","system_id":"levelo_inurba_marseille","lat":43.30164,"lon":5.380804,"is_reserved":false,"is_disabled":false,"rental_uris":{"android":"levelo://app?vid=e25af8c3-2266-4503-a838-a8174b2fb4f8","ios":"levelo://app?vid=e25af8c3-2266-4503-a838-a8174b2fb4f8"},"vehicle_type_id":"4","last_reported":1740640154,"current_range_meters":10800,"station_id":"ce4bgjp2rcd13ifvqbh0","pricing_plan_id":"cebpf4jnsgd1na2vs0mg"},{"bike_id":"cdc21177-0942-4c5b-a1dc-b82b13b9f8d6","system_id":"levelo_inurba_marseille","lat":43.30901,"lon":5.37195,"is_reserved":false,"is_disabled":false,"rental_uris":{"android":"levelo://app?vid=cdc21177-0942-4c5b-a1dc-b82b13b9f8d6","ios":"levelo://app?vid=cdc21177-0942-4c5b-a1dc-b82b13b9f8d6"},"vehicle_type_id":"4","last_reported":1740640154,"current_range_meters":10800,"station_id":"ce4bguh2rcd13ifvqckg","pricing_plan_id":"cebpf4jnsgd1na2vs0mg"},{"bike_id":"1ca15e9e-f869-4886-8334-d2d2e1caf135","system_id":"levelo_inurba_marseille","lat":43.24818,"lon":5.37477,"is_reserved":false,"is_disabled":false,"rental_uris":{"android":"levelo://app?vid=1ca15e9e-f869-4886-8334-d2d2e1caf135","ios":"levelo://app?vid=1ca15e9e-f869-4886-8334-d2d2e1caf135"},"vehicle_type_id":"4","last_reported":1740640154,"current_range_meters":14000,"station_id":"ce4bhgh2rcd13ifvqfb0","pricing_plan_id":"cebpf4jnsgd1na2vs0mg"},{"bike_id":"dbbfe273-fe78-4ee1-abd4-c84186b9f85c","system_id":"levelo_inurba_marseille","lat":43.2407,"lon":5.37777,"is_reserved":false,"is_disabled":false,"rental_uris":{"android":"levelo://app?vid=dbbfe273-fe78-4ee1-abd4-c84186b9f85c","ios":"levelo://app?vid=dbbfe273-fe78-4ee1-abd4-c84186b9f85c"},"vehicle_type_id":"4","last_reported":1740640154,"current_range_meters":10800,"station_id":"ce4bhnp2rcd13ifvqgvg","pricing_plan_id":"cebpf4jnsgd1na2vs0mg"},{"bike_id":"d67827b4-e62a-4108-a1bb-794867d8dd25","system_id":"levelo_inurba_marseille","lat":43.29037,"lon":5.39958,"is_reserved":false,"is_disabled":false,"rental_uris":{"android":"levelo://app?vid=d67827b4-e62a-4108-a1bb-794867d8dd25","ios":"levelo://app?vid=d67827b4-e62a-4108-a1bb-794867d8dd25"},"vehicle_type_id":"4","last_reported":1740640154,"current_range_meters":10800,"station_id":"ce4bh392rcd13ifvqdm0","pricing_plan_id":"cebpf4jnsgd1na2vs0mg"},{"bike_id":"c858bb76-75a3-4f0d-925d-ffc2a78577f1","system_id":"levelo_inurba_marseille","lat":43.30249,"lon":5.40066,"is_reserved":false,"is_disabled":false,"rental_uris":{"android":"levelo://app?vid=c858bb76-75a3-4f0d-925d-ffc2a78577f1","ios":"levelo://app?vid=c858bb76-75a3-4f0d-925d-ffc2a78577f1"},"vehicle_type_id":"4","last_reported":1740640154,"current_range_meters":10800,"station_id":"ce4bgvh2rcd13ifvqcs0","pricing_plan_id":"cebpf4jnsgd1na2vs0mg"},{"bike_id":"17973595-0627-4cbe-be09-6d52168568c1","system_id":"levelo_inurba_marseille","lat":43.27828,"lon":5.40739,"is_reserved":false,"is_disabled":false,"rental_uris":{"android":"levelo://app?vid=17973595-0627-4cbe-be09-6d52168568c1","ios":"levelo://app?vid=17973595-0627-4cbe-be09-6d52168568c1"},"vehicle_type_id":"4","last_reported":1740640154,"current_range_meters":10800,"station_id":"ce4bhnh2rcd13ifvqgtg","pricing_plan_id":"cebpf4jnsgd1na2vs0mg"},{"bike_id":"f2efebfb-a79e-412e-890d-11ae26b9b9c7","system_id":"levelo_inurba_marseille","lat":43.28283,"lon":5.35059,"is_reserved":false,"is_disabled":false,"rental_uris":{"android":"levelo://app?vid=f2efebfb-a79e-412e-890d-11ae26b9b9c7","ios":"levelo://app?vid=f2efebfb-a79e-412e-890d-11ae26b9b9c7"},"vehicle_type_id":"4","last_reported":1740640154,"current_range_meters":10800,"station_id":"ce4bhbp2rcd13ifvqerg","pricing_plan_id":"cebpf4jnsgd1na2vs0mg"},{"bike_id":"aa1c1254-8b09-4cc6-908c-bacac335dd0d","system_id":"levelo_inurba_marseille","lat":43.24071,"lon":5.37754,"is_reserved":false,"is_disabled":false,"rental_uris":{"android":"levelo://app?vid=aa1c1254-8b09-4cc6-908c-bacac335dd0d","ios":"levelo://app?vid=aa1c1254-8b09-4cc6-908c-bacac335dd0d"},"vehicle_type_id":"4","last_reported":1740640154,"current_range_meters":11200,"station_id":"ce4bhnp2rcd13ifvqgvg","pricing_plan_id":"cebpf4jnsgd1na2vs0mg"},{"bike_id":"ee07e172-028f-4d96-9f9c-0e283dc141d5","system_id":"levelo_inurba_marseille","lat":43.32381,"lon":5.38869,"is_reserved":false,"is_disabled":false,"rental_uris":{"android":"levelo://app?vid=ee07e172-028f-4d96-9f9c-0e283dc141d5","ios":"levelo://app?vid=ee07e172-028f-4d96-9f9c-0e283dc141d5"},"vehicle_type_id":"4","last_reported":1740640154,"current_range_meters":11200,"station_id":"ce4bhqp2rcd13ifvqhog","pricing_plan_id":"cebpf4jnsgd1na2vs0mg"},{"bike_id":"184016d6-cf70-4a4b-a51a-ef0c2c23e437","system_id":"levelo_inurba_marseille","lat":43.30545,"lon":5.36689,"is_reserved":false,"is_disabled":false,"rental_uris":{"android":"levelo://app?vid=184016d6-cf70-4a4b-a51a-ef0c2c23e437","ios":"levelo://app?vid=184016d6-cf70-4a4b-a51a-ef0c2c23e437"},"vehicle_type_id":"4","last_reported":1740640154,"current_range_meters":11200,"station_id":"","pricing_plan_id":"cebpf4jnsgd1na2vs0mg"},{"bike_id":"295b0419-415d-42cd-9c8a-f34cdd0f33af","system_id":"levelo_inurba_marseille","lat":43.24081,"lon":5.37752,"is_reserved":false,"is_disabled":false,"rental_uris":{"android":"levelo://app?vid=295b0419-415d-42cd-9c8a-f34cdd0f33af","ios":"levelo://app?vid=295b0419-415d-42cd-9c8a-f34cdd0f33af"},"vehicle_type_id":"4","last_reported":1740640154,"current_range_meters":11200,"station_id":"ce4bhnp2rcd13ifvqgvg","pricing_plan_id":"cebpf4jnsgd1na2vs0mg"},{"bike_id":"7df888cc-c346-4f38-990a-fc3c220f7083","system_id":"levelo_inurba_marseille","lat":43.23147,"lon":5.43729,"is_reserved":false,"is_disabled":false,"rental_uris":{"android":"levelo://app?vid=7df888cc-c346-4f38-990a-fc3c220f7083","ios":"levelo://app?vid=7df888cc-c346-4f38-990a-fc3c220f7083"},"vehicle_type_id":"4","last_reported":1740640154,"current_range_meters":11200,"station_id":"ce4bhmp2rcd13ifvqgog","pricing_plan_id":"cebpf4jnsgd1na2vs0mg"},{"bike_id":"8e8c8f28-5ded-4009-8b85-0abff2958a77","system_id":"levelo_inurba_marseille","lat":43.31492,"lon":5.37302,"is_reserved":false,"is_disabled":false,"rental_uris":{"android":"levelo://app?vid=8e8c8f28-5ded-4009-8b85-0abff2958a77","ios":"levelo://app?vid=8e8c8f28-5ded-4009-8b85-0abff2958a77"},"vehicle_type_id":"4","last_reported":1740640154,"current_range_meters":11600,"station_id":"ce4bgt12rcd13ifvqcd0","pricing_plan_id":"cebpf4jnsgd1na2vs0mg"},{"bike_id":"7eebcedb-18f4-4398-b9bd-d7d8a33415a2","system_id":"levelo_inurba_marseille","lat":43.292143,"lon":5.360736,"is_reserved":false,"is_disabled":false,"rental_uris":{"android":"levelo://app?vid=7eebcedb-18f4-4398-b9bd-d7d8a33415a2","ios":"levelo://app?vid=7eebcedb-18f4-4398-b9bd-d7d8a33415a2"},"vehicle_type_id":"4","last_reported":1740640154,"current_range_meters":11600,"station_id":"ce4bhbh2rcd13ifvqeqg","pricing_plan_id":"cebpf4jnsgd1na2vs0mg"},{"bike_id":"b1f10de4-4a39-4feb-9655-51978f0274ef","system_id":"levelo_inurba_marseille","lat":43.30648,"lon":5.40085,"is_reserved":false,"is_disabled":false,"rental_uris":{"android":"levelo://app?vid=b1f10de4-4a39-4feb-9655-51978f0274ef","ios":"levelo://app?vid=b1f10de4-4a39-4feb-9655-51978f0274ef"},"vehicle_type_id":"4","last_reported":1740640154,"current_range_meters":11600,"station_id":"ce4bh112rcd13ifvqda0","pricing_plan_id":"cebpf4jnsgd1na2vs0mg"},{"bike_id":"62cbb18c-2f31-4f5c-9351-9e9b31dd9036","system_id":"levelo_inurba_marseille","lat":43.29858,"lon":5.38691,"is_reserved":false,"is_disabled":false,"rental_uris":{"android":"levelo://app?vid=62cbb18c-2f31-4f5c-9351-9e9b31dd9036","ios":"levelo://app?vid=62cbb18c-2f31-4f5c-9351-9e9b31dd9036"},"vehicle_type_id":"4","last_reported":1740640154,"current_range_meters":11600,"station_id":"","pricing_plan_id":"cebpf4jnsgd1na2vs0mg"},{"bike_id":"19e4983d-b74d-4524-9c14-80fb6905f947","system_id":"levelo_inurba_marseille","lat":43.32152,"lon":5.3675,"is_reserved":false,"is_disabled":false,"rental_uris":{"android":"levelo://app?vid=19e4983d-b74d-4524-9c14-80fb6905f947","ios":"levelo://app?vid=19e4983d-b74d-4524-9c14-80fb6905f947"},"vehicle_type_id":"4","last_reported":1740640154,"current_range_meters":11600,"station_id":"","pricing_plan_id":"cebpf4jnsgd1na2vs0mg"},{"bike_id":"1da93367-1c1a-483c-9bff-08359d90967a","system_id":"levelo_inurba_marseille","lat":43.30946,"lon":5.39039,"is_reserved":false,"is_disabled":false,"rental_uris":{"android":"levelo://app?vid=1da93367-1c1a-483c-9bff-08359d90967a","ios":"levelo://app?vid=1da93367-1c1a-483c-9bff-08359d90967a"},"vehicle_type_id":"4","last_reported":1740640154,"current_range_meters":11200,"station_id":"ce4bgup2rcd13ifvqco0","pricing_plan_id":"cebpf4jnsgd1na2vs0mg"},{"bike_id":"f1e57e5d-720f-4378-b54a-c23a818c85b8","system_id":"levelo_inurba_marseille","lat":43.25004,"lon":5.38926,"is_reserved":false,"is_disabled":false,"rental_uris":{"android":"levelo://app?vid=f1e57e5d-720f-4378-b54a-c23a818c85b8","ios":"levelo://app?vid=f1e57e5d-720f-4378-b54a-c23a818c85b8"},"vehicle_type_id":"4","last_reported":1740640154,"current_range_meters":12000,"station_id":"ce4bhgp2rcd13ifvqfd0","pricing_plan_id":"cebpf4jnsgd1na2vs0mg"},{"bike_id":"666da614-c634-45ed-868c-1cf0aae15027","system_id":"levelo_inurba_marseille","lat":43.30869,"lon":5.3966,"is_reserved":false,"is_disabled":false,"rental_uris":{"android":"levelo://app?vid=666da614-c634-45ed-868c-1cf0aae15027","ios":"levelo://app?vid=666da614-c634-45ed-868c-1cf0aae15027"},"vehicle_type_id":"4","last_reported":1740640154,"current_range_meters":12000,"station_id":"ce4bh012rcd13ifvqcv0","pricing_plan_id":"cebpf4jnsgd1na2vs0mg"},{"bike_id":"d52f0219-7e16-4dc5-bdd6-5f76ea649f0a","system_id":"levelo_inurba_marseille","lat":43.308882,"lon":5.371824,"is_reserved":false,"is_disabled":false,"rental_uris":{"android":"levelo://app?vid=d52f0219-7e16-4dc5-bdd6-5f76ea649f0a","ios":"levelo://app?vid=d52f0219-7e16-4dc5-bdd6-5f76ea649f0a"},"vehicle_type_id":"4","last_reported":1740640154,"current_range_meters":12000,"station_id":"ce4bguh2rcd13ifvqckg","pricing_plan_id":"cebpf4jnsgd1na2vs0mg"},{"bike_id":"98713af8-0bcb-49aa-8f94-80b87751ee40","system_id":"levelo_inurba_marseille","lat":43.30652,"lon":5.40096,"is_reserved":false,"is_disabled":false,"rental_uris":{"android":"levelo://app?vid=98713af8-0bcb-49aa-8f94-80b87751ee40","ios":"levelo://app?vid=98713af8-0bcb-49aa-8f94-80b87751ee40"},"vehicle_type_id":"4","last_reported":1740640154,"current_range_meters":12400,"station_id":"ce4bh112rcd13ifvqda0","pricing_plan_id":"cebpf4jnsgd1na2vs0mg"},{"bike_id":"79a585c5-cf42-4150-9df4-5cf43862e690","system_id":"levelo_inurba_marseille","lat":43.24644,"lon":5.38875,"is_reserved":false,"is_disabled":false,"rental_uris":{"android":"levelo://app?vid=79a585c5-cf42-4150-9df4-5cf43862e690","ios":"levelo://app?vid=79a585c5-cf42-4150-9df4-5cf43862e690"},"vehicle_type_id":"4","last_reported":1740640154,"current_range_meters":12400,"station_id":"ce4bhg12rcd13ifvqf60","pricing_plan_id":"cebpf4jnsgd1na2vs0mg"},{"bike_id":"0159af59-111e-43bf-a2a4-d3170b44d4e8","system_id":"levelo_inurba_marseille","lat":43.24071,"lon":5.37764,"is_reserved":false,"is_disabled":false,"rental_uris":{"android":"levelo://app?vid=0159af59-111e-43bf-a2a4-d3170b44d4e8","ios":"levelo://app?vid=0159af59-111e-43bf-a2a4-d3170b44d4e8"},"vehicle_type_id":"4","last_reported":1740640154,"current_range_meters":12800,"station_id":"ce4bhnp2rcd13ifvqgvg","pricing_plan_id":"cebpf4jnsgd1na2vs0mg"},{"bike_id":"219af23d-6042-4267-a245-fb489bd4094f","system_id":"levelo_inurba_marseille","lat":43.27677,"lon":5.38874,"is_reserved":false,"is_disabled":false,"rental_uris":{"android":"levelo://app?vid=219af23d-6042-4267-a245-fb489bd4094f","ios":"levelo://app?vid=219af23d-6042-4267-a245-fb489bd4094f"},"vehicle_type_id":"4","last_reported":1740640154,"current_range_meters":12400,"station_id":"ce4bhi12rcd13ifvqfo0","pricing_plan_id":"cebpf4jnsgd1na2vs0mg"},{"bike_id":"91f909e9-358e-43ed-a45f-822af931a978","system_id":"levelo_inurba_marseille","lat":43.2321,"lon":5.40361,"is_reserved":false,"is_disabled":false,"rental_uris":{"android":"levelo://app?vid=91f909e9-358e-43ed-a45f-822af931a978","ios":"levelo://app?vid=91f909e9-358e-43ed-a45f-822af931a978"},"vehicle_type_id":"4","last_reported":1740640154,"current_range_meters":12400,"station_id":"","pricing_plan_id":"cebpf4jnsgd1na2vs0mg"},{"bike_id":"bc679af8-b2d8-495d-8f01-39de79e9748b","system_id":"levelo_inurba_marseille","lat":43.29601,"lon":5.36743,"is_reserved":false,"is_disabled":false,"rental_uris":{"android":"levelo://app?vid=bc679af8-b2d8-495d-8f01-39de79e9748b","ios":"levelo://app?vid=bc679af8-b2d8-495d-8f01-39de79e9748b"},"vehicle_type_id":"4","last_reported":1740640154,"current_range_meters":13600,"station_id":"ce4bgph2rcd13ifvqc2g","pricing_plan_id":"cebpf4jnsgd1na2vs0mg"},{"bike_id":"5fdbaa49-16e6-43d7-bb68-6ad87f72c301","system_id":"levelo_inurba_marseille","lat":43.33064,"lon":5.4083,"is_reserved":false,"is_disabled":false,"rental_uris":{"android":"levelo://app?vid=5fdbaa49-16e6-43d7-bb68-6ad87f72c301","ios":"levelo://app?vid=5fdbaa49-16e6-43d7-bb68-6ad87f72c301"},"vehicle_type_id":"4","last_reported":1740640154,"current_range_meters":12800,"station_id":"","pricing_plan_id":"cebpf4jnsgd1na2vs0mg"},{"bike_id":"3252fb2e-a994-4c39-bc5f-fb17b9b85cad","system_id":"levelo_inurba_marseille","lat":43.314958,"lon":5.373027,"is_reserved":false,"is_disabled":false,"rental_uris":{"android":"levelo://app?vid=3252fb2e-a994-4c39-bc5f-fb17b9b85cad","ios":"levelo://app?vid=3252fb2e-a994-4c39-bc5f-fb17b9b85cad"},"vehicle_type_id":"4","last_reported":1740640154,"current_range_meters":12800,"station_id":"ce4bgt12rcd13ifvqcd0","pricing_plan_id":"cebpf4jnsgd1na2vs0mg"},{"bike_id":"d9edb359-99e6-43de-99dd-b9b1164fad3d","system_id":"levelo_inurba_marseille","lat":43.28483,"lon":5.38415,"is_reserved":false,"is_disabled":true,"rental_uris":{"android":"levelo://app?vid=d9edb359-99e6-43de-99dd-b9b1164fad3d","ios":"levelo://app?vid=d9edb359-99e6-43de-99dd-b9b1164fad3d"},"vehicle_type_id":"4","last_reported":1740640154,"current_range_meters":12800,"station_id":"ce4bh512rcd13ifvqe3g","pricing_plan_id":"cebpf4jnsgd1na2vs0mg"},{"bike_id":"04e19eeb-dec0-407d-8e93-c050f7111c9c","system_id":"levelo_inurba_marseille","lat":43.29035,"lon":5.39965,"is_reserved":false,"is_disabled":false,"rental_uris":{"android":"levelo://app?vid=04e19eeb-dec0-407d-8e93-c050f7111c9c","ios":"levelo://app?vid=04e19eeb-dec0-407d-8e93-c050f7111c9c"},"vehicle_type_id":"4","last_reported":1740640154,"current_range_meters":13600,"station_id":"ce4bh392rcd13ifvqdm0","pricing_plan_id":"cebpf4jnsgd1na2vs0mg"},{"bike_id":"a84d0561-281b-4fed-9707-10a8be3edef5","system_id":"levelo_inurba_marseille","lat":43.27212,"lon":5.39183,"is_reserved":false,"is_disabled":false,"rental_uris":{"android":"levelo://app?vid=a84d0561-281b-4fed-9707-10a8be3edef5","ios":"levelo://app?vid=a84d0561-281b-4fed-9707-10a8be3edef5"},"vehicle_type_id":"4","last_reported":1740640154,"current_range_meters":13600,"station_id":"ce4bhhp2rcd13ifvqfm0","pricing_plan_id":"cebpf4jnsgd1na2vs0mg"},{"bike_id":"3ef4a283-1278-481d-a678-2032504e228a","system_id":"levelo_inurba_marseille","lat":43.29003,"lon":5.35649,"is_reserved":false,"is_disabled":true,"rental_uris":{"android":"levelo://app?vid=3ef4a283-1278-481d-a678-2032504e228a","ios":"levelo://app?vid=3ef4a283-1278-481d-a678-2032504e228a"},"vehicle_type_id":"4","last_reported":1740640154,"current_range_meters":13600,"station_id":"ce4bhb92rcd13ifvqen0","pricing_plan_id":"cebpf4jnsgd1na2vs0mg"},{"bike_id":"dc1deb5f-be60-47dd-a397-2458bf714b12","system_id":"levelo_inurba_marseille","lat":43.2305,"lon":5.35489,"is_reserved":false,"is_disabled":false,"rental_uris":{"android":"levelo://app?vid=dc1deb5f-be60-47dd-a397-2458bf714b12","ios":"levelo://app?vid=dc1deb5f-be60-47dd-a397-2458bf714b12"},"vehicle_type_id":"4","last_reported":1740640154,"current_range_meters":13600,"station_id":"cpo3342slgdg3j2ifvpg","pricing_plan_id":"cebpf4jnsgd1na2vs0mg"},{"bike_id":"574a9002-9895-49da-baac-459cbf1a4d4b","system_id":"levelo_inurba_marseille","lat":43.23101,"lon":5.43742,"is_reserved":false,"is_disabled":false,"rental_uris":{"android":"levelo://app?vid=574a9002-9895-49da-baac-459cbf1a4d4b","ios":"levelo://app?vid=574a9002-9895-49da-baac-459cbf1a4d4b"},"vehicle_type_id":"4","last_reported":1740640154,"current_range_meters":13600,"station_id":"ce4bhmp2rcd13ifvqgog","pricing_plan_id":"cebpf4jnsgd1na2vs0mg"},{"bike_id":"5d43b5ca-e0f8-4645-a003-958d417a7c12","system_id":"levelo_inurba_marseille","lat":43.30248,"lon":5.40058,"is_reserved":false,"is_disabled":false,"rental_uris":{"android":"levelo://app?vid=5d43b5ca-e0f8-4645-a003-958d417a7c12","ios":"levelo://app?vid=5d43b5ca-e0f8-4645-a003-958d417a7c12"},"vehicle_type_id":"4","last_reported":1740640154,"current_range_meters":13600,"station_id":"ce4bgvh2rcd13ifvqcs0","pricing_plan_id":"cebpf4jnsgd1na2vs0mg"},{"bike_id":"77df7ea8-fc96-42fe-aa67-cd8c277de89e","system_id":"levelo_inurba_marseille","lat":43.30458,"lon":5.37912,"is_reserved":false,"is_disabled":false,"rental_uris":{"android":"levelo://app?vid=77df7ea8-fc96-42fe-aa67-cd8c277de89e","ios":"levelo://app?vid=77df7ea8-fc96-42fe-aa67-cd8c277de89e"},"vehicle_type_id":"4","last_reported":1740640154,"current_range_meters":14000,"station_id":"ce4bgup2rcd13ifvqcn0","pricing_plan_id":"cebpf4jnsgd1na2vs0mg"},{"bike_id":"7a2e68bc-7ca4-4200-b7dc-7dfa3d20c8ca","system_id":"levelo_inurba_marseille","lat":43.30916,"lon":5.36867,"is_reserved":false,"is_disabled":false,"rental_uris":{"android":"levelo://app?vid=7a2e68bc-7ca4-4200-b7dc-7dfa3d20c8ca","ios":"levelo://app?vid=7a2e68bc-7ca4-4200-b7dc-7dfa3d20c8ca"},"vehicle_type_id":"4","last_reported":1740640154,"current_range_meters":14000,"station_id":"ce4bgn92rcd13ifvqbvg","pricing_plan_id":"cebpf4jnsgd1na2vs0mg"},{"bike_id":"59c19807-fdbc-4e96-8e53-5b8c77232fcd","system_id":"levelo_inurba_marseille","lat":43.27486,"lon":5.42456,"is_reserved":false,"is_disabled":false,"rental_uris":{"android":"levelo://app?vid=59c19807-fdbc-4e96-8e53-5b8c77232fcd","ios":"levelo://app?vid=59c19807-fdbc-4e96-8e53-5b8c77232fcd"},"vehicle_type_id":"4","last_reported":1740640154,"current_range_meters":14000,"station_id":"ce4bhn92rcd13ifvqgrg","pricing_plan_id":"cebpf4jnsgd1na2vs0mg"},{"bike_id":"15870f69-6faa-4679-930b-932672715849","system_id":"levelo_inurba_marseille","lat":43.2952,"lon":5.38547,"is_reserved":false,"is_disabled":false,"rental_uris":{"android":"levelo://app?vid=15870f69-6faa-4679-930b-932672715849","ios":"levelo://app?vid=15870f69-6faa-4679-930b-932672715849"},"vehicle_type_id":"4","last_reported":1740640154,"current_range_meters":14000,"station_id":"ce4bgih2rcd13ifvqba0","pricing_plan_id":"cebpf4jnsgd1na2vs0mg"},{"bike_id":"013595ba-bedc-4bcd-91d7-c44a6c22846b","system_id":"levelo_inurba_marseille","lat":43.275,"lon":5.42442,"is_reserved":false,"is_disabled":false,"rental_uris":{"android":"levelo://app?vid=013595ba-bedc-4bcd-91d7-c44a6c22846b","ios":"levelo://app?vid=013595ba-bedc-4bcd-91d7-c44a6c22846b"},"vehicle_type_id":"4","last_reported":1740640154,"current_range_meters":15200,"station_id":"ce4bhn92rcd13ifvqgrg","pricing_plan_id":"cebpf4jnsgd1na2vs0mg"},{"bike_id":"1836045f-d547-47f5-8936-a053f63c843d","system_id":"levelo_inurba_marseille","lat":43.2751,"lon":5.42445,"is_reserved":false,"is_disabled":false,"rental_uris":{"android":"levelo://app?vid=1836045f-d547-47f5-8936-a053f63c843d","ios":"levelo://app?vid=1836045f-d547-47f5-8936-a053f63c843d"},"vehicle_type_id":"4","last_reported":1740640154,"current_range_meters":14000,"station_id":"ce4bhn92rcd13ifvqgrg","pricing_plan_id":"cebpf4jnsgd1na2vs0mg"},{"bike_id":"a9229b29-0cc8-4cd2-86b0-24ed07d1337e","system_id":"levelo_inurba_marseille","lat":43.25722,"lon":5.41114,"is_reserved":false,"is_disabled":false,"rental_uris":{"android":"levelo://app?vid=a9229b29-0cc8-4cd2-86b0-24ed07d1337e","ios":"levelo://app?vid=a9229b29-0cc8-4cd2-86b0-24ed07d1337e"},"vehicle_type_id":"4","last_reported":1740640154,"current_range_meters":14400,"station_id":"ce4bhkp2rcd13ifvqgd0","pricing_plan_id":"cebpf4jnsgd1na2vs0mg"},{"bike_id":"68b296ac-cf70-4168-834d-f9c1811c2a3e","system_id":"levelo_inurba_marseille","lat":43.30437,"lon":5.38891,"is_reserved":false,"is_disabled":false,"rental_uris":{"android":"levelo://app?vid=68b296ac-cf70-4168-834d-f9c1811c2a3e","ios":"levelo://app?vid=68b296ac-cf70-4168-834d-f9c1811c2a3e"},"vehicle_type_id":"4","last_reported":1740640154,"current_range_meters":14400,"station_id":"ce4bgk12rcd13ifvqbi0","pricing_plan_id":"cebpf4jnsgd1na2vs0mg"},{"bike_id":"aa41ce44-23f4-4860-9813-4d22ddbb744b","system_id":"levelo_inurba_marseille","lat":43.30622,"lon":5.39307,"is_reserved":false,"is_disabled":false,"rental_uris":{"android":"levelo://app?vid=aa41ce44-23f4-4860-9813-4d22ddbb744b","ios":"levelo://app?vid=aa41ce44-23f4-4860-9813-4d22ddbb744b"},"vehicle_type_id":"4","last_reported":1740640154,"current_range_meters":14400,"station_id":"","pricing_plan_id":"cebpf4jnsgd1na2vs0mg"},{"bike_id":"250ee9b1-7370-4905-b614-06b1cad03e71","system_id":"levelo_inurba_marseille","lat":43.29632,"lon":5.40596,"is_reserved":false,"is_disabled":false,"rental_uris":{"android":"levelo://app?vid=250ee9b1-7370-4905-b614-06b1cad03e71","ios":"levelo://app?vid=250ee9b1-7370-4905-b614-06b1cad03e71"},"vehicle_type_id":"4","last_reported":1740640154,"current_range_meters":14800,"station_id":"ce4bh0h2rcd13ifvqd60","pricing_plan_id":"cebpf4jnsgd1na2vs0mg"},{"bike_id":"8e7ca1de-f2e1-45da-a0a6-c0442942ed30","system_id":"levelo_inurba_marseille","lat":43.25495,"lon":5.37661,"is_reserved":false,"is_disabled":false,"rental_uris":{"android":"levelo://app?vid=8e7ca1de-f2e1-45da-a0a6-c0442942ed30","ios":"levelo://app?vid=8e7ca1de-f2e1-45da-a0a6-c0442942ed30"},"vehicle_type_id":"4","last_reported":1740640154,"current_range_meters":14800,"station_id":"ce4bhh12rcd13ifvqff0","pricing_plan_id":"cebpf4jnsgd1na2vs0mg"},{"bike_id":"3a71ac56-502b-4f5a-a8dd-c1d6a1f0b62a","system_id":"levelo_inurba_marseille","lat":43.31165,"lon":5.38717,"is_reserved":false,"is_disabled":false,"rental_uris":{"android":"levelo://app?vid=3a71ac56-502b-4f5a-a8dd-c1d6a1f0b62a","ios":"levelo://app?vid=3a71ac56-502b-4f5a-a8dd-c1d6a1f0b62a"},"vehicle_type_id":"4","last_reported":1740640154,"current_range_meters":14800,"station_id":"ce4bgv12rcd13ifvqcp0","pricing_plan_id":"cebpf4jnsgd1na2vs0mg"},{"bike_id":"106fa8d1-52c4-40b9-a4ef-94b00deee64f","system_id":"levelo_inurba_marseille","lat":43.3043,"lon":5.37914,"is_reserved":false,"is_disabled":false,"rental_uris":{"android":"levelo://app?vid=106fa8d1-52c4-40b9-a4ef-94b00deee64f","ios":"levelo://app?vid=106fa8d1-52c4-40b9-a4ef-94b00deee64f"},"vehicle_type_id":"4","last_reported":1740640154,"current_range_meters":12800,"station_id":"ce4bgup2rcd13ifvqcn0","pricing_plan_id":"cebpf4jnsgd1na2vs0mg"},{"bike_id":"8a339686-9723-415b-8f3c-02f3810e4035","system_id":"levelo_inurba_marseille","lat":43.2987,"lon":5.39767,"is_reserved":false,"is_disabled":false,"rental_uris":{"android":"levelo://app?vid=8a339686-9723-415b-8f3c-02f3810e4035","ios":"levelo://app?vid=8a339686-9723-415b-8f3c-02f3810e4035"},"vehicle_type_id":"4","last_reported":1740640154,"current_range_meters":15200,"station_id":"ce4bh0h2rcd13ifvqd50","pricing_plan_id":"cebpf4jnsgd1na2vs0mg"},{"bike_id":"6531fae5-d4c9-4b83-9037-b3c7d5c2185a","system_id":"levelo_inurba_marseille","lat":43.30462,"lon":5.37914,"is_reserved":false,"is_disabled":false,"rental_uris":{"android":"levelo://app?vid=6531fae5-d4c9-4b83-9037-b3c7d5c2185a","ios":"levelo://app?vid=6531fae5-d4c9-4b83-9037-b3c7d5c2185a"},"vehicle_type_id":"4","last_reported":1740640154,"current_range_meters":15200,"station_id":"ce4bgup2rcd13ifvqcn0","pricing_plan_id":"cebpf4jnsgd1na2vs0mg"},{"bike_id":"db2ad124-ff7f-4b99-8cdc-312b57437ef9","system_id":"levelo_inurba_marseille","lat":43.24079,"lon":5.37751,"is_reserved":false,"is_disabled":false,"rental_uris":{"android":"levelo://app?vid=db2ad124-ff7f-4b99-8cdc-312b57437ef9","ios":"levelo://app?vid=db2ad124-ff7f-4b99-8cdc-312b57437ef9"},"vehicle_type_id":"4","last_reported":1740640154,"current_range_meters":13600,"station_id":"ce4bhnp2rcd13ifvqgvg","pricing_plan_id":"cebpf4jnsgd1na2vs0mg"},{"bike_id":"57b1c3ae-4036-448f-9965-55a14ec36317","system_id":"levelo_inurba_marseille","lat":43.24176,"lon":5.39734,"is_reserved":false,"is_disabled":false,"rental_uris":{"android":"levelo://app?vid=57b1c3ae-4036-448f-9965-55a14ec36317","ios":"levelo://app?vid=57b1c3ae-4036-448f-9965-55a14ec36317"},"vehicle_type_id":"4","last_reported":1740640154,"current_range_meters":15200,"station_id":"ce4bhn12rcd13ifvqgpg","pricing_plan_id":"cebpf4jnsgd1na2vs0mg"},{"bike_id":"18b872bb-92ff-4c67-8776-e214b09c3595","system_id":"levelo_inurba_marseille","lat":43.29876,"lon":5.38907,"is_reserved":false,"is_disabled":false,"rental_uris":{"android":"levelo://app?vid=18b872bb-92ff-4c67-8776-e214b09c3595","ios":"levelo://app?vid=18b872bb-92ff-4c67-8776-e214b09c3595"},"vehicle_type_id":"4","last_reported":1740640154,"current_range_meters":14800,"station_id":"ce4bh392rcd13ifvqdl0","pricing_plan_id":"cebpf4jnsgd1na2vs0mg"},{"bike_id":"f2652af0-7f89-4f32-835a-da4ab8b102ce","system_id":"levelo_inurba_marseille","lat":43.28418,"lon":5.34992,"is_reserved":false,"is_disabled":false,"rental_uris":{"android":"levelo://app?vid=f2652af0-7f89-4f32-835a-da4ab8b102ce","ios":"levelo://app?vid=f2652af0-7f89-4f32-835a-da4ab8b102ce"},"vehicle_type_id":"4","last_reported":1740640154,"current_range_meters":16000,"station_id":"ce4bhbh2rcd13ifvqepg","pricing_plan_id":"cebpf4jnsgd1na2vs0mg"},{"bike_id":"d4918d6a-5525-4be8-b0c4-7af64b54343d","system_id":"levelo_inurba_marseille","lat":43.24167,"lon":5.36399,"is_reserved":false,"is_disabled":false,"rental_uris":{"android":"levelo://app?vid=d4918d6a-5525-4be8-b0c4-7af64b54343d","ios":"levelo://app?vid=d4918d6a-5525-4be8-b0c4-7af64b54343d"},"vehicle_type_id":"4","last_reported":1740640154,"current_range_meters":16000,"station_id":"cpo36qri1sfpv3e86is0","pricing_plan_id":"cebpf4jnsgd1na2vs0mg"},{"bike_id":"7c6f2e19-e14e-482e-81a7-645fe762ee86","system_id":"levelo_inurba_marseille","lat":43.29587,"lon":5.36744,"is_reserved":false,"is_disabled":false,"rental_uris":{"android":"levelo://app?vid=7c6f2e19-e14e-482e-81a7-645fe762ee86","ios":"levelo://app?vid=7c6f2e19-e14e-482e-81a7-645fe762ee86"},"vehicle_type_id":"4","last_reported":1740640154,"current_range_meters":16000,"station_id":"ce4bgph2rcd13ifvqc2g","pricing_plan_id":"cebpf4jnsgd1na2vs0mg"},{"bike_id":"40e25f70-02b5-4811-add6-6e8dbc26a035","system_id":"levelo_inurba_marseille","lat":43.28419,"lon":5.3501,"is_reserved":false,"is_disabled":false,"rental_uris":{"android":"levelo://app?vid=40e25f70-02b5-4811-add6-6e8dbc26a035","ios":"levelo://app?vid=40e25f70-02b5-4811-add6-6e8dbc26a035"},"vehicle_type_id":"4","last_reported":1740640154,"current_range_meters":16000,"station_id":"ce4bhbh2rcd13ifvqepg","pricing_plan_id":"cebpf4jnsgd1na2vs0mg"},{"bike_id":"16657fa1-03c6-49ec-a407-f3061564a488","system_id":"levelo_inurba_marseille","lat":43.26232,"lon":5.40453,"is_reserved":false,"is_disabled":true,"rental_uris":{"android":"levelo://app?vid=16657fa1-03c6-49ec-a407-f3061564a488","ios":"levelo://app?vid=16657fa1-03c6-49ec-a407-f3061564a488"},"vehicle_type_id":"4","last_reported":1740640154,"current_range_meters":16000,"station_id":"ce4bhmh2rcd13ifvqgmg","pricing_plan_id":"cebpf4jnsgd1na2vs0mg"},{"bike_id":"770e360a-bb7a-4d71-9571-b7a43b37b899","system_id":"levelo_inurba_marseille","lat":43.30238,"lon":5.40062,"is_reserved":false,"is_disabled":false,"rental_uris":{"android":"levelo://app?vid=770e360a-bb7a-4d71-9571-b7a43b37b899","ios":"levelo://app?vid=770e360a-bb7a-4d71-9571-b7a43b37b899"},"vehicle_type_id":"4","last_reported":1740640154,"current_range_meters":16000,"station_id":"ce4bgvh2rcd13ifvqcs0","pricing_plan_id":"cebpf4jnsgd1na2vs0mg"},{"bike_id":"6f5e6b2b-b94b-4eea-910a-3764064b3c05","system_id":"levelo_inurba_marseille","lat":43.28002,"lon":5.40052,"is_reserved":false,"is_disabled":false,"rental_uris":{"android":"levelo://app?vid=6f5e6b2b-b94b-4eea-910a-3764064b3c05","ios":"levelo://app?vid=6f5e6b2b-b94b-4eea-910a-3764064b3c05"},"vehicle_type_id":"4","last_reported":1740640154,"current_range_meters":16000,"station_id":"ce4bho92rcd13ifvqh4g","pricing_plan_id":"cebpf4jnsgd1na2vs0mg"},{"bike_id":"9fe307f5-10f4-46df-9eba-046b639172f4","system_id":"levelo_inurba_marseille","lat":43.30159,"lon":5.38081,"is_reserved":false,"is_disabled":false,"rental_uris":{"android":"levelo://app?vid=9fe307f5-10f4-46df-9eba-046b639172f4","ios":"levelo://app?vid=9fe307f5-10f4-46df-9eba-046b639172f4"},"vehicle_type_id":"4","last_reported":1740640154,"current_range_meters":16000,"station_id":"ce4bgjp2rcd13ifvqbh0","pricing_plan_id":"cebpf4jnsgd1na2vs0mg"},{"bike_id":"56b97ce9-cec6-4c78-aaa7-b910aae8b368","system_id":"levelo_inurba_marseille","lat":43.311666,"lon":5.387162,"is_reserved":false,"is_disabled":false,"rental_uris":{"android":"levelo://app?vid=56b97ce9-cec6-4c78-aaa7-b910aae8b368","ios":"levelo://app?vid=56b97ce9-cec6-4c78-aaa7-b910aae8b368"},"vehicle_type_id":"4","last_reported":1740640154,"current_range_meters":16000,"station_id":"ce4bgv12rcd13ifvqcp0","pricing_plan_id":"cebpf4jnsgd1na2vs0mg"},{"bike_id":"201b43e1-9166-4b93-9ecb-211bb1985890","system_id":"levelo_inurba_marseille","lat":43.32356,"lon":5.36738,"is_reserved":false,"is_disabled":false,"rental_uris":{"android":"levelo://app?vid=201b43e1-9166-4b93-9ecb-211bb1985890","ios":"levelo://app?vid=201b43e1-9166-4b93-9ecb-211bb1985890"},"vehicle_type_id":"4","last_reported":1740640154,"current_range_meters":16000,"station_id":"ce4bhsh2rcd13ifvqi2g","pricing_plan_id":"cebpf4jnsgd1na2vs0mg"},{"bike_id":"3648d549-1aa7-44d1-bde4-30bac4ece65c","system_id":"levelo_inurba_marseille","lat":43.25576,"lon":5.38233,"is_reserved":false,"is_disabled":false,"rental_uris":{"android":"levelo://app?vid=3648d549-1aa7-44d1-bde4-30bac4ece65c","ios":"levelo://app?vid=3648d549-1aa7-44d1-bde4-30bac4ece65c"},"vehicle_type_id":"4","last_reported":1740640154,"current_range_meters":16000,"station_id":"ce4bhih2rcd13ifvqfs0","pricing_plan_id":"cebpf4jnsgd1na2vs0mg"},{"bike_id":"4c56b05b-d311-4d1d-b526-605a805d1bd4","system_id":"levelo_inurba_marseille","lat":43.28105,"lon":5.40594,"is_reserved":false,"is_disabled":false,"rental_uris":{"android":"levelo://app?vid=4c56b05b-d311-4d1d-b526-605a805d1bd4","ios":"levelo://app?vid=4c56b05b-d311-4d1d-b526-605a805d1bd4"},"vehicle_type_id":"4","last_reported":1740640154,"current_range_meters":16000,"station_id":"","pricing_plan_id":"cebpf4jnsgd1na2vs0mg"},{"bike_id":"6bf62df5-9f2c-4676-be2e-3425368f3119","system_id":"levelo_inurba_marseille","lat":43.29335,"lon":5.38253,"is_reserved":false,"is_disabled":false,"rental_uris":{"android":"levelo://app?vid=6bf62df5-9f2c-4676-be2e-3425368f3119","ios":"levelo://app?vid=6bf62df5-9f2c-4676-be2e-3425368f3119"},"vehicle_type_id":"4","last_reported":1740640154,"current_range_meters":16000,"station_id":"","pricing_plan_id":"cebpf4jnsgd1na2vs0mg"},{"bike_id":"12cbe7e4-efd6-4cba-a9f3-7b12329659df","system_id":"levelo_inurba_marseille","lat":43.280906,"lon":5.396246,"is_reserved":false,"is_disabled":false,"rental_uris":{"android":"levelo://app?vid=12cbe7e4-efd6-4cba-a9f3-7b12329659df","ios":"levelo://app?vid=12cbe7e4-efd6-4cba-a9f3-7b12329659df"},"vehicle_type_id":"4","last_reported":1740640154,"current_range_meters":15200,"station_id":"ce4bho12rcd13ifvqh2g","pricing_plan_id":"cebpf4jnsgd1na2vs0mg"},{"bike_id":"516db57d-577c-43ad-9ca2-56c73f92a6f2","system_id":"levelo_inurba_marseille","lat":43.27675,"lon":5.38888,"is_reserved":false,"is_disabled":false,"rental_uris":{"android":"levelo://app?vid=516db57d-577c-43ad-9ca2-56c73f92a6f2","ios":"levelo://app?vid=516db57d-577c-43ad-9ca2-56c73f92a6f2"},"vehicle_type_id":"4","last_reported":1740640154,"current_range_meters":16000,"station_id":"ce4bhi12rcd13ifvqfo0","pricing_plan_id":"cebpf4jnsgd1na2vs0mg"},{"bike_id":"8d8d43e1-7cd2-49f9-ba2a-c5dad8cae27e","system_id":"levelo_inurba_marseille","lat":43.27942,"lon":5.41049,"is_reserved":false,"is_disabled":false,"rental_uris":{"android":"levelo://app?vid=8d8d43e1-7cd2-49f9-ba2a-c5dad8cae27e","ios":"levelo://app?vid=8d8d43e1-7cd2-49f9-ba2a-c5dad8cae27e"},"vehicle_type_id":"4","last_reported":1740640154,"current_range_meters":16400,"station_id":"ce4bhnp2rcd13ifvqh0g","pricing_plan_id":"cebpf4jnsgd1na2vs0mg"},{"bike_id":"b4236267-056a-42da-9163-64ba115e377a","system_id":"levelo_inurba_marseille","lat":43.2749,"lon":5.42457,"is_reserved":false,"is_disabled":false,"rental_uris":{"android":"levelo://app?vid=b4236267-056a-42da-9163-64ba115e377a","ios":"levelo://app?vid=b4236267-056a-42da-9163-64ba115e377a"},"vehicle_type_id":"4","last_reported":1740640154,"current_range_meters":16400,"station_id":"ce4bhn92rcd13ifvqgrg","pricing_plan_id":"cebpf4jnsgd1na2vs0mg"},{"bike_id":"e29f81d6-3258-4d50-8403-8d20b3547cb5","system_id":"levelo_inurba_marseille","lat":43.30469,"lon":5.37907,"is_reserved":false,"is_disabled":true,"rental_uris":{"android":"levelo://app?vid=e29f81d6-3258-4d50-8403-8d20b3547cb5","ios":"levelo://app?vid=e29f81d6-3258-4d50-8403-8d20b3547cb5"},"vehicle_type_id":"4","last_reported":1740640154,"current_range_meters":16400,"station_id":"ce4bgup2rcd13ifvqcn0","pricing_plan_id":"cebpf4jnsgd1na2vs0mg"},{"bike_id":"78faf8ab-fdd7-412f-902d-0fa7f6a56bc9","system_id":"levelo_inurba_marseille","lat":43.287234,"lon":5.360748,"is_reserved":false,"is_disabled":false,"rental_uris":{"android":"levelo://app?vid=78faf8ab-fdd7-412f-902d-0fa7f6a56bc9","ios":"levelo://app?vid=78faf8ab-fdd7-412f-902d-0fa7f6a56bc9"},"vehicle_type_id":"4","last_reported":1740640154,"current_range_meters":16400,"station_id":"cki0cbj6b192h4jlfktg","pricing_plan_id":"cebpf4jnsgd1na2vs0mg"},{"bike_id":"a05f0b98-a92c-4bff-8a2e-dc25e96a6b19","system_id":"levelo_inurba_marseille","lat":43.28617,"lon":5.35115,"is_reserved":false,"is_disabled":false,"rental_uris":{"android":"levelo://app?vid=a05f0b98-a92c-4bff-8a2e-dc25e96a6b19","ios":"levelo://app?vid=a05f0b98-a92c-4bff-8a2e-dc25e96a6b19"},"vehicle_type_id":"4","last_reported":1740640154,"current_range_meters":16400,"station_id":"ce4bhch2rcd13ifvqeug","pricing_plan_id":"cebpf4jnsgd1na2vs0mg"},{"bike_id":"0ffceea9-ca7f-496b-b9ee-c18123072cf4","system_id":"levelo_inurba_marseille","lat":43.301337,"lon":5.39871,"is_reserved":false,"is_disabled":false,"rental_uris":{"android":"levelo://app?vid=0ffceea9-ca7f-496b-b9ee-c18123072cf4","ios":"levelo://app?vid=0ffceea9-ca7f-496b-b9ee-c18123072cf4"},"vehicle_type_id":"4","last_reported":1740640154,"current_range_meters":16800,"station_id":"ce4bh0h2rcd13ifvqd40","pricing_plan_id":"cebpf4jnsgd1na2vs0mg"},{"bike_id":"3de9aeda-1f9a-4bbc-8b90-e02a49e56ca9","system_id":"levelo_inurba_marseille","lat":43.23185,"lon":5.35574,"is_reserved":false,"is_disabled":false,"rental_uris":{"android":"levelo://app?vid=3de9aeda-1f9a-4bbc-8b90-e02a49e56ca9","ios":"levelo://app?vid=3de9aeda-1f9a-4bbc-8b90-e02a49e56ca9"},"vehicle_type_id":"4","last_reported":1740640154,"current_range_meters":16400,"station_id":"ce4bhu92rcd13ifvqi70","pricing_plan_id":"cebpf4jnsgd1na2vs0mg"},{"bike_id":"8b1db0b8-17a6-41eb-b7d8-1f2fbd95f3f3","system_id":"levelo_inurba_marseille","lat":43.28942,"lon":5.3664,"is_reserved":false,"is_disabled":false,"rental_uris":{"android":"levelo://app?vid=8b1db0b8-17a6-41eb-b7d8-1f2fbd95f3f3","ios":"levelo://app?vid=8b1db0b8-17a6-41eb-b7d8-1f2fbd95f3f3"},"vehicle_type_id":"4","last_reported":1740640154,"current_range_meters":16800,"station_id":"ce4bhap2rcd13ifvqek0","pricing_plan_id":"cebpf4jnsgd1na2vs0mg"},{"bike_id":"07e71897-7b0a-4f02-b034-4876af832b3a","system_id":"levelo_inurba_marseille","lat":43.28263,"lon":5.35069,"is_reserved":false,"is_disabled":false,"rental_uris":{"android":"levelo://app?vid=07e71897-7b0a-4f02-b034-4876af832b3a","ios":"levelo://app?vid=07e71897-7b0a-4f02-b034-4876af832b3a"},"vehicle_type_id":"4","last_reported":1740640154,"current_range_meters":16800,"station_id":"ce4bhbp2rcd13ifvqerg","pricing_plan_id":"cebpf4jnsgd1na2vs0mg"},{"bike_id":"c7fd3ed8-a309-45cf-b0db-3be4d16e8485","system_id":"levelo_inurba_marseille","lat":43.28412,"lon":5.34976,"is_reserved":false,"is_disabled":false,"rental_uris":{"android":"levelo://app?vid=c7fd3ed8-a309-45cf-b0db-3be4d16e8485","ios":"levelo://app?vid=c7fd3ed8-a309-45cf-b0db-3be4d16e8485"},"vehicle_type_id":"4","last_reported":1740640154,"current_range_meters":16800,"station_id":"ce4bhbh2rcd13ifvqepg","pricing_plan_id":"cebpf4jnsgd1na2vs0mg"},{"bike_id":"7c1e4b2e-931b-4103-99e7-b0109c904f14","system_id":"levelo_inurba_marseille","lat":43.29657,"lon":5.40591,"is_reserved":false,"is_disabled":false,"rental_uris":{"android":"levelo://app?vid=7c1e4b2e-931b-4103-99e7-b0109c904f14","ios":"levelo://app?vid=7c1e4b2e-931b-4103-99e7-b0109c904f14"},"vehicle_type_id":"4","last_reported":1740640154,"current_range_meters":16400,"station_id":"ce4bh0h2rcd13ifvqd60","pricing_plan_id":"cebpf4jnsgd1na2vs0mg"},{"bike_id":"adb00dfe-d451-4af9-81da-4c4cab1ba78a","system_id":"levelo_inurba_marseille","lat":43.30455,"lon":5.37898,"is_reserved":false,"is_disabled":false,"rental_uris":{"android":"levelo://app?vid=adb00dfe-d451-4af9-81da-4c4cab1ba78a","ios":"levelo://app?vid=adb00dfe-d451-4af9-81da-4c4cab1ba78a"},"vehicle_type_id":"4","last_reported":1740640154,"current_range_meters":16800,"station_id":"ce4bgup2rcd13ifvqcn0","pricing_plan_id":"cebpf4jnsgd1na2vs0mg"},{"bike_id":"f36ba252-15a8-4407-8d3b-d129a178d5a2","system_id":"levelo_inurba_marseille","lat":43.31725,"lon":5.40465,"is_reserved":false,"is_disabled":false,"rental_uris":{"android":"levelo://app?vid=f36ba252-15a8-4407-8d3b-d129a178d5a2","ios":"levelo://app?vid=f36ba252-15a8-4407-8d3b-d129a178d5a2"},"vehicle_type_id":"4","last_reported":1740640154,"current_range_meters":16800,"station_id":"ce4bh012rcd13ifvqd00","pricing_plan_id":"cebpf4jnsgd1na2vs0mg"},{"bike_id":"0a2b7000-37d5-4669-a302-df7f23effe64","system_id":"levelo_inurba_marseille","lat":43.29795,"lon":5.38113,"is_reserved":false,"is_disabled":false,"rental_uris":{"android":"levelo://app?vid=0a2b7000-37d5-4669-a302-df7f23effe64","ios":"levelo://app?vid=0a2b7000-37d5-4669-a302-df7f23effe64"},"vehicle_type_id":"4","last_reported":1740640154,"current_range_meters":16800,"station_id":"ce4bgip2rcd13ifvqbb0","pricing_plan_id":"cebpf4jnsgd1na2vs0mg"},{"bike_id":"289b1a13-690c-4e79-845b-84d15d312618","system_id":"levelo_inurba_marseille","lat":43.28937,"lon":5.3664,"is_reserved":false,"is_disabled":false,"rental_uris":{"android":"levelo://app?vid=289b1a13-690c-4e79-845b-84d15d312618","ios":"levelo://app?vid=289b1a13-690c-4e79-845b-84d15d312618"},"vehicle_type_id":"4","last_reported":1740640154,"current_range_meters":16400,"station_id":"ce4bhap2rcd13ifvqek0","pricing_plan_id":"cebpf4jnsgd1na2vs0mg"},{"bike_id":"31c58e5d-9342-432b-b32a-4dfcdf1667fa","system_id":"levelo_inurba_marseille","lat":43.244,"lon":5.37072,"is_reserved":false,"is_disabled":false,"rental_uris":{"android":"levelo://app?vid=31c58e5d-9342-432b-b32a-4dfcdf1667fa","ios":"levelo://app?vid=31c58e5d-9342-432b-b32a-4dfcdf1667fa"},"vehicle_type_id":"4","last_reported":1740640154,"current_range_meters":16800,"station_id":"ce4bhhh2rcd13ifvqfk0","pricing_plan_id":"cebpf4jnsgd1na2vs0mg"},{"bike_id":"201ea875-dcfb-46bc-8b15-e3348accddfb","system_id":"levelo_inurba_marseille","lat":43.28435,"lon":5.34999,"is_reserved":false,"is_disabled":false,"rental_uris":{"android":"levelo://app?vid=201ea875-dcfb-46bc-8b15-e3348accddfb","ios":"levelo://app?vid=201ea875-dcfb-46bc-8b15-e3348accddfb"},"vehicle_type_id":"4","last_reported":1740640154,"current_range_meters":16800,"station_id":"ce4bhbh2rcd13ifvqepg","pricing_plan_id":"cebpf4jnsgd1na2vs0mg"},{"bike_id":"8d6b073c-bfff-432c-800c-850c87e2b2f3","system_id":"levelo_inurba_marseille","lat":43.2749,"lon":5.42447,"is_reserved":false,"is_disabled":false,"rental_uris":{"android":"levelo://app?vid=8d6b073c-bfff-432c-800c-850c87e2b2f3","ios":"levelo://app?vid=8d6b073c-bfff-432c-800c-850c87e2b2f3"},"vehicle_type_id":"4","last_reported":1740640154,"current_range_meters":17200,"station_id":"ce4bhn92rcd13ifvqgrg","pricing_plan_id":"cebpf4jnsgd1na2vs0mg"},{"bike_id":"26323dc2-e8b2-43f9-80bb-1c7b85e1a16d","system_id":"levelo_inurba_marseille","lat":43.28421,"lon":5.3504,"is_reserved":false,"is_disabled":false,"rental_uris":{"android":"levelo://app?vid=26323dc2-e8b2-43f9-80bb-1c7b85e1a16d","ios":"levelo://app?vid=26323dc2-e8b2-43f9-80bb-1c7b85e1a16d"},"vehicle_type_id":"4","last_reported":1740640154,"current_range_meters":17200,"station_id":"","pricing_plan_id":"cebpf4jnsgd1na2vs0mg"},{"bike_id":"636160dc-69f4-40ef-b2ca-42dddff5e4c3","system_id":"levelo_inurba_marseille","lat":43.3016,"lon":5.38081,"is_reserved":false,"is_disabled":false,"rental_uris":{"android":"levelo://app?vid=636160dc-69f4-40ef-b2ca-42dddff5e4c3","ios":"levelo://app?vid=636160dc-69f4-40ef-b2ca-42dddff5e4c3"},"vehicle_type_id":"4","last_reported":1740640154,"current_range_meters":17200,"station_id":"ce4bgjp2rcd13ifvqbh0","pricing_plan_id":"cebpf4jnsgd1na2vs0mg"},{"bike_id":"775b4c4c-ad55-4b68-a005-d08c96ebdca8","system_id":"levelo_inurba_marseille","lat":43.24073,"lon":5.37766,"is_reserved":false,"is_disabled":false,"rental_uris":{"android":"levelo://app?vid=775b4c4c-ad55-4b68-a005-d08c96ebdca8","ios":"levelo://app?vid=775b4c4c-ad55-4b68-a005-d08c96ebdca8"},"vehicle_type_id":"4","last_reported":1740640154,"current_range_meters":17200,"station_id":"ce4bhnp2rcd13ifvqgvg","pricing_plan_id":"cebpf4jnsgd1na2vs0mg"},{"bike_id":"be39b893-f1c9-47bb-b90d-4b0fbc6a14af","system_id":"levelo_inurba_marseille","lat":43.30259,"lon":5.37724,"is_reserved":false,"is_disabled":false,"rental_uris":{"android":"levelo://app?vid=be39b893-f1c9-47bb-b90d-4b0fbc6a14af","ios":"levelo://app?vid=be39b893-f1c9-47bb-b90d-4b0fbc6a14af"},"vehicle_type_id":"4","last_reported":1740640154,"current_range_meters":16800,"station_id":"ce4bguh2rcd13ifvqcj0","pricing_plan_id":"cebpf4jnsgd1na2vs0mg"},{"bike_id":"6f1e6a2b-5171-4abe-8d45-0da8980e7db1","system_id":"levelo_inurba_marseille","lat":43.30592,"lon":5.39358,"is_reserved":false,"is_disabled":false,"rental_uris":{"android":"levelo://app?vid=6f1e6a2b-5171-4abe-8d45-0da8980e7db1","ios":"levelo://app?vid=6f1e6a2b-5171-4abe-8d45-0da8980e7db1"},"vehicle_type_id":"4","last_reported":1740640154,"current_range_meters":17200,"station_id":"ce4bh0p2rcd13ifvqd80","pricing_plan_id":"cebpf4jnsgd1na2vs0mg"},{"bike_id":"3f5e4c77-943b-4a46-b257-614bf13afec4","system_id":"levelo_inurba_marseille","lat":43.24171,"lon":5.36397,"is_reserved":false,"is_disabled":false,"rental_uris":{"android":"levelo://app?vid=3f5e4c77-943b-4a46-b257-614bf13afec4","ios":"levelo://app?vid=3f5e4c77-943b-4a46-b257-614bf13afec4"},"vehicle_type_id":"4","last_reported":1740640154,"current_range_meters":17600,"station_id":"cpo36qri1sfpv3e86is0","pricing_plan_id":"cebpf4jnsgd1na2vs0mg"},{"bike_id":"2500d8f6-0a3a-4b62-87a5-3637dd8635ff","system_id":"levelo_inurba_marseille","lat":43.30148,"lon":5.3987,"is_reserved":false,"is_disabled":false,"rental_uris":{"android":"levelo://app?vid=2500d8f6-0a3a-4b62-87a5-3637dd8635ff","ios":"levelo://app?vid=2500d8f6-0a3a-4b62-87a5-3637dd8635ff"},"vehicle_type_id":"4","last_reported":1740640154,"current_range_meters":17200,"station_id":"ce4bh0h2rcd13ifvqd40","pricing_plan_id":"cebpf4jnsgd1na2vs0mg"},{"bike_id":"d337cc62-b29d-4e4a-bd4f-e767bd643d41","system_id":"levelo_inurba_marseille","lat":43.32108,"lon":5.36806,"is_reserved":false,"is_disabled":false,"rental_uris":{"android":"levelo://app?vid=d337cc62-b29d-4e4a-bd4f-e767bd643d41","ios":"levelo://app?vid=d337cc62-b29d-4e4a-bd4f-e767bd643d41"},"vehicle_type_id":"4","last_reported":1740640154,"current_range_meters":17200,"station_id":"ce4bhrh2rcd13ifvqhug","pricing_plan_id":"cebpf4jnsgd1na2vs0mg"},{"bike_id":"8e5970ad-dc10-42e4-955e-ae8f9c3e18b8","system_id":"levelo_inurba_marseille","lat":43.27953,"lon":5.41053,"is_reserved":false,"is_disabled":false,"rental_uris":{"android":"levelo://app?vid=8e5970ad-dc10-42e4-955e-ae8f9c3e18b8","ios":"levelo://app?vid=8e5970ad-dc10-42e4-955e-ae8f9c3e18b8"},"vehicle_type_id":"4","last_reported":1740640154,"current_range_meters":17200,"station_id":"ce4bhnp2rcd13ifvqh0g","pricing_plan_id":"cebpf4jnsgd1na2vs0mg"},{"bike_id":"627f9d50-99ab-4386-b5d3-b08940f1d52a","system_id":"levelo_inurba_marseille","lat":43.25575,"lon":5.38256,"is_reserved":false,"is_disabled":false,"rental_uris":{"android":"levelo://app?vid=627f9d50-99ab-4386-b5d3-b08940f1d52a","ios":"levelo://app?vid=627f9d50-99ab-4386-b5d3-b08940f1d52a"},"vehicle_type_id":"4","last_reported":1740640154,"current_range_meters":17200,"station_id":"ce4bhih2rcd13ifvqfs0","pricing_plan_id":"cebpf4jnsgd1na2vs0mg"},{"bike_id":"a15d7fa4-2269-42f0-a671-9145475a30a1","system_id":"levelo_inurba_marseille","lat":43.30402,"lon":5.38994,"is_reserved":false,"is_disabled":false,"rental_uris":{"android":"levelo://app?vid=a15d7fa4-2269-42f0-a671-9145475a30a1","ios":"levelo://app?vid=a15d7fa4-2269-42f0-a671-9145475a30a1"},"vehicle_type_id":"4","last_reported":1740640154,"current_range_meters":17600,"station_id":"","pricing_plan_id":"cebpf4jnsgd1na2vs0mg"},{"bike_id":"7380bee6-bff9-4bda-a88c-88e826549124","system_id":"levelo_inurba_marseille","lat":43.28963,"lon":5.37855,"is_reserved":false,"is_disabled":true,"rental_uris":{"android":"levelo://app?vid=7380bee6-bff9-4bda-a88c-88e826549124","ios":"levelo://app?vid=7380bee6-bff9-4bda-a88c-88e826549124"},"vehicle_type_id":"4","last_reported":1740640154,"current_range_meters":18000,"station_id":"ce4bh9p2rcd13ifvqed0","pricing_plan_id":"cebpf4jnsgd1na2vs0mg"},{"bike_id":"7cf7b894-d393-4f1a-903c-6b57f99cdc54","system_id":"levelo_inurba_marseille","lat":43.26388,"lon":5.38452,"is_reserved":false,"is_disabled":false,"rental_uris":{"android":"levelo://app?vid=7cf7b894-d393-4f1a-903c-6b57f99cdc54","ios":"levelo://app?vid=7cf7b894-d393-4f1a-903c-6b57f99cdc54"},"vehicle_type_id":"4","last_reported":1740640154,"current_range_meters":18000,"station_id":"","pricing_plan_id":"cebpf4jnsgd1na2vs0mg"},{"bike_id":"43d6aa6f-20c7-4a1b-bcb8-31b660876567","system_id":"levelo_inurba_marseille","lat":43.265531,"lon":5.372886,"is_reserved":false,"is_disabled":false,"rental_uris":{"android":"levelo://app?vid=43d6aa6f-20c7-4a1b-bcb8-31b660876567","ios":"levelo://app?vid=43d6aa6f-20c7-4a1b-bcb8-31b660876567"},"vehicle_type_id":"4","last_reported":1740640154,"current_range_meters":17600,"station_id":"ce4bhg12rcd13ifvqf70","pricing_plan_id":"cebpf4jnsgd1na2vs0mg"},{"bike_id":"0c77ca74-e220-4b5f-830c-7720e7dac141","system_id":"levelo_inurba_marseille","lat":43.27936,"lon":5.4105,"is_reserved":false,"is_disabled":false,"rental_uris":{"android":"levelo://app?vid=0c77ca74-e220-4b5f-830c-7720e7dac141","ios":"levelo://app?vid=0c77ca74-e220-4b5f-830c-7720e7dac141"},"vehicle_type_id":"4","last_reported":1740640154,"current_range_meters":17600,"station_id":"ce4bhnp2rcd13ifvqh0g","pricing_plan_id":"cebpf4jnsgd1na2vs0mg"},{"bike_id":"3ece54c8-f7ff-427d-93d9-8893e9958cf8","system_id":"levelo_inurba_marseille","lat":43.308781,"lon":5.396431,"is_reserved":false,"is_disabled":false,"rental_uris":{"android":"levelo://app?vid=3ece54c8-f7ff-427d-93d9-8893e9958cf8","ios":"levelo://app?vid=3ece54c8-f7ff-427d-93d9-8893e9958cf8"},"vehicle_type_id":"4","last_reported":1740640154,"current_range_meters":17200,"station_id":"chh1huq6cuj3fo74tm60","pricing_plan_id":"cebpf4jnsgd1na2vs0mg"},{"bike_id":"8e100345-e773-4b5f-aa04-a4e55e7b32d1","system_id":"levelo_inurba_marseille","lat":43.31472,"lon":5.373,"is_reserved":false,"is_disabled":false,"rental_uris":{"android":"levelo://app?vid=8e100345-e773-4b5f-aa04-a4e55e7b32d1","ios":"levelo://app?vid=8e100345-e773-4b5f-aa04-a4e55e7b32d1"},"vehicle_type_id":"4","last_reported":1740640154,"current_range_meters":17600,"station_id":"ce4bgt12rcd13ifvqcd0","pricing_plan_id":"cebpf4jnsgd1na2vs0mg"},{"bike_id":"786ebbca-c760-4823-bfcd-65363bf4c0fe","system_id":"levelo_inurba_marseille","lat":43.31694,"lon":5.437,"is_reserved":false,"is_disabled":false,"rental_uris":{"android":"levelo://app?vid=786ebbca-c760-4823-bfcd-65363bf4c0fe","ios":"levelo://app?vid=786ebbca-c760-4823-bfcd-65363bf4c0fe"},"vehicle_type_id":"4","last_reported":1740640154,"current_range_meters":17600,"station_id":"ce4bhp92rcd13ifvqhcg","pricing_plan_id":"cebpf4jnsgd1na2vs0mg"},{"bike_id":"304df838-b133-4174-bfb6-4755460cc02a","system_id":"levelo_inurba_marseille","lat":43.28633,"lon":5.3512,"is_reserved":false,"is_disabled":false,"rental_uris":{"android":"levelo://app?vid=304df838-b133-4174-bfb6-4755460cc02a","ios":"levelo://app?vid=304df838-b133-4174-bfb6-4755460cc02a"},"vehicle_type_id":"4","last_reported":1740640154,"current_range_meters":17600,"station_id":"ce4bhch2rcd13ifvqeug","pricing_plan_id":"cebpf4jnsgd1na2vs0mg"},{"bike_id":"ef77bf7f-5b88-41c9-8d3b-c8c9c0447dd9","system_id":"levelo_inurba_marseille","lat":43.28078,"lon":5.35026,"is_reserved":false,"is_disabled":false,"rental_uris":{"android":"levelo://app?vid=ef77bf7f-5b88-41c9-8d3b-c8c9c0447dd9","ios":"levelo://app?vid=ef77bf7f-5b88-41c9-8d3b-c8c9c0447dd9"},"vehicle_type_id":"4","last_reported":1740640154,"current_range_meters":17600,"station_id":"","pricing_plan_id":"cebpf4jnsgd1na2vs0mg"},{"bike_id":"8e6795ef-5cc7-4703-bc55-898144eada56","system_id":"levelo_inurba_marseille","lat":43.28426,"lon":5.34991,"is_reserved":false,"is_disabled":false,"rental_uris":{"android":"levelo://app?vid=8e6795ef-5cc7-4703-bc55-898144eada56","ios":"levelo://app?vid=8e6795ef-5cc7-4703-bc55-898144eada56"},"vehicle_type_id":"4","last_reported":1740640154,"current_range_meters":17600,"station_id":"ce4bhbh2rcd13ifvqepg","pricing_plan_id":"cebpf4jnsgd1na2vs0mg"},{"bike_id":"30e6a8b7-d81e-43c4-a0e8-e8a57a43deec","system_id":"levelo_inurba_marseille","lat":43.28271,"lon":5.35076,"is_reserved":false,"is_disabled":false,"rental_uris":{"android":"levelo://app?vid=30e6a8b7-d81e-43c4-a0e8-e8a57a43deec","ios":"levelo://app?vid=30e6a8b7-d81e-43c4-a0e8-e8a57a43deec"},"vehicle_type_id":"4","last_reported":1740640154,"current_range_meters":17600,"station_id":"ce4bhbp2rcd13ifvqerg","pricing_plan_id":"cebpf4jnsgd1na2vs0mg"},{"bike_id":"89bb3df1-af56-491b-93c3-dbf6a26c9720","system_id":"levelo_inurba_marseille","lat":43.31074,"lon":5.42432,"is_reserved":false,"is_disabled":false,"rental_uris":{"android":"levelo://app?vid=89bb3df1-af56-491b-93c3-dbf6a26c9720","ios":"levelo://app?vid=89bb3df1-af56-491b-93c3-dbf6a26c9720"},"vehicle_type_id":"4","last_reported":1740640154,"current_range_meters":6000,"station_id":"ce4bhp92rcd13ifvqhag","pricing_plan_id":"cebpf4jnsgd1na2vs0mg"},{"bike_id":"80e6633d-12d5-4ca0-9f8b-8f9065c1a0f0","system_id":"levelo_inurba_marseille","lat":43.29589,"lon":5.38111,"is_reserved":false,"is_disabled":false,"rental_uris":{"android":"levelo://app?vid=80e6633d-12d5-4ca0-9f8b-8f9065c1a0f0","ios":"levelo://app?vid=80e6633d-12d5-4ca0-9f8b-8f9065c1a0f0"},"vehicle_type_id":"4","last_reported":1740640154,"current_range_meters":18000,"station_id":"ce4bgl12rcd13ifvqbo0","pricing_plan_id":"cebpf4jnsgd1na2vs0mg"},{"bike_id":"efbcf9c0-cb60-4de7-a1a6-ec650e3775d2","system_id":"levelo_inurba_marseille","lat":43.28299,"lon":5.35088,"is_reserved":false,"is_disabled":false,"rental_uris":{"android":"levelo://app?vid=efbcf9c0-cb60-4de7-a1a6-ec650e3775d2","ios":"levelo://app?vid=efbcf9c0-cb60-4de7-a1a6-ec650e3775d2"},"vehicle_type_id":"4","last_reported":1740640154,"current_range_meters":18000,"station_id":"ce4bhbp2rcd13ifvqerg","pricing_plan_id":"cebpf4jnsgd1na2vs0mg"},{"bike_id":"4380a28f-e631-41db-9523-e3bc2367fcc4","system_id":"levelo_inurba_marseille","lat":43.24061,"lon":5.37781,"is_reserved":false,"is_disabled":false,"rental_uris":{"android":"levelo://app?vid=4380a28f-e631-41db-9523-e3bc2367fcc4","ios":"levelo://app?vid=4380a28f-e631-41db-9523-e3bc2367fcc4"},"vehicle_type_id":"4","last_reported":1740640154,"current_range_meters":18000,"station_id":"ce4bhnp2rcd13ifvqgvg","pricing_plan_id":"cebpf4jnsgd1na2vs0mg"},{"bike_id":"cc629bdc-cd41-40cd-bed9-6b69cf7d6f91","system_id":"levelo_inurba_marseille","lat":43.31274,"lon":5.40167,"is_reserved":false,"is_disabled":true,"rental_uris":{"android":"levelo://app?vid=cc629bdc-cd41-40cd-bed9-6b69cf7d6f91","ios":"levelo://app?vid=cc629bdc-cd41-40cd-bed9-6b69cf7d6f91"},"vehicle_type_id":"4","last_reported":1740640154,"current_range_meters":18000,"station_id":"ce4bh092rcd13ifvqd30","pricing_plan_id":"cebpf4jnsgd1na2vs0mg"},{"bike_id":"8d858929-9021-4ec0-a5ea-e8886ae0caea","system_id":"levelo_inurba_marseille","lat":43.28261,"lon":5.35079,"is_reserved":false,"is_disabled":false,"rental_uris":{"android":"levelo://app?vid=8d858929-9021-4ec0-a5ea-e8886ae0caea","ios":"levelo://app?vid=8d858929-9021-4ec0-a5ea-e8886ae0caea"},"vehicle_type_id":"4","last_reported":1740640154,"current_range_meters":18000,"station_id":"ce4bhbp2rcd13ifvqerg","pricing_plan_id":"cebpf4jnsgd1na2vs0mg"},{"bike_id":"25f580a7-e105-402c-992c-04066cb6b532","system_id":"levelo_inurba_marseille","lat":43.28676,"lon":5.38659,"is_reserved":false,"is_disabled":false,"rental_uris":{"android":"levelo://app?vid=25f580a7-e105-402c-992c-04066cb6b532","ios":"levelo://app?vid=25f580a7-e105-402c-992c-04066cb6b532"},"vehicle_type_id":"4","last_reported":1740640154,"current_range_meters":18000,"station_id":"ce4bh492rcd13ifvqdug","pricing_plan_id":"cebpf4jnsgd1na2vs0mg"},{"bike_id":"40f2f757-0cc8-435f-b6dc-d54929c1f686","system_id":"levelo_inurba_marseille","lat":43.28416,"lon":5.37504,"is_reserved":false,"is_disabled":false,"rental_uris":{"android":"levelo://app?vid=40f2f757-0cc8-435f-b6dc-d54929c1f686","ios":"levelo://app?vid=40f2f757-0cc8-435f-b6dc-d54929c1f686"},"vehicle_type_id":"4","last_reported":1740640154,"current_range_meters":18800,"station_id":"ce4bh412rcd13ifvqds0","pricing_plan_id":"cebpf4jnsgd1na2vs0mg"},{"bike_id":"eb4bba4e-a9b9-434f-b60b-97366c598a0a","system_id":"levelo_inurba_marseille","lat":43.311743,"lon":5.387181,"is_reserved":false,"is_disabled":false,"rental_uris":{"android":"levelo://app?vid=eb4bba4e-a9b9-434f-b60b-97366c598a0a","ios":"levelo://app?vid=eb4bba4e-a9b9-434f-b60b-97366c598a0a"},"vehicle_type_id":"4","last_reported":1740640154,"current_range_meters":18800,"station_id":"ce4bgv12rcd13ifvqcp0","pricing_plan_id":"cebpf4jnsgd1na2vs0mg"},{"bike_id":"b96dd6d6-c41c-404e-937b-cf9a9ef9ece3","system_id":"levelo_inurba_marseille","lat":43.30468,"lon":5.37906,"is_reserved":false,"is_disabled":false,"rental_uris":{"android":"levelo://app?vid=b96dd6d6-c41c-404e-937b-cf9a9ef9ece3","ios":"levelo://app?vid=b96dd6d6-c41c-404e-937b-cf9a9ef9ece3"},"vehicle_type_id":"4","last_reported":1740640154,"current_range_meters":18800,"station_id":"ce4bgup2rcd13ifvqcn0","pricing_plan_id":"cebpf4jnsgd1na2vs0mg"},{"bike_id":"4c10f9a5-6c43-45ff-837c-4dcccbafed77","system_id":"levelo_inurba_marseille","lat":43.29718,"lon":5.37688,"is_reserved":false,"is_disabled":false,"rental_uris":{"android":"levelo://app?vid=4c10f9a5-6c43-45ff-837c-4dcccbafed77","ios":"levelo://app?vid=4c10f9a5-6c43-45ff-837c-4dcccbafed77"},"vehicle_type_id":"4","last_reported":1740640154,"current_range_meters":18800,"station_id":"ce4bgkh2rcd13ifvqbl0","pricing_plan_id":"cebpf4jnsgd1na2vs0mg"},{"bike_id":"697731ff-c5af-4723-95d0-4fbd901ea392","system_id":"levelo_inurba_marseille","lat":43.306562,"lon":5.400846,"is_reserved":false,"is_disabled":false,"rental_uris":{"android":"levelo://app?vid=697731ff-c5af-4723-95d0-4fbd901ea392","ios":"levelo://app?vid=697731ff-c5af-4723-95d0-4fbd901ea392"},"vehicle_type_id":"4","last_reported":1740640154,"current_range_meters":18800,"station_id":"ce4bh112rcd13ifvqda0","pricing_plan_id":"cebpf4jnsgd1na2vs0mg"},{"bike_id":"afc8e1b9-ad0b-499c-af3d-2daf05073309","system_id":"levelo_inurba_marseille","lat":43.26566,"lon":5.3901,"is_reserved":false,"is_disabled":false,"rental_uris":{"android":"levelo://app?vid=afc8e1b9-ad0b-499c-af3d-2daf05073309","ios":"levelo://app?vid=afc8e1b9-ad0b-499c-af3d-2daf05073309"},"vehicle_type_id":"4","last_reported":1740640154,"current_range_meters":18800,"station_id":"ce4bhe12rcd13ifvqf30","pricing_plan_id":"cebpf4jnsgd1na2vs0mg"},{"bike_id":"e4d0b515-254a-4741-b117-890a48c4b3ac","system_id":"levelo_inurba_marseille","lat":43.28359,"lon":5.3867,"is_reserved":false,"is_disabled":false,"rental_uris":{"android":"levelo://app?vid=e4d0b515-254a-4741-b117-890a48c4b3ac","ios":"levelo://app?vid=e4d0b515-254a-4741-b117-890a48c4b3ac"},"vehicle_type_id":"4","last_reported":1740640154,"current_range_meters":18800,"station_id":"ce4bh492rcd13ifvqdvg","pricing_plan_id":"cebpf4jnsgd1na2vs0mg"},