{"last_updated":1685290031,"ttl":30,"version":"2.2","data":{"bikes":[{"bike_id":"8abdc4b9-f139-4496-bb8e-9cdbd01ef1f9","system_id":"levelo_inurba_marseille","lat":43.313391,"lon":5.36706,"is_reserved":false,"is_disabled":false,"rental_uris":{"android":"levelo://app?vid=8abdc4b9-f139-4496-bb8e-9cdbd01ef1f9","ios":"levelo://app?vid=8abdc4b9-f139-4496-bb8e-9cdbd01ef1f9"},"vehicle_type_id":"4","last_reported":1685290032,"current_range_meters":14400,"station_id":"ce4bgr92rcd13ifvqc6g","pricing_plan_id":"free"},{"bike_id":"87da4692-2a59-453c-9ce4-2ebe9135c6cd","system_id":"levelo_inurba_marseille","lat":43.313391,"lon":5.36706,"is_reserved":false,"is_disabled":false,"rental_uris":{"android":"levelo://app?vid=87da4692-2a59-453c-9ce4-2ebe9135c6cd","ios":"levelo://app?vid=87da4692-2a59-453c-9ce4-2ebe9135c6cd"},"vehicle_type_id":"4","last_reported":1685290032,"current_range_meters":14800,"station_id":"ce4bgr92rcd13ifvqc6g","pricing_plan_id":"free"},{"bike_id":"d0f99222-8666-4f9a-a698-3dff3b9cf485","system_id":"levelo_inurba_marseille","lat":43.301939,"lon":5.366286,"is_reserved":false,"is_disabled":false,"rental_uris":{"android":"levelo://app?vid=d0f99222-8666-4f9a-a698-3dff3b9cf485","ios":"levelo://app?vid=d0f99222-8666-4f9a-a698-3dff3b9cf485"},"vehicle_type_id":"4","last_reported":1685290032,"current_range_meters":17200,"station_id":"ce4bgrh2rcd13ifvqc8g","pricing_plan_id":"free"},{"bike_id":"842514c0-f541-4660-aa87-a24555f1401c","system_id":"levelo_inurba_marseille","lat":43.301939,"lon":5.366286,"is_reserved":false,"is_disabled":false,"rental_uris":{"android":"levelo://app?vid=842514c0-f541-4660-aa87-a24555f1401c","ios":"levelo://app?vid=842514c0-f541-4660-aa87-a24555f1401c"},"vehicle_type_id":"4","last_reported":1685290032,"current_range_meters":2000,"station_id":"ce4bgrh2rcd13ifvqc8g","pricing_plan_id":"free"},{"bike_id":"6aeb2fe9-9969-4fda-8248-86960b25bd0d","system_id":"levelo_inurba_marseille","lat":43.308012,"lon":5.381511,"is_reserved":false,"is_disabled":false,"rental_uris":{"android":"levelo://app?vid=6aeb2fe9-9969-4fda-8248-86960b25bd0d","ios":"levelo://app?vid=6aeb2fe9-9969-4fda-8248-86960b25bd0d"},"vehicle_type_id":"4","last_reported":1685290032,"current_range_meters":2800,"station_id":"ce4bgt12rcd13ifvqce0","pricing_plan_id":"free"},{"bike_id":"3ccb8a79-f4b7-4a56-9264-f088c657fd14","system_id":"levelo_inurba_marseille","lat":43.313571,"lon":5.384829,"is_reserved":false,"is_disabled":false,"rental_uris":{"android":"levelo://app?vid=3ccb8a79-f4b7-4a56-9264-f088c657fd14","ios":"levelo://app?vid=3ccb8a79-f4b7-4a56-9264-f088c657fd14"},"vehicle_type_id":"4","last_reported":1685290032,"current_range_meters":20000,"station_id":"ce4bgt92rcd13ifvqcf0","pricing_plan_id":"free"},{"bike_id":"1aa73a2b-e8ab-4d35-b5f0-87bc2995d49e","system_id":"levelo_inurba_marseille","lat":43.29919,"lon":5.37496,"is_reserved":false,"is_disabled":false,"rental_uris":{"android":"levelo://app?vid=1aa73a2b-e8ab-4d35-b5f0-87bc2995d49e","ios":"levelo://app?vid=1aa73a2b-e8ab-4d35-b5f0-87bc2995d49e"},"vehicle_type_id":"4","last_reported":1685290032,"current_range_meters":7600,"station_id":"ce4bgjh2rcd13ifvqbg0","pricing_plan_id":"free"},{"bike_id":"1b064916-ce14-4dd7-8822-0096c3687352","system_id":"levelo_inurba_marseille","lat":43.31175,"lon":5.38718,"is_reserved":false,"is_disabled":false,"rental_uris":{"android":"levelo://app?vid=1b064916-ce14-4dd7-8822-0096c3687352","ios":"levelo://app?vid=1b064916-ce14-4dd7-8822-0096c3687352"},"vehicle_type_id":"4","last_reported":1685290032,"current_range_meters":3600,"station_id":"ce4bgv12rcd13ifvqcp0","pricing_plan_id":"free"},{"bike_id":"9eb7733f-fccf-4306-8c4b-b2ad10c67ee8","system_id":"levelo_inurba_marseille","lat":43.297774,"lon":5.370875,"is_reserved":false,"is_disabled":false,"rental_uris":{"android":"levelo://app?vid=9eb7733f-fccf-4306-8c4b-b2ad10c67ee8","ios":"levelo://app?vid=9eb7733f-fccf-4306-8c4b-b2ad10c67ee8"},"vehicle_type_id":"4","last_reported":1685290032,"current_range_meters":19600,"station_id":"ce4bgop2rcd13ifvqc1g","pricing_plan_id":"free"},{"bike_id":"bb1e0ad9-df4b-41de-bdd5-bce01dd60691","system_id":"levelo_inurba_marseille","lat":43.328371,"lon":5.366909,"is_reserved":false,"is_disabled":false,"rental_uris":{"android":"levelo://app?vid=bb1e0ad9-df4b-41de-bdd5-bce01dd60691","ios":"levelo://app?vid=bb1e0ad9-df4b-41de-bdd5-bce01dd60691"},"vehicle_type_id":"4","last_reported":1685290032,"current_range_meters":29200,"station_id":"ce4bhs92rcd13ifvqi0g","pricing_plan_id":"free"},{"bike_id":"43d041a6-cdcf-4897-8665-6ed61b2c409c","system_id":"levelo_inurba_marseille","lat":43.32825,"lon":5.36678,"is_reserved":false,"is_disabled":false,"rental_uris":{"android":"levelo://app?vid=43d041a6-cdcf-4897-8665-6ed61b2c409c","ios":"levelo://app?vid=43d041a6-cdcf-4897-8665-6ed61b2c409c"},"vehicle_type_id":"4","last_reported":1685290032,"current_range_meters":29600,"station_id":"ce4bhs92rcd13ifvqi0g","pricing_plan_id":"free"},{"bike_id":"6aadd20f-ee22-42f7-9c69-f3066c5dfcf1","system_id":"levelo_inurba_marseille","lat":43.328371,"lon":5.366912,"is_reserved":false,"is_disabled":false,"rental_uris":{"android":"levelo://app?vid=6aadd20f-ee22-42f7-9c69-f3066c5dfcf1","ios":"levelo://app?vid=6aadd20f-ee22-42f7-9c69-f3066c5dfcf1"},"vehicle_type_id":"4","last_reported":1685290032,"current_range_meters":10800,"station_id":"ce4bhs92rcd13ifvqi0g","pricing_plan_id":"free"},{"bike_id":"285c145e-777a-4b00-b299-e3b44b9cb422","system_id":"levelo_inurba_marseille","lat":43.32834,"lon":5.36688,"is_reserved":false,"is_disabled":false,"rental_uris":{"android":"levelo://app?vid=285c145e-777a-4b00-b299-e3b44b9cb422","ios":"levelo://app?vid=285c145e-777a-4b00-b299-e3b44b9cb422"},"vehicle_type_id":"4","last_reported":1685290032,"current_range_meters":7200,"station_id":"ce4bhs92rcd13ifvqi0g","pricing_plan_id":"free"},{"bike_id":"9bbdf958-1737-493b-8bdb-642277200e12","system_id":"levelo_inurba_marseille","lat":43.30003,"lon":5.38064,"is_reserved":false,"is_disabled":false,"rental_uris":{"android":"levelo://app?vid=9bbdf958-1737-493b-8bdb-642277200e12","ios":"levelo://app?vid=9bbdf958-1737-493b-8bdb-642277200e12"},"vehicle_type_id":"4","last_reported":1685290032,"current_range_meters":19200,"station_id":"","pricing_plan_id":"free"},{"bike_id":"383aa7a2-3538-4d7d-9ca2-1fbba8b52814","system_id":"levelo_inurba_marseille","lat":43.29733,"lon":5.35966,"is_reserved":false,"is_disabled":false,"rental_uris":{"android":"levelo://app?vid=383aa7a2-3538-4d7d-9ca2-1fbba8b52814","ios":"levelo://app?vid=383aa7a2-3538-4d7d-9ca2-1fbba8b52814"},"vehicle_type_id":"4","last_reported":1685290032,"current_range_meters":26400,"station_id":"","pricing_plan_id":"free"},{"bike_id":"3243a31f-0d81-4829-aa47-d506d1f35a97","system_id":"levelo_inurba_marseille","lat":43.296131,"lon":5.370791,"is_reserved":false,"is_disabled":false,"rental_uris":{"android":"levelo://app?vid=3243a31f-0d81-4829-aa47-d506d1f35a97","ios":"levelo://app?vid=3243a31f-0d81-4829-aa47-d506d1f35a97"},"vehicle_type_id":"4","last_reported":1685290032,"current_range_meters":25600,"station_id":"ce4bgnh2rcd13ifvqc0g","pricing_plan_id":"free"},{"bike_id":"b9c307aa-2484-4812-8a79-7af59ac8272a","system_id":"levelo_inurba_marseille","lat":43.29616,"lon":5.37167,"is_reserved":false,"is_disabled":false,"rental_uris":{"android":"levelo://app?vid=b9c307aa-2484-4812-8a79-7af59ac8272a","ios":"levelo://app?vid=b9c307aa-2484-4812-8a79-7af59ac8272a"},"vehicle_type_id":"4","last_reported":1685290032,"current_range_meters":19200,"station_id":"","pricing_plan_id":"free"},{"bike_id":"28419cd0-4947-4707-b8e4-f0e564e6715d","system_id":"levelo_inurba_marseille","lat":43.309817,"lon":5.38992,"is_reserved":false,"is_disabled":false,"rental_uris":{"android":"levelo://app?vid=28419cd0-4947-4707-b8e4-f0e564e6715d","ios":"levelo://app?vid=28419cd0-4947-4707-b8e4-f0e564e6715d"},"vehicle_type_id":"4","last_reported":1685290032,"current_range_meters":5200,"station_id":"","pricing_plan_id":"free"},{"bike_id":"645ff1d1-86e5-4daf-99c0-c34891b94aee","system_id":"levelo_inurba_marseille","lat":43.296131,"lon":5.370773,"is_reserved":false,"is_disabled":false,"rental_uris":{"android":"levelo://app?vid=645ff1d1-86e5-4daf-99c0-c34891b94aee","ios":"levelo://app?vid=645ff1d1-86e5-4daf-99c0-c34891b94aee"},"vehicle_type_id":"4","last_reported":1685290032,"current_range_meters":2000,"station_id":"ce4bgnh2rcd13ifvqc0g","pricing_plan_id":"free"},{"bike_id":"1a77619c-e3d6-4ba9-96af-d5893412ba66","system_id":"levelo_inurba_marseille","lat":43.30947,"lon":5.39029,"is_reserved":false,"is_disabled":false,"rental_uris":{"android":"levelo://app?vid=1a77619c-e3d6-4ba9-96af-d5893412ba66","ios":"levelo://app?vid=1a77619c-e3d6-4ba9-96af-d5893412ba66"},"vehicle_type_id":"4","last_reported":1685290032,"current_range_meters":14000,"station_id":"ce4bgup2rcd13ifvqco0","pricing_plan_id":"free"},{"bike_id":"847a43ee-5111-43f7-8d62-f72f8edd36e9","system_id":"levelo_inurba_marseille","lat":43.309589,"lon":5.390258,"is_reserved":false,"is_disabled":false,"rental_uris":{"android":"levelo://app?vid=847a43ee-5111-43f7-8d62-f72f8edd36e9","ios":"levelo://app?vid=847a43ee-5111-43f7-8d62-f72f8edd36e9"},"vehicle_type_id":"4","last_reported":1685290032,"current_range_meters":30400,"station_id":"ce4bgup2rcd13ifvqco0","pricing_plan_id":"free"},{"bike_id":"c41ce708-ebea-4483-8b7f-cff42d471436","system_id":"levelo_inurba_marseille","lat":43.3095,"lon":5.39043,"is_reserved":false,"is_disabled":false,"rental_uris":{"android":"levelo://app?vid=c41ce708-ebea-4483-8b7f-cff42d471436","ios":"levelo://app?vid=c41ce708-ebea-4483-8b7f-cff42d471436"},"vehicle_type_id":"4","last_reported":1685290032,"current_range_meters":12400,"station_id":"ce4bgkh2rcd13ifvqbk0","pricing_plan_id":"free"},{"bike_id":"c3beebb4-8738-47bd-8c55-b8d3c1dfbea2","system_id":"levelo_inurba_marseille","lat":43.295748,"lon":5.37522,"is_reserved":false,"is_disabled":false,"rental_uris":{"android":"levelo://app?vid=c3beebb4-8738-47bd-8c55-b8d3c1dfbea2","ios":"levelo://app?vid=c3beebb4-8738-47bd-8c55-b8d3c1dfbea2"},"vehicle_type_id":"4","last_reported":1685290032,"current_range_meters":10800,"station_id":"ce4bgh92rcd13ifvqb50","pricing_plan_id":"free"},{"bike_id":"7fccbce3-99a7-446b-8a3b-a126d68718c8","system_id":"levelo_inurba_marseille","lat":43.298037,"lon":5.381066,"is_reserved":false,"is_disabled":false,"rental_uris":{"android":"levelo://app?vid=7fccbce3-99a7-446b-8a3b-a126d68718c8","ios":"levelo://app?vid=7fccbce3-99a7-446b-8a3b-a126d68718c8"},"vehicle_type_id":"4","last_reported":1685290032,"current_range_meters":14400,"station_id":"ce4bgip2rcd13ifvqbb0","pricing_plan_id":"free"},{"bike_id":"9fd1e73b-73af-40a2-9b1a-6fafcb122597","system_id":"levelo_inurba_marseille","lat":43.304274,"lon":5.388873,"is_reserved":false,"is_disabled":false,"rental_uris":{"android":"levelo://app?vid=9fd1e73b-73af-40a2-9b1a-6fafcb122597","ios":"levelo://app?vid=9fd1e73b-73af-40a2-9b1a-6fafcb122597"},"vehicle_type_id":"4","last_reported":1685290032,"current_range_meters":0,"station_id":"ce4bgk12rcd13ifvqbi0","pricing_plan_id":"free"},{"bike_id":"02e330ab-872e-43ac-85a5-de3947569152","system_id":"levelo_inurba_marseille","lat":43.29566,"lon":5.37525,"is_reserved":false,"is_disabled":false,"rental_uris":{"android":"levelo://app?vid=02e330ab-872e-43ac-85a5-de3947569152","ios":"levelo://app?vid=02e330ab-872e-43ac-85a5-de3947569152"},"vehicle_type_id":"4","last_reported":1685290032,"current_range_meters":10800,"station_id":"ce4bgh92rcd13ifvqb50","pricing_plan_id":"free"},{"bike_id":"f9acf628-f826-463a-87d2-ba513943ed4a","system_id":"levelo_inurba_marseille","lat":43.295279,"lon":5.375048,"is_reserved":false,"is_disabled":false,"rental_uris":{"android":"levelo://app?vid=f9acf628-f826-463a-87d2-ba513943ed4a","ios":"levelo://app?vid=f9acf628-f826-463a-87d2-ba513943ed4a"},"vehicle_type_id":"4","last_reported":1685290032,"current_range_meters":13200,"station_id":"ce4bgkp2rcd13ifvqbmg","pricing_plan_id":"free"},{"bike_id":"10a6923e-f483-4306-98d5-97df0297979e","system_id":"levelo_inurba_marseille","lat":43.299717,"lon":5.384845,"is_reserved":false,"is_disabled":false,"rental_uris":{"android":"levelo://app?vid=10a6923e-f483-4306-98d5-97df0297979e","ios":"levelo://app?vid=10a6923e-f483-4306-98d5-97df0297979e"},"vehicle_type_id":"4","last_reported":1685290032,"current_range_meters":9600,"station_id":"ce4bgj92rcd13ifvqbd0","pricing_plan_id":"free"},{"bike_id":"657c8d77-28ef-484a-a62e-db932f3dac91","system_id":"levelo_inurba_marseille","lat":43.299717,"lon":5.384845,"is_reserved":false,"is_disabled":false,"rental_uris":{"android":"levelo://app?vid=657c8d77-28ef-484a-a62e-db932f3dac91","ios":"levelo://app?vid=657c8d77-28ef-484a-a62e-db932f3dac91"},"vehicle_type_id":"4","last_reported":1685290032,"current_range_meters":400,"station_id":"ce4bgj92rcd13ifvqbd0","pricing_plan_id":"free"},{"bike_id":"48cbcb31-d9fc-43ca-8d7a-27fdf6a01e56","system_id":"levelo_inurba_marseille","lat":43.32367,"lon":5.388836,"is_reserved":false,"is_disabled":false,"rental_uris":{"android":"levelo://app?vid=48cbcb31-d9fc-43ca-8d7a-27fdf6a01e56","ios":"levelo://app?vid=48cbcb31-d9fc-43ca-8d7a-27fdf6a01e56"},"vehicle_type_id":"4","last_reported":1685290032,"current_range_meters":4800,"station_id":"ce4bhqp2rcd13ifvqhog","pricing_plan_id":"free"},{"bike_id":"ad53b8fb-f30c-4c84-9c29-5897902d3a00","system_id":"levelo_inurba_marseille","lat":43.292749,"lon":5.368402,"is_reserved":false,"is_disabled":false,"rental_uris":{"android":"levelo://app?vid=ad53b8fb-f30c-4c84-9c29-5897902d3a00","ios":"levelo://app?vid=ad53b8fb-f30c-4c84-9c29-5897902d3a00"},"vehicle_type_id":"4","last_reported":1685290032,"current_range_meters":800,"station_id":"ce4bhbp2rcd13ifvqesg","pricing_plan_id":"free"},{"bike_id":"441681d5-ac0e-40a5-82be-84f5389a703d","system_id":"levelo_inurba_marseille","lat":43.302992,"lon":5.392136,"is_reserved":false,"is_disabled":false,"rental_uris":{"android":"levelo://app?vid=441681d5-ac0e-40a5-82be-84f5389a703d","ios":"levelo://app?vid=441681d5-ac0e-40a5-82be-84f5389a703d"},"vehicle_type_id":"4","last_reported":1685290032,"current_range_meters":8400,"station_id":"ce4bgkh2rcd13ifvqbk0","pricing_plan_id":"free"},{"bike_id":"2527bf35-ab17-45d4-91cf-ea5d66c3a2ed","system_id":"levelo_inurba_marseille","lat":43.2936,"lon":5.37835,"is_reserved":false,"is_disabled":false,"rental_uris":{"android":"levelo://app?vid=2527bf35-ab17-45d4-91cf-ea5d66c3a2ed","ios":"levelo://app?vid=2527bf35-ab17-45d4-91cf-ea5d66c3a2ed"},"vehicle_type_id":"4","last_reported":1685290032,"current_range_meters":800,"station_id":"ce4bgjh2rcd13ifvqbf0","pricing_plan_id":"free"},{"bike_id":"bd090ebb-7e21-4705-ad14-54d2631cae26","system_id":"levelo_inurba_marseille","lat":43.302992,"lon":5.392136,"is_reserved":false,"is_disabled":false,"rental_uris":{"android":"levelo://app?vid=bd090ebb-7e21-4705-ad14-54d2631cae26","ios":"levelo://app?vid=bd090ebb-7e21-4705-ad14-54d2631cae26"},"vehicle_type_id":"4","last_reported":1685290032,"current_range_meters":16400,"station_id":"ce4bgkh2rcd13ifvqbk0","pricing_plan_id":"free"},{"bike_id":"ff4ee423-1f56-48d8-b332-b3de3933fa6f","system_id":"levelo_inurba_marseille","lat":43.29529,"lon":5.385581,"is_reserved":false,"is_disabled":false,"rental_uris":{"android":"levelo://app?vid=ff4ee423-1f56-48d8-b332-b3de3933fa6f","ios":"levelo://app?vid=ff4ee423-1f56-48d8-b332-b3de3933fa6f"},"vehicle_type_id":"4","last_reported":1685290032,"current_range_meters":6800,"station_id":"ce4bgih2rcd13ifvqba0","pricing_plan_id":"free"},{"bike_id":"791cd6a8-dad6-4a7b-86e1-ebee2b44543b","system_id":"levelo_inurba_marseille","lat":43.29529,"lon":5.385581,"is_reserved":false,"is_disabled":false,"rental_uris":{"android":"levelo://app?vid=791cd6a8-dad6-4a7b-86e1-ebee2b44543b","ios":"levelo://app?vid=791cd6a8-dad6-4a7b-86e1-ebee2b44543b"},"vehicle_type_id":"4","last_reported":1685290032,"current_range_meters":0,"station_id":"ce4bgih2rcd13ifvqba0","pricing_plan_id":"free"},{"bike_id":"4a2eea88-eb3f-4daa-b8c0-2618550c5626","system_id":"levelo_inurba_marseille","lat":43.29529,"lon":5.385581,"is_reserved":false,"is_disabled":false,"rental_uris":{"android":"levelo://app?vid=4a2eea88-eb3f-4daa-b8c0-2618550c5626","ios":"levelo://app?vid=4a2eea88-eb3f-4daa-b8c0-2618550c5626"},"vehicle_type_id":"4","last_reported":1685290032,"current_range_meters":7200,"station_id":"ce4bgih2rcd13ifvqba0","pricing_plan_id":"free"},{"bike_id":"40988e1e-8697-4a4a-a917-d4cfdb2117cb","system_id":"levelo_inurba_marseille","lat":43.294153,"lon":5.386305,"is_reserved":false,"is_disabled":false,"rental_uris":{"android":"levelo://app?vid=40988e1e-8697-4a4a-a917-d4cfdb2117cb","ios":"levelo://app?vid=40988e1e-8697-4a4a-a917-d4cfdb2117cb"},"vehicle_type_id":"4","last_reported":1685290032,"current_range_meters":9200,"station_id":"ce4bh2h2rcd13ifvqdh0","pricing_plan_id":"free"},{"bike_id":"72f8d7b1-177c-46f5-8755-a51b024cfda6","system_id":"levelo_inurba_marseille","lat":43.29417,"lon":5.38626,"is_reserved":false,"is_disabled":false,"rental_uris":{"android":"levelo://app?vid=72f8d7b1-177c-46f5-8755-a51b024cfda6","ios":"levelo://app?vid=72f8d7b1-177c-46f5-8755-a51b024cfda6"},"vehicle_type_id":"4","last_reported":1685290032,"current_range_meters":7600,"station_id":"ce4bh2h2rcd13ifvqdh0","pricing_plan_id":"free"},{"bike_id":"89b5318e-56da-4ae2-b550-36dc414bf6a8","system_id":"levelo_inurba_marseille","lat":43.29412,"lon":5.386214,"is_reserved":false,"is_disabled":false,"rental_uris":{"android":"levelo://app?vid=89b5318e-56da-4ae2-b550-36dc414bf6a8","ios":"levelo://app?vid=89b5318e-56da-4ae2-b550-36dc414bf6a8"},"vehicle_type_id":"4","last_reported":1685290032,"current_range_meters":1600,"station_id":"ce4bh2h2rcd13ifvqdh0","pricing_plan_id":"free"},{"bike_id":"9d10140c-3a48-4bb3-b44a-8a8e3a8b5efc","system_id":"levelo_inurba_marseille","lat":43.3092,"lon":5.39916,"is_reserved":false,"is_disabled":false,"rental_uris":{"android":"levelo://app?vid=9d10140c-3a48-4bb3-b44a-8a8e3a8b5efc","ios":"levelo://app?vid=9d10140c-3a48-4bb3-b44a-8a8e3a8b5efc"},"vehicle_type_id":"4","last_reported":1685290032,"current_range_meters":3600,"station_id":"","pricing_plan_id":"free"},{"bike_id":"7a66b019-7552-4b24-91fe-c9407e10f695","system_id":"levelo_inurba_marseille","lat":43.304274,"lon":5.397513,"is_reserved":false,"is_disabled":false,"rental_uris":{"android":"levelo://app?vid=7a66b019-7552-4b24-91fe-c9407e10f695","ios":"levelo://app?vid=7a66b019-7552-4b24-91fe-c9407e10f695"},"vehicle_type_id":"4","last_reported":1685290032,"current_range_meters":5200,"station_id":"ce4bh092rcd13ifvqd20","pricing_plan_id":"free"},{"bike_id":"0cd7a0d4-1f0e-4624-a8ab-6701b2196bbf","system_id":"levelo_inurba_marseille","lat":43.292644,"lon":5.384257,"is_reserved":false,"is_disabled":false,"rental_uris":{"android":"levelo://app?vid=0cd7a0d4-1f0e-4624-a8ab-6701b2196bbf","ios":"levelo://app?vid=0cd7a0d4-1f0e-4624-a8ab-6701b2196bbf"},"vehicle_type_id":"4","last_reported":1685290032,"current_range_meters":7600,"station_id":"ce4bh692rcd13ifvqea0","pricing_plan_id":"free"},{"bike_id":"965d100a-6716-452f-a943-04eb30db17a3","system_id":"levelo_inurba_marseille","lat":43.292644,"lon":5.384257,"is_reserved":false,"is_disabled":false,"rental_uris":{"android":"levelo://app?vid=965d100a-6716-452f-a943-04eb30db17a3","ios":"levelo://app?vid=965d100a-6716-452f-a943-04eb30db17a3"},"vehicle_type_id":"4","last_reported":1685290032,"current_range_meters":19600,"station_id":"ce4bh692rcd13ifvqea0","pricing_plan_id":"free"},{"bike_id":"f4c523db-fc13-4d1f-951d-ec45e8b53d41","system_id":"levelo_inurba_marseille","lat":43.30426,"lon":5.39751,"is_reserved":false,"is_disabled":false,"rental_uris":{"android":"levelo://app?vid=f4c523db-fc13-4d1f-951d-ec45e8b53d41","ios":"levelo://app?vid=f4c523db-fc13-4d1f-951d-ec45e8b53d41"},"vehicle_type_id":"4","last_reported":1685290032,"current_range_meters":7600,"station_id":"ce4bh092rcd13ifvqd20","pricing_plan_id":"free"},{"bike_id":"1a34747e-0490-4362-9feb-4fe831230def","system_id":"levelo_inurba_marseille","lat":43.292644,"lon":5.384257,"is_reserved":false,"is_disabled":false,"rental_uris":{"android":"levelo://app?vid=1a34747e-0490-4362-9feb-4fe831230def","ios":"levelo://app?vid=1a34747e-0490-4362-9feb-4fe831230def"},"vehicle_type_id":"4","last_reported":1685290032,"current_range_meters":1200,"station_id":"ce4bh692rcd13ifvqea0","pricing_plan_id":"free"},{"bike_id":"b96add6b-a86b-4fed-875b-26d6d13c2f54","system_id":"levelo_inurba_marseille","lat":43.290103,"lon":5.356114,"is_reserved":false,"is_disabled":false,"rental_uris":{"android":"levelo://app?vid=b96add6b-a86b-4fed-875b-26d6d13c2f54","ios":"levelo://app?vid=b96add6b-a86b-4fed-875b-26d6d13c2f54"},"vehicle_type_id":"4","last_reported":1685290032,"current_range_meters":0,"station_id":"ce4bhb92rcd13ifvqen0","pricing_plan_id":"free"},{"bike_id":"20b616e4-ba6d-47eb-b389-b3cb17b10818","system_id":"levelo_inurba_marseille","lat":43.290103,"lon":5.356114,"is_reserved":false,"is_disabled":false,"rental_uris":{"android":"levelo://app?vid=20b616e4-ba6d-47eb-b389-b3cb17b10818","ios":"levelo://app?vid=20b616e4-ba6d-47eb-b389-b3cb17b10818"},"vehicle_type_id":"4","last_reported":1685290032,"current_range_meters":5600,"station_id":"ce4bhb92rcd13ifvqen0","pricing_plan_id":"free"},{"bike_id":"33b06566-11a3-4ade-9854-3012758e3b49","system_id":"levelo_inurba_marseille","lat":43.290103,"lon":5.356114,"is_reserved":false,"is_disabled":false,"rental_uris":{"android":"levelo://app?vid=33b06566-11a3-4ade-9854-3012758e3b49","ios":"levelo://app?vid=33b06566-11a3-4ade-9854-3012758e3b49"},"vehicle_type_id":"4","last_reported":1685290032,"current_range_meters":4000,"station_id":"ce4bhb92rcd13ifvqen0","pricing_plan_id":"free"},{"bike_id":"717d1166-be83-4ee9-b6f5-8e4d4ba80cbb","system_id":"levelo_inurba_marseille","lat":43.290995,"lon":5.381361,"is_reserved":false,"is_disabled":false,"rental_uris":{"android":"levelo://app?vid=717d1166-be83-4ee9-b6f5-8e4d4ba80cbb","ios":"levelo://app?vid=717d1166-be83-4ee9-b6f5-8e4d4ba80cbb"},"vehicle_type_id":"4","last_reported":1685290032,"current_range_meters":0,"station_id":"ce4bh512rcd13ifvqe2g","pricing_plan_id":"free"},{"bike_id":"760495da-87ca-4524-9304-358b1da86855","system_id":"levelo_inurba_marseille","lat":43.289741,"lon":5.378306,"is_reserved":false,"is_disabled":false,"rental_uris":{"android":"levelo://app?vid=760495da-87ca-4524-9304-358b1da86855","ios":"levelo://app?vid=760495da-87ca-4524-9304-358b1da86855"},"vehicle_type_id":"4","last_reported":1685290032,"current_range_meters":0,"station_id":"ce4bh9p2rcd13ifvqed0","pricing_plan_id":"free"},{"bike_id":"00d8d863-e4d0-4108-9c3b-13e56e6fdbf6","system_id":"levelo_inurba_marseille","lat":43.289741,"lon":5.378306,"is_reserved":false,"is_disabled":false,"rental_uris":{"android":"levelo://app?vid=00d8d863-e4d0-4108-9c3b-13e56e6fdbf6","ios":"levelo://app?vid=00d8d863-e4d0-4108-9c3b-13e56e6fdbf6"},"vehicle_type_id":"4","last_reported":1685290032,"current_range_meters":3600,"station_id":"ce4bh9p2rcd13ifvqed0","pricing_plan_id":"free"},{"bike_id":"7808f875-7c2d-4c81-9d14-a6fa15f14654","system_id":"levelo_inurba_marseille","lat":43.2901,"lon":5.381269,"is_reserved":false,"is_disabled":false,"rental_uris":{"android":"levelo://app?vid=7808f875-7c2d-4c81-9d14-a6fa15f14654","ios":"levelo://app?vid=7808f875-7c2d-4c81-9d14-a6fa15f14654"},"vehicle_type_id":"4","last_reported":1685290032,"current_range_meters":8000,"station_id":"ce4bh4p2rcd13ifvqe1g","pricing_plan_id":"free"},{"bike_id":"141c14ea-594b-43ee-894e-8c44af1dcd73","system_id":"levelo_inurba_marseille","lat":43.33735,"lon":5.37447,"is_reserved":false,"is_disabled":false,"rental_uris":{"android":"levelo://app?vid=141c14ea-594b-43ee-894e-8c44af1dcd73","ios":"levelo://app?vid=141c14ea-594b-43ee-894e-8c44af1dcd73"},"vehicle_type_id":"4","last_reported":1685290032,"current_range_meters":31200,"station_id":"","pricing_plan_id":"free"},{"bike_id":"493860ce-e063-4684-ab33-c360eaf64153","system_id":"levelo_inurba_marseille","lat":43.33744,"lon":5.37451,"is_reserved":false,"is_disabled":false,"rental_uris":{"android":"levelo://app?vid=493860ce-e063-4684-ab33-c360eaf64153","ios":"levelo://app?vid=493860ce-e063-4684-ab33-c360eaf64153"},"vehicle_type_id":"4","last_reported":1685290032,"current_range_meters":17600,"station_id":"","pricing_plan_id":"free"},{"bike_id":"c67b547c-3fcb-4384-8614-e15f558fec55","system_id":"levelo_inurba_marseille","lat":43.33744,"lon":5.37451,"is_reserved":false,"is_disabled":false,"rental_uris":{"android":"levelo://app?vid=c67b547c-3fcb-4384-8614-e15f558fec55","ios":"levelo://app?vid=c67b547c-3fcb-4384-8614-e15f558fec55"},"vehicle_type_id":"4","last_reported":1685290032,"current_range_meters":26800,"station_id":"","pricing_plan_id":"free"},{"bike_id":"4d395139-b839-4ab0-8519-abb908308d08","system_id":"levelo_inurba_marseille","lat":43.33743,"lon":5.37462,"is_reserved":false,"is_disabled":false,"rental_uris":{"android":"levelo://app?vid=4d395139-b839-4ab0-8519-abb908308d08","ios":"levelo://app?vid=4d395139-b839-4ab0-8519-abb908308d08"},"vehicle_type_id":"4","last_reported":1685290032,"current_range_meters":29200,"station_id":"","pricing_plan_id":"free"},{"bike_id":"915a1d5d-0a9c-4982-bd00-ae384a29cdde","system_id":"levelo_inurba_marseille","lat":43.33748,"lon":5.37448,"is_reserved":false,"is_disabled":false,"rental_uris":{"android":"levelo://app?vid=915a1d5d-0a9c-4982-bd00-ae384a29cdde","ios":"levelo://app?vid=915a1d5d-0a9c-4982-bd00-ae384a29cdde"},"vehicle_type_id":"4","last_reported":1685290032,"current_range_meters":30000,"station_id":"","pricing_plan_id":"free"},{"bike_id":"556c6db1-2600-4c2b-9521-aae8453517c1","system_id":"levelo_inurba_marseille","lat":43.33757,"lon":5.37442,"is_reserved":false,"is_disabled":false,"rental_uris":{"android":"levelo://app?vid=556c6db1-2600-4c2b-9521-aae8453517c1","ios":"levelo://app?vid=556c6db1-2600-4c2b-9521-aae8453517c1"},"vehicle_type_id":"4","last_reported":1685290032,"current_range_meters":14000,"station_id":"","pricing_plan_id":"free"},{"bike_id":"5aaf445f-f097-4041-99e9-0b2edc8a39b1","system_id":"levelo_inurba_marseille","lat":43.33762,"lon":5.37442,"is_reserved":false,"is_disabled":false,"rental_uris":{"android":"levelo://app?vid=5aaf445f-f097-4041-99e9-0b2edc8a39b1","ios":"levelo://app?vid=5aaf445f-f097-4041-99e9-0b2edc8a39b1"},"vehicle_type_id":"4","last_reported":1685290032,"current_range_meters":28400,"station_id":"","pricing_plan_id":"free"},{"bike_id":"e9f5b638-0766-4efd-9bd1-737602c862fb","system_id":"levelo_inurba_marseille","lat":43.30642,"lon":5.401031,"is_reserved":false,"is_disabled":false,"rental_uris":{"android":"levelo://app?vid=e9f5b638-0766-4efd-9bd1-737602c862fb","ios":"levelo://app?vid=e9f5b638-0766-4efd-9bd1-737602c862fb"},"vehicle_type_id":"4","last_reported":1685290032,"current_range_meters":6400,"station_id":"ce4bh112rcd13ifvqda0","pricing_plan_id":"free"},{"bike_id":"bee79b22-ada2-46b5-b9c2-60fff7eadb0d","system_id":"levelo_inurba_marseille","lat":43.30642,"lon":5.401031,"is_reserved":false,"is_disabled":false,"rental_uris":{"android":"levelo://app?vid=bee79b22-ada2-46b5-b9c2-60fff7eadb0d","ios":"levelo://app?vid=bee79b22-ada2-46b5-b9c2-60fff7eadb0d"},"vehicle_type_id":"4","last_reported":1685290032,"current_range_meters":0,"station_id":"ce4bh112rcd13ifvqda0","pricing_plan_id":"free"},{"bike_id":"c3397a61-28c3-45a3-93cc-a71c88ca9cc3","system_id":"levelo_inurba_marseille","lat":43.301117,"lon":5.398795,"is_reserved":false,"is_disabled":false,"rental_uris":{"android":"levelo://app?vid=c3397a61-28c3-45a3-93cc-a71c88ca9cc3","ios":"levelo://app?vid=c3397a61-28c3-45a3-93cc-a71c88ca9cc3"},"vehicle_type_id":"4","last_reported":1685290032,"current_range_meters":2000,"station_id":"ce4bh0h2rcd13ifvqd40","pricing_plan_id":"free"},{"bike_id":"60eaf70f-49a2-44e5-8253-d6e5629d3493","system_id":"levelo_inurba_marseille","lat":43.301117,"lon":5.398795,"is_reserved":false,"is_disabled":false,"rental_uris":{"android":"levelo://app?vid=60eaf70f-49a2-44e5-8253-d6e5629d3493","ios":"levelo://app?vid=60eaf70f-49a2-44e5-8253-d6e5629d3493"},"vehicle_type_id":"4","last_reported":1685290032,"current_range_meters":8800,"station_id":"ce4bh0h2rcd13ifvqd40","pricing_plan_id":"free"},{"bike_id":"a947e871-f64c-4bdb-a823-22b78e0f70c3","system_id":"levelo_inurba_marseille","lat":43.30431,"lon":5.40093,"is_reserved":false,"is_disabled":false,"rental_uris":{"android":"levelo://app?vid=a947e871-f64c-4bdb-a823-22b78e0f70c3","ios":"levelo://app?vid=a947e871-f64c-4bdb-a823-22b78e0f70c3"},"vehicle_type_id":"4","last_reported":1685290032,"current_range_meters":0,"station_id":"","pricing_plan_id":"free"},{"bike_id":"0a3e1ca5-d3c9-4616-9f15-41f9c7537283","system_id":"levelo_inurba_marseille","lat":43.30433,"lon":5.40103,"is_reserved":false,"is_disabled":false,"rental_uris":{"android":"levelo://app?vid=0a3e1ca5-d3c9-4616-9f15-41f9c7537283","ios":"levelo://app?vid=0a3e1ca5-d3c9-4616-9f15-41f9c7537283"},"vehicle_type_id":"4","last_reported":1685290032,"current_range_meters":6400,"station_id":"","pricing_plan_id":"free"},{"bike_id":"8536a380-4d46-4762-ae23-034b888a6f56","system_id":"levelo_inurba_marseille","lat":43.295196,"lon":5.39397,"is_reserved":false,"is_disabled":false,"rental_uris":{"android":"levelo://app?vid=8536a380-4d46-4762-ae23-034b888a6f56","ios":"levelo://app?vid=8536a380-4d46-4762-ae23-034b888a6f56"},"vehicle_type_id":"4","last_reported":1685290032,"current_range_meters":800,"station_id":"ce4bh292rcd13ifvqdf0","pricing_plan_id":"free"},{"bike_id":"ada315a1-e124-44c9-acfa-96fb95618b17","system_id":"levelo_inurba_marseille","lat":43.295194,"lon":5.39397,"is_reserved":false,"is_disabled":false,"rental_uris":{"android":"levelo://app?vid=ada315a1-e124-44c9-acfa-96fb95618b17","ios":"levelo://app?vid=ada315a1-e124-44c9-acfa-96fb95618b17"},"vehicle_type_id":"4","last_reported":1685290032,"current_range_meters":16800,"station_id":"ce4bh292rcd13ifvqdf0","pricing_plan_id":"free"},{"bike_id":"1c6275f0-096a-4a0d-8d15-b89405e0573e","system_id":"levelo_inurba_marseille","lat":43.290345,"lon":5.38646,"is_reserved":false,"is_disabled":false,"rental_uris":{"android":"levelo://app?vid=1c6275f0-096a-4a0d-8d15-b89405e0573e","ios":"levelo://app?vid=1c6275f0-096a-4a0d-8d15-b89405e0573e"},"vehicle_type_id":"4","last_reported":1685290032,"current_range_meters":9600,"station_id":"ce4bh4p2rcd13ifvqe0g","pricing_plan_id":"free"},{"bike_id":"ce057f0c-cd0e-4224-92f3-c19d12334bd6","system_id":"levelo_inurba_marseille","lat":43.302759,"lon":5.400793,"is_reserved":false,"is_disabled":false,"rental_uris":{"android":"levelo://app?vid=ce057f0c-cd0e-4224-92f3-c19d12334bd6","ios":"levelo://app?vid=ce057f0c-cd0e-4224-92f3-c19d12334bd6"},"vehicle_type_id":"4","last_reported":1685290032,"current_range_meters":12000,"station_id":"ce4bgvh2rcd13ifvqcs0","pricing_plan_id":"free"},{"bike_id":"0a0d08dc-2010-4c1c-b6ac-faac4edef7cb","system_id":"levelo_inurba_marseille","lat":43.28613,"lon":5.37065,"is_reserved":false,"is_disabled":false,"rental_uris":{"android":"levelo://app?vid=0a0d08dc-2010-4c1c-b6ac-faac4edef7cb","ios":"levelo://app?vid=0a0d08dc-2010-4c1c-b6ac-faac4edef7cb"},"vehicle_type_id":"4","last_reported":1685290032,"current_range_meters":0,"station_id":"ce4bht12rcd13ifvqi60","pricing_plan_id":"free"},{"bike_id":"d7200860-d55a-44bc-a228-7e966b45f3c5","system_id":"levelo_inurba_marseille","lat":43.28592,"lon":5.37065,"is_reserved":false,"is_disabled":false,"rental_uris":{"android":"levelo://app?vid=d7200860-d55a-44bc-a228-7e966b45f3c5","ios":"levelo://app?vid=d7200860-d55a-44bc-a228-7e966b45f3c5"},"vehicle_type_id":"4","last_reported":1685290032,"current_range_meters":3200,"station_id":"ce4bht12rcd13ifvqi60","pricing_plan_id":"free"},{"bike_id":"a2920e35-a94d-4798-b7ba-c0c79220ca7d","system_id":"levelo_inurba_marseille","lat":43.284534,"lon":5.358662,"is_reserved":false,"is_disabled":false,"rental_uris":{"android":"levelo://app?vid=a2920e35-a94d-4798-b7ba-c0c79220ca7d","ios":"levelo://app?vid=a2920e35-a94d-4798-b7ba-c0c79220ca7d"},"vehicle_type_id":"4","last_reported":1685290032,"current_range_meters":7200,"station_id":"ce4bhah2rcd13ifvqei0","pricing_plan_id":"free"},{"bike_id":"3c7e2526-5cd1-4f72-b257-d23f11521ad5","system_id":"levelo_inurba_marseille","lat":43.28619,"lon":5.35101,"is_reserved":false,"is_disabled":false,"rental_uris":{"android":"levelo://app?vid=3c7e2526-5cd1-4f72-b257-d23f11521ad5","ios":"levelo://app?vid=3c7e2526-5cd1-4f72-b257-d23f11521ad5"},"vehicle_type_id":"4","last_reported":1685290032,"current_range_meters":0,"station_id":"","pricing_plan_id":"free"},{"bike_id":"cf746f81-2660-4acf-a364-5defd0c16928","system_id":"levelo_inurba_marseille","lat":43.28615,"lon":5.35106,"is_reserved":false,"is_disabled":false,"rental_uris":{"android":"levelo://app?vid=cf746f81-2660-4acf-a364-5defd0c16928","ios":"levelo://app?vid=cf746f81-2660-4acf-a364-5defd0c16928"},"vehicle_type_id":"4","last_reported":1685290032,"current_range_meters":6400,"station_id":"","pricing_plan_id":"free"},{"bike_id":"f35b11b1-4d56-408f-ac05-e8b66542a0e4","system_id":"levelo_inurba_marseille","lat":43.28611,"lon":5.35106,"is_reserved":false,"is_disabled":false,"rental_uris":{"android":"levelo://app?vid=f35b11b1-4d56-408f-ac05-e8b66542a0e4","ios":"levelo://app?vid=f35b11b1-4d56-408f-ac05-e8b66542a0e4"},"vehicle_type_id":"4","last_reported":1685290032,"current_range_meters":4400,"station_id":"","pricing_plan_id":"free"},{"bike_id":"5936656b-276a-456b-b7bb-273f8a37025e","system_id":"levelo_inurba_marseille","lat":43.323464,"lon":5.406297,"is_reserved":false,"is_disabled":false,"rental_uris":{"android":"levelo://app?vid=5936656b-276a-456b-b7bb-273f8a37025e","ios":"levelo://app?vid=5936656b-276a-456b-b7bb-273f8a37025e"},"vehicle_type_id":"4","last_reported":1685290032,"current_range_meters":4000,"station_id":"ce4bhq92rcd13ifvqhjg","pricing_plan_id":"free"},{"bike_id":"51854e8b-0cdc-413c-8bc7-25addb2e5dff","system_id":"levelo_inurba_marseille","lat":43.284793,"lon":5.384119,"is_reserved":false,"is_disabled":false,"rental_uris":{"android":"levelo://app?vid=51854e8b-0cdc-413c-8bc7-25addb2e5dff","ios":"levelo://app?vid=51854e8b-0cdc-413c-8bc7-25addb2e5dff"},"vehicle_type_id":"4","last_reported":1685290032,"current_range_meters":1200,"station_id":"ce4bh512rcd13ifvqe3g","pricing_plan_id":"free"},{"bike_id":"82669e30-8df5-4fe1-be34-33d934b04d0e","system_id":"levelo_inurba_marseille","lat":43.292724,"lon":5.401131,"is_reserved":false,"is_disabled":false,"rental_uris":{"android":"levelo://app?vid=82669e30-8df5-4fe1-be34-33d934b04d0e","ios":"levelo://app?vid=82669e30-8df5-4fe1-be34-33d934b04d0e"},"vehicle_type_id":"4","last_reported":1685290032,"current_range_meters":1200,"station_id":"ce4bh312rcd13ifvqdk0","pricing_plan_id":"free"},{"bike_id":"edb5ead6-c9e5-4864-bead-5beb4cc04f4a","system_id":"levelo_inurba_marseille","lat":43.29642,"lon":5.40594,"is_reserved":false,"is_disabled":false,"rental_uris":{"android":"levelo://app?vid=edb5ead6-c9e5-4864-bead-5beb4cc04f4a","ios":"levelo://app?vid=edb5ead6-c9e5-4864-bead-5beb4cc04f4a"},"vehicle_type_id":"4","last_reported":1685290032,"current_range_meters":0,"station_id":"ce4bh0h2rcd13ifvqd60","pricing_plan_id":"free"},{"bike_id":"88725cde-3863-4129-bfa1-66933b1c48b6","system_id":"levelo_inurba_marseille","lat":43.281044,"lon":5.378308,"is_reserved":false,"is_disabled":false,"rental_uris":{"android":"levelo://app?vid=88725cde-3863-4129-bfa1-66933b1c48b6","ios":"levelo://app?vid=88725cde-3863-4129-bfa1-66933b1c48b6"},"vehicle_type_id":"4","last_reported":1685290032,"current_range_meters":14400,"station_id":"ce4bha12rcd13ifvqee0","pricing_plan_id":"free"},{"bike_id":"5c4f3b76-b246-4d4b-8fe2-610746ffc66c","system_id":"levelo_inurba_marseille","lat":43.287154,"lon":5.399979,"is_reserved":false,"is_disabled":false,"rental_uris":{"android":"levelo://app?vid=5c4f3b76-b246-4d4b-8fe2-610746ffc66c","ios":"levelo://app?vid=5c4f3b76-b246-4d4b-8fe2-610746ffc66c"},"vehicle_type_id":"4","last_reported":1685290032,"current_range_meters":7600,"station_id":"ce4bho92rcd13ifvqh3g","pricing_plan_id":"free"},{"bike_id":"43893406-e5d8-4ee9-b4ea-c6d64f170791","system_id":"levelo_inurba_marseille","lat":43.320045,"lon":5.415048,"is_reserved":false,"is_disabled":false,"rental_uris":{"android":"levelo://app?vid=43893406-e5d8-4ee9-b4ea-c6d64f170791","ios":"levelo://app?vid=43893406-e5d8-4ee9-b4ea-c6d64f170791"},"vehicle_type_id":"4","last_reported":1685290032,"current_range_meters":30400,"station_id":"ce4bhq92rcd13ifvqhkg","pricing_plan_id":"free"},{"bike_id":"bfdd40e4-7a06-4086-89a6-0782fdd961ac","system_id":"levelo_inurba_marseille","lat":43.279742,"lon":5.38744,"is_reserved":false,"is_disabled":false,"rental_uris":{"android":"levelo://app?vid=bfdd40e4-7a06-4086-89a6-0782fdd961ac","ios":"levelo://app?vid=bfdd40e4-7a06-4086-89a6-0782fdd961ac"},"vehicle_type_id":"4","last_reported":1685290032,"current_range_meters":0,"station_id":"ce4bhg12rcd13ifvqf80","pricing_plan_id":"free"},{"bike_id":"286258f5-ac0b-4a30-a6cc-cd45e1cdecf2","system_id":"levelo_inurba_marseille","lat":43.32544,"lon":5.41427,"is_reserved":false,"is_disabled":false,"rental_uris":{"android":"levelo://app?vid=286258f5-ac0b-4a30-a6cc-cd45e1cdecf2","ios":"levelo://app?vid=286258f5-ac0b-4a30-a6cc-cd45e1cdecf2"},"vehicle_type_id":"4","last_reported":1685290032,"current_range_meters":31200,"station_id":"ce4bhq12rcd13ifvqhhg","pricing_plan_id":"free"},{"bike_id":"58b00bf2-a752-4133-9b5b-5fe9282dd0e4","system_id":"levelo_inurba_marseille","lat":43.32547,"lon":5.41445,"is_reserved":false,"is_disabled":false,"rental_uris":{"android":"levelo://app?vid=58b00bf2-a752-4133-9b5b-5fe9282dd0e4","ios":"levelo://app?vid=58b00bf2-a752-4133-9b5b-5fe9282dd0e4"},"vehicle_type_id":"4","last_reported":1685290032,"current_range_meters":22400,"station_id":"ce4bhq12rcd13ifvqhhg","pricing_plan_id":"free"},{"bike_id":"e32b55ba-380c-4a9a-bb8f-debd26a0552c","system_id":"levelo_inurba_marseille","lat":43.27613,"lon":5.36114,"is_reserved":false,"is_disabled":false,"rental_uris":{"android":"levelo://app?vid=e32b55ba-380c-4a9a-bb8f-debd26a0552c","ios":"levelo://app?vid=e32b55ba-380c-4a9a-bb8f-debd26a0552c"},"vehicle_type_id":"4","last_reported":1685290032,"current_range_meters":0,"station_id":"ce4bgj92rcd13ifvqbe0","pricing_plan_id":"free"},{"bike_id":"2d07d6fd-a3bd-4bcf-9b03-54b1487c9558","system_id":"levelo_inurba_marseille","lat":43.303837,"lon":5.418724,"is_reserved":false,"is_disabled":false,"rental_uris":{"android":"levelo://app?vid=2d07d6fd-a3bd-4bcf-9b03-54b1487c9558","ios":"levelo://app?vid=2d07d6fd-a3bd-4bcf-9b03-54b1487c9558"},"vehicle_type_id":"4","last_reported":1685290032,"current_range_meters":15600,"station_id":"ce4bhop2rcd13ifvqh7g","pricing_plan_id":"free"},{"bike_id":"09666214-8d74-4d02-b590-fedff9c9c459","system_id":"levelo_inurba_marseille","lat":43.303837,"lon":5.418724,"is_reserved":false,"is_disabled":false,"rental_uris":{"android":"levelo://app?vid=09666214-8d74-4d02-b590-fedff9c9c459","ios":"levelo://app?vid=09666214-8d74-4d02-b590-fedff9c9c459"},"vehicle_type_id":"4","last_reported":1685290032,"current_range_meters":0,"station_id":"ce4bhop2rcd13ifvqh7g","pricing_plan_id":"free"},{"bike_id":"a0fc0536-5333-4b57-a11e-711cdbb0f2d6","system_id":"levelo_inurba_marseille","lat":43.278399,"lon":5.392139,"is_reserved":false,"is_disabled":false,"rental_uris":{"android":"levelo://app?vid=a0fc0536-5333-4b57-a11e-711cdbb0f2d6","ios":"levelo://app?vid=a0fc0536-5333-4b57-a11e-711cdbb0f2d6"},"vehicle_type_id":"4","last_reported":1685290032,"current_range_meters":400,"station_id":"ce4bhjp2rcd13ifvqga0","pricing_plan_id":"free"},{"bike_id":"6ca00bba-76f4-4f76-9a88-eb7dd012ec7b","system_id":"levelo_inurba_marseille","lat":43.278399,"lon":5.392139,"is_reserved":false,"is_disabled":false,"rental_uris":{"android":"levelo://app?vid=6ca00bba-76f4-4f76-9a88-eb7dd012ec7b","ios":"levelo://app?vid=6ca00bba-76f4-4f76-9a88-eb7dd012ec7b"},"vehicle_type_id":"4","last_reported":1685290032,"current_range_meters":13600,"station_id":"ce4bhjp2rcd13ifvqga0","pricing_plan_id":"free"},{"bike_id":"72b5ce1a-ff36-4752-b9f7-4cbd55df99e3","system_id":"levelo_inurba_marseille","lat":43.336029,"lon":5.410322,"is_reserved":false,"is_disabled":false,"rental_uris":{"android":"levelo://app?vid=72b5ce1a-ff36-4752-b9f7-4cbd55df99e3","ios":"levelo://app?vid=72b5ce1a-ff36-4752-b9f7-4cbd55df99e3"},"vehicle_type_id":"4","last_reported":1685290032,"current_range_meters":16800,"station_id":"ce4bhqh2rcd13ifvqhmg","pricing_plan_id":"free"},{"bike_id":"dad0fccb-1cdf-4777-99c8-629d91fcea5a","system_id":"levelo_inurba_marseille","lat":43.276771,"lon":5.388799,"is_reserved":false,"is_disabled":false,"rental_uris":{"android":"levelo://app?vid=dad0fccb-1cdf-4777-99c8-629d91fcea5a","ios":"levelo://app?vid=dad0fccb-1cdf-4777-99c8-629d91fcea5a"},"vehicle_type_id":"4","last_reported":1685290032,"current_range_meters":3600,"station_id":"ce4bhi12rcd13ifvqfo0","pricing_plan_id":"free"},{"bike_id":"2c45440e-1828-4603-b51e-78bb9b02645f","system_id":"levelo_inurba_marseille","lat":43.3144,"lon":5.42256,"is_reserved":false,"is_disabled":false,"rental_uris":{"android":"levelo://app?vid=2c45440e-1828-4603-b51e-78bb9b02645f","ios":"levelo://app?vid=2c45440e-1828-4603-b51e-78bb9b02645f"},"vehicle_type_id":"4","last_reported":1685290032,"current_range_meters":2000,"station_id":"","pricing_plan_id":"free"},{"bike_id":"91b49189-18df-431a-bbbf-f0b2350181de","system_id":"levelo_inurba_marseille","lat":43.28423,"lon":5.408,"is_reserved":false,"is_disabled":false,"rental_uris":{"android":"levelo://app?vid=91b49189-18df-431a-bbbf-f0b2350181de","ios":"levelo://app?vid=91b49189-18df-431a-bbbf-f0b2350181de"},"vehicle_type_id":"4","last_reported":1685290032,"current_range_meters":6800,"station_id":"","pricing_plan_id":"free"},{"bike_id":"9016c9f8-c7f0-4c2c-ad9e-356489ac849b","system_id":"levelo_inurba_marseille","lat":43.310785,"lon":5.424305,"is_reserved":false,"is_disabled":false,"rental_uris":{"android":"levelo://app?vid=9016c9f8-c7f0-4c2c-ad9e-356489ac849b","ios":"levelo://app?vid=9016c9f8-c7f0-4c2c-ad9e-356489ac849b"},"vehicle_type_id":"4","last_reported":1685290032,"current_range_meters":12400,"station_id":"ce4bhp92rcd13ifvqhag","pricing_plan_id":"free"},{"bike_id":"de88f9bd-fcfb-40fa-8f4f-0c4afdfd2242","system_id":"levelo_inurba_marseille","lat":43.27777,"lon":5.3993,"is_reserved":false,"is_disabled":false,"rental_uris":{"android":"levelo://app?vid=de88f9bd-fcfb-40fa-8f4f-0c4afdfd2242","ios":"levelo://app?vid=de88f9bd-fcfb-40fa-8f4f-0c4afdfd2242"},"vehicle_type_id":"4","last_reported":1685290032,"current_range_meters":800,"station_id":"","pricing_plan_id":"free"},{"bike_id":"933f42be-453b-4f51-8fc5-139da5459b29","system_id":"levelo_inurba_marseille","lat":43.27425,"lon":5.39414,"is_reserved":false,"is_disabled":false,"rental_uris":{"android":"levelo://app?vid=933f42be-453b-4f51-8fc5-139da5459b29","ios":"levelo://app?vid=933f42be-453b-4f51-8fc5-139da5459b29"},"vehicle_type_id":"4","last_reported":1685290032,"current_range_meters":4800,"station_id":"ce4bhhp2rcd13ifvqfm0","pricing_plan_id":"free"},{"bike_id":"61975327-2901-4c46-99c0-45dcaddab9b1","system_id":"levelo_inurba_marseille","lat":43.27312,"lon":5.39095,"is_reserved":false,"is_disabled":false,"rental_uris":{"android":"levelo://app?vid=61975327-2901-4c46-99c0-45dcaddab9b1","ios":"levelo://app?vid=61975327-2901-4c46-99c0-45dcaddab9b1"},"vehicle_type_id":"4","last_reported":1685290032,"current_range_meters":0,"station_id":"ce4bhgp2rcd13ifvqfe0","pricing_plan_id":"free"},{"bike_id":"0c129305-31df-4d96-b9d0-619497403755","system_id":"levelo_inurba_marseille","lat":43.304096,"lon":5.425385,"is_reserved":false,"is_disabled":false,"rental_uris":{"android":"levelo://app?vid=0c129305-31df-4d96-b9d0-619497403755","ios":"levelo://app?vid=0c129305-31df-4d96-b9d0-619497403755"},"vehicle_type_id":"4","last_reported":1685290032,"current_range_meters":400,"station_id":"ce4bhoh2rcd13ifvqh6g","pricing_plan_id":"free"},{"bike_id":"48c12766-ecba-4b68-aa7a-dc3e7bc95ce2","system_id":"levelo_inurba_marseille","lat":43.295523,"lon":5.422926,"is_reserved":false,"is_disabled":false,"rental_uris":{"android":"levelo://app?vid=48c12766-ecba-4b68-aa7a-dc3e7bc95ce2","ios":"levelo://app?vid=48c12766-ecba-4b68-aa7a-dc3e7bc95ce2"},"vehicle_type_id":"4","last_reported":1685290032,"current_range_meters":2000,"station_id":"ce4bhph2rcd13ifvqhdg","pricing_plan_id":"free"},{"bike_id":"c67ca3d7-8b65-4e3b-8bf5-ef0d33feb73d","system_id":"levelo_inurba_marseille","lat":43.29558,"lon":5.42288,"is_reserved":false,"is_disabled":false,"rental_uris":{"android":"levelo://app?vid=c67ca3d7-8b65-4e3b-8bf5-ef0d33feb73d","ios":"levelo://app?vid=c67ca3d7-8b65-4e3b-8bf5-ef0d33feb73d"},"vehicle_type_id":"4","last_reported":1685290032,"current_range_meters":13600,"station_id":"ce4bhph2rcd13ifvqhdg","pricing_plan_id":"free"},{"bike_id":"fe608350-37a2-4b8d-aca4-8c27203f027f","system_id":"levelo_inurba_marseille","lat":43.29511,"lon":5.42284,"is_reserved":false,"is_disabled":false,"rental_uris":{"android":"levelo://app?vid=fe608350-37a2-4b8d-aca4-8c27203f027f","ios":"levelo://app?vid=fe608350-37a2-4b8d-aca4-8c27203f027f"},"vehicle_type_id":"4","last_reported":1685290032,"current_range_meters":8800,"station_id":"","pricing_plan_id":"free"},{"bike_id":"1c7243d6-81f6-4885-82c3-6d483daea52b","system_id":"levelo_inurba_marseille","lat":43.272116,"lon":5.391763,"is_reserved":false,"is_disabled":false,"rental_uris":{"android":"levelo://app?vid=1c7243d6-81f6-4885-82c3-6d483daea52b","ios":"levelo://app?vid=1c7243d6-81f6-4885-82c3-6d483daea52b"},"vehicle_type_id":"4","last_reported":1685290032,"current_range_meters":8800,"station_id":"ce4bhhp2rcd13ifvqfm0","pricing_plan_id":"free"},{"bike_id":"8f3405c2-ef31-4fac-847e-6aabd40f8fac","system_id":"levelo_inurba_marseille","lat":43.269467,"lon":5.386439,"is_reserved":false,"is_disabled":false,"rental_uris":{"android":"levelo://app?vid=8f3405c2-ef31-4fac-847e-6aabd40f8fac","ios":"levelo://app?vid=8f3405c2-ef31-4fac-847e-6aabd40f8fac"},"vehicle_type_id":"4","last_reported":1685290032,"current_range_meters":20400,"station_id":"ce4bhh92rcd13ifvqfh0","pricing_plan_id":"free"},{"bike_id":"6954bb18-d7a4-4e20-bc6f-5b8e9cc2e700","system_id":"levelo_inurba_marseille","lat":43.269467,"lon":5.386439,"is_reserved":false,"is_disabled":false,"rental_uris":{"android":"levelo://app?vid=6954bb18-d7a4-4e20-bc6f-5b8e9cc2e700","ios":"levelo://app?vid=6954bb18-d7a4-4e20-bc6f-5b8e9cc2e700"},"vehicle_type_id":"4","last_reported":1685290032,"current_range_meters":1600,"station_id":"ce4bhh92rcd13ifvqfh0","pricing_plan_id":"free"},{"bike_id":"cbc9d25d-1d18-4e9f-9ae7-328f19be2f35","system_id":"levelo_inurba_marseille","lat":43.26681,"lon":5.382694,"is_reserved":false,"is_disabled":false,"rental_uris":{"android":"levelo://app?vid=cbc9d25d-1d18-4e9f-9ae7-328f19be2f35","ios":"levelo://app?vid=cbc9d25d-1d18-4e9f-9ae7-328f19be2f35"},"vehicle_type_id":"4","last_reported":1685290032,"current_range_meters":2400,"station_id":"ce4bhg92rcd13ifvqf90","pricing_plan_id":"free"},{"bike_id":"9890f472-145d-41aa-b93a-ce950e7e8011","system_id":"levelo_inurba_marseille","lat":43.2655,"lon":5.37286,"is_reserved":false,"is_disabled":false,"rental_uris":{"android":"levelo://app?vid=9890f472-145d-41aa-b93a-ce950e7e8011","ios":"levelo://app?vid=9890f472-145d-41aa-b93a-ce950e7e8011"},"vehicle_type_id":"4","last_reported":1685290032,"current_range_meters":11200,"station_id":"ce4bhg12rcd13ifvqf70","pricing_plan_id":"free"},{"bike_id":"97f92444-dc7f-4ac8-885e-43ac50454dc0","system_id":"levelo_inurba_marseille","lat":43.31686,"lon":5.43303,"is_reserved":false,"is_disabled":false,"rental_uris":{"android":"levelo://app?vid=97f92444-dc7f-4ac8-885e-43ac50454dc0","ios":"levelo://app?vid=97f92444-dc7f-4ac8-885e-43ac50454dc0"},"vehicle_type_id":"4","last_reported":1685290032,"current_range_meters":0,"station_id":"","pricing_plan_id":"free"},{"bike_id":"ece26c42-59d1-440f-82a4-64a7ed84df33","system_id":"levelo_inurba_marseille","lat":43.267966,"lon":5.393976,"is_reserved":false,"is_disabled":false,"rental_uris":{"android":"levelo://app?vid=ece26c42-59d1-440f-82a4-64a7ed84df33","ios":"levelo://app?vid=ece26c42-59d1-440f-82a4-64a7ed84df33"},"vehicle_type_id":"4","last_reported":1685290032,"current_range_meters":17600,"station_id":"ce4bhh12rcd13ifvqfg0","pricing_plan_id":"free"},{"bike_id":"b8e07922-f074-4378-9c0d-0a256de36fe0","system_id":"levelo_inurba_marseille","lat":43.30805,"lon":5.43522,"is_reserved":false,"is_disabled":false,"rental_uris":{"android":"levelo://app?vid=b8e07922-f074-4378-9c0d-0a256de36fe0","ios":"levelo://app?vid=b8e07922-f074-4378-9c0d-0a256de36fe0"},"vehicle_type_id":"4","last_reported":1685290032,"current_range_meters":13600,"station_id":"","pricing_plan_id":"free"},{"bike_id":"0dc2470d-0357-4fd7-8d2a-e1e561e50bc8","system_id":"levelo_inurba_marseille","lat":43.26572,"lon":5.39011,"is_reserved":false,"is_disabled":false,"rental_uris":{"android":"levelo://app?vid=0dc2470d-0357-4fd7-8d2a-e1e561e50bc8","ios":"levelo://app?vid=0dc2470d-0357-4fd7-8d2a-e1e561e50bc8"},"vehicle_type_id":"4","last_reported":1685290032,"current_range_meters":1600,"station_id":"ce4bhe12rcd13ifvqf30","pricing_plan_id":"free"},{"bike_id":"234933ae-0e84-49e5-916b-732610a9cc92","system_id":"levelo_inurba_marseille","lat":43.26568,"lon":5.3901,"is_reserved":false,"is_disabled":false,"rental_uris":{"android":"levelo://app?vid=234933ae-0e84-49e5-916b-732610a9cc92","ios":"levelo://app?vid=234933ae-0e84-49e5-916b-732610a9cc92"},"vehicle_type_id":"4","last_reported":1685290032,"current_range_meters":18400,"station_id":"ce4bhe12rcd13ifvqf30","pricing_plan_id":"free"},{"bike_id":"b5b7c840-26ca-49fd-b275-376d79530475","system_id":"levelo_inurba_marseille","lat":43.265569,"lon":5.390047,"is_reserved":false,"is_disabled":false,"rental_uris":{"android":"levelo://app?vid=b5b7c840-26ca-49fd-b275-376d79530475","ios":"levelo://app?vid=b5b7c840-26ca-49fd-b275-376d79530475"},"vehicle_type_id":"4","last_reported":1685290032,"current_range_meters":24800,"station_id":"ce4bhe12rcd13ifvqf30","pricing_plan_id":"free"},{"bike_id":"e21c17cc-1842-4e67-99ec-07d62ca87a02","system_id":"levelo_inurba_marseille","lat":43.265569,"lon":5.390047,"is_reserved":false,"is_disabled":false,"rental_uris":{"android":"levelo://app?vid=e21c17cc-1842-4e67-99ec-07d62ca87a02","ios":"levelo://app?vid=e21c17cc-1842-4e67-99ec-07d62ca87a02"},"vehicle_type_id":"4","last_reported":1685290032,"current_range_meters":0,"station_id":"ce4bhe12rcd13ifvqf30","pricing_plan_id":"free"},{"bike_id":"760bfc38-e96f-40b9-8091-70e7d4460480","system_id":"levelo_inurba_marseille","lat":43.26204,"lon":5.37927,"is_reserved":false,"is_disabled":false,"rental_uris":{"android":"levelo://app?vid=760bfc38-e96f-40b9-8091-70e7d4460480","ios":"levelo://app?vid=760bfc38-e96f-40b9-8091-70e7d4460480"},"vehicle_type_id":"4","last_reported":1685290032,"current_range_meters":0,"station_id":"ce4bhjp2rcd13ifvqg90","pricing_plan_id":"free"},{"bike_id":"a01b8269-cd6f-432a-9c44-37513ea96cd0","system_id":"levelo_inurba_marseille","lat":43.298768,"lon":5.43643,"is_reserved":false,"is_disabled":false,"rental_uris":{"android":"levelo://app?vid=a01b8269-cd6f-432a-9c44-37513ea96cd0","ios":"levelo://app?vid=a01b8269-cd6f-432a-9c44-37513ea96cd0"},"vehicle_type_id":"4","last_reported":1685290032,"current_range_meters":30000,"station_id":"ce4bhpp2rcd13ifvqhfg","pricing_plan_id":"free"},{"bike_id":"09c381d2-b3b8-4cb4-937f-1a23bb82bb02","system_id":"levelo_inurba_marseille","lat":43.298768,"lon":5.43643,"is_reserved":false,"is_disabled":false,"rental_uris":{"android":"levelo://app?vid=09c381d2-b3b8-4cb4-937f-1a23bb82bb02","ios":"levelo://app?vid=09c381d2-b3b8-4cb4-937f-1a23bb82bb02"},"vehicle_type_id":"4","last_reported":1685290032,"current_range_meters":14800,"station_id":"ce4bhpp2rcd13ifvqhfg","pricing_plan_id":"free"},{"bike_id":"6b404443-757b-4b8d-9a78-a03ca59013fb","system_id":"levelo_inurba_marseille","lat":43.2592,"lon":5.37283,"is_reserved":false,"is_disabled":false,"rental_uris":{"android":"levelo://app?vid=6b404443-757b-4b8d-9a78-a03ca59013fb","ios":"levelo://app?vid=6b404443-757b-4b8d-9a78-a03ca59013fb"},"vehicle_type_id":"4","last_reported":1685290032,"current_range_meters":10000,"station_id":"","pricing_plan_id":"free"},{"bike_id":"bfe381d2-c20f-4688-bc54-8afbc59896f6","system_id":"levelo_inurba_marseille","lat":43.2607,"lon":5.393983,"is_reserved":false,"is_disabled":false,"rental_uris":{"android":"levelo://app?vid=bfe381d2-c20f-4688-bc54-8afbc59896f6","ios":"levelo://app?vid=bfe381d2-c20f-4688-bc54-8afbc59896f6"},"vehicle_type_id":"4","last_reported":1685290032,"current_range_meters":31600,"station_id":"ce4bhh92rcd13ifvqfj0","pricing_plan_id":"free"},{"bike_id":"159a9ad9-d74a-447e-8342-b72613d0eaf9","system_id":"levelo_inurba_marseille","lat":43.2607,"lon":5.393983,"is_reserved":false,"is_disabled":false,"rental_uris":{"android":"levelo://app?vid=159a9ad9-d74a-447e-8342-b72613d0eaf9","ios":"levelo://app?vid=159a9ad9-d74a-447e-8342-b72613d0eaf9"},"vehicle_type_id":"4","last_reported":1685290032,"current_range_meters":9600,"station_id":"ce4bhh92rcd13ifvqfj0","pricing_plan_id":"free"},{"bike_id":"0c65c5c2-5338-4c9a-9e77-65f109b7b160","system_id":"levelo_inurba_marseille","lat":43.2607,"lon":5.393983,"is_reserved":false,"is_disabled":false,"rental_uris":{"android":"levelo://app?vid=0c65c5c2-5338-4c9a-9e77-65f109b7b160","ios":"levelo://app?vid=0c65c5c2-5338-4c9a-9e77-65f109b7b160"},"vehicle_type_id":"4","last_reported":1685290032,"current_range_meters":15200,"station_id":"ce4bhh92rcd13ifvqfj0","pricing_plan_id":"free"},{"bike_id":"cafbd943-320b-4a82-896d-9e0d8300e368","system_id":"levelo_inurba_marseille","lat":43.2607,"lon":5.393983,"is_reserved":false,"is_disabled":false,"rental_uris":{"android":"levelo://app?vid=cafbd943-320b-4a82-896d-9e0d8300e368","ios":"levelo://app?vid=cafbd943-320b-4a82-896d-9e0d8300e368"},"vehicle_type_id":"4","last_reported":1685290032,"current_range_meters":15600,"station_id":"ce4bhh92rcd13ifvqfj0","pricing_plan_id":"free"},{"bike_id":"e4bd78c0-3f4f-4aad-aa65-8898c6cf7275","system_id":"levelo_inurba_marseille","lat":43.260909,"lon":5.397591,"is_reserved":false,"is_disabled":false,"rental_uris":{"android":"levelo://app?vid=e4bd78c0-3f4f-4aad-aa65-8898c6cf7275","ios":"levelo://app?vid=e4bd78c0-3f4f-4aad-aa65-8898c6cf7275"},"vehicle_type_id":"4","last_reported":1685290032,"current_range_meters":0,"station_id":"ce4bhi12rcd13ifvqfq0","pricing_plan_id":"free"},{"bike_id":"10008cf1-8c24-48b7-aa6a-823ceb32121b","system_id":"levelo_inurba_marseille","lat":43.260909,"lon":5.397591,"is_reserved":false,"is_disabled":false,"rental_uris":{"android":"levelo://app?vid=10008cf1-8c24-48b7-aa6a-823ceb32121b","ios":"levelo://app?vid=10008cf1-8c24-48b7-aa6a-823ceb32121b"},"vehicle_type_id":"4","last_reported":1685290032,"current_range_meters":0,"station_id":"ce4bhi12rcd13ifvqfq0","pricing_plan_id":"free"},{"bike_id":"2e1eab80-e4c9-415d-8710-38f89070eda3","system_id":"levelo_inurba_marseille","lat":43.26084,"lon":5.39772,"is_reserved":false,"is_disabled":false,"rental_uris":{"android":"levelo://app?vid=2e1eab80-e4c9-415d-8710-38f89070eda3","ios":"levelo://app?vid=2e1eab80-e4c9-415d-8710-38f89070eda3"},"vehicle_type_id":"4","last_reported":1685290032,"current_range_meters":0,"station_id":"ce4bhi12rcd13ifvqfq0","pricing_plan_id":"free"},{"bike_id":"347bb7d4-a1b1-4856-af15-ea2085d3d7a5","system_id":"levelo_inurba_marseille","lat":43.260909,"lon":5.397591,"is_reserved":false,"is_disabled":false,"rental_uris":{"android":"levelo://app?vid=347bb7d4-a1b1-4856-af15-ea2085d3d7a5","ios":"levelo://app?vid=347bb7d4-a1b1-4856-af15-ea2085d3d7a5"},"vehicle_type_id":"4","last_reported":1685290032,"current_range_meters":7600,"station_id":"ce4bhi12rcd13ifvqfq0","pricing_plan_id":"free"},{"bike_id":"ffb72b06-8668-4a51-91e2-45868f3a135d","system_id":"levelo_inurba_marseille","lat":43.26831,"lon":5.41498,"is_reserved":false,"is_disabled":false,"rental_uris":{"android":"levelo://app?vid=ffb72b06-8668-4a51-91e2-45868f3a135d","ios":"levelo://app?vid=ffb72b06-8668-4a51-91e2-45868f3a135d"},"vehicle_type_id":"4","last_reported":1685290032,"current_range_meters":6400,"station_id":"ce4bhk92rcd13ifvqgb0","pricing_plan_id":"free"},{"bike_id":"a2e138e3-d78c-41c0-bde0-124176b598ba","system_id":"levelo_inurba_marseille","lat":43.254947,"lon":5.376454,"is_reserved":false,"is_disabled":false,"rental_uris":{"android":"levelo://app?vid=a2e138e3-d78c-41c0-bde0-124176b598ba","ios":"levelo://app?vid=a2e138e3-d78c-41c0-bde0-124176b598ba"},"vehicle_type_id":"4","last_reported":1685290032,"current_range_meters":1200,"station_id":"ce4bhh12rcd13ifvqff0","pricing_plan_id":"free"},{"bike_id":"21a94e83-2bcf-4902-8a6a-85407ac0d3c9","system_id":"levelo_inurba_marseille","lat":43.254952,"lon":5.376471,"is_reserved":false,"is_disabled":false,"rental_uris":{"android":"levelo://app?vid=21a94e83-2bcf-4902-8a6a-85407ac0d3c9","ios":"levelo://app?vid=21a94e83-2bcf-4902-8a6a-85407ac0d3c9"},"vehicle_type_id":"4","last_reported":1685290032,"current_range_meters":400,"station_id":"","pricing_plan_id":"free"},{"bike_id":"d75ba409-b566-4597-a9c6-8c71d72febec","system_id":"levelo_inurba_marseille","lat":43.25129,"lon":5.37672,"is_reserved":false,"is_disabled":false,"rental_uris":{"android":"levelo://app?vid=d75ba409-b566-4597-a9c6-8c71d72febec","ios":"levelo://app?vid=d75ba409-b566-4597-a9c6-8c71d72febec"},"vehicle_type_id":"4","last_reported":1685290032,"current_range_meters":5600,"station_id":"","pricing_plan_id":"free"},{"bike_id":"472952ca-4dc3-468a-be7a-011944c9c326","system_id":"levelo_inurba_marseille","lat":43.250009,"lon":5.389195,"is_reserved":false,"is_disabled":false,"rental_uris":{"android":"levelo://app?vid=472952ca-4dc3-468a-be7a-011944c9c326","ios":"levelo://app?vid=472952ca-4dc3-468a-be7a-011944c9c326"},"vehicle_type_id":"4","last_reported":1685290032,"current_range_meters":15200,"station_id":"ce4bhgp2rcd13ifvqfd0","pricing_plan_id":"free"},{"bike_id":"08e3c551-05ba-4d38-bf64-97d941eadf8e","system_id":"levelo_inurba_marseille","lat":43.24667,"lon":5.38171,"is_reserved":false,"is_disabled":false,"rental_uris":{"android":"levelo://app?vid=08e3c551-05ba-4d38-bf64-97d941eadf8e","ios":"levelo://app?vid=08e3c551-05ba-4d38-bf64-97d941eadf8e"},"vehicle_type_id":"4","last_reported":1685290032,"current_range_meters":1600,"station_id":"","pricing_plan_id":"free"},{"bike_id":"03f0da9e-8590-4143-9d84-fce6a93937cf","system_id":"levelo_inurba_marseille","lat":43.24693,"lon":5.382096,"is_reserved":false,"is_disabled":false,"rental_uris":{"android":"levelo://app?vid=03f0da9e-8590-4143-9d84-fce6a93937cf","ios":"levelo://app?vid=03f0da9e-8590-4143-9d84-fce6a93937cf"},"vehicle_type_id":"4","last_reported":1685290032,"current_range_meters":20400,"station_id":"ce4bhih2rcd13ifvqfr0","pricing_plan_id":"free"},{"bike_id":"5bf75043-51a3-4e1e-86a6-53b67c9249db","system_id":"levelo_inurba_marseille","lat":43.25102,"lon":5.403214,"is_reserved":false,"is_disabled":false,"rental_uris":{"android":"levelo://app?vid=5bf75043-51a3-4e1e-86a6-53b67c9249db","ios":"levelo://app?vid=5bf75043-51a3-4e1e-86a6-53b67c9249db"},"vehicle_type_id":"4","last_reported":1685290032,"current_range_meters":15600,"station_id":"ce4bhlh2rcd13ifvqgig","pricing_plan_id":"free"},{"bike_id":"fc2efc31-6d0e-4c72-a0fb-b5b736a6e2fa","system_id":"levelo_inurba_marseille","lat":43.243884,"lon":5.370737,"is_reserved":false,"is_disabled":false,"rental_uris":{"android":"levelo://app?vid=fc2efc31-6d0e-4c72-a0fb-b5b736a6e2fa","ios":"levelo://app?vid=fc2efc31-6d0e-4c72-a0fb-b5b736a6e2fa"},"vehicle_type_id":"4","last_reported":1685290032,"current_range_meters":13200,"station_id":"ce4bhhh2rcd13ifvqfk0","pricing_plan_id":"free"},{"bike_id":"ea9aa14e-2d3c-471c-ac3d-7ad06ac6c571","system_id":"levelo_inurba_marseille","lat":43.24544,"lon":5.39516,"is_reserved":false,"is_disabled":false,"rental_uris":{"android":"levelo://app?vid=ea9aa14e-2d3c-471c-ac3d-7ad06ac6c571","ios":"levelo://app?vid=ea9aa14e-2d3c-471c-ac3d-7ad06ac6c571"},"vehicle_type_id":"4","last_reported":1685290032,"current_range_meters":3600,"station_id":"ce4bhlp2rcd13ifvqgjg","pricing_plan_id":"free"},{"bike_id":"6c4b5598-78bf-4756-a42f-fc574faafbaa","system_id":"levelo_inurba_marseille","lat":43.231923,"lon":5.355545,"is_reserved":false,"is_disabled":false,"rental_uris":{"android":"levelo://app?vid=6c4b5598-78bf-4756-a42f-fc574faafbaa","ios":"levelo://app?vid=6c4b5598-78bf-4756-a42f-fc574faafbaa"},"vehicle_type_id":"4","last_reported":1685290032,"current_range_meters":7600,"station_id":"ce4bhu92rcd13ifvqi70","pricing_plan_id":"free"},{"bike_id":"24fb4b69-2e63-47ee-bf98-1a9a16683dcc","system_id":"levelo_inurba_marseille","lat":43.24085,"lon":5.37752,"is_reserved":false,"is_disabled":false,"rental_uris":{"android":"levelo://app?vid=24fb4b69-2e63-47ee-bf98-1a9a16683dcc","ios":"levelo://app?vid=24fb4b69-2e63-47ee-bf98-1a9a16683dcc"},"vehicle_type_id":"4","last_reported":1685290032,"current_range_meters":28000,"station_id":"","pricing_plan_id":"free"},{"bike_id":"3c0fb543-7d5f-4ba2-a741-510a465558d5","system_id":"levelo_inurba_marseille","lat":43.24084,"lon":5.37751,"is_reserved":false,"is_disabled":false,"rental_uris":{"android":"levelo://app?vid=3c0fb543-7d5f-4ba2-a741-510a465558d5","ios":"levelo://app?vid=3c0fb543-7d5f-4ba2-a741-510a465558d5"},"vehicle_type_id":"4","last_reported":1685290032,"current_range_meters":29600,"station_id":"","pricing_plan_id":"free"},{"bike_id":"936357a5-48fc-44ea-a059-3fbf2761c020","system_id":"levelo_inurba_marseille","lat":43.24082,"lon":5.37751,"is_reserved":false,"is_disabled":false,"rental_uris":{"android":"levelo://app?vid=936357a5-48fc-44ea-a059-3fbf2761c020","ios":"levelo://app?vid=936357a5-48fc-44ea-a059-3fbf2761c020"},"vehicle_type_id":"4","last_reported":1685290032,"current_range_meters":29200,"station_id":"","pricing_plan_id":"free"},{"bike_id":"cbbd08c5-0253-46f1-872a-15def88c8d47","system_id":"levelo_inurba_marseille","lat":43.24082,"lon":5.37756,"is_reserved":false,"is_disabled":false,"rental_uris":{"android":"levelo://app?vid=cbbd08c5-0253-46f1-872a-15def88c8d47","ios":"levelo://app?vid=cbbd08c5-0253-46f1-872a-15def88c8d47"},"vehicle_type_id":"4","last_reported":1685290032,"current_range_meters":20800,"station_id":"","pricing_plan_id":"free"},{"bike_id":"e0f8d820-f6b0-4427-91e6-b251bd50dfb6","system_id":"levelo_inurba_marseille","lat":43.24081,"lon":5.37755,"is_reserved":false,"is_disabled":false,"rental_uris":{"android":"levelo://app?vid=e0f8d820-f6b0-4427-91e6-b251bd50dfb6","ios":"levelo://app?vid=e0f8d820-f6b0-4427-91e6-b251bd50dfb6"},"vehicle_type_id":"4","last_reported":1685290032,"current_range_meters":18800,"station_id":"","pricing_plan_id":"free"},{"bike_id":"908866b9-48fb-4177-9987-965f50f35b3e","system_id":"levelo_inurba_marseille","lat":43.2408,"lon":5.37745,"is_reserved":false,"is_disabled":false,"rental_uris":{"android":"levelo://app?vid=908866b9-48fb-4177-9987-965f50f35b3e","ios":"levelo://app?vid=908866b9-48fb-4177-9987-965f50f35b3e"},"vehicle_type_id":"4","last_reported":1685290032,"current_range_meters":16800,"station_id":"","pricing_plan_id":"free"},{"bike_id":"ceca2ac0-fad6-49a0-803a-c9d0b85268fd","system_id":"levelo_inurba_marseille","lat":43.24078,"lon":5.37755,"is_reserved":false,"is_disabled":false,"rental_uris":{"android":"levelo://app?vid=ceca2ac0-fad6-49a0-803a-c9d0b85268fd","ios":"levelo://app?vid=ceca2ac0-fad6-49a0-803a-c9d0b85268fd"},"vehicle_type_id":"4","last_reported":1685290032,"current_range_meters":30000,"station_id":"","pricing_plan_id":"free"},{"bike_id":"9e2be43e-190b-4cc5-8721-cc57121f2777","system_id":"levelo_inurba_marseille","lat":43.24078,"lon":5.37755,"is_reserved":false,"is_disabled":false,"rental_uris":{"android":"levelo://app?vid=9e2be43e-190b-4cc5-8721-cc57121f2777","ios":"levelo://app?vid=9e2be43e-190b-4cc5-8721-cc57121f2777"},"vehicle_type_id":"4","last_reported":1685290032,"current_range_meters":28800,"station_id":"","pricing_plan_id":"free"},{"bike_id":"e0cac369-51b5-425a-8b21-340f204eca36","system_id":"levelo_inurba_marseille","lat":43.24077,"lon":5.37746,"is_reserved":false,"is_disabled":false,"rental_uris":{"android":"levelo://app?vid=e0cac369-51b5-425a-8b21-340f204eca36","ios":"levelo://app?vid=e0cac369-51b5-425a-8b21-340f204eca36"},"vehicle_type_id":"4","last_reported":1685290032,"current_range_meters":24000,"station_id":"","pricing_plan_id":"free"},{"bike_id":"375bea00-7535-40cf-9db3-726053b2716a","system_id":"levelo_inurba_marseille","lat":43.24077,"lon":5.37748,"is_reserved":false,"is_disabled":false,"rental_uris":{"android":"levelo://app?vid=375bea00-7535-40cf-9db3-726053b2716a","ios":"levelo://app?vid=375bea00-7535-40cf-9db3-726053b2716a"},"vehicle_type_id":"4","last_reported":1685290032,"current_range_meters":28000,"station_id":"","pricing_plan_id":"free"},{"bike_id":"390dd92b-1f46-4e43-bd1b-3682ea0b00ca","system_id":"levelo_inurba_marseille","lat":43.24076,"lon":5.37749,"is_reserved":false,"is_disabled":false,"rental_uris":{"android":"levelo://app?vid=390dd92b-1f46-4e43-bd1b-3682ea0b00ca","ios":"levelo://app?vid=390dd92b-1f46-4e43-bd1b-3682ea0b00ca"},"vehicle_type_id":"4","last_reported":1685290032,"current_range_meters":10800,"station_id":"","pricing_plan_id":"free"},{"bike_id":"3f0a9dc9-0509-4c14-9cde-4da06b6fe1a3","system_id":"levelo_inurba_marseille","lat":43.24075,"lon":5.37754,"is_reserved":false,"is_disabled":false,"rental_uris":{"android":"levelo://app?vid=3f0a9dc9-0509-4c14-9cde-4da06b6fe1a3","ios":"levelo://app?vid=3f0a9dc9-0509-4c14-9cde-4da06b6fe1a3"},"vehicle_type_id":"4","last_reported":1685290032,"current_range_meters":11600,"station_id":"","pricing_plan_id":"free"},{"bike_id":"a7496784-6a6e-438b-982b-361a84d337d6","system_id":"levelo_inurba_marseille","lat":43.24075,"lon":5.37756,"is_reserved":false,"is_disabled":false,"rental_uris":{"android":"levelo://app?vid=a7496784-6a6e-438b-982b-361a84d337d6","ios":"levelo://app?vid=a7496784-6a6e-438b-982b-361a84d337d6"},"vehicle_type_id":"4","last_reported":1685290032,"current_range_meters":28800,"station_id":"","pricing_plan_id":"free"},{"bike_id":"a413a331-918b-43b4-bf52-c7a2bf915466","system_id":"levelo_inurba_marseille","lat":43.239588,"lon":5.366238,"is_reserved":false,"is_disabled":false,"rental_uris":{"android":"levelo://app?vid=a413a331-918b-43b4-bf52-c7a2bf915466","ios":"levelo://app?vid=a413a331-918b-43b4-bf52-c7a2bf915466"},"vehicle_type_id":"4","last_reported":1685290032,"current_range_meters":17600,"station_id":"ce4bhi12rcd13ifvqfp0","pricing_plan_id":"free"},{"bike_id":"1d8f17b9-3ecf-45e8-aa85-4d41f16f87e9","system_id":"levelo_inurba_marseille","lat":43.239588,"lon":5.366238,"is_reserved":false,"is_disabled":false,"rental_uris":{"android":"levelo://app?vid=1d8f17b9-3ecf-45e8-aa85-4d41f16f87e9","ios":"levelo://app?vid=1d8f17b9-3ecf-45e8-aa85-4d41f16f87e9"},"vehicle_type_id":"4","last_reported":1685290032,"current_range_meters":18800,"station_id":"ce4bhi12rcd13ifvqfp0","pricing_plan_id":"free"},{"bike_id":"af49adb9-626f-42ae-82f4-01a1fc659c7a","system_id":"levelo_inurba_marseille","lat":43.23967,"lon":5.36635,"is_reserved":false,"is_disabled":false,"rental_uris":{"android":"levelo://app?vid=af49adb9-626f-42ae-82f4-01a1fc659c7a","ios":"levelo://app?vid=af49adb9-626f-42ae-82f4-01a1fc659c7a"},"vehicle_type_id":"4","last_reported":1685290032,"current_range_meters":32000,"station_id":"ce4bhi12rcd13ifvqfp0","pricing_plan_id":"free"},{"bike_id":"7c26d266-fd07-410d-ac3e-d8f231a1e40e","system_id":"levelo_inurba_marseille","lat":43.239588,"lon":5.366238,"is_reserved":false,"is_disabled":false,"rental_uris":{"android":"levelo://app?vid=7c26d266-fd07-410d-ac3e-d8f231a1e40e","ios":"levelo://app?vid=7c26d266-fd07-410d-ac3e-d8f231a1e40e"},"vehicle_type_id":"4","last_reported":1685290032,"current_range_meters":24000,"station_id":"ce4bhi12rcd13ifvqfp0","pricing_plan_id":"free"},{"bike_id":"6cc34850-8c15-4a83-aaa8-5f8e84e54d2a","system_id":"levelo_inurba_marseille","lat":43.23967,"lon":5.3663,"is_reserved":false,"is_disabled":false,"rental_uris":{"android":"levelo://app?vid=6cc34850-8c15-4a83-aaa8-5f8e84e54d2a","ios":"levelo://app?vid=6cc34850-8c15-4a83-aaa8-5f8e84e54d2a"},"vehicle_type_id":"4","last_reported":1685290032,"current_range_meters":10400,"station_id":"ce4bhi12rcd13ifvqfp0","pricing_plan_id":"free"},{"bike_id":"6b13b2ef-49b8-4284-94de-ad0d9c10e133","system_id":"levelo_inurba_marseille","lat":43.239588,"lon":5.366238,"is_reserved":false,"is_disabled":false,"rental_uris":{"android":"levelo://app?vid=6b13b2ef-49b8-4284-94de-ad0d9c10e133","ios":"levelo://app?vid=6b13b2ef-49b8-4284-94de-ad0d9c10e133"},"vehicle_type_id":"4","last_reported":1685290032,"current_range_meters":25200,"station_id":"ce4bhi12rcd13ifvqfp0","pricing_plan_id":"free"},{"bike_id":"d3a9527e-6b8c-40b0-9fba-22854fc72146","system_id":"levelo_inurba_marseille","lat":43.23965,"lon":5.36628,"is_reserved":false,"is_disabled":false,"rental_uris":{"android":"levelo://app?vid=d3a9527e-6b8c-40b0-9fba-22854fc72146","ios":"levelo://app?vid=d3a9527e-6b8c-40b0-9fba-22854fc72146"},"vehicle_type_id":"4","last_reported":1685290032,"current_range_meters":9600,"station_id":"ce4bhi12rcd13ifvqfp0","pricing_plan_id":"free"},{"bike_id":"a1f64494-3f89-4272-ab02-80813b4c1ec7","system_id":"levelo_inurba_marseille","lat":43.23964,"lon":5.36634,"is_reserved":false,"is_disabled":false,"rental_uris":{"android":"levelo://app?vid=a1f64494-3f89-4272-ab02-80813b4c1ec7","ios":"levelo://app?vid=a1f64494-3f89-4272-ab02-80813b4c1ec7"},"vehicle_type_id":"4","last_reported":1685290032,"current_range_meters":27200,"station_id":"ce4bhi12rcd13ifvqfp0","pricing_plan_id":"free"},{"bike_id":"5cac62b5-12bb-4600-8104-e80f07b12a25","system_id":"levelo_inurba_marseille","lat":43.23964,"lon":5.36634,"is_reserved":false,"is_disabled":false,"rental_uris":{"android":"levelo://app?vid=5cac62b5-12bb-4600-8104-e80f07b12a25","ios":"levelo://app?vid=5cac62b5-12bb-4600-8104-e80f07b12a25"},"vehicle_type_id":"4","last_reported":1685290032,"current_range_meters":31200,"station_id":"ce4bhi12rcd13ifvqfp0","pricing_plan_id":"free"},{"bike_id":"60b4cb56-92b3-42d3-8202-b4539511eb97","system_id":"levelo_inurba_marseille","lat":43.23964,"lon":5.36629,"is_reserved":false,"is_disabled":false,"rental_uris":{"android":"levelo://app?vid=60b4cb56-92b3-42d3-8202-b4539511eb97","ios":"levelo://app?vid=60b4cb56-92b3-42d3-8202-b4539511eb97"},"vehicle_type_id":"4","last_reported":1685290032,"current_range_meters":3200,"station_id":"ce4bhi12rcd13ifvqfp0","pricing_plan_id":"free"},{"bike_id":"cea03f45-9c15-42d4-b9a1-d74f1997a336","system_id":"levelo_inurba_marseille","lat":43.239588,"lon":5.366238,"is_reserved":false,"is_disabled":false,"rental_uris":{"android":"levelo://app?vid=cea03f45-9c15-42d4-b9a1-d74f1997a336","ios":"levelo://app?vid=cea03f45-9c15-42d4-b9a1-d74f1997a336"},"vehicle_type_id":"4","last_reported":1685290032,"current_range_meters":24400,"station_id":"ce4bhi12rcd13ifvqfp0","pricing_plan_id":"free"},{"bike_id":"8fe306b5-cb52-4050-a823-a95dce0bfcc2","system_id":"levelo_inurba_marseille","lat":43.23964,"lon":5.36628,"is_reserved":false,"is_disabled":false,"rental_uris":{"android":"levelo://app?vid=8fe306b5-cb52-4050-a823-a95dce0bfcc2","ios":"levelo://app?vid=8fe306b5-cb52-4050-a823-a95dce0bfcc2"},"vehicle_type_id":"4","last_reported":1685290032,"current_range_meters":12400,"station_id":"ce4bhi12rcd13ifvqfp0","pricing_plan_id":"free"},{"bike_id":"d5d81426-e795-4b74-ba12-91443fa248f0","system_id":"levelo_inurba_marseille","lat":43.23964,"lon":5.36626,"is_reserved":false,"is_disabled":false,"rental_uris":{"android":"levelo://app?vid=d5d81426-e795-4b74-ba12-91443fa248f0","ios":"levelo://app?vid=d5d81426-e795-4b74-ba12-91443fa248f0"},"vehicle_type_id":"4","last_reported":1685290032,"current_range_meters":17200,"station_id":"ce4bhi12rcd13ifvqfp0","pricing_plan_id":"free"},{"bike_id":"94debaf0-0e6a-4add-9dad-2dccee7922a7","system_id":"levelo_inurba_marseille","lat":43.23963,"lon":5.36631,"is_reserved":false,"is_disabled":false,"rental_uris":{"android":"levelo://app?vid=94debaf0-0e6a-4add-9dad-2dccee7922a7","ios":"levelo://app?vid=94debaf0-0e6a-4add-9dad-2dccee7922a7"},"vehicle_type_id":"4","last_reported":1685290032,"current_range_meters":0,"station_id":"ce4bhi12rcd13ifvqfp0","pricing_plan_id":"free"},{"bike_id":"44f6fd65-a504-4e1b-9913-ed133ddf6348","system_id":"levelo_inurba_marseille","lat":43.239588,"lon":5.366238,"is_reserved":false,"is_disabled":false,"rental_uris":{"android":"levelo://app?vid=44f6fd65-a504-4e1b-9913-ed133ddf6348","ios":"levelo://app?vid=44f6fd65-a504-4e1b-9913-ed133ddf6348"},"vehicle_type_id":"4","last_reported":1685290032,"current_range_meters":19200,"station_id":"ce4bhi12rcd13ifvqfp0","pricing_plan_id":"free"},{"bike_id":"68494e53-9d55-43dc-9fb8-a920287db932","system_id":"levelo_inurba_marseille","lat":43.23963,"lon":5.36618,"is_reserved":false,"is_disabled":false,"rental_uris":{"android":"levelo://app?vid=68494e53-9d55-43dc-9fb8-a920287db932","ios":"levelo://app?vid=68494e53-9d55-43dc-9fb8-a920287db932"},"vehicle_type_id":"4","last_reported":1685290032,"current_range_meters":10400,"station_id":"ce4bhi12rcd13ifvqfp0","pricing_plan_id":"free"},{"bike_id":"d9755e99-0820-4959-a2cc-43ed5fadef72","system_id":"levelo_inurba_marseille","lat":43.239588,"lon":5.366238,"is_reserved":false,"is_disabled":false,"rental_uris":{"android":"levelo://app?vid=d9755e99-0820-4959-a2cc-43ed5fadef72","ios":"levelo://app?vid=d9755e99-0820-4959-a2cc-43ed5fadef72"},"vehicle_type_id":"4","last_reported":1685290032,"current_range_meters":8800,"station_id":"ce4bhi12rcd13ifvqfp0","pricing_plan_id":"free"},{"bike_id":"12733177-5a87-470b-b4de-5e7bd8df20e2","system_id":"levelo_inurba_marseille","lat":43.239588,"lon":5.366238,"is_reserved":false,"is_disabled":false,"rental_uris":{"android":"levelo://app?vid=12733177-5a87-470b-b4de-5e7bd8df20e2","ios":"levelo://app?vid=12733177-5a87-470b-b4de-5e7bd8df20e2"},"vehicle_type_id":"4","last_reported":1685290032,"current_range_meters":5200,"station_id":"ce4bhi12rcd13ifvqfp0","pricing_plan_id":"free"},{"bike_id":"a5c79354-2599-4d1d-8988-e4e04a8b43b8","system_id":"levelo_inurba_marseille","lat":43.23958,"lon":5.36624,"is_reserved":false,"is_disabled":false,"rental_uris":{"android":"levelo://app?vid=a5c79354-2599-4d1d-8988-e4e04a8b43b8","ios":"levelo://app?vid=a5c79354-2599-4d1d-8988-e4e04a8b43b8"},"vehicle_type_id":"4","last_reported":1685290032,"current_range_meters":15200,"station_id":"ce4bhi12rcd13ifvqfp0","pricing_plan_id":"free"},{"bike_id":"5bed3870-337e-4b2d-9c4b-77d2e0ef04d3","system_id":"levelo_inurba_marseille","lat":43.23846,"lon":5.36495,"is_reserved":false,"is_disabled":false,"rental_uris":{"android":"levelo://app?vid=5bed3870-337e-4b2d-9c4b-77d2e0ef04d3","ios":"levelo://app?vid=5bed3870-337e-4b2d-9c4b-77d2e0ef04d3"},"vehicle_type_id":"4","last_reported":1685290032,"current_range_meters":13200,"station_id":"","pricing_plan_id":"free"},{"bike_id":"6ca85e10-642c-4f5b-b953-c390810f9dc5","system_id":"levelo_inurba_marseille","lat":43.2376,"lon":5.36384,"is_reserved":false,"is_disabled":false,"rental_uris":{"android":"levelo://app?vid=6ca85e10-642c-4f5b-b953-c390810f9dc5","ios":"levelo://app?vid=6ca85e10-642c-4f5b-b953-c390810f9dc5"},"vehicle_type_id":"4","last_reported":1685290032,"current_range_meters":9200,"station_id":"","pricing_plan_id":"free"},{"bike_id":"1810f63f-037a-4b9d-b52e-959c4e6b05ad","system_id":"levelo_inurba_marseille","lat":43.23756,"lon":5.3638,"is_reserved":false,"is_disabled":false,"rental_uris":{"android":"levelo://app?vid=1810f63f-037a-4b9d-b52e-959c4e6b05ad","ios":"levelo://app?vid=1810f63f-037a-4b9d-b52e-959c4e6b05ad"},"vehicle_type_id":"4","last_reported":1685290032,"current_range_meters":2000,"station_id":"","pricing_plan_id":"free"},{"bike_id":"7db62880-35f0-43ad-8ed7-14044c6b2062","system_id":"levelo_inurba_marseille","lat":43.23745,"lon":5.3637,"is_reserved":false,"is_disabled":false,"rental_uris":{"android":"levelo://app?vid=7db62880-35f0-43ad-8ed7-14044c6b2062","ios":"levelo://app?vid=7db62880-35f0-43ad-8ed7-14044c6b2062"},"vehicle_type_id":"4","last_reported":1685290032,"current_range_meters":10000,"station_id":"","pricing_plan_id":"free"},{"bike_id":"621982c5-7b25-400f-aa65-4fe7485cff67","system_id":"levelo_inurba_marseille","lat":43.30407,"lon":5.47429,"is_reserved":false,"is_disabled":false,"rental_uris":{"android":"levelo://app?vid=621982c5-7b25-400f-aa65-4fe7485cff67","ios":"levelo://app?vid=621982c5-7b25-400f-aa65-4fe7485cff67"},"vehicle_type_id":"4","last_reported":1685290032,"current_range_meters":29600,"station_id":"","pricing_plan_id":"free"},{"bike_id":"99d346d3-a1f6-4e1a-b65f-d649fa239985","system_id":"levelo_inurba_marseille","lat":43.23242,"lon":5.35609,"is_reserved":false,"is_disabled":false,"rental_uris":{"android":"levelo://app?vid=99d346d3-a1f6-4e1a-b65f-d649fa239985","ios":"levelo://app?vid=99d346d3-a1f6-4e1a-b65f-d649fa239985"},"vehicle_type_id":"4","last_reported":1685290032,"current_range_meters":16000,"station_id":"","pricing_plan_id":"free"},{"bike_id":"070b7049-75bb-402c-9131-f782c16ce726","system_id":"levelo_inurba_marseille","lat":43.23206,"lon":5.35562,"is_reserved":false,"is_disabled":false,"rental_uris":{"android":"levelo://app?vid=070b7049-75bb-402c-9131-f782c16ce726","ios":"levelo://app?vid=070b7049-75bb-402c-9131-f782c16ce726"},"vehicle_type_id":"4","last_reported":1685290032,"current_range_meters":10000,"station_id":"ce4bhu92rcd13ifvqi70","pricing_plan_id":"free"},{"bike_id":"cb6db524-07d8-4d8a-b009-d7195d1f2e7b","system_id":"levelo_inurba_marseille","lat":43.23203,"lon":5.35544,"is_reserved":false,"is_disabled":false,"rental_uris":{"android":"levelo://app?vid=cb6db524-07d8-4d8a-b009-d7195d1f2e7b","ios":"levelo://app?vid=cb6db524-07d8-4d8a-b009-d7195d1f2e7b"},"vehicle_type_id":"4","last_reported":1685290032,"current_range_meters":8400,"station_id":"ce4bhu92rcd13ifvqi70","pricing_plan_id":"free"},{"bike_id":"cb73c821-3799-42da-b67c-c00ac8a9dd80","system_id":"levelo_inurba_marseille","lat":43.23202,"lon":5.35557,"is_reserved":false,"is_disabled":false,"rental_uris":{"android":"levelo://app?vid=cb73c821-3799-42da-b67c-c00ac8a9dd80","ios":"levelo://app?vid=cb73c821-3799-42da-b67c-c00ac8a9dd80"},"vehicle_type_id":"4","last_reported":1685290032,"current_range_meters":24000,"station_id":"ce4bhu92rcd13ifvqi70","pricing_plan_id":"free"},{"bike_id":"ae3691c3-1fd8-4b57-9383-a1619b0d2128","system_id":"levelo_inurba_marseille","lat":43.23202,"lon":5.35552,"is_reserved":false,"is_disabled":false,"rental_uris":{"android":"levelo://app?vid=ae3691c3-1fd8-4b57-9383-a1619b0d2128","ios":"levelo://app?vid=ae3691c3-1fd8-4b57-9383-a1619b0d2128"},"vehicle_type_id":"4","last_reported":1685290032,"current_range_meters":22000,"station_id":"ce4bhu92rcd13ifvqi70","pricing_plan_id":"free"},{"bike_id":"d5823f41-53d3-49df-a0ff-af08fce50f46","system_id":"levelo_inurba_marseille","lat":43.23202,"lon":5.35552,"is_reserved":false,"is_disabled":false,"rental_uris":{"android":"levelo://app?vid=d5823f41-53d3-49df-a0ff-af08fce50f46","ios":"levelo://app?vid=d5823f41-53d3-49df-a0ff-af08fce50f46"},"vehicle_type_id":"4","last_reported":1685290032,"current_range_meters":8400,"station_id":"ce4bhu92rcd13ifvqi70","pricing_plan_id":"free"},{"bike_id":"49c582a4-11f9-4c7d-a9e5-32d21545d363","system_id":"levelo_inurba_marseille","lat":43.232,"lon":5.35548,"is_reserved":false,"is_disabled":false,"rental_uris":{"android":"levelo://app?vid=49c582a4-11f9-4c7d-a9e5-32d21545d363","ios":"levelo://app?vid=49c582a4-11f9-4c7d-a9e5-32d21545d363"},"vehicle_type_id":"4","last_reported":1685290032,"current_range_meters":15200,"station_id":"ce4bhu92rcd13ifvqi70","pricing_plan_id":"free"},{"bike_id":"b8c897f1-845f-4f0c-9153-2ab42e9d99d1","system_id":"levelo_inurba_marseille","lat":43.232,"lon":5.35547,"is_reserved":false,"is_disabled":false,"rental_uris":{"android":"levelo://app?vid=b8c897f1-845f-4f0c-9153-2ab42e9d99d1","ios":"levelo://app?vid=b8c897f1-845f-4f0c-9153-2ab42e9d99d1"},"vehicle_type_id":"4","last_reported":1685290032,"current_range_meters":5600,"station_id":"ce4bhu92rcd13ifvqi70","pricing_plan_id":"free"},{"bike_id":"9f1ff2ea-3d4c-495e-89ac-a4b1fc323eb1","system_id":"levelo_inurba_marseille","lat":43.23199,"lon":5.35556,"is_reserved":false,"is_disabled":false,"rental_uris":{"android":"levelo://app?vid=9f1ff2ea-3d4c-495e-89ac-a4b1fc323eb1","ios":"levelo://app?vid=9f1ff2ea-3d4c-495e-89ac-a4b1fc323eb1"},"vehicle_type_id":"4","last_reported":1685290032,"current_range_meters":7200,"station_id":"ce4bhu92rcd13ifvqi70","pricing_plan_id":"free"},{"bike_id":"bdfaa302-99c5-4451-a496-2305f2610c0e","system_id":"levelo_inurba_marseille","lat":43.23199,"lon":5.35552,"is_reserved":false,"is_disabled":false,"rental_uris":{"android":"levelo://app?vid=bdfaa302-99c5-4451-a496-2305f2610c0e","ios":"levelo://app?vid=bdfaa302-99c5-4451-a496-2305f2610c0e"},"vehicle_type_id":"4","last_reported":1685290032,"current_range_meters":30000,"station_id":"ce4bhu92rcd13ifvqi70","pricing_plan_id":"free"},{"bike_id":"e71b645c-f3f5-4f9c-b85a-2bf9229605f1","system_id":"levelo_inurba_marseille","lat":43.23199,"lon":5.35541,"is_reserved":false,"is_disabled":false,"rental_uris":{"android":"levelo://app?vid=e71b645c-f3f5-4f9c-b85a-2bf9229605f1","ios":"levelo://app?vid=e71b645c-f3f5-4f9c-b85a-2bf9229605f1"},"vehicle_type_id":"4","last_reported":1685290032,"current_range_meters":16000,"station_id":"ce4bhu92rcd13ifvqi70","pricing_plan_id":"free"},{"bike_id":"13b37131-4bad-4380-bb75-607495b01d25","system_id":"levelo_inurba_marseille","lat":43.23198,"lon":5.35552,"is_reserved":false,"is_disabled":false,"rental_uris":{"android":"levelo://app?vid=13b37131-4bad-4380-bb75-607495b01d25","ios":"levelo://app?vid=13b37131-4bad-4380-bb75-607495b01d25"},"vehicle_type_id":"4","last_reported":1685290032,"current_range_meters":28400,"station_id":"ce4bhu92rcd13ifvqi70","pricing_plan_id":"free"},{"bike_id":"86f6aa98-31ed-47e9-8124-438330d674f0","system_id":"levelo_inurba_marseille","lat":43.23197,"lon":5.35552,"is_reserved":false,"is_disabled":false,"rental_uris":{"android":"levelo://app?vid=86f6aa98-31ed-47e9-8124-438330d674f0","ios":"levelo://app?vid=86f6aa98-31ed-47e9-8124-438330d674f0"},"vehicle_type_id":"4","last_reported":1685290032,"current_range_meters":14400,"station_id":"ce4bhu92rcd13ifvqi70","pricing_plan_id":"free"},{"bike_id":"feec487e-45fb-4ab2-b9f6-d8885af39c2c","system_id":"levelo_inurba_marseille","lat":43.23196,"lon":5.35559,"is_reserved":false,"is_disabled":false,"rental_uris":{"android":"levelo://app?vid=feec487e-45fb-4ab2-b9f6-d8885af39c2c","ios":"levelo://app?vid=feec487e-45fb-4ab2-b9f6-d8885af39c2c"},"vehicle_type_id":"4","last_reported":1685290032,"current_range_meters":16000,"station_id":"ce4bhu92rcd13ifvqi70","pricing_plan_id":"free"},{"bike_id":"11a9c2ab-c0bf-4825-9e8c-943eb77e1450","system_id":"levelo_inurba_marseille","lat":43.231923,"lon":5.355545,"is_reserved":false,"is_disabled":false,"rental_uris":{"android":"levelo://app?vid=11a9c2ab-c0bf-4825-9e8c-943eb77e1450","ios":"levelo://app?vid=11a9c2ab-c0bf-4825-9e8c-943eb77e1450"},"vehicle_type_id":"4","last_reported":1685290032,"current_range_meters":17600,"station_id":"ce4bhu92rcd13ifvqi70","pricing_plan_id":"free"},{"bike_id":"0fe160b8-a60a-4b6e-8528-566a90a6128c","system_id":"levelo_inurba_marseille","lat":43.23196,"lon":5.35553,"is_reserved":false,"is_disabled":false,"rental_uris":{"android":"levelo://app?vid=0fe160b8-a60a-4b6e-8528-566a90a6128c","ios":"levelo://app?vid=0fe160b8-a60a-4b6e-8528-566a90a6128c"},"vehicle_type_id":"4","last_reported":1685290032,"current_range_meters":4400,"station_id":"ce4bhu92rcd13ifvqi70","pricing_plan_id":"free"},{"bike_id":"916c0bbd-3859-4ec7-a07b-d0e0e5d22e0b","system_id":"levelo_inurba_marseille","lat":43.23195,"lon":5.35554,"is_reserved":false,"is_disabled":false,"rental_uris":{"android":"levelo://app?vid=916c0bbd-3859-4ec7-a07b-d0e0e5d22e0b","ios":"levelo://app?vid=916c0bbd-3859-4ec7-a07b-d0e0e5d22e0b"},"vehicle_type_id":"4","last_reported":1685290032,"current_range_meters":12000,"station_id":"ce4bhu92rcd13ifvqi70","pricing_plan_id":"free"},{"bike_id":"64e7d782-463a-4c7f-b0e4-cc64d2cb1764","system_id":"levelo_inurba_marseille","lat":43.23195,"lon":5.35553,"is_reserved":false,"is_disabled":false,"rental_uris":{"android":"levelo://app?vid=64e7d782-463a-4c7f-b0e4-cc64d2cb1764","ios":"levelo://app?vid=64e7d782-463a-4c7f-b0e4-cc64d2cb1764"},"vehicle_type_id":"4","last_reported":1685290032,"current_range_meters":28800,"station_id":"ce4bhu92rcd13ifvqi70","pricing_plan_id":"free"},{"bike_id":"cada7e61-d0c0-4253-8348-7d53105a633d","system_id":"levelo_inurba_marseille","lat":43.23195,"lon":5.35552,"is_reserved":false,"is_disabled":false,"rental_uris":{"android":"levelo://app?vid=cada7e61-d0c0-4253-8348-7d53105a633d","ios":"levelo://app?vid=cada7e61-d0c0-4253-8348-7d53105a633d"},"vehicle_type_id":"4","last_reported":1685290032,"current_range_meters":10800,"station_id":"ce4bhu92rcd13ifvqi70","pricing_plan_id":"free"},{"bike_id":"b37e2561-9f9a-4ba2-95d5-acbc113a7103","system_id":"levelo_inurba_marseille","lat":43.231923,"lon":5.355545,"is_reserved":false,"is_disabled":false,"rental_uris":{"android":"levelo://app?vid=b37e2561-9f9a-4ba2-95d5-acbc113a7103","ios":"levelo://app?vid=b37e2561-9f9a-4ba2-95d5-acbc113a7103"},"vehicle_type_id":"4","last_reported":1685290032,"current_range_meters":29200,"station_id":"ce4bhu92rcd13ifvqi70","pricing_plan_id":"free"},{"bike_id":"0d0534c0-1e4e-42de-b3e6-f22b683857a1","system_id":"levelo_inurba_marseille","lat":43.23194,"lon":5.35555,"is_reserved":false,"is_disabled":false,"rental_uris":{"android":"levelo://app?vid=0d0534c0-1e4e-42de-b3e6-f22b683857a1","ios":"levelo://app?vid=0d0534c0-1e4e-42de-b3e6-f22b683857a1"},"vehicle_type_id":"4","last_reported":1685290032,"current_range_meters":0,"station_id":"ce4bhu92rcd13ifvqi70","pricing_plan_id":"free"},{"bike_id":"2ab089bf-2ea8-4b3e-89a7-20190737089c","system_id":"levelo_inurba_marseille","lat":43.23193,"lon":5.35558,"is_reserved":false,"is_disabled":false,"rental_uris":{"android":"levelo://app?vid=2ab089bf-2ea8-4b3e-89a7-20190737089c","ios":"levelo://app?vid=2ab089bf-2ea8-4b3e-89a7-20190737089c"},"vehicle_type_id":"4","last_reported":1685290032,"current_range_meters":22400,"station_id":"ce4bhu92rcd13ifvqi70","pricing_plan_id":"free"},{"bike_id":"60a312ef-fce2-49a9-8e0c-bf417c8121cf","system_id":"levelo_inurba_marseille","lat":43.23194,"lon":5.35542,"is_reserved":false,"is_disabled":false,"rental_uris":{"android":"levelo://app?vid=60a312ef-fce2-49a9-8e0c-bf417c8121cf","ios":"levelo://app?vid=60a312ef-fce2-49a9-8e0c-bf417c8121cf"},"vehicle_type_id":"4","last_reported":1685290032,"current_range_meters":3600,"station_id":"ce4bhu92rcd13ifvqi70","pricing_plan_id":"free"},{"bike_id":"f4bc108c-b015-46e2-b25f-6b1975c3355d","system_id":"levelo_inurba_marseille","lat":43.23193,"lon":5.35553,"is_reserved":false,"is_disabled":false,"rental_uris":{"android":"levelo://app?vid=f4bc108c-b015-46e2-b25f-6b1975c3355d","ios":"levelo://app?vid=f4bc108c-b015-46e2-b25f-6b1975c3355d"},"vehicle_type_id":"4","last_reported":1685290032,"current_range_meters":28000,"station_id":"ce4bhu92rcd13ifvqi70","pricing_plan_id":"free"},{"bike_id":"25f5162e-bfae-4b21-bfe5-6b8058746133","system_id":"levelo_inurba_marseille","lat":43.23193,"lon":5.3555,"is_reserved":false,"is_disabled":false,"rental_uris":{"android":"levelo://app?vid=25f5162e-bfae-4b21-bfe5-6b8058746133","ios":"levelo://app?vid=25f5162e-bfae-4b21-bfe5-6b8058746133"},"vehicle_type_id":"4","last_reported":1685290032,"current_range_meters":0,"station_id":"ce4bhu92rcd13ifvqi70","pricing_plan_id":"free"},{"bike_id":"1cc08091-3387-4c34-998c-75b368201774","system_id":"levelo_inurba_marseille","lat":43.23193,"lon":5.35549,"is_reserved":false,"is_disabled":false,"rental_uris":{"android":"levelo://app?vid=1cc08091-3387-4c34-998c-75b368201774","ios":"levelo://app?vid=1cc08091-3387-4c34-998c-75b368201774"},"vehicle_type_id":"4","last_reported":1685290032,"current_range_meters":21600,"station_id":"ce4bhu92rcd13ifvqi70","pricing_plan_id":"free"},{"bike_id":"f8992630-34a1-4b05-8135-baf436e1a6f7","system_id":"levelo_inurba_marseille","lat":43.23193,"lon":5.35542,"is_reserved":false,"is_disabled":false,"rental_uris":{"android":"levelo://app?vid=f8992630-34a1-4b05-8135-baf436e1a6f7","ios":"levelo://app?vid=f8992630-34a1-4b05-8135-baf436e1a6f7"},"vehicle_type_id":"4","last_reported":1685290032,"current_range_meters":15200,"station_id":"ce4bhu92rcd13ifvqi70","pricing_plan_id":"free"},{"bike_id":"232ed238-403d-4b1d-8560-54370eadba5f","system_id":"levelo_inurba_marseille","lat":43.23192,"lon":5.35555,"is_reserved":false,"is_disabled":false,"rental_uris":{"android":"levelo://app?vid=232ed238-403d-4b1d-8560-54370eadba5f","ios":"levelo://app?vid=232ed238-403d-4b1d-8560-54370eadba5f"},"vehicle_type_id":"4","last_reported":1685290032,"current_range_meters":18000,"station_id":"ce4bhu92rcd13ifvqi70","pricing_plan_id":"free"},{"bike_id":"01610ab0-1fe2-4335-b729-86882e711a3e","system_id":"levelo_inurba_marseille","lat":43.23192,"lon":5.35554,"is_reserved":false,"is_disabled":false,"rental_uris":{"android":"levelo://app?vid=01610ab0-1fe2-4335-b729-86882e711a3e","ios":"levelo://app?vid=01610ab0-1fe2-4335-b729-86882e711a3e"},"vehicle_type_id":"4","last_reported":1685290032,"current_range_meters":23200,"station_id":"ce4bhu92rcd13ifvqi70","pricing_plan_id":"free"},{"bike_id":"7db2523f-4ad4-4429-9a4a-b22805611572","system_id":"levelo_inurba_marseille","lat":43.23192,"lon":5.35552,"is_reserved":false,"is_disabled":false,"rental_uris":{"android":"levelo://app?vid=7db2523f-4ad4-4429-9a4a-b22805611572","ios":"levelo://app?vid=7db2523f-4ad4-4429-9a4a-b22805611572"},"vehicle_type_id":"4","last_reported":1685290032,"current_range_meters":6000,"station_id":"ce4bhu92rcd13ifvqi70","pricing_plan_id":"free"},{"bike_id":"0439819d-32b5-4306-b2e6-2a4f073748b2","system_id":"levelo_inurba_marseille","lat":43.23192,"lon":5.35545,"is_reserved":false,"is_disabled":false,"rental_uris":{"android":"levelo://app?vid=0439819d-32b5-4306-b2e6-2a4f073748b2","ios":"levelo://app?vid=0439819d-32b5-4306-b2e6-2a4f073748b2"},"vehicle_type_id":"4","last_reported":1685290032,"current_range_meters":3200,"station_id":"ce4bhu92rcd13ifvqi70","pricing_plan_id":"free"},{"bike_id":"3a7224a1-5dd8-434c-a50c-d5e334386e61","system_id":"levelo_inurba_marseille","lat":43.23191,"lon":5.35556,"is_reserved":false,"is_disabled":false,"rental_uris":{"android":"levelo://app?vid=3a7224a1-5dd8-434c-a50c-d5e334386e61","ios":"levelo://app?vid=3a7224a1-5dd8-434c-a50c-d5e334386e61"},"vehicle_type_id":"4","last_reported":1685290032,"current_range_meters":6800,"station_id":"ce4bhu92rcd13ifvqi70","pricing_plan_id":"free"},{"bike_id":"1c22e45d-4df5-4fe3-8ca3-f25da55dfabc","system_id":"levelo_inurba_marseille","lat":43.23191,"lon":5.35555,"is_reserved":false,"is_disabled":false,"rental_uris":{"android":"levelo://app?vid=1c22e45d-4df5-4fe3-8ca3-f25da55dfabc","ios":"levelo://app?vid=1c22e45d-4df5-4fe3-8ca3-f25da55dfabc"},"vehicle_type_id":"4","last_reported":1685290032,"current_range_meters":4400,"station_id":"ce4bhu92rcd13ifvqi70","pricing_plan_id":"free"},{"bike_id":"fb4d4496-3f5f-4ba3-a69e-2228ca59e7c7","system_id":"levelo_inurba_marseille","lat":43.23191,"lon":5.35551,"is_reserved":false,"is_disabled":false,"rental_uris":{"android":"levelo://app?vid=fb4d4496-3f5f-4ba3-a69e-2228ca59e7c7","ios":"levelo://app?vid=fb4d4496-3f5f-4ba3-a69e-2228ca59e7c7"},"vehicle_type_id":"4","last_reported":1685290032,"current_range_meters":14000,"station_id":"ce4bhu92rcd13ifvqi70","pricing_plan_id":"free"},{"bike_id":"97428980-2014-4193-b06e-070896f25aa9","system_id":"levelo_inurba_marseille","lat":43.231923,"lon":5.355545,"is_reserved":false,"is_disabled":false,"rental_uris":{"android":"levelo://app?vid=97428980-2014-4193-b06e-070896f25aa9","ios":"levelo://app?vid=97428980-2014-4193-b06e-070896f25aa9"},"vehicle_type_id":"4","last_reported":1685290032,"current_range_meters":1200,"station_id":"ce4bhu92rcd13ifvqi70","pricing_plan_id":"free"},{"bike_id":"c1d4c75f-b716-42f0-b0e3-5da3c064091b","system_id":"levelo_inurba_marseille","lat":43.23191,"lon":5.35549,"is_reserved":false,"is_disabled":false,"rental_uris":{"android":"levelo://app?vid=c1d4c75f-b716-42f0-b0e3-5da3c064091b","ios":"levelo://app?vid=c1d4c75f-b716-42f0-b0e3-5da3c064091b"},"vehicle_type_id":"4","last_reported":1685290032,"current_range_meters":6800,"station_id":"ce4bhu92rcd13ifvqi70","pricing_plan_id":"free"},{"bike_id":"4d05c396-c332-40c9-9ddf-81f7ad1f7874","system_id":"levelo_inurba_marseille","lat":43.2319,"lon":5.35556,"is_reserved":false,"is_disabled":false,"rental_uris":{"android":"levelo://app?vid=4d05c396-c332-40c9-9ddf-81f7ad1f7874","ios":"levelo://app?vid=4d05c396-c332-40c9-9ddf-81f7ad1f7874"},"vehicle_type_id":"4","last_reported":1685290032,"current_range_meters":21600,"station_id":"ce4bhu92rcd13ifvqi70","pricing_plan_id":"free"},{"bike_id":"13fd4863-654e-47b0-9720-cacade64001c","system_id":"levelo_inurba_marseille","lat":43.2319,"lon":5.35553,"is_reserved":false,"is_disabled":false,"rental_uris":{"android":"levelo://app?vid=13fd4863-654e-47b0-9720-cacade64001c","ios":"levelo://app?vid=13fd4863-654e-47b0-9720-cacade64001c"},"vehicle_type_id":"4","last_reported":1685290032,"current_range_meters":7600,"station_id":"ce4bhu92rcd13ifvqi70","pricing_plan_id":"free"},{"bike_id":"52d0b425-5982-4be6-a895-27dc748169b1","system_id":"levelo_inurba_marseille","lat":43.2319,"lon":5.35552,"is_reserved":false,"is_disabled":false,"rental_uris":{"android":"levelo://app?vid=52d0b425-5982-4be6-a895-27dc748169b1","ios":"levelo://app?vid=52d0b425-5982-4be6-a895-27dc748169b1"},"vehicle_type_id":"4","last_reported":1685290032,"current_range_meters":19200,"station_id":"ce4bhu92rcd13ifvqi70","pricing_plan_id":"free"},{"bike_id":"5ab7e179-e98e-42d3-b32c-fb061c04478a","system_id":"levelo_inurba_marseille","lat":43.2319,"lon":5.3555,"is_reserved":false,"is_disabled":false,"rental_uris":{"android":"levelo://app?vid=5ab7e179-e98e-42d3-b32c-fb061c04478a","ios":"levelo://app?vid=5ab7e179-e98e-42d3-b32c-fb061c04478a"},"vehicle_type_id":"4","last_reported":1685290032,"current_range_meters":1600,"station_id":"ce4bhu92rcd13ifvqi70","pricing_plan_id":"free"},{"bike_id":"22422e04-5bb4-4b7e-9a82-d7dd628a4062","system_id":"levelo_inurba_marseille","lat":43.2319,"lon":5.35538,"is_reserved":false,"is_disabled":false,"rental_uris":{"android":"levelo://app?vid=22422e04-5bb4-4b7e-9a82-d7dd628a4062","ios":"levelo://app?vid=22422e04-5bb4-4b7e-9a82-d7dd628a4062"},"vehicle_type_id":"4","last_reported":1685290032,"current_range_meters":10800,"station_id":"ce4bhu92rcd13ifvqi70","pricing_plan_id":"free"},{"bike_id":"b35c0da7-330d-4e9e-bd1e-9d0408c664b3","system_id":"levelo_inurba_marseille","lat":43.231793,"lon":5.400044,"is_reserved":false,"is_disabled":false,"rental_uris":{"android":"levelo://app?vid=b35c0da7-330d-4e9e-bd1e-9d0408c664b3","ios":"levelo://app?vid=b35c0da7-330d-4e9e-bd1e-9d0408c664b3"},"vehicle_type_id":"4","last_reported":1685290032,"current_range_meters":31600,"station_id":"ce4bhn12rcd13ifvqgqg","pricing_plan_id":"free"},{"bike_id":"31dd697e-cbbe-4915-a925-b463fdb47aab","system_id":"levelo_inurba_marseille","lat":43.231793,"lon":5.400044,"is_reserved":false,"is_disabled":false,"rental_uris":{"android":"levelo://app?vid=31dd697e-cbbe-4915-a925-b463fdb47aab","ios":"levelo://app?vid=31dd697e-cbbe-4915-a925-b463fdb47aab"},"vehicle_type_id":"4","last_reported":1685290032,"current_range_meters":31600,"station_id":"ce4bhn12rcd13ifvqgqg","pricing_plan_id":"free"},{"bike_id":"6bf87b3f-2e5e-484d-9f73-d12a90c06e2e","system_id":"levelo_inurba_marseille","lat":43.231794,"lon":5.400052,"is_reserved":false,"is_disabled":false,"rental_uris":{"android":"levelo://app?vid=6bf87b3f-2e5e-484d-9f73-d12a90c06e2e","ios":"levelo://app?vid=6bf87b3f-2e5e-484d-9f73-d12a90c06e2e"},"vehicle_type_id":"4","last_reported":1685290032,"current_range_meters":31600,"station_id":"ce4bhn12rcd13ifvqgqg","pricing_plan_id":"free"},{"bike_id":"56230511-dc5b-4d08-9a00-988f627fae27","system_id":"levelo_inurba_marseille","lat":43.231793,"lon":5.400044,"is_reserved":false,"is_disabled":false,"rental_uris":{"android":"levelo://app?vid=56230511-dc5b-4d08-9a00-988f627fae27","ios":"levelo://app?vid=56230511-dc5b-4d08-9a00-988f627fae27"},"vehicle_type_id":"4","last_reported":1685290032,"current_range_meters":31600,"station_id":"ce4bhn12rcd13ifvqgqg","pricing_plan_id":"free"},{"bike_id":"19780742-7429-46d5-8a21-489604e7e458","system_id":"levelo_inurba_marseille","lat":43.231793,"lon":5.400044,"is_reserved":false,"is_disabled":false,"rental_uris":{"android":"levelo://app?vid=19780742-7429-46d5-8a21-489604e7e458","ios":"levelo://app?vid=19780742-7429-46d5-8a21-489604e7e458"},"vehicle_type_id":"4","last_reported":1685290032,"current_range_meters":32000,"station_id":"ce4bhn12rcd13ifvqgqg","pricing_plan_id":"free"},{"bike_id":"dbf4b31c-ea3a-440c-bc88-220c0a7097e6","system_id":"levelo_inurba_marseille","lat":43.231793,"lon":5.400044,"is_reserved":false,"is_disabled":false,"rental_uris":{"android":"levelo://app?vid=dbf4b31c-ea3a-440c-bc88-220c0a7097e6","ios":"levelo://app?vid=dbf4b31c-ea3a-440c-bc88-220c0a7097e6"},"vehicle_type_id":"4","last_reported":1685290032,"current_range_meters":24800,"station_id":"ce4bhn12rcd13ifvqgqg","pricing_plan_id":"free"},{"bike_id":"67b77559-a903-49c5-9f37-4b2143617b52","system_id":"levelo_inurba_marseille","lat":43.231794,"lon":5.400052,"is_reserved":false,"is_disabled":false,"rental_uris":{"android":"levelo://app?vid=67b77559-a903-49c5-9f37-4b2143617b52","ios":"levelo://app?vid=67b77559-a903-49c5-9f37-4b2143617b52"},"vehicle_type_id":"4","last_reported":1685290032,"current_range_meters":31200,"station_id":"ce4bhn12rcd13ifvqgqg","pricing_plan_id":"free"},{"bike_id":"9b868617-b176-4e5b-bbf3-d168630e1c9d","system_id":"levelo_inurba_marseille","lat":43.231793,"lon":5.400044,"is_reserved":false,"is_disabled":false,"rental_uris":{"android":"levelo://app?vid=9b868617-b176-4e5b-bbf3-d168630e1c9d","ios":"levelo://app?vid=9b868617-b176-4e5b-bbf3-d168630e1c9d"},"vehicle_type_id":"4","last_reported":1685290032,"current_range_meters":31200,"station_id":"ce4bhn12rcd13ifvqgqg","pricing_plan_id":"free"},{"bike_id":"46f10739-9f76-433c-8bb0-3129a524ce7d","system_id":"levelo_inurba_marseille","lat":43.23189,"lon":5.39979,"is_reserved":false,"is_disabled":false,"rental_uris":{"android":"levelo://app?vid=46f10739-9f76-433c-8bb0-3129a524ce7d","ios":"levelo://app?vid=46f10739-9f76-433c-8bb0-3129a524ce7d"},"vehicle_type_id":"4","last_reported":1685290032,"current_range_meters":0,"station_id":"ce4bhn12rcd13ifvqgqg","pricing_plan_id":"free"},{"bike_id":"d0b52e7f-623a-4470-b0bc-03da6c1e273a","system_id":"levelo_inurba_marseille","lat":43.23189,"lon":5.39985,"is_reserved":false,"is_disabled":false,"rental_uris":{"android":"levelo://app?vid=d0b52e7f-623a-4470-b0bc-03da6c1e273a","ios":"levelo://app?vid=d0b52e7f-623a-4470-b0bc-03da6c1e273a"},"vehicle_type_id":"4","last_reported":1685290032,"current_range_meters":15200,"station_id":"ce4bhn12rcd13ifvqgqg","pricing_plan_id":"free"},{"bike_id":"ae1dde4d-2bf3-4075-a27d-5c93c15f8c70","system_id":"levelo_inurba_marseille","lat":43.231793,"lon":5.400044,"is_reserved":false,"is_disabled":false,"rental_uris":{"android":"levelo://app?vid=ae1dde4d-2bf3-4075-a27d-5c93c15f8c70","ios":"levelo://app?vid=ae1dde4d-2bf3-4075-a27d-5c93c15f8c70"},"vehicle_type_id":"4","last_reported":1685290032,"current_range_meters":26800,"station_id":"ce4bhn12rcd13ifvqgqg","pricing_plan_id":"free"},{"bike_id":"ddeb217c-c36f-4d9f-a6b7-591bb633c619","system_id":"levelo_inurba_marseille","lat":43.23188,"lon":5.39983,"is_reserved":false,"is_disabled":false,"rental_uris":{"android":"levelo://app?vid=ddeb217c-c36f-4d9f-a6b7-591bb633c619","ios":"levelo://app?vid=ddeb217c-c36f-4d9f-a6b7-591bb633c619"},"vehicle_type_id":"4","last_reported":1685290032,"current_range_meters":31200,"station_id":"ce4bhn12rcd13ifvqgqg","pricing_plan_id":"free"},{"bike_id":"a7fbfb05-3a72-4dea-b5c9-12ad7997a8ad","system_id":"levelo_inurba_marseille","lat":43.231794,"lon":5.400052,"is_reserved":false,"is_disabled":false,"rental_uris":{"android":"levelo://app?vid=a7fbfb05-3a72-4dea-b5c9-12ad7997a8ad","ios":"levelo://app?vid=a7fbfb05-3a72-4dea-b5c9-12ad7997a8ad"},