{"last_updated":1783359585,"ttl":60,"version":"2.2","data":{"bikes":[{"bike_id":"ba0c28b1-8732-48e2-8079-f25b2b3fbc3c","system_id":"levelo_inurba_marseille","lat":43.337444,"lon":5.374475,"is_reserved":false,"is_disabled":false,"rental_uris":{"android":"levelo://app?vid=ba0c28b1-8732-48e2-8079-f25b2b3fbc3c","ios":"levelo://app?vid=ba0c28b1-8732-48e2-8079-f25b2b3fbc3c"},"vehicle_type_id":"4","last_reported":1783359586,"current_range_meters":0,"station_id":"","pricing_plan_id":"cebpf4jnsgd1na2vs0mg"},{"bike_id":"80431da8-be8c-4bf6-9ee6-be5769085628","system_id":"levelo_inurba_marseille","lat":43.2656,"lon":5.40324,"is_reserved":false,"is_disabled":false,"rental_uris":{"android":"levelo://app?vid=80431da8-be8c-4bf6-9ee6-be5769085628","ios":"levelo://app?vid=80431da8-be8c-4bf6-9ee6-be5769085628"},"vehicle_type_id":"4","last_reported":1783359586,"current_range_meters":2800,"station_id":"ce4bhmp2rcd13ifvqgng","pricing_plan_id":"cebpf4jnsgd1na2vs0mg"},{"bike_id":"2d3dd4f4-c2be-4315-be3d-f35763bc2c71","system_id":"levelo_inurba_marseille","lat":43.26686,"lon":5.40196,"is_reserved":false,"is_disabled":false,"rental_uris":{"android":"levelo://app?vid=2d3dd4f4-c2be-4315-be3d-f35763bc2c71","ios":"levelo://app?vid=2d3dd4f4-c2be-4315-be3d-f35763bc2c71"},"vehicle_type_id":"4","last_reported":1783359586,"current_range_meters":2800,"station_id":"","pricing_plan_id":"cebpf4jnsgd1na2vs0mg"},{"bike_id":"b21650bb-5da2-42ae-a5bc-1dab152921ce","system_id":"levelo_inurba_marseille","lat":43.26783,"lon":5.39417,"is_reserved":false,"is_disabled":false,"rental_uris":{"android":"levelo://app?vid=b21650bb-5da2-42ae-a5bc-1dab152921ce","ios":"levelo://app?vid=b21650bb-5da2-42ae-a5bc-1dab152921ce"},"vehicle_type_id":"4","last_reported":1783359586,"current_range_meters":2800,"station_id":"ce4bhh12rcd13ifvqfg0","pricing_plan_id":"cebpf4jnsgd1na2vs0mg"},{"bike_id":"87601c6a-f11e-4999-b138-e85c92822115","system_id":"levelo_inurba_marseille","lat":43.27061,"lon":5.42278,"is_reserved":false,"is_disabled":true,"rental_uris":{"android":"levelo://app?vid=87601c6a-f11e-4999-b138-e85c92822115","ios":"levelo://app?vid=87601c6a-f11e-4999-b138-e85c92822115"},"vehicle_type_id":"4","last_reported":1783359586,"current_range_meters":2800,"station_id":"ce4bhk92rcd13ifvqgb0","pricing_plan_id":"cebpf4jnsgd1na2vs0mg"},{"bike_id":"b99fa2fa-6caa-4e97-a941-8427d6ff2309","system_id":"levelo_inurba_marseille","lat":43.26231,"lon":5.38768,"is_reserved":false,"is_disabled":true,"rental_uris":{"android":"levelo://app?vid=b99fa2fa-6caa-4e97-a941-8427d6ff2309","ios":"levelo://app?vid=b99fa2fa-6caa-4e97-a941-8427d6ff2309"},"vehicle_type_id":"4","last_reported":1783359586,"current_range_meters":2800,"station_id":"st_d8gjfg747rts73coq3b0","pricing_plan_id":"cebpf4jnsgd1na2vs0mg"},{"bike_id":"e27127fd-e300-44d5-ae1c-4ffc9aed744d","system_id":"levelo_inurba_marseille","lat":43.28679,"lon":5.38654,"is_reserved":false,"is_disabled":false,"rental_uris":{"android":"levelo://app?vid=e27127fd-e300-44d5-ae1c-4ffc9aed744d","ios":"levelo://app?vid=e27127fd-e300-44d5-ae1c-4ffc9aed744d"},"vehicle_type_id":"4","last_reported":1783359586,"current_range_meters":2800,"station_id":"ce4bh492rcd13ifvqdug","pricing_plan_id":"cebpf4jnsgd1na2vs0mg"},{"bike_id":"f756e4be-6d6a-482d-8808-bcf7af4f1d29","system_id":"levelo_inurba_marseille","lat":43.254984,"lon":5.3765,"is_reserved":false,"is_disabled":false,"rental_uris":{"android":"levelo://app?vid=f756e4be-6d6a-482d-8808-bcf7af4f1d29","ios":"levelo://app?vid=f756e4be-6d6a-482d-8808-bcf7af4f1d29"},"vehicle_type_id":"4","last_reported":1783359586,"current_range_meters":2800,"station_id":"ce4bhh12rcd13ifvqff0","pricing_plan_id":"cebpf4jnsgd1na2vs0mg"},{"bike_id":"3892050e-cb6a-457e-90e6-5def440715fd","system_id":"levelo_inurba_marseille","lat":43.28702,"lon":5.46691,"is_reserved":false,"is_disabled":false,"rental_uris":{"android":"levelo://app?vid=3892050e-cb6a-457e-90e6-5def440715fd","ios":"levelo://app?vid=3892050e-cb6a-457e-90e6-5def440715fd"},"vehicle_type_id":"4","last_reported":1783359586,"current_range_meters":2800,"station_id":"st_d6tc3vkotcvc738tfjhg","pricing_plan_id":"cebpf4jnsgd1na2vs0mg"},{"bike_id":"66f64495-157d-434d-a3ef-5a17f45e04e3","system_id":"levelo_inurba_marseille","lat":43.24166,"lon":5.40934,"is_reserved":false,"is_disabled":false,"rental_uris":{"android":"levelo://app?vid=66f64495-157d-434d-a3ef-5a17f45e04e3","ios":"levelo://app?vid=66f64495-157d-434d-a3ef-5a17f45e04e3"},"vehicle_type_id":"4","last_reported":1783359586,"current_range_meters":2800,"station_id":"","pricing_plan_id":"cebpf4jnsgd1na2vs0mg"},{"bike_id":"9a3f9d10-8214-4bc2-a8cb-7f94fecdc90f","system_id":"levelo_inurba_marseille","lat":43.30479,"lon":5.37904,"is_reserved":false,"is_disabled":false,"rental_uris":{"android":"levelo://app?vid=9a3f9d10-8214-4bc2-a8cb-7f94fecdc90f","ios":"levelo://app?vid=9a3f9d10-8214-4bc2-a8cb-7f94fecdc90f"},"vehicle_type_id":"4","last_reported":1783359586,"current_range_meters":2800,"station_id":"ce4bgup2rcd13ifvqcn0","pricing_plan_id":"cebpf4jnsgd1na2vs0mg"},{"bike_id":"e03a8bd0-2697-43b0-8d13-8dd357e02c88","system_id":"levelo_inurba_marseille","lat":43.26603,"lon":5.3903,"is_reserved":false,"is_disabled":true,"rental_uris":{"android":"levelo://app?vid=e03a8bd0-2697-43b0-8d13-8dd357e02c88","ios":"levelo://app?vid=e03a8bd0-2697-43b0-8d13-8dd357e02c88"},"vehicle_type_id":"4","last_reported":1783359586,"current_range_meters":2800,"station_id":"","pricing_plan_id":"cebpf4jnsgd1na2vs0mg"},{"bike_id":"4ff58c56-03fd-4b6b-8e5d-aadd626dc753","system_id":"levelo_inurba_marseille","lat":43.28997,"lon":5.35618,"is_reserved":false,"is_disabled":false,"rental_uris":{"android":"levelo://app?vid=4ff58c56-03fd-4b6b-8e5d-aadd626dc753","ios":"levelo://app?vid=4ff58c56-03fd-4b6b-8e5d-aadd626dc753"},"vehicle_type_id":"4","last_reported":1783359586,"current_range_meters":2800,"station_id":"ce4bhb92rcd13ifvqen0","pricing_plan_id":"cebpf4jnsgd1na2vs0mg"},{"bike_id":"6e28c7de-4432-46c6-8824-5a05812aca65","system_id":"levelo_inurba_marseille","lat":43.22534,"lon":5.3483,"is_reserved":false,"is_disabled":true,"rental_uris":{"android":"levelo://app?vid=6e28c7de-4432-46c6-8824-5a05812aca65","ios":"levelo://app?vid=6e28c7de-4432-46c6-8824-5a05812aca65"},"vehicle_type_id":"4","last_reported":1783359586,"current_range_meters":3200,"station_id":"st_cvj5dfep6f1abm77gieg","pricing_plan_id":"cebpf4jnsgd1na2vs0mg"},{"bike_id":"f5862b25-8b9f-4511-934a-30eb2d62b473","system_id":"levelo_inurba_marseille","lat":43.23762,"lon":5.36164,"is_reserved":false,"is_disabled":false,"rental_uris":{"android":"levelo://app?vid=f5862b25-8b9f-4511-934a-30eb2d62b473","ios":"levelo://app?vid=f5862b25-8b9f-4511-934a-30eb2d62b473"},"vehicle_type_id":"4","last_reported":1783359586,"current_range_meters":3200,"station_id":"","pricing_plan_id":"cebpf4jnsgd1na2vs0mg"},{"bike_id":"d0b44d12-307d-4e73-9876-5e41748eadcf","system_id":"levelo_inurba_marseille","lat":43.272,"lon":5.40979,"is_reserved":false,"is_disabled":false,"rental_uris":{"android":"levelo://app?vid=d0b44d12-307d-4e73-9876-5e41748eadcf","ios":"levelo://app?vid=d0b44d12-307d-4e73-9876-5e41748eadcf"},"vehicle_type_id":"4","last_reported":1783359586,"current_range_meters":3200,"station_id":"ce4bhl12rcd13ifvqgf0","pricing_plan_id":"cebpf4jnsgd1na2vs0mg"},{"bike_id":"4a6bc899-4386-403a-85bd-a0b6e4730c86","system_id":"levelo_inurba_marseille","lat":43.27404,"lon":5.393894,"is_reserved":false,"is_disabled":false,"rental_uris":{"android":"levelo://app?vid=4a6bc899-4386-403a-85bd-a0b6e4730c86","ios":"levelo://app?vid=4a6bc899-4386-403a-85bd-a0b6e4730c86"},"vehicle_type_id":"4","last_reported":1783359586,"current_range_meters":3200,"station_id":"ce4bhdp2rcd13ifvqf20","pricing_plan_id":"cebpf4jnsgd1na2vs0mg"},{"bike_id":"defe664f-116a-400b-aa68-5aba6647b941","system_id":"levelo_inurba_marseille","lat":43.29302,"lon":5.44543,"is_reserved":false,"is_disabled":false,"rental_uris":{"android":"levelo://app?vid=defe664f-116a-400b-aa68-5aba6647b941","ios":"levelo://app?vid=defe664f-116a-400b-aa68-5aba6647b941"},"vehicle_type_id":"4","last_reported":1783359586,"current_range_meters":3200,"station_id":"","pricing_plan_id":"cebpf4jnsgd1na2vs0mg"},{"bike_id":"9d803005-51e3-4379-8cc6-82071b29a122","system_id":"levelo_inurba_marseille","lat":43.28624,"lon":5.35114,"is_reserved":false,"is_disabled":false,"rental_uris":{"android":"levelo://app?vid=9d803005-51e3-4379-8cc6-82071b29a122","ios":"levelo://app?vid=9d803005-51e3-4379-8cc6-82071b29a122"},"vehicle_type_id":"4","last_reported":1783359586,"current_range_meters":3200,"station_id":"ce4bhch2rcd13ifvqeug","pricing_plan_id":"cebpf4jnsgd1na2vs0mg"},{"bike_id":"a12a4f83-c050-4064-a9cd-bf7775a31f2f","system_id":"levelo_inurba_marseille","lat":43.24672,"lon":5.38133,"is_reserved":false,"is_disabled":true,"rental_uris":{"android":"levelo://app?vid=a12a4f83-c050-4064-a9cd-bf7775a31f2f","ios":"levelo://app?vid=a12a4f83-c050-4064-a9cd-bf7775a31f2f"},"vehicle_type_id":"4","last_reported":1783359586,"current_range_meters":3200,"station_id":"ce4bhih2rcd13ifvqfr0","pricing_plan_id":"cebpf4jnsgd1na2vs0mg"},{"bike_id":"030265b2-4dd1-44f4-b998-e3903e3adbf1","system_id":"levelo_inurba_marseille","lat":43.2861,"lon":5.3705,"is_reserved":false,"is_disabled":true,"rental_uris":{"android":"levelo://app?vid=030265b2-4dd1-44f4-b998-e3903e3adbf1","ios":"levelo://app?vid=030265b2-4dd1-44f4-b998-e3903e3adbf1"},"vehicle_type_id":"4","last_reported":1783359586,"current_range_meters":3200,"station_id":"ce4bht12rcd13ifvqi60","pricing_plan_id":"cebpf4jnsgd1na2vs0mg"},{"bike_id":"f1f8956f-2447-408a-8b7f-2bc8b8a60c92","system_id":"levelo_inurba_marseille","lat":43.26203,"lon":5.37455,"is_reserved":false,"is_disabled":false,"rental_uris":{"android":"levelo://app?vid=f1f8956f-2447-408a-8b7f-2bc8b8a60c92","ios":"levelo://app?vid=f1f8956f-2447-408a-8b7f-2bc8b8a60c92"},"vehicle_type_id":"4","last_reported":1783359586,"current_range_meters":3200,"station_id":"ce4bhgp2rcd13ifvqfc0","pricing_plan_id":"cebpf4jnsgd1na2vs0mg"},{"bike_id":"132066f8-a605-4280-b5e8-f7c6b7808aa4","system_id":"levelo_inurba_marseille","lat":43.26552,"lon":5.37275,"is_reserved":false,"is_disabled":false,"rental_uris":{"android":"levelo://app?vid=132066f8-a605-4280-b5e8-f7c6b7808aa4","ios":"levelo://app?vid=132066f8-a605-4280-b5e8-f7c6b7808aa4"},"vehicle_type_id":"4","last_reported":1783359586,"current_range_meters":3200,"station_id":"ce4bhg12rcd13ifvqf70","pricing_plan_id":"cebpf4jnsgd1na2vs0mg"},{"bike_id":"9aad7fb2-4b68-4ff1-a63e-5832ca4f6501","system_id":"levelo_inurba_marseille","lat":43.26971,"lon":5.38517,"is_reserved":false,"is_disabled":false,"rental_uris":{"android":"levelo://app?vid=9aad7fb2-4b68-4ff1-a63e-5832ca4f6501","ios":"levelo://app?vid=9aad7fb2-4b68-4ff1-a63e-5832ca4f6501"},"vehicle_type_id":"4","last_reported":1783359586,"current_range_meters":3200,"station_id":"","pricing_plan_id":"cebpf4jnsgd1na2vs0mg"},{"bike_id":"b15e6790-5d13-4dc0-af65-971d7f82c92a","system_id":"levelo_inurba_marseille","lat":43.21745,"lon":5.34599,"is_reserved":false,"is_disabled":false,"rental_uris":{"android":"levelo://app?vid=b15e6790-5d13-4dc0-af65-971d7f82c92a","ios":"levelo://app?vid=b15e6790-5d13-4dc0-af65-971d7f82c92a"},"vehicle_type_id":"4","last_reported":1783359586,"current_range_meters":3200,"station_id":"st_cvj6r9ubvosntc0bgbag","pricing_plan_id":"cebpf4jnsgd1na2vs0mg"},{"bike_id":"4ff5500d-6439-42c5-b32a-02191054bbf6","system_id":"levelo_inurba_marseille","lat":43.29179,"lon":5.371,"is_reserved":false,"is_disabled":false,"rental_uris":{"android":"levelo://app?vid=4ff5500d-6439-42c5-b32a-02191054bbf6","ios":"levelo://app?vid=4ff5500d-6439-42c5-b32a-02191054bbf6"},"vehicle_type_id":"4","last_reported":1783359586,"current_range_meters":3600,"station_id":"ce4bha92rcd13ifvqeh0","pricing_plan_id":"cebpf4jnsgd1na2vs0mg"},{"bike_id":"3fcf6205-f23c-4cee-8363-04389955351d","system_id":"levelo_inurba_marseille","lat":43.22578,"lon":5.41638,"is_reserved":false,"is_disabled":true,"rental_uris":{"android":"levelo://app?vid=3fcf6205-f23c-4cee-8363-04389955351d","ios":"levelo://app?vid=3fcf6205-f23c-4cee-8363-04389955351d"},"vehicle_type_id":"4","last_reported":1783359586,"current_range_meters":3600,"station_id":"st_d2o4gvlbi1j2169b742g","pricing_plan_id":"cebpf4jnsgd1na2vs0mg"},{"bike_id":"0a0f04d2-8c2b-484b-836b-2f76e8eed297","system_id":"levelo_inurba_marseille","lat":43.28699,"lon":5.46687,"is_reserved":false,"is_disabled":false,"rental_uris":{"android":"levelo://app?vid=0a0f04d2-8c2b-484b-836b-2f76e8eed297","ios":"levelo://app?vid=0a0f04d2-8c2b-484b-836b-2f76e8eed297"},"vehicle_type_id":"4","last_reported":1783359586,"current_range_meters":3600,"station_id":"st_d6tc3vkotcvc738tfjhg","pricing_plan_id":"cebpf4jnsgd1na2vs0mg"},{"bike_id":"d62a5f06-a4d3-43f1-8950-c438f1f04a18","system_id":"levelo_inurba_marseille","lat":43.27485,"lon":5.40514,"is_reserved":false,"is_disabled":false,"rental_uris":{"android":"levelo://app?vid=d62a5f06-a4d3-43f1-8950-c438f1f04a18","ios":"levelo://app?vid=d62a5f06-a4d3-43f1-8950-c438f1f04a18"},"vehicle_type_id":"4","last_reported":1783359586,"current_range_meters":3600,"station_id":"","pricing_plan_id":"cebpf4jnsgd1na2vs0mg"},{"bike_id":"7a71c416-c3b5-4289-ad0e-531bcb18f06d","system_id":"levelo_inurba_marseille","lat":43.33282,"lon":5.38091,"is_reserved":false,"is_disabled":false,"rental_uris":{"android":"levelo://app?vid=7a71c416-c3b5-4289-ad0e-531bcb18f06d","ios":"levelo://app?vid=7a71c416-c3b5-4289-ad0e-531bcb18f06d"},"vehicle_type_id":"4","last_reported":1783359586,"current_range_meters":3600,"station_id":"","pricing_plan_id":"cebpf4jnsgd1na2vs0mg"},{"bike_id":"83163ef9-6031-416c-97fd-7e89bcf58161","system_id":"levelo_inurba_marseille","lat":43.31171,"lon":5.40177,"is_reserved":false,"is_disabled":false,"rental_uris":{"android":"levelo://app?vid=83163ef9-6031-416c-97fd-7e89bcf58161","ios":"levelo://app?vid=83163ef9-6031-416c-97fd-7e89bcf58161"},"vehicle_type_id":"4","last_reported":1783359586,"current_range_meters":3600,"station_id":"","pricing_plan_id":"cebpf4jnsgd1na2vs0mg"},{"bike_id":"d542e80b-c621-4744-a175-6c723a1aa866","system_id":"levelo_inurba_marseille","lat":43.29308,"lon":5.44546,"is_reserved":false,"is_disabled":false,"rental_uris":{"android":"levelo://app?vid=d542e80b-c621-4744-a175-6c723a1aa866","ios":"levelo://app?vid=d542e80b-c621-4744-a175-6c723a1aa866"},"vehicle_type_id":"4","last_reported":1783359586,"current_range_meters":3600,"station_id":"","pricing_plan_id":"cebpf4jnsgd1na2vs0mg"},{"bike_id":"40d2f8fc-f040-4242-8dd7-9ca3aba71d2c","system_id":"levelo_inurba_marseille","lat":43.29246,"lon":5.35785,"is_reserved":false,"is_disabled":false,"rental_uris":{"android":"levelo://app?vid=40d2f8fc-f040-4242-8dd7-9ca3aba71d2c","ios":"levelo://app?vid=40d2f8fc-f040-4242-8dd7-9ca3aba71d2c"},"vehicle_type_id":"4","last_reported":1783359586,"current_range_meters":3600,"station_id":"","pricing_plan_id":"cebpf4jnsgd1na2vs0mg"},{"bike_id":"455931ae-c2e6-4899-ab5e-10963210d055","system_id":"levelo_inurba_marseille","lat":43.28274,"lon":5.35059,"is_reserved":false,"is_disabled":false,"rental_uris":{"android":"levelo://app?vid=455931ae-c2e6-4899-ab5e-10963210d055","ios":"levelo://app?vid=455931ae-c2e6-4899-ab5e-10963210d055"},"vehicle_type_id":"4","last_reported":1783359586,"current_range_meters":3600,"station_id":"ce4bhbp2rcd13ifvqerg","pricing_plan_id":"cebpf4jnsgd1na2vs0mg"},{"bike_id":"890a7a24-da86-4c76-936a-4500b30e43a4","system_id":"levelo_inurba_marseille","lat":43.26201,"lon":5.37446,"is_reserved":false,"is_disabled":false,"rental_uris":{"android":"levelo://app?vid=890a7a24-da86-4c76-936a-4500b30e43a4","ios":"levelo://app?vid=890a7a24-da86-4c76-936a-4500b30e43a4"},"vehicle_type_id":"4","last_reported":1783359586,"current_range_meters":3600,"station_id":"ce4bhgp2rcd13ifvqfc0","pricing_plan_id":"cebpf4jnsgd1na2vs0mg"},{"bike_id":"c9445652-b236-402b-8ec1-fb5567a22b0f","system_id":"levelo_inurba_marseille","lat":43.24451,"lon":5.4095,"is_reserved":false,"is_disabled":false,"rental_uris":{"android":"levelo://app?vid=c9445652-b236-402b-8ec1-fb5567a22b0f","ios":"levelo://app?vid=c9445652-b236-402b-8ec1-fb5567a22b0f"},"vehicle_type_id":"4","last_reported":1783359586,"current_range_meters":3600,"station_id":"","pricing_plan_id":"cebpf4jnsgd1na2vs0mg"},{"bike_id":"acb6b183-d4d6-4d8e-974e-924b61f91a80","system_id":"levelo_inurba_marseille","lat":43.34405,"lon":5.42052,"is_reserved":false,"is_disabled":false,"rental_uris":{"android":"levelo://app?vid=acb6b183-d4d6-4d8e-974e-924b61f91a80","ios":"levelo://app?vid=acb6b183-d4d6-4d8e-974e-924b61f91a80"},"vehicle_type_id":"4","last_reported":1783359586,"current_range_meters":3600,"station_id":"","pricing_plan_id":"cebpf4jnsgd1na2vs0mg"},{"bike_id":"83e4e259-5370-4e3a-af3e-25deca114611","system_id":"levelo_inurba_marseille","lat":43.29522,"lon":5.39042,"is_reserved":false,"is_disabled":false,"rental_uris":{"android":"levelo://app?vid=83e4e259-5370-4e3a-af3e-25deca114611","ios":"levelo://app?vid=83e4e259-5370-4e3a-af3e-25deca114611"},"vehicle_type_id":"4","last_reported":1783359586,"current_range_meters":3600,"station_id":"ce4bh3p2rcd13ifvqdp0","pricing_plan_id":"cebpf4jnsgd1na2vs0mg"},{"bike_id":"b58d7813-ef6c-476b-abd4-3ce1491500c2","system_id":"levelo_inurba_marseille","lat":43.33153,"lon":5.41244,"is_reserved":false,"is_disabled":false,"rental_uris":{"android":"levelo://app?vid=b58d7813-ef6c-476b-abd4-3ce1491500c2","ios":"levelo://app?vid=b58d7813-ef6c-476b-abd4-3ce1491500c2"},"vehicle_type_id":"4","last_reported":1783359586,"current_range_meters":3600,"station_id":"","pricing_plan_id":"cebpf4jnsgd1na2vs0mg"},{"bike_id":"e764c39f-b9c2-4571-92e6-71bd637abafa","system_id":"levelo_inurba_marseille","lat":43.26572,"lon":5.40324,"is_reserved":false,"is_disabled":false,"rental_uris":{"android":"levelo://app?vid=e764c39f-b9c2-4571-92e6-71bd637abafa","ios":"levelo://app?vid=e764c39f-b9c2-4571-92e6-71bd637abafa"},"vehicle_type_id":"4","last_reported":1783359586,"current_range_meters":3600,"station_id":"ce4bhmp2rcd13ifvqgng","pricing_plan_id":"cebpf4jnsgd1na2vs0mg"},{"bike_id":"6615886b-74f9-497e-8ba7-a60ccb6fd329","system_id":"levelo_inurba_marseille","lat":43.26039,"lon":5.39784,"is_reserved":false,"is_disabled":false,"rental_uris":{"android":"levelo://app?vid=6615886b-74f9-497e-8ba7-a60ccb6fd329","ios":"levelo://app?vid=6615886b-74f9-497e-8ba7-a60ccb6fd329"},"vehicle_type_id":"4","last_reported":1783359586,"current_range_meters":3600,"station_id":"","pricing_plan_id":"cebpf4jnsgd1na2vs0mg"},{"bike_id":"f7826c83-beb8-416f-bc97-d9c1cfbddb0b","system_id":"levelo_inurba_marseille","lat":43.25157,"lon":5.40467,"is_reserved":false,"is_disabled":false,"rental_uris":{"android":"levelo://app?vid=f7826c83-beb8-416f-bc97-d9c1cfbddb0b","ios":"levelo://app?vid=f7826c83-beb8-416f-bc97-d9c1cfbddb0b"},"vehicle_type_id":"4","last_reported":1783359586,"current_range_meters":3600,"station_id":"","pricing_plan_id":"cebpf4jnsgd1na2vs0mg"},{"bike_id":"19914a48-7974-4b8e-b8a2-de423df83549","system_id":"levelo_inurba_marseille","lat":43.28705,"lon":5.4668,"is_reserved":false,"is_disabled":false,"rental_uris":{"android":"levelo://app?vid=19914a48-7974-4b8e-b8a2-de423df83549","ios":"levelo://app?vid=19914a48-7974-4b8e-b8a2-de423df83549"},"vehicle_type_id":"4","last_reported":1783359586,"current_range_meters":4000,"station_id":"st_d6tc3vkotcvc738tfjhg","pricing_plan_id":"cebpf4jnsgd1na2vs0mg"},{"bike_id":"316584f8-3ebe-4520-9042-6f2a234ec695","system_id":"levelo_inurba_marseille","lat":43.29022,"lon":5.3813,"is_reserved":false,"is_disabled":false,"rental_uris":{"android":"levelo://app?vid=316584f8-3ebe-4520-9042-6f2a234ec695","ios":"levelo://app?vid=316584f8-3ebe-4520-9042-6f2a234ec695"},"vehicle_type_id":"4","last_reported":1783359586,"current_range_meters":4000,"station_id":"ce4bh4p2rcd13ifvqe1g","pricing_plan_id":"cebpf4jnsgd1na2vs0mg"},{"bike_id":"7aff3646-ffff-47d3-aafa-f59f991f3b70","system_id":"levelo_inurba_marseille","lat":43.29265,"lon":5.40903,"is_reserved":false,"is_disabled":false,"rental_uris":{"android":"levelo://app?vid=7aff3646-ffff-47d3-aafa-f59f991f3b70","ios":"levelo://app?vid=7aff3646-ffff-47d3-aafa-f59f991f3b70"},"vehicle_type_id":"4","last_reported":1783359586,"current_range_meters":4000,"station_id":"ce4bh192rcd13ifvqdc0","pricing_plan_id":"cebpf4jnsgd1na2vs0mg"},{"bike_id":"138e49e7-8d22-4832-895c-d97d918d2d72","system_id":"levelo_inurba_marseille","lat":43.27826,"lon":5.3644,"is_reserved":false,"is_disabled":false,"rental_uris":{"android":"levelo://app?vid=138e49e7-8d22-4832-895c-d97d918d2d72","ios":"levelo://app?vid=138e49e7-8d22-4832-895c-d97d918d2d72"},"vehicle_type_id":"4","last_reported":1783359586,"current_range_meters":4000,"station_id":"","pricing_plan_id":"cebpf4jnsgd1na2vs0mg"},{"bike_id":"2e4959a6-fc89-4360-b955-0bc9a7454a94","system_id":"levelo_inurba_marseille","lat":43.28639,"lon":5.35137,"is_reserved":false,"is_disabled":false,"rental_uris":{"android":"levelo://app?vid=2e4959a6-fc89-4360-b955-0bc9a7454a94","ios":"levelo://app?vid=2e4959a6-fc89-4360-b955-0bc9a7454a94"},"vehicle_type_id":"4","last_reported":1783359586,"current_range_meters":4000,"station_id":"ce4bhch2rcd13ifvqeug","pricing_plan_id":"cebpf4jnsgd1na2vs0mg"},{"bike_id":"2cb09a29-a4dc-4e55-957c-7e362cba29e5","system_id":"levelo_inurba_marseille","lat":43.29279,"lon":5.40136,"is_reserved":false,"is_disabled":false,"rental_uris":{"android":"levelo://app?vid=2cb09a29-a4dc-4e55-957c-7e362cba29e5","ios":"levelo://app?vid=2cb09a29-a4dc-4e55-957c-7e362cba29e5"},"vehicle_type_id":"4","last_reported":1783359586,"current_range_meters":4000,"station_id":"ce4bh312rcd13ifvqdk0","pricing_plan_id":"cebpf4jnsgd1na2vs0mg"},{"bike_id":"5c6aeaaf-e486-4cfd-b9da-9f6cc96a4893","system_id":"levelo_inurba_marseille","lat":43.29806,"lon":5.4039,"is_reserved":false,"is_disabled":false,"rental_uris":{"android":"levelo://app?vid=5c6aeaaf-e486-4cfd-b9da-9f6cc96a4893","ios":"levelo://app?vid=5c6aeaaf-e486-4cfd-b9da-9f6cc96a4893"},"vehicle_type_id":"4","last_reported":1783359586,"current_range_meters":4000,"station_id":"ce4bh112rcd13ifvqd90","pricing_plan_id":"cebpf4jnsgd1na2vs0mg"},{"bike_id":"c683f3d7-df5e-4cb1-9ced-504cc61a7b85","system_id":"levelo_inurba_marseille","lat":43.29276,"lon":5.36048,"is_reserved":false,"is_disabled":false,"rental_uris":{"android":"levelo://app?vid=c683f3d7-df5e-4cb1-9ced-504cc61a7b85","ios":"levelo://app?vid=c683f3d7-df5e-4cb1-9ced-504cc61a7b85"},"vehicle_type_id":"4","last_reported":1783359586,"current_range_meters":4000,"station_id":"","pricing_plan_id":"cebpf4jnsgd1na2vs0mg"},{"bike_id":"4d52a61b-5c30-41df-a6ac-71b42f016aed","system_id":"levelo_inurba_marseille","lat":43.25857,"lon":5.39884,"is_reserved":false,"is_disabled":true,"rental_uris":{"android":"levelo://app?vid=4d52a61b-5c30-41df-a6ac-71b42f016aed","ios":"levelo://app?vid=4d52a61b-5c30-41df-a6ac-71b42f016aed"},"vehicle_type_id":"4","last_reported":1783359586,"current_range_meters":4000,"station_id":"ce4bhl92rcd13ifvqghg","pricing_plan_id":"cebpf4jnsgd1na2vs0mg"},{"bike_id":"508154ad-8e48-495d-9dd3-2e9c9c8319a5","system_id":"levelo_inurba_marseille","lat":43.26929,"lon":5.38933,"is_reserved":false,"is_disabled":false,"rental_uris":{"android":"levelo://app?vid=508154ad-8e48-495d-9dd3-2e9c9c8319a5","ios":"levelo://app?vid=508154ad-8e48-495d-9dd3-2e9c9c8319a5"},"vehicle_type_id":"4","last_reported":1783359586,"current_range_meters":4000,"station_id":"ce4bhhh2rcd13ifvqfl0","pricing_plan_id":"cebpf4jnsgd1na2vs0mg"},{"bike_id":"ebb69cdb-f57c-486a-9d37-3814132e26e5","system_id":"levelo_inurba_marseille","lat":43.28038,"lon":5.36945,"is_reserved":false,"is_disabled":true,"rental_uris":{"android":"levelo://app?vid=ebb69cdb-f57c-486a-9d37-3814132e26e5","ios":"levelo://app?vid=ebb69cdb-f57c-486a-9d37-3814132e26e5"},"vehicle_type_id":"4","last_reported":1783359586,"current_range_meters":4000,"station_id":"ce4bha12rcd13ifvqef0","pricing_plan_id":"cebpf4jnsgd1na2vs0mg"},{"bike_id":"2cef1dc7-5b3d-4157-b09a-b480195577ea","system_id":"levelo_inurba_marseille","lat":43.25494,"lon":5.37658,"is_reserved":false,"is_disabled":false,"rental_uris":{"android":"levelo://app?vid=2cef1dc7-5b3d-4157-b09a-b480195577ea","ios":"levelo://app?vid=2cef1dc7-5b3d-4157-b09a-b480195577ea"},"vehicle_type_id":"4","last_reported":1783359586,"current_range_meters":4000,"station_id":"ce4bhh12rcd13ifvqff0","pricing_plan_id":"cebpf4jnsgd1na2vs0mg"},{"bike_id":"49ab2764-f571-4f43-8b96-23d3b0325d1b","system_id":"levelo_inurba_marseille","lat":43.25377,"lon":5.38203,"is_reserved":false,"is_disabled":false,"rental_uris":{"android":"levelo://app?vid=49ab2764-f571-4f43-8b96-23d3b0325d1b","ios":"levelo://app?vid=49ab2764-f571-4f43-8b96-23d3b0325d1b"},"vehicle_type_id":"4","last_reported":1783359586,"current_range_meters":4000,"station_id":"","pricing_plan_id":"cebpf4jnsgd1na2vs0mg"},{"bike_id":"2361af77-a100-433a-ae8c-fac4e1ee0b95","system_id":"levelo_inurba_marseille","lat":43.23043,"lon":5.35477,"is_reserved":false,"is_disabled":false,"rental_uris":{"android":"levelo://app?vid=2361af77-a100-433a-ae8c-fac4e1ee0b95","ios":"levelo://app?vid=2361af77-a100-433a-ae8c-fac4e1ee0b95"},"vehicle_type_id":"4","last_reported":1783359586,"current_range_meters":4000,"station_id":"cpo3342slgdg3j2ifvpg","pricing_plan_id":"cebpf4jnsgd1na2vs0mg"},{"bike_id":"6f7a01a8-ee4c-4eed-b676-8bb956e41341","system_id":"levelo_inurba_marseille","lat":43.28986,"lon":5.42469,"is_reserved":false,"is_disabled":false,"rental_uris":{"android":"levelo://app?vid=6f7a01a8-ee4c-4eed-b676-8bb956e41341","ios":"levelo://app?vid=6f7a01a8-ee4c-4eed-b676-8bb956e41341"},"vehicle_type_id":"4","last_reported":1783359586,"current_range_meters":4000,"station_id":"","pricing_plan_id":"cebpf4jnsgd1na2vs0mg"},{"bike_id":"686baeda-18db-42e6-b55e-d546ab032469","system_id":"levelo_inurba_marseille","lat":43.29208,"lon":5.3561,"is_reserved":false,"is_disabled":false,"rental_uris":{"android":"levelo://app?vid=686baeda-18db-42e6-b55e-d546ab032469","ios":"levelo://app?vid=686baeda-18db-42e6-b55e-d546ab032469"},"vehicle_type_id":"4","last_reported":1783359586,"current_range_meters":4000,"station_id":"","pricing_plan_id":"cebpf4jnsgd1na2vs0mg"},{"bike_id":"fc5d7b22-bed1-4640-a4b2-9379b1406486","system_id":"levelo_inurba_marseille","lat":43.29422,"lon":5.38453,"is_reserved":false,"is_disabled":true,"rental_uris":{"android":"levelo://app?vid=fc5d7b22-bed1-4640-a4b2-9379b1406486","ios":"levelo://app?vid=fc5d7b22-bed1-4640-a4b2-9379b1406486"},"vehicle_type_id":"4","last_reported":1783359586,"current_range_meters":4000,"station_id":"","pricing_plan_id":"cebpf4jnsgd1na2vs0mg"},{"bike_id":"c1c88b11-92f5-437b-85af-b745aa920b32","system_id":"levelo_inurba_marseille","lat":43.2669,"lon":5.38734,"is_reserved":false,"is_disabled":false,"rental_uris":{"android":"levelo://app?vid=c1c88b11-92f5-437b-85af-b745aa920b32","ios":"levelo://app?vid=c1c88b11-92f5-437b-85af-b745aa920b32"},"vehicle_type_id":"4","last_reported":1783359586,"current_range_meters":4000,"station_id":"","pricing_plan_id":"cebpf4jnsgd1na2vs0mg"},{"bike_id":"3e6c6bce-5072-4983-bf29-cb65bad52ecf","system_id":"levelo_inurba_marseille","lat":43.28147,"lon":5.42617,"is_reserved":false,"is_disabled":false,"rental_uris":{"android":"levelo://app?vid=3e6c6bce-5072-4983-bf29-cb65bad52ecf","ios":"levelo://app?vid=3e6c6bce-5072-4983-bf29-cb65bad52ecf"},"vehicle_type_id":"4","last_reported":1783359586,"current_range_meters":4400,"station_id":"ce4bhnh2rcd13ifvqgug","pricing_plan_id":"cebpf4jnsgd1na2vs0mg"},{"bike_id":"ab416978-fb3f-4e57-9a5a-45383b1e1beb","system_id":"levelo_inurba_marseille","lat":43.29258,"lon":5.37622,"is_reserved":false,"is_disabled":false,"rental_uris":{"android":"levelo://app?vid=ab416978-fb3f-4e57-9a5a-45383b1e1beb","ios":"levelo://app?vid=ab416978-fb3f-4e57-9a5a-45383b1e1beb"},"vehicle_type_id":"4","last_reported":1783359586,"current_range_meters":4400,"station_id":"ce4bgi12rcd13ifvqb80","pricing_plan_id":"cebpf4jnsgd1na2vs0mg"},{"bike_id":"6091b5c7-4ac2-48cb-b106-b7892f1444e6","system_id":"levelo_inurba_marseille","lat":43.28936,"lon":5.36624,"is_reserved":false,"is_disabled":false,"rental_uris":{"android":"levelo://app?vid=6091b5c7-4ac2-48cb-b106-b7892f1444e6","ios":"levelo://app?vid=6091b5c7-4ac2-48cb-b106-b7892f1444e6"},"vehicle_type_id":"4","last_reported":1783359586,"current_range_meters":4400,"station_id":"ce4bhap2rcd13ifvqek0","pricing_plan_id":"cebpf4jnsgd1na2vs0mg"},{"bike_id":"a2238232-ecc5-4a44-96b8-2d39280769c6","system_id":"levelo_inurba_marseille","lat":43.28414,"lon":5.3498,"is_reserved":false,"is_disabled":false,"rental_uris":{"android":"levelo://app?vid=a2238232-ecc5-4a44-96b8-2d39280769c6","ios":"levelo://app?vid=a2238232-ecc5-4a44-96b8-2d39280769c6"},"vehicle_type_id":"4","last_reported":1783359586,"current_range_meters":4400,"station_id":"ce4bhbh2rcd13ifvqepg","pricing_plan_id":"cebpf4jnsgd1na2vs0mg"},{"bike_id":"85375d55-e0d1-447d-809b-18247820754d","system_id":"levelo_inurba_marseille","lat":43.28913,"lon":5.48164,"is_reserved":false,"is_disabled":false,"rental_uris":{"android":"levelo://app?vid=85375d55-e0d1-447d-809b-18247820754d","ios":"levelo://app?vid=85375d55-e0d1-447d-809b-18247820754d"},"vehicle_type_id":"4","last_reported":1783359586,"current_range_meters":4400,"station_id":"","pricing_plan_id":"cebpf4jnsgd1na2vs0mg"},{"bike_id":"db8a891d-01a8-477c-86bb-61f9ddbc2ad3","system_id":"levelo_inurba_marseille","lat":43.24945,"lon":5.40501,"is_reserved":false,"is_disabled":false,"rental_uris":{"android":"levelo://app?vid=db8a891d-01a8-477c-86bb-61f9ddbc2ad3","ios":"levelo://app?vid=db8a891d-01a8-477c-86bb-61f9ddbc2ad3"},"vehicle_type_id":"4","last_reported":1783359586,"current_range_meters":4400,"station_id":"st_d2ngiaodas8pm72gd1h0","pricing_plan_id":"cebpf4jnsgd1na2vs0mg"},{"bike_id":"d5a4aa2d-cb43-47d6-af76-dda19b880491","system_id":"levelo_inurba_marseille","lat":43.2849,"lon":5.48398,"is_reserved":false,"is_disabled":false,"rental_uris":{"android":"levelo://app?vid=d5a4aa2d-cb43-47d6-af76-dda19b880491","ios":"levelo://app?vid=d5a4aa2d-cb43-47d6-af76-dda19b880491"},"vehicle_type_id":"4","last_reported":1783359586,"current_range_meters":4400,"station_id":"st_d3svhcjqgbts73a3dn0g","pricing_plan_id":"cebpf4jnsgd1na2vs0mg"},{"bike_id":"24101c5c-8eb7-4f51-a037-e1fbe9f469c5","system_id":"levelo_inurba_marseille","lat":43.25012,"lon":5.37971,"is_reserved":false,"is_disabled":false,"rental_uris":{"android":"levelo://app?vid=24101c5c-8eb7-4f51-a037-e1fbe9f469c5","ios":"levelo://app?vid=24101c5c-8eb7-4f51-a037-e1fbe9f469c5"},"vehicle_type_id":"4","last_reported":1783359586,"current_range_meters":4400,"station_id":"","pricing_plan_id":"cebpf4jnsgd1na2vs0mg"},{"bike_id":"c459aa6d-e285-4811-b29f-53e5e6325c03","system_id":"levelo_inurba_marseille","lat":43.25327,"lon":5.42155,"is_reserved":false,"is_disabled":false,"rental_uris":{"android":"levelo://app?vid=c459aa6d-e285-4811-b29f-53e5e6325c03","ios":"levelo://app?vid=c459aa6d-e285-4811-b29f-53e5e6325c03"},"vehicle_type_id":"4","last_reported":1783359586,"current_range_meters":4400,"station_id":"st_d2m65c5bi1j21697t3ng","pricing_plan_id":"cebpf4jnsgd1na2vs0mg"},{"bike_id":"0f4bf674-ba98-4482-b60d-334334901c34","system_id":"levelo_inurba_marseille","lat":43.33152,"lon":5.37689,"is_reserved":false,"is_disabled":false,"rental_uris":{"android":"levelo://app?vid=0f4bf674-ba98-4482-b60d-334334901c34","ios":"levelo://app?vid=0f4bf674-ba98-4482-b60d-334334901c34"},"vehicle_type_id":"4","last_reported":1783359586,"current_range_meters":4400,"station_id":"st_d46cu089ee8s73dldbu0","pricing_plan_id":"cebpf4jnsgd1na2vs0mg"},{"bike_id":"66296cca-1fb1-4026-b28e-9962b7dd7cfc","system_id":"levelo_inurba_marseille","lat":43.296288,"lon":5.377172,"is_reserved":false,"is_disabled":true,"rental_uris":{"android":"levelo://app?vid=66296cca-1fb1-4026-b28e-9962b7dd7cfc","ios":"levelo://app?vid=66296cca-1fb1-4026-b28e-9962b7dd7cfc"},"vehicle_type_id":"4","last_reported":1783359586,"current_range_meters":4400,"station_id":"ce4bha92rcd13ifvqeh0","pricing_plan_id":"cebpf4jnsgd1na2vs0mg"},{"bike_id":"87da481c-7e44-49ce-9617-64ee4bd27ca4","system_id":"levelo_inurba_marseille","lat":43.2642,"lon":5.3989,"is_reserved":false,"is_disabled":false,"rental_uris":{"android":"levelo://app?vid=87da481c-7e44-49ce-9617-64ee4bd27ca4","ios":"levelo://app?vid=87da481c-7e44-49ce-9617-64ee4bd27ca4"},"vehicle_type_id":"4","last_reported":1783359586,"current_range_meters":4400,"station_id":"","pricing_plan_id":"cebpf4jnsgd1na2vs0mg"},{"bike_id":"2c0c0ee8-78c6-4132-a1db-79ee949d5987","system_id":"levelo_inurba_marseille","lat":43.29519,"lon":5.39388,"is_reserved":false,"is_disabled":false,"rental_uris":{"android":"levelo://app?vid=2c0c0ee8-78c6-4132-a1db-79ee949d5987","ios":"levelo://app?vid=2c0c0ee8-78c6-4132-a1db-79ee949d5987"},"vehicle_type_id":"4","last_reported":1783359586,"current_range_meters":4400,"station_id":"ce4bh292rcd13ifvqdf0","pricing_plan_id":"cebpf4jnsgd1na2vs0mg"},{"bike_id":"b5100dca-105d-40f9-8680-6f3c00f8e68b","system_id":"levelo_inurba_marseille","lat":43.29993,"lon":5.38493,"is_reserved":false,"is_disabled":true,"rental_uris":{"android":"levelo://app?vid=b5100dca-105d-40f9-8680-6f3c00f8e68b","ios":"levelo://app?vid=b5100dca-105d-40f9-8680-6f3c00f8e68b"},"vehicle_type_id":"4","last_reported":1783359586,"current_range_meters":4800,"station_id":"ce4bgj92rcd13ifvqbd0","pricing_plan_id":"cebpf4jnsgd1na2vs0mg"},{"bike_id":"6561da10-7a09-4fd9-b043-45bdb7ded2ef","system_id":"levelo_inurba_marseille","lat":43.2513,"lon":5.40304,"is_reserved":false,"is_disabled":true,"rental_uris":{"android":"levelo://app?vid=6561da10-7a09-4fd9-b043-45bdb7ded2ef","ios":"levelo://app?vid=6561da10-7a09-4fd9-b043-45bdb7ded2ef"},"vehicle_type_id":"4","last_reported":1783359586,"current_range_meters":4800,"station_id":"ce4bhlh2rcd13ifvqgig","pricing_plan_id":"cebpf4jnsgd1na2vs0mg"},{"bike_id":"c3d94bf3-19b7-443d-bc75-2bac8eb17cbe","system_id":"levelo_inurba_marseille","lat":43.33162,"lon":5.39873,"is_reserved":false,"is_disabled":false,"rental_uris":{"android":"levelo://app?vid=c3d94bf3-19b7-443d-bc75-2bac8eb17cbe","ios":"levelo://app?vid=c3d94bf3-19b7-443d-bc75-2bac8eb17cbe"},"vehicle_type_id":"4","last_reported":1783359586,"current_range_meters":4800,"station_id":"","pricing_plan_id":"cebpf4jnsgd1na2vs0mg"},{"bike_id":"aa5d8214-0026-487e-9a56-7cf88ff50400","system_id":"levelo_inurba_marseille","lat":43.32288,"lon":5.38271,"is_reserved":false,"is_disabled":false,"rental_uris":{"android":"levelo://app?vid=aa5d8214-0026-487e-9a56-7cf88ff50400","ios":"levelo://app?vid=aa5d8214-0026-487e-9a56-7cf88ff50400"},"vehicle_type_id":"4","last_reported":1783359586,"current_range_meters":4800,"station_id":"ce4bhr12rcd13ifvqhqg","pricing_plan_id":"cebpf4jnsgd1na2vs0mg"},{"bike_id":"6a31abe7-2c0a-4993-88f5-abbcf8e602e4","system_id":"levelo_inurba_marseille","lat":43.26574,"lon":5.38998,"is_reserved":false,"is_disabled":false,"rental_uris":{"android":"levelo://app?vid=6a31abe7-2c0a-4993-88f5-abbcf8e602e4","ios":"levelo://app?vid=6a31abe7-2c0a-4993-88f5-abbcf8e602e4"},"vehicle_type_id":"4","last_reported":1783359586,"current_range_meters":4800,"station_id":"ce4bhe12rcd13ifvqf30","pricing_plan_id":"cebpf4jnsgd1na2vs0mg"},{"bike_id":"e85b927b-b99f-4cd1-b380-85d2c5279eef","system_id":"levelo_inurba_marseille","lat":43.29267,"lon":5.38444,"is_reserved":false,"is_disabled":false,"rental_uris":{"android":"levelo://app?vid=e85b927b-b99f-4cd1-b380-85d2c5279eef","ios":"levelo://app?vid=e85b927b-b99f-4cd1-b380-85d2c5279eef"},"vehicle_type_id":"4","last_reported":1783359586,"current_range_meters":4800,"station_id":"ce4bh692rcd13ifvqea0","pricing_plan_id":"cebpf4jnsgd1na2vs0mg"},{"bike_id":"20caa1fc-06d5-4252-9f45-594b25108b35","system_id":"levelo_inurba_marseille","lat":43.28494,"lon":5.48386,"is_reserved":false,"is_disabled":false,"rental_uris":{"android":"levelo://app?vid=20caa1fc-06d5-4252-9f45-594b25108b35","ios":"levelo://app?vid=20caa1fc-06d5-4252-9f45-594b25108b35"},"vehicle_type_id":"4","last_reported":1783359586,"current_range_meters":4800,"station_id":"st_d3svhcjqgbts73a3dn0g","pricing_plan_id":"cebpf4jnsgd1na2vs0mg"},{"bike_id":"c24b0d68-14d9-44af-8b0c-35f8569c6d0c","system_id":"levelo_inurba_marseille","lat":43.28476,"lon":5.38519,"is_reserved":false,"is_disabled":true,"rental_uris":{"android":"levelo://app?vid=c24b0d68-14d9-44af-8b0c-35f8569c6d0c","ios":"levelo://app?vid=c24b0d68-14d9-44af-8b0c-35f8569c6d0c"},"vehicle_type_id":"4","last_reported":1783359586,"current_range_meters":4800,"station_id":"ce4bh8p2rcd13ifvqeb0","pricing_plan_id":"cebpf4jnsgd1na2vs0mg"},{"bike_id":"20b8f7cb-b31a-4b46-a59f-6f1ab526c68c","system_id":"levelo_inurba_marseille","lat":43.3064,"lon":5.40091,"is_reserved":false,"is_disabled":false,"rental_uris":{"android":"levelo://app?vid=20b8f7cb-b31a-4b46-a59f-6f1ab526c68c","ios":"levelo://app?vid=20b8f7cb-b31a-4b46-a59f-6f1ab526c68c"},"vehicle_type_id":"4","last_reported":1783359586,"current_range_meters":4800,"station_id":"ce4bh112rcd13ifvqda0","pricing_plan_id":"cebpf4jnsgd1na2vs0mg"},{"bike_id":"d0a0bbf6-38fc-4522-9194-0862de6eee0c","system_id":"levelo_inurba_marseille","lat":43.29373,"lon":5.37861,"is_reserved":false,"is_disabled":false,"rental_uris":{"android":"levelo://app?vid=d0a0bbf6-38fc-4522-9194-0862de6eee0c","ios":"levelo://app?vid=d0a0bbf6-38fc-4522-9194-0862de6eee0c"},"vehicle_type_id":"4","last_reported":1783359586,"current_range_meters":4800,"station_id":"ce4bgjh2rcd13ifvqbf0","pricing_plan_id":"cebpf4jnsgd1na2vs0mg"},{"bike_id":"68f15f16-03e7-4500-a627-dad23dd9e9de","system_id":"levelo_inurba_marseille","lat":43.26077,"lon":5.37509,"is_reserved":false,"is_disabled":false,"rental_uris":{"android":"levelo://app?vid=68f15f16-03e7-4500-a627-dad23dd9e9de","ios":"levelo://app?vid=68f15f16-03e7-4500-a627-dad23dd9e9de"},"vehicle_type_id":"4","last_reported":1783359586,"current_range_meters":4800,"station_id":"","pricing_plan_id":"cebpf4jnsgd1na2vs0mg"},{"bike_id":"ca05d033-e8a4-47cd-a69a-1947232441bc","system_id":"levelo_inurba_marseille","lat":43.25504,"lon":5.37661,"is_reserved":false,"is_disabled":false,"rental_uris":{"android":"levelo://app?vid=ca05d033-e8a4-47cd-a69a-1947232441bc","ios":"levelo://app?vid=ca05d033-e8a4-47cd-a69a-1947232441bc"},"vehicle_type_id":"4","last_reported":1783359586,"current_range_meters":4800,"station_id":"ce4bhh12rcd13ifvqff0","pricing_plan_id":"cebpf4jnsgd1na2vs0mg"},{"bike_id":"27599d7b-2ad9-4c37-8cf4-3c734955ccba","system_id":"levelo_inurba_marseille","lat":43.30321,"lon":5.40436,"is_reserved":false,"is_disabled":false,"rental_uris":{"android":"levelo://app?vid=27599d7b-2ad9-4c37-8cf4-3c734955ccba","ios":"levelo://app?vid=27599d7b-2ad9-4c37-8cf4-3c734955ccba"},"vehicle_type_id":"4","last_reported":1783359586,"current_range_meters":4800,"station_id":"ce4bh012rcd13ifvqd10","pricing_plan_id":"cebpf4jnsgd1na2vs0mg"},{"bike_id":"7c427d21-5ba3-47e9-b621-2ca7d29df3d2","system_id":"levelo_inurba_marseille","lat":43.28422,"lon":5.43536,"is_reserved":false,"is_disabled":false,"rental_uris":{"android":"levelo://app?vid=7c427d21-5ba3-47e9-b621-2ca7d29df3d2","ios":"levelo://app?vid=7c427d21-5ba3-47e9-b621-2ca7d29df3d2"},"vehicle_type_id":"4","last_reported":1783359586,"current_range_meters":4800,"station_id":"","pricing_plan_id":"cebpf4jnsgd1na2vs0mg"},{"bike_id":"268860b7-a6e7-4b6e-a857-94d1ec5f8071","system_id":"levelo_inurba_marseille","lat":43.29192,"lon":5.35803,"is_reserved":false,"is_disabled":true,"rental_uris":{"android":"levelo://app?vid=268860b7-a6e7-4b6e-a857-94d1ec5f8071","ios":"levelo://app?vid=268860b7-a6e7-4b6e-a857-94d1ec5f8071"},"vehicle_type_id":"4","last_reported":1783359586,"current_range_meters":5600,"station_id":"ce4bhb12rcd13ifvqel0","pricing_plan_id":"cebpf4jnsgd1na2vs0mg"},{"bike_id":"fb2e8bd1-8803-4d96-b5e9-5618c029fbea","system_id":"levelo_inurba_marseille","lat":43.28705,"lon":5.37951,"is_reserved":false,"is_disabled":true,"rental_uris":{"android":"levelo://app?vid=fb2e8bd1-8803-4d96-b5e9-5618c029fbea","ios":"levelo://app?vid=fb2e8bd1-8803-4d96-b5e9-5618c029fbea"},"vehicle_type_id":"4","last_reported":1783359586,"current_range_meters":5600,"station_id":"ce4bh9p2rcd13ifvqec0","pricing_plan_id":"cebpf4jnsgd1na2vs0mg"},{"bike_id":"fff6250b-43c6-49a4-86df-1a4ad13c407f","system_id":"levelo_inurba_marseille","lat":43.27361,"lon":5.36228,"is_reserved":false,"is_disabled":true,"rental_uris":{"android":"levelo://app?vid=fff6250b-43c6-49a4-86df-1a4ad13c407f","ios":"levelo://app?vid=fff6250b-43c6-49a4-86df-1a4ad13c407f"},"vehicle_type_id":"4","last_reported":1783359586,"current_range_meters":5600,"station_id":"ce4bhbh2rcd13ifvqeo0","pricing_plan_id":"cebpf4jnsgd1na2vs0mg"},{"bike_id":"5f8491b7-6afe-4763-8c6d-f7eadff0e4de","system_id":"levelo_inurba_marseille","lat":43.26503,"lon":5.36946,"is_reserved":false,"is_disabled":true,"rental_uris":{"android":"levelo://app?vid=5f8491b7-6afe-4763-8c6d-f7eadff0e4de","ios":"levelo://app?vid=5f8491b7-6afe-4763-8c6d-f7eadff0e4de"},"vehicle_type_id":"4","last_reported":1783359586,"current_range_meters":5600,"station_id":"","pricing_plan_id":"cebpf4jnsgd1na2vs0mg"},{"bike_id":"c223056a-cee4-44b0-b411-9e874d6d5516","system_id":"levelo_inurba_marseille","lat":43.29487,"lon":5.399,"is_reserved":false,"is_disabled":false,"rental_uris":{"android":"levelo://app?vid=c223056a-cee4-44b0-b411-9e874d6d5516","ios":"levelo://app?vid=c223056a-cee4-44b0-b411-9e874d6d5516"},"vehicle_type_id":"4","last_reported":1783359586,"current_range_meters":5600,"station_id":"","pricing_plan_id":"cebpf4jnsgd1na2vs0mg"},{"bike_id":"1b3387d5-b042-4c75-9dea-b2f5bf6f53d4","system_id":"levelo_inurba_marseille","lat":43.2418,"lon":5.39672,"is_reserved":false,"is_disabled":true,"rental_uris":{"android":"levelo://app?vid=1b3387d5-b042-4c75-9dea-b2f5bf6f53d4","ios":"levelo://app?vid=1b3387d5-b042-4c75-9dea-b2f5bf6f53d4"},"vehicle_type_id":"4","last_reported":1783359586,"current_range_meters":5600,"station_id":"ce4bhn12rcd13ifvqgpg","pricing_plan_id":"cebpf4jnsgd1na2vs0mg"},{"bike_id":"e9c7bfa8-5874-4f90-ad84-6bece76dfa23","system_id":"levelo_inurba_marseille","lat":43.29431,"lon":5.35937,"is_reserved":false,"is_disabled":false,"rental_uris":{"android":"levelo://app?vid=e9c7bfa8-5874-4f90-ad84-6bece76dfa23","ios":"levelo://app?vid=e9c7bfa8-5874-4f90-ad84-6bece76dfa23"},"vehicle_type_id":"4","last_reported":1783359586,"current_range_meters":5600,"station_id":"","pricing_plan_id":"cebpf4jnsgd1na2vs0mg"},{"bike_id":"61a7052a-8e6e-4b7a-8fc2-57f125aa9c4b","system_id":"levelo_inurba_marseille","lat":43.29798,"lon":5.40397,"is_reserved":false,"is_disabled":false,"rental_uris":{"android":"levelo://app?vid=61a7052a-8e6e-4b7a-8fc2-57f125aa9c4b","ios":"levelo://app?vid=61a7052a-8e6e-4b7a-8fc2-57f125aa9c4b"},"vehicle_type_id":"4","last_reported":1783359586,"current_range_meters":5600,"station_id":"ce4bh112rcd13ifvqd90","pricing_plan_id":"cebpf4jnsgd1na2vs0mg"},{"bike_id":"d2974c90-490a-4ce0-82b2-9802a308be0c","system_id":"levelo_inurba_marseille","lat":43.2872,"lon":5.39996,"is_reserved":false,"is_disabled":true,"rental_uris":{"android":"levelo://app?vid=d2974c90-490a-4ce0-82b2-9802a308be0c","ios":"levelo://app?vid=d2974c90-490a-4ce0-82b2-9802a308be0c"},"vehicle_type_id":"4","last_reported":1783359586,"current_range_meters":5600,"station_id":"ce4bho92rcd13ifvqh3g","pricing_plan_id":"cebpf4jnsgd1na2vs0mg"},{"bike_id":"a7142871-83dd-4d8f-9378-c8b062aa5649","system_id":"levelo_inurba_marseille","lat":43.284117,"lon":5.349849,"is_reserved":false,"is_disabled":false,"rental_uris":{"android":"levelo://app?vid=a7142871-83dd-4d8f-9378-c8b062aa5649","ios":"levelo://app?vid=a7142871-83dd-4d8f-9378-c8b062aa5649"},"vehicle_type_id":"4","last_reported":1783359586,"current_range_meters":5600,"station_id":"ce4bhbh2rcd13ifvqepg","pricing_plan_id":"cebpf4jnsgd1na2vs0mg"},{"bike_id":"cda13687-f4e2-44af-a024-4fc8d54510c1","system_id":"levelo_inurba_marseille","lat":43.28403,"lon":5.34976,"is_reserved":false,"is_disabled":false,"rental_uris":{"android":"levelo://app?vid=cda13687-f4e2-44af-a024-4fc8d54510c1","ios":"levelo://app?vid=cda13687-f4e2-44af-a024-4fc8d54510c1"},"vehicle_type_id":"4","last_reported":1783359586,"current_range_meters":5600,"station_id":"ce4bhbh2rcd13ifvqepg","pricing_plan_id":"cebpf4jnsgd1na2vs0mg"},{"bike_id":"da2044da-f636-41ba-872b-6d7516f1525f","system_id":"levelo_inurba_marseille","lat":43.30141,"lon":5.38798,"is_reserved":false,"is_disabled":false,"rental_uris":{"android":"levelo://app?vid=da2044da-f636-41ba-872b-6d7516f1525f","ios":"levelo://app?vid=da2044da-f636-41ba-872b-6d7516f1525f"},"vehicle_type_id":"4","last_reported":1783359586,"current_range_meters":5600,"station_id":"ce4bghh2rcd13ifvqb60","pricing_plan_id":"cebpf4jnsgd1na2vs0mg"},{"bike_id":"a2327749-5094-48cb-8a0f-52c7de8de03a","system_id":"levelo_inurba_marseille","lat":43.28686,"lon":5.46639,"is_reserved":false,"is_disabled":false,"rental_uris":{"android":"levelo://app?vid=a2327749-5094-48cb-8a0f-52c7de8de03a","ios":"levelo://app?vid=a2327749-5094-48cb-8a0f-52c7de8de03a"},"vehicle_type_id":"4","last_reported":1783359586,"current_range_meters":5600,"station_id":"st_d6tc3vkotcvc738tfjhg","pricing_plan_id":"cebpf4jnsgd1na2vs0mg"},{"bike_id":"927f034a-0960-4153-81f1-316c469b9213","system_id":"levelo_inurba_marseille","lat":43.25866,"lon":5.39907,"is_reserved":false,"is_disabled":true,"rental_uris":{"android":"levelo://app?vid=927f034a-0960-4153-81f1-316c469b9213","ios":"levelo://app?vid=927f034a-0960-4153-81f1-316c469b9213"},"vehicle_type_id":"4","last_reported":1783359586,"current_range_meters":5600,"station_id":"ce4bhl92rcd13ifvqghg","pricing_plan_id":"cebpf4jnsgd1na2vs0mg"},{"bike_id":"6bfe61ca-c451-4335-9d1a-d4d222fdac70","system_id":"levelo_inurba_marseille","lat":43.26555,"lon":5.37282,"is_reserved":false,"is_disabled":false,"rental_uris":{"android":"levelo://app?vid=6bfe61ca-c451-4335-9d1a-d4d222fdac70","ios":"levelo://app?vid=6bfe61ca-c451-4335-9d1a-d4d222fdac70"},"vehicle_type_id":"4","last_reported":1783359586,"current_range_meters":5600,"station_id":"ce4bhg12rcd13ifvqf70","pricing_plan_id":"cebpf4jnsgd1na2vs0mg"},{"bike_id":"e13a64ad-fa2f-4c2f-81b0-7fcb824df2f9","system_id":"levelo_inurba_marseille","lat":43.23965,"lon":5.36634,"is_reserved":false,"is_disabled":false,"rental_uris":{"android":"levelo://app?vid=e13a64ad-fa2f-4c2f-81b0-7fcb824df2f9","ios":"levelo://app?vid=e13a64ad-fa2f-4c2f-81b0-7fcb824df2f9"},"vehicle_type_id":"4","last_reported":1783359586,"current_range_meters":5600,"station_id":"ce4bhi12rcd13ifvqfp0","pricing_plan_id":"cebpf4jnsgd1na2vs0mg"},{"bike_id":"8c57733d-66ab-4a37-b38a-0e5fffb96961","system_id":"levelo_inurba_marseille","lat":43.29226,"lon":5.36047,"is_reserved":false,"is_disabled":false,"rental_uris":{"android":"levelo://app?vid=8c57733d-66ab-4a37-b38a-0e5fffb96961","ios":"levelo://app?vid=8c57733d-66ab-4a37-b38a-0e5fffb96961"},"vehicle_type_id":"4","last_reported":1783359586,"current_range_meters":5600,"station_id":"ce4bhbh2rcd13ifvqeqg","pricing_plan_id":"cebpf4jnsgd1na2vs0mg"},{"bike_id":"da995ece-b413-4ae7-8af4-b3e727781c7e","system_id":"levelo_inurba_marseille","lat":43.28484,"lon":5.43773,"is_reserved":false,"is_disabled":false,"rental_uris":{"android":"levelo://app?vid=da995ece-b413-4ae7-8af4-b3e727781c7e","ios":"levelo://app?vid=da995ece-b413-4ae7-8af4-b3e727781c7e"},"vehicle_type_id":"4","last_reported":1783359586,"current_range_meters":5600,"station_id":"","pricing_plan_id":"cebpf4jnsgd1na2vs0mg"},{"bike_id":"f0418703-7a27-4dca-9433-bdd8213135dc","system_id":"levelo_inurba_marseille","lat":43.21202,"lon":5.35065,"is_reserved":false,"is_disabled":false,"rental_uris":{"android":"levelo://app?vid=f0418703-7a27-4dca-9433-bdd8213135dc","ios":"levelo://app?vid=f0418703-7a27-4dca-9433-bdd8213135dc"},"vehicle_type_id":"4","last_reported":1783359586,"current_range_meters":6000,"station_id":"st_cvj6sg6p6f1abm77japg","pricing_plan_id":"cebpf4jnsgd1na2vs0mg"},{"bike_id":"85706f81-4982-4276-b755-d4181aa895f9","system_id":"levelo_inurba_marseille","lat":43.28407,"lon":5.38456,"is_reserved":false,"is_disabled":false,"rental_uris":{"android":"levelo://app?vid=85706f81-4982-4276-b755-d4181aa895f9","ios":"levelo://app?vid=85706f81-4982-4276-b755-d4181aa895f9"},"vehicle_type_id":"4","last_reported":1783359586,"current_range_meters":6000,"station_id":"","pricing_plan_id":"cebpf4jnsgd1na2vs0mg"},{"bike_id":"6584fea4-3aeb-4646-91eb-6103f8071261","system_id":"levelo_inurba_marseille","lat":43.3109,"lon":5.40045,"is_reserved":false,"is_disabled":false,"rental_uris":{"android":"levelo://app?vid=6584fea4-3aeb-4646-91eb-6103f8071261","ios":"levelo://app?vid=6584fea4-3aeb-4646-91eb-6103f8071261"},"vehicle_type_id":"4","last_reported":1783359586,"current_range_meters":6000,"station_id":"","pricing_plan_id":"cebpf4jnsgd1na2vs0mg"},{"bike_id":"2d9e9e2d-cccf-4312-a40e-d6756ca63ac3","system_id":"levelo_inurba_marseille","lat":43.26225,"lon":5.38771,"is_reserved":false,"is_disabled":false,"rental_uris":{"android":"levelo://app?vid=2d9e9e2d-cccf-4312-a40e-d6756ca63ac3","ios":"levelo://app?vid=2d9e9e2d-cccf-4312-a40e-d6756ca63ac3"},"vehicle_type_id":"4","last_reported":1783359586,"current_range_meters":6000,"station_id":"st_d8gjfg747rts73coq3b0","pricing_plan_id":"cebpf4jnsgd1na2vs0mg"},{"bike_id":"871f3ed7-a4b0-4e09-9105-27dce2165e99","system_id":"levelo_inurba_marseille","lat":43.29873,"lon":5.38896,"is_reserved":false,"is_disabled":true,"rental_uris":{"android":"levelo://app?vid=871f3ed7-a4b0-4e09-9105-27dce2165e99","ios":"levelo://app?vid=871f3ed7-a4b0-4e09-9105-27dce2165e99"},"vehicle_type_id":"4","last_reported":1783359586,"current_range_meters":6000,"station_id":"ce4bh392rcd13ifvqdl0","pricing_plan_id":"cebpf4jnsgd1na2vs0mg"},{"bike_id":"6ea7376e-b06a-4b7c-8852-02f2073b0c1d","system_id":"levelo_inurba_marseille","lat":43.32066,"lon":5.4154,"is_reserved":false,"is_disabled":false,"rental_uris":{"android":"levelo://app?vid=6ea7376e-b06a-4b7c-8852-02f2073b0c1d","ios":"levelo://app?vid=6ea7376e-b06a-4b7c-8852-02f2073b0c1d"},"vehicle_type_id":"4","last_reported":1783359586,"current_range_meters":6000,"station_id":"ce4bhq92rcd13ifvqhkg","pricing_plan_id":"cebpf4jnsgd1na2vs0mg"},{"bike_id":"92a0c0cb-0818-4864-a9ba-8af564118461","system_id":"levelo_inurba_marseille","lat":43.32408,"lon":5.37409,"is_reserved":false,"is_disabled":false,"rental_uris":{"android":"levelo://app?vid=92a0c0cb-0818-4864-a9ba-8af564118461","ios":"levelo://app?vid=92a0c0cb-0818-4864-a9ba-8af564118461"},"vehicle_type_id":"4","last_reported":1783359586,"current_range_meters":6000,"station_id":"","pricing_plan_id":"cebpf4jnsgd1na2vs0mg"},{"bike_id":"108bd70f-62e9-4002-9e5e-6bb29c3d4e15","system_id":"levelo_inurba_marseille","lat":43.24621,"lon":5.38967,"is_reserved":false,"is_disabled":false,"rental_uris":{"android":"levelo://app?vid=108bd70f-62e9-4002-9e5e-6bb29c3d4e15","ios":"levelo://app?vid=108bd70f-62e9-4002-9e5e-6bb29c3d4e15"},"vehicle_type_id":"4","last_reported":1783359586,"current_range_meters":6000,"station_id":"","pricing_plan_id":"cebpf4jnsgd1na2vs0mg"},{"bike_id":"740e3abb-7a97-4df1-905d-538654b5ac19","system_id":"levelo_inurba_marseille","lat":43.30135,"lon":5.38758,"is_reserved":false,"is_disabled":true,"rental_uris":{"android":"levelo://app?vid=740e3abb-7a97-4df1-905d-538654b5ac19","ios":"levelo://app?vid=740e3abb-7a97-4df1-905d-538654b5ac19"},"vehicle_type_id":"4","last_reported":1783359586,"current_range_meters":6000,"station_id":"ce4bghh2rcd13ifvqb60","pricing_plan_id":"cebpf4jnsgd1na2vs0mg"},{"bike_id":"5a5d3956-d379-45a4-b54f-85cf3b677ea4","system_id":"levelo_inurba_marseille","lat":43.292656,"lon":5.384302,"is_reserved":false,"is_disabled":false,"rental_uris":{"android":"levelo://app?vid=5a5d3956-d379-45a4-b54f-85cf3b677ea4","ios":"levelo://app?vid=5a5d3956-d379-45a4-b54f-85cf3b677ea4"},"vehicle_type_id":"4","last_reported":1783359586,"current_range_meters":6000,"station_id":"ce4bh692rcd13ifvqea0","pricing_plan_id":"cebpf4jnsgd1na2vs0mg"},{"bike_id":"60141aa4-c17c-4e74-8a71-55ebecadbc22","system_id":"levelo_inurba_marseille","lat":43.2731,"lon":5.39072,"is_reserved":false,"is_disabled":false,"rental_uris":{"android":"levelo://app?vid=60141aa4-c17c-4e74-8a71-55ebecadbc22","ios":"levelo://app?vid=60141aa4-c17c-4e74-8a71-55ebecadbc22"},"vehicle_type_id":"4","last_reported":1783359586,"current_range_meters":6000,"station_id":"ce4bhgp2rcd13ifvqfe0","pricing_plan_id":"cebpf4jnsgd1na2vs0mg"},{"bike_id":"23427a39-8c19-450f-9658-08c946c4f06b","system_id":"levelo_inurba_marseille","lat":43.28274,"lon":5.35056,"is_reserved":false,"is_disabled":false,"rental_uris":{"android":"levelo://app?vid=23427a39-8c19-450f-9658-08c946c4f06b","ios":"levelo://app?vid=23427a39-8c19-450f-9658-08c946c4f06b"},"vehicle_type_id":"4","last_reported":1783359586,"current_range_meters":6000,"station_id":"ce4bhbp2rcd13ifvqerg","pricing_plan_id":"cebpf4jnsgd1na2vs0mg"},{"bike_id":"14e98b39-b7a8-4608-8aac-1d8635ff8bf5","system_id":"levelo_inurba_marseille","lat":43.28477,"lon":5.48378,"is_reserved":false,"is_disabled":false,"rental_uris":{"android":"levelo://app?vid=14e98b39-b7a8-4608-8aac-1d8635ff8bf5","ios":"levelo://app?vid=14e98b39-b7a8-4608-8aac-1d8635ff8bf5"},"vehicle_type_id":"4","last_reported":1783359586,"current_range_meters":6000,"station_id":"st_d3svhcjqgbts73a3dn0g","pricing_plan_id":"cebpf4jnsgd1na2vs0mg"},{"bike_id":"d6461bcd-0d93-4ae3-86a1-7f588eede429","system_id":"levelo_inurba_marseille","lat":43.291807,"lon":5.355968,"is_reserved":false,"is_disabled":false,"rental_uris":{"android":"levelo://app?vid=d6461bcd-0d93-4ae3-86a1-7f588eede429","ios":"levelo://app?vid=d6461bcd-0d93-4ae3-86a1-7f588eede429"},"vehicle_type_id":"4","last_reported":1783359586,"current_range_meters":6000,"station_id":"ce4bhch2rcd13ifvqeug","pricing_plan_id":"cebpf4jnsgd1na2vs0mg"},{"bike_id":"afe9a566-d8c0-4f06-a183-9935532dd6e0","system_id":"levelo_inurba_marseille","lat":43.25274,"lon":5.37501,"is_reserved":false,"is_disabled":false,"rental_uris":{"android":"levelo://app?vid=afe9a566-d8c0-4f06-a183-9935532dd6e0","ios":"levelo://app?vid=afe9a566-d8c0-4f06-a183-9935532dd6e0"},"vehicle_type_id":"4","last_reported":1783359586,"current_range_meters":6000,"station_id":"","pricing_plan_id":"cebpf4jnsgd1na2vs0mg"},{"bike_id":"dce70b5e-bfa1-48e4-8fe0-9ec162dd1e48","system_id":"levelo_inurba_marseille","lat":43.26218,"lon":5.41529,"is_reserved":false,"is_disabled":false,"rental_uris":{"android":"levelo://app?vid=dce70b5e-bfa1-48e4-8fe0-9ec162dd1e48","ios":"levelo://app?vid=dce70b5e-bfa1-48e4-8fe0-9ec162dd1e48"},"vehicle_type_id":"4","last_reported":1783359586,"current_range_meters":6000,"station_id":"","pricing_plan_id":"cebpf4jnsgd1na2vs0mg"},{"bike_id":"815ebbe8-d558-4da8-839c-c9a756e093bb","system_id":"levelo_inurba_marseille","lat":43.29523,"lon":5.39036,"is_reserved":false,"is_disabled":false,"rental_uris":{"android":"levelo://app?vid=815ebbe8-d558-4da8-839c-c9a756e093bb","ios":"levelo://app?vid=815ebbe8-d558-4da8-839c-c9a756e093bb"},"vehicle_type_id":"4","last_reported":1783359586,"current_range_meters":6000,"station_id":"ce4bh3p2rcd13ifvqdp0","pricing_plan_id":"cebpf4jnsgd1na2vs0mg"},{"bike_id":"32546b35-8980-4efc-b43b-2bfa2b39f9fd","system_id":"levelo_inurba_marseille","lat":43.29524,"lon":5.38201,"is_reserved":false,"is_disabled":false,"rental_uris":{"android":"levelo://app?vid=32546b35-8980-4efc-b43b-2bfa2b39f9fd","ios":"levelo://app?vid=32546b35-8980-4efc-b43b-2bfa2b39f9fd"},"vehicle_type_id":"4","last_reported":1783359586,"current_range_meters":6000,"station_id":"","pricing_plan_id":"cebpf4jnsgd1na2vs0mg"},{"bike_id":"151318e1-1ede-4f1c-8297-71ff21b43437","system_id":"levelo_inurba_marseille","lat":43.28876,"lon":5.37735,"is_reserved":false,"is_disabled":false,"rental_uris":{"android":"levelo://app?vid=151318e1-1ede-4f1c-8297-71ff21b43437","ios":"levelo://app?vid=151318e1-1ede-4f1c-8297-71ff21b43437"},"vehicle_type_id":"4","last_reported":1783359586,"current_range_meters":6000,"station_id":"","pricing_plan_id":"cebpf4jnsgd1na2vs0mg"},{"bike_id":"b287dcea-8aa2-466f-8fef-838d2db781e3","system_id":"levelo_inurba_marseille","lat":43.29264,"lon":5.38434,"is_reserved":false,"is_disabled":false,"rental_uris":{"android":"levelo://app?vid=b287dcea-8aa2-466f-8fef-838d2db781e3","ios":"levelo://app?vid=b287dcea-8aa2-466f-8fef-838d2db781e3"},"vehicle_type_id":"4","last_reported":1783359586,"current_range_meters":6400,"station_id":"ce4bh692rcd13ifvqea0","pricing_plan_id":"cebpf4jnsgd1na2vs0mg"},{"bike_id":"b7889e1a-d6a9-4bee-950f-b9ab53371ccd","system_id":"levelo_inurba_marseille","lat":43.33102,"lon":5.3906,"is_reserved":false,"is_disabled":false,"rental_uris":{"android":"levelo://app?vid=b7889e1a-d6a9-4bee-950f-b9ab53371ccd","ios":"levelo://app?vid=b7889e1a-d6a9-4bee-950f-b9ab53371ccd"},"vehicle_type_id":"4","last_reported":1783359586,"current_range_meters":6400,"station_id":"","pricing_plan_id":"cebpf4jnsgd1na2vs0mg"},{"bike_id":"72db5589-dfd0-442a-904d-e9c5bdcd1d4f","system_id":"levelo_inurba_marseille","lat":43.31605,"lon":5.37936,"is_reserved":false,"is_disabled":false,"rental_uris":{"android":"levelo://app?vid=72db5589-dfd0-442a-904d-e9c5bdcd1d4f","ios":"levelo://app?vid=72db5589-dfd0-442a-904d-e9c5bdcd1d4f"},"vehicle_type_id":"4","last_reported":1783359586,"current_range_meters":6400,"station_id":"","pricing_plan_id":"cebpf4jnsgd1na2vs0mg"},{"bike_id":"224183db-0a64-4501-8cde-c63fadfe2897","system_id":"levelo_inurba_marseille","lat":43.292014,"lon":5.358128,"is_reserved":false,"is_disabled":false,"rental_uris":{"android":"levelo://app?vid=224183db-0a64-4501-8cde-c63fadfe2897","ios":"levelo://app?vid=224183db-0a64-4501-8cde-c63fadfe2897"},"vehicle_type_id":"4","last_reported":1783359586,"current_range_meters":6400,"station_id":"ce4bhb12rcd13ifvqel0","pricing_plan_id":"cebpf4jnsgd1na2vs0mg"},{"bike_id":"f1964035-ea60-4414-a92a-fd1c6547dc95","system_id":"levelo_inurba_marseille","lat":43.28415,"lon":5.34984,"is_reserved":false,"is_disabled":false,"rental_uris":{"android":"levelo://app?vid=f1964035-ea60-4414-a92a-fd1c6547dc95","ios":"levelo://app?vid=f1964035-ea60-4414-a92a-fd1c6547dc95"},"vehicle_type_id":"4","last_reported":1783359586,"current_range_meters":6400,"station_id":"ce4bhbh2rcd13ifvqepg","pricing_plan_id":"cebpf4jnsgd1na2vs0mg"},{"bike_id":"95511931-19a8-4570-b5d7-a1e5993a8849","system_id":"levelo_inurba_marseille","lat":43.28511,"lon":5.40138,"is_reserved":false,"is_disabled":false,"rental_uris":{"android":"levelo://app?vid=95511931-19a8-4570-b5d7-a1e5993a8849","ios":"levelo://app?vid=95511931-19a8-4570-b5d7-a1e5993a8849"},"vehicle_type_id":"4","last_reported":1783359586,"current_range_meters":6400,"station_id":"","pricing_plan_id":"cebpf4jnsgd1na2vs0mg"},{"bike_id":"035a2a92-4b93-44b5-a641-12e49fe6039c","system_id":"levelo_inurba_marseille","lat":43.21749,"lon":5.34585,"is_reserved":false,"is_disabled":false,"rental_uris":{"android":"levelo://app?vid=035a2a92-4b93-44b5-a641-12e49fe6039c","ios":"levelo://app?vid=035a2a92-4b93-44b5-a641-12e49fe6039c"},"vehicle_type_id":"4","last_reported":1783359586,"current_range_meters":6400,"station_id":"st_cvj6r9ubvosntc0bgbag","pricing_plan_id":"cebpf4jnsgd1na2vs0mg"},{"bike_id":"eace47ea-768d-43d3-8492-e1f0faf7f42f","system_id":"levelo_inurba_marseille","lat":43.31974,"lon":5.38131,"is_reserved":false,"is_disabled":false,"rental_uris":{"android":"levelo://app?vid=eace47ea-768d-43d3-8492-e1f0faf7f42f","ios":"levelo://app?vid=eace47ea-768d-43d3-8492-e1f0faf7f42f"},"vehicle_type_id":"4","last_reported":1783359586,"current_range_meters":6400,"station_id":"ce4bhr12rcd13ifvqhpg","pricing_plan_id":"cebpf4jnsgd1na2vs0mg"},{"bike_id":"02a697e1-e5b2-4327-98ae-ef22d66476ef","system_id":"levelo_inurba_marseille","lat":43.28602,"lon":5.35102,"is_reserved":false,"is_disabled":false,"rental_uris":{"android":"levelo://app?vid=02a697e1-e5b2-4327-98ae-ef22d66476ef","ios":"levelo://app?vid=02a697e1-e5b2-4327-98ae-ef22d66476ef"},"vehicle_type_id":"4","last_reported":1783359586,"current_range_meters":6400,"station_id":"ce4bhch2rcd13ifvqeug","pricing_plan_id":"cebpf4jnsgd1na2vs0mg"},{"bike_id":"8106ca99-f827-40dd-90a5-a5e8ac3a1d30","system_id":"levelo_inurba_marseille","lat":43.28509,"lon":5.48359,"is_reserved":false,"is_disabled":false,"rental_uris":{"android":"levelo://app?vid=8106ca99-f827-40dd-90a5-a5e8ac3a1d30","ios":"levelo://app?vid=8106ca99-f827-40dd-90a5-a5e8ac3a1d30"},"vehicle_type_id":"4","last_reported":1783359586,"current_range_meters":6400,"station_id":"st_d3svhcjqgbts73a3dn0g","pricing_plan_id":"cebpf4jnsgd1na2vs0mg"},{"bike_id":"9db47c28-d135-4619-b753-4c4fa126f9fd","system_id":"levelo_inurba_marseille","lat":43.29218,"lon":5.36061,"is_reserved":false,"is_disabled":true,"rental_uris":{"android":"levelo://app?vid=9db47c28-d135-4619-b753-4c4fa126f9fd","ios":"levelo://app?vid=9db47c28-d135-4619-b753-4c4fa126f9fd"},"vehicle_type_id":"4","last_reported":1783359586,"current_range_meters":6400,"station_id":"ce4bhbh2rcd13ifvqeqg","pricing_plan_id":"cebpf4jnsgd1na2vs0mg"},{"bike_id":"4c2faf4f-2c5e-448a-b2bb-c638ed2105fe","system_id":"levelo_inurba_marseille","lat":43.29204,"lon":5.35773,"is_reserved":false,"is_disabled":false,"rental_uris":{"android":"levelo://app?vid=4c2faf4f-2c5e-448a-b2bb-c638ed2105fe","ios":"levelo://app?vid=4c2faf4f-2c5e-448a-b2bb-c638ed2105fe"},"vehicle_type_id":"4","last_reported":1783359586,"current_range_meters":6400,"station_id":"ce4bhb12rcd13ifvqel0","pricing_plan_id":"cebpf4jnsgd1na2vs0mg"},{"bike_id":"ec2af0c4-368d-42f1-99ce-3cfbdfae1d56","system_id":"levelo_inurba_marseille","lat":43.29357,"lon":5.40276,"is_reserved":false,"is_disabled":false,"rental_uris":{"android":"levelo://app?vid=ec2af0c4-368d-42f1-99ce-3cfbdfae1d56","ios":"levelo://app?vid=ec2af0c4-368d-42f1-99ce-3cfbdfae1d56"},"vehicle_type_id":"4","last_reported":1783359586,"current_range_meters":6400,"station_id":"","pricing_plan_id":"cebpf4jnsgd1na2vs0mg"},{"bike_id":"47adb98a-1765-4994-9a2b-eabfe592bb86","system_id":"levelo_inurba_marseille","lat":43.22935,"lon":5.35393,"is_reserved":false,"is_disabled":false,"rental_uris":{"android":"levelo://app?vid=47adb98a-1765-4994-9a2b-eabfe592bb86","ios":"levelo://app?vid=47adb98a-1765-4994-9a2b-eabfe592bb86"},"vehicle_type_id":"4","last_reported":1783359586,"current_range_meters":6400,"station_id":"cpo3532slgdg3j2ikp40","pricing_plan_id":"cebpf4jnsgd1na2vs0mg"},{"bike_id":"fb7bb657-b5c9-480f-8e03-4d34843e8726","system_id":"levelo_inurba_marseille","lat":43.27992,"lon":5.41644,"is_reserved":false,"is_disabled":false,"rental_uris":{"android":"levelo://app?vid=fb7bb657-b5c9-480f-8e03-4d34843e8726","ios":"levelo://app?vid=fb7bb657-b5c9-480f-8e03-4d34843e8726"},"vehicle_type_id":"4","last_reported":1783359586,"current_range_meters":6400,"station_id":"ce4bho12rcd13ifvqh1g","pricing_plan_id":"cebpf4jnsgd1na2vs0mg"},{"bike_id":"dfbc4002-2b57-4d94-8a2d-70aba67a9345","system_id":"levelo_inurba_marseille","lat":43.30307,"lon":5.36882,"is_reserved":false,"is_disabled":false,"rental_uris":{"android":"levelo://app?vid=dfbc4002-2b57-4d94-8a2d-70aba67a9345","ios":"levelo://app?vid=dfbc4002-2b57-4d94-8a2d-70aba67a9345"},"vehicle_type_id":"4","last_reported":1783359586,"current_range_meters":6400,"station_id":"ce4bgqh2rcd13ifvqc5g","pricing_plan_id":"cebpf4jnsgd1na2vs0mg"},{"bike_id":"7678e258-73ee-4d26-8d86-8beb357c78a0","system_id":"levelo_inurba_marseille","lat":43.2435,"lon":5.4059,"is_reserved":false,"is_disabled":false,"rental_uris":{"android":"levelo://app?vid=7678e258-73ee-4d26-8d86-8beb357c78a0","ios":"levelo://app?vid=7678e258-73ee-4d26-8d86-8beb357c78a0"},"vehicle_type_id":"4","last_reported":1783359586,"current_range_meters":6400,"station_id":"","pricing_plan_id":"cebpf4jnsgd1na2vs0mg"},{"bike_id":"8d17691a-c59d-424c-81ce-596a42c43527","system_id":"levelo_inurba_marseille","lat":43.2572,"lon":5.38671,"is_reserved":false,"is_disabled":false,"rental_uris":{"android":"levelo://app?vid=8d17691a-c59d-424c-81ce-596a42c43527","ios":"levelo://app?vid=8d17691a-c59d-424c-81ce-596a42c43527"},"vehicle_type_id":"4","last_reported":1783359586,"current_range_meters":6800,"station_id":"","pricing_plan_id":"cebpf4jnsgd1na2vs0mg"},{"bike_id":"d7c33e32-1bf6-466d-abaf-8816e2645afe","system_id":"levelo_inurba_marseille","lat":43.31895,"lon":5.40749,"is_reserved":false,"is_disabled":true,"rental_uris":{"android":"levelo://app?vid=d7c33e32-1bf6-466d-abaf-8816e2645afe","ios":"levelo://app?vid=d7c33e32-1bf6-466d-abaf-8816e2645afe"},"vehicle_type_id":"4","last_reported":1783359586,"current_range_meters":6800,"station_id":"ce4bhq12rcd13ifvqhig","pricing_plan_id":"cebpf4jnsgd1na2vs0mg"},{"bike_id":"4b030e34-8697-41cc-a2b7-60a40f2af919","system_id":"levelo_inurba_marseille","lat":43.28398,"lon":5.37515,"is_reserved":false,"is_disabled":false,"rental_uris":{"android":"levelo://app?vid=4b030e34-8697-41cc-a2b7-60a40f2af919","ios":"levelo://app?vid=4b030e34-8697-41cc-a2b7-60a40f2af919"},"vehicle_type_id":"4","last_reported":1783359586,"current_range_meters":6800,"station_id":"ce4bh412rcd13ifvqds0","pricing_plan_id":"cebpf4jnsgd1na2vs0mg"},{"bike_id":"b51a0a11-9303-4ee4-b62e-92c3a026da4a","system_id":"levelo_inurba_marseille","lat":43.29166,"lon":5.37177,"is_reserved":false,"is_disabled":false,"rental_uris":{"android":"levelo://app?vid=b51a0a11-9303-4ee4-b62e-92c3a026da4a","ios":"levelo://app?vid=b51a0a11-9303-4ee4-b62e-92c3a026da4a"},"vehicle_type_id":"4","last_reported":1783359586,"current_range_meters":6800,"station_id":"ce4bha92rcd13ifvqeh0","pricing_plan_id":"cebpf4jnsgd1na2vs0mg"},{"bike_id":"a6c8f989-fa0f-4d79-a4a7-8d23b2cfea92","system_id":"levelo_inurba_marseille","lat":43.2315,"lon":5.4372,"is_reserved":false,"is_disabled":false,"rental_uris":{"android":"levelo://app?vid=a6c8f989-fa0f-4d79-a4a7-8d23b2cfea92","ios":"levelo://app?vid=a6c8f989-fa0f-4d79-a4a7-8d23b2cfea92"},"vehicle_type_id":"4","last_reported":1783359586,"current_range_meters":6800,"station_id":"ce4bhmp2rcd13ifvqgog","pricing_plan_id":"cebpf4jnsgd1na2vs0mg"},{"bike_id":"efce0065-4524-417a-a35d-e4c1a8a9f922","system_id":"levelo_inurba_marseille","lat":43.28232,"lon":5.34898,"is_reserved":false,"is_disabled":false,"rental_uris":{"android":"levelo://app?vid=efce0065-4524-417a-a35d-e4c1a8a9f922","ios":"levelo://app?vid=efce0065-4524-417a-a35d-e4c1a8a9f922"},"vehicle_type_id":"4","last_reported":1783359586,"current_range_meters":6800,"station_id":"","pricing_plan_id":"cebpf4jnsgd1na2vs0mg"},{"bike_id":"f1fa67ea-70e8-494e-90f1-3cd8a54e2aac","system_id":"levelo_inurba_marseille","lat":43.28281,"lon":5.35036,"is_reserved":false,"is_disabled":true,"rental_uris":{"android":"levelo://app?vid=f1fa67ea-70e8-494e-90f1-3cd8a54e2aac","ios":"levelo://app?vid=f1fa67ea-70e8-494e-90f1-3cd8a54e2aac"},"vehicle_type_id":"4","last_reported":1783359586,"current_range_meters":6800,"station_id":"ce4bhbp2rcd13ifvqerg","pricing_plan_id":"cebpf4jnsgd1na2vs0mg"},{"bike_id":"df8ce680-348e-47d0-92ea-a06487739a15","system_id":"levelo_inurba_marseille","lat":43.30074,"lon":5.38324,"is_reserved":false,"is_disabled":false,"rental_uris":{"android":"levelo://app?vid=df8ce680-348e-47d0-92ea-a06487739a15","ios":"levelo://app?vid=df8ce680-348e-47d0-92ea-a06487739a15"},"vehicle_type_id":"4","last_reported":1783359586,"current_range_meters":6800,"station_id":"","pricing_plan_id":"cebpf4jnsgd1na2vs0mg"},{"bike_id":"5c27c21d-e49d-4272-89f4-b58751c04dc1","system_id":"levelo_inurba_marseille","lat":43.23428,"lon":5.38129,"is_reserved":false,"is_disabled":false,"rental_uris":{"android":"levelo://app?vid=5c27c21d-e49d-4272-89f4-b58751c04dc1","ios":"levelo://app?vid=5c27c21d-e49d-4272-89f4-b58751c04dc1"},"vehicle_type_id":"4","last_reported":1783359586,"current_range_meters":6800,"station_id":"","pricing_plan_id":"cebpf4jnsgd1na2vs0mg"},{"bike_id":"4bb72506-4f3b-4ca7-992e-20cc9c7bb1d6","system_id":"levelo_inurba_marseille","lat":43.24719,"lon":5.4173,"is_reserved":false,"is_disabled":false,"rental_uris":{"android":"levelo://app?vid=4bb72506-4f3b-4ca7-992e-20cc9c7bb1d6","ios":"levelo://app?vid=4bb72506-4f3b-4ca7-992e-20cc9c7bb1d6"},"vehicle_type_id":"4","last_reported":1783359586,"current_range_meters":6800,"station_id":"","pricing_plan_id":"cebpf4jnsgd1na2vs0mg"},{"bike_id":"773f950c-1a37-4f11-85a7-7cbf338fd285","system_id":"levelo_inurba_marseille","lat":43.2495,"lon":5.40493,"is_reserved":false,"is_disabled":false,"rental_uris":{"android":"levelo://app?vid=773f950c-1a37-4f11-85a7-7cbf338fd285","ios":"levelo://app?vid=773f950c-1a37-4f11-85a7-7cbf338fd285"},"vehicle_type_id":"4","last_reported":1783359586,"current_range_meters":6800,"station_id":"st_d2ngiaodas8pm72gd1h0","pricing_plan_id":"cebpf4jnsgd1na2vs0mg"},{"bike_id":"700367e5-6c87-4c9d-b09c-2b54e001a8c5","system_id":"levelo_inurba_marseille","lat":43.29229,"lon":5.36062,"is_reserved":false,"is_disabled":true,"rental_uris":{"android":"levelo://app?vid=700367e5-6c87-4c9d-b09c-2b54e001a8c5","ios":"levelo://app?vid=700367e5-6c87-4c9d-b09c-2b54e001a8c5"},"vehicle_type_id":"4","last_reported":1783359586,"current_range_meters":6800,"station_id":"ce4bhbh2rcd13ifvqeqg","pricing_plan_id":"cebpf4jnsgd1na2vs0mg"},{"bike_id":"3112c030-03e7-4ad3-a895-94002cb7d5c7","system_id":"levelo_inurba_marseille","lat":43.23952,"lon":5.36633,"is_reserved":false,"is_disabled":true,"rental_uris":{"android":"levelo://app?vid=3112c030-03e7-4ad3-a895-94002cb7d5c7","ios":"levelo://app?vid=3112c030-03e7-4ad3-a895-94002cb7d5c7"},"vehicle_type_id":"4","last_reported":1783359586,"current_range_meters":6800,"station_id":"ce4bhi12rcd13ifvqfp0","pricing_plan_id":"cebpf4jnsgd1na2vs0mg"},{"bike_id":"e509462a-e46e-42ad-a0af-98b393921cba","system_id":"levelo_inurba_marseille","lat":43.2841,"lon":5.34966,"is_reserved":false,"is_disabled":false,"rental_uris":{"android":"levelo://app?vid=e509462a-e46e-42ad-a0af-98b393921cba","ios":"levelo://app?vid=e509462a-e46e-42ad-a0af-98b393921cba"},"vehicle_type_id":"4","last_reported":1783359586,"current_range_meters":6800,"station_id":"ce4bhbh2rcd13ifvqepg","pricing_plan_id":"cebpf4jnsgd1na2vs0mg"},{"bike_id":"39b13627-c228-4e05-9cb8-8db56efee504","system_id":"levelo_inurba_marseille","lat":43.30243,"lon":5.40056,"is_reserved":false,"is_disabled":false,"rental_uris":{"android":"levelo://app?vid=39b13627-c228-4e05-9cb8-8db56efee504","ios":"levelo://app?vid=39b13627-c228-4e05-9cb8-8db56efee504"},"vehicle_type_id":"4","last_reported":1783359586,"current_range_meters":6800,"station_id":"ce4bgvh2rcd13ifvqcs0","pricing_plan_id":"cebpf4jnsgd1na2vs0mg"},{"bike_id":"deb08789-9c3b-471d-856e-590be4e8d00b","system_id":"levelo_inurba_marseille","lat":43.27825,"lon":5.40708,"is_reserved":false,"is_disabled":false,"rental_uris":{"android":"levelo://app?vid=deb08789-9c3b-471d-856e-590be4e8d00b","ios":"levelo://app?vid=deb08789-9c3b-471d-856e-590be4e8d00b"},"vehicle_type_id":"4","last_reported":1783359586,"current_range_meters":6800,"station_id":"ce4bhnh2rcd13ifvqgtg","pricing_plan_id":"cebpf4jnsgd1na2vs0mg"},{"bike_id":"faae4998-2660-4cc6-a836-6400055fc88a","system_id":"levelo_inurba_marseille","lat":43.29854,"lon":5.36262,"is_reserved":false,"is_disabled":true,"rental_uris":{"android":"levelo://app?vid=faae4998-2660-4cc6-a836-6400055fc88a","ios":"levelo://app?vid=faae4998-2660-4cc6-a836-6400055fc88a"},"vehicle_type_id":"4","last_reported":1783359586,"current_range_meters":6800,"station_id":"ce4bgpp2rcd13ifvqc3g","pricing_plan_id":"cebpf4jnsgd1na2vs0mg"},{"bike_id":"46468b74-5455-42c1-b355-213b9be4a89c","system_id":"levelo_inurba_marseille","lat":43.22535,"lon":5.34826,"is_reserved":false,"is_disabled":false,"rental_uris":{"android":"levelo://app?vid=46468b74-5455-42c1-b355-213b9be4a89c","ios":"levelo://app?vid=46468b74-5455-42c1-b355-213b9be4a89c"},"vehicle_type_id":"4","last_reported":1783359586,"current_range_meters":6800,"station_id":"st_cvj5dfep6f1abm77gieg","pricing_plan_id":"cebpf4jnsgd1na2vs0mg"},{"bike_id":"d0b958a4-0781-4a1e-83d0-28cb0b198006","system_id":"levelo_inurba_marseille","lat":43.29582,"lon":5.38598,"is_reserved":false,"is_disabled":false,"rental_uris":{"android":"levelo://app?vid=d0b958a4-0781-4a1e-83d0-28cb0b198006","ios":"levelo://app?vid=d0b958a4-0781-4a1e-83d0-28cb0b198006"},"vehicle_type_id":"4","last_reported":1783359586,"current_range_meters":6800,"station_id":"","pricing_plan_id":"cebpf4jnsgd1na2vs0mg"},{"bike_id":"9a16c297-2744-4e6f-b064-0defde147d40","system_id":"levelo_inurba_marseille","lat":43.3018,"lon":5.36598,"is_reserved":false,"is_disabled":false,"rental_uris":{"android":"levelo://app?vid=9a16c297-2744-4e6f-b064-0defde147d40","ios":"levelo://app?vid=9a16c297-2744-4e6f-b064-0defde147d40"},"vehicle_type_id":"4","last_reported":1783359586,"current_range_meters":6800,"station_id":"ce4bgrh2rcd13ifvqc8g","pricing_plan_id":"cebpf4jnsgd1na2vs0mg"},{"bike_id":"73763c47-526e-47a5-8846-df3ee2009de2","system_id":"levelo_inurba_marseille","lat":43.28933,"lon":5.36639,"is_reserved":false,"is_disabled":false,"rental_uris":{"android":"levelo://app?vid=73763c47-526e-47a5-8846-df3ee2009de2","ios":"levelo://app?vid=73763c47-526e-47a5-8846-df3ee2009de2"},"vehicle_type_id":"4","last_reported":1783359586,"current_range_meters":6800,"station_id":"ce4bhap2rcd13ifvqek0","pricing_plan_id":"cebpf4jnsgd1na2vs0mg"},{"bike_id":"21ea3007-1c16-47d1-a918-743f27ceb08e","system_id":"levelo_inurba_marseille","lat":43.292,"lon":5.39313,"is_reserved":false,"is_disabled":false,"rental_uris":{"android":"levelo://app?vid=21ea3007-1c16-47d1-a918-743f27ceb08e","ios":"levelo://app?vid=21ea3007-1c16-47d1-a918-743f27ceb08e"},"vehicle_type_id":"4","last_reported":1783359586,"current_range_meters":6800,"station_id":"ce4bh192rcd13ifvqdd0","pricing_plan_id":"cebpf4jnsgd1na2vs0mg"},{"bike_id":"f9c23de4-b690-4dfd-a24a-1375fcf74a6e","system_id":"levelo_inurba_marseille","lat":43.28623,"lon":5.35104,"is_reserved":false,"is_disabled":false,"rental_uris":{"android":"levelo://app?vid=f9c23de4-b690-4dfd-a24a-1375fcf74a6e","ios":"levelo://app?vid=f9c23de4-b690-4dfd-a24a-1375fcf74a6e"},"vehicle_type_id":"4","last_reported":1783359586,"current_range_meters":6800,"station_id":"ce4bhch2rcd13ifvqeug","pricing_plan_id":"cebpf4jnsgd1na2vs0mg"},{"bike_id":"575913ea-76fa-4568-afce-714035193350","system_id":"levelo_inurba_marseille","lat":43.28843,"lon":5.35833,"is_reserved":false,"is_disabled":false,"rental_uris":{"android":"levelo://app?vid=575913ea-76fa-4568-afce-714035193350","ios":"levelo://app?vid=575913ea-76fa-4568-afce-714035193350"},"vehicle_type_id":"4","last_reported":1783359586,"current_range_meters":6800,"station_id":"ce4bhb12rcd13ifvqem0","pricing_plan_id":"cebpf4jnsgd1na2vs0mg"},{"bike_id":"0b5fa059-2a5d-42c8-ba4b-d3a77217ba17","system_id":"levelo_inurba_marseille","lat":43.292425,"lon":5.36035,"is_reserved":false,"is_disabled":false,"rental_uris":{"android":"levelo://app?vid=0b5fa059-2a5d-42c8-ba4b-d3a77217ba17","ios":"levelo://app?vid=0b5fa059-2a5d-42c8-ba4b-d3a77217ba17"},"vehicle_type_id":"4","last_reported":1783359586,"current_range_meters":6800,"station_id":"ce4bhbh2rcd13ifvqeqg","pricing_plan_id":"cebpf4jnsgd1na2vs0mg"},{"bike_id":"a40fac1c-fdae-4a33-8735-3f7c9c669ebe","system_id":"levelo_inurba_marseille","lat":43.2973,"lon":5.38217,"is_reserved":false,"is_disabled":false,"rental_uris":{"android":"levelo://app?vid=a40fac1c-fdae-4a33-8735-3f7c9c669ebe","ios":"levelo://app?vid=a40fac1c-fdae-4a33-8735-3f7c9c669ebe"},"vehicle_type_id":"4","last_reported":1783359586,"current_range_meters":7200,"station_id":"","pricing_plan_id":"cebpf4jnsgd1na2vs0mg"},{"bike_id":"b97d6990-fae6-4a3c-94f0-c74b89d723ae","system_id":"levelo_inurba_marseille","lat":43.24958,"lon":5.40497,"is_reserved":false,"is_disabled":false,"rental_uris":{"android":"levelo://app?vid=b97d6990-fae6-4a3c-94f0-c74b89d723ae","ios":"levelo://app?vid=b97d6990-fae6-4a3c-94f0-c74b89d723ae"},"vehicle_type_id":"4","last_reported":1783359586,"current_range_meters":7200,"station_id":"st_d2ngiaodas8pm72gd1h0","pricing_plan_id":"cebpf4jnsgd1na2vs0mg"},{"bike_id":"7fb54030-81c0-4653-ab50-a6e69be8636f","system_id":"levelo_inurba_marseille","lat":43.26042,"lon":5.37474,"is_reserved":false,"is_disabled":true,"rental_uris":{"android":"levelo://app?vid=7fb54030-81c0-4653-ab50-a6e69be8636f","ios":"levelo://app?vid=7fb54030-81c0-4653-ab50-a6e69be8636f"},"vehicle_type_id":"4","last_reported":1783359586,"current_range_meters":7200,"station_id":"ce4bhgh2rcd13ifvqfa0","pricing_plan_id":"cebpf4jnsgd1na2vs0mg"},{"bike_id":"4b71ea7a-3ffc-4ca2-a5b0-91fcaaf1579c","system_id":"levelo_inurba_marseille","lat":43.30306,"lon":5.38246,"is_reserved":false,"is_disabled":false,"rental_uris":{"android":"levelo://app?vid=4b71ea7a-3ffc-4ca2-a5b0-91fcaaf1579c","ios":"levelo://app?vid=4b71ea7a-3ffc-4ca2-a5b0-91fcaaf1579c"},"vehicle_type_id":"4","last_reported":1783359586,"current_range_meters":7200,"station_id":"","pricing_plan_id":"cebpf4jnsgd1na2vs0mg"},{"bike_id":"1b38264d-b828-4294-b072-9ccc46169fbe","system_id":"levelo_inurba_marseille","lat":43.31099,"lon":5.43826,"is_reserved":false,"is_disabled":false,"rental_uris":{"android":"levelo://app?vid=1b38264d-b828-4294-b072-9ccc46169fbe","ios":"levelo://app?vid=1b38264d-b828-4294-b072-9ccc46169fbe"},"vehicle_type_id":"4","last_reported":1783359586,"current_range_meters":7200,"station_id":"","pricing_plan_id":"cebpf4jnsgd1na2vs0mg"},{"bike_id":"bc05ae65-6d5c-42c9-90a4-e6a644c71352","system_id":"levelo_inurba_marseille","lat":43.29187,"lon":5.37277,"is_reserved":false,"is_disabled":false,"rental_uris":{"android":"levelo://app?vid=bc05ae65-6d5c-42c9-90a4-e6a644c71352","ios":"levelo://app?vid=bc05ae65-6d5c-42c9-90a4-e6a644c71352"},"vehicle_type_id":"4","last_reported":1783359586,"current_range_meters":7200,"station_id":"","pricing_plan_id":"cebpf4jnsgd1na2vs0mg"},{"bike_id":"3b5b34b3-5d7a-492c-ad5e-3419a894ae3a","system_id":"levelo_inurba_marseille","lat":43.24806,"lon":5.37456,"is_reserved":false,"is_disabled":false,"rental_uris":{"android":"levelo://app?vid=3b5b34b3-5d7a-492c-ad5e-3419a894ae3a","ios":"levelo://app?vid=3b5b34b3-5d7a-492c-ad5e-3419a894ae3a"},"vehicle_type_id":"4","last_reported":1783359586,"current_range_meters":7200,"station_id":"ce4bhgh2rcd13ifvqfb0","pricing_plan_id":"cebpf4jnsgd1na2vs0mg"},{"bike_id":"fad3a5c8-af26-42f0-8125-e7b06c3c902b","system_id":"levelo_inurba_marseille","lat":43.27618,"lon":5.36088,"is_reserved":false,"is_disabled":false,"rental_uris":{"android":"levelo://app?vid=fad3a5c8-af26-42f0-8125-e7b06c3c902b","ios":"levelo://app?vid=fad3a5c8-af26-42f0-8125-e7b06c3c902b"},"vehicle_type_id":"4","last_reported":1783359586,"current_range_meters":7200,"station_id":"ce4bgj92rcd13ifvqbe0","pricing_plan_id":"cebpf4jnsgd1na2vs0mg"},{"bike_id":"cc738f32-f811-4e3f-b968-0bc0d7c9be0d","system_id":"levelo_inurba_marseille","lat":43.29261,"lon":5.40907,"is_reserved":false,"is_disabled":true,"rental_uris":{"android":"levelo://app?vid=cc738f32-f811-4e3f-b968-0bc0d7c9be0d","ios":"levelo://app?vid=cc738f32-f811-4e3f-b968-0bc0d7c9be0d"},"vehicle_type_id":"4","last_reported":1783359586,"current_range_meters":7200,"station_id":"ce4bh192rcd13ifvqdc0","pricing_plan_id":"cebpf4jnsgd1na2vs0mg"},{"bike_id":"4014f91a-ee33-44ef-b529-b234e9656f9c","system_id":"levelo_inurba_marseille","lat":43.26988,"lon":5.40568,"is_reserved":false,"is_disabled":false,"rental_uris":{"android":"levelo://app?vid=4014f91a-ee33-44ef-b529-b234e9656f9c","ios":"levelo://app?vid=4014f91a-ee33-44ef-b529-b234e9656f9c"},"vehicle_type_id":"4","last_reported":1783359586,"current_range_meters":7200,"station_id":"","pricing_plan_id":"cebpf4jnsgd1na2vs0mg"},{"bike_id":"49c0edd3-6ee5-4cf0-9e63-f63c9ac52ad6","system_id":"levelo_inurba_marseille","lat":43.26206,"lon":5.3744,"is_reserved":false,"is_disabled":false,"rental_uris":{"android":"levelo://app?vid=49c0edd3-6ee5-4cf0-9e63-f63c9ac52ad6","ios":"levelo://app?vid=49c0edd3-6ee5-4cf0-9e63-f63c9ac52ad6"},"vehicle_type_id":"4","last_reported":1783359586,"current_range_meters":7200,"station_id":"ce4bhgp2rcd13ifvqfc0","pricing_plan_id":"cebpf4jnsgd1na2vs0mg"},{"bike_id":"e3022a6a-a8f2-4537-83b2-c5cd58afaf3e","system_id":"levelo_inurba_marseille","lat":43.25088,"lon":5.3951,"is_reserved":false,"is_disabled":true,"rental_uris":{"android":"levelo://app?vid=e3022a6a-a8f2-4537-83b2-c5cd58afaf3e","ios":"levelo://app?vid=e3022a6a-a8f2-4537-83b2-c5cd58afaf3e"},"vehicle_type_id":"4","last_reported":1783359586,"current_range_meters":7200,"station_id":"ce4bhm12rcd13ifvqgkg","pricing_plan_id":"cebpf4jnsgd1na2vs0mg"},{"bike_id":"0c262e6f-330f-48f3-b340-7834fb0d728a","system_id":"levelo_inurba_marseille","lat":43.22939,"lon":5.35374,"is_reserved":false,"is_disabled":false,"rental_uris":{"android":"levelo://app?vid=0c262e6f-330f-48f3-b340-7834fb0d728a","ios":"levelo://app?vid=0c262e6f-330f-48f3-b340-7834fb0d728a"},"vehicle_type_id":"4","last_reported":1783359586,"current_range_meters":7200,"station_id":"cpo3532slgdg3j2ikp40","pricing_plan_id":"cebpf4jnsgd1na2vs0mg"},{"bike_id":"6056fff0-f0ba-4738-80c3-f90d397c87ff","system_id":"levelo_inurba_marseille","lat":43.2619,"lon":5.37443,"is_reserved":false,"is_disabled":false,"rental_uris":{"android":"levelo://app?vid=6056fff0-f0ba-4738-80c3-f90d397c87ff","ios":"levelo://app?vid=6056fff0-f0ba-4738-80c3-f90d397c87ff"},"vehicle_type_id":"4","last_reported":1783359586,"current_range_meters":7200,"station_id":"ce4bhgp2rcd13ifvqfc0","pricing_plan_id":"cebpf4jnsgd1na2vs0mg"},{"bike_id":"8f9589bc-5102-48ec-bff3-0aa876684c01","system_id":"levelo_inurba_marseille","lat":43.2983,"lon":5.44072,"is_reserved":false,"is_disabled":true,"rental_uris":{"android":"levelo://app?vid=8f9589bc-5102-48ec-bff3-0aa876684c01","ios":"levelo://app?vid=8f9589bc-5102-48ec-bff3-0aa876684c01"},"vehicle_type_id":"4","last_reported":1783359586,"current_range_meters":7200,"station_id":"st_d3jp68qikq2c7381ktn0","pricing_plan_id":"cebpf4jnsgd1na2vs0mg"},{"bike_id":"9e5a2ef5-40b8-4842-abef-5a9e0877c3d7","system_id":"levelo_inurba_marseille","lat":43.28477,"lon":5.48391,"is_reserved":false,"is_disabled":false,"rental_uris":{"android":"levelo://app?vid=9e5a2ef5-40b8-4842-abef-5a9e0877c3d7","ios":"levelo://app?vid=9e5a2ef5-40b8-4842-abef-5a9e0877c3d7"},"vehicle_type_id":"4","last_reported":1783359586,"current_range_meters":7200,"station_id":"st_d3svhcjqgbts73a3dn0g","pricing_plan_id":"cebpf4jnsgd1na2vs0mg"},{"bike_id":"36774ac0-8b24-4c0f-88b6-906edf0717cb","system_id":"levelo_inurba_marseille","lat":43.28348,"lon":5.3809,"is_reserved":false,"is_disabled":false,"rental_uris":{"android":"levelo://app?vid=36774ac0-8b24-4c0f-88b6-906edf0717cb","ios":"levelo://app?vid=36774ac0-8b24-4c0f-88b6-906edf0717cb"},"vehicle_type_id":"4","last_reported":1783359586,"current_range_meters":7200,"station_id":"ce4bh412rcd13ifvqdr0","pricing_plan_id":"cebpf4jnsgd1na2vs0mg"},{"bike_id":"392c3337-6c79-43a2-8793-f52cbbcc2fa9","system_id":"levelo_inurba_marseille","lat":43.26578,"lon":5.42072,"is_reserved":false,"is_disabled":false,"rental_uris":{"android":"levelo://app?vid=392c3337-6c79-43a2-8793-f52cbbcc2fa9","ios":"levelo://app?vid=392c3337-6c79-43a2-8793-f52cbbcc2fa9"},"vehicle_type_id":"4","last_reported":1783359586,"current_range_meters":7200,"station_id":"","pricing_plan_id":"cebpf4jnsgd1na2vs0mg"},{"bike_id":"012b7c91-1594-47c2-9d26-8e0b4a11d089","system_id":"levelo_inurba_marseille","lat":43.27816,"lon":5.40704,"is_reserved":false,"is_disabled":false,"rental_uris":{"android":"levelo://app?vid=012b7c91-1594-47c2-9d26-8e0b4a11d089","ios":"levelo://app?vid=012b7c91-1594-47c2-9d26-8e0b4a11d089"},"vehicle_type_id":"4","last_reported":1783359586,"current_range_meters":7200,"station_id":"ce4bhnh2rcd13ifvqgtg","pricing_plan_id":"cebpf4jnsgd1na2vs0mg"},{"bike_id":"c0b9817e-2372-4304-9afe-b7ed4dc388ad","system_id":"levelo_inurba_marseille","lat":43.27172,"lon":5.40966,"is_reserved":false,"is_disabled":false,"rental_uris":{"android":"levelo://app?vid=c0b9817e-2372-4304-9afe-b7ed4dc388ad","ios":"levelo://app?vid=c0b9817e-2372-4304-9afe-b7ed4dc388ad"},"vehicle_type_id":"4","last_reported":1783359586,"current_range_meters":7200,"station_id":"ce4bhl12rcd13ifvqgf0","pricing_plan_id":"cebpf4jnsgd1na2vs0mg"},{"bike_id":"f43daa17-925e-43b0-adcc-c15bb8780ddf","system_id":"levelo_inurba_marseille","lat":43.30798,"lon":5.3815,"is_reserved":false,"is_disabled":false,"rental_uris":{"android":"levelo://app?vid=f43daa17-925e-43b0-adcc-c15bb8780ddf","ios":"levelo://app?vid=f43daa17-925e-43b0-adcc-c15bb8780ddf"},"vehicle_type_id":"4","last_reported":1783359586,"current_range_meters":7200,"station_id":"ce4bgt12rcd13ifvqce0","pricing_plan_id":"cebpf4jnsgd1na2vs0mg"},{"bike_id":"4461f359-e578-4853-804a-593f2289f613","system_id":"levelo_inurba_marseille","lat":43.29648,"lon":5.40128,"is_reserved":false,"is_disabled":false,"rental_uris":{"android":"levelo://app?vid=4461f359-e578-4853-804a-593f2289f613","ios":"levelo://app?vid=4461f359-e578-4853-804a-593f2289f613"},"vehicle_type_id":"4","last_reported":1783359586,"current_range_meters":8000,"station_id":"","pricing_plan_id":"cebpf4jnsgd1na2vs0mg"},{"bike_id":"da223388-b0fa-4ac6-bd14-3d7075bc8d9a","system_id":"levelo_inurba_marseille","lat":43.29002,"lon":5.35601,"is_reserved":false,"is_disabled":false,"rental_uris":{"android":"levelo://app?vid=da223388-b0fa-4ac6-bd14-3d7075bc8d9a","ios":"levelo://app?vid=da223388-b0fa-4ac6-bd14-3d7075bc8d9a"},"vehicle_type_id":"4","last_reported":1783359586,"current_range_meters":8000,"station_id":"ce4bhb92rcd13ifvqen0","pricing_plan_id":"cebpf4jnsgd1na2vs0mg"},{"bike_id":"6d689212-3b76-442c-bc79-cfdea367ebf5","system_id":"levelo_inurba_marseille","lat":43.29634,"lon":5.3716,"is_reserved":false,"is_disabled":false,"rental_uris":{"android":"levelo://app?vid=6d689212-3b76-442c-bc79-cfdea367ebf5","ios":"levelo://app?vid=6d689212-3b76-442c-bc79-cfdea367ebf5"},"vehicle_type_id":"4","last_reported":1783359586,"current_range_meters":8000,"station_id":"","pricing_plan_id":"cebpf4jnsgd1na2vs0mg"},{"bike_id":"c8c1273a-f56b-48ad-a52c-2b045232f500","system_id":"levelo_inurba_marseille","lat":43.29622,"lon":5.37161,"is_reserved":false,"is_disabled":false,"rental_uris":{"android":"levelo://app?vid=c8c1273a-f56b-48ad-a52c-2b045232f500","ios":"levelo://app?vid=c8c1273a-f56b-48ad-a52c-2b045232f500"},"vehicle_type_id":"4","last_reported":1783359586,"current_range_meters":8000,"station_id":"ce4bgnh2rcd13ifvqc0g","pricing_plan_id":"cebpf4jnsgd1na2vs0mg"},{"bike_id":"e1dbd9b4-370e-48a0-b148-f6ebc1334532","system_id":"levelo_inurba_marseille","lat":43.28409,"lon":5.34972,"is_reserved":false,"is_disabled":false,"rental_uris":{"android":"levelo://app?vid=e1dbd9b4-370e-48a0-b148-f6ebc1334532","ios":"levelo://app?vid=e1dbd9b4-370e-48a0-b148-f6ebc1334532"},"vehicle_type_id":"4","last_reported":1783359586,"current_range_meters":8000,"station_id":"ce4bhbh2rcd13ifvqepg","pricing_plan_id":"cebpf4jnsgd1na2vs0mg"},{"bike_id":"b25d5d6c-b7c9-4e84-b9f1-b7b86cc753db","system_id":"levelo_inurba_marseille","lat":43.26347,"lon":5.3776,"is_reserved":false,"is_disabled":false,"rental_uris":{"android":"levelo://app?vid=b25d5d6c-b7c9-4e84-b9f1-b7b86cc753db","ios":"levelo://app?vid=b25d5d6c-b7c9-4e84-b9f1-b7b86cc753db"},"vehicle_type_id":"4","last_reported":1783359586,"current_range_meters":8000,"station_id":"","pricing_plan_id":"cebpf4jnsgd1na2vs0mg"},{"bike_id":"008463f9-6d87-4ede-9429-fed457b91b64","system_id":"levelo_inurba_marseille","lat":43.25334,"lon":5.42137,"is_reserved":false,"is_disabled":false,"rental_uris":{"android":"levelo://app?vid=008463f9-6d87-4ede-9429-fed457b91b64","ios":"levelo://app?vid=008463f9-6d87-4ede-9429-fed457b91b64"},"vehicle_type_id":"4","last_reported":1783359586,"current_range_meters":8000,"station_id":"st_d2m65c5bi1j21697t3ng","pricing_plan_id":"cebpf4jnsgd1na2vs0mg"},{"bike_id":"6c356fe9-605f-4f5f-b868-1252dab45a49","system_id":"levelo_inurba_marseille","lat":43.25278,"lon":5.39448,"is_reserved":false,"is_disabled":false,"rental_uris":{"android":"levelo://app?vid=6c356fe9-605f-4f5f-b868-1252dab45a49","ios":"levelo://app?vid=6c356fe9-605f-4f5f-b868-1252dab45a49"},"vehicle_type_id":"4","last_reported":1783359586,"current_range_meters":8000,"station_id":"","pricing_plan_id":"cebpf4jnsgd1na2vs0mg"},{"bike_id":"ec21b348-a79c-45e5-a2ca-3a10372453e7","system_id":"levelo_inurba_marseille","lat":43.31917,"lon":5.39902,"is_reserved":false,"is_disabled":false,"rental_uris":{"android":"levelo://app?vid=ec21b348-a79c-45e5-a2ca-3a10372453e7","ios":"levelo://app?vid=ec21b348-a79c-45e5-a2ca-3a10372453e7"},"vehicle_type_id":"4","last_reported":1783359586,"current_range_meters":8000,"station_id":"","pricing_plan_id":"cebpf4jnsgd1na2vs0mg"},{"bike_id":"5ccaecf8-f3eb-4f76-a926-9d5408368fa6","system_id":"levelo_inurba_marseille","lat":43.306,"lon":5.37198,"is_reserved":false,"is_disabled":false,"rental_uris":{"android":"levelo://app?vid=5ccaecf8-f3eb-4f76-a926-9d5408368fa6","ios":"levelo://app?vid=5ccaecf8-f3eb-4f76-a926-9d5408368fa6"},"vehicle_type_id":"4","last_reported":1783359586,"current_range_meters":8000,"station_id":"ce4bgqh2rcd13ifvqc4g","pricing_plan_id":"cebpf4jnsgd1na2vs0mg"},{"bike_id":"814b0a23-4b15-472b-a08d-7d4fdd4dc68d","system_id":"levelo_inurba_marseille","lat":43.29365,"lon":5.37865,"is_reserved":false,"is_disabled":false,"rental_uris":{"android":"levelo://app?vid=814b0a23-4b15-472b-a08d-7d4fdd4dc68d","ios":"levelo://app?vid=814b0a23-4b15-472b-a08d-7d4fdd4dc68d"},"vehicle_type_id":"4","last_reported":1783359586,"current_range_meters":8000,"station_id":"ce4bgjh2rcd13ifvqbf0","pricing_plan_id":"cebpf4jnsgd1na2vs0mg"},{"bike_id":"4c59db62-5427-46c6-9d26-5bad55e837ae","system_id":"levelo_inurba_marseille","lat":43.23635,"lon":5.4036,"is_reserved":false,"is_disabled":false,"rental_uris":{"android":"levelo://app?vid=4c59db62-5427-46c6-9d26-5bad55e837ae","ios":"levelo://app?vid=4c59db62-5427-46c6-9d26-5bad55e837ae"},"vehicle_type_id":"4","last_reported":1783359586,"current_range_meters":8000,"station_id":"","pricing_plan_id":"cebpf4jnsgd1na2vs0mg"},{"bike_id":"3939a598-95e3-4c1d-acaf-481283e08466","system_id":"levelo_inurba_marseille","lat":43.28544,"lon":5.384314,"is_reserved":false,"is_disabled":false,"rental_uris":{"android":"levelo://app?vid=3939a598-95e3-4c1d-acaf-481283e08466","ios":"levelo://app?vid=3939a598-95e3-4c1d-acaf-481283e08466"},"vehicle_type_id":"4","last_reported":1783359586,"current_range_meters":8000,"station_id":"ce4bgi92rcd13ifvqb90","pricing_plan_id":"cebpf4jnsgd1na2vs0mg"},{"bike_id":"b900761c-91a1-45c5-8796-b15f7b1ff705","system_id":"levelo_inurba_marseille","lat":43.324265,"lon":5.411544,"is_reserved":false,"is_disabled":false,"rental_uris":{"android":"levelo://app?vid=b900761c-91a1-45c5-8796-b15f7b1ff705","ios":"levelo://app?vid=b900761c-91a1-45c5-8796-b15f7b1ff705"},"vehicle_type_id":"4","last_reported":1783359586,"current_range_meters":8000,"station_id":"ce4bhqh2rcd13ifvqhlg","pricing_plan_id":"cebpf4jnsgd1na2vs0mg"},{"bike_id":"48e9f399-608e-4ef3-aef5-0ea0fdd27ad4","system_id":"levelo_inurba_marseille","lat":43.29258,"lon":5.40905,"is_reserved":false,"is_disabled":true,"rental_uris":{"android":"levelo://app?vid=48e9f399-608e-4ef3-aef5-0ea0fdd27ad4","ios":"levelo://app?vid=48e9f399-608e-4ef3-aef5-0ea0fdd27ad4"},"vehicle_type_id":"4","last_reported":1783359586,"current_range_meters":8000,"station_id":"ce4bh192rcd13ifvqdc0","pricing_plan_id":"cebpf4jnsgd1na2vs0mg"},{"bike_id":"ce246acd-8c78-4e93-8d68-b477575009da","system_id":"levelo_inurba_marseille","lat":43.25261,"lon":5.37735,"is_reserved":false,"is_disabled":false,"rental_uris":{"android":"levelo://app?vid=ce246acd-8c78-4e93-8d68-b477575009da","ios":"levelo://app?vid=ce246acd-8c78-4e93-8d68-b477575009da"},"vehicle_type_id":"4","last_reported":1783359586,"current_range_meters":8000,"station_id":"","pricing_plan_id":"cebpf4jnsgd1na2vs0mg"},{"bike_id":"1a907725-b756-4400-9f71-9205da4b609e","system_id":"levelo_inurba_marseille","lat":43.28254,"lon":5.3503,"is_reserved":false,"is_disabled":false,"rental_uris":{"android":"levelo://app?vid=1a907725-b756-4400-9f71-9205da4b609e","ios":"levelo://app?vid=1a907725-b756-4400-9f71-9205da4b609e"},"vehicle_type_id":"4","last_reported":1783359586,"current_range_meters":8000,"station_id":"ce4bhbp2rcd13ifvqerg","pricing_plan_id":"cebpf4jnsgd1na2vs0mg"},{"bike_id":"0c9ce47f-718c-4d0d-872f-a5d5776397b3","system_id":"levelo_inurba_marseille","lat":43.31892,"lon":5.36801,"is_reserved":false,"is_disabled":false,"rental_uris":{"android":"levelo://app?vid=0c9ce47f-718c-4d0d-872f-a5d5776397b3","ios":"levelo://app?vid=0c9ce47f-718c-4d0d-872f-a5d5776397b3"},"vehicle_type_id":"4","last_reported":1783359586,"current_range_meters":8000,"station_id":"st_d6o2h0d0559c73evc1b0","pricing_plan_id":"cebpf4jnsgd1na2vs0mg"},{"bike_id":"9dbc6b5d-d921-4618-b2d6-4ccd5a1ce15a","system_id":"levelo_inurba_marseille","lat":43.31132,"lon":5.38245,"is_reserved":false,"is_disabled":false,"rental_uris":{"android":"levelo://app?vid=9dbc6b5d-d921-4618-b2d6-4ccd5a1ce15a","ios":"levelo://app?vid=9dbc6b5d-d921-4618-b2d6-4ccd5a1ce15a"},"vehicle_type_id":"4","last_reported":1783359586,"current_range_meters":8400,"station_id":"","pricing_plan_id":"cebpf4jnsgd1na2vs0mg"},{"bike_id":"401beb52-7dd5-4e26-b86e-92c4b7a914f4","system_id":"levelo_inurba_marseille","lat":43.28419,"lon":5.34988,"is_reserved":false,"is_disabled":true,"rental_uris":{"android":"levelo://app?vid=401beb52-7dd5-4e26-b86e-92c4b7a914f4","ios":"levelo://app?vid=401beb52-7dd5-4e26-b86e-92c4b7a914f4"},"vehicle_type_id":"4","last_reported":1783359586,"current_range_meters":8400,"station_id":"ce4bhbh2rcd13ifvqepg","pricing_plan_id":"cebpf4jnsgd1na2vs0mg"},{"bike_id":"182ce1b7-b7d4-4bcf-b695-4a26edd14cc4","system_id":"levelo_inurba_marseille","lat":43.28847,"lon":5.35858,"is_reserved":false,"is_disabled":false,"rental_uris":{"android":"levelo://app?vid=182ce1b7-b7d4-4bcf-b695-4a26edd14cc4","ios":"levelo://app?vid=182ce1b7-b7d4-4bcf-b695-4a26edd14cc4"},"vehicle_type_id":"4","last_reported":1783359586,"current_range_meters":8400,"station_id":"ce4bhb12rcd13ifvqem0","pricing_plan_id":"cebpf4jnsgd1na2vs0mg"},{"bike_id":"2e52da78-f345-4c63-969c-3e0709fc16f6","system_id":"levelo_inurba_marseille","lat":43.2957,"lon":5.39959,"is_reserved":false,"is_disabled":false,"rental_uris":{"android":"levelo://app?vid=2e52da78-f345-4c63-969c-3e0709fc16f6","ios":"levelo://app?vid=2e52da78-f345-4c63-969c-3e0709fc16f6"},"vehicle_type_id":"4","last_reported":1783359586,"current_range_meters":8400,"station_id":"ce4bh312rcd13ifvqdj0","pricing_plan_id":"cebpf4jnsgd1na2vs0mg"},{"bike_id":"6dba7751-9b32-49d1-8663-50c18acacf6a","system_id":"levelo_inurba_marseille","lat":43.30622,"lon":5.37566,"is_reserved":false,"is_disabled":false,"rental_uris":{"android":"levelo://app?vid=6dba7751-9b32-49d1-8663-50c18acacf6a","ios":"levelo://app?vid=6dba7751-9b32-49d1-8663-50c18acacf6a"},"vehicle_type_id":"4","last_reported":1783359586,"current_range_meters":8400,"station_id":"","pricing_plan_id":"cebpf4jnsgd1na2vs0mg"},{"bike_id":"6f205eee-91b4-4f71-976a-2c42aee480dd","system_id":"levelo_inurba_marseille","lat":43.28863,"lon":5.3584,"is_reserved":false,"is_disabled":false,"rental_uris":{"android":"levelo://app?vid=6f205eee-91b4-4f71-976a-2c42aee480dd","ios":"levelo://app?vid=6f205eee-91b4-4f71-976a-2c42aee480dd"},"vehicle_type_id":"4","last_reported":1783359586,"current_range_meters":8400,"station_id":"ce4bhb12rcd13ifvqem0","pricing_plan_id":"cebpf4jnsgd1na2vs0mg"},{"bike_id":"1ba829f8-b1b3-42c4-b7d6-56798fbfb19b","system_id":"levelo_inurba_marseille","lat":43.28428,"lon":5.34988,"is_reserved":false,"is_disabled":false,"rental_uris":{"android":"levelo://app?vid=1ba829f8-b1b3-42c4-b7d6-56798fbfb19b","ios":"levelo://app?vid=1ba829f8-b1b3-42c4-b7d6-56798fbfb19b"},"vehicle_type_id":"4","last_reported":1783359586,"current_range_meters":8400,"station_id":"ce4bhbh2rcd13ifvqepg","pricing_plan_id":"cebpf4jnsgd1na2vs0mg"},{"bike_id":"2f62f561-ef2a-46fc-96e9-76eed411fa41","system_id":"levelo_inurba_marseille","lat":43.25501,"lon":5.37654,"is_reserved":false,"is_disabled":false,"rental_uris":{"android":"levelo://app?vid=2f62f561-ef2a-46fc-96e9-76eed411fa41","ios":"levelo://app?vid=2f62f561-ef2a-46fc-96e9-76eed411fa41"},"vehicle_type_id":"4","last_reported":1783359586,"current_range_meters":8400,"station_id":"ce4bhh12rcd13ifvqff0","pricing_plan_id":"cebpf4jnsgd1na2vs0mg"},{"bike_id":"c01c24ac-7761-4b9e-86f9-c1e700386839","system_id":"levelo_inurba_marseille","lat":43.25343,"lon":5.42175,"is_reserved":false,"is_disabled":false,"rental_uris":{"android":"levelo://app?vid=c01c24ac-7761-4b9e-86f9-c1e700386839","ios":"levelo://app?vid=c01c24ac-7761-4b9e-86f9-c1e700386839"},"vehicle_type_id":"4","last_reported":1783359586,"current_range_meters":8400,"station_id":"st_d2m65c5bi1j21697t3ng","pricing_plan_id":"cebpf4jnsgd1na2vs0mg"},{"bike_id":"d6fd6286-31c9-495c-b4b8-87400c0ced7b","system_id":"levelo_inurba_marseille","lat":43.25105,"lon":5.40317,"is_reserved":false,"is_disabled":false,"rental_uris":{"android":"levelo://app?vid=d6fd6286-31c9-495c-b4b8-87400c0ced7b","ios":"levelo://app?vid=d6fd6286-31c9-495c-b4b8-87400c0ced7b"},"vehicle_type_id":"4","last_reported":1783359586,"current_range_meters":8400,"station_id":"ce4bhlh2rcd13ifvqgig","pricing_plan_id":"cebpf4jnsgd1na2vs0mg"},{"bike_id":"f7809977-bda7-43e8-bb7e-4bef8b6f0f97","system_id":"levelo_inurba_marseille","lat":43.30001,"lon":5.37353,"is_reserved":false,"is_disabled":false,"rental_uris":{"android":"levelo://app?vid=f7809977-bda7-43e8-bb7e-4bef8b6f0f97","ios":"levelo://app?vid=f7809977-bda7-43e8-bb7e-4bef8b6f0f97"},"vehicle_type_id":"4","last_reported":1783359586,"current_range_meters":8400,"station_id":"","pricing_plan_id":"cebpf4jnsgd1na2vs0mg"},{"bike_id":"cd85e111-355b-48fa-8f4e-ce7cd2439b91","system_id":"levelo_inurba_marseille","lat":43.28865,"lon":5.42516,"is_reserved":false,"is_disabled":false,"rental_uris":{"android":"levelo://app?vid=cd85e111-355b-48fa-8f4e-ce7cd2439b91","ios":"levelo://app?vid=cd85e111-355b-48fa-8f4e-ce7cd2439b91"},"vehicle_type_id":"4","last_reported":1783359586,"current_range_meters":8400,"station_id":"st_d3b462108ojc7389ooeg","pricing_plan_id":"cebpf4jnsgd1na2vs0mg"},{"bike_id":"c687257a-b456-44d8-98f0-53ddaeafb7ee","system_id":"levelo_inurba_marseille","lat":43.26559,"lon":5.4031,"is_reserved":false,"is_disabled":false,"rental_uris":{"android":"levelo://app?vid=c687257a-b456-44d8-98f0-53ddaeafb7ee","ios":"levelo://app?vid=c687257a-b456-44d8-98f0-53ddaeafb7ee"},"vehicle_type_id":"4","last_reported":1783359586,"current_range_meters":8400,"station_id":"ce4bhmp2rcd13ifvqgng","pricing_plan_id":"cebpf4jnsgd1na2vs0mg"},{"bike_id":"19f607a3-0a54-4eff-a69a-0f6684840ec5","system_id":"levelo_inurba_marseille","lat":43.24943,"lon":5.40485,"is_reserved":false,"is_disabled":false,"rental_uris":{"android":"levelo://app?vid=19f607a3-0a54-4eff-a69a-0f6684840ec5","ios":"levelo://app?vid=19f607a3-0a54-4eff-a69a-0f6684840ec5"},"vehicle_type_id":"4","last_reported":1783359586,"current_range_meters":8400,"station_id":"st_d2ngiaodas8pm72gd1h0","pricing_plan_id":"cebpf4jnsgd1na2vs0mg"},{"bike_id":"92c1b70c-64b6-4a8a-b71e-e9d1a664c618","system_id":"levelo_inurba_marseille","lat":43.27996,"lon":5.41652,"is_reserved":false,"is_disabled":false,"rental_uris":{"android":"levelo://app?vid=92c1b70c-64b6-4a8a-b71e-e9d1a664c618","ios":"levelo://app?vid=92c1b70c-64b6-4a8a-b71e-e9d1a664c618"},"vehicle_type_id":"4","last_reported":1783359586,"current_range_meters":8400,"station_id":"ce4bho12rcd13ifvqh1g","pricing_plan_id":"cebpf4jnsgd1na2vs0mg"},{"bike_id":"7cf32376-6200-45ff-ae05-abfa930fbf9e","system_id":"levelo_inurba_marseille","lat":43.26567,"lon":5.40321,"is_reserved":false,"is_disabled":false,"rental_uris":{"android":"levelo://app?vid=7cf32376-6200-45ff-ae05-abfa930fbf9e","ios":"levelo://app?vid=7cf32376-6200-45ff-ae05-abfa930fbf9e"},"vehicle_type_id":"4","last_reported":1783359586,"current_range_meters":8400,"station_id":"ce4bhmp2rcd13ifvqgng","pricing_plan_id":"cebpf4jnsgd1na2vs0mg"},{"bike_id":"1d423d09-3821-4557-b428-86a879197c3a","system_id":"levelo_inurba_marseille","lat":43.28617,"lon":5.35096,"is_reserved":false,"is_disabled":false,"rental_uris":{"android":"levelo://app?vid=1d423d09-3821-4557-b428-86a879197c3a","ios":"levelo://app?vid=1d423d09-3821-4557-b428-86a879197c3a"},"vehicle_type_id":"4","last_reported":1783359586,"current_range_meters":8400,"station_id":"ce4bhch2rcd13ifvqeug","pricing_plan_id":"cebpf4jnsgd1na2vs0mg"},