{"last_updated":1781443863,"ttl":60,"version":"2.2","data":{"bikes":[{"bike_id":"ec12d144-24c8-4071-abf6-197e520eae96","system_id":"levelo_inurba_marseille","lat":43.337444,"lon":5.374475,"is_reserved":false,"is_disabled":false,"rental_uris":{"android":"levelo://app?vid=ec12d144-24c8-4071-abf6-197e520eae96","ios":"levelo://app?vid=ec12d144-24c8-4071-abf6-197e520eae96"},"vehicle_type_id":"4","last_reported":1781443864,"current_range_meters":0,"station_id":"","pricing_plan_id":"cebpf4jnsgd1na2vs0mg"},{"bike_id":"7750fed4-d122-41f8-ad9e-d930d3ad1cf1","system_id":"levelo_inurba_marseille","lat":43.27313,"lon":5.40059,"is_reserved":false,"is_disabled":false,"rental_uris":{"android":"levelo://app?vid=7750fed4-d122-41f8-ad9e-d930d3ad1cf1","ios":"levelo://app?vid=7750fed4-d122-41f8-ad9e-d930d3ad1cf1"},"vehicle_type_id":"4","last_reported":1781443864,"current_range_meters":2800,"station_id":"","pricing_plan_id":"cebpf4jnsgd1na2vs0mg"},{"bike_id":"2e296511-deb4-43a9-83f0-81592d7a3463","system_id":"levelo_inurba_marseille","lat":43.33196,"lon":5.37715,"is_reserved":false,"is_disabled":false,"rental_uris":{"android":"levelo://app?vid=2e296511-deb4-43a9-83f0-81592d7a3463","ios":"levelo://app?vid=2e296511-deb4-43a9-83f0-81592d7a3463"},"vehicle_type_id":"4","last_reported":1781443864,"current_range_meters":2800,"station_id":"","pricing_plan_id":"cebpf4jnsgd1na2vs0mg"},{"bike_id":"aa4d4832-791f-46b6-b904-76b96512b7a5","system_id":"levelo_inurba_marseille","lat":43.29595,"lon":5.43992,"is_reserved":false,"is_disabled":false,"rental_uris":{"android":"levelo://app?vid=aa4d4832-791f-46b6-b904-76b96512b7a5","ios":"levelo://app?vid=aa4d4832-791f-46b6-b904-76b96512b7a5"},"vehicle_type_id":"4","last_reported":1781443864,"current_range_meters":2800,"station_id":"","pricing_plan_id":"cebpf4jnsgd1na2vs0mg"},{"bike_id":"4b84cc20-93d9-4e85-811a-ba432f50bc38","system_id":"levelo_inurba_marseille","lat":43.26188,"lon":5.38092,"is_reserved":false,"is_disabled":false,"rental_uris":{"android":"levelo://app?vid=4b84cc20-93d9-4e85-811a-ba432f50bc38","ios":"levelo://app?vid=4b84cc20-93d9-4e85-811a-ba432f50bc38"},"vehicle_type_id":"4","last_reported":1781443864,"current_range_meters":2800,"station_id":"","pricing_plan_id":"cebpf4jnsgd1na2vs0mg"},{"bike_id":"20b0f04c-b882-40c0-b849-52f7f91d6240","system_id":"levelo_inurba_marseille","lat":43.27476,"lon":5.41853,"is_reserved":false,"is_disabled":false,"rental_uris":{"android":"levelo://app?vid=20b0f04c-b882-40c0-b849-52f7f91d6240","ios":"levelo://app?vid=20b0f04c-b882-40c0-b849-52f7f91d6240"},"vehicle_type_id":"4","last_reported":1781443864,"current_range_meters":2800,"station_id":"","pricing_plan_id":"cebpf4jnsgd1na2vs0mg"},{"bike_id":"fcdcbcae-f5da-4c7b-ab71-0fcd1aa18940","system_id":"levelo_inurba_marseille","lat":43.27372,"lon":5.36255,"is_reserved":false,"is_disabled":false,"rental_uris":{"android":"levelo://app?vid=fcdcbcae-f5da-4c7b-ab71-0fcd1aa18940","ios":"levelo://app?vid=fcdcbcae-f5da-4c7b-ab71-0fcd1aa18940"},"vehicle_type_id":"4","last_reported":1781443864,"current_range_meters":2800,"station_id":"ce4bhbh2rcd13ifvqeo0","pricing_plan_id":"cebpf4jnsgd1na2vs0mg"},{"bike_id":"ef048e93-3c21-4aea-ad20-87c8427753a3","system_id":"levelo_inurba_marseille","lat":43.28859,"lon":5.42524,"is_reserved":false,"is_disabled":false,"rental_uris":{"android":"levelo://app?vid=ef048e93-3c21-4aea-ad20-87c8427753a3","ios":"levelo://app?vid=ef048e93-3c21-4aea-ad20-87c8427753a3"},"vehicle_type_id":"4","last_reported":1781443864,"current_range_meters":2800,"station_id":"st_d3b462108ojc7389ooeg","pricing_plan_id":"cebpf4jnsgd1na2vs0mg"},{"bike_id":"a4367c49-3ad9-4e5d-b890-d24a763f0a44","system_id":"levelo_inurba_marseille","lat":43.28814,"lon":5.42771,"is_reserved":false,"is_disabled":false,"rental_uris":{"android":"levelo://app?vid=a4367c49-3ad9-4e5d-b890-d24a763f0a44","ios":"levelo://app?vid=a4367c49-3ad9-4e5d-b890-d24a763f0a44"},"vehicle_type_id":"4","last_reported":1781443864,"current_range_meters":2800,"station_id":"","pricing_plan_id":"cebpf4jnsgd1na2vs0mg"},{"bike_id":"743d7a49-ee48-4eef-bff9-1b426eaf0aaa","system_id":"levelo_inurba_marseille","lat":43.2338,"lon":5.41242,"is_reserved":false,"is_disabled":false,"rental_uris":{"android":"levelo://app?vid=743d7a49-ee48-4eef-bff9-1b426eaf0aaa","ios":"levelo://app?vid=743d7a49-ee48-4eef-bff9-1b426eaf0aaa"},"vehicle_type_id":"4","last_reported":1781443864,"current_range_meters":2800,"station_id":"st_d75pvndhf9lc73cqq3eg","pricing_plan_id":"cebpf4jnsgd1na2vs0mg"},{"bike_id":"7996859e-00db-45f6-8025-7017f3207df2","system_id":"levelo_inurba_marseille","lat":43.237851,"lon":5.366327,"is_reserved":false,"is_disabled":false,"rental_uris":{"android":"levelo://app?vid=7996859e-00db-45f6-8025-7017f3207df2","ios":"levelo://app?vid=7996859e-00db-45f6-8025-7017f3207df2"},"vehicle_type_id":"4","last_reported":1781443864,"current_range_meters":3200,"station_id":"st_d3nk18o9ro0c73en2l3g","pricing_plan_id":"cebpf4jnsgd1na2vs0mg"},{"bike_id":"4d5a5509-6e0f-4940-a752-9cd3b62fe513","system_id":"levelo_inurba_marseille","lat":43.2841,"lon":5.34985,"is_reserved":false,"is_disabled":false,"rental_uris":{"android":"levelo://app?vid=4d5a5509-6e0f-4940-a752-9cd3b62fe513","ios":"levelo://app?vid=4d5a5509-6e0f-4940-a752-9cd3b62fe513"},"vehicle_type_id":"4","last_reported":1781443864,"current_range_meters":3200,"station_id":"ce4bhbh2rcd13ifvqepg","pricing_plan_id":"cebpf4jnsgd1na2vs0mg"},{"bike_id":"6216e971-d99d-4e09-bc68-2b6a22b618d5","system_id":"levelo_inurba_marseille","lat":43.3421,"lon":5.36106,"is_reserved":false,"is_disabled":false,"rental_uris":{"android":"levelo://app?vid=6216e971-d99d-4e09-bc68-2b6a22b618d5","ios":"levelo://app?vid=6216e971-d99d-4e09-bc68-2b6a22b618d5"},"vehicle_type_id":"4","last_reported":1781443864,"current_range_meters":3200,"station_id":"","pricing_plan_id":"cebpf4jnsgd1na2vs0mg"},{"bike_id":"50958dce-4e1d-4404-87e6-7173aa67c6e9","system_id":"levelo_inurba_marseille","lat":43.26369,"lon":5.41057,"is_reserved":false,"is_disabled":false,"rental_uris":{"android":"levelo://app?vid=50958dce-4e1d-4404-87e6-7173aa67c6e9","ios":"levelo://app?vid=50958dce-4e1d-4404-87e6-7173aa67c6e9"},"vehicle_type_id":"4","last_reported":1781443864,"current_range_meters":3200,"station_id":"st_d4e5ca6na9uc73bfl5fg","pricing_plan_id":"cebpf4jnsgd1na2vs0mg"},{"bike_id":"bb9ead7f-23bb-4770-aa74-ee8254f9c183","system_id":"levelo_inurba_marseille","lat":43.30419,"lon":5.41274,"is_reserved":false,"is_disabled":false,"rental_uris":{"android":"levelo://app?vid=bb9ead7f-23bb-4770-aa74-ee8254f9c183","ios":"levelo://app?vid=bb9ead7f-23bb-4770-aa74-ee8254f9c183"},"vehicle_type_id":"4","last_reported":1781443864,"current_range_meters":3200,"station_id":"ce4bhop2rcd13ifvqh8g","pricing_plan_id":"cebpf4jnsgd1na2vs0mg"},{"bike_id":"de1aa6e0-b781-47d6-b5b7-aeceeaa52c8d","system_id":"levelo_inurba_marseille","lat":43.2907,"lon":5.37154,"is_reserved":false,"is_disabled":true,"rental_uris":{"android":"levelo://app?vid=de1aa6e0-b781-47d6-b5b7-aeceeaa52c8d","ios":"levelo://app?vid=de1aa6e0-b781-47d6-b5b7-aeceeaa52c8d"},"vehicle_type_id":"4","last_reported":1781443864,"current_range_meters":3200,"station_id":"ce4bh5p2rcd13ifvqe4g","pricing_plan_id":"cebpf4jnsgd1na2vs0mg"},{"bike_id":"d2673cd9-6c70-4d80-832c-9de4211b4cad","system_id":"levelo_inurba_marseille","lat":43.27382,"lon":5.36253,"is_reserved":false,"is_disabled":true,"rental_uris":{"android":"levelo://app?vid=d2673cd9-6c70-4d80-832c-9de4211b4cad","ios":"levelo://app?vid=d2673cd9-6c70-4d80-832c-9de4211b4cad"},"vehicle_type_id":"4","last_reported":1781443864,"current_range_meters":3200,"station_id":"ce4bhbh2rcd13ifvqeo0","pricing_plan_id":"cebpf4jnsgd1na2vs0mg"},{"bike_id":"12326527-aa04-43ed-8122-fab62005bcac","system_id":"levelo_inurba_marseille","lat":43.27368,"lon":5.36246,"is_reserved":false,"is_disabled":true,"rental_uris":{"android":"levelo://app?vid=12326527-aa04-43ed-8122-fab62005bcac","ios":"levelo://app?vid=12326527-aa04-43ed-8122-fab62005bcac"},"vehicle_type_id":"4","last_reported":1781443864,"current_range_meters":3200,"station_id":"ce4bhbh2rcd13ifvqeo0","pricing_plan_id":"cebpf4jnsgd1na2vs0mg"},{"bike_id":"e21b79ac-062e-470d-96b9-ffefe275a556","system_id":"levelo_inurba_marseille","lat":43.28061,"lon":5.35292,"is_reserved":false,"is_disabled":false,"rental_uris":{"android":"levelo://app?vid=e21b79ac-062e-470d-96b9-ffefe275a556","ios":"levelo://app?vid=e21b79ac-062e-470d-96b9-ffefe275a556"},"vehicle_type_id":"4","last_reported":1781443864,"current_range_meters":3200,"station_id":"","pricing_plan_id":"cebpf4jnsgd1na2vs0mg"},{"bike_id":"dc3e3e35-560a-41ac-8b92-c31e5b3f3434","system_id":"levelo_inurba_marseille","lat":43.26689,"lon":5.39272,"is_reserved":false,"is_disabled":false,"rental_uris":{"android":"levelo://app?vid=dc3e3e35-560a-41ac-8b92-c31e5b3f3434","ios":"levelo://app?vid=dc3e3e35-560a-41ac-8b92-c31e5b3f3434"},"vehicle_type_id":"4","last_reported":1781443864,"current_range_meters":3200,"station_id":"","pricing_plan_id":"cebpf4jnsgd1na2vs0mg"},{"bike_id":"d89537aa-fbc0-4608-92f9-c315a30fed18","system_id":"levelo_inurba_marseille","lat":43.29175,"lon":5.37145,"is_reserved":false,"is_disabled":true,"rental_uris":{"android":"levelo://app?vid=d89537aa-fbc0-4608-92f9-c315a30fed18","ios":"levelo://app?vid=d89537aa-fbc0-4608-92f9-c315a30fed18"},"vehicle_type_id":"4","last_reported":1781443864,"current_range_meters":3200,"station_id":"ce4bha92rcd13ifvqeh0","pricing_plan_id":"cebpf4jnsgd1na2vs0mg"},{"bike_id":"af9ab3e3-76fa-43b3-954c-3e436e680619","system_id":"levelo_inurba_marseille","lat":43.23958,"lon":5.36646,"is_reserved":false,"is_disabled":false,"rental_uris":{"android":"levelo://app?vid=af9ab3e3-76fa-43b3-954c-3e436e680619","ios":"levelo://app?vid=af9ab3e3-76fa-43b3-954c-3e436e680619"},"vehicle_type_id":"4","last_reported":1781443864,"current_range_meters":3200,"station_id":"ce4bhi12rcd13ifvqfp0","pricing_plan_id":"cebpf4jnsgd1na2vs0mg"},{"bike_id":"1ee09c36-c3d7-429d-900c-73e2f1643a9e","system_id":"levelo_inurba_marseille","lat":43.27611,"lon":5.36094,"is_reserved":false,"is_disabled":true,"rental_uris":{"android":"levelo://app?vid=1ee09c36-c3d7-429d-900c-73e2f1643a9e","ios":"levelo://app?vid=1ee09c36-c3d7-429d-900c-73e2f1643a9e"},"vehicle_type_id":"4","last_reported":1781443864,"current_range_meters":3200,"station_id":"ce4bgj92rcd13ifvqbe0","pricing_plan_id":"cebpf4jnsgd1na2vs0mg"},{"bike_id":"fca4716d-363f-4061-9268-5fdf2b190705","system_id":"levelo_inurba_marseille","lat":43.281035,"lon":5.367145,"is_reserved":false,"is_disabled":true,"rental_uris":{"android":"levelo://app?vid=fca4716d-363f-4061-9268-5fdf2b190705","ios":"levelo://app?vid=fca4716d-363f-4061-9268-5fdf2b190705"},"vehicle_type_id":"4","last_reported":1781443864,"current_range_meters":3600,"station_id":"ce4bhgp2rcd13ifvqfc0","pricing_plan_id":"cebpf4jnsgd1na2vs0mg"},{"bike_id":"c34fbc7c-a764-4caa-9ea2-2d49365a9388","system_id":"levelo_inurba_marseille","lat":43.32475,"lon":5.36531,"is_reserved":false,"is_disabled":false,"rental_uris":{"android":"levelo://app?vid=c34fbc7c-a764-4caa-9ea2-2d49365a9388","ios":"levelo://app?vid=c34fbc7c-a764-4caa-9ea2-2d49365a9388"},"vehicle_type_id":"4","last_reported":1781443864,"current_range_meters":3600,"station_id":"ce4bhs12rcd13ifvqhvg","pricing_plan_id":"cebpf4jnsgd1na2vs0mg"},{"bike_id":"dbdb02f7-908c-49d2-8115-03d8de847394","system_id":"levelo_inurba_marseille","lat":43.24396,"lon":5.37053,"is_reserved":false,"is_disabled":false,"rental_uris":{"android":"levelo://app?vid=dbdb02f7-908c-49d2-8115-03d8de847394","ios":"levelo://app?vid=dbdb02f7-908c-49d2-8115-03d8de847394"},"vehicle_type_id":"4","last_reported":1781443864,"current_range_meters":3600,"station_id":"ce4bhhh2rcd13ifvqfk0","pricing_plan_id":"cebpf4jnsgd1na2vs0mg"},{"bike_id":"459952f5-55f8-43e7-b3ad-b9d83a8b249e","system_id":"levelo_inurba_marseille","lat":43.24593,"lon":5.41696,"is_reserved":false,"is_disabled":false,"rental_uris":{"android":"levelo://app?vid=459952f5-55f8-43e7-b3ad-b9d83a8b249e","ios":"levelo://app?vid=459952f5-55f8-43e7-b3ad-b9d83a8b249e"},"vehicle_type_id":"4","last_reported":1781443864,"current_range_meters":3600,"station_id":"","pricing_plan_id":"cebpf4jnsgd1na2vs0mg"},{"bike_id":"5b5ea2fb-3ba8-4c10-841c-ca34891a615c","system_id":"levelo_inurba_marseille","lat":43.29336,"lon":5.36395,"is_reserved":false,"is_disabled":false,"rental_uris":{"android":"levelo://app?vid=5b5ea2fb-3ba8-4c10-841c-ca34891a615c","ios":"levelo://app?vid=5b5ea2fb-3ba8-4c10-841c-ca34891a615c"},"vehicle_type_id":"4","last_reported":1781443864,"current_range_meters":3600,"station_id":"","pricing_plan_id":"cebpf4jnsgd1na2vs0mg"},{"bike_id":"aacd3ef2-648d-4db7-aac1-750547b503fe","system_id":"levelo_inurba_marseille","lat":43.28433,"lon":5.34997,"is_reserved":false,"is_disabled":false,"rental_uris":{"android":"levelo://app?vid=aacd3ef2-648d-4db7-aac1-750547b503fe","ios":"levelo://app?vid=aacd3ef2-648d-4db7-aac1-750547b503fe"},"vehicle_type_id":"4","last_reported":1781443864,"current_range_meters":3600,"station_id":"ce4bhbh2rcd13ifvqepg","pricing_plan_id":"cebpf4jnsgd1na2vs0mg"},{"bike_id":"6abb9ed5-5eac-497e-9b28-08741b8304cc","system_id":"levelo_inurba_marseille","lat":43.28409,"lon":5.34991,"is_reserved":false,"is_disabled":false,"rental_uris":{"android":"levelo://app?vid=6abb9ed5-5eac-497e-9b28-08741b8304cc","ios":"levelo://app?vid=6abb9ed5-5eac-497e-9b28-08741b8304cc"},"vehicle_type_id":"4","last_reported":1781443864,"current_range_meters":3600,"station_id":"ce4bhbh2rcd13ifvqepg","pricing_plan_id":"cebpf4jnsgd1na2vs0mg"},{"bike_id":"4b910ed8-62e8-40cd-93dc-35308cfde7be","system_id":"levelo_inurba_marseille","lat":43.26677,"lon":5.38273,"is_reserved":false,"is_disabled":true,"rental_uris":{"android":"levelo://app?vid=4b910ed8-62e8-40cd-93dc-35308cfde7be","ios":"levelo://app?vid=4b910ed8-62e8-40cd-93dc-35308cfde7be"},"vehicle_type_id":"4","last_reported":1781443864,"current_range_meters":3600,"station_id":"ce4bhg92rcd13ifvqf90","pricing_plan_id":"cebpf4jnsgd1na2vs0mg"},{"bike_id":"49cf2ae1-9820-4b29-8203-b94b18b6aae4","system_id":"levelo_inurba_marseille","lat":43.30293,"lon":5.3693,"is_reserved":false,"is_disabled":false,"rental_uris":{"android":"levelo://app?vid=49cf2ae1-9820-4b29-8203-b94b18b6aae4","ios":"levelo://app?vid=49cf2ae1-9820-4b29-8203-b94b18b6aae4"},"vehicle_type_id":"4","last_reported":1781443864,"current_range_meters":3600,"station_id":"ce4bgqh2rcd13ifvqc5g","pricing_plan_id":"cebpf4jnsgd1na2vs0mg"},{"bike_id":"6fb07b35-b88f-45ae-9e9e-ceed1b219374","system_id":"levelo_inurba_marseille","lat":43.32482,"lon":5.36579,"is_reserved":false,"is_disabled":true,"rental_uris":{"android":"levelo://app?vid=6fb07b35-b88f-45ae-9e9e-ceed1b219374","ios":"levelo://app?vid=6fb07b35-b88f-45ae-9e9e-ceed1b219374"},"vehicle_type_id":"4","last_reported":1781443864,"current_range_meters":3600,"station_id":"ce4bhs12rcd13ifvqhvg","pricing_plan_id":"cebpf4jnsgd1na2vs0mg"},{"bike_id":"61acdcff-76d7-4bb2-a256-e2ec611550e8","system_id":"levelo_inurba_marseille","lat":43.26571,"lon":5.39009,"is_reserved":false,"is_disabled":true,"rental_uris":{"android":"levelo://app?vid=61acdcff-76d7-4bb2-a256-e2ec611550e8","ios":"levelo://app?vid=61acdcff-76d7-4bb2-a256-e2ec611550e8"},"vehicle_type_id":"4","last_reported":1781443864,"current_range_meters":3600,"station_id":"ce4bhe12rcd13ifvqf30","pricing_plan_id":"cebpf4jnsgd1na2vs0mg"},{"bike_id":"8c018269-899c-400c-878b-35eed0215321","system_id":"levelo_inurba_marseille","lat":43.273763,"lon":5.362579,"is_reserved":false,"is_disabled":false,"rental_uris":{"android":"levelo://app?vid=8c018269-899c-400c-878b-35eed0215321","ios":"levelo://app?vid=8c018269-899c-400c-878b-35eed0215321"},"vehicle_type_id":"4","last_reported":1781443864,"current_range_meters":3600,"station_id":"ce4bhbh2rcd13ifvqeo0","pricing_plan_id":"cebpf4jnsgd1na2vs0mg"},{"bike_id":"8f809aba-fb91-4274-9669-f9211fc8e411","system_id":"levelo_inurba_marseille","lat":43.23296,"lon":5.39976,"is_reserved":false,"is_disabled":false,"rental_uris":{"android":"levelo://app?vid=8f809aba-fb91-4274-9669-f9211fc8e411","ios":"levelo://app?vid=8f809aba-fb91-4274-9669-f9211fc8e411"},"vehicle_type_id":"4","last_reported":1781443864,"current_range_meters":4000,"station_id":"","pricing_plan_id":"cebpf4jnsgd1na2vs0mg"},{"bike_id":"1fa9d7e4-1f68-42ba-b54d-02fcd69dfb3c","system_id":"levelo_inurba_marseille","lat":43.29974,"lon":5.38468,"is_reserved":false,"is_disabled":true,"rental_uris":{"android":"levelo://app?vid=1fa9d7e4-1f68-42ba-b54d-02fcd69dfb3c","ios":"levelo://app?vid=1fa9d7e4-1f68-42ba-b54d-02fcd69dfb3c"},"vehicle_type_id":"4","last_reported":1781443864,"current_range_meters":4000,"station_id":"ce4bgj92rcd13ifvqbd0","pricing_plan_id":"cebpf4jnsgd1na2vs0mg"},{"bike_id":"4a072461-038e-4d4a-820c-a37736b5022e","system_id":"levelo_inurba_marseille","lat":43.231959,"lon":5.35554,"is_reserved":false,"is_disabled":false,"rental_uris":{"android":"levelo://app?vid=4a072461-038e-4d4a-820c-a37736b5022e","ios":"levelo://app?vid=4a072461-038e-4d4a-820c-a37736b5022e"},"vehicle_type_id":"4","last_reported":1781443864,"current_range_meters":4000,"station_id":"ce4bhu92rcd13ifvqi70","pricing_plan_id":"cebpf4jnsgd1na2vs0mg"},{"bike_id":"b6fe34b1-c8cb-4297-b197-4ada44a8039d","system_id":"levelo_inurba_marseille","lat":43.27898,"lon":5.38009,"is_reserved":false,"is_disabled":false,"rental_uris":{"android":"levelo://app?vid=b6fe34b1-c8cb-4297-b197-4ada44a8039d","ios":"levelo://app?vid=b6fe34b1-c8cb-4297-b197-4ada44a8039d"},"vehicle_type_id":"4","last_reported":1781443864,"current_range_meters":4000,"station_id":"ce4bhf92rcd13ifvqf50","pricing_plan_id":"cebpf4jnsgd1na2vs0mg"},{"bike_id":"1c788ec5-566e-4d09-9344-44c449a1a9eb","system_id":"levelo_inurba_marseille","lat":43.30126,"lon":5.43065,"is_reserved":false,"is_disabled":false,"rental_uris":{"android":"levelo://app?vid=1c788ec5-566e-4d09-9344-44c449a1a9eb","ios":"levelo://app?vid=1c788ec5-566e-4d09-9344-44c449a1a9eb"},"vehicle_type_id":"4","last_reported":1781443864,"current_range_meters":4000,"station_id":"st_d3js3co5814s73ftftug","pricing_plan_id":"cebpf4jnsgd1na2vs0mg"},{"bike_id":"7017261d-03a9-4439-9ebd-78a9bdfab755","system_id":"levelo_inurba_marseille","lat":43.26545,"lon":5.37285,"is_reserved":false,"is_disabled":false,"rental_uris":{"android":"levelo://app?vid=7017261d-03a9-4439-9ebd-78a9bdfab755","ios":"levelo://app?vid=7017261d-03a9-4439-9ebd-78a9bdfab755"},"vehicle_type_id":"4","last_reported":1781443864,"current_range_meters":4000,"station_id":"ce4bhg12rcd13ifvqf70","pricing_plan_id":"cebpf4jnsgd1na2vs0mg"},{"bike_id":"cf11dd40-b113-45d9-8d41-8d04b849c2c4","system_id":"levelo_inurba_marseille","lat":43.2911,"lon":5.42776,"is_reserved":false,"is_disabled":false,"rental_uris":{"android":"levelo://app?vid=cf11dd40-b113-45d9-8d41-8d04b849c2c4","ios":"levelo://app?vid=cf11dd40-b113-45d9-8d41-8d04b849c2c4"},"vehicle_type_id":"4","last_reported":1781443864,"current_range_meters":4000,"station_id":"","pricing_plan_id":"cebpf4jnsgd1na2vs0mg"},{"bike_id":"7943fcce-c580-48ee-9c89-b08e2380e38c","system_id":"levelo_inurba_marseille","lat":43.24807,"lon":5.37459,"is_reserved":false,"is_disabled":false,"rental_uris":{"android":"levelo://app?vid=7943fcce-c580-48ee-9c89-b08e2380e38c","ios":"levelo://app?vid=7943fcce-c580-48ee-9c89-b08e2380e38c"},"vehicle_type_id":"4","last_reported":1781443864,"current_range_meters":4000,"station_id":"ce4bhgh2rcd13ifvqfb0","pricing_plan_id":"cebpf4jnsgd1na2vs0mg"},{"bike_id":"41d61f3a-572c-4240-9f59-8b5b646be959","system_id":"levelo_inurba_marseille","lat":43.31909,"lon":5.36814,"is_reserved":false,"is_disabled":false,"rental_uris":{"android":"levelo://app?vid=41d61f3a-572c-4240-9f59-8b5b646be959","ios":"levelo://app?vid=41d61f3a-572c-4240-9f59-8b5b646be959"},"vehicle_type_id":"4","last_reported":1781443864,"current_range_meters":4000,"station_id":"st_d6o2h0d0559c73evc1b0","pricing_plan_id":"cebpf4jnsgd1na2vs0mg"},{"bike_id":"7717390a-9f55-4678-b2a5-ba0a73b8a548","system_id":"levelo_inurba_marseille","lat":43.31576,"lon":5.36884,"is_reserved":false,"is_disabled":false,"rental_uris":{"android":"levelo://app?vid=7717390a-9f55-4678-b2a5-ba0a73b8a548","ios":"levelo://app?vid=7717390a-9f55-4678-b2a5-ba0a73b8a548"},"vehicle_type_id":"4","last_reported":1781443864,"current_range_meters":4000,"station_id":"","pricing_plan_id":"cebpf4jnsgd1na2vs0mg"},{"bike_id":"c97fb99a-7c2e-4698-a401-a6886e4eb5f4","system_id":"levelo_inurba_marseille","lat":43.2873,"lon":5.42703,"is_reserved":false,"is_disabled":false,"rental_uris":{"android":"levelo://app?vid=c97fb99a-7c2e-4698-a401-a6886e4eb5f4","ios":"levelo://app?vid=c97fb99a-7c2e-4698-a401-a6886e4eb5f4"},"vehicle_type_id":"4","last_reported":1781443864,"current_range_meters":4000,"station_id":"","pricing_plan_id":"cebpf4jnsgd1na2vs0mg"},{"bike_id":"3f683387-f7ec-4b9f-9801-ff63896077b4","system_id":"levelo_inurba_marseille","lat":43.23947,"lon":5.36543,"is_reserved":false,"is_disabled":false,"rental_uris":{"android":"levelo://app?vid=3f683387-f7ec-4b9f-9801-ff63896077b4","ios":"levelo://app?vid=3f683387-f7ec-4b9f-9801-ff63896077b4"},"vehicle_type_id":"4","last_reported":1781443864,"current_range_meters":4000,"station_id":"","pricing_plan_id":"cebpf4jnsgd1na2vs0mg"},{"bike_id":"4520628f-e7b1-477b-8f50-bfe6959d1fe3","system_id":"levelo_inurba_marseille","lat":43.295712,"lon":5.399734,"is_reserved":false,"is_disabled":false,"rental_uris":{"android":"levelo://app?vid=4520628f-e7b1-477b-8f50-bfe6959d1fe3","ios":"levelo://app?vid=4520628f-e7b1-477b-8f50-bfe6959d1fe3"},"vehicle_type_id":"4","last_reported":1781443864,"current_range_meters":4000,"station_id":"ce4bh312rcd13ifvqdj0","pricing_plan_id":"cebpf4jnsgd1na2vs0mg"},{"bike_id":"da49f8bf-ac47-4f75-a9fc-b5a0f8173bc6","system_id":"levelo_inurba_marseille","lat":43.28458,"lon":5.35875,"is_reserved":false,"is_disabled":true,"rental_uris":{"android":"levelo://app?vid=da49f8bf-ac47-4f75-a9fc-b5a0f8173bc6","ios":"levelo://app?vid=da49f8bf-ac47-4f75-a9fc-b5a0f8173bc6"},"vehicle_type_id":"4","last_reported":1781443864,"current_range_meters":4400,"station_id":"ce4bhah2rcd13ifvqei0","pricing_plan_id":"cebpf4jnsgd1na2vs0mg"},{"bike_id":"8185a93a-df23-4cba-b5aa-efc041cddc09","system_id":"levelo_inurba_marseille","lat":43.2962,"lon":5.40611,"is_reserved":false,"is_disabled":true,"rental_uris":{"android":"levelo://app?vid=8185a93a-df23-4cba-b5aa-efc041cddc09","ios":"levelo://app?vid=8185a93a-df23-4cba-b5aa-efc041cddc09"},"vehicle_type_id":"4","last_reported":1781443864,"current_range_meters":4400,"station_id":"ce4bh0h2rcd13ifvqd60","pricing_plan_id":"cebpf4jnsgd1na2vs0mg"},{"bike_id":"93b03f6b-edc6-445d-908a-770c538c330f","system_id":"levelo_inurba_marseille","lat":43.25963,"lon":5.39409,"is_reserved":false,"is_disabled":false,"rental_uris":{"android":"levelo://app?vid=93b03f6b-edc6-445d-908a-770c538c330f","ios":"levelo://app?vid=93b03f6b-edc6-445d-908a-770c538c330f"},"vehicle_type_id":"4","last_reported":1781443864,"current_range_meters":4400,"station_id":"","pricing_plan_id":"cebpf4jnsgd1na2vs0mg"},{"bike_id":"eb6a9cfd-9834-472e-84c9-d095d9a96d02","system_id":"levelo_inurba_marseille","lat":43.29206,"lon":5.3838,"is_reserved":false,"is_disabled":false,"rental_uris":{"android":"levelo://app?vid=eb6a9cfd-9834-472e-84c9-d095d9a96d02","ios":"levelo://app?vid=eb6a9cfd-9834-472e-84c9-d095d9a96d02"},"vehicle_type_id":"4","last_reported":1781443864,"current_range_meters":4400,"station_id":"","pricing_plan_id":"cebpf4jnsgd1na2vs0mg"},{"bike_id":"21cd99e0-3e10-435d-a6d2-f3dcfb3afa09","system_id":"levelo_inurba_marseille","lat":43.27061,"lon":5.38297,"is_reserved":false,"is_disabled":false,"rental_uris":{"android":"levelo://app?vid=21cd99e0-3e10-435d-a6d2-f3dcfb3afa09","ios":"levelo://app?vid=21cd99e0-3e10-435d-a6d2-f3dcfb3afa09"},"vehicle_type_id":"4","last_reported":1781443864,"current_range_meters":4400,"station_id":"st_d3n2fo6cfp8s73cte1j0","pricing_plan_id":"cebpf4jnsgd1na2vs0mg"},{"bike_id":"afc6788d-6169-49e9-9a66-a62e10ac4ced","system_id":"levelo_inurba_marseille","lat":43.24166,"lon":5.36397,"is_reserved":false,"is_disabled":false,"rental_uris":{"android":"levelo://app?vid=afc6788d-6169-49e9-9a66-a62e10ac4ced","ios":"levelo://app?vid=afc6788d-6169-49e9-9a66-a62e10ac4ced"},"vehicle_type_id":"4","last_reported":1781443864,"current_range_meters":4400,"station_id":"cpo36qri1sfpv3e86is0","pricing_plan_id":"cebpf4jnsgd1na2vs0mg"},{"bike_id":"39e0917b-8fc5-4f5b-9dee-c9684c7f5a1c","system_id":"levelo_inurba_marseille","lat":43.286814,"lon":5.399981,"is_reserved":false,"is_disabled":false,"rental_uris":{"android":"levelo://app?vid=39e0917b-8fc5-4f5b-9dee-c9684c7f5a1c","ios":"levelo://app?vid=39e0917b-8fc5-4f5b-9dee-c9684c7f5a1c"},"vehicle_type_id":"4","last_reported":1781443864,"current_range_meters":4400,"station_id":"ce4bho92rcd13ifvqh3g","pricing_plan_id":"cebpf4jnsgd1na2vs0mg"},{"bike_id":"c24a95be-4cfe-4d8d-bca3-bcc7fd52638d","system_id":"levelo_inurba_marseille","lat":43.29736,"lon":5.37674,"is_reserved":false,"is_disabled":false,"rental_uris":{"android":"levelo://app?vid=c24a95be-4cfe-4d8d-bca3-bcc7fd52638d","ios":"levelo://app?vid=c24a95be-4cfe-4d8d-bca3-bcc7fd52638d"},"vehicle_type_id":"4","last_reported":1781443864,"current_range_meters":4400,"station_id":"ce4bgkh2rcd13ifvqbl0","pricing_plan_id":"cebpf4jnsgd1na2vs0mg"},{"bike_id":"8dcb921f-c1f4-4709-a9c4-82970db7849a","system_id":"levelo_inurba_marseille","lat":43.29576,"lon":5.36744,"is_reserved":false,"is_disabled":false,"rental_uris":{"android":"levelo://app?vid=8dcb921f-c1f4-4709-a9c4-82970db7849a","ios":"levelo://app?vid=8dcb921f-c1f4-4709-a9c4-82970db7849a"},"vehicle_type_id":"4","last_reported":1781443864,"current_range_meters":4400,"station_id":"ce4bgph2rcd13ifvqc2g","pricing_plan_id":"cebpf4jnsgd1na2vs0mg"},{"bike_id":"ae50290c-b1a9-4c5d-bab4-e16d03b57a24","system_id":"levelo_inurba_marseille","lat":43.291984,"lon":5.357929,"is_reserved":false,"is_disabled":false,"rental_uris":{"android":"levelo://app?vid=ae50290c-b1a9-4c5d-bab4-e16d03b57a24","ios":"levelo://app?vid=ae50290c-b1a9-4c5d-bab4-e16d03b57a24"},"vehicle_type_id":"4","last_reported":1781443864,"current_range_meters":4400,"station_id":"ce4bhb12rcd13ifvqel0","pricing_plan_id":"cebpf4jnsgd1na2vs0mg"},{"bike_id":"97d3ece0-24ab-4a77-921c-1650f51b00b5","system_id":"levelo_inurba_marseille","lat":43.2761,"lon":5.36099,"is_reserved":false,"is_disabled":false,"rental_uris":{"android":"levelo://app?vid=97d3ece0-24ab-4a77-921c-1650f51b00b5","ios":"levelo://app?vid=97d3ece0-24ab-4a77-921c-1650f51b00b5"},"vehicle_type_id":"4","last_reported":1781443864,"current_range_meters":4400,"station_id":"ce4bgj92rcd13ifvqbe0","pricing_plan_id":"cebpf4jnsgd1na2vs0mg"},{"bike_id":"7a0f1fc4-9a93-49cf-a7f3-07d8e661a909","system_id":"levelo_inurba_marseille","lat":43.24165,"lon":5.36398,"is_reserved":false,"is_disabled":false,"rental_uris":{"android":"levelo://app?vid=7a0f1fc4-9a93-49cf-a7f3-07d8e661a909","ios":"levelo://app?vid=7a0f1fc4-9a93-49cf-a7f3-07d8e661a909"},"vehicle_type_id":"4","last_reported":1781443864,"current_range_meters":4400,"station_id":"cpo36qri1sfpv3e86is0","pricing_plan_id":"cebpf4jnsgd1na2vs0mg"},{"bike_id":"dfce78f1-080b-438a-b7e6-b2fe1bb09538","system_id":"levelo_inurba_marseille","lat":43.22546,"lon":5.41622,"is_reserved":false,"is_disabled":false,"rental_uris":{"android":"levelo://app?vid=dfce78f1-080b-438a-b7e6-b2fe1bb09538","ios":"levelo://app?vid=dfce78f1-080b-438a-b7e6-b2fe1bb09538"},"vehicle_type_id":"4","last_reported":1781443864,"current_range_meters":4400,"station_id":"st_d2o4gvlbi1j2169b742g","pricing_plan_id":"cebpf4jnsgd1na2vs0mg"},{"bike_id":"d1e6d63b-7ae7-4818-b98c-e7ec7ff6ef18","system_id":"levelo_inurba_marseille","lat":43.22551,"lon":5.41637,"is_reserved":false,"is_disabled":false,"rental_uris":{"android":"levelo://app?vid=d1e6d63b-7ae7-4818-b98c-e7ec7ff6ef18","ios":"levelo://app?vid=d1e6d63b-7ae7-4818-b98c-e7ec7ff6ef18"},"vehicle_type_id":"4","last_reported":1781443864,"current_range_meters":4400,"station_id":"st_d2o4gvlbi1j2169b742g","pricing_plan_id":"cebpf4jnsgd1na2vs0mg"},{"bike_id":"948e7dcf-c12b-4293-8ebe-ef6b71975867","system_id":"levelo_inurba_marseille","lat":43.24183,"lon":5.36406,"is_reserved":false,"is_disabled":true,"rental_uris":{"android":"levelo://app?vid=948e7dcf-c12b-4293-8ebe-ef6b71975867","ios":"levelo://app?vid=948e7dcf-c12b-4293-8ebe-ef6b71975867"},"vehicle_type_id":"4","last_reported":1781443864,"current_range_meters":4400,"station_id":"cpo36qri1sfpv3e86is0","pricing_plan_id":"cebpf4jnsgd1na2vs0mg"},{"bike_id":"a50af965-b87b-4f91-9b9a-3e26dc71f7c1","system_id":"levelo_inurba_marseille","lat":43.29032,"lon":5.43684,"is_reserved":false,"is_disabled":false,"rental_uris":{"android":"levelo://app?vid=a50af965-b87b-4f91-9b9a-3e26dc71f7c1","ios":"levelo://app?vid=a50af965-b87b-4f91-9b9a-3e26dc71f7c1"},"vehicle_type_id":"4","last_reported":1781443864,"current_range_meters":4400,"station_id":"","pricing_plan_id":"cebpf4jnsgd1na2vs0mg"},{"bike_id":"b00d8bd0-800e-45a7-ac0f-43138ef8f6fe","system_id":"levelo_inurba_marseille","lat":43.26781,"lon":5.39429,"is_reserved":false,"is_disabled":true,"rental_uris":{"android":"levelo://app?vid=b00d8bd0-800e-45a7-ac0f-43138ef8f6fe","ios":"levelo://app?vid=b00d8bd0-800e-45a7-ac0f-43138ef8f6fe"},"vehicle_type_id":"4","last_reported":1781443864,"current_range_meters":4400,"station_id":"ce4bhh12rcd13ifvqfg0","pricing_plan_id":"cebpf4jnsgd1na2vs0mg"},{"bike_id":"9f0be29b-c3fc-43d2-88d9-7ef79e23fe90","system_id":"levelo_inurba_marseille","lat":43.24539,"lon":5.39536,"is_reserved":false,"is_disabled":false,"rental_uris":{"android":"levelo://app?vid=9f0be29b-c3fc-43d2-88d9-7ef79e23fe90","ios":"levelo://app?vid=9f0be29b-c3fc-43d2-88d9-7ef79e23fe90"},"vehicle_type_id":"4","last_reported":1781443864,"current_range_meters":4800,"station_id":"ce4bhlp2rcd13ifvqgjg","pricing_plan_id":"cebpf4jnsgd1na2vs0mg"},{"bike_id":"cf0c68e9-108f-4cb2-8999-26e59936ff8c","system_id":"levelo_inurba_marseille","lat":43.23072,"lon":5.35494,"is_reserved":false,"is_disabled":false,"rental_uris":{"android":"levelo://app?vid=cf0c68e9-108f-4cb2-8999-26e59936ff8c","ios":"levelo://app?vid=cf0c68e9-108f-4cb2-8999-26e59936ff8c"},"vehicle_type_id":"4","last_reported":1781443864,"current_range_meters":4800,"station_id":"cpo3342slgdg3j2ifvpg","pricing_plan_id":"cebpf4jnsgd1na2vs0mg"},{"bike_id":"d2c1c417-9992-4f5c-be0f-08fcbeddbcd9","system_id":"levelo_inurba_marseille","lat":43.29587,"lon":5.38113,"is_reserved":false,"is_disabled":true,"rental_uris":{"android":"levelo://app?vid=d2c1c417-9992-4f5c-be0f-08fcbeddbcd9","ios":"levelo://app?vid=d2c1c417-9992-4f5c-be0f-08fcbeddbcd9"},"vehicle_type_id":"4","last_reported":1781443864,"current_range_meters":4800,"station_id":"ce4bgl12rcd13ifvqbo0","pricing_plan_id":"cebpf4jnsgd1na2vs0mg"},{"bike_id":"65656522-6967-4ec3-a9aa-c619425a119c","system_id":"levelo_inurba_marseille","lat":43.22511,"lon":5.34815,"is_reserved":false,"is_disabled":false,"rental_uris":{"android":"levelo://app?vid=65656522-6967-4ec3-a9aa-c619425a119c","ios":"levelo://app?vid=65656522-6967-4ec3-a9aa-c619425a119c"},"vehicle_type_id":"4","last_reported":1781443864,"current_range_meters":4800,"station_id":"st_cvj5dfep6f1abm77gieg","pricing_plan_id":"cebpf4jnsgd1na2vs0mg"},{"bike_id":"f5baa187-16fe-4fe8-bcb8-080b530221ec","system_id":"levelo_inurba_marseille","lat":43.26487,"lon":5.3955,"is_reserved":false,"is_disabled":false,"rental_uris":{"android":"levelo://app?vid=f5baa187-16fe-4fe8-bcb8-080b530221ec","ios":"levelo://app?vid=f5baa187-16fe-4fe8-bcb8-080b530221ec"},"vehicle_type_id":"4","last_reported":1781443864,"current_range_meters":4800,"station_id":"ce4bhi12rcd13ifvqfq0","pricing_plan_id":"cebpf4jnsgd1na2vs0mg"},{"bike_id":"d51ce86a-5b38-4b76-8e51-2a3373a4f2df","system_id":"levelo_inurba_marseille","lat":43.32052,"lon":5.36829,"is_reserved":false,"is_disabled":false,"rental_uris":{"android":"levelo://app?vid=d51ce86a-5b38-4b76-8e51-2a3373a4f2df","ios":"levelo://app?vid=d51ce86a-5b38-4b76-8e51-2a3373a4f2df"},"vehicle_type_id":"4","last_reported":1781443864,"current_range_meters":4800,"station_id":"","pricing_plan_id":"cebpf4jnsgd1na2vs0mg"},{"bike_id":"0a57cece-35d9-4ba0-aa57-7c8feeee7be2","system_id":"levelo_inurba_marseille","lat":43.26689,"lon":5.38268,"is_reserved":false,"is_disabled":false,"rental_uris":{"android":"levelo://app?vid=0a57cece-35d9-4ba0-aa57-7c8feeee7be2","ios":"levelo://app?vid=0a57cece-35d9-4ba0-aa57-7c8feeee7be2"},"vehicle_type_id":"4","last_reported":1781443864,"current_range_meters":4800,"station_id":"ce4bhg92rcd13ifvqf90","pricing_plan_id":"cebpf4jnsgd1na2vs0mg"},{"bike_id":"1bad5c3d-a537-4cef-a409-4d865ab2e318","system_id":"levelo_inurba_marseille","lat":43.25597,"lon":5.382348,"is_reserved":false,"is_disabled":false,"rental_uris":{"android":"levelo://app?vid=1bad5c3d-a537-4cef-a409-4d865ab2e318","ios":"levelo://app?vid=1bad5c3d-a537-4cef-a409-4d865ab2e318"},"vehicle_type_id":"4","last_reported":1781443864,"current_range_meters":4800,"station_id":"st_d8gjfg747rts73coq3b0","pricing_plan_id":"cebpf4jnsgd1na2vs0mg"},{"bike_id":"b333dd63-be6b-4b45-9f8f-f915b52a0711","system_id":"levelo_inurba_marseille","lat":43.25072,"lon":5.38842,"is_reserved":false,"is_disabled":false,"rental_uris":{"android":"levelo://app?vid=b333dd63-be6b-4b45-9f8f-f915b52a0711","ios":"levelo://app?vid=b333dd63-be6b-4b45-9f8f-f915b52a0711"},"vehicle_type_id":"4","last_reported":1781443864,"current_range_meters":4800,"station_id":"","pricing_plan_id":"cebpf4jnsgd1na2vs0mg"},{"bike_id":"52f3e772-ae75-4b62-8837-30b3a36cd0d4","system_id":"levelo_inurba_marseille","lat":43.3104,"lon":5.39384,"is_reserved":false,"is_disabled":false,"rental_uris":{"android":"levelo://app?vid=52f3e772-ae75-4b62-8837-30b3a36cd0d4","ios":"levelo://app?vid=52f3e772-ae75-4b62-8837-30b3a36cd0d4"},"vehicle_type_id":"4","last_reported":1781443864,"current_range_meters":4800,"station_id":"","pricing_plan_id":"cebpf4jnsgd1na2vs0mg"},{"bike_id":"e2298d1e-9f46-40e5-8442-06c6300e3b87","system_id":"levelo_inurba_marseille","lat":43.24601,"lon":5.39733,"is_reserved":false,"is_disabled":false,"rental_uris":{"android":"levelo://app?vid=e2298d1e-9f46-40e5-8442-06c6300e3b87","ios":"levelo://app?vid=e2298d1e-9f46-40e5-8442-06c6300e3b87"},"vehicle_type_id":"4","last_reported":1781443864,"current_range_meters":4800,"station_id":"","pricing_plan_id":"cebpf4jnsgd1na2vs0mg"},{"bike_id":"f57ddc5d-b3ad-43f3-bbc4-226ea7be866d","system_id":"levelo_inurba_marseille","lat":43.29854,"lon":5.4228,"is_reserved":false,"is_disabled":false,"rental_uris":{"android":"levelo://app?vid=f57ddc5d-b3ad-43f3-bbc4-226ea7be866d","ios":"levelo://app?vid=f57ddc5d-b3ad-43f3-bbc4-226ea7be866d"},"vehicle_type_id":"4","last_reported":1781443864,"current_range_meters":4800,"station_id":"","pricing_plan_id":"cebpf4jnsgd1na2vs0mg"},{"bike_id":"5e644823-0361-426b-bc16-4ac715221997","system_id":"levelo_inurba_marseille","lat":43.28679,"lon":5.46673,"is_reserved":false,"is_disabled":false,"rental_uris":{"android":"levelo://app?vid=5e644823-0361-426b-bc16-4ac715221997","ios":"levelo://app?vid=5e644823-0361-426b-bc16-4ac715221997"},"vehicle_type_id":"4","last_reported":1781443864,"current_range_meters":4800,"station_id":"st_d6tc3vkotcvc738tfjhg","pricing_plan_id":"cebpf4jnsgd1na2vs0mg"},{"bike_id":"4c0aaefd-2b66-45a7-8e6f-bab47a273073","system_id":"levelo_inurba_marseille","lat":43.32422,"lon":5.42577,"is_reserved":false,"is_disabled":false,"rental_uris":{"android":"levelo://app?vid=4c0aaefd-2b66-45a7-8e6f-bab47a273073","ios":"levelo://app?vid=4c0aaefd-2b66-45a7-8e6f-bab47a273073"},"vehicle_type_id":"4","last_reported":1781443864,"current_range_meters":4800,"station_id":"","pricing_plan_id":"cebpf4jnsgd1na2vs0mg"},{"bike_id":"320a2400-d107-4327-abd9-50893d323ac8","system_id":"levelo_inurba_marseille","lat":43.29192,"lon":5.35796,"is_reserved":false,"is_disabled":false,"rental_uris":{"android":"levelo://app?vid=320a2400-d107-4327-abd9-50893d323ac8","ios":"levelo://app?vid=320a2400-d107-4327-abd9-50893d323ac8"},"vehicle_type_id":"4","last_reported":1781443864,"current_range_meters":4800,"station_id":"ce4bhb12rcd13ifvqel0","pricing_plan_id":"cebpf4jnsgd1na2vs0mg"},{"bike_id":"3316355c-efda-4803-929f-0714d710dcbc","system_id":"levelo_inurba_marseille","lat":43.25722,"lon":5.41106,"is_reserved":false,"is_disabled":false,"rental_uris":{"android":"levelo://app?vid=3316355c-efda-4803-929f-0714d710dcbc","ios":"levelo://app?vid=3316355c-efda-4803-929f-0714d710dcbc"},"vehicle_type_id":"4","last_reported":1781443864,"current_range_meters":4800,"station_id":"ce4bhkp2rcd13ifvqgd0","pricing_plan_id":"cebpf4jnsgd1na2vs0mg"},{"bike_id":"fc18ee3c-267f-4133-aeab-2474000f3239","system_id":"levelo_inurba_marseille","lat":43.28615,"lon":5.35103,"is_reserved":false,"is_disabled":false,"rental_uris":{"android":"levelo://app?vid=fc18ee3c-267f-4133-aeab-2474000f3239","ios":"levelo://app?vid=fc18ee3c-267f-4133-aeab-2474000f3239"},"vehicle_type_id":"4","last_reported":1781443864,"current_range_meters":4800,"station_id":"ce4bhch2rcd13ifvqeug","pricing_plan_id":"cebpf4jnsgd1na2vs0mg"},{"bike_id":"85ff7ea8-5fb7-4bf1-8a5b-dee5e4773c13","system_id":"levelo_inurba_marseille","lat":43.31966,"lon":5.39427,"is_reserved":false,"is_disabled":false,"rental_uris":{"android":"levelo://app?vid=85ff7ea8-5fb7-4bf1-8a5b-dee5e4773c13","ios":"levelo://app?vid=85ff7ea8-5fb7-4bf1-8a5b-dee5e4773c13"},"vehicle_type_id":"4","last_reported":1781443864,"current_range_meters":4800,"station_id":"","pricing_plan_id":"cebpf4jnsgd1na2vs0mg"},{"bike_id":"524b5098-c1ae-4877-837e-5df2fc9fb64c","system_id":"levelo_inurba_marseille","lat":43.28157,"lon":5.42658,"is_reserved":false,"is_disabled":false,"rental_uris":{"android":"levelo://app?vid=524b5098-c1ae-4877-837e-5df2fc9fb64c","ios":"levelo://app?vid=524b5098-c1ae-4877-837e-5df2fc9fb64c"},"vehicle_type_id":"4","last_reported":1781443864,"current_range_meters":5600,"station_id":"ce4bhnh2rcd13ifvqgug","pricing_plan_id":"cebpf4jnsgd1na2vs0mg"},{"bike_id":"dca9d940-d48c-408f-b32f-b332f073e218","system_id":"levelo_inurba_marseille","lat":43.26083,"lon":5.39435,"is_reserved":false,"is_disabled":false,"rental_uris":{"android":"levelo://app?vid=dca9d940-d48c-408f-b32f-b332f073e218","ios":"levelo://app?vid=dca9d940-d48c-408f-b32f-b332f073e218"},"vehicle_type_id":"4","last_reported":1781443864,"current_range_meters":5600,"station_id":"ce4bhh92rcd13ifvqfj0","pricing_plan_id":"cebpf4jnsgd1na2vs0mg"},{"bike_id":"1a1ad63b-bf2d-4119-8f23-2b8341ecdf2b","system_id":"levelo_inurba_marseille","lat":43.31761,"lon":5.39009,"is_reserved":false,"is_disabled":false,"rental_uris":{"android":"levelo://app?vid=1a1ad63b-bf2d-4119-8f23-2b8341ecdf2b","ios":"levelo://app?vid=1a1ad63b-bf2d-4119-8f23-2b8341ecdf2b"},"vehicle_type_id":"4","last_reported":1781443864,"current_range_meters":5600,"station_id":"ce4bhqp2rcd13ifvqhng","pricing_plan_id":"cebpf4jnsgd1na2vs0mg"},{"bike_id":"43aec827-b955-4a67-bba8-4df0141e7eb1","system_id":"levelo_inurba_marseille","lat":43.33746,"lon":5.3747,"is_reserved":false,"is_disabled":false,"rental_uris":{"android":"levelo://app?vid=43aec827-b955-4a67-bba8-4df0141e7eb1","ios":"levelo://app?vid=43aec827-b955-4a67-bba8-4df0141e7eb1"},"vehicle_type_id":"4","last_reported":1781443864,"current_range_meters":5600,"station_id":"","pricing_plan_id":"cebpf4jnsgd1na2vs0mg"},{"bike_id":"8adff352-665a-41fb-ab05-9f2ef7f2e2c5","system_id":"levelo_inurba_marseille","lat":43.25518,"lon":5.37664,"is_reserved":false,"is_disabled":false,"rental_uris":{"android":"levelo://app?vid=8adff352-665a-41fb-ab05-9f2ef7f2e2c5","ios":"levelo://app?vid=8adff352-665a-41fb-ab05-9f2ef7f2e2c5"},"vehicle_type_id":"4","last_reported":1781443864,"current_range_meters":5600,"station_id":"ce4bhh12rcd13ifvqff0","pricing_plan_id":"cebpf4jnsgd1na2vs0mg"},{"bike_id":"e0cccf2d-e125-4492-af49-bf7d33582c99","system_id":"levelo_inurba_marseille","lat":43.24072,"lon":5.37751,"is_reserved":false,"is_disabled":false,"rental_uris":{"android":"levelo://app?vid=e0cccf2d-e125-4492-af49-bf7d33582c99","ios":"levelo://app?vid=e0cccf2d-e125-4492-af49-bf7d33582c99"},"vehicle_type_id":"4","last_reported":1781443864,"current_range_meters":5600,"station_id":"ce4bhnp2rcd13ifvqgvg","pricing_plan_id":"cebpf4jnsgd1na2vs0mg"},{"bike_id":"7bb9d837-8621-443d-b257-e306cb33cfa1","system_id":"levelo_inurba_marseille","lat":43.28648,"lon":5.37083,"is_reserved":false,"is_disabled":false,"rental_uris":{"android":"levelo://app?vid=7bb9d837-8621-443d-b257-e306cb33cfa1","ios":"levelo://app?vid=7bb9d837-8621-443d-b257-e306cb33cfa1"},"vehicle_type_id":"4","last_reported":1781443864,"current_range_meters":5600,"station_id":"","pricing_plan_id":"cebpf4jnsgd1na2vs0mg"},{"bike_id":"bfbe56dd-3165-4fe5-8a07-20c0e1bc44f2","system_id":"levelo_inurba_marseille","lat":43.3015,"lon":5.38076,"is_reserved":false,"is_disabled":false,"rental_uris":{"android":"levelo://app?vid=bfbe56dd-3165-4fe5-8a07-20c0e1bc44f2","ios":"levelo://app?vid=bfbe56dd-3165-4fe5-8a07-20c0e1bc44f2"},"vehicle_type_id":"4","last_reported":1781443864,"current_range_meters":5600,"station_id":"ce4bgjp2rcd13ifvqbh0","pricing_plan_id":"cebpf4jnsgd1na2vs0mg"},{"bike_id":"178788d6-7709-4484-9971-d7cbf5ca17ce","system_id":"levelo_inurba_marseille","lat":43.2173,"lon":5.34599,"is_reserved":false,"is_disabled":false,"rental_uris":{"android":"levelo://app?vid=178788d6-7709-4484-9971-d7cbf5ca17ce","ios":"levelo://app?vid=178788d6-7709-4484-9971-d7cbf5ca17ce"},"vehicle_type_id":"4","last_reported":1781443864,"current_range_meters":5600,"station_id":"st_cvj6r9ubvosntc0bgbag","pricing_plan_id":"cebpf4jnsgd1na2vs0mg"},{"bike_id":"d8af3ed3-f110-42fc-a859-20bcac54350f","system_id":"levelo_inurba_marseille","lat":43.3077,"lon":5.37639,"is_reserved":false,"is_disabled":true,"rental_uris":{"android":"levelo://app?vid=d8af3ed3-f110-42fc-a859-20bcac54350f","ios":"levelo://app?vid=d8af3ed3-f110-42fc-a859-20bcac54350f"},"vehicle_type_id":"4","last_reported":1781443864,"current_range_meters":5600,"station_id":"ce4bgv92rcd13ifvqcq0","pricing_plan_id":"cebpf4jnsgd1na2vs0mg"},{"bike_id":"08c8e2e1-52c1-473e-b0aa-5639ef3b85e6","system_id":"levelo_inurba_marseille","lat":43.28052,"lon":5.35303,"is_reserved":false,"is_disabled":false,"rental_uris":{"android":"levelo://app?vid=08c8e2e1-52c1-473e-b0aa-5639ef3b85e6","ios":"levelo://app?vid=08c8e2e1-52c1-473e-b0aa-5639ef3b85e6"},"vehicle_type_id":"4","last_reported":1781443864,"current_range_meters":5600,"station_id":"","pricing_plan_id":"cebpf4jnsgd1na2vs0mg"},{"bike_id":"ff183300-e381-4623-b20d-53a94b47ae87","system_id":"levelo_inurba_marseille","lat":43.32591,"lon":5.36521,"is_reserved":false,"is_disabled":false,"rental_uris":{"android":"levelo://app?vid=ff183300-e381-4623-b20d-53a94b47ae87","ios":"levelo://app?vid=ff183300-e381-4623-b20d-53a94b47ae87"},"vehicle_type_id":"4","last_reported":1781443864,"current_range_meters":5600,"station_id":"","pricing_plan_id":"cebpf4jnsgd1na2vs0mg"},{"bike_id":"244af543-1895-45de-bf77-09cd912b2eb3","system_id":"levelo_inurba_marseille","lat":43.28627,"lon":5.35096,"is_reserved":false,"is_disabled":false,"rental_uris":{"android":"levelo://app?vid=244af543-1895-45de-bf77-09cd912b2eb3","ios":"levelo://app?vid=244af543-1895-45de-bf77-09cd912b2eb3"},"vehicle_type_id":"4","last_reported":1781443864,"current_range_meters":5600,"station_id":"ce4bhch2rcd13ifvqeug","pricing_plan_id":"cebpf4jnsgd1na2vs0mg"},{"bike_id":"1ad3b388-7f05-40c4-b2be-92a0734b3aef","system_id":"levelo_inurba_marseille","lat":43.27761,"lon":5.42772,"is_reserved":false,"is_disabled":false,"rental_uris":{"android":"levelo://app?vid=1ad3b388-7f05-40c4-b2be-92a0734b3aef","ios":"levelo://app?vid=1ad3b388-7f05-40c4-b2be-92a0734b3aef"},"vehicle_type_id":"4","last_reported":1781443864,"current_range_meters":6000,"station_id":"","pricing_plan_id":"cebpf4jnsgd1na2vs0mg"},{"bike_id":"bb828386-8b15-4b7e-ac85-f5d6661a37e5","system_id":"levelo_inurba_marseille","lat":43.2306,"lon":5.35499,"is_reserved":false,"is_disabled":false,"rental_uris":{"android":"levelo://app?vid=bb828386-8b15-4b7e-ac85-f5d6661a37e5","ios":"levelo://app?vid=bb828386-8b15-4b7e-ac85-f5d6661a37e5"},"vehicle_type_id":"4","last_reported":1781443864,"current_range_meters":6000,"station_id":"cpo3342slgdg3j2ifvpg","pricing_plan_id":"cebpf4jnsgd1na2vs0mg"},{"bike_id":"c37d397e-b2f6-442e-acb6-1796657e2ba6","system_id":"levelo_inurba_marseille","lat":43.22564,"lon":5.41618,"is_reserved":false,"is_disabled":false,"rental_uris":{"android":"levelo://app?vid=c37d397e-b2f6-442e-acb6-1796657e2ba6","ios":"levelo://app?vid=c37d397e-b2f6-442e-acb6-1796657e2ba6"},"vehicle_type_id":"4","last_reported":1781443864,"current_range_meters":6000,"station_id":"st_d2o4gvlbi1j2169b742g","pricing_plan_id":"cebpf4jnsgd1na2vs0mg"},{"bike_id":"207d34b6-3a83-4d90-938a-80aab0b6e29f","system_id":"levelo_inurba_marseille","lat":43.250042,"lon":5.389242,"is_reserved":false,"is_disabled":false,"rental_uris":{"android":"levelo://app?vid=207d34b6-3a83-4d90-938a-80aab0b6e29f","ios":"levelo://app?vid=207d34b6-3a83-4d90-938a-80aab0b6e29f"},"vehicle_type_id":"4","last_reported":1781443864,"current_range_meters":6000,"station_id":"ce4bhgp2rcd13ifvqfd0","pricing_plan_id":"cebpf4jnsgd1na2vs0mg"},{"bike_id":"56997dce-9cb4-4387-a274-e82e510b15e3","system_id":"levelo_inurba_marseille","lat":43.28628,"lon":5.35088,"is_reserved":false,"is_disabled":false,"rental_uris":{"android":"levelo://app?vid=56997dce-9cb4-4387-a274-e82e510b15e3","ios":"levelo://app?vid=56997dce-9cb4-4387-a274-e82e510b15e3"},"vehicle_type_id":"4","last_reported":1781443864,"current_range_meters":6000,"station_id":"ce4bhch2rcd13ifvqeug","pricing_plan_id":"cebpf4jnsgd1na2vs0mg"},{"bike_id":"ee5326b1-f810-41ef-b1b7-1ea9c2c8872f","system_id":"levelo_inurba_marseille","lat":43.28786,"lon":5.46635,"is_reserved":false,"is_disabled":false,"rental_uris":{"android":"levelo://app?vid=ee5326b1-f810-41ef-b1b7-1ea9c2c8872f","ios":"levelo://app?vid=ee5326b1-f810-41ef-b1b7-1ea9c2c8872f"},"vehicle_type_id":"4","last_reported":1781443864,"current_range_meters":6000,"station_id":"st_d6tc3vkotcvc738tfjhg","pricing_plan_id":"cebpf4jnsgd1na2vs0mg"},{"bike_id":"a47f7ec5-339e-411f-a9f3-d5a489312e95","system_id":"levelo_inurba_marseille","lat":43.28051,"lon":5.35112,"is_reserved":false,"is_disabled":false,"rental_uris":{"android":"levelo://app?vid=a47f7ec5-339e-411f-a9f3-d5a489312e95","ios":"levelo://app?vid=a47f7ec5-339e-411f-a9f3-d5a489312e95"},"vehicle_type_id":"4","last_reported":1781443864,"current_range_meters":6000,"station_id":"","pricing_plan_id":"cebpf4jnsgd1na2vs0mg"},{"bike_id":"0a447fbd-c4e9-4d6f-95ca-96703b3388eb","system_id":"levelo_inurba_marseille","lat":43.21181,"lon":5.35076,"is_reserved":false,"is_disabled":false,"rental_uris":{"android":"levelo://app?vid=0a447fbd-c4e9-4d6f-95ca-96703b3388eb","ios":"levelo://app?vid=0a447fbd-c4e9-4d6f-95ca-96703b3388eb"},"vehicle_type_id":"4","last_reported":1781443864,"current_range_meters":6000,"station_id":"st_cvj6sg6p6f1abm77japg","pricing_plan_id":"cebpf4jnsgd1na2vs0mg"},{"bike_id":"2d5036af-f9df-45c6-97e4-648868345309","system_id":"levelo_inurba_marseille","lat":43.33366,"lon":5.39078,"is_reserved":false,"is_disabled":false,"rental_uris":{"android":"levelo://app?vid=2d5036af-f9df-45c6-97e4-648868345309","ios":"levelo://app?vid=2d5036af-f9df-45c6-97e4-648868345309"},"vehicle_type_id":"4","last_reported":1781443864,"current_range_meters":6000,"station_id":"","pricing_plan_id":"cebpf4jnsgd1na2vs0mg"},{"bike_id":"d117df6f-92d3-41bd-88ad-1367bea50a0c","system_id":"levelo_inurba_marseille","lat":43.2476,"lon":5.37575,"is_reserved":false,"is_disabled":false,"rental_uris":{"android":"levelo://app?vid=d117df6f-92d3-41bd-88ad-1367bea50a0c","ios":"levelo://app?vid=d117df6f-92d3-41bd-88ad-1367bea50a0c"},"vehicle_type_id":"4","last_reported":1781443864,"current_range_meters":6000,"station_id":"","pricing_plan_id":"cebpf4jnsgd1na2vs0mg"},{"bike_id":"f2ba73c5-fc69-4601-a3f3-cbbbb5b9b11d","system_id":"levelo_inurba_marseille","lat":43.28408,"lon":5.38808,"is_reserved":false,"is_disabled":false,"rental_uris":{"android":"levelo://app?vid=f2ba73c5-fc69-4601-a3f3-cbbbb5b9b11d","ios":"levelo://app?vid=f2ba73c5-fc69-4601-a3f3-cbbbb5b9b11d"},"vehicle_type_id":"4","last_reported":1781443864,"current_range_meters":6000,"station_id":"","pricing_plan_id":"cebpf4jnsgd1na2vs0mg"},{"bike_id":"1aa69796-4597-4e19-90ef-464fe6857eba","system_id":"levelo_inurba_marseille","lat":43.29471,"lon":5.44523,"is_reserved":false,"is_disabled":false,"rental_uris":{"android":"levelo://app?vid=1aa69796-4597-4e19-90ef-464fe6857eba","ios":"levelo://app?vid=1aa69796-4597-4e19-90ef-464fe6857eba"},"vehicle_type_id":"4","last_reported":1781443864,"current_range_meters":6000,"station_id":"","pricing_plan_id":"cebpf4jnsgd1na2vs0mg"},{"bike_id":"4db9eef1-aef2-45ba-bc16-8e29354c786c","system_id":"levelo_inurba_marseille","lat":43.26211,"lon":5.3743,"is_reserved":false,"is_disabled":false,"rental_uris":{"android":"levelo://app?vid=4db9eef1-aef2-45ba-bc16-8e29354c786c","ios":"levelo://app?vid=4db9eef1-aef2-45ba-bc16-8e29354c786c"},"vehicle_type_id":"4","last_reported":1781443864,"current_range_meters":6000,"station_id":"ce4bhgp2rcd13ifvqfc0","pricing_plan_id":"cebpf4jnsgd1na2vs0mg"},{"bike_id":"1b5c7b8e-75a6-4e5b-a896-3aa61ed24deb","system_id":"levelo_inurba_marseille","lat":43.29508,"lon":5.39397,"is_reserved":false,"is_disabled":true,"rental_uris":{"android":"levelo://app?vid=1b5c7b8e-75a6-4e5b-a896-3aa61ed24deb","ios":"levelo://app?vid=1b5c7b8e-75a6-4e5b-a896-3aa61ed24deb"},"vehicle_type_id":"4","last_reported":1781443864,"current_range_meters":6000,"station_id":"ce4bh292rcd13ifvqdf0","pricing_plan_id":"cebpf4jnsgd1na2vs0mg"},{"bike_id":"abc01caa-7e82-486b-ad5a-e31151d2d0fc","system_id":"levelo_inurba_marseille","lat":43.27734,"lon":5.39648,"is_reserved":false,"is_disabled":false,"rental_uris":{"android":"levelo://app?vid=abc01caa-7e82-486b-ad5a-e31151d2d0fc","ios":"levelo://app?vid=abc01caa-7e82-486b-ad5a-e31151d2d0fc"},"vehicle_type_id":"4","last_reported":1781443864,"current_range_meters":6000,"station_id":"","pricing_plan_id":"cebpf4jnsgd1na2vs0mg"},{"bike_id":"df7d44e5-e407-475e-8489-1ecb758d53f1","system_id":"levelo_inurba_marseille","lat":43.28258,"lon":5.35062,"is_reserved":false,"is_disabled":false,"rental_uris":{"android":"levelo://app?vid=df7d44e5-e407-475e-8489-1ecb758d53f1","ios":"levelo://app?vid=df7d44e5-e407-475e-8489-1ecb758d53f1"},"vehicle_type_id":"4","last_reported":1781443864,"current_range_meters":6000,"station_id":"ce4bhbp2rcd13ifvqerg","pricing_plan_id":"cebpf4jnsgd1na2vs0mg"},{"bike_id":"6d7292b4-3247-4471-8bb1-6b3b631f3a66","system_id":"levelo_inurba_marseille","lat":43.26211,"lon":5.37442,"is_reserved":false,"is_disabled":false,"rental_uris":{"android":"levelo://app?vid=6d7292b4-3247-4471-8bb1-6b3b631f3a66","ios":"levelo://app?vid=6d7292b4-3247-4471-8bb1-6b3b631f3a66"},"vehicle_type_id":"4","last_reported":1781443864,"current_range_meters":6000,"station_id":"ce4bhgp2rcd13ifvqfc0","pricing_plan_id":"cebpf4jnsgd1na2vs0mg"},{"bike_id":"26de732b-5e0c-47b4-9e6f-a8ab3961c9b3","system_id":"levelo_inurba_marseille","lat":43.31535,"lon":5.38022,"is_reserved":false,"is_disabled":false,"rental_uris":{"android":"levelo://app?vid=26de732b-5e0c-47b4-9e6f-a8ab3961c9b3","ios":"levelo://app?vid=26de732b-5e0c-47b4-9e6f-a8ab3961c9b3"},"vehicle_type_id":"4","last_reported":1781443864,"current_range_meters":6000,"station_id":"ce4bhsp2rcd13ifvqi50","pricing_plan_id":"cebpf4jnsgd1na2vs0mg"},{"bike_id":"aa9b8eb5-88a7-459a-ac96-028138a66ee6","system_id":"levelo_inurba_marseille","lat":43.32473,"lon":5.36563,"is_reserved":false,"is_disabled":false,"rental_uris":{"android":"levelo://app?vid=aa9b8eb5-88a7-459a-ac96-028138a66ee6","ios":"levelo://app?vid=aa9b8eb5-88a7-459a-ac96-028138a66ee6"},"vehicle_type_id":"4","last_reported":1781443864,"current_range_meters":6000,"station_id":"ce4bhs12rcd13ifvqhvg","pricing_plan_id":"cebpf4jnsgd1na2vs0mg"},{"bike_id":"c2bfcf75-197f-4d0d-8b20-256d9aaad722","system_id":"levelo_inurba_marseille","lat":43.32105,"lon":5.36786,"is_reserved":false,"is_disabled":false,"rental_uris":{"android":"levelo://app?vid=c2bfcf75-197f-4d0d-8b20-256d9aaad722","ios":"levelo://app?vid=c2bfcf75-197f-4d0d-8b20-256d9aaad722"},"vehicle_type_id":"4","last_reported":1781443864,"current_range_meters":6000,"station_id":"ce4bhrh2rcd13ifvqhug","pricing_plan_id":"cebpf4jnsgd1na2vs0mg"},{"bike_id":"8f27be64-7acf-498b-9d2e-74cba605605d","system_id":"levelo_inurba_marseille","lat":43.21738,"lon":5.34613,"is_reserved":false,"is_disabled":false,"rental_uris":{"android":"levelo://app?vid=8f27be64-7acf-498b-9d2e-74cba605605d","ios":"levelo://app?vid=8f27be64-7acf-498b-9d2e-74cba605605d"},"vehicle_type_id":"4","last_reported":1781443864,"current_range_meters":6000,"station_id":"st_cvj6r9ubvosntc0bgbag","pricing_plan_id":"cebpf4jnsgd1na2vs0mg"},{"bike_id":"6e890818-0091-49c7-b448-7d8a9bd027f5","system_id":"levelo_inurba_marseille","lat":43.24122,"lon":5.37724,"is_reserved":false,"is_disabled":false,"rental_uris":{"android":"levelo://app?vid=6e890818-0091-49c7-b448-7d8a9bd027f5","ios":"levelo://app?vid=6e890818-0091-49c7-b448-7d8a9bd027f5"},"vehicle_type_id":"4","last_reported":1781443864,"current_range_meters":6000,"station_id":"ce4bhnp2rcd13ifvqgvg","pricing_plan_id":"cebpf4jnsgd1na2vs0mg"},{"bike_id":"96b2ab90-d8d2-49df-9035-0467b0e6c086","system_id":"levelo_inurba_marseille","lat":43.29811,"lon":5.44055,"is_reserved":false,"is_disabled":false,"rental_uris":{"android":"levelo://app?vid=96b2ab90-d8d2-49df-9035-0467b0e6c086","ios":"levelo://app?vid=96b2ab90-d8d2-49df-9035-0467b0e6c086"},"vehicle_type_id":"4","last_reported":1781443864,"current_range_meters":6000,"station_id":"st_d3jp68qikq2c7381ktn0","pricing_plan_id":"cebpf4jnsgd1na2vs0mg"},{"bike_id":"e6268e01-408c-4640-b5e2-0cc5f3b5f674","system_id":"levelo_inurba_marseille","lat":43.33622,"lon":5.37426,"is_reserved":false,"is_disabled":false,"rental_uris":{"android":"levelo://app?vid=e6268e01-408c-4640-b5e2-0cc5f3b5f674","ios":"levelo://app?vid=e6268e01-408c-4640-b5e2-0cc5f3b5f674"},"vehicle_type_id":"4","last_reported":1781443864,"current_range_meters":6000,"station_id":"st_d46tts09ee8s73dlu43g","pricing_plan_id":"cebpf4jnsgd1na2vs0mg"},{"bike_id":"8150589d-aa57-493e-b46c-c7049ac03237","system_id":"levelo_inurba_marseille","lat":43.32506,"lon":5.39138,"is_reserved":false,"is_disabled":false,"rental_uris":{"android":"levelo://app?vid=8150589d-aa57-493e-b46c-c7049ac03237","ios":"levelo://app?vid=8150589d-aa57-493e-b46c-c7049ac03237"},"vehicle_type_id":"4","last_reported":1781443864,"current_range_meters":6000,"station_id":"","pricing_plan_id":"cebpf4jnsgd1na2vs0mg"},{"bike_id":"d729573f-a86b-41d2-bc51-bd23c133868d","system_id":"levelo_inurba_marseille","lat":43.31492,"lon":5.38406,"is_reserved":false,"is_disabled":false,"rental_uris":{"android":"levelo://app?vid=d729573f-a86b-41d2-bc51-bd23c133868d","ios":"levelo://app?vid=d729573f-a86b-41d2-bc51-bd23c133868d"},"vehicle_type_id":"4","last_reported":1781443864,"current_range_meters":6000,"station_id":"","pricing_plan_id":"cebpf4jnsgd1na2vs0mg"},{"bike_id":"8c35e00d-f145-4990-9075-f1452b27a592","system_id":"levelo_inurba_marseille","lat":43.21211,"lon":5.35084,"is_reserved":false,"is_disabled":false,"rental_uris":{"android":"levelo://app?vid=8c35e00d-f145-4990-9075-f1452b27a592","ios":"levelo://app?vid=8c35e00d-f145-4990-9075-f1452b27a592"},"vehicle_type_id":"4","last_reported":1781443864,"current_range_meters":6400,"station_id":"st_cvj6sg6p6f1abm77japg","pricing_plan_id":"cebpf4jnsgd1na2vs0mg"},{"bike_id":"c694324e-0526-49eb-8163-41e9e6fd37bb","system_id":"levelo_inurba_marseille","lat":43.29732,"lon":5.37088,"is_reserved":false,"is_disabled":false,"rental_uris":{"android":"levelo://app?vid=c694324e-0526-49eb-8163-41e9e6fd37bb","ios":"levelo://app?vid=c694324e-0526-49eb-8163-41e9e6fd37bb"},"vehicle_type_id":"4","last_reported":1781443864,"current_range_meters":6400,"station_id":"","pricing_plan_id":"cebpf4jnsgd1na2vs0mg"},{"bike_id":"dd03c67f-33f6-45b6-a48b-14bffd934592","system_id":"levelo_inurba_marseille","lat":43.27388,"lon":5.3626,"is_reserved":false,"is_disabled":false,"rental_uris":{"android":"levelo://app?vid=dd03c67f-33f6-45b6-a48b-14bffd934592","ios":"levelo://app?vid=dd03c67f-33f6-45b6-a48b-14bffd934592"},"vehicle_type_id":"4","last_reported":1781443864,"current_range_meters":6400,"station_id":"ce4bhbh2rcd13ifvqeo0","pricing_plan_id":"cebpf4jnsgd1na2vs0mg"},{"bike_id":"79d3fe55-179a-4dcd-8254-78b6944a2fa4","system_id":"levelo_inurba_marseille","lat":43.25517,"lon":5.37626,"is_reserved":false,"is_disabled":false,"rental_uris":{"android":"levelo://app?vid=79d3fe55-179a-4dcd-8254-78b6944a2fa4","ios":"levelo://app?vid=79d3fe55-179a-4dcd-8254-78b6944a2fa4"},"vehicle_type_id":"4","last_reported":1781443864,"current_range_meters":6400,"station_id":"ce4bhh12rcd13ifvqff0","pricing_plan_id":"cebpf4jnsgd1na2vs0mg"},{"bike_id":"67b5d997-f3d7-4ed9-aa45-e579b87e467a","system_id":"levelo_inurba_marseille","lat":43.33763,"lon":5.37419,"is_reserved":false,"is_disabled":false,"rental_uris":{"android":"levelo://app?vid=67b5d997-f3d7-4ed9-aa45-e579b87e467a","ios":"levelo://app?vid=67b5d997-f3d7-4ed9-aa45-e579b87e467a"},"vehicle_type_id":"4","last_reported":1781443864,"current_range_meters":6400,"station_id":"","pricing_plan_id":"cebpf4jnsgd1na2vs0mg"},{"bike_id":"dc27831c-efaa-49f1-ab2a-be46f255c0a3","system_id":"levelo_inurba_marseille","lat":43.25571,"lon":5.38245,"is_reserved":false,"is_disabled":false,"rental_uris":{"android":"levelo://app?vid=dc27831c-efaa-49f1-ab2a-be46f255c0a3","ios":"levelo://app?vid=dc27831c-efaa-49f1-ab2a-be46f255c0a3"},"vehicle_type_id":"4","last_reported":1781443864,"current_range_meters":6400,"station_id":"ce4bhih2rcd13ifvqfs0","pricing_plan_id":"cebpf4jnsgd1na2vs0mg"},{"bike_id":"337eb001-89f6-4742-b457-62c46e70e8ff","system_id":"levelo_inurba_marseille","lat":43.29268,"lon":5.36834,"is_reserved":false,"is_disabled":false,"rental_uris":{"android":"levelo://app?vid=337eb001-89f6-4742-b457-62c46e70e8ff","ios":"levelo://app?vid=337eb001-89f6-4742-b457-62c46e70e8ff"},"vehicle_type_id":"4","last_reported":1781443864,"current_range_meters":6400,"station_id":"ce4bhbp2rcd13ifvqesg","pricing_plan_id":"cebpf4jnsgd1na2vs0mg"},{"bike_id":"bd14a80d-7334-4287-bdb2-58dca8894c70","system_id":"levelo_inurba_marseille","lat":43.2861,"lon":5.35092,"is_reserved":false,"is_disabled":false,"rental_uris":{"android":"levelo://app?vid=bd14a80d-7334-4287-bdb2-58dca8894c70","ios":"levelo://app?vid=bd14a80d-7334-4287-bdb2-58dca8894c70"},"vehicle_type_id":"4","last_reported":1781443864,"current_range_meters":6400,"station_id":"ce4bhch2rcd13ifvqeug","pricing_plan_id":"cebpf4jnsgd1na2vs0mg"},{"bike_id":"bc9bb278-9a3f-444c-9ee4-086e46a06286","system_id":"levelo_inurba_marseille","lat":43.22259,"lon":5.40489,"is_reserved":false,"is_disabled":false,"rental_uris":{"android":"levelo://app?vid=bc9bb278-9a3f-444c-9ee4-086e46a06286","ios":"levelo://app?vid=bc9bb278-9a3f-444c-9ee4-086e46a06286"},"vehicle_type_id":"4","last_reported":1781443864,"current_range_meters":6400,"station_id":"","pricing_plan_id":"cebpf4jnsgd1na2vs0mg"},{"bike_id":"fcbdd51f-fa24-4cc6-b92f-f3288e2d1c12","system_id":"levelo_inurba_marseille","lat":43.28683,"lon":5.46697,"is_reserved":false,"is_disabled":false,"rental_uris":{"android":"levelo://app?vid=fcbdd51f-fa24-4cc6-b92f-f3288e2d1c12","ios":"levelo://app?vid=fcbdd51f-fa24-4cc6-b92f-f3288e2d1c12"},"vehicle_type_id":"4","last_reported":1781443864,"current_range_meters":6400,"station_id":"st_d6tc3vkotcvc738tfjhg","pricing_plan_id":"cebpf4jnsgd1na2vs0mg"},{"bike_id":"9dd4f3a8-39d5-43f7-9f51-1797629b3584","system_id":"levelo_inurba_marseille","lat":43.22525,"lon":5.3484,"is_reserved":false,"is_disabled":false,"rental_uris":{"android":"levelo://app?vid=9dd4f3a8-39d5-43f7-9f51-1797629b3584","ios":"levelo://app?vid=9dd4f3a8-39d5-43f7-9f51-1797629b3584"},"vehicle_type_id":"4","last_reported":1781443864,"current_range_meters":6400,"station_id":"st_cvj5dfep6f1abm77gieg","pricing_plan_id":"cebpf4jnsgd1na2vs0mg"},{"bike_id":"2f5a2eb1-a60a-4fe8-a5aa-002259731410","system_id":"levelo_inurba_marseille","lat":43.31092,"lon":5.37184,"is_reserved":false,"is_disabled":true,"rental_uris":{"android":"levelo://app?vid=2f5a2eb1-a60a-4fe8-a5aa-002259731410","ios":"levelo://app?vid=2f5a2eb1-a60a-4fe8-a5aa-002259731410"},"vehicle_type_id":"4","last_reported":1781443864,"current_range_meters":6400,"station_id":"st_d4kl2rp97mjs73e7tdfg","pricing_plan_id":"cebpf4jnsgd1na2vs0mg"},{"bike_id":"423f6182-a443-4c34-a818-81a8277ac3c4","system_id":"levelo_inurba_marseille","lat":43.22528,"lon":5.34831,"is_reserved":false,"is_disabled":false,"rental_uris":{"android":"levelo://app?vid=423f6182-a443-4c34-a818-81a8277ac3c4","ios":"levelo://app?vid=423f6182-a443-4c34-a818-81a8277ac3c4"},"vehicle_type_id":"4","last_reported":1781443864,"current_range_meters":6400,"station_id":"st_cvj5dfep6f1abm77gieg","pricing_plan_id":"cebpf4jnsgd1na2vs0mg"},{"bike_id":"eb2f4075-16e7-4ce0-87ba-97c686a4d7a3","system_id":"levelo_inurba_marseille","lat":43.27374,"lon":5.36264,"is_reserved":false,"is_disabled":false,"rental_uris":{"android":"levelo://app?vid=eb2f4075-16e7-4ce0-87ba-97c686a4d7a3","ios":"levelo://app?vid=eb2f4075-16e7-4ce0-87ba-97c686a4d7a3"},"vehicle_type_id":"4","last_reported":1781443864,"current_range_meters":6400,"station_id":"ce4bhbh2rcd13ifvqeo0","pricing_plan_id":"cebpf4jnsgd1na2vs0mg"},{"bike_id":"574ee45d-4914-4343-9cb9-a1ecf2248cd2","system_id":"levelo_inurba_marseille","lat":43.29947,"lon":5.3654,"is_reserved":false,"is_disabled":false,"rental_uris":{"android":"levelo://app?vid=574ee45d-4914-4343-9cb9-a1ecf2248cd2","ios":"levelo://app?vid=574ee45d-4914-4343-9cb9-a1ecf2248cd2"},"vehicle_type_id":"4","last_reported":1781443864,"current_range_meters":6800,"station_id":"ce4bgm92rcd13ifvqbr0","pricing_plan_id":"cebpf4jnsgd1na2vs0mg"},{"bike_id":"18d3753c-9feb-4a72-9030-d19f09b8a97b","system_id":"levelo_inurba_marseille","lat":43.29845,"lon":5.37895,"is_reserved":false,"is_disabled":false,"rental_uris":{"android":"levelo://app?vid=18d3753c-9feb-4a72-9030-d19f09b8a97b","ios":"levelo://app?vid=18d3753c-9feb-4a72-9030-d19f09b8a97b"},"vehicle_type_id":"4","last_reported":1781443864,"current_range_meters":6800,"station_id":"","pricing_plan_id":"cebpf4jnsgd1na2vs0mg"},{"bike_id":"536a42be-8ddd-4165-be83-050fd5961519","system_id":"levelo_inurba_marseille","lat":43.26204,"lon":5.37439,"is_reserved":false,"is_disabled":false,"rental_uris":{"android":"levelo://app?vid=536a42be-8ddd-4165-be83-050fd5961519","ios":"levelo://app?vid=536a42be-8ddd-4165-be83-050fd5961519"},"vehicle_type_id":"4","last_reported":1781443864,"current_range_meters":6800,"station_id":"ce4bhgp2rcd13ifvqfc0","pricing_plan_id":"cebpf4jnsgd1na2vs0mg"},{"bike_id":"8fea25ca-fb48-4384-9778-a8089f84f9ac","system_id":"levelo_inurba_marseille","lat":43.29715,"lon":5.38095,"is_reserved":false,"is_disabled":false,"rental_uris":{"android":"levelo://app?vid=8fea25ca-fb48-4384-9778-a8089f84f9ac","ios":"levelo://app?vid=8fea25ca-fb48-4384-9778-a8089f84f9ac"},"vehicle_type_id":"4","last_reported":1781443864,"current_range_meters":6800,"station_id":"","pricing_plan_id":"cebpf4jnsgd1na2vs0mg"},{"bike_id":"7ab101d2-fd7e-47cf-982d-f85b01b5cea8","system_id":"levelo_inurba_marseille","lat":43.29008,"lon":5.37026,"is_reserved":false,"is_disabled":false,"rental_uris":{"android":"levelo://app?vid=7ab101d2-fd7e-47cf-982d-f85b01b5cea8","ios":"levelo://app?vid=7ab101d2-fd7e-47cf-982d-f85b01b5cea8"},"vehicle_type_id":"4","last_reported":1781443864,"current_range_meters":6800,"station_id":"","pricing_plan_id":"cebpf4jnsgd1na2vs0mg"},{"bike_id":"56f2ef51-600d-4f49-a422-ce2f71d0bb3a","system_id":"levelo_inurba_marseille","lat":43.24401,"lon":5.37023,"is_reserved":false,"is_disabled":false,"rental_uris":{"android":"levelo://app?vid=56f2ef51-600d-4f49-a422-ce2f71d0bb3a","ios":"levelo://app?vid=56f2ef51-600d-4f49-a422-ce2f71d0bb3a"},"vehicle_type_id":"4","last_reported":1781443864,"current_range_meters":6800,"station_id":"ce4bhhh2rcd13ifvqfk0","pricing_plan_id":"cebpf4jnsgd1na2vs0mg"},{"bike_id":"72a68596-e19c-4a52-ba10-9bdae69e8aa7","system_id":"levelo_inurba_marseille","lat":43.26482,"lon":5.3955,"is_reserved":false,"is_disabled":true,"rental_uris":{"android":"levelo://app?vid=72a68596-e19c-4a52-ba10-9bdae69e8aa7","ios":"levelo://app?vid=72a68596-e19c-4a52-ba10-9bdae69e8aa7"},"vehicle_type_id":"4","last_reported":1781443864,"current_range_meters":6800,"station_id":"ce4bhi12rcd13ifvqfq0","pricing_plan_id":"cebpf4jnsgd1na2vs0mg"},{"bike_id":"3a178be9-377a-4a25-b16e-746e76e3b7b2","system_id":"levelo_inurba_marseille","lat":43.26237,"lon":5.38847,"is_reserved":false,"is_disabled":false,"rental_uris":{"android":"levelo://app?vid=3a178be9-377a-4a25-b16e-746e76e3b7b2","ios":"levelo://app?vid=3a178be9-377a-4a25-b16e-746e76e3b7b2"},"vehicle_type_id":"4","last_reported":1781443864,"current_range_meters":6800,"station_id":"","pricing_plan_id":"cebpf4jnsgd1na2vs0mg"},{"bike_id":"c800199a-5474-40e1-bb50-c25e031e8be6","system_id":"levelo_inurba_marseille","lat":43.21188,"lon":5.35069,"is_reserved":false,"is_disabled":false,"rental_uris":{"android":"levelo://app?vid=c800199a-5474-40e1-bb50-c25e031e8be6","ios":"levelo://app?vid=c800199a-5474-40e1-bb50-c25e031e8be6"},"vehicle_type_id":"4","last_reported":1781443864,"current_range_meters":6800,"station_id":"st_cvj6sg6p6f1abm77japg","pricing_plan_id":"cebpf4jnsgd1na2vs0mg"},{"bike_id":"2efefc03-4edd-4e9c-8c65-243cf8199fbd","system_id":"levelo_inurba_marseille","lat":43.24469,"lon":5.42549,"is_reserved":false,"is_disabled":false,"rental_uris":{"android":"levelo://app?vid=2efefc03-4edd-4e9c-8c65-243cf8199fbd","ios":"levelo://app?vid=2efefc03-4edd-4e9c-8c65-243cf8199fbd"},"vehicle_type_id":"4","last_reported":1781443864,"current_range_meters":6800,"station_id":"st_d4a3vfp97mjs738cd8kg","pricing_plan_id":"cebpf4jnsgd1na2vs0mg"},{"bike_id":"c2aa2a29-2056-467d-9385-07b32aaa565a","system_id":"levelo_inurba_marseille","lat":43.2466,"lon":5.38172,"is_reserved":false,"is_disabled":false,"rental_uris":{"android":"levelo://app?vid=c2aa2a29-2056-467d-9385-07b32aaa565a","ios":"levelo://app?vid=c2aa2a29-2056-467d-9385-07b32aaa565a"},"vehicle_type_id":"4","last_reported":1781443864,"current_range_meters":6800,"station_id":"ce4bhih2rcd13ifvqfr0","pricing_plan_id":"cebpf4jnsgd1na2vs0mg"},{"bike_id":"eaf7b6af-4b59-4c2d-9b24-3b2ba05e4160","system_id":"levelo_inurba_marseille","lat":43.31641,"lon":5.37647,"is_reserved":false,"is_disabled":false,"rental_uris":{"android":"levelo://app?vid=eaf7b6af-4b59-4c2d-9b24-3b2ba05e4160","ios":"levelo://app?vid=eaf7b6af-4b59-4c2d-9b24-3b2ba05e4160"},"vehicle_type_id":"4","last_reported":1781443864,"current_range_meters":6800,"station_id":"","pricing_plan_id":"cebpf4jnsgd1na2vs0mg"},{"bike_id":"31a5c23d-40d4-417f-98b3-4241d25cf95b","system_id":"levelo_inurba_marseille","lat":43.33373,"lon":5.39312,"is_reserved":false,"is_disabled":false,"rental_uris":{"android":"levelo://app?vid=31a5c23d-40d4-417f-98b3-4241d25cf95b","ios":"levelo://app?vid=31a5c23d-40d4-417f-98b3-4241d25cf95b"},"vehicle_type_id":"4","last_reported":1781443864,"current_range_meters":6800,"station_id":"","pricing_plan_id":"cebpf4jnsgd1na2vs0mg"},{"bike_id":"92392093-a828-41ad-8728-12a3d2dae9ad","system_id":"levelo_inurba_marseille","lat":43.28266,"lon":5.3508,"is_reserved":false,"is_disabled":false,"rental_uris":{"android":"levelo://app?vid=92392093-a828-41ad-8728-12a3d2dae9ad","ios":"levelo://app?vid=92392093-a828-41ad-8728-12a3d2dae9ad"},"vehicle_type_id":"4","last_reported":1781443864,"current_range_meters":6800,"station_id":"ce4bhbp2rcd13ifvqerg","pricing_plan_id":"cebpf4jnsgd1na2vs0mg"},{"bike_id":"f61863b0-f767-44a6-8d35-21d2d9984309","system_id":"levelo_inurba_marseille","lat":43.28923,"lon":5.38835,"is_reserved":false,"is_disabled":false,"rental_uris":{"android":"levelo://app?vid=f61863b0-f767-44a6-8d35-21d2d9984309","ios":"levelo://app?vid=f61863b0-f767-44a6-8d35-21d2d9984309"},"vehicle_type_id":"4","last_reported":1781443864,"current_range_meters":6800,"station_id":"","pricing_plan_id":"cebpf4jnsgd1na2vs0mg"},{"bike_id":"47c4baeb-c361-41ad-8176-d10c41ebb555","system_id":"levelo_inurba_marseille","lat":43.255055,"lon":5.37651,"is_reserved":false,"is_disabled":false,"rental_uris":{"android":"levelo://app?vid=47c4baeb-c361-41ad-8176-d10c41ebb555","ios":"levelo://app?vid=47c4baeb-c361-41ad-8176-d10c41ebb555"},"vehicle_type_id":"4","last_reported":1781443864,"current_range_meters":6800,"station_id":"ce4bhh12rcd13ifvqff0","pricing_plan_id":"cebpf4jnsgd1na2vs0mg"},{"bike_id":"893d4a98-72b0-4e13-b7a4-bba677617c55","system_id":"levelo_inurba_marseille","lat":43.27903,"lon":5.39175,"is_reserved":false,"is_disabled":false,"rental_uris":{"android":"levelo://app?vid=893d4a98-72b0-4e13-b7a4-bba677617c55","ios":"levelo://app?vid=893d4a98-72b0-4e13-b7a4-bba677617c55"},"vehicle_type_id":"4","last_reported":1781443864,"current_range_meters":6800,"station_id":"","pricing_plan_id":"cebpf4jnsgd1na2vs0mg"},{"bike_id":"56b376d5-9b28-4e92-ac45-b76b482244af","system_id":"levelo_inurba_marseille","lat":43.31927,"lon":5.36824,"is_reserved":false,"is_disabled":false,"rental_uris":{"android":"levelo://app?vid=56b376d5-9b28-4e92-ac45-b76b482244af","ios":"levelo://app?vid=56b376d5-9b28-4e92-ac45-b76b482244af"},"vehicle_type_id":"4","last_reported":1781443864,"current_range_meters":6800,"station_id":"st_d6o2h0d0559c73evc1b0","pricing_plan_id":"cebpf4jnsgd1na2vs0mg"},{"bike_id":"9b329a65-7b70-4e26-a818-02e7b725d4f9","system_id":"levelo_inurba_marseille","lat":43.28409,"lon":5.34999,"is_reserved":false,"is_disabled":false,"rental_uris":{"android":"levelo://app?vid=9b329a65-7b70-4e26-a818-02e7b725d4f9","ios":"levelo://app?vid=9b329a65-7b70-4e26-a818-02e7b725d4f9"},"vehicle_type_id":"4","last_reported":1781443864,"current_range_meters":6800,"station_id":"ce4bhbh2rcd13ifvqepg","pricing_plan_id":"cebpf4jnsgd1na2vs0mg"},{"bike_id":"fa2c05a1-b0b5-4afe-b939-a50eb32528d8","system_id":"levelo_inurba_marseille","lat":43.23151,"lon":5.43719,"is_reserved":false,"is_disabled":false,"rental_uris":{"android":"levelo://app?vid=fa2c05a1-b0b5-4afe-b939-a50eb32528d8","ios":"levelo://app?vid=fa2c05a1-b0b5-4afe-b939-a50eb32528d8"},"vehicle_type_id":"4","last_reported":1781443864,"current_range_meters":6800,"station_id":"ce4bhmp2rcd13ifvqgog","pricing_plan_id":"cebpf4jnsgd1na2vs0mg"},{"bike_id":"46662480-dd9a-4b00-851a-0609a7b4c897","system_id":"levelo_inurba_marseille","lat":43.24164,"lon":5.36398,"is_reserved":false,"is_disabled":false,"rental_uris":{"android":"levelo://app?vid=46662480-dd9a-4b00-851a-0609a7b4c897","ios":"levelo://app?vid=46662480-dd9a-4b00-851a-0609a7b4c897"},"vehicle_type_id":"4","last_reported":1781443864,"current_range_meters":6800,"station_id":"cpo36qri1sfpv3e86is0","pricing_plan_id":"cebpf4jnsgd1na2vs0mg"},{"bike_id":"e5112433-aa95-4996-836d-6a5e3dd047ee","system_id":"levelo_inurba_marseille","lat":43.30233,"lon":5.37927,"is_reserved":false,"is_disabled":false,"rental_uris":{"android":"levelo://app?vid=e5112433-aa95-4996-836d-6a5e3dd047ee","ios":"levelo://app?vid=e5112433-aa95-4996-836d-6a5e3dd047ee"},"vehicle_type_id":"4","last_reported":1781443864,"current_range_meters":6800,"station_id":"","pricing_plan_id":"cebpf4jnsgd1na2vs0mg"},{"bike_id":"a3d622c6-5d74-4e9a-9a37-4515f9fc0b6c","system_id":"levelo_inurba_marseille","lat":43.29941,"lon":5.36537,"is_reserved":false,"is_disabled":false,"rental_uris":{"android":"levelo://app?vid=a3d622c6-5d74-4e9a-9a37-4515f9fc0b6c","ios":"levelo://app?vid=a3d622c6-5d74-4e9a-9a37-4515f9fc0b6c"},"vehicle_type_id":"4","last_reported":1781443864,"current_range_meters":6800,"station_id":"ce4bgm92rcd13ifvqbr0","pricing_plan_id":"cebpf4jnsgd1na2vs0mg"},{"bike_id":"df35e389-c9de-4ec0-8995-b35cd50a0341","system_id":"levelo_inurba_marseille","lat":43.29775,"lon":5.38091,"is_reserved":false,"is_disabled":false,"rental_uris":{"android":"levelo://app?vid=df35e389-c9de-4ec0-8995-b35cd50a0341","ios":"levelo://app?vid=df35e389-c9de-4ec0-8995-b35cd50a0341"},"vehicle_type_id":"4","last_reported":1781443864,"current_range_meters":6800,"station_id":"ce4bgip2rcd13ifvqbb0","pricing_plan_id":"cebpf4jnsgd1na2vs0mg"},{"bike_id":"a0967682-704e-4097-9142-482a1f2d36c9","system_id":"levelo_inurba_marseille","lat":43.21195,"lon":5.35077,"is_reserved":false,"is_disabled":true,"rental_uris":{"android":"levelo://app?vid=a0967682-704e-4097-9142-482a1f2d36c9","ios":"levelo://app?vid=a0967682-704e-4097-9142-482a1f2d36c9"},"vehicle_type_id":"4","last_reported":1781443864,"current_range_meters":6800,"station_id":"st_cvj6sg6p6f1abm77japg","pricing_plan_id":"cebpf4jnsgd1na2vs0mg"},{"bike_id":"54e482a5-c534-4992-ad75-060a9850516b","system_id":"levelo_inurba_marseille","lat":43.32354,"lon":5.36708,"is_reserved":false,"is_disabled":false,"rental_uris":{"android":"levelo://app?vid=54e482a5-c534-4992-ad75-060a9850516b","ios":"levelo://app?vid=54e482a5-c534-4992-ad75-060a9850516b"},"vehicle_type_id":"4","last_reported":1781443864,"current_range_meters":7200,"station_id":"ce4bhsh2rcd13ifvqi2g","pricing_plan_id":"cebpf4jnsgd1na2vs0mg"},{"bike_id":"9cce58aa-af2c-491a-b2d1-afa490de9219","system_id":"levelo_inurba_marseille","lat":43.286151,"lon":5.351124,"is_reserved":false,"is_disabled":false,"rental_uris":{"android":"levelo://app?vid=9cce58aa-af2c-491a-b2d1-afa490de9219","ios":"levelo://app?vid=9cce58aa-af2c-491a-b2d1-afa490de9219"},"vehicle_type_id":"4","last_reported":1781443864,"current_range_meters":7200,"station_id":"ce4bhch2rcd13ifvqeug","pricing_plan_id":"cebpf4jnsgd1na2vs0mg"},{"bike_id":"3e3fb210-255b-46cf-8fea-2995f3dee0e7","system_id":"levelo_inurba_marseille","lat":43.26189,"lon":5.37448,"is_reserved":false,"is_disabled":false,"rental_uris":{"android":"levelo://app?vid=3e3fb210-255b-46cf-8fea-2995f3dee0e7","ios":"levelo://app?vid=3e3fb210-255b-46cf-8fea-2995f3dee0e7"},"vehicle_type_id":"4","last_reported":1781443864,"current_range_meters":7200,"station_id":"ce4bhgp2rcd13ifvqfc0","pricing_plan_id":"cebpf4jnsgd1na2vs0mg"},{"bike_id":"0e2512e3-35ea-4cdf-9bc9-5b8050484ef4","system_id":"levelo_inurba_marseille","lat":43.24625,"lon":5.43147,"is_reserved":false,"is_disabled":false,"rental_uris":{"android":"levelo://app?vid=0e2512e3-35ea-4cdf-9bc9-5b8050484ef4","ios":"levelo://app?vid=0e2512e3-35ea-4cdf-9bc9-5b8050484ef4"},"vehicle_type_id":"4","last_reported":1781443864,"current_range_meters":7200,"station_id":"st_d2m6c4gdas8pm72e190g","pricing_plan_id":"cebpf4jnsgd1na2vs0mg"},{"bike_id":"9d7cfe82-e27f-4fb9-a963-f2c0e78ce3c1","system_id":"levelo_inurba_marseille","lat":43.28785,"lon":5.37632,"is_reserved":false,"is_disabled":false,"rental_uris":{"android":"levelo://app?vid=9d7cfe82-e27f-4fb9-a963-f2c0e78ce3c1","ios":"levelo://app?vid=9d7cfe82-e27f-4fb9-a963-f2c0e78ce3c1"},"vehicle_type_id":"4","last_reported":1781443864,"current_range_meters":7200,"station_id":"","pricing_plan_id":"cebpf4jnsgd1na2vs0mg"},{"bike_id":"013347b5-f5ff-4484-8a34-93cd1d903112","system_id":"levelo_inurba_marseille","lat":43.28418,"lon":5.34978,"is_reserved":false,"is_disabled":false,"rental_uris":{"android":"levelo://app?vid=013347b5-f5ff-4484-8a34-93cd1d903112","ios":"levelo://app?vid=013347b5-f5ff-4484-8a34-93cd1d903112"},"vehicle_type_id":"4","last_reported":1781443864,"current_range_meters":7200,"station_id":"ce4bhbh2rcd13ifvqepg","pricing_plan_id":"cebpf4jnsgd1na2vs0mg"},{"bike_id":"28b75407-b95d-4028-b050-f6d44a2ffa77","system_id":"levelo_inurba_marseille","lat":43.23776,"lon":5.36626,"is_reserved":false,"is_disabled":false,"rental_uris":{"android":"levelo://app?vid=28b75407-b95d-4028-b050-f6d44a2ffa77","ios":"levelo://app?vid=28b75407-b95d-4028-b050-f6d44a2ffa77"},"vehicle_type_id":"4","last_reported":1781443864,"current_range_meters":7200,"station_id":"st_d3nk18o9ro0c73en2l3g","pricing_plan_id":"cebpf4jnsgd1na2vs0mg"},{"bike_id":"d1800741-fac1-4624-b995-5a057797ea03","system_id":"levelo_inurba_marseille","lat":43.27215,"lon":5.4236,"is_reserved":false,"is_disabled":false,"rental_uris":{"android":"levelo://app?vid=d1800741-fac1-4624-b995-5a057797ea03","ios":"levelo://app?vid=d1800741-fac1-4624-b995-5a057797ea03"},"vehicle_type_id":"4","last_reported":1781443864,"current_range_meters":7200,"station_id":"","pricing_plan_id":"cebpf4jnsgd1na2vs0mg"},{"bike_id":"39d0c51c-f43f-4de3-bda2-70f364f473b9","system_id":"levelo_inurba_marseille","lat":43.21723,"lon":5.3464,"is_reserved":false,"is_disabled":false,"rental_uris":{"android":"levelo://app?vid=39d0c51c-f43f-4de3-bda2-70f364f473b9","ios":"levelo://app?vid=39d0c51c-f43f-4de3-bda2-70f364f473b9"},"vehicle_type_id":"4","last_reported":1781443864,"current_range_meters":7200,"station_id":"st_cvj6r9ubvosntc0bgbag","pricing_plan_id":"cebpf4jnsgd1na2vs0mg"},{"bike_id":"c2d1c0df-0e86-4c2a-8f8c-a589e1b924d5","system_id":"levelo_inurba_marseille","lat":43.21731,"lon":5.346,"is_reserved":false,"is_disabled":false,"rental_uris":{"android":"levelo://app?vid=c2d1c0df-0e86-4c2a-8f8c-a589e1b924d5","ios":"levelo://app?vid=c2d1c0df-0e86-4c2a-8f8c-a589e1b924d5"},"vehicle_type_id":"4","last_reported":1781443864,"current_range_meters":7200,"station_id":"st_cvj6r9ubvosntc0bgbag","pricing_plan_id":"cebpf4jnsgd1na2vs0mg"},{"bike_id":"54410e0e-88fe-44cb-9cd3-c20ab067986a","system_id":"levelo_inurba_marseille","lat":43.28236,"lon":5.3484,"is_reserved":false,"is_disabled":false,"rental_uris":{"android":"levelo://app?vid=54410e0e-88fe-44cb-9cd3-c20ab067986a","ios":"levelo://app?vid=54410e0e-88fe-44cb-9cd3-c20ab067986a"},"vehicle_type_id":"4","last_reported":1781443864,"current_range_meters":7200,"station_id":"","pricing_plan_id":"cebpf4jnsgd1na2vs0mg"},{"bike_id":"57e80d1f-f68d-4159-a20d-83dda85924dd","system_id":"levelo_inurba_marseille","lat":43.21745,"lon":5.34615,"is_reserved":false,"is_disabled":false,"rental_uris":{"android":"levelo://app?vid=57e80d1f-f68d-4159-a20d-83dda85924dd","ios":"levelo://app?vid=57e80d1f-f68d-4159-a20d-83dda85924dd"},"vehicle_type_id":"4","last_reported":1781443864,"current_range_meters":7200,"station_id":"st_cvj6r9ubvosntc0bgbag","pricing_plan_id":"cebpf4jnsgd1na2vs0mg"},{"bike_id":"64d1def8-2a5b-48eb-8ec4-f02e72a31395","system_id":"levelo_inurba_marseille","lat":43.28699,"lon":5.46682,"is_reserved":false,"is_disabled":false,"rental_uris":{"android":"levelo://app?vid=64d1def8-2a5b-48eb-8ec4-f02e72a31395","ios":"levelo://app?vid=64d1def8-2a5b-48eb-8ec4-f02e72a31395"},"vehicle_type_id":"4","last_reported":1781443864,"current_range_meters":7200,"station_id":"st_d6tc3vkotcvc738tfjhg","pricing_plan_id":"cebpf4jnsgd1na2vs0mg"},{"bike_id":"a4edeb52-13ba-476f-a9de-2a431575e0f4","system_id":"levelo_inurba_marseille","lat":43.30373,"lon":5.42479,"is_reserved":false,"is_disabled":false,"rental_uris":{"android":"levelo://app?vid=a4edeb52-13ba-476f-a9de-2a431575e0f4","ios":"levelo://app?vid=a4edeb52-13ba-476f-a9de-2a431575e0f4"},"vehicle_type_id":"4","last_reported":1781443864,"current_range_meters":7200,"station_id":"ce4bhoh2rcd13ifvqh6g","pricing_plan_id":"cebpf4jnsgd1na2vs0mg"},{"bike_id":"e6eda01b-4746-4a1b-b8bd-bc2e29bf1778","system_id":"levelo_inurba_marseille","lat":43.28463,"lon":5.48407,"is_reserved":false,"is_disabled":false,"rental_uris":{"android":"levelo://app?vid=e6eda01b-4746-4a1b-b8bd-bc2e29bf1778","ios":"levelo://app?vid=e6eda01b-4746-4a1b-b8bd-bc2e29bf1778"},"vehicle_type_id":"4","last_reported":1781443864,"current_range_meters":7200,"station_id":"st_d3svhcjqgbts73a3dn0g","pricing_plan_id":"cebpf4jnsgd1na2vs0mg"},{"bike_id":"5dac6a01-3a17-4aa1-899b-9ebc0701aee1","system_id":"levelo_inurba_marseille","lat":43.24387,"lon":5.3706,"is_reserved":false,"is_disabled":false,"rental_uris":{"android":"levelo://app?vid=5dac6a01-3a17-4aa1-899b-9ebc0701aee1","ios":"levelo://app?vid=5dac6a01-3a17-4aa1-899b-9ebc0701aee1"},"vehicle_type_id":"4","last_reported":1781443864,"current_range_meters":7200,"station_id":"ce4bhhh2rcd13ifvqfk0","pricing_plan_id":"cebpf4jnsgd1na2vs0mg"},{"bike_id":"b0481780-0b07-40f4-9d72-761d252f9a7d","system_id":"levelo_inurba_marseille","lat":43.26189,"lon":5.37456,"is_reserved":false,"is_disabled":false,"rental_uris":{"android":"levelo://app?vid=b0481780-0b07-40f4-9d72-761d252f9a7d","ios":"levelo://app?vid=b0481780-0b07-40f4-9d72-761d252f9a7d"},"vehicle_type_id":"4","last_reported":1781443864,"current_range_meters":7200,"station_id":"ce4bhgp2rcd13ifvqfc0","pricing_plan_id":"cebpf4jnsgd1na2vs0mg"},{"bike_id":"177de344-f95d-46a5-9c14-646feb167bd4","system_id":"levelo_inurba_marseille","lat":43.27381,"lon":5.36219,"is_reserved":false,"is_disabled":false,"rental_uris":{"android":"levelo://app?vid=177de344-f95d-46a5-9c14-646feb167bd4","ios":"levelo://app?vid=177de344-f95d-46a5-9c14-646feb167bd4"},"vehicle_type_id":"4","last_reported":1781443864,"current_range_meters":7200,"station_id":"ce4bhbh2rcd13ifvqeo0","pricing_plan_id":"cebpf4jnsgd1na2vs0mg"},{"bike_id":"eb0c1c7f-47b8-4a10-8001-0064309e6c74","system_id":"levelo_inurba_marseille","lat":43.22535,"lon":5.34828,"is_reserved":false,"is_disabled":false,"rental_uris":{"android":"levelo://app?vid=eb0c1c7f-47b8-4a10-8001-0064309e6c74","ios":"levelo://app?vid=eb0c1c7f-47b8-4a10-8001-0064309e6c74"},"vehicle_type_id":"4","last_reported":1781443864,"current_range_meters":7200,"station_id":"st_cvj5dfep6f1abm77gieg","pricing_plan_id":"cebpf4jnsgd1na2vs0mg"},{"bike_id":"c1d734fd-9377-400d-8dda-b844a392e7e1","system_id":"levelo_inurba_marseille","lat":43.28367,"lon":5.38644,"is_reserved":false,"is_disabled":true,"rental_uris":{"android":"levelo://app?vid=c1d734fd-9377-400d-8dda-b844a392e7e1","ios":"levelo://app?vid=c1d734fd-9377-400d-8dda-b844a392e7e1"},"vehicle_type_id":"4","last_reported":1781443864,"current_range_meters":7200,"station_id":"ce4bh492rcd13ifvqdvg","pricing_plan_id":"cebpf4jnsgd1na2vs0mg"},{"bike_id":"c01f6dec-89dd-472c-9d53-44f20e2f469d","system_id":"levelo_inurba_marseille","lat":43.28047,"lon":5.34829,"is_reserved":false,"is_disabled":false,"rental_uris":{"android":"levelo://app?vid=c01f6dec-89dd-472c-9d53-44f20e2f469d","ios":"levelo://app?vid=c01f6dec-89dd-472c-9d53-44f20e2f469d"},"vehicle_type_id":"4","last_reported":1781443864,"current_range_meters":7200,"station_id":"","pricing_plan_id":"cebpf4jnsgd1na2vs0mg"},{"bike_id":"e8651426-01fb-4618-a22a-e11873e51233","system_id":"levelo_inurba_marseille","lat":43.30537,"lon":5.36567,"is_reserved":false,"is_disabled":false,"rental_uris":{"android":"levelo://app?vid=e8651426-01fb-4618-a22a-e11873e51233","ios":"levelo://app?vid=e8651426-01fb-4618-a22a-e11873e51233"},"vehicle_type_id":"4","last_reported":1781443864,"current_range_meters":7200,"station_id":"ce4bgs12rcd13ifvqcag","pricing_plan_id":"cebpf4jnsgd1na2vs0mg"},{"bike_id":"d0dab105-ce32-47f1-ba84-4ee150a03bbd","system_id":"levelo_inurba_marseille","lat":43.25726,"lon":5.41117,"is_reserved":false,"is_disabled":false,"rental_uris":{"android":"levelo://app?vid=d0dab105-ce32-47f1-ba84-4ee150a03bbd","ios":"levelo://app?vid=d0dab105-ce32-47f1-ba84-4ee150a03bbd"},"vehicle_type_id":"4","last_reported":1781443864,"current_range_meters":7200,"station_id":"ce4bhkp2rcd13ifvqgd0","pricing_plan_id":"cebpf4jnsgd1na2vs0mg"},{"bike_id":"f5d56aca-50d5-483a-8d6d-25466eb0098b","system_id":"levelo_inurba_marseille","lat":43.28261,"lon":5.35058,"is_reserved":false,"is_disabled":false,"rental_uris":{"android":"levelo://app?vid=f5d56aca-50d5-483a-8d6d-25466eb0098b","ios":"levelo://app?vid=f5d56aca-50d5-483a-8d6d-25466eb0098b"},"vehicle_type_id":"4","last_reported":1781443864,"current_range_meters":7200,"station_id":"ce4bhbp2rcd13ifvqerg","pricing_plan_id":"cebpf4jnsgd1na2vs0mg"},{"bike_id":"9059db4d-53f9-4bc2-96ea-2911cca7514a","system_id":"levelo_inurba_marseille","lat":43.21192,"lon":5.35076,"is_reserved":false,"is_disabled":false,"rental_uris":{"android":"levelo://app?vid=9059db4d-53f9-4bc2-96ea-2911cca7514a","ios":"levelo://app?vid=9059db4d-53f9-4bc2-96ea-2911cca7514a"},"vehicle_type_id":"4","last_reported":1781443864,"current_range_meters":7200,"station_id":"st_cvj6sg6p6f1abm77japg","pricing_plan_id":"cebpf4jnsgd1na2vs0mg"},{"bike_id":"58df25d0-bd57-4415-b2e9-39adcdff72a1","system_id":"levelo_inurba_marseille","lat":43.29172,"lon":5.37139,"is_reserved":false,"is_disabled":true,"rental_uris":{"android":"levelo://app?vid=58df25d0-bd57-4415-b2e9-39adcdff72a1","ios":"levelo://app?vid=58df25d0-bd57-4415-b2e9-39adcdff72a1"},"vehicle_type_id":"4","last_reported":1781443864,"current_range_meters":7200,"station_id":"ce4bha92rcd13ifvqeh0","pricing_plan_id":"cebpf4jnsgd1na2vs0mg"},{"bike_id":"1cc1e854-a64b-4eaa-bd00-1c309caff36d","system_id":"levelo_inurba_marseille","lat":43.28626,"lon":5.35109,"is_reserved":false,"is_disabled":true,"rental_uris":{"android":"levelo://app?vid=1cc1e854-a64b-4eaa-bd00-1c309caff36d","ios":"levelo://app?vid=1cc1e854-a64b-4eaa-bd00-1c309caff36d"},"vehicle_type_id":"4","last_reported":1781443864,"current_range_meters":7200,"station_id":"ce4bhch2rcd13ifvqeug","pricing_plan_id":"cebpf4jnsgd1na2vs0mg"},{"bike_id":"bbcfa845-04e7-4147-af58-e656c6582dc2","system_id":"levelo_inurba_marseille","lat":43.2769,"lon":5.3586,"is_reserved":false,"is_disabled":false,"rental_uris":{"android":"levelo://app?vid=bbcfa845-04e7-4147-af58-e656c6582dc2","ios":"levelo://app?vid=bbcfa845-04e7-4147-af58-e656c6582dc2"},"vehicle_type_id":"4","last_reported":1781443864,"current_range_meters":7200,"station_id":"","pricing_plan_id":"cebpf4jnsgd1na2vs0mg"},{"bike_id":"7272f913-724d-4b58-b6a6-688b3e04b242","system_id":"levelo_inurba_marseille","lat":43.24697,"lon":5.41258,"is_reserved":false,"is_disabled":false,"rental_uris":{"android":"levelo://app?vid=7272f913-724d-4b58-b6a6-688b3e04b242","ios":"levelo://app?vid=7272f913-724d-4b58-b6a6-688b3e04b242"},"vehicle_type_id":"4","last_reported":1781443864,"current_range_meters":7200,"station_id":"","pricing_plan_id":"cebpf4jnsgd1na2vs0mg"},{"bike_id":"4e6d713d-5d98-4f27-9e30-016f10070add","system_id":"levelo_inurba_marseille","lat":43.24459,"lon":5.42523,"is_reserved":false,"is_disabled":false,"rental_uris":{"android":"levelo://app?vid=4e6d713d-5d98-4f27-9e30-016f10070add","ios":"levelo://app?vid=4e6d713d-5d98-4f27-9e30-016f10070add"},"vehicle_type_id":"4","last_reported":1781443864,"current_range_meters":7200,"station_id":"st_d4a3vfp97mjs738cd8kg","pricing_plan_id":"cebpf4jnsgd1na2vs0mg"},{"bike_id":"fcf4d312-9968-4443-82f2-b045268fd358","system_id":"levelo_inurba_marseille","lat":43.29926,"lon":5.40939,"is_reserved":false,"is_disabled":false,"rental_uris":{"android":"levelo://app?vid=fcf4d312-9968-4443-82f2-b045268fd358","ios":"levelo://app?vid=fcf4d312-9968-4443-82f2-b045268fd358"},"vehicle_type_id":"4","last_reported":1781443864,"current_range_meters":7200,"station_id":"","pricing_plan_id":"cebpf4jnsgd1na2vs0mg"},{"bike_id":"3c51bd86-da21-4b24-b827-015e600fee14","system_id":"levelo_inurba_marseille","lat":43.29004,"lon":5.35616,"is_reserved":false,"is_disabled":false,"rental_uris":{"android":"levelo://app?vid=3c51bd86-da21-4b24-b827-015e600fee14","ios":"levelo://app?vid=3c51bd86-da21-4b24-b827-015e600fee14"},"vehicle_type_id":"4","last_reported":1781443864,"current_range_meters":8000,"station_id":"ce4bhb92rcd13ifvqen0","pricing_plan_id":"cebpf4jnsgd1na2vs0mg"},{"bike_id":"e386d0c8-e4b4-44d0-b548-8a70c615d57c","system_id":"levelo_inurba_marseille","lat":43.2703,"lon":5.40263,"is_reserved":false,"is_disabled":true,"rental_uris":{"android":"levelo://app?vid=e386d0c8-e4b4-44d0-b548-8a70c615d57c","ios":"levelo://app?vid=e386d0c8-e4b4-44d0-b548-8a70c615d57c"},"vehicle_type_id":"4","last_reported":1781443864,"current_range_meters":8000,"station_id":"ce4bhk92rcd13ifvqgc0","pricing_plan_id":"cebpf4jnsgd1na2vs0mg"},{"bike_id":"4c78b6b3-2f8d-4f10-973f-a50992bad914","system_id":"levelo_inurba_marseille","lat":43.21195,"lon":5.35091,"is_reserved":false,"is_disabled":false,"rental_uris":{"android":"levelo://app?vid=4c78b6b3-2f8d-4f10-973f-a50992bad914","ios":"levelo://app?vid=4c78b6b3-2f8d-4f10-973f-a50992bad914"},"vehicle_type_id":"4","last_reported":1781443864,"current_range_meters":8000,"station_id":"st_cvj6sg6p6f1abm77japg","pricing_plan_id":"cebpf4jnsgd1na2vs0mg"},{"bike_id":"25be4c42-672c-49a7-89ee-e9ffe568c73f","system_id":"levelo_inurba_marseille","lat":43.24429,"lon":5.36975,"is_reserved":false,"is_disabled":false,"rental_uris":{"android":"levelo://app?vid=25be4c42-672c-49a7-89ee-e9ffe568c73f","ios":"levelo://app?vid=25be4c42-672c-49a7-89ee-e9ffe568c73f"},"vehicle_type_id":"4","last_reported":1781443864,"current_range_meters":8000,"station_id":"","pricing_plan_id":"cebpf4jnsgd1na2vs0mg"},{"bike_id":"6c75c411-8f34-4c94-b45e-3fab8fd19254","system_id":"levelo_inurba_marseille","lat":43.211923,"lon":5.350727,"is_reserved":false,"is_disabled":false,"rental_uris":{"android":"levelo://app?vid=6c75c411-8f34-4c94-b45e-3fab8fd19254","ios":"levelo://app?vid=6c75c411-8f34-4c94-b45e-3fab8fd19254"},"vehicle_type_id":"4","last_reported":1781443864,"current_range_meters":8000,"station_id":"st_cvj6sg6p6f1abm77japg","pricing_plan_id":"cebpf4jnsgd1na2vs0mg"},{"bike_id":"7a26995c-ffcf-4b6e-b371-c7ea94e91056","system_id":"levelo_inurba_marseille","lat":43.30541,"lon":5.36531,"is_reserved":false,"is_disabled":false,"rental_uris":{"android":"levelo://app?vid=7a26995c-ffcf-4b6e-b371-c7ea94e91056","ios":"levelo://app?vid=7a26995c-ffcf-4b6e-b371-c7ea94e91056"},"vehicle_type_id":"4","last_reported":1781443864,"current_range_meters":8000,"station_id":"ce4bgs12rcd13ifvqcag","pricing_plan_id":"cebpf4jnsgd1na2vs0mg"},{"bike_id":"a08e46ab-d7ed-406f-af3c-1a36579baa76","system_id":"levelo_inurba_marseille","lat":43.2819,"lon":5.42548,"is_reserved":false,"is_disabled":false,"rental_uris":{"android":"levelo://app?vid=a08e46ab-d7ed-406f-af3c-1a36579baa76","ios":"levelo://app?vid=a08e46ab-d7ed-406f-af3c-1a36579baa76"},"vehicle_type_id":"4","last_reported":1781443864,"current_range_meters":8000,"station_id":"","pricing_plan_id":"cebpf4jnsgd1na2vs0mg"},{"bike_id":"e951097c-25bc-4ef7-97e6-1783eeefa1c0","system_id":"levelo_inurba_marseille","lat":43.33636,"lon":5.41917,"is_reserved":false,"is_disabled":false,"rental_uris":{"android":"levelo://app?vid=e951097c-25bc-4ef7-97e6-1783eeefa1c0","ios":"levelo://app?vid=e951097c-25bc-4ef7-97e6-1783eeefa1c0"},"vehicle_type_id":"4","last_reported":1781443864,"current_range_meters":8000,"station_id":"","pricing_plan_id":"cebpf4jnsgd1na2vs0mg"},{"bike_id":"6c2ad55a-7a93-482d-ad15-fccce86cb438","system_id":"levelo_inurba_marseille","lat":43.26545,"lon":5.37302,"is_reserved":false,"is_disabled":false,"rental_uris":{"android":"levelo://app?vid=6c2ad55a-7a93-482d-ad15-fccce86cb438","ios":"levelo://app?vid=6c2ad55a-7a93-482d-ad15-fccce86cb438"},"vehicle_type_id":"4","last_reported":1781443864,"current_range_meters":8000,"station_id":"ce4bhg12rcd13ifvqf70","pricing_plan_id":"cebpf4jnsgd1na2vs0mg"},{"bike_id":"da15c788-c8d8-49d8-bc7f-d521b9e32c05","system_id":"levelo_inurba_marseille","lat":43.28423,"lon":5.34981,"is_reserved":false,"is_disabled":false,"rental_uris":{"android":"levelo://app?vid=da15c788-c8d8-49d8-bc7f-d521b9e32c05","ios":"levelo://app?vid=da15c788-c8d8-49d8-bc7f-d521b9e32c05"},"vehicle_type_id":"4","last_reported":1781443864,"current_range_meters":8000,"station_id":"ce4bhbh2rcd13ifvqepg","pricing_plan_id":"cebpf4jnsgd1na2vs0mg"},{"bike_id":"e91d4c37-49e1-4eb2-811e-d4c855f1b23c","system_id":"levelo_inurba_marseille","lat":43.31708,"lon":5.37778,"is_reserved":false,"is_disabled":false,"rental_uris":{"android":"levelo://app?vid=e91d4c37-49e1-4eb2-811e-d4c855f1b23c","ios":"levelo://app?vid=e91d4c37-49e1-4eb2-811e-d4c855f1b23c"},"vehicle_type_id":"4","last_reported":1781443864,"current_range_meters":8000,"station_id":"ce4bgth2rcd13ifvqch0","pricing_plan_id":"cebpf4jnsgd1na2vs0mg"},{"bike_id":"aff014c2-15fa-45d6-bb80-ee15e1a06979","system_id":"levelo_inurba_marseille","lat":43.23788,"lon":5.36603,"is_reserved":false,"is_disabled":false,"rental_uris":{"android":"levelo://app?vid=aff014c2-15fa-45d6-bb80-ee15e1a06979","ios":"levelo://app?vid=aff014c2-15fa-45d6-bb80-ee15e1a06979"},"vehicle_type_id":"4","last_reported":1781443864,"current_range_meters":8000,"station_id":"st_d3nk18o9ro0c73en2l3g","pricing_plan_id":"cebpf4jnsgd1na2vs0mg"},{"bike_id":"f10274f0-d5a3-4847-854d-5e53c5520946","system_id":"levelo_inurba_marseille","lat":43.32358,"lon":5.36722,"is_reserved":false,"is_disabled":false,"rental_uris":{"android":"levelo://app?vid=f10274f0-d5a3-4847-854d-5e53c5520946","ios":"levelo://app?vid=f10274f0-d5a3-4847-854d-5e53c5520946"},"vehicle_type_id":"4","last_reported":1781443864,"current_range_meters":8000,"station_id":"ce4bhsh2rcd13ifvqi2g","pricing_plan_id":"cebpf4jnsgd1na2vs0mg"},{"bike_id":"192a22af-2c39-44e2-8590-7e59c49d4e33","system_id":"levelo_inurba_marseille","lat":43.263248,"lon":5.378337,"is_reserved":false,"is_disabled":false,"rental_uris":{"android":"levelo://app?vid=192a22af-2c39-44e2-8590-7e59c49d4e33","ios":"levelo://app?vid=192a22af-2c39-44e2-8590-7e59c49d4e33"},"vehicle_type_id":"4","last_reported":1781443864,"current_range_meters":8000,"station_id":"","pricing_plan_id":"cebpf4jnsgd1na2vs0mg"},{"bike_id":"eb61e911-b9cb-41ca-b7e4-b5bcd03e3551","system_id":"levelo_inurba_marseille","lat":43.30548,"lon":5.36542,"is_reserved":false,"is_disabled":false,"rental_uris":{"android":"levelo://app?vid=eb61e911-b9cb-41ca-b7e4-b5bcd03e3551","ios":"levelo://app?vid=eb61e911-b9cb-41ca-b7e4-b5bcd03e3551"},"vehicle_type_id":"4","last_reported":1781443864,"current_range_meters":8000,"station_id":"ce4bgs12rcd13ifvqcag","pricing_plan_id":"cebpf4jnsgd1na2vs0mg"},{"bike_id":"a85e5632-2fac-4c3b-83ca-3248f83df46d","system_id":"levelo_inurba_marseille","lat":43.32118,"lon":5.36777,"is_reserved":false,"is_disabled":false,"rental_uris":{"android":"levelo://app?vid=a85e5632-2fac-4c3b-83ca-3248f83df46d","ios":"levelo://app?vid=a85e5632-2fac-4c3b-83ca-3248f83df46d"},"vehicle_type_id":"4","last_reported":1781443864,"current_range_meters":8000,"station_id":"ce4bhrh2rcd13ifvqhug","pricing_plan_id":"cebpf4jnsgd1na2vs0mg"},{"bike_id":"520e7007-685d-436d-8d38-db025ae27a9c","system_id":"levelo_inurba_marseille","lat":43.33729,"lon":5.39188,"is_reserved":false,"is_disabled":false,"rental_uris":{"android":"levelo://app?vid=520e7007-685d-436d-8d38-db025ae27a9c","ios":"levelo://app?vid=520e7007-685d-436d-8d38-db025ae27a9c"},"vehicle_type_id":"4","last_reported":1781443864,"current_range_meters":8000,"station_id":"ce4bhr92rcd13ifvqhsg","pricing_plan_id":"cebpf4jnsgd1na2vs0mg"},{"bike_id":"4b51180a-f031-4891-9ca2-75426db627c3","system_id":"levelo_inurba_marseille","lat":43.26563,"lon":5.39461,"is_reserved":false,"is_disabled":false,"rental_uris":{"android":"levelo://app?vid=4b51180a-f031-4891-9ca2-75426db627c3","ios":"levelo://app?vid=4b51180a-f031-4891-9ca2-75426db627c3"},"vehicle_type_id":"4","last_reported":1781443864,"current_range_meters":8000,"station_id":"","pricing_plan_id":"cebpf4jnsgd1na2vs0mg"},{"bike_id":"795c8263-b8d9-4fb4-98a6-7e3fbac3000a","system_id":"levelo_inurba_marseille","lat":43.23961,"lon":5.3664,"is_reserved":false,"is_disabled":false,"rental_uris":{"android":"levelo://app?vid=795c8263-b8d9-4fb4-98a6-7e3fbac3000a","ios":"levelo://app?vid=795c8263-b8d9-4fb4-98a6-7e3fbac3000a"},"vehicle_type_id":"4","last_reported":1781443864,"current_range_meters":8000,"station_id":"ce4bhi12rcd13ifvqfp0","pricing_plan_id":"cebpf4jnsgd1na2vs0mg"},{"bike_id":"0630f1a9-8739-454b-b039-f139598f8686","system_id":"levelo_inurba_marseille","lat":43.29697,"lon":5.37159,"is_reserved":false,"is_disabled":false,"rental_uris":{"android":"levelo://app?vid=0630f1a9-8739-454b-b039-f139598f8686","ios":"levelo://app?vid=0630f1a9-8739-454b-b039-f139598f8686"},"vehicle_type_id":"4","last_reported":1781443864,"current_range_meters":8000,"station_id":"","pricing_plan_id":"cebpf4jnsgd1na2vs0mg"},{"bike_id":"0d907e20-16f1-40bd-b155-a0f4876e2d69","system_id":"levelo_inurba_marseille","lat":43.24391,"lon":5.401,"is_reserved":false,"is_disabled":false,"rental_uris":{"android":"levelo://app?vid=0d907e20-16f1-40bd-b155-a0f4876e2d69","ios":"levelo://app?vid=0d907e20-16f1-40bd-b155-a0f4876e2d69"},"vehicle_type_id":"4","last_reported":1781443864,"current_range_meters":8000,"station_id":"","pricing_plan_id":"cebpf4jnsgd1na2vs0mg"},{"bike_id":"8201d4c2-f665-4db0-aeb7-7b4a87145f87","system_id":"levelo_inurba_marseille","lat":43.25706,"lon":5.41101,"is_reserved":false,"is_disabled":false,"rental_uris":{"android":"levelo://app?vid=8201d4c2-f665-4db0-aeb7-7b4a87145f87","ios":"levelo://app?vid=8201d4c2-f665-4db0-aeb7-7b4a87145f87"},"vehicle_type_id":"4","last_reported":1781443864,"current_range_meters":8000,"station_id":"ce4bhkp2rcd13ifvqgd0","pricing_plan_id":"cebpf4jnsgd1na2vs0mg"},{"bike_id":"15db509e-d1e3-471f-b48f-32cadf31b3a1","system_id":"levelo_inurba_marseille","lat":43.26192,"lon":5.37417,"is_reserved":false,"is_disabled":false,"rental_uris":{"android":"levelo://app?vid=15db509e-d1e3-471f-b48f-32cadf31b3a1","ios":"levelo://app?vid=15db509e-d1e3-471f-b48f-32cadf31b3a1"},"vehicle_type_id":"4","last_reported":1781443864,"current_range_meters":8000,"station_id":"ce4bhgp2rcd13ifvqfc0","pricing_plan_id":"cebpf4jnsgd1na2vs0mg"},{"bike_id":"092d132d-05ae-463b-9455-7de962799ff2","system_id":"levelo_inurba_marseille","lat":43.28743,"lon":5.35213,"is_reserved":false,"is_disabled":false,"rental_uris":{"android":"levelo://app?vid=092d132d-05ae-463b-9455-7de962799ff2","ios":"levelo://app?vid=092d132d-05ae-463b-9455-7de962799ff2"},"vehicle_type_id":"4","last_reported":1781443864,"current_range_meters":8000,"station_id":"","pricing_plan_id":"cebpf4jnsgd1na2vs0mg"},{"bike_id":"cc33466a-2ec7-4e87-b9b9-21d831b49e34","system_id":"levelo_inurba_marseille","lat":43.25111,"lon":5.40329,"is_reserved":false,"is_disabled":false,"rental_uris":{"android":"levelo://app?vid=cc33466a-2ec7-4e87-b9b9-21d831b49e34","ios":"levelo://app?vid=cc33466a-2ec7-4e87-b9b9-21d831b49e34"},"vehicle_type_id":"4","last_reported":1781443864,"current_range_meters":8000,"station_id":"ce4bhlh2rcd13ifvqgig","pricing_plan_id":"cebpf4jnsgd1na2vs0mg"},{"bike_id":"d340e106-28af-4bf2-ad74-836d605974d2","system_id":"levelo_inurba_marseille","lat":43.21738,"lon":5.34644,"is_reserved":false,"is_disabled":false,"rental_uris":{"android":"levelo://app?vid=d340e106-28af-4bf2-ad74-836d605974d2","ios":"levelo://app?vid=d340e106-28af-4bf2-ad74-836d605974d2"},"vehicle_type_id":"4","last_reported":1781443864,"current_range_meters":8400,"station_id":"st_cvj6r9ubvosntc0bgbag","pricing_plan_id":"cebpf4jnsgd1na2vs0mg"},{"bike_id":"182d1bf5-086e-469e-a37a-df64c4d0603f","system_id":"levelo_inurba_marseille","lat":43.31477,"lon":5.38594,"is_reserved":false,"is_disabled":false,"rental_uris":{"android":"levelo://app?vid=182d1bf5-086e-469e-a37a-df64c4d0603f","ios":"levelo://app?vid=182d1bf5-086e-469e-a37a-df64c4d0603f"},"vehicle_type_id":"4","last_reported":1781443864,"current_range_meters":8400,"station_id":"","pricing_plan_id":"cebpf4jnsgd1na2vs0mg"},{"bike_id":"4d8df8ec-f6c0-4c39-8cac-00a49ce6968d","system_id":"levelo_inurba_marseille","lat":43.29074,"lon":5.37154,"is_reserved":false,"is_disabled":true,"rental_uris":{"android":"levelo://app?vid=4d8df8ec-f6c0-4c39-8cac-00a49ce6968d","ios":"levelo://app?vid=4d8df8ec-f6c0-4c39-8cac-00a49ce6968d"},"vehicle_type_id":"4","last_reported":1781443864,"current_range_meters":8400,"station_id":"ce4bh5p2rcd13ifvqe4g","pricing_plan_id":"cebpf4jnsgd1na2vs0mg"},{"bike_id":"bb2b8605-01de-4068-976a-c32a5cbafae1","system_id":"levelo_inurba_marseille","lat":43.28489,"lon":5.48396,"is_reserved":false,"is_disabled":false,"rental_uris":{"android":"levelo://app?vid=bb2b8605-01de-4068-976a-c32a5cbafae1","ios":"levelo://app?vid=bb2b8605-01de-4068-976a-c32a5cbafae1"},"vehicle_type_id":"4","last_reported":1781443864,"current_range_meters":8400,"station_id":"st_d3svhcjqgbts73a3dn0g","pricing_plan_id":"cebpf4jnsgd1na2vs0mg"},{"bike_id":"5762482e-dee2-42a8-859f-f24d2e7583cc","system_id":"levelo_inurba_marseille","lat":43.23894,"lon":5.37458,"is_reserved":false,"is_disabled":false,"rental_uris":{"android":"levelo://app?vid=5762482e-dee2-42a8-859f-f24d2e7583cc","ios":"levelo://app?vid=5762482e-dee2-42a8-859f-f24d2e7583cc"},