{"last_updated":1746652141,"ttl":60,"version":"2.2","data":{"bikes":[{"bike_id":"dc6ce985-f7cb-4e30-8565-c12870a4bb71","system_id":"levelo_inurba_marseille","lat":43.26703,"lon":5.41217,"is_reserved":false,"is_disabled":true,"rental_uris":{"android":"levelo://app?vid=dc6ce985-f7cb-4e30-8565-c12870a4bb71","ios":"levelo://app?vid=dc6ce985-f7cb-4e30-8565-c12870a4bb71"},"vehicle_type_id":"4","last_reported":1746652141,"current_range_meters":2800,"station_id":"","pricing_plan_id":"cebpf4jnsgd1na2vs0mg"},{"bike_id":"05c5b46b-1897-46ad-b40d-2ac89d4a9669","system_id":"levelo_inurba_marseille","lat":43.29279,"lon":5.36848,"is_reserved":false,"is_disabled":false,"rental_uris":{"android":"levelo://app?vid=05c5b46b-1897-46ad-b40d-2ac89d4a9669","ios":"levelo://app?vid=05c5b46b-1897-46ad-b40d-2ac89d4a9669"},"vehicle_type_id":"4","last_reported":1746652141,"current_range_meters":2800,"station_id":"ce4bhbp2rcd13ifvqesg","pricing_plan_id":"cebpf4jnsgd1na2vs0mg"},{"bike_id":"0c02dbe0-39fe-41b6-b847-23333b51c1ed","system_id":"levelo_inurba_marseille","lat":43.30467,"lon":5.37894,"is_reserved":false,"is_disabled":true,"rental_uris":{"android":"levelo://app?vid=0c02dbe0-39fe-41b6-b847-23333b51c1ed","ios":"levelo://app?vid=0c02dbe0-39fe-41b6-b847-23333b51c1ed"},"vehicle_type_id":"4","last_reported":1746652141,"current_range_meters":2800,"station_id":"ce4bgup2rcd13ifvqcn0","pricing_plan_id":"cebpf4jnsgd1na2vs0mg"},{"bike_id":"ed95ba89-64a8-4bb9-994f-92af2793b9bb","system_id":"levelo_inurba_marseille","lat":43.258282,"lon":5.394386,"is_reserved":false,"is_disabled":false,"rental_uris":{"android":"levelo://app?vid=ed95ba89-64a8-4bb9-994f-92af2793b9bb","ios":"levelo://app?vid=ed95ba89-64a8-4bb9-994f-92af2793b9bb"},"vehicle_type_id":"4","last_reported":1746652141,"current_range_meters":2000,"station_id":"ce4bhip2rcd13ifvqft0","pricing_plan_id":"cebpf4jnsgd1na2vs0mg"},{"bike_id":"a00e807c-fde4-42b9-99a4-f463420a9dfb","system_id":"levelo_inurba_marseille","lat":43.31381,"lon":5.43832,"is_reserved":false,"is_disabled":false,"rental_uris":{"android":"levelo://app?vid=a00e807c-fde4-42b9-99a4-f463420a9dfb","ios":"levelo://app?vid=a00e807c-fde4-42b9-99a4-f463420a9dfb"},"vehicle_type_id":"4","last_reported":1746652141,"current_range_meters":2800,"station_id":"","pricing_plan_id":"cebpf4jnsgd1na2vs0mg"},{"bike_id":"f37dcd41-a460-47e8-a324-fb18ee4796c3","system_id":"levelo_inurba_marseille","lat":43.29277,"lon":5.40116,"is_reserved":false,"is_disabled":false,"rental_uris":{"android":"levelo://app?vid=f37dcd41-a460-47e8-a324-fb18ee4796c3","ios":"levelo://app?vid=f37dcd41-a460-47e8-a324-fb18ee4796c3"},"vehicle_type_id":"4","last_reported":1746652141,"current_range_meters":2800,"station_id":"ce4bh312rcd13ifvqdk0","pricing_plan_id":"cebpf4jnsgd1na2vs0mg"},{"bike_id":"946baa38-6201-448f-b2e4-1f8ac89aad45","system_id":"levelo_inurba_marseille","lat":43.27841,"lon":5.39216,"is_reserved":false,"is_disabled":false,"rental_uris":{"android":"levelo://app?vid=946baa38-6201-448f-b2e4-1f8ac89aad45","ios":"levelo://app?vid=946baa38-6201-448f-b2e4-1f8ac89aad45"},"vehicle_type_id":"4","last_reported":1746652141,"current_range_meters":2800,"station_id":"ce4bhjp2rcd13ifvqga0","pricing_plan_id":"cebpf4jnsgd1na2vs0mg"},{"bike_id":"0037dfd6-62c2-4bb3-b3eb-f9321089c7b8","system_id":"levelo_inurba_marseille","lat":43.27426,"lon":5.39411,"is_reserved":false,"is_disabled":false,"rental_uris":{"android":"levelo://app?vid=0037dfd6-62c2-4bb3-b3eb-f9321089c7b8","ios":"levelo://app?vid=0037dfd6-62c2-4bb3-b3eb-f9321089c7b8"},"vehicle_type_id":"4","last_reported":1746652141,"current_range_meters":3600,"station_id":"ce4bhdp2rcd13ifvqf20","pricing_plan_id":"cebpf4jnsgd1na2vs0mg"},{"bike_id":"9748a0c4-d6b8-4d04-814d-c8cd66193aaf","system_id":"levelo_inurba_marseille","lat":43.25235,"lon":5.41064,"is_reserved":false,"is_disabled":false,"rental_uris":{"android":"levelo://app?vid=9748a0c4-d6b8-4d04-814d-c8cd66193aaf","ios":"levelo://app?vid=9748a0c4-d6b8-4d04-814d-c8cd66193aaf"},"vehicle_type_id":"4","last_reported":1746652141,"current_range_meters":3600,"station_id":"","pricing_plan_id":"cebpf4jnsgd1na2vs0mg"},{"bike_id":"726c5623-5562-4efb-be86-53a38122fa7b","system_id":"levelo_inurba_marseille","lat":43.30599,"lon":5.3936,"is_reserved":false,"is_disabled":false,"rental_uris":{"android":"levelo://app?vid=726c5623-5562-4efb-be86-53a38122fa7b","ios":"levelo://app?vid=726c5623-5562-4efb-be86-53a38122fa7b"},"vehicle_type_id":"4","last_reported":1746652141,"current_range_meters":3600,"station_id":"ce4bh0p2rcd13ifvqd80","pricing_plan_id":"cebpf4jnsgd1na2vs0mg"},{"bike_id":"b7af7148-d090-4bd1-860b-eecb879d94a1","system_id":"levelo_inurba_marseille","lat":43.27832,"lon":5.40715,"is_reserved":false,"is_disabled":true,"rental_uris":{"android":"levelo://app?vid=b7af7148-d090-4bd1-860b-eecb879d94a1","ios":"levelo://app?vid=b7af7148-d090-4bd1-860b-eecb879d94a1"},"vehicle_type_id":"4","last_reported":1746652141,"current_range_meters":4000,"station_id":"ce4bhnh2rcd13ifvqgtg","pricing_plan_id":"cebpf4jnsgd1na2vs0mg"},{"bike_id":"a5fc0d9c-1c89-4c88-b344-b7f2431be59a","system_id":"levelo_inurba_marseille","lat":43.29574,"lon":5.3996,"is_reserved":false,"is_disabled":false,"rental_uris":{"android":"levelo://app?vid=a5fc0d9c-1c89-4c88-b344-b7f2431be59a","ios":"levelo://app?vid=a5fc0d9c-1c89-4c88-b344-b7f2431be59a"},"vehicle_type_id":"4","last_reported":1746652141,"current_range_meters":4000,"station_id":"ce4bh312rcd13ifvqdj0","pricing_plan_id":"cebpf4jnsgd1na2vs0mg"},{"bike_id":"45667e8c-4862-4591-91ef-1dd035410072","system_id":"levelo_inurba_marseille","lat":43.29258,"lon":5.40913,"is_reserved":false,"is_disabled":false,"rental_uris":{"android":"levelo://app?vid=45667e8c-4862-4591-91ef-1dd035410072","ios":"levelo://app?vid=45667e8c-4862-4591-91ef-1dd035410072"},"vehicle_type_id":"4","last_reported":1746652141,"current_range_meters":4000,"station_id":"ce4bh192rcd13ifvqdc0","pricing_plan_id":"cebpf4jnsgd1na2vs0mg"},{"bike_id":"d1f36b37-6349-4fdf-9b9e-1b7c1d3bd17a","system_id":"levelo_inurba_marseille","lat":43.29627,"lon":5.39015,"is_reserved":false,"is_disabled":false,"rental_uris":{"android":"levelo://app?vid=d1f36b37-6349-4fdf-9b9e-1b7c1d3bd17a","ios":"levelo://app?vid=d1f36b37-6349-4fdf-9b9e-1b7c1d3bd17a"},"vehicle_type_id":"4","last_reported":1746652141,"current_range_meters":4000,"station_id":"","pricing_plan_id":"cebpf4jnsgd1na2vs0mg"},{"bike_id":"6c22254f-87e6-4ef6-b452-73baf9b8aafd","system_id":"levelo_inurba_marseille","lat":43.28618,"lon":5.35104,"is_reserved":false,"is_disabled":false,"rental_uris":{"android":"levelo://app?vid=6c22254f-87e6-4ef6-b452-73baf9b8aafd","ios":"levelo://app?vid=6c22254f-87e6-4ef6-b452-73baf9b8aafd"},"vehicle_type_id":"4","last_reported":1746652141,"current_range_meters":4000,"station_id":"ce4bhch2rcd13ifvqeug","pricing_plan_id":"cebpf4jnsgd1na2vs0mg"},{"bike_id":"63cb73aa-86fe-4599-9b76-3790ec130780","system_id":"levelo_inurba_marseille","lat":43.29584,"lon":5.37873,"is_reserved":false,"is_disabled":false,"rental_uris":{"android":"levelo://app?vid=63cb73aa-86fe-4599-9b76-3790ec130780","ios":"levelo://app?vid=63cb73aa-86fe-4599-9b76-3790ec130780"},"vehicle_type_id":"4","last_reported":1746652141,"current_range_meters":4400,"station_id":"","pricing_plan_id":"cebpf4jnsgd1na2vs0mg"},{"bike_id":"c5f7834e-ce95-434e-af74-c58df4885ce5","system_id":"levelo_inurba_marseille","lat":43.28953,"lon":5.36396,"is_reserved":false,"is_disabled":false,"rental_uris":{"android":"levelo://app?vid=c5f7834e-ce95-434e-af74-c58df4885ce5","ios":"levelo://app?vid=c5f7834e-ce95-434e-af74-c58df4885ce5"},"vehicle_type_id":"4","last_reported":1746652141,"current_range_meters":4400,"station_id":"ce4bhc92rcd13ifvqetg","pricing_plan_id":"cebpf4jnsgd1na2vs0mg"},{"bike_id":"eccba332-1be7-42d7-a3c4-90b0d1cb293e","system_id":"levelo_inurba_marseille","lat":43.27997,"lon":5.41646,"is_reserved":false,"is_disabled":false,"rental_uris":{"android":"levelo://app?vid=eccba332-1be7-42d7-a3c4-90b0d1cb293e","ios":"levelo://app?vid=eccba332-1be7-42d7-a3c4-90b0d1cb293e"},"vehicle_type_id":"4","last_reported":1746652141,"current_range_meters":4800,"station_id":"ce4bho12rcd13ifvqh1g","pricing_plan_id":"cebpf4jnsgd1na2vs0mg"},{"bike_id":"c9592205-9409-4f74-aed1-7c4141a58caa","system_id":"levelo_inurba_marseille","lat":43.2714,"lon":5.36371,"is_reserved":false,"is_disabled":false,"rental_uris":{"android":"levelo://app?vid=c9592205-9409-4f74-aed1-7c4141a58caa","ios":"levelo://app?vid=c9592205-9409-4f74-aed1-7c4141a58caa"},"vehicle_type_id":"4","last_reported":1746652141,"current_range_meters":4800,"station_id":"","pricing_plan_id":"cebpf4jnsgd1na2vs0mg"},{"bike_id":"d73fb77a-86b8-4c22-a7b4-6a16278cdaf7","system_id":"levelo_inurba_marseille","lat":43.29074,"lon":5.37153,"is_reserved":false,"is_disabled":false,"rental_uris":{"android":"levelo://app?vid=d73fb77a-86b8-4c22-a7b4-6a16278cdaf7","ios":"levelo://app?vid=d73fb77a-86b8-4c22-a7b4-6a16278cdaf7"},"vehicle_type_id":"4","last_reported":1746652141,"current_range_meters":4800,"station_id":"ce4bh5p2rcd13ifvqe4g","pricing_plan_id":"cebpf4jnsgd1na2vs0mg"},{"bike_id":"e36ce51c-cfe5-491e-bcaf-9c9d20d8b38e","system_id":"levelo_inurba_marseille","lat":43.30591,"lon":5.39352,"is_reserved":false,"is_disabled":false,"rental_uris":{"android":"levelo://app?vid=e36ce51c-cfe5-491e-bcaf-9c9d20d8b38e","ios":"levelo://app?vid=e36ce51c-cfe5-491e-bcaf-9c9d20d8b38e"},"vehicle_type_id":"4","last_reported":1746652141,"current_range_meters":5600,"station_id":"ce4bh0p2rcd13ifvqd80","pricing_plan_id":"cebpf4jnsgd1na2vs0mg"},{"bike_id":"550a0abb-925d-499a-8bb1-f4f2c932bb08","system_id":"levelo_inurba_marseille","lat":43.23961,"lon":5.36636,"is_reserved":false,"is_disabled":false,"rental_uris":{"android":"levelo://app?vid=550a0abb-925d-499a-8bb1-f4f2c932bb08","ios":"levelo://app?vid=550a0abb-925d-499a-8bb1-f4f2c932bb08"},"vehicle_type_id":"4","last_reported":1746652141,"current_range_meters":5600,"station_id":"ce4bhi12rcd13ifvqfp0","pricing_plan_id":"cebpf4jnsgd1na2vs0mg"},{"bike_id":"efffaf9f-6cd9-4b5b-8c9a-c0f07f4ef8e3","system_id":"levelo_inurba_marseille","lat":43.292667,"lon":5.36846,"is_reserved":false,"is_disabled":false,"rental_uris":{"android":"levelo://app?vid=efffaf9f-6cd9-4b5b-8c9a-c0f07f4ef8e3","ios":"levelo://app?vid=efffaf9f-6cd9-4b5b-8c9a-c0f07f4ef8e3"},"vehicle_type_id":"4","last_reported":1746652141,"current_range_meters":5600,"station_id":"ce4bhbp2rcd13ifvqesg","pricing_plan_id":"cebpf4jnsgd1na2vs0mg"},{"bike_id":"de06eedd-5fdd-447c-9942-8ee8b0d14db9","system_id":"levelo_inurba_marseille","lat":43.29933,"lon":5.36546,"is_reserved":false,"is_disabled":false,"rental_uris":{"android":"levelo://app?vid=de06eedd-5fdd-447c-9942-8ee8b0d14db9","ios":"levelo://app?vid=de06eedd-5fdd-447c-9942-8ee8b0d14db9"},"vehicle_type_id":"4","last_reported":1746652141,"current_range_meters":5600,"station_id":"ce4bgm92rcd13ifvqbr0","pricing_plan_id":"cebpf4jnsgd1na2vs0mg"},{"bike_id":"5f89e5d8-8e5e-4a6d-901c-70aafb0a905d","system_id":"levelo_inurba_marseille","lat":43.29254,"lon":5.37402,"is_reserved":false,"is_disabled":false,"rental_uris":{"android":"levelo://app?vid=5f89e5d8-8e5e-4a6d-901c-70aafb0a905d","ios":"levelo://app?vid=5f89e5d8-8e5e-4a6d-901c-70aafb0a905d"},"vehicle_type_id":"4","last_reported":1746652141,"current_range_meters":6000,"station_id":"","pricing_plan_id":"cebpf4jnsgd1na2vs0mg"},{"bike_id":"e3eb3fa9-7240-4fb6-9a77-45d2a507780d","system_id":"levelo_inurba_marseille","lat":43.23154,"lon":5.43701,"is_reserved":false,"is_disabled":false,"rental_uris":{"android":"levelo://app?vid=e3eb3fa9-7240-4fb6-9a77-45d2a507780d","ios":"levelo://app?vid=e3eb3fa9-7240-4fb6-9a77-45d2a507780d"},"vehicle_type_id":"4","last_reported":1746652141,"current_range_meters":6000,"station_id":"ce4bhmp2rcd13ifvqgog","pricing_plan_id":"cebpf4jnsgd1na2vs0mg"},{"bike_id":"8c75ffef-8d17-478e-a90b-7dfa29b86a71","system_id":"levelo_inurba_marseille","lat":43.2956,"lon":5.42289,"is_reserved":false,"is_disabled":false,"rental_uris":{"android":"levelo://app?vid=8c75ffef-8d17-478e-a90b-7dfa29b86a71","ios":"levelo://app?vid=8c75ffef-8d17-478e-a90b-7dfa29b86a71"},"vehicle_type_id":"4","last_reported":1746652141,"current_range_meters":5600,"station_id":"ce4bhph2rcd13ifvqhdg","pricing_plan_id":"cebpf4jnsgd1na2vs0mg"},{"bike_id":"db97f7d1-d35d-4dcd-976a-fbe1c8cbdd29","system_id":"levelo_inurba_marseille","lat":43.32638,"lon":5.42891,"is_reserved":false,"is_disabled":false,"rental_uris":{"android":"levelo://app?vid=db97f7d1-d35d-4dcd-976a-fbe1c8cbdd29","ios":"levelo://app?vid=db97f7d1-d35d-4dcd-976a-fbe1c8cbdd29"},"vehicle_type_id":"4","last_reported":1746652141,"current_range_meters":6000,"station_id":"","pricing_plan_id":"cebpf4jnsgd1na2vs0mg"},{"bike_id":"705f1f6f-d92c-4df1-a512-943b0bf79900","system_id":"levelo_inurba_marseille","lat":43.22501,"lon":5.34778,"is_reserved":false,"is_disabled":false,"rental_uris":{"android":"levelo://app?vid=705f1f6f-d92c-4df1-a512-943b0bf79900","ios":"levelo://app?vid=705f1f6f-d92c-4df1-a512-943b0bf79900"},"vehicle_type_id":"4","last_reported":1746652141,"current_range_meters":6000,"station_id":"st_cvj5dfep6f1abm77gieg","pricing_plan_id":"cebpf4jnsgd1na2vs0mg"},{"bike_id":"908fe567-2dd5-4924-b7ac-cc62624ef687","system_id":"levelo_inurba_marseille","lat":43.28615,"lon":5.35101,"is_reserved":false,"is_disabled":false,"rental_uris":{"android":"levelo://app?vid=908fe567-2dd5-4924-b7ac-cc62624ef687","ios":"levelo://app?vid=908fe567-2dd5-4924-b7ac-cc62624ef687"},"vehicle_type_id":"4","last_reported":1746652141,"current_range_meters":6400,"station_id":"ce4bhch2rcd13ifvqeug","pricing_plan_id":"cebpf4jnsgd1na2vs0mg"},{"bike_id":"b309296a-5a1b-445a-9a01-8252b5594238","system_id":"levelo_inurba_marseille","lat":43.24181,"lon":5.39725,"is_reserved":false,"is_disabled":false,"rental_uris":{"android":"levelo://app?vid=b309296a-5a1b-445a-9a01-8252b5594238","ios":"levelo://app?vid=b309296a-5a1b-445a-9a01-8252b5594238"},"vehicle_type_id":"4","last_reported":1746652141,"current_range_meters":6400,"station_id":"ce4bhn12rcd13ifvqgpg","pricing_plan_id":"cebpf4jnsgd1na2vs0mg"},{"bike_id":"0605e418-a174-4d1d-9234-97b93b30d5ef","system_id":"levelo_inurba_marseille","lat":43.24662,"lon":5.38167,"is_reserved":false,"is_disabled":false,"rental_uris":{"android":"levelo://app?vid=0605e418-a174-4d1d-9234-97b93b30d5ef","ios":"levelo://app?vid=0605e418-a174-4d1d-9234-97b93b30d5ef"},"vehicle_type_id":"4","last_reported":1746652141,"current_range_meters":6400,"station_id":"ce4bhih2rcd13ifvqfr0","pricing_plan_id":"cebpf4jnsgd1na2vs0mg"},{"bike_id":"8cd31ada-4860-4ba0-89d9-71f96c760e92","system_id":"levelo_inurba_marseille","lat":43.29513,"lon":5.39405,"is_reserved":false,"is_disabled":false,"rental_uris":{"android":"levelo://app?vid=8cd31ada-4860-4ba0-89d9-71f96c760e92","ios":"levelo://app?vid=8cd31ada-4860-4ba0-89d9-71f96c760e92"},"vehicle_type_id":"4","last_reported":1746652141,"current_range_meters":6400,"station_id":"ce4bh292rcd13ifvqdf0","pricing_plan_id":"cebpf4jnsgd1na2vs0mg"},{"bike_id":"ceb2c254-7981-4e95-934d-71f813054430","system_id":"levelo_inurba_marseille","lat":43.24806,"lon":5.37458,"is_reserved":false,"is_disabled":false,"rental_uris":{"android":"levelo://app?vid=ceb2c254-7981-4e95-934d-71f813054430","ios":"levelo://app?vid=ceb2c254-7981-4e95-934d-71f813054430"},"vehicle_type_id":"4","last_reported":1746652141,"current_range_meters":8800,"station_id":"ce4bhgh2rcd13ifvqfb0","pricing_plan_id":"cebpf4jnsgd1na2vs0mg"},{"bike_id":"99fde332-20cc-43dc-9efe-63dd5770b720","system_id":"levelo_inurba_marseille","lat":43.292998,"lon":5.374565,"is_reserved":false,"is_disabled":false,"rental_uris":{"android":"levelo://app?vid=99fde332-20cc-43dc-9efe-63dd5770b720","ios":"levelo://app?vid=99fde332-20cc-43dc-9efe-63dd5770b720"},"vehicle_type_id":"4","last_reported":1746652141,"current_range_meters":6400,"station_id":"cjm6bp8fraef2m0cb0m0","pricing_plan_id":"cebpf4jnsgd1na2vs0mg"},{"bike_id":"406e84c6-4b16-44c2-b175-144ad146b8ce","system_id":"levelo_inurba_marseille","lat":43.29072,"lon":5.37145,"is_reserved":false,"is_disabled":true,"rental_uris":{"android":"levelo://app?vid=406e84c6-4b16-44c2-b175-144ad146b8ce","ios":"levelo://app?vid=406e84c6-4b16-44c2-b175-144ad146b8ce"},"vehicle_type_id":"4","last_reported":1746652141,"current_range_meters":6400,"station_id":"ce4bh5p2rcd13ifvqe4g","pricing_plan_id":"cebpf4jnsgd1na2vs0mg"},{"bike_id":"71495060-9b58-460c-b88a-74604ab4d615","system_id":"levelo_inurba_marseille","lat":43.30438,"lon":5.41986,"is_reserved":false,"is_disabled":false,"rental_uris":{"android":"levelo://app?vid=71495060-9b58-460c-b88a-74604ab4d615","ios":"levelo://app?vid=71495060-9b58-460c-b88a-74604ab4d615"},"vehicle_type_id":"4","last_reported":1746652141,"current_range_meters":6800,"station_id":"","pricing_plan_id":"cebpf4jnsgd1na2vs0mg"},{"bike_id":"df1e818a-594f-4cb3-995f-229098059cc8","system_id":"levelo_inurba_marseille","lat":43.3042,"lon":5.3888,"is_reserved":false,"is_disabled":false,"rental_uris":{"android":"levelo://app?vid=df1e818a-594f-4cb3-995f-229098059cc8","ios":"levelo://app?vid=df1e818a-594f-4cb3-995f-229098059cc8"},"vehicle_type_id":"4","last_reported":1746652141,"current_range_meters":6800,"station_id":"ce4bgk12rcd13ifvqbi0","pricing_plan_id":"cebpf4jnsgd1na2vs0mg"},{"bike_id":"8eb771ff-aa34-4a53-a12c-83f85de4c90e","system_id":"levelo_inurba_marseille","lat":43.28855,"lon":5.39298,"is_reserved":false,"is_disabled":false,"rental_uris":{"android":"levelo://app?vid=8eb771ff-aa34-4a53-a12c-83f85de4c90e","ios":"levelo://app?vid=8eb771ff-aa34-4a53-a12c-83f85de4c90e"},"vehicle_type_id":"4","last_reported":1746652141,"current_range_meters":6800,"station_id":"ce4bh2p2rcd13ifvqdi0","pricing_plan_id":"cebpf4jnsgd1na2vs0mg"},{"bike_id":"6be85270-949b-41b0-bafa-6a9ac2af25b4","system_id":"levelo_inurba_marseille","lat":43.324,"lon":5.39001,"is_reserved":false,"is_disabled":true,"rental_uris":{"android":"levelo://app?vid=6be85270-949b-41b0-bafa-6a9ac2af25b4","ios":"levelo://app?vid=6be85270-949b-41b0-bafa-6a9ac2af25b4"},"vehicle_type_id":"4","last_reported":1746652141,"current_range_meters":6800,"station_id":"","pricing_plan_id":"cebpf4jnsgd1na2vs0mg"},{"bike_id":"65e1084f-ebcf-4601-908e-c0c52240a2e5","system_id":"levelo_inurba_marseille","lat":43.262063,"lon":5.379231,"is_reserved":false,"is_disabled":true,"rental_uris":{"android":"levelo://app?vid=65e1084f-ebcf-4601-908e-c0c52240a2e5","ios":"levelo://app?vid=65e1084f-ebcf-4601-908e-c0c52240a2e5"},"vehicle_type_id":"4","last_reported":1746652141,"current_range_meters":7200,"station_id":"ce4bhjp2rcd13ifvqg90","pricing_plan_id":"cebpf4jnsgd1na2vs0mg"},{"bike_id":"d1fef723-4dd0-41fb-8c1c-36af5368298f","system_id":"levelo_inurba_marseille","lat":43.25429,"lon":5.38255,"is_reserved":false,"is_disabled":false,"rental_uris":{"android":"levelo://app?vid=d1fef723-4dd0-41fb-8c1c-36af5368298f","ios":"levelo://app?vid=d1fef723-4dd0-41fb-8c1c-36af5368298f"},"vehicle_type_id":"4","last_reported":1746652141,"current_range_meters":7200,"station_id":"","pricing_plan_id":"cebpf4jnsgd1na2vs0mg"},{"bike_id":"3285eb0f-d6a2-4eef-bb09-ebee3f12329f","system_id":"levelo_inurba_marseille","lat":43.31478,"lon":5.3732,"is_reserved":false,"is_disabled":false,"rental_uris":{"android":"levelo://app?vid=3285eb0f-d6a2-4eef-bb09-ebee3f12329f","ios":"levelo://app?vid=3285eb0f-d6a2-4eef-bb09-ebee3f12329f"},"vehicle_type_id":"4","last_reported":1746652141,"current_range_meters":7200,"station_id":"ce4bgt12rcd13ifvqcd0","pricing_plan_id":"cebpf4jnsgd1na2vs0mg"},{"bike_id":"ebcb5402-009b-4a85-a64a-1ddb8811c73b","system_id":"levelo_inurba_marseille","lat":43.30254,"lon":5.40083,"is_reserved":false,"is_disabled":true,"rental_uris":{"android":"levelo://app?vid=ebcb5402-009b-4a85-a64a-1ddb8811c73b","ios":"levelo://app?vid=ebcb5402-009b-4a85-a64a-1ddb8811c73b"},"vehicle_type_id":"4","last_reported":1746652141,"current_range_meters":7200,"station_id":"ce4bgvh2rcd13ifvqcs0","pricing_plan_id":"cebpf4jnsgd1na2vs0mg"},{"bike_id":"e49ec2c3-f0c1-42fb-a481-8512a284b6c6","system_id":"levelo_inurba_marseille","lat":43.25501,"lon":5.37644,"is_reserved":false,"is_disabled":false,"rental_uris":{"android":"levelo://app?vid=e49ec2c3-f0c1-42fb-a481-8512a284b6c6","ios":"levelo://app?vid=e49ec2c3-f0c1-42fb-a481-8512a284b6c6"},"vehicle_type_id":"4","last_reported":1746652141,"current_range_meters":6800,"station_id":"ce4bhh12rcd13ifvqff0","pricing_plan_id":"cebpf4jnsgd1na2vs0mg"},{"bike_id":"dce814c0-4c4e-4a20-a33b-97af480f0bcb","system_id":"levelo_inurba_marseille","lat":43.29029,"lon":5.42655,"is_reserved":false,"is_disabled":false,"rental_uris":{"android":"levelo://app?vid=dce814c0-4c4e-4a20-a33b-97af480f0bcb","ios":"levelo://app?vid=dce814c0-4c4e-4a20-a33b-97af480f0bcb"},"vehicle_type_id":"4","last_reported":1746652141,"current_range_meters":7200,"station_id":"","pricing_plan_id":"cebpf4jnsgd1na2vs0mg"},{"bike_id":"9b14cb29-e1e9-4dcc-ae53-804f07a94bb0","system_id":"levelo_inurba_marseille","lat":43.27159,"lon":5.41003,"is_reserved":false,"is_disabled":false,"rental_uris":{"android":"levelo://app?vid=9b14cb29-e1e9-4dcc-ae53-804f07a94bb0","ios":"levelo://app?vid=9b14cb29-e1e9-4dcc-ae53-804f07a94bb0"},"vehicle_type_id":"4","last_reported":1746652141,"current_range_meters":7200,"station_id":"ce4bhl12rcd13ifvqgf0","pricing_plan_id":"cebpf4jnsgd1na2vs0mg"},{"bike_id":"aa6eaa6f-a172-4a31-8500-b76476b59cb3","system_id":"levelo_inurba_marseille","lat":43.23165,"lon":5.39985,"is_reserved":false,"is_disabled":false,"rental_uris":{"android":"levelo://app?vid=aa6eaa6f-a172-4a31-8500-b76476b59cb3","ios":"levelo://app?vid=aa6eaa6f-a172-4a31-8500-b76476b59cb3"},"vehicle_type_id":"4","last_reported":1746652141,"current_range_meters":8000,"station_id":"ce4bhn12rcd13ifvqgqg","pricing_plan_id":"cebpf4jnsgd1na2vs0mg"},{"bike_id":"9ef2178d-bee1-4c29-be35-024114723a52","system_id":"levelo_inurba_marseille","lat":43.27971,"lon":5.38785,"is_reserved":false,"is_disabled":false,"rental_uris":{"android":"levelo://app?vid=9ef2178d-bee1-4c29-be35-024114723a52","ios":"levelo://app?vid=9ef2178d-bee1-4c29-be35-024114723a52"},"vehicle_type_id":"4","last_reported":1746652141,"current_range_meters":8000,"station_id":"ce4bhg12rcd13ifvqf80","pricing_plan_id":"cebpf4jnsgd1na2vs0mg"},{"bike_id":"b8f7e308-0159-4727-9d4f-96632bd297a1","system_id":"levelo_inurba_marseille","lat":43.279084,"lon":5.380173,"is_reserved":false,"is_disabled":false,"rental_uris":{"android":"levelo://app?vid=b8f7e308-0159-4727-9d4f-96632bd297a1","ios":"levelo://app?vid=b8f7e308-0159-4727-9d4f-96632bd297a1"},"vehicle_type_id":"4","last_reported":1746652141,"current_range_meters":8000,"station_id":"ce4bhf92rcd13ifvqf50","pricing_plan_id":"cebpf4jnsgd1na2vs0mg"},{"bike_id":"04be5582-c54e-4157-87bc-0d1905db222d","system_id":"levelo_inurba_marseille","lat":43.28719,"lon":5.3796,"is_reserved":false,"is_disabled":false,"rental_uris":{"android":"levelo://app?vid=04be5582-c54e-4157-87bc-0d1905db222d","ios":"levelo://app?vid=04be5582-c54e-4157-87bc-0d1905db222d"},"vehicle_type_id":"4","last_reported":1746652141,"current_range_meters":8000,"station_id":"ce4bh9p2rcd13ifvqec0","pricing_plan_id":"cebpf4jnsgd1na2vs0mg"},{"bike_id":"eb8978af-8b11-47bc-bead-04c0d3b3f497","system_id":"levelo_inurba_marseille","lat":43.27948,"lon":5.41038,"is_reserved":false,"is_disabled":false,"rental_uris":{"android":"levelo://app?vid=eb8978af-8b11-47bc-bead-04c0d3b3f497","ios":"levelo://app?vid=eb8978af-8b11-47bc-bead-04c0d3b3f497"},"vehicle_type_id":"4","last_reported":1746652141,"current_range_meters":8400,"station_id":"ce4bhnp2rcd13ifvqh0g","pricing_plan_id":"cebpf4jnsgd1na2vs0mg"},{"bike_id":"922f47de-f5fb-4e00-9974-a09ff3caf4c7","system_id":"levelo_inurba_marseille","lat":43.24179,"lon":5.39727,"is_reserved":false,"is_disabled":false,"rental_uris":{"android":"levelo://app?vid=922f47de-f5fb-4e00-9974-a09ff3caf4c7","ios":"levelo://app?vid=922f47de-f5fb-4e00-9974-a09ff3caf4c7"},"vehicle_type_id":"4","last_reported":1746652141,"current_range_meters":8400,"station_id":"ce4bhn12rcd13ifvqgpg","pricing_plan_id":"cebpf4jnsgd1na2vs0mg"},{"bike_id":"b27c67c5-5457-4307-b4a2-575e898944ab","system_id":"levelo_inurba_marseille","lat":43.28268,"lon":5.35069,"is_reserved":false,"is_disabled":false,"rental_uris":{"android":"levelo://app?vid=b27c67c5-5457-4307-b4a2-575e898944ab","ios":"levelo://app?vid=b27c67c5-5457-4307-b4a2-575e898944ab"},"vehicle_type_id":"4","last_reported":1746652141,"current_range_meters":8400,"station_id":"ce4bhbp2rcd13ifvqerg","pricing_plan_id":"cebpf4jnsgd1na2vs0mg"},{"bike_id":"de08f367-3ba8-4ab1-ad17-0f6a6563b4e5","system_id":"levelo_inurba_marseille","lat":43.282,"lon":5.39894,"is_reserved":false,"is_disabled":true,"rental_uris":{"android":"levelo://app?vid=de08f367-3ba8-4ab1-ad17-0f6a6563b4e5","ios":"levelo://app?vid=de08f367-3ba8-4ab1-ad17-0f6a6563b4e5"},"vehicle_type_id":"4","last_reported":1746652141,"current_range_meters":8400,"station_id":"","pricing_plan_id":"cebpf4jnsgd1na2vs0mg"},{"bike_id":"d6cf1a87-096d-467c-9990-1aed683885fb","system_id":"levelo_inurba_marseille","lat":43.3234,"lon":5.40624,"is_reserved":false,"is_disabled":false,"rental_uris":{"android":"levelo://app?vid=d6cf1a87-096d-467c-9990-1aed683885fb","ios":"levelo://app?vid=d6cf1a87-096d-467c-9990-1aed683885fb"},"vehicle_type_id":"4","last_reported":1746652141,"current_range_meters":8400,"station_id":"ce4bhq92rcd13ifvqhjg","pricing_plan_id":"cebpf4jnsgd1na2vs0mg"},{"bike_id":"9d03e3b9-cc02-47cb-8220-42e752a6ad34","system_id":"levelo_inurba_marseille","lat":43.2899,"lon":5.47696,"is_reserved":false,"is_disabled":false,"rental_uris":{"android":"levelo://app?vid=9d03e3b9-cc02-47cb-8220-42e752a6ad34","ios":"levelo://app?vid=9d03e3b9-cc02-47cb-8220-42e752a6ad34"},"vehicle_type_id":"4","last_reported":1746652141,"current_range_meters":8400,"station_id":"","pricing_plan_id":"cebpf4jnsgd1na2vs0mg"},{"bike_id":"dd9bfc0b-f62f-4d69-b401-5749719cadec","system_id":"levelo_inurba_marseille","lat":43.28729,"lon":5.36085,"is_reserved":false,"is_disabled":false,"rental_uris":{"android":"levelo://app?vid=dd9bfc0b-f62f-4d69-b401-5749719cadec","ios":"levelo://app?vid=dd9bfc0b-f62f-4d69-b401-5749719cadec"},"vehicle_type_id":"4","last_reported":1746652141,"current_range_meters":8400,"station_id":"cki0cbj6b192h4jlfktg","pricing_plan_id":"cebpf4jnsgd1na2vs0mg"},{"bike_id":"dfd27e22-9b34-42f8-9fdf-f3a07c5bdce7","system_id":"levelo_inurba_marseille","lat":43.24171,"lon":5.36405,"is_reserved":false,"is_disabled":false,"rental_uris":{"android":"levelo://app?vid=dfd27e22-9b34-42f8-9fdf-f3a07c5bdce7","ios":"levelo://app?vid=dfd27e22-9b34-42f8-9fdf-f3a07c5bdce7"},"vehicle_type_id":"4","last_reported":1746652141,"current_range_meters":8400,"station_id":"cpo36qri1sfpv3e86is0","pricing_plan_id":"cebpf4jnsgd1na2vs0mg"},{"bike_id":"1b617b33-4bbe-49ab-862d-58bf6223d8e9","system_id":"levelo_inurba_marseille","lat":43.32673,"lon":5.42936,"is_reserved":false,"is_disabled":false,"rental_uris":{"android":"levelo://app?vid=1b617b33-4bbe-49ab-862d-58bf6223d8e9","ios":"levelo://app?vid=1b617b33-4bbe-49ab-862d-58bf6223d8e9"},"vehicle_type_id":"4","last_reported":1746652141,"current_range_meters":8400,"station_id":"","pricing_plan_id":"cebpf4jnsgd1na2vs0mg"},{"bike_id":"fa63a7e4-e781-4293-89ae-80fbf3b33863","system_id":"levelo_inurba_marseille","lat":43.25454,"lon":5.4187,"is_reserved":false,"is_disabled":false,"rental_uris":{"android":"levelo://app?vid=fa63a7e4-e781-4293-89ae-80fbf3b33863","ios":"levelo://app?vid=fa63a7e4-e781-4293-89ae-80fbf3b33863"},"vehicle_type_id":"4","last_reported":1746652141,"current_range_meters":8800,"station_id":"","pricing_plan_id":"cebpf4jnsgd1na2vs0mg"},{"bike_id":"eff01a47-9a9f-4a02-be20-e3fd0c3270dd","system_id":"levelo_inurba_marseille","lat":43.30636,"lon":5.4009,"is_reserved":false,"is_disabled":false,"rental_uris":{"android":"levelo://app?vid=eff01a47-9a9f-4a02-be20-e3fd0c3270dd","ios":"levelo://app?vid=eff01a47-9a9f-4a02-be20-e3fd0c3270dd"},"vehicle_type_id":"4","last_reported":1746652141,"current_range_meters":8400,"station_id":"ce4bh112rcd13ifvqda0","pricing_plan_id":"cebpf4jnsgd1na2vs0mg"},{"bike_id":"149dbc3f-738a-4425-9044-fb81967ea585","system_id":"levelo_inurba_marseille","lat":43.23063,"lon":5.35491,"is_reserved":false,"is_disabled":false,"rental_uris":{"android":"levelo://app?vid=149dbc3f-738a-4425-9044-fb81967ea585","ios":"levelo://app?vid=149dbc3f-738a-4425-9044-fb81967ea585"},"vehicle_type_id":"4","last_reported":1746652141,"current_range_meters":8800,"station_id":"cpo3342slgdg3j2ifvpg","pricing_plan_id":"cebpf4jnsgd1na2vs0mg"},{"bike_id":"81ba7db5-5264-4e66-9236-ac68ced72379","system_id":"levelo_inurba_marseille","lat":43.3138,"lon":5.38487,"is_reserved":false,"is_disabled":false,"rental_uris":{"android":"levelo://app?vid=81ba7db5-5264-4e66-9236-ac68ced72379","ios":"levelo://app?vid=81ba7db5-5264-4e66-9236-ac68ced72379"},"vehicle_type_id":"4","last_reported":1746652141,"current_range_meters":8800,"station_id":"ce4bgt92rcd13ifvqcf0","pricing_plan_id":"cebpf4jnsgd1na2vs0mg"},{"bike_id":"5872f101-9271-4805-860d-0ee54b52f844","system_id":"levelo_inurba_marseille","lat":43.32292,"lon":5.382664,"is_reserved":false,"is_disabled":false,"rental_uris":{"android":"levelo://app?vid=5872f101-9271-4805-860d-0ee54b52f844","ios":"levelo://app?vid=5872f101-9271-4805-860d-0ee54b52f844"},"vehicle_type_id":"4","last_reported":1746652141,"current_range_meters":8800,"station_id":"ce4bhr12rcd13ifvqhqg","pricing_plan_id":"cebpf4jnsgd1na2vs0mg"},{"bike_id":"0aa7891c-d4e7-4322-bc35-ca00696aff9a","system_id":"levelo_inurba_marseille","lat":43.273735,"lon":5.362575,"is_reserved":false,"is_disabled":false,"rental_uris":{"android":"levelo://app?vid=0aa7891c-d4e7-4322-bc35-ca00696aff9a","ios":"levelo://app?vid=0aa7891c-d4e7-4322-bc35-ca00696aff9a"},"vehicle_type_id":"4","last_reported":1746652141,"current_range_meters":8800,"station_id":"ce4bhbh2rcd13ifvqeo0","pricing_plan_id":"cebpf4jnsgd1na2vs0mg"},{"bike_id":"b869a19e-7f03-464b-be2b-5804c268973b","system_id":"levelo_inurba_marseille","lat":43.29266,"lon":5.36842,"is_reserved":false,"is_disabled":false,"rental_uris":{"android":"levelo://app?vid=b869a19e-7f03-464b-be2b-5804c268973b","ios":"levelo://app?vid=b869a19e-7f03-464b-be2b-5804c268973b"},"vehicle_type_id":"4","last_reported":1746652141,"current_range_meters":8800,"station_id":"ce4bhbp2rcd13ifvqesg","pricing_plan_id":"cebpf4jnsgd1na2vs0mg"},{"bike_id":"b7bdbe3a-b7ec-4256-908f-dfa71835a5d1","system_id":"levelo_inurba_marseille","lat":43.28877,"lon":5.37162,"is_reserved":false,"is_disabled":false,"rental_uris":{"android":"levelo://app?vid=b7bdbe3a-b7ec-4256-908f-dfa71835a5d1","ios":"levelo://app?vid=b7bdbe3a-b7ec-4256-908f-dfa71835a5d1"},"vehicle_type_id":"4","last_reported":1746652141,"current_range_meters":8800,"station_id":"","pricing_plan_id":"cebpf4jnsgd1na2vs0mg"},{"bike_id":"52b21318-b266-4d7f-847a-90923ab83bbe","system_id":"levelo_inurba_marseille","lat":43.29277,"lon":5.36843,"is_reserved":false,"is_disabled":false,"rental_uris":{"android":"levelo://app?vid=52b21318-b266-4d7f-847a-90923ab83bbe","ios":"levelo://app?vid=52b21318-b266-4d7f-847a-90923ab83bbe"},"vehicle_type_id":"4","last_reported":1746652141,"current_range_meters":9200,"station_id":"ce4bhbp2rcd13ifvqesg","pricing_plan_id":"cebpf4jnsgd1na2vs0mg"},{"bike_id":"19b6b99c-4396-4548-b087-15910aa32c76","system_id":"levelo_inurba_marseille","lat":43.30306,"lon":5.3921,"is_reserved":false,"is_disabled":true,"rental_uris":{"android":"levelo://app?vid=19b6b99c-4396-4548-b087-15910aa32c76","ios":"levelo://app?vid=19b6b99c-4396-4548-b087-15910aa32c76"},"vehicle_type_id":"4","last_reported":1746652141,"current_range_meters":9200,"station_id":"ce4bgkh2rcd13ifvqbk0","pricing_plan_id":"cebpf4jnsgd1na2vs0mg"},{"bike_id":"871d92dc-153b-42ec-8d90-34c9e0fb29bf","system_id":"levelo_inurba_marseille","lat":43.30645,"lon":5.39879,"is_reserved":false,"is_disabled":false,"rental_uris":{"android":"levelo://app?vid=871d92dc-153b-42ec-8d90-34c9e0fb29bf","ios":"levelo://app?vid=871d92dc-153b-42ec-8d90-34c9e0fb29bf"},"vehicle_type_id":"4","last_reported":1746652141,"current_range_meters":9200,"station_id":"","pricing_plan_id":"cebpf4jnsgd1na2vs0mg"},{"bike_id":"89420609-8590-4e4d-9042-8fb0e02b5686","system_id":"levelo_inurba_marseille","lat":43.24171,"lon":5.36394,"is_reserved":false,"is_disabled":false,"rental_uris":{"android":"levelo://app?vid=89420609-8590-4e4d-9042-8fb0e02b5686","ios":"levelo://app?vid=89420609-8590-4e4d-9042-8fb0e02b5686"},"vehicle_type_id":"4","last_reported":1746652141,"current_range_meters":9200,"station_id":"cpo36qri1sfpv3e86is0","pricing_plan_id":"cebpf4jnsgd1na2vs0mg"},{"bike_id":"5090961f-1c7d-4202-8794-ee3f3eb80c81","system_id":"levelo_inurba_marseille","lat":43.3051,"lon":5.393,"is_reserved":false,"is_disabled":false,"rental_uris":{"android":"levelo://app?vid=5090961f-1c7d-4202-8794-ee3f3eb80c81","ios":"levelo://app?vid=5090961f-1c7d-4202-8794-ee3f3eb80c81"},"vehicle_type_id":"4","last_reported":1746652141,"current_range_meters":9200,"station_id":"","pricing_plan_id":"cebpf4jnsgd1na2vs0mg"},{"bike_id":"72883d60-f880-4f50-be88-847478167c0b","system_id":"levelo_inurba_marseille","lat":43.29246,"lon":5.38445,"is_reserved":false,"is_disabled":false,"rental_uris":{"android":"levelo://app?vid=72883d60-f880-4f50-be88-847478167c0b","ios":"levelo://app?vid=72883d60-f880-4f50-be88-847478167c0b"},"vehicle_type_id":"4","last_reported":1746652141,"current_range_meters":9200,"station_id":"ce4bh692rcd13ifvqea0","pricing_plan_id":"cebpf4jnsgd1na2vs0mg"},{"bike_id":"741b655c-a3a9-46a1-bbce-25f85ccce089","system_id":"levelo_inurba_marseille","lat":43.28626,"lon":5.38488,"is_reserved":false,"is_disabled":false,"rental_uris":{"android":"levelo://app?vid=741b655c-a3a9-46a1-bbce-25f85ccce089","ios":"levelo://app?vid=741b655c-a3a9-46a1-bbce-25f85ccce089"},"vehicle_type_id":"4","last_reported":1746652141,"current_range_meters":9600,"station_id":"","pricing_plan_id":"cebpf4jnsgd1na2vs0mg"},{"bike_id":"c9d05746-a08b-402d-8ecc-14b5a1ba2f23","system_id":"levelo_inurba_marseille","lat":43.248092,"lon":5.374542,"is_reserved":false,"is_disabled":false,"rental_uris":{"android":"levelo://app?vid=c9d05746-a08b-402d-8ecc-14b5a1ba2f23","ios":"levelo://app?vid=c9d05746-a08b-402d-8ecc-14b5a1ba2f23"},"vehicle_type_id":"4","last_reported":1746652141,"current_range_meters":9200,"station_id":"ce4bhgh2rcd13ifvqfb0","pricing_plan_id":"cebpf4jnsgd1na2vs0mg"},{"bike_id":"028c3799-fdb4-49d4-90e9-300404e8fc36","system_id":"levelo_inurba_marseille","lat":43.32493,"lon":5.36598,"is_reserved":false,"is_disabled":true,"rental_uris":{"android":"levelo://app?vid=028c3799-fdb4-49d4-90e9-300404e8fc36","ios":"levelo://app?vid=028c3799-fdb4-49d4-90e9-300404e8fc36"},"vehicle_type_id":"4","last_reported":1746652141,"current_range_meters":9200,"station_id":"ce4bhs12rcd13ifvqhvg","pricing_plan_id":"cebpf4jnsgd1na2vs0mg"},{"bike_id":"f44f1a89-67d8-4c00-9599-b3a2c38876d9","system_id":"levelo_inurba_marseille","lat":43.27997,"lon":5.41658,"is_reserved":false,"is_disabled":false,"rental_uris":{"android":"levelo://app?vid=f44f1a89-67d8-4c00-9599-b3a2c38876d9","ios":"levelo://app?vid=f44f1a89-67d8-4c00-9599-b3a2c38876d9"},"vehicle_type_id":"4","last_reported":1746652141,"current_range_meters":9600,"station_id":"ce4bho12rcd13ifvqh1g","pricing_plan_id":"cebpf4jnsgd1na2vs0mg"},{"bike_id":"c10c66ce-befc-416a-93c0-eada9cd4ea40","system_id":"levelo_inurba_marseille","lat":43.29446,"lon":5.39742,"is_reserved":false,"is_disabled":false,"rental_uris":{"android":"levelo://app?vid=c10c66ce-befc-416a-93c0-eada9cd4ea40","ios":"levelo://app?vid=c10c66ce-befc-416a-93c0-eada9cd4ea40"},"vehicle_type_id":"4","last_reported":1746652141,"current_range_meters":9600,"station_id":"ce4bh3h2rcd13ifvqdo0","pricing_plan_id":"cebpf4jnsgd1na2vs0mg"},{"bike_id":"dbe6c090-a883-4f7a-86ca-f7062cab9bbf","system_id":"levelo_inurba_marseille","lat":43.21753,"lon":5.34602,"is_reserved":false,"is_disabled":false,"rental_uris":{"android":"levelo://app?vid=dbe6c090-a883-4f7a-86ca-f7062cab9bbf","ios":"levelo://app?vid=dbe6c090-a883-4f7a-86ca-f7062cab9bbf"},"vehicle_type_id":"4","last_reported":1746652141,"current_range_meters":9600,"station_id":"st_cvj6r9ubvosntc0bgbag","pricing_plan_id":"cebpf4jnsgd1na2vs0mg"},{"bike_id":"c650db92-e467-494a-8ffb-fba552729a60","system_id":"levelo_inurba_marseille","lat":43.23969,"lon":5.36637,"is_reserved":false,"is_disabled":false,"rental_uris":{"android":"levelo://app?vid=c650db92-e467-494a-8ffb-fba552729a60","ios":"levelo://app?vid=c650db92-e467-494a-8ffb-fba552729a60"},"vehicle_type_id":"4","last_reported":1746652141,"current_range_meters":9600,"station_id":"ce4bhi12rcd13ifvqfp0","pricing_plan_id":"cebpf4jnsgd1na2vs0mg"},{"bike_id":"e8f2e017-ef03-4bc6-bcb9-e6015310306c","system_id":"levelo_inurba_marseille","lat":43.24826,"lon":5.37439,"is_reserved":false,"is_disabled":false,"rental_uris":{"android":"levelo://app?vid=e8f2e017-ef03-4bc6-bcb9-e6015310306c","ios":"levelo://app?vid=e8f2e017-ef03-4bc6-bcb9-e6015310306c"},"vehicle_type_id":"4","last_reported":1746652141,"current_range_meters":9600,"station_id":"ce4bhgh2rcd13ifvqfb0","pricing_plan_id":"cebpf4jnsgd1na2vs0mg"},{"bike_id":"bf3b3c7d-471d-410f-b0be-28f5419d5a2b","system_id":"levelo_inurba_marseille","lat":43.28701,"lon":5.39979,"is_reserved":false,"is_disabled":false,"rental_uris":{"android":"levelo://app?vid=bf3b3c7d-471d-410f-b0be-28f5419d5a2b","ios":"levelo://app?vid=bf3b3c7d-471d-410f-b0be-28f5419d5a2b"},"vehicle_type_id":"4","last_reported":1746652141,"current_range_meters":10000,"station_id":"ce4bho92rcd13ifvqh3g","pricing_plan_id":"cebpf4jnsgd1na2vs0mg"},{"bike_id":"ce40ea43-bacf-49f3-b5af-ffaf2a1f03b1","system_id":"levelo_inurba_marseille","lat":43.30465,"lon":5.36768,"is_reserved":false,"is_disabled":false,"rental_uris":{"android":"levelo://app?vid=ce40ea43-bacf-49f3-b5af-ffaf2a1f03b1","ios":"levelo://app?vid=ce40ea43-bacf-49f3-b5af-ffaf2a1f03b1"},"vehicle_type_id":"4","last_reported":1746652141,"current_range_meters":10000,"station_id":"","pricing_plan_id":"cebpf4jnsgd1na2vs0mg"},{"bike_id":"f29f7b63-6f39-4414-947e-d5e3209b6c9e","system_id":"levelo_inurba_marseille","lat":43.27384,"lon":5.3626,"is_reserved":false,"is_disabled":false,"rental_uris":{"android":"levelo://app?vid=f29f7b63-6f39-4414-947e-d5e3209b6c9e","ios":"levelo://app?vid=f29f7b63-6f39-4414-947e-d5e3209b6c9e"},"vehicle_type_id":"4","last_reported":1746652141,"current_range_meters":10000,"station_id":"ce4bhbh2rcd13ifvqeo0","pricing_plan_id":"cebpf4jnsgd1na2vs0mg"},{"bike_id":"1af74947-bf81-414f-89d2-23cce578bd1b","system_id":"levelo_inurba_marseille","lat":43.29265,"lon":5.38432,"is_reserved":false,"is_disabled":false,"rental_uris":{"android":"levelo://app?vid=1af74947-bf81-414f-89d2-23cce578bd1b","ios":"levelo://app?vid=1af74947-bf81-414f-89d2-23cce578bd1b"},"vehicle_type_id":"4","last_reported":1746652141,"current_range_meters":10000,"station_id":"ce4bh692rcd13ifvqea0","pricing_plan_id":"cebpf4jnsgd1na2vs0mg"},{"bike_id":"577c68d3-e214-4444-8d4f-e2a733fa506e","system_id":"levelo_inurba_marseille","lat":43.27077,"lon":5.42279,"is_reserved":false,"is_disabled":false,"rental_uris":{"android":"levelo://app?vid=577c68d3-e214-4444-8d4f-e2a733fa506e","ios":"levelo://app?vid=577c68d3-e214-4444-8d4f-e2a733fa506e"},"vehicle_type_id":"4","last_reported":1746652141,"current_range_meters":10000,"station_id":"ce4bhk92rcd13ifvqgb0","pricing_plan_id":"cebpf4jnsgd1na2vs0mg"},{"bike_id":"8595f23e-9d34-4baa-97fb-423c97ce2fde","system_id":"levelo_inurba_marseille","lat":43.29231,"lon":5.3607,"is_reserved":false,"is_disabled":false,"rental_uris":{"android":"levelo://app?vid=8595f23e-9d34-4baa-97fb-423c97ce2fde","ios":"levelo://app?vid=8595f23e-9d34-4baa-97fb-423c97ce2fde"},"vehicle_type_id":"4","last_reported":1746652141,"current_range_meters":10000,"station_id":"ce4bhbh2rcd13ifvqeqg","pricing_plan_id":"cebpf4jnsgd1na2vs0mg"},{"bike_id":"9a3616b4-7380-430e-8664-466fbe708380","system_id":"levelo_inurba_marseille","lat":43.30788,"lon":5.37636,"is_reserved":false,"is_disabled":false,"rental_uris":{"android":"levelo://app?vid=9a3616b4-7380-430e-8664-466fbe708380","ios":"levelo://app?vid=9a3616b4-7380-430e-8664-466fbe708380"},"vehicle_type_id":"4","last_reported":1746652141,"current_range_meters":10800,"station_id":"ce4bgv92rcd13ifvqcq0","pricing_plan_id":"cebpf4jnsgd1na2vs0mg"},{"bike_id":"e42a0523-ea28-4e39-8161-6d26b4f44c0b","system_id":"levelo_inurba_marseille","lat":43.28871,"lon":5.3931,"is_reserved":false,"is_disabled":false,"rental_uris":{"android":"levelo://app?vid=e42a0523-ea28-4e39-8161-6d26b4f44c0b","ios":"levelo://app?vid=e42a0523-ea28-4e39-8161-6d26b4f44c0b"},"vehicle_type_id":"4","last_reported":1746652141,"current_range_meters":10800,"station_id":"ce4bh2p2rcd13ifvqdi0","pricing_plan_id":"cebpf4jnsgd1na2vs0mg"},{"bike_id":"1e02865c-e656-4177-84f4-fba90d1e3c54","system_id":"levelo_inurba_marseille","lat":43.28406,"lon":5.37531,"is_reserved":false,"is_disabled":false,"rental_uris":{"android":"levelo://app?vid=1e02865c-e656-4177-84f4-fba90d1e3c54","ios":"levelo://app?vid=1e02865c-e656-4177-84f4-fba90d1e3c54"},"vehicle_type_id":"4","last_reported":1746652141,"current_range_meters":10800,"station_id":"ce4bh412rcd13ifvqds0","pricing_plan_id":"cebpf4jnsgd1na2vs0mg"},{"bike_id":"40604081-f5e4-4a6b-8ab7-71f0909c7fc0","system_id":"levelo_inurba_marseille","lat":43.273837,"lon":5.36262,"is_reserved":false,"is_disabled":false,"rental_uris":{"android":"levelo://app?vid=40604081-f5e4-4a6b-8ab7-71f0909c7fc0","ios":"levelo://app?vid=40604081-f5e4-4a6b-8ab7-71f0909c7fc0"},"vehicle_type_id":"4","last_reported":1746652141,"current_range_meters":10800,"station_id":"ce4bhbh2rcd13ifvqeo0","pricing_plan_id":"cebpf4jnsgd1na2vs0mg"},{"bike_id":"3f3df9a9-a7b0-43cd-b0c0-fa4e9dda7cbb","system_id":"levelo_inurba_marseille","lat":43.27938,"lon":5.39564,"is_reserved":false,"is_disabled":false,"rental_uris":{"android":"levelo://app?vid=3f3df9a9-a7b0-43cd-b0c0-fa4e9dda7cbb","ios":"levelo://app?vid=3f3df9a9-a7b0-43cd-b0c0-fa4e9dda7cbb"},"vehicle_type_id":"4","last_reported":1746652141,"current_range_meters":10800,"station_id":"ce4bhf92rcd13ifvqf40","pricing_plan_id":"cebpf4jnsgd1na2vs0mg"},{"bike_id":"b15fe93b-1059-4d75-abd3-040e349ce402","system_id":"levelo_inurba_marseille","lat":43.30101,"lon":5.3699,"is_reserved":false,"is_disabled":false,"rental_uris":{"android":"levelo://app?vid=b15fe93b-1059-4d75-abd3-040e349ce402","ios":"levelo://app?vid=b15fe93b-1059-4d75-abd3-040e349ce402"},"vehicle_type_id":"4","last_reported":1746652141,"current_range_meters":10800,"station_id":"","pricing_plan_id":"cebpf4jnsgd1na2vs0mg"},{"bike_id":"a96833c3-7aad-4769-953e-d8192a324355","system_id":"levelo_inurba_marseille","lat":43.337444,"lon":5.374475,"is_reserved":false,"is_disabled":false,"rental_uris":{"android":"levelo://app?vid=a96833c3-7aad-4769-953e-d8192a324355","ios":"levelo://app?vid=a96833c3-7aad-4769-953e-d8192a324355"},"vehicle_type_id":"4","last_reported":1746652141,"current_range_meters":10800,"station_id":"","pricing_plan_id":"cebpf4jnsgd1na2vs0mg"},{"bike_id":"2ffa008f-4045-404e-a632-f92e2b79f62f","system_id":"levelo_inurba_marseille","lat":43.28147,"lon":5.42645,"is_reserved":false,"is_disabled":false,"rental_uris":{"android":"levelo://app?vid=2ffa008f-4045-404e-a632-f92e2b79f62f","ios":"levelo://app?vid=2ffa008f-4045-404e-a632-f92e2b79f62f"},"vehicle_type_id":"4","last_reported":1746652141,"current_range_meters":11200,"station_id":"ce4bhnh2rcd13ifvqgug","pricing_plan_id":"cebpf4jnsgd1na2vs0mg"},{"bike_id":"f7f68267-4f8d-4f64-bbe9-eed04f53abda","system_id":"levelo_inurba_marseille","lat":43.27325,"lon":5.39111,"is_reserved":false,"is_disabled":false,"rental_uris":{"android":"levelo://app?vid=f7f68267-4f8d-4f64-bbe9-eed04f53abda","ios":"levelo://app?vid=f7f68267-4f8d-4f64-bbe9-eed04f53abda"},"vehicle_type_id":"4","last_reported":1746652141,"current_range_meters":11200,"station_id":"ce4bhgp2rcd13ifvqfe0","pricing_plan_id":"cebpf4jnsgd1na2vs0mg"},{"bike_id":"5855be8a-7d0f-421e-ab9f-8b2f07ad7b27","system_id":"levelo_inurba_marseille","lat":43.28942,"lon":5.36618,"is_reserved":false,"is_disabled":false,"rental_uris":{"android":"levelo://app?vid=5855be8a-7d0f-421e-ab9f-8b2f07ad7b27","ios":"levelo://app?vid=5855be8a-7d0f-421e-ab9f-8b2f07ad7b27"},"vehicle_type_id":"4","last_reported":1746652141,"current_range_meters":11200,"station_id":"ce4bhap2rcd13ifvqek0","pricing_plan_id":"cebpf4jnsgd1na2vs0mg"},{"bike_id":"c460d626-46dc-4323-977a-1bf36ca4902b","system_id":"levelo_inurba_marseille","lat":43.28022,"lon":5.36903,"is_reserved":false,"is_disabled":false,"rental_uris":{"android":"levelo://app?vid=c460d626-46dc-4323-977a-1bf36ca4902b","ios":"levelo://app?vid=c460d626-46dc-4323-977a-1bf36ca4902b"},"vehicle_type_id":"4","last_reported":1746652141,"current_range_meters":11600,"station_id":"ce4bha12rcd13ifvqef0","pricing_plan_id":"cebpf4jnsgd1na2vs0mg"},{"bike_id":"8b3204dd-c684-4e41-9504-d9a19e706268","system_id":"levelo_inurba_marseille","lat":43.21752,"lon":5.34598,"is_reserved":false,"is_disabled":false,"rental_uris":{"android":"levelo://app?vid=8b3204dd-c684-4e41-9504-d9a19e706268","ios":"levelo://app?vid=8b3204dd-c684-4e41-9504-d9a19e706268"},"vehicle_type_id":"4","last_reported":1746652141,"current_range_meters":11600,"station_id":"st_cvj6r9ubvosntc0bgbag","pricing_plan_id":"cebpf4jnsgd1na2vs0mg"},{"bike_id":"68c8b36c-fef3-4827-a867-30dcff4c12a4","system_id":"levelo_inurba_marseille","lat":43.25112,"lon":5.40316,"is_reserved":false,"is_disabled":false,"rental_uris":{"android":"levelo://app?vid=68c8b36c-fef3-4827-a867-30dcff4c12a4","ios":"levelo://app?vid=68c8b36c-fef3-4827-a867-30dcff4c12a4"},"vehicle_type_id":"4","last_reported":1746652141,"current_range_meters":11600,"station_id":"ce4bhlh2rcd13ifvqgig","pricing_plan_id":"cebpf4jnsgd1na2vs0mg"},{"bike_id":"fe2dc500-7619-4467-a804-3af498c34795","system_id":"levelo_inurba_marseille","lat":43.27678,"lon":5.38866,"is_reserved":false,"is_disabled":false,"rental_uris":{"android":"levelo://app?vid=fe2dc500-7619-4467-a804-3af498c34795","ios":"levelo://app?vid=fe2dc500-7619-4467-a804-3af498c34795"},"vehicle_type_id":"4","last_reported":1746652141,"current_range_meters":11600,"station_id":"ce4bhi12rcd13ifvqfo0","pricing_plan_id":"cebpf4jnsgd1na2vs0mg"},{"bike_id":"be2ea01e-901c-4275-b9a1-758d91918d20","system_id":"levelo_inurba_marseille","lat":43.31079,"lon":5.38354,"is_reserved":false,"is_disabled":false,"rental_uris":{"android":"levelo://app?vid=be2ea01e-901c-4275-b9a1-758d91918d20","ios":"levelo://app?vid=be2ea01e-901c-4275-b9a1-758d91918d20"},"vehicle_type_id":"4","last_reported":1746652141,"current_range_meters":11600,"station_id":"ce4bgv92rcd13ifvqcr0","pricing_plan_id":"cebpf4jnsgd1na2vs0mg"},{"bike_id":"cb804ca6-4e74-4d08-aea7-2b4aae9112aa","system_id":"levelo_inurba_marseille","lat":43.29962,"lon":5.379244,"is_reserved":false,"is_disabled":false,"rental_uris":{"android":"levelo://app?vid=cb804ca6-4e74-4d08-aea7-2b4aae9112aa","ios":"levelo://app?vid=cb804ca6-4e74-4d08-aea7-2b4aae9112aa"},"vehicle_type_id":"4","last_reported":1746652141,"current_range_meters":12000,"station_id":"","pricing_plan_id":"cebpf4jnsgd1na2vs0mg"},{"bike_id":"289eece8-ee7b-4bc2-b8ac-d879891b73e9","system_id":"levelo_inurba_marseille","lat":43.28728,"lon":5.36084,"is_reserved":false,"is_disabled":false,"rental_uris":{"android":"levelo://app?vid=289eece8-ee7b-4bc2-b8ac-d879891b73e9","ios":"levelo://app?vid=289eece8-ee7b-4bc2-b8ac-d879891b73e9"},"vehicle_type_id":"4","last_reported":1746652141,"current_range_meters":12000,"station_id":"cki0cbj6b192h4jlfktg","pricing_plan_id":"cebpf4jnsgd1na2vs0mg"},{"bike_id":"db823666-8f97-438c-8230-0115db4a7694","system_id":"levelo_inurba_marseille","lat":43.28281,"lon":5.3616,"is_reserved":false,"is_disabled":false,"rental_uris":{"android":"levelo://app?vid=db823666-8f97-438c-8230-0115db4a7694","ios":"levelo://app?vid=db823666-8f97-438c-8230-0115db4a7694"},"vehicle_type_id":"4","last_reported":1746652141,"current_range_meters":12000,"station_id":"","pricing_plan_id":"cebpf4jnsgd1na2vs0mg"},{"bike_id":"4e50d4e4-ab8c-421a-aea0-ace2cdb9589a","system_id":"levelo_inurba_marseille","lat":43.31759,"lon":5.39009,"is_reserved":false,"is_disabled":false,"rental_uris":{"android":"levelo://app?vid=4e50d4e4-ab8c-421a-aea0-ace2cdb9589a","ios":"levelo://app?vid=4e50d4e4-ab8c-421a-aea0-ace2cdb9589a"},"vehicle_type_id":"4","last_reported":1746652141,"current_range_meters":15200,"station_id":"ce4bhqp2rcd13ifvqhng","pricing_plan_id":"cebpf4jnsgd1na2vs0mg"},{"bike_id":"f52fbca9-72ce-47f1-88ae-70665b6711aa","system_id":"levelo_inurba_marseille","lat":43.273703,"lon":5.36259,"is_reserved":false,"is_disabled":false,"rental_uris":{"android":"levelo://app?vid=f52fbca9-72ce-47f1-88ae-70665b6711aa","ios":"levelo://app?vid=f52fbca9-72ce-47f1-88ae-70665b6711aa"},"vehicle_type_id":"4","last_reported":1746652141,"current_range_meters":12400,"station_id":"ce4bhbh2rcd13ifvqeo0","pricing_plan_id":"cebpf4jnsgd1na2vs0mg"},{"bike_id":"ed3997a9-f42b-4f90-9e12-6614d4a0cbc5","system_id":"levelo_inurba_marseille","lat":43.330252,"lon":5.390344,"is_reserved":false,"is_disabled":false,"rental_uris":{"android":"levelo://app?vid=ed3997a9-f42b-4f90-9e12-6614d4a0cbc5","ios":"levelo://app?vid=ed3997a9-f42b-4f90-9e12-6614d4a0cbc5"},"vehicle_type_id":"4","last_reported":1746652141,"current_range_meters":12400,"station_id":"ce4bhr92rcd13ifvqhrg","pricing_plan_id":"cebpf4jnsgd1na2vs0mg"},{"bike_id":"0a540515-46d6-4888-89a6-9e9ecd3e37b5","system_id":"levelo_inurba_marseille","lat":43.28349,"lon":5.3809,"is_reserved":false,"is_disabled":false,"rental_uris":{"android":"levelo://app?vid=0a540515-46d6-4888-89a6-9e9ecd3e37b5","ios":"levelo://app?vid=0a540515-46d6-4888-89a6-9e9ecd3e37b5"},"vehicle_type_id":"4","last_reported":1746652141,"current_range_meters":12400,"station_id":"ce4bh412rcd13ifvqdr0","pricing_plan_id":"cebpf4jnsgd1na2vs0mg"},{"bike_id":"3a5b5d33-2a11-418b-9bb4-2d8bd3d2418b","system_id":"levelo_inurba_marseille","lat":43.25829,"lon":5.39437,"is_reserved":false,"is_disabled":false,"rental_uris":{"android":"levelo://app?vid=3a5b5d33-2a11-418b-9bb4-2d8bd3d2418b","ios":"levelo://app?vid=3a5b5d33-2a11-418b-9bb4-2d8bd3d2418b"},"vehicle_type_id":"4","last_reported":1746652141,"current_range_meters":17600,"station_id":"ce4bhip2rcd13ifvqft0","pricing_plan_id":"cebpf4jnsgd1na2vs0mg"},{"bike_id":"7dd5a980-4989-44f4-8514-fcc84322bba0","system_id":"levelo_inurba_marseille","lat":43.27375,"lon":5.36244,"is_reserved":false,"is_disabled":false,"rental_uris":{"android":"levelo://app?vid=7dd5a980-4989-44f4-8514-fcc84322bba0","ios":"levelo://app?vid=7dd5a980-4989-44f4-8514-fcc84322bba0"},"vehicle_type_id":"4","last_reported":1746652141,"current_range_meters":12400,"station_id":"ce4bhbh2rcd13ifvqeo0","pricing_plan_id":"cebpf4jnsgd1na2vs0mg"},{"bike_id":"847219eb-3c68-45b8-a03e-d3293f651e86","system_id":"levelo_inurba_marseille","lat":43.28615,"lon":5.35107,"is_reserved":false,"is_disabled":false,"rental_uris":{"android":"levelo://app?vid=847219eb-3c68-45b8-a03e-d3293f651e86","ios":"levelo://app?vid=847219eb-3c68-45b8-a03e-d3293f651e86"},"vehicle_type_id":"4","last_reported":1746652141,"current_range_meters":12400,"station_id":"ce4bhch2rcd13ifvqeug","pricing_plan_id":"cebpf4jnsgd1na2vs0mg"},{"bike_id":"961581c8-d53a-4d9a-8e1f-5a7da3f4ea8f","system_id":"levelo_inurba_marseille","lat":43.30804,"lon":5.38158,"is_reserved":false,"is_disabled":false,"rental_uris":{"android":"levelo://app?vid=961581c8-d53a-4d9a-8e1f-5a7da3f4ea8f","ios":"levelo://app?vid=961581c8-d53a-4d9a-8e1f-5a7da3f4ea8f"},"vehicle_type_id":"4","last_reported":1746652141,"current_range_meters":12400,"station_id":"ce4bgt12rcd13ifvqce0","pricing_plan_id":"cebpf4jnsgd1na2vs0mg"},{"bike_id":"cb5561fb-3ed2-49bf-bd58-7c8862116c78","system_id":"levelo_inurba_marseille","lat":43.21204,"lon":5.35069,"is_reserved":false,"is_disabled":false,"rental_uris":{"android":"levelo://app?vid=cb5561fb-3ed2-49bf-bd58-7c8862116c78","ios":"levelo://app?vid=cb5561fb-3ed2-49bf-bd58-7c8862116c78"},"vehicle_type_id":"4","last_reported":1746652141,"current_range_meters":12800,"station_id":"st_cvj6sg6p6f1abm77japg","pricing_plan_id":"cebpf4jnsgd1na2vs0mg"},{"bike_id":"085c7e24-5c41-45ed-9f11-b612ff28ae04","system_id":"levelo_inurba_marseille","lat":43.28942,"lon":5.36633,"is_reserved":false,"is_disabled":false,"rental_uris":{"android":"levelo://app?vid=085c7e24-5c41-45ed-9f11-b612ff28ae04","ios":"levelo://app?vid=085c7e24-5c41-45ed-9f11-b612ff28ae04"},"vehicle_type_id":"4","last_reported":1746652141,"current_range_meters":12800,"station_id":"ce4bhap2rcd13ifvqek0","pricing_plan_id":"cebpf4jnsgd1na2vs0mg"},{"bike_id":"d17124d7-223f-45ed-953b-86cb9c965535","system_id":"levelo_inurba_marseille","lat":43.27368,"lon":5.36254,"is_reserved":false,"is_disabled":false,"rental_uris":{"android":"levelo://app?vid=d17124d7-223f-45ed-953b-86cb9c965535","ios":"levelo://app?vid=d17124d7-223f-45ed-953b-86cb9c965535"},"vehicle_type_id":"4","last_reported":1746652141,"current_range_meters":13600,"station_id":"ce4bhbh2rcd13ifvqeo0","pricing_plan_id":"cebpf4jnsgd1na2vs0mg"},{"bike_id":"5453c7c8-d7df-431d-98db-167d3c16d978","system_id":"levelo_inurba_marseille","lat":43.31361,"lon":5.38508,"is_reserved":false,"is_disabled":false,"rental_uris":{"android":"levelo://app?vid=5453c7c8-d7df-431d-98db-167d3c16d978","ios":"levelo://app?vid=5453c7c8-d7df-431d-98db-167d3c16d978"},"vehicle_type_id":"4","last_reported":1746652141,"current_range_meters":13600,"station_id":"ce4bgt92rcd13ifvqcf0","pricing_plan_id":"cebpf4jnsgd1na2vs0mg"},{"bike_id":"29b4f85e-8daa-4200-aa5c-f9bedc90fc10","system_id":"levelo_inurba_marseille","lat":43.2808,"lon":5.39657,"is_reserved":false,"is_disabled":false,"rental_uris":{"android":"levelo://app?vid=29b4f85e-8daa-4200-aa5c-f9bedc90fc10","ios":"levelo://app?vid=29b4f85e-8daa-4200-aa5c-f9bedc90fc10"},"vehicle_type_id":"4","last_reported":1746652141,"current_range_meters":10800,"station_id":"ce4bho12rcd13ifvqh2g","pricing_plan_id":"cebpf4jnsgd1na2vs0mg"},{"bike_id":"222d7d5b-43c2-4fc8-9c5d-2fdfdc5429ba","system_id":"levelo_inurba_marseille","lat":43.29253,"lon":5.3844,"is_reserved":false,"is_disabled":false,"rental_uris":{"android":"levelo://app?vid=222d7d5b-43c2-4fc8-9c5d-2fdfdc5429ba","ios":"levelo://app?vid=222d7d5b-43c2-4fc8-9c5d-2fdfdc5429ba"},"vehicle_type_id":"4","last_reported":1746652141,"current_range_meters":13600,"station_id":"ce4bh692rcd13ifvqea0","pricing_plan_id":"cebpf4jnsgd1na2vs0mg"},{"bike_id":"1661de55-4d67-477c-90e4-53ea01c1dbf0","system_id":"levelo_inurba_marseille","lat":43.27376,"lon":5.36245,"is_reserved":false,"is_disabled":false,"rental_uris":{"android":"levelo://app?vid=1661de55-4d67-477c-90e4-53ea01c1dbf0","ios":"levelo://app?vid=1661de55-4d67-477c-90e4-53ea01c1dbf0"},"vehicle_type_id":"4","last_reported":1746652141,"current_range_meters":13600,"station_id":"ce4bhbh2rcd13ifvqeo0","pricing_plan_id":"cebpf4jnsgd1na2vs0mg"},{"bike_id":"80a70cc1-e342-4339-9251-37387fc47eb8","system_id":"levelo_inurba_marseille","lat":43.29534,"lon":5.39399,"is_reserved":false,"is_disabled":false,"rental_uris":{"android":"levelo://app?vid=80a70cc1-e342-4339-9251-37387fc47eb8","ios":"levelo://app?vid=80a70cc1-e342-4339-9251-37387fc47eb8"},"vehicle_type_id":"4","last_reported":1746652141,"current_range_meters":13600,"station_id":"ce4bh292rcd13ifvqdf0","pricing_plan_id":"cebpf4jnsgd1na2vs0mg"},{"bike_id":"deebfc46-00c4-42ec-a9bd-3d92a39106c2","system_id":"levelo_inurba_marseille","lat":43.27683,"lon":5.38881,"is_reserved":false,"is_disabled":false,"rental_uris":{"android":"levelo://app?vid=deebfc46-00c4-42ec-a9bd-3d92a39106c2","ios":"levelo://app?vid=deebfc46-00c4-42ec-a9bd-3d92a39106c2"},"vehicle_type_id":"4","last_reported":1746652141,"current_range_meters":13600,"station_id":"ce4bhi12rcd13ifvqfo0","pricing_plan_id":"cebpf4jnsgd1na2vs0mg"},{"bike_id":"b0c70e14-f44e-433e-9134-7dab1033467b","system_id":"levelo_inurba_marseille","lat":43.27382,"lon":5.36257,"is_reserved":false,"is_disabled":false,"rental_uris":{"android":"levelo://app?vid=b0c70e14-f44e-433e-9134-7dab1033467b","ios":"levelo://app?vid=b0c70e14-f44e-433e-9134-7dab1033467b"},"vehicle_type_id":"4","last_reported":1746652141,"current_range_meters":14000,"station_id":"ce4bhbh2rcd13ifvqeo0","pricing_plan_id":"cebpf4jnsgd1na2vs0mg"},{"bike_id":"2aace568-ac2f-49c7-9458-5246d5166cd0","system_id":"levelo_inurba_marseille","lat":43.28898,"lon":5.44977,"is_reserved":false,"is_disabled":false,"rental_uris":{"android":"levelo://app?vid=2aace568-ac2f-49c7-9458-5246d5166cd0","ios":"levelo://app?vid=2aace568-ac2f-49c7-9458-5246d5166cd0"},"vehicle_type_id":"4","last_reported":1746652141,"current_range_meters":14000,"station_id":"","pricing_plan_id":"cebpf4jnsgd1na2vs0mg"},{"bike_id":"b08eb946-5f0c-421c-9af3-6153a411b7f0","system_id":"levelo_inurba_marseille","lat":43.299698,"lon":5.384905,"is_reserved":false,"is_disabled":true,"rental_uris":{"android":"levelo://app?vid=b08eb946-5f0c-421c-9af3-6153a411b7f0","ios":"levelo://app?vid=b08eb946-5f0c-421c-9af3-6153a411b7f0"},"vehicle_type_id":"4","last_reported":1746652141,"current_range_meters":14000,"station_id":"ce4bgj92rcd13ifvqbd0","pricing_plan_id":"cebpf4jnsgd1na2vs0mg"},{"bike_id":"282519b1-4f81-4cf8-b9b1-890554a73df9","system_id":"levelo_inurba_marseille","lat":43.30431,"lon":5.38883,"is_reserved":false,"is_disabled":false,"rental_uris":{"android":"levelo://app?vid=282519b1-4f81-4cf8-b9b1-890554a73df9","ios":"levelo://app?vid=282519b1-4f81-4cf8-b9b1-890554a73df9"},"vehicle_type_id":"4","last_reported":1746652141,"current_range_meters":14000,"station_id":"ce4bgk12rcd13ifvqbi0","pricing_plan_id":"cebpf4jnsgd1na2vs0mg"},{"bike_id":"caade901-7bef-49d5-8e81-6d84ccc017d3","system_id":"levelo_inurba_marseille","lat":43.28867,"lon":5.39305,"is_reserved":false,"is_disabled":false,"rental_uris":{"android":"levelo://app?vid=caade901-7bef-49d5-8e81-6d84ccc017d3","ios":"levelo://app?vid=caade901-7bef-49d5-8e81-6d84ccc017d3"},"vehicle_type_id":"4","last_reported":1746652141,"current_range_meters":14400,"station_id":"ce4bh2p2rcd13ifvqdi0","pricing_plan_id":"cebpf4jnsgd1na2vs0mg"},{"bike_id":"d1d025cd-b4c2-45c4-b8a2-5328e19eb3f6","system_id":"levelo_inurba_marseille","lat":43.29036,"lon":5.3754,"is_reserved":false,"is_disabled":true,"rental_uris":{"android":"levelo://app?vid=d1d025cd-b4c2-45c4-b8a2-5328e19eb3f6","ios":"levelo://app?vid=d1d025cd-b4c2-45c4-b8a2-5328e19eb3f6"},"vehicle_type_id":"4","last_reported":1746652141,"current_range_meters":14400,"station_id":"ce4bh692rcd13ifvqe90","pricing_plan_id":"cebpf4jnsgd1na2vs0mg"},{"bike_id":"f5c7840e-dc64-416b-adfa-7d68fff7d632","system_id":"levelo_inurba_marseille","lat":43.28272,"lon":5.35066,"is_reserved":false,"is_disabled":false,"rental_uris":{"android":"levelo://app?vid=f5c7840e-dc64-416b-adfa-7d68fff7d632","ios":"levelo://app?vid=f5c7840e-dc64-416b-adfa-7d68fff7d632"},"vehicle_type_id":"4","last_reported":1746652141,"current_range_meters":14400,"station_id":"ce4bhbp2rcd13ifvqerg","pricing_plan_id":"cebpf4jnsgd1na2vs0mg"},{"bike_id":"1a87f01d-104d-44c5-9962-1c78abe6a30d","system_id":"levelo_inurba_marseille","lat":43.28001,"lon":5.41654,"is_reserved":false,"is_disabled":false,"rental_uris":{"android":"levelo://app?vid=1a87f01d-104d-44c5-9962-1c78abe6a30d","ios":"levelo://app?vid=1a87f01d-104d-44c5-9962-1c78abe6a30d"},"vehicle_type_id":"4","last_reported":1746652141,"current_range_meters":14400,"station_id":"ce4bho12rcd13ifvqh1g","pricing_plan_id":"cebpf4jnsgd1na2vs0mg"},{"bike_id":"5bfe63b9-ecc2-4be2-9709-511877d985d6","system_id":"levelo_inurba_marseille","lat":43.30646,"lon":5.40104,"is_reserved":false,"is_disabled":false,"rental_uris":{"android":"levelo://app?vid=5bfe63b9-ecc2-4be2-9709-511877d985d6","ios":"levelo://app?vid=5bfe63b9-ecc2-4be2-9709-511877d985d6"},"vehicle_type_id":"4","last_reported":1746652141,"current_range_meters":14800,"station_id":"ce4bh112rcd13ifvqda0","pricing_plan_id":"cebpf4jnsgd1na2vs0mg"},{"bike_id":"61c7510a-512e-49fa-a80b-f32bb60018f3","system_id":"levelo_inurba_marseille","lat":43.27375,"lon":5.3625,"is_reserved":false,"is_disabled":false,"rental_uris":{"android":"levelo://app?vid=61c7510a-512e-49fa-a80b-f32bb60018f3","ios":"levelo://app?vid=61c7510a-512e-49fa-a80b-f32bb60018f3"},"vehicle_type_id":"4","last_reported":1746652141,"current_range_meters":14800,"station_id":"ce4bhbh2rcd13ifvqeo0","pricing_plan_id":"cebpf4jnsgd1na2vs0mg"},{"bike_id":"735a16b1-536c-4a6b-842f-b49f742eaa83","system_id":"levelo_inurba_marseille","lat":43.24049,"lon":5.37701,"is_reserved":false,"is_disabled":false,"rental_uris":{"android":"levelo://app?vid=735a16b1-536c-4a6b-842f-b49f742eaa83","ios":"levelo://app?vid=735a16b1-536c-4a6b-842f-b49f742eaa83"},"vehicle_type_id":"4","last_reported":1746652141,"current_range_meters":14800,"station_id":"ce4bhnp2rcd13ifvqgvg","pricing_plan_id":"cebpf4jnsgd1na2vs0mg"},{"bike_id":"3e1fb53c-eeee-44e0-8ad4-e80ec4616168","system_id":"levelo_inurba_marseille","lat":43.29234,"lon":5.38456,"is_reserved":false,"is_disabled":false,"rental_uris":{"android":"levelo://app?vid=3e1fb53c-eeee-44e0-8ad4-e80ec4616168","ios":"levelo://app?vid=3e1fb53c-eeee-44e0-8ad4-e80ec4616168"},"vehicle_type_id":"4","last_reported":1746652141,"current_range_meters":14800,"station_id":"ce4bh692rcd13ifvqea0","pricing_plan_id":"cebpf4jnsgd1na2vs0mg"},{"bike_id":"c54ca572-74db-4bb7-8204-2d250ccb2012","system_id":"levelo_inurba_marseille","lat":43.30598,"lon":5.37215,"is_reserved":false,"is_disabled":false,"rental_uris":{"android":"levelo://app?vid=c54ca572-74db-4bb7-8204-2d250ccb2012","ios":"levelo://app?vid=c54ca572-74db-4bb7-8204-2d250ccb2012"},"vehicle_type_id":"4","last_reported":1746652141,"current_range_meters":14400,"station_id":"ce4bgqh2rcd13ifvqc4g","pricing_plan_id":"cebpf4jnsgd1na2vs0mg"},{"bike_id":"d996e0e8-c952-4e5c-b9d9-57c77261aa9d","system_id":"levelo_inurba_marseille","lat":43.27383,"lon":5.36249,"is_reserved":false,"is_disabled":false,"rental_uris":{"android":"levelo://app?vid=d996e0e8-c952-4e5c-b9d9-57c77261aa9d","ios":"levelo://app?vid=d996e0e8-c952-4e5c-b9d9-57c77261aa9d"},"vehicle_type_id":"4","last_reported":1746652141,"current_range_meters":14800,"station_id":"ce4bhbh2rcd13ifvqeo0","pricing_plan_id":"cebpf4jnsgd1na2vs0mg"},{"bike_id":"17b214d6-99b5-4fbd-a65f-6ac3467903ea","system_id":"levelo_inurba_marseille","lat":43.31053,"lon":5.38298,"is_reserved":false,"is_disabled":false,"rental_uris":{"android":"levelo://app?vid=17b214d6-99b5-4fbd-a65f-6ac3467903ea","ios":"levelo://app?vid=17b214d6-99b5-4fbd-a65f-6ac3467903ea"},"vehicle_type_id":"4","last_reported":1746652141,"current_range_meters":14800,"station_id":"ce4bgv92rcd13ifvqcr0","pricing_plan_id":"cebpf4jnsgd1na2vs0mg"},{"bike_id":"05dc4990-e4e9-47ec-88a0-d6db56ee509e","system_id":"levelo_inurba_marseille","lat":43.318808,"lon":5.407386,"is_reserved":false,"is_disabled":false,"rental_uris":{"android":"levelo://app?vid=05dc4990-e4e9-47ec-88a0-d6db56ee509e","ios":"levelo://app?vid=05dc4990-e4e9-47ec-88a0-d6db56ee509e"},"vehicle_type_id":"4","last_reported":1746652141,"current_range_meters":14800,"station_id":"ce4bhq12rcd13ifvqhig","pricing_plan_id":"cebpf4jnsgd1na2vs0mg"},{"bike_id":"39bf2d56-d69d-4108-879b-b6df6ee83fb9","system_id":"levelo_inurba_marseille","lat":43.28082,"lon":5.3964,"is_reserved":false,"is_disabled":false,"rental_uris":{"android":"levelo://app?vid=39bf2d56-d69d-4108-879b-b6df6ee83fb9","ios":"levelo://app?vid=39bf2d56-d69d-4108-879b-b6df6ee83fb9"},"vehicle_type_id":"4","last_reported":1746652141,"current_range_meters":14800,"station_id":"ce4bho12rcd13ifvqh2g","pricing_plan_id":"cebpf4jnsgd1na2vs0mg"},{"bike_id":"e945a495-d359-4bb7-bb94-1340aff95955","system_id":"levelo_inurba_marseille","lat":43.28123,"lon":5.40643,"is_reserved":false,"is_disabled":false,"rental_uris":{"android":"levelo://app?vid=e945a495-d359-4bb7-bb94-1340aff95955","ios":"levelo://app?vid=e945a495-d359-4bb7-bb94-1340aff95955"},"vehicle_type_id":"4","last_reported":1746652141,"current_range_meters":15200,"station_id":"","pricing_plan_id":"cebpf4jnsgd1na2vs0mg"},{"bike_id":"e6282093-23fb-41a9-859d-c0d9ad966535","system_id":"levelo_inurba_marseille","lat":43.31714,"lon":5.37712,"is_reserved":false,"is_disabled":false,"rental_uris":{"android":"levelo://app?vid=e6282093-23fb-41a9-859d-c0d9ad966535","ios":"levelo://app?vid=e6282093-23fb-41a9-859d-c0d9ad966535"},"vehicle_type_id":"4","last_reported":1746652141,"current_range_meters":15200,"station_id":"ce4bgth2rcd13ifvqch0","pricing_plan_id":"cebpf4jnsgd1na2vs0mg"},{"bike_id":"24be2629-d9d1-4266-b9d2-75964a2aabeb","system_id":"levelo_inurba_marseille","lat":43.29272,"lon":5.38447,"is_reserved":false,"is_disabled":false,"rental_uris":{"android":"levelo://app?vid=24be2629-d9d1-4266-b9d2-75964a2aabeb","ios":"levelo://app?vid=24be2629-d9d1-4266-b9d2-75964a2aabeb"},"vehicle_type_id":"4","last_reported":1746652141,"current_range_meters":15200,"station_id":"ce4bh692rcd13ifvqea0","pricing_plan_id":"cebpf4jnsgd1na2vs0mg"},{"bike_id":"63019037-0b3d-4533-859d-3368230f1a08","system_id":"levelo_inurba_marseille","lat":43.31884,"lon":5.40728,"is_reserved":false,"is_disabled":false,"rental_uris":{"android":"levelo://app?vid=63019037-0b3d-4533-859d-3368230f1a08","ios":"levelo://app?vid=63019037-0b3d-4533-859d-3368230f1a08"},"vehicle_type_id":"4","last_reported":1746652141,"current_range_meters":14400,"station_id":"ce4bhq12rcd13ifvqhig","pricing_plan_id":"cebpf4jnsgd1na2vs0mg"},{"bike_id":"0f99fedd-5e2b-4224-92ab-0fa4366bb27c","system_id":"levelo_inurba_marseille","lat":43.32484,"lon":5.36554,"is_reserved":false,"is_disabled":false,"rental_uris":{"android":"levelo://app?vid=0f99fedd-5e2b-4224-92ab-0fa4366bb27c","ios":"levelo://app?vid=0f99fedd-5e2b-4224-92ab-0fa4366bb27c"},"vehicle_type_id":"4","last_reported":1746652141,"current_range_meters":14800,"station_id":"ce4bhs12rcd13ifvqhvg","pricing_plan_id":"cebpf4jnsgd1na2vs0mg"},{"bike_id":"a37b7e8d-b235-4308-b31b-128793110b41","system_id":"levelo_inurba_marseille","lat":43.297861,"lon":5.381002,"is_reserved":false,"is_disabled":true,"rental_uris":{"android":"levelo://app?vid=a37b7e8d-b235-4308-b31b-128793110b41","ios":"levelo://app?vid=a37b7e8d-b235-4308-b31b-128793110b41"},"vehicle_type_id":"4","last_reported":1746652141,"current_range_meters":16000,"station_id":"ce4bgip2rcd13ifvqbb0","pricing_plan_id":"cebpf4jnsgd1na2vs0mg"},{"bike_id":"809c8673-c032-46b9-aa07-62c38e26d44e","system_id":"levelo_inurba_marseille","lat":43.2494,"lon":5.38879,"is_reserved":false,"is_disabled":false,"rental_uris":{"android":"levelo://app?vid=809c8673-c032-46b9-aa07-62c38e26d44e","ios":"levelo://app?vid=809c8673-c032-46b9-aa07-62c38e26d44e"},"vehicle_type_id":"4","last_reported":1746652141,"current_range_meters":16000,"station_id":"","pricing_plan_id":"cebpf4jnsgd1na2vs0mg"},{"bike_id":"56fa2159-b6dc-4a04-aa73-54208b4d848d","system_id":"levelo_inurba_marseille","lat":43.30602,"lon":5.39358,"is_reserved":false,"is_disabled":false,"rental_uris":{"android":"levelo://app?vid=56fa2159-b6dc-4a04-aa73-54208b4d848d","ios":"levelo://app?vid=56fa2159-b6dc-4a04-aa73-54208b4d848d"},"vehicle_type_id":"4","last_reported":1746652141,"current_range_meters":16000,"station_id":"ce4bh0p2rcd13ifvqd80","pricing_plan_id":"cebpf4jnsgd1na2vs0mg"},{"bike_id":"2ed327f6-8175-4783-a942-a15e7df3127f","system_id":"levelo_inurba_marseille","lat":43.31748,"lon":5.39039,"is_reserved":false,"is_disabled":true,"rental_uris":{"android":"levelo://app?vid=2ed327f6-8175-4783-a942-a15e7df3127f","ios":"levelo://app?vid=2ed327f6-8175-4783-a942-a15e7df3127f"},"vehicle_type_id":"4","last_reported":1746652141,"current_range_meters":16000,"station_id":"ce4bhqp2rcd13ifvqhng","pricing_plan_id":"cebpf4jnsgd1na2vs0mg"},{"bike_id":"ab0829c7-4dad-444c-acbb-a5c3d542fa8c","system_id":"levelo_inurba_marseille","lat":43.24093,"lon":5.3774,"is_reserved":false,"is_disabled":false,"rental_uris":{"android":"levelo://app?vid=ab0829c7-4dad-444c-acbb-a5c3d542fa8c","ios":"levelo://app?vid=ab0829c7-4dad-444c-acbb-a5c3d542fa8c"},"vehicle_type_id":"4","last_reported":1746652141,"current_range_meters":16000,"station_id":"ce4bhnp2rcd13ifvqgvg","pricing_plan_id":"cebpf4jnsgd1na2vs0mg"},{"bike_id":"d59f6a7d-9d6f-498b-a97f-479f8b95a457","system_id":"levelo_inurba_marseille","lat":43.28741,"lon":5.36053,"is_reserved":false,"is_disabled":false,"rental_uris":{"android":"levelo://app?vid=d59f6a7d-9d6f-498b-a97f-479f8b95a457","ios":"levelo://app?vid=d59f6a7d-9d6f-498b-a97f-479f8b95a457"},"vehicle_type_id":"4","last_reported":1746652141,"current_range_meters":15200,"station_id":"cki0cbj6b192h4jlfktg","pricing_plan_id":"cebpf4jnsgd1na2vs0mg"},{"bike_id":"5d713a40-e6f3-4885-b30e-8953fd7e64b0","system_id":"levelo_inurba_marseille","lat":43.318446,"lon":5.379866,"is_reserved":false,"is_disabled":false,"rental_uris":{"android":"levelo://app?vid=5d713a40-e6f3-4885-b30e-8953fd7e64b0","ios":"levelo://app?vid=5d713a40-e6f3-4885-b30e-8953fd7e64b0"},"vehicle_type_id":"4","last_reported":1746652141,"current_range_meters":16400,"station_id":"","pricing_plan_id":"cebpf4jnsgd1na2vs0mg"},{"bike_id":"ef7b5cc3-6baa-45d8-808d-68c2899d6f9a","system_id":"levelo_inurba_marseille","lat":43.24179,"lon":5.39724,"is_reserved":false,"is_disabled":false,"rental_uris":{"android":"levelo://app?vid=ef7b5cc3-6baa-45d8-808d-68c2899d6f9a","ios":"levelo://app?vid=ef7b5cc3-6baa-45d8-808d-68c2899d6f9a"},"vehicle_type_id":"4","last_reported":1746652141,"current_range_meters":16400,"station_id":"ce4bhn12rcd13ifvqgpg","pricing_plan_id":"cebpf4jnsgd1na2vs0mg"},{"bike_id":"3cf2ec27-f7b8-4e23-8492-0e23be5e930a","system_id":"levelo_inurba_marseille","lat":43.28972,"lon":5.3784,"is_reserved":false,"is_disabled":true,"rental_uris":{"android":"levelo://app?vid=3cf2ec27-f7b8-4e23-8492-0e23be5e930a","ios":"levelo://app?vid=3cf2ec27-f7b8-4e23-8492-0e23be5e930a"},"vehicle_type_id":"4","last_reported":1746652141,"current_range_meters":16400,"station_id":"ce4bh9p2rcd13ifvqed0","pricing_plan_id":"cebpf4jnsgd1na2vs0mg"},{"bike_id":"179e39d6-f393-46e0-b36a-f5293148431d","system_id":"levelo_inurba_marseille","lat":43.32487,"lon":5.36582,"is_reserved":false,"is_disabled":true,"rental_uris":{"android":"levelo://app?vid=179e39d6-f393-46e0-b36a-f5293148431d","ios":"levelo://app?vid=179e39d6-f393-46e0-b36a-f5293148431d"},"vehicle_type_id":"4","last_reported":1746652141,"current_range_meters":16400,"station_id":"ce4bhs12rcd13ifvqhvg","pricing_plan_id":"cebpf4jnsgd1na2vs0mg"},{"bike_id":"47cd9dba-9c5a-4de3-a27d-45ec0de547bc","system_id":"levelo_inurba_marseille","lat":43.28843,"lon":5.43322,"is_reserved":false,"is_disabled":false,"rental_uris":{"android":"levelo://app?vid=47cd9dba-9c5a-4de3-a27d-45ec0de547bc","ios":"levelo://app?vid=47cd9dba-9c5a-4de3-a27d-45ec0de547bc"},"vehicle_type_id":"4","last_reported":1746652141,"current_range_meters":16400,"station_id":"","pricing_plan_id":"cebpf4jnsgd1na2vs0mg"},{"bike_id":"de9cec45-cb9d-4cbf-afe9-1c3bdf3b02f6","system_id":"levelo_inurba_marseille","lat":43.27374,"lon":5.3625,"is_reserved":false,"is_disabled":false,"rental_uris":{"android":"levelo://app?vid=de9cec45-cb9d-4cbf-afe9-1c3bdf3b02f6","ios":"levelo://app?vid=de9cec45-cb9d-4cbf-afe9-1c3bdf3b02f6"},"vehicle_type_id":"4","last_reported":1746652141,"current_range_meters":16800,"station_id":"ce4bhbh2rcd13ifvqeo0","pricing_plan_id":"cebpf4jnsgd1na2vs0mg"},{"bike_id":"caccb556-2ad0-45b8-84b8-819024dd44e6","system_id":"levelo_inurba_marseille","lat":43.29787,"lon":5.36793,"is_reserved":false,"is_disabled":false,"rental_uris":{"android":"levelo://app?vid=caccb556-2ad0-45b8-84b8-819024dd44e6","ios":"levelo://app?vid=caccb556-2ad0-45b8-84b8-819024dd44e6"},"vehicle_type_id":"4","last_reported":1746652141,"current_range_meters":16800,"station_id":"","pricing_plan_id":"cebpf4jnsgd1na2vs0mg"},{"bike_id":"ede21088-86fa-48bb-8a22-89a8cadd492a","system_id":"levelo_inurba_marseille","lat":43.27611,"lon":5.36116,"is_reserved":false,"is_disabled":false,"rental_uris":{"android":"levelo://app?vid=ede21088-86fa-48bb-8a22-89a8cadd492a","ios":"levelo://app?vid=ede21088-86fa-48bb-8a22-89a8cadd492a"},"vehicle_type_id":"4","last_reported":1746652141,"current_range_meters":16800,"station_id":"ce4bgj92rcd13ifvqbe0","pricing_plan_id":"cebpf4jnsgd1na2vs0mg"},{"bike_id":"349627ae-65e2-4f6d-9cf0-e8327ceba29d","system_id":"levelo_inurba_marseille","lat":43.30258,"lon":5.40075,"is_reserved":false,"is_disabled":false,"rental_uris":{"android":"levelo://app?vid=349627ae-65e2-4f6d-9cf0-e8327ceba29d","ios":"levelo://app?vid=349627ae-65e2-4f6d-9cf0-e8327ceba29d"},"vehicle_type_id":"4","last_reported":1746652141,"current_range_meters":17600,"station_id":"ce4bgvh2rcd13ifvqcs0","pricing_plan_id":"cebpf4jnsgd1na2vs0mg"},{"bike_id":"08b038fb-7183-43be-806a-e150c2f41866","system_id":"levelo_inurba_marseille","lat":43.30955,"lon":5.39036,"is_reserved":false,"is_disabled":false,"rental_uris":{"android":"levelo://app?vid=08b038fb-7183-43be-806a-e150c2f41866","ios":"levelo://app?vid=08b038fb-7183-43be-806a-e150c2f41866"},"vehicle_type_id":"4","last_reported":1746652141,"current_range_meters":19200,"station_id":"ce4bgup2rcd13ifvqco0","pricing_plan_id":"cebpf4jnsgd1na2vs0mg"},{"bike_id":"ee051268-acf7-4653-b6ec-77467d204d45","system_id":"levelo_inurba_marseille","lat":43.28465,"lon":5.35887,"is_reserved":false,"is_disabled":false,"rental_uris":{"android":"levelo://app?vid=ee051268-acf7-4653-b6ec-77467d204d45","ios":"levelo://app?vid=ee051268-acf7-4653-b6ec-77467d204d45"},"vehicle_type_id":"4","last_reported":1746652141,"current_range_meters":20000,"station_id":"ce4bhah2rcd13ifvqei0","pricing_plan_id":"cebpf4jnsgd1na2vs0mg"},{"bike_id":"280a5f10-1881-424c-adf7-2ff4798a4d7f","system_id":"levelo_inurba_marseille","lat":43.23187,"lon":5.3999,"is_reserved":false,"is_disabled":false,"rental_uris":{"android":"levelo://app?vid=280a5f10-1881-424c-adf7-2ff4798a4d7f","ios":"levelo://app?vid=280a5f10-1881-424c-adf7-2ff4798a4d7f"},"vehicle_type_id":"4","last_reported":1746652141,"current_range_meters":17200,"station_id":"ce4bhn12rcd13ifvqgqg","pricing_plan_id":"cebpf4jnsgd1na2vs0mg"},{"bike_id":"e24217ec-e9b1-48d3-8b2e-f646965e4f8e","system_id":"levelo_inurba_marseille","lat":43.29911,"lon":5.38141,"is_reserved":false,"is_disabled":false,"rental_uris":{"android":"levelo://app?vid=e24217ec-e9b1-48d3-8b2e-f646965e4f8e","ios":"levelo://app?vid=e24217ec-e9b1-48d3-8b2e-f646965e4f8e"},"vehicle_type_id":"4","last_reported":1746652141,"current_range_meters":16400,"station_id":"ce4bgj12rcd13ifvqbc0","pricing_plan_id":"cebpf4jnsgd1na2vs0mg"},{"bike_id":"b08ff37a-6f07-49d4-a0ed-e595b6515702","system_id":"levelo_inurba_marseille","lat":43.30651,"lon":5.40085,"is_reserved":false,"is_disabled":false,"rental_uris":{"android":"levelo://app?vid=b08ff37a-6f07-49d4-a0ed-e595b6515702","ios":"levelo://app?vid=b08ff37a-6f07-49d4-a0ed-e595b6515702"},"vehicle_type_id":"4","last_reported":1746652141,"current_range_meters":17200,"station_id":"ce4bh112rcd13ifvqda0","pricing_plan_id":"cebpf4jnsgd1na2vs0mg"},{"bike_id":"49e1edb5-3fad-4311-9de7-56cceb654a91","system_id":"levelo_inurba_marseille","lat":43.26782,"lon":5.40252,"is_reserved":false,"is_disabled":false,"rental_uris":{"android":"levelo://app?vid=49e1edb5-3fad-4311-9de7-56cceb654a91","ios":"levelo://app?vid=49e1edb5-3fad-4311-9de7-56cceb654a91"},"vehicle_type_id":"4","last_reported":1746652141,"current_range_meters":17200,"station_id":"ce501612rcd8frsf0b60","pricing_plan_id":"cebpf4jnsgd1na2vs0mg"},{"bike_id":"9f43731c-2d69-4ccf-b94a-4f090c1b2516","system_id":"levelo_inurba_marseille","lat":43.284186,"lon":5.349825,"is_reserved":false,"is_disabled":false,"rental_uris":{"android":"levelo://app?vid=9f43731c-2d69-4ccf-b94a-4f090c1b2516","ios":"levelo://app?vid=9f43731c-2d69-4ccf-b94a-4f090c1b2516"},"vehicle_type_id":"4","last_reported":1746652141,"current_range_meters":17600,"station_id":"ce4bhbh2rcd13ifvqepg","pricing_plan_id":"cebpf4jnsgd1na2vs0mg"},{"bike_id":"571fae31-de00-44d7-8e22-e98c5aaef4dd","system_id":"levelo_inurba_marseille","lat":43.29793,"lon":5.39328,"is_reserved":false,"is_disabled":false,"rental_uris":{"android":"levelo://app?vid=571fae31-de00-44d7-8e22-e98c5aaef4dd","ios":"levelo://app?vid=571fae31-de00-44d7-8e22-e98c5aaef4dd"},"vehicle_type_id":"4","last_reported":1746652141,"current_range_meters":17600,"station_id":"chh1huq6cuj3fo74tm60","pricing_plan_id":"cebpf4jnsgd1na2vs0mg"},{"bike_id":"e2af7fe1-7301-4b7b-80d1-dec3d7463744","system_id":"levelo_inurba_marseille","lat":43.28659,"lon":5.36354,"is_reserved":false,"is_disabled":false,"rental_uris":{"android":"levelo://app?vid=e2af7fe1-7301-4b7b-80d1-dec3d7463744","ios":"levelo://app?vid=e2af7fe1-7301-4b7b-80d1-dec3d7463744"},"vehicle_type_id":"4","last_reported":1746652141,"current_range_meters":17600,"station_id":"ce4bhah2rcd13ifvqej0","pricing_plan_id":"cebpf4jnsgd1na2vs0mg"},{"bike_id":"89f953df-2061-408d-8f0d-6a2938e5443a","system_id":"levelo_inurba_marseille","lat":43.23662,"lon":5.40345,"is_reserved":false,"is_disabled":false,"rental_uris":{"android":"levelo://app?vid=89f953df-2061-408d-8f0d-6a2938e5443a","ios":"levelo://app?vid=89f953df-2061-408d-8f0d-6a2938e5443a"},"vehicle_type_id":"4","last_reported":1746652141,"current_range_meters":17600,"station_id":"","pricing_plan_id":"cebpf4jnsgd1na2vs0mg"},{"bike_id":"cfa4cb59-9629-4421-aee3-8fd35d5189c0","system_id":"levelo_inurba_marseille","lat":43.28857,"lon":5.39323,"is_reserved":false,"is_disabled":false,"rental_uris":{"android":"levelo://app?vid=cfa4cb59-9629-4421-aee3-8fd35d5189c0","ios":"levelo://app?vid=cfa4cb59-9629-4421-aee3-8fd35d5189c0"},"vehicle_type_id":"4","last_reported":1746652141,"current_range_meters":18000,"station_id":"ce4bh2p2rcd13ifvqdi0","pricing_plan_id":"cebpf4jnsgd1na2vs0mg"},{"bike_id":"5a3f9c9c-afc0-4119-8934-784e7a126329","system_id":"levelo_inurba_marseille","lat":43.28711,"lon":5.3609,"is_reserved":false,"is_disabled":false,"rental_uris":{"android":"levelo://app?vid=5a3f9c9c-afc0-4119-8934-784e7a126329","ios":"levelo://app?vid=5a3f9c9c-afc0-4119-8934-784e7a126329"},"vehicle_type_id":"4","last_reported":1746652141,"current_range_meters":18000,"station_id":"cki0cbj6b192h4jlfktg","pricing_plan_id":"cebpf4jnsgd1na2vs0mg"},{"bike_id":"6a12e15e-b49d-4142-b121-ab33a215e4e1","system_id":"levelo_inurba_marseille","lat":43.31325,"lon":5.39702,"is_reserved":false,"is_disabled":false,"rental_uris":{"android":"levelo://app?vid=6a12e15e-b49d-4142-b121-ab33a215e4e1","ios":"levelo://app?vid=6a12e15e-b49d-4142-b121-ab33a215e4e1"},"vehicle_type_id":"4","last_reported":1746652141,"current_range_meters":18000,"station_id":"ce4bgvp2rcd13ifvqcu0","pricing_plan_id":"cebpf4jnsgd1na2vs0mg"},{"bike_id":"084222e8-109d-40e5-bbed-f1d8a90c69e1","system_id":"levelo_inurba_marseille","lat":43.30225,"lon":5.39486,"is_reserved":false,"is_disabled":false,"rental_uris":{"android":"levelo://app?vid=084222e8-109d-40e5-bbed-f1d8a90c69e1","ios":"levelo://app?vid=084222e8-109d-40e5-bbed-f1d8a90c69e1"},"vehicle_type_id":"4","last_reported":1746652141,"current_range_meters":18000,"station_id":"ce4bh0p2rcd13ifvqd70","pricing_plan_id":"cebpf4jnsgd1na2vs0mg"},{"bike_id":"6971f759-8594-489e-a8f6-9153c9a9c438","system_id":"levelo_inurba_marseille","lat":43.27686,"lon":5.41959,"is_reserved":false,"is_disabled":false,"rental_uris":{"android":"levelo://app?vid=6971f759-8594-489e-a8f6-9153c9a9c438","ios":"levelo://app?vid=6971f759-8594-489e-a8f6-9153c9a9c438"},"vehicle_type_id":"4","last_reported":1746652141,"current_range_meters":18000,"station_id":"","pricing_plan_id":"cebpf4jnsgd1na2vs0mg"},{"bike_id":"8bdf87bd-c91b-4644-9046-7072259f9131","system_id":"levelo_inurba_marseille","lat":43.31312,"lon":5.36849,"is_reserved":false,"is_disabled":false,"rental_uris":{"android":"levelo://app?vid=8bdf87bd-c91b-4644-9046-7072259f9131","ios":"levelo://app?vid=8bdf87bd-c91b-4644-9046-7072259f9131"},"vehicle_type_id":"4","last_reported":1746652141,"current_range_meters":18800,"station_id":"","pricing_plan_id":"cebpf4jnsgd1na2vs0mg"},{"bike_id":"5941c395-e597-45cd-a05e-39a67e440e16","system_id":"levelo_inurba_marseille","lat":43.29434,"lon":5.3976,"is_reserved":false,"is_disabled":false,"rental_uris":{"android":"levelo://app?vid=5941c395-e597-45cd-a05e-39a67e440e16","ios":"levelo://app?vid=5941c395-e597-45cd-a05e-39a67e440e16"},"vehicle_type_id":"4","last_reported":1746652141,"current_range_meters":18000,"station_id":"ce4bh3h2rcd13ifvqdo0","pricing_plan_id":"cebpf4jnsgd1na2vs0mg"},{"bike_id":"47bfc016-0555-4c29-b924-01e16266044a","system_id":"levelo_inurba_marseille","lat":43.30931,"lon":5.4014,"is_reserved":false,"is_disabled":false,"rental_uris":{"android":"levelo://app?vid=47bfc016-0555-4c29-b924-01e16266044a","ios":"levelo://app?vid=47bfc016-0555-4c29-b924-01e16266044a"},"vehicle_type_id":"4","last_reported":1746652141,"current_range_meters":18000,"station_id":"ce4bgvp2rcd13ifvqct0","pricing_plan_id":"cebpf4jnsgd1na2vs0mg"},{"bike_id":"6c990ab7-1787-46fb-bf99-030755abaccf","system_id":"levelo_inurba_marseille","lat":43.272,"lon":5.39191,"is_reserved":false,"is_disabled":true,"rental_uris":{"android":"levelo://app?vid=6c990ab7-1787-46fb-bf99-030755abaccf","ios":"levelo://app?vid=6c990ab7-1787-46fb-bf99-030755abaccf"},"vehicle_type_id":"4","last_reported":1746652141,"current_range_meters":18800,"station_id":"ce4bhhp2rcd13ifvqfm0","pricing_plan_id":"cebpf4jnsgd1na2vs0mg"},{"bike_id":"ad3912e1-02bc-450f-9f15-6e4766049115","system_id":"levelo_inurba_marseille","lat":43.29561,"lon":5.42268,"is_reserved":false,"is_disabled":false,"rental_uris":{"android":"levelo://app?vid=ad3912e1-02bc-450f-9f15-6e4766049115","ios":"levelo://app?vid=ad3912e1-02bc-450f-9f15-6e4766049115"},"vehicle_type_id":"4","last_reported":1746652141,"current_range_meters":18800,"station_id":"ce4bhph2rcd13ifvqhdg","pricing_plan_id":"cebpf4jnsgd1na2vs0mg"},{"bike_id":"70a29a45-574c-4ff1-aca3-740aa0e705be","system_id":"levelo_inurba_marseille","lat":43.24174,"lon":5.36385,"is_reserved":false,"is_disabled":false,"rental_uris":{"android":"levelo://app?vid=70a29a45-574c-4ff1-aca3-740aa0e705be","ios":"levelo://app?vid=70a29a45-574c-4ff1-aca3-740aa0e705be"},"vehicle_type_id":"4","last_reported":1746652141,"current_range_meters":18800,"station_id":"cpo36qri1sfpv3e86is0","pricing_plan_id":"cebpf4jnsgd1na2vs0mg"},{"bike_id":"86b197b1-658c-40db-8b30-e30cbe42070a","system_id":"levelo_inurba_marseille","lat":43.27376,"lon":5.36245,"is_reserved":false,"is_disabled":false,"rental_uris":{"android":"levelo://app?vid=86b197b1-658c-40db-8b30-e30cbe42070a","ios":"levelo://app?vid=86b197b1-658c-40db-8b30-e30cbe42070a"},"vehicle_type_id":"4","last_reported":1746652141,"current_range_meters":18800,"station_id":"ce4bhbh2rcd13ifvqeo0","pricing_plan_id":"cebpf4jnsgd1na2vs0mg"},{"bike_id":"68363bb0-7c38-4230-b9f4-a9a56f56da44","system_id":"levelo_inurba_marseille","lat":43.27974,"lon":5.38737,"is_reserved":false,"is_disabled":false,"rental_uris":{"android":"levelo://app?vid=68363bb0-7c38-4230-b9f4-a9a56f56da44","ios":"levelo://app?vid=68363bb0-7c38-4230-b9f4-a9a56f56da44"},"vehicle_type_id":"4","last_reported":1746652141,"current_range_meters":18800,"station_id":"ce4bhg12rcd13ifvqf80","pricing_plan_id":"cebpf4jnsgd1na2vs0mg"},{"bike_id":"7cfadea3-521c-4b7e-86bc-2b4461aec941","system_id":"levelo_inurba_marseille","lat":43.27374,"lon":5.36259,"is_reserved":false,"is_disabled":false,"rental_uris":{"android":"levelo://app?vid=7cfadea3-521c-4b7e-86bc-2b4461aec941","ios":"levelo://app?vid=7cfadea3-521c-4b7e-86bc-2b4461aec941"},"vehicle_type_id":"4","last_reported":1746652141,"current_range_meters":18800,"station_id":"ce4bhbh2rcd13ifvqeo0","pricing_plan_id":"cebpf4jnsgd1na2vs0mg"},{"bike_id":"386441d1-d0cd-4783-a499-3625d3e469b1","system_id":"levelo_inurba_marseille","lat":43.28188,"lon":5.36337,"is_reserved":false,"is_disabled":true,"rental_uris":{"android":"levelo://app?vid=386441d1-d0cd-4783-a499-3625d3e469b1","ios":"levelo://app?vid=386441d1-d0cd-4783-a499-3625d3e469b1"},"vehicle_type_id":"4","last_reported":1746652141,"current_range_meters":18800,"station_id":"","pricing_plan_id":"cebpf4jnsgd1na2vs0mg"},{"bike_id":"feff4edb-0364-479c-9694-abea30ac7328","system_id":"levelo_inurba_marseille","lat":43.294044,"lon":5.386221,"is_reserved":false,"is_disabled":false,"rental_uris":{"android":"levelo://app?vid=feff4edb-0364-479c-9694-abea30ac7328","ios":"levelo://app?vid=feff4edb-0364-479c-9694-abea30ac7328"},"vehicle_type_id":"4","last_reported":1746652141,"current_range_meters":19200,"station_id":"ce4bh2h2rcd13ifvqdh0","pricing_plan_id":"cebpf4jnsgd1na2vs0mg"},{"bike_id":"e2094e82-43c9-4eb4-a6a8-fdd9d45fb240","system_id":"levelo_inurba_marseille","lat":43.29245,"lon":5.38434,"is_reserved":false,"is_disabled":false,"rental_uris":{"android":"levelo://app?vid=e2094e82-43c9-4eb4-a6a8-fdd9d45fb240","ios":"levelo://app?vid=e2094e82-43c9-4eb4-a6a8-fdd9d45fb240"},"vehicle_type_id":"4","last_reported":1746652141,"current_range_meters":19200,"station_id":"ce4bh692rcd13ifvqea0","pricing_plan_id":"cebpf4jnsgd1na2vs0mg"},{"bike_id":"b7c9e267-7aae-4983-aa5c-d5c10abff1af","system_id":"levelo_inurba_marseille","lat":43.28268,"lon":5.35062,"is_reserved":false,"is_disabled":false,"rental_uris":{"android":"levelo://app?vid=b7c9e267-7aae-4983-aa5c-d5c10abff1af","ios":"levelo://app?vid=b7c9e267-7aae-4983-aa5c-d5c10abff1af"},"vehicle_type_id":"4","last_reported":1746652141,"current_range_meters":19200,"station_id":"ce4bhbp2rcd13ifvqerg","pricing_plan_id":"cebpf4jnsgd1na2vs0mg"},{"bike_id":"b1c715fb-6629-4314-9db8-db55a8e26139","system_id":"levelo_inurba_marseille","lat":43.29442,"lon":5.39734,"is_reserved":false,"is_disabled":false,"rental_uris":{"android":"levelo://app?vid=b1c715fb-6629-4314-9db8-db55a8e26139","ios":"levelo://app?vid=b1c715fb-6629-4314-9db8-db55a8e26139"},"vehicle_type_id":"4","last_reported":1746652141,"current_range_meters":19200,"station_id":"ce4bh3h2rcd13ifvqdo0","pricing_plan_id":"cebpf4jnsgd1na2vs0mg"},{"bike_id":"f3035667-5db8-4d82-95b2-1aa404290e19","system_id":"levelo_inurba_marseille","lat":43.24174,"lon":5.39733,"is_reserved":false,"is_disabled":false,"rental_uris":{"android":"levelo://app?vid=f3035667-5db8-4d82-95b2-1aa404290e19","ios":"levelo://app?vid=f3035667-5db8-4d82-95b2-1aa404290e19"},"vehicle_type_id":"4","last_reported":1746652141,"current_range_meters":19200,"station_id":"ce4bhn12rcd13ifvqgpg","pricing_plan_id":"cebpf4jnsgd1na2vs0mg"},{"bike_id":"a83e61a5-5cbd-4fc9-8903-f49cc9313f85","system_id":"levelo_inurba_marseille","lat":43.27379,"lon":5.36258,"is_reserved":false,"is_disabled":false,"rental_uris":{"android":"levelo://app?vid=a83e61a5-5cbd-4fc9-8903-f49cc9313f85","ios":"levelo://app?vid=a83e61a5-5cbd-4fc9-8903-f49cc9313f85"},"vehicle_type_id":"4","last_reported":1746652141,"current_range_meters":19600,"station_id":"ce4bhbh2rcd13ifvqeo0","pricing_plan_id":"cebpf4jnsgd1na2vs0mg"},{"bike_id":"9485d3c9-f408-47ef-8889-1762c2390dd8","system_id":"levelo_inurba_marseille","lat":43.28105,"lon":5.37838,"is_reserved":false,"is_disabled":false,"rental_uris":{"android":"levelo://app?vid=9485d3c9-f408-47ef-8889-1762c2390dd8","ios":"levelo://app?vid=9485d3c9-f408-47ef-8889-1762c2390dd8"},"vehicle_type_id":"4","last_reported":1746652141,"current_range_meters":19600,"station_id":"ce4bha12rcd13ifvqee0","pricing_plan_id":"cebpf4jnsgd1na2vs0mg"},{"bike_id":"89b5c51b-cd9c-475c-ba7a-726b12d22f75","system_id":"levelo_inurba_marseille","lat":43.211927,"lon":5.350773,"is_reserved":false,"is_disabled":false,"rental_uris":{"android":"levelo://app?vid=89b5c51b-cd9c-475c-ba7a-726b12d22f75","ios":"levelo://app?vid=89b5c51b-cd9c-475c-ba7a-726b12d22f75"},"vehicle_type_id":"4","last_reported":1746652141,"current_range_meters":19600,"station_id":"st_cvj6sg6p6f1abm77japg","pricing_plan_id":"cebpf4jnsgd1na2vs0mg"},{"bike_id":"86faaeb0-89f8-42b9-be93-a34d16b7bcf7","system_id":"levelo_inurba_marseille","lat":43.30096,"lon":5.37038,"is_reserved":false,"is_disabled":false,"rental_uris":{"android":"levelo://app?vid=86faaeb0-89f8-42b9-be93-a34d16b7bcf7","ios":"levelo://app?vid=86faaeb0-89f8-42b9-be93-a34d16b7bcf7"},"vehicle_type_id":"4","last_reported":1746652141,"current_range_meters":19600,"station_id":"","pricing_plan_id":"cebpf4jnsgd1na2vs0mg"},{"bike_id":"e5ca36a5-9f43-4fc0-b72a-11e2e5a2368a","system_id":"levelo_inurba_marseille","lat":43.27818,"lon":5.39215,"is_reserved":false,"is_disabled":false,"rental_uris":{"android":"levelo://app?vid=e5ca36a5-9f43-4fc0-b72a-11e2e5a2368a","ios":"levelo://app?vid=e5ca36a5-9f43-4fc0-b72a-11e2e5a2368a"},"vehicle_type_id":"4","last_reported":1746652141,"current_range_meters":19600,"station_id":"ce4bhjp2rcd13ifvqga0","pricing_plan_id":"cebpf4jnsgd1na2vs0mg"},{"bike_id":"16d82653-e2e5-4531-a384-7902e244f0cf","system_id":"levelo_inurba_marseille","lat":43.225128,"lon":5.347748,"is_reserved":false,"is_disabled":false,"rental_uris":{"android":"levelo://app?vid=16d82653-e2e5-4531-a384-7902e244f0cf","ios":"levelo://app?vid=16d82653-e2e5-4531-a384-7902e244f0cf"},"vehicle_type_id":"4","last_reported":1746652141,"current_range_meters":20000,"station_id":"st_cvj5dfep6f1abm77gieg","pricing_plan_id":"cebpf4jnsgd1na2vs0mg"},{"bike_id":"db5a43b9-6dc0-47f9-bea1-ec8580eef226","system_id":"levelo_inurba_marseille","lat":43.28848,"lon":5.39319,"is_reserved":false,"is_disabled":false,"rental_uris":{"android":"levelo://app?vid=db5a43b9-6dc0-47f9-bea1-ec8580eef226","ios":"levelo://app?vid=db5a43b9-6dc0-47f9-bea1-ec8580eef226"},"vehicle_type_id":"4","last_reported":1746652141,"current_range_meters":20000,"station_id":"ce4bh2p2rcd13ifvqdi0","pricing_plan_id":"cebpf4jnsgd1na2vs0mg"},{"bike_id":"a4dc2738-c0ee-4e50-883e-ac3127ee4047","system_id":"levelo_inurba_marseille","lat":43.29915,"lon":5.393844,"is_reserved":false,"is_disabled":false,"rental_uris":{"android":"levelo://app?vid=a4dc2738-c0ee-4e50-883e-ac3127ee4047","ios":"levelo://app?vid=a4dc2738-c0ee-4e50-883e-ac3127ee4047"},"vehicle_type_id":"4","last_reported":1746652141,"current_range_meters":20000,"station_id":"ce4bh0h2rcd13ifvqd50","pricing_plan_id":"cebpf4jnsgd1na2vs0mg"},{"bike_id":"3cac0407-9710-44bd-a04a-af262a1048b3","system_id":"levelo_inurba_marseille","lat":43.28157,"lon":5.42638,"is_reserved":false,"is_disabled":false,"rental_uris":{"android":"levelo://app?vid=3cac0407-9710-44bd-a04a-af262a1048b3","ios":"levelo://app?vid=3cac0407-9710-44bd-a04a-af262a1048b3"},"vehicle_type_id":"4","last_reported":1746652141,"current_range_meters":20000,"station_id":"ce4bhnh2rcd13ifvqgug","pricing_plan_id":"cebpf4jnsgd1na2vs0mg"},{"bike_id":"26b7ed20-d681-485d-8713-2891623ae6be","system_id":"levelo_inurba_marseille","lat":43.27357,"lon":5.36249,"is_reserved":false,"is_disabled":false,"rental_uris":{"android":"levelo://app?vid=26b7ed20-d681-485d-8713-2891623ae6be","ios":"levelo://app?vid=26b7ed20-d681-485d-8713-2891623ae6be"},"vehicle_type_id":"4","last_reported":1746652141,"current_range_meters":20000,"station_id":"ce4bhbh2rcd13ifvqeo0","pricing_plan_id":"cebpf4jnsgd1na2vs0mg"},{"bike_id":"b46350ee-212d-49ce-b77b-cf9cf49041dd","system_id":"levelo_inurba_marseille","lat":43.2866,"lon":5.38667,"is_reserved":false,"is_disabled":false,"rental_uris":{"android":"levelo://app?vid=b46350ee-212d-49ce-b77b-cf9cf49041dd","ios":"levelo://app?vid=b46350ee-212d-49ce-b77b-cf9cf49041dd"},"vehicle_type_id":"4","last_reported":1746652141,"current_range_meters":20000,"station_id":"ce4bh492rcd13ifvqdug","pricing_plan_id":"cebpf4jnsgd1na2vs0mg"},{"bike_id":"545f7335-f587-48c6-bdc0-fb5f2925857f","system_id":"levelo_inurba_marseille","lat":43.31074,"lon":5.38346,"is_reserved":false,"is_disabled":false,"rental_uris":{"android":"levelo://app?vid=545f7335-f587-48c6-bdc0-fb5f2925857f","ios":"levelo://app?vid=545f7335-f587-48c6-bdc0-fb5f2925857f"},"vehicle_type_id":"4","last_reported":1746652141,"current_range_meters":20400,"station_id":"ce4bgv92rcd13ifvqcr0","pricing_plan_id":"cebpf4jnsgd1na2vs0mg"},{"bike_id":"385efc73-c8f2-4acf-91a3-ae63842dcfc6","system_id":"levelo_inurba_marseille","lat":43.28634,"lon":5.37037,"is_reserved":false,"is_disabled":true,"rental_uris":{"android":"levelo://app?vid=385efc73-c8f2-4acf-91a3-ae63842dcfc6","ios":"levelo://app?vid=385efc73-c8f2-4acf-91a3-ae63842dcfc6"},"vehicle_type_id":"4","last_reported":1746652141,"current_range_meters":20800,"station_id":"ce4bht12rcd13ifvqi60","pricing_plan_id":"cebpf4jnsgd1na2vs0mg"},{"bike_id":"b58208f6-5c5f-4f43-8041-e907b6898206","system_id":"levelo_inurba_marseille","lat":43.29272,"lon":5.38426,"is_reserved":false,"is_disabled":false,"rental_uris":{"android":"levelo://app?vid=b58208f6-5c5f-4f43-8041-e907b6898206","ios":"levelo://app?vid=b58208f6-5c5f-4f43-8041-e907b6898206"},"vehicle_type_id":"4","last_reported":1746652141,"current_range_meters":20400,"station_id":"ce4bh692rcd13ifvqea0","pricing_plan_id":"cebpf4jnsgd1na2vs0mg"},{"bike_id":"a62c6d13-1d6e-4236-b9d9-7d25fe0e5dd4","system_id":"levelo_inurba_marseille","lat":43.2705,"lon":5.40258,"is_reserved":false,"is_disabled":false,"rental_uris":{"android":"levelo://app?vid=a62c6d13-1d6e-4236-b9d9-7d25fe0e5dd4","ios":"levelo://app?vid=a62c6d13-1d6e-4236-b9d9-7d25fe0e5dd4"},"vehicle_type_id":"4","last_reported":1746652141,"current_range_meters":20400,"station_id":"ce4bhk92rcd13ifvqgc0","pricing_plan_id":"cebpf4jnsgd1na2vs0mg"},{"bike_id":"ff807334-3ad3-4e40-bbde-648eb2b1c45b","system_id":"levelo_inurba_marseille","lat":43.21202,"lon":5.35082,"is_reserved":false,"is_disabled":false,"rental_uris":{"android":"levelo://app?vid=ff807334-3ad3-4e40-bbde-648eb2b1c45b","ios":"levelo://app?vid=ff807334-3ad3-4e40-bbde-648eb2b1c45b"},"vehicle_type_id":"4","last_reported":1746652141,"current_range_meters":20400,"station_id":"st_cvj6sg6p6f1abm77japg","pricing_plan_id":"cebpf4jnsgd1na2vs0mg"},{"bike_id":"16adaf66-2bbd-4580-baa3-cd933bb7c3fc","system_id":"levelo_inurba_marseille","lat":43.30435,"lon":5.38883,"is_reserved":false,"is_disabled":false,"rental_uris":{"android":"levelo://app?vid=16adaf66-2bbd-4580-baa3-cd933bb7c3fc","ios":"levelo://app?vid=16adaf66-2bbd-4580-baa3-cd933bb7c3fc"},"vehicle_type_id":"4","last_reported":1746652141,"current_range_meters":20400,"station_id":"ce4bgk12rcd13ifvqbi0","pricing_plan_id":"cebpf4jnsgd1na2vs0mg"},{"bike_id":"3a760dc3-905e-40c9-816e-b83e82f11e46","system_id":"levelo_inurba_marseille","lat":43.30183,"lon":5.36614,"is_reserved":false,"is_disabled":false,"rental_uris":{"android":"levelo://app?vid=3a760dc3-905e-40c9-816e-b83e82f11e46","ios":"levelo://app?vid=3a760dc3-905e-40c9-816e-b83e82f11e46"},"vehicle_type_id":"4","last_reported":1746652141,"current_range_meters":20400,"station_id":"ce4bgrh2rcd13ifvqc8g","pricing_plan_id":"cebpf4jnsgd1na2vs0mg"},{"bike_id":"0a002e95-1365-42ab-a85c-98c672d46540","system_id":"levelo_inurba_marseille","lat":43.28616,"lon":5.35101,"is_reserved":false,"is_disabled":false,"rental_uris":{"android":"levelo://app?vid=0a002e95-1365-42ab-a85c-98c672d46540","ios":"levelo://app?vid=0a002e95-1365-42ab-a85c-98c672d46540"},"vehicle_type_id":"4","last_reported":1746652141,"current_range_meters":20800,"station_id":"ce4bhch2rcd13ifvqeug","pricing_plan_id":"cebpf4jnsgd1na2vs0mg"},{"bike_id":"9b794cee-d221-4142-a029-811c182b6756","system_id":"levelo_inurba_marseille","lat":43.31272,"lon":5.40175,"is_reserved":false,"is_disabled":false,"rental_uris":{"android":"levelo://app?vid=9b794cee-d221-4142-a029-811c182b6756","ios":"levelo://app?vid=9b794cee-d221-4142-a029-811c182b6756"},"vehicle_type_id":"4","last_reported":1746652141,"current_range_meters":20800,"station_id":"ce4bh092rcd13ifvqd30","pricing_plan_id":"cebpf4jnsgd1na2vs0mg"},{"bike_id":"c28324a9-bdbb-4e8c-9090-f05e4412b6f2","system_id":"levelo_inurba_marseille","lat":43.29256,"lon":5.38448,"is_reserved":false,"is_disabled":false,"rental_uris":{"android":"levelo://app?vid=c28324a9-bdbb-4e8c-9090-f05e4412b6f2","ios":"levelo://app?vid=c28324a9-bdbb-4e8c-9090-f05e4412b6f2"},"vehicle_type_id":"4","last_reported":1746652141,"current_range_meters":21600,"station_id":"ce4bh692rcd13ifvqea0","pricing_plan_id":"cebpf4jnsgd1na2vs0mg"},{"bike_id":"8e18e9e6-8ab0-4e6f-971a-14985fa5e4ba","system_id":"levelo_inurba_marseille","lat":43.269016,"lon":5.388537,"is_reserved":false,"is_disabled":false,"rental_uris":{"android":"levelo://app?vid=8e18e9e6-8ab0-4e6f-971a-14985fa5e4ba","ios":"levelo://app?vid=8e18e9e6-8ab0-4e6f-971a-14985fa5e4ba"},"vehicle_type_id":"4","last_reported":1746652141,"current_range_meters":21600,"station_id":"ce4bhhh2rcd13ifvqfl0","pricing_plan_id":"cebpf4jnsgd1na2vs0mg"},{"bike_id":"a4fd2ed9-1e46-4954-b85f-4eeae6b5a2c8","system_id":"levelo_inurba_marseille","lat":43.23151,"lon":5.43721,"is_reserved":false,"is_disabled":false,"rental_uris":{"android":"levelo://app?vid=a4fd2ed9-1e46-4954-b85f-4eeae6b5a2c8","ios":"levelo://app?vid=a4fd2ed9-1e46-4954-b85f-4eeae6b5a2c8"},"vehicle_type_id":"4","last_reported":1746652141,"current_range_meters":20800,"station_id":"ce4bhmp2rcd13ifvqgog","pricing_plan_id":"cebpf4jnsgd1na2vs0mg"},{"bike_id":"c821e32e-d925-441c-80d2-d5a984744aba","system_id":"levelo_inurba_marseille","lat":43.21207,"lon":5.35081,"is_reserved":false,"is_disabled":false,"rental_uris":{"android":"levelo://app?vid=c821e32e-d925-441c-80d2-d5a984744aba","ios":"levelo://app?vid=c821e32e-d925-441c-80d2-d5a984744aba"},"vehicle_type_id":"4","last_reported":1746652141,"current_range_meters":21600,"station_id":"st_cvj6sg6p6f1abm77japg","pricing_plan_id":"cebpf4jnsgd1na2vs0mg"},{"bike_id":"82b86ea7-e1b8-4f5a-ad95-98f75a17962e","system_id":"levelo_inurba_marseille","lat":43.27947,"lon":5.41037,"is_reserved":false,"is_disabled":false,"rental_uris":{"android":"levelo://app?vid=82b86ea7-e1b8-4f5a-ad95-98f75a17962e","ios":"levelo://app?vid=82b86ea7-e1b8-4f5a-ad95-98f75a17962e"},"vehicle_type_id":"4","last_reported":1746652141,"current_range_meters":21600,"station_id":"ce4bhnp2rcd13ifvqh0g","pricing_plan_id":"cebpf4jnsgd1na2vs0mg"},{"bike_id":"be1d0ae7-4314-43c3-b714-ea8634f964a2","system_id":"levelo_inurba_marseille","lat":43.31123,"lon":5.37753,"is_reserved":false,"is_disabled":false,"rental_uris":{"android":"levelo://app?vid=be1d0ae7-4314-43c3-b714-ea8634f964a2","ios":"levelo://app?vid=be1d0ae7-4314-43c3-b714-ea8634f964a2"},"vehicle_type_id":"4","last_reported":1746652141,"current_range_meters":21600,"station_id":"ce4bgt92rcd13ifvqcg0","pricing_plan_id":"cebpf4jnsgd1na2vs0mg"},{"bike_id":"f81b0430-13b1-48fb-b3f9-8c50c401243a","system_id":"levelo_inurba_marseille","lat":43.28851,"lon":5.39324,"is_reserved":false,"is_disabled":false,"rental_uris":{"android":"levelo://app?vid=f81b0430-13b1-48fb-b3f9-8c50c401243a","ios":"levelo://app?vid=f81b0430-13b1-48fb-b3f9-8c50c401243a"},"vehicle_type_id":"4","last_reported":1746652141,"current_range_meters":21600,"station_id":"ce4bh2p2rcd13ifvqdi0","pricing_plan_id":"cebpf4jnsgd1na2vs0mg"},{"bike_id":"30eae626-7d76-4916-92e3-8bf54ba3dd23","system_id":"levelo_inurba_marseille","lat":43.29262,"lon":5.384367,"is_reserved":false,"is_disabled":false,"rental_uris":{"android":"levelo://app?vid=30eae626-7d76-4916-92e3-8bf54ba3dd23","ios":"levelo://app?vid=30eae626-7d76-4916-92e3-8bf54ba3dd23"},"vehicle_type_id":"4","last_reported":1746652141,"current_range_meters":22000,"station_id":"ce4bh692rcd13ifvqea0","pricing_plan_id":"cebpf4jnsgd1na2vs0mg"},{"bike_id":"5f2f64f2-fc04-4543-b21b-53f74a82bad6","system_id":"levelo_inurba_marseille","lat":43.2481,"lon":5.37454,"is_reserved":false,"is_disabled":false,"rental_uris":{"android":"levelo://app?vid=5f2f64f2-fc04-4543-b21b-53f74a82bad6","ios":"levelo://app?vid=5f2f64f2-fc04-4543-b21b-53f74a82bad6"},"vehicle_type_id":"4","last_reported":1746652141,"current_range_meters":16800,"station_id":"ce4bhgh2rcd13ifvqfb0","pricing_plan_id":"cebpf4jnsgd1na2vs0mg"},{"bike_id":"e556bf27-ad79-4e67-af1e-301b2466c3ce","system_id":"levelo_inurba_marseille","lat":43.27915,"lon":5.3958,"is_reserved":false,"is_disabled":false,"rental_uris":{"android":"levelo://app?vid=e556bf27-ad79-4e67-af1e-301b2466c3ce","ios":"levelo://app?vid=e556bf27-ad79-4e67-af1e-301b2466c3ce"},"vehicle_type_id":"4","last_reported":1746652141,"current_range_meters":22000,"station_id":"ce4bhf92rcd13ifvqf40","pricing_plan_id":"cebpf4jnsgd1na2vs0mg"},