{"last_updated":1691953407,"ttl":30,"version":"2.2","data":{"bikes":[{"bike_id":"8df17b2d-c505-4e79-8d7f-289d6ada6718","system_id":"levelo_inurba_marseille","lat":43.31491,"lon":5.37302,"is_reserved":false,"is_disabled":false,"rental_uris":{"android":"levelo://app?vid=8df17b2d-c505-4e79-8d7f-289d6ada6718","ios":"levelo://app?vid=8df17b2d-c505-4e79-8d7f-289d6ada6718"},"vehicle_type_id":"4","last_reported":1691953407,"current_range_meters":14400,"station_id":"ce4bgt12rcd13ifvqcd0","pricing_plan_id":"free"},{"bike_id":"74c7a63f-c712-462a-8083-611eb6442fc0","system_id":"levelo_inurba_marseille","lat":43.314811,"lon":5.373103,"is_reserved":false,"is_disabled":false,"rental_uris":{"android":"levelo://app?vid=74c7a63f-c712-462a-8083-611eb6442fc0","ios":"levelo://app?vid=74c7a63f-c712-462a-8083-611eb6442fc0"},"vehicle_type_id":"4","last_reported":1691953407,"current_range_meters":28000,"station_id":"ce4bgt12rcd13ifvqcd0","pricing_plan_id":"free"},{"bike_id":"9c8fbaa8-8b8c-47a8-a98e-4c5ed1fc9fe6","system_id":"levelo_inurba_marseille","lat":43.314811,"lon":5.373103,"is_reserved":false,"is_disabled":false,"rental_uris":{"android":"levelo://app?vid=9c8fbaa8-8b8c-47a8-a98e-4c5ed1fc9fe6","ios":"levelo://app?vid=9c8fbaa8-8b8c-47a8-a98e-4c5ed1fc9fe6"},"vehicle_type_id":"4","last_reported":1691953407,"current_range_meters":10000,"station_id":"ce4bgt12rcd13ifvqcd0","pricing_plan_id":"free"},{"bike_id":"5c89f992-c2a3-442e-9635-551e0320564d","system_id":"levelo_inurba_marseille","lat":43.314811,"lon":5.373104,"is_reserved":false,"is_disabled":false,"rental_uris":{"android":"levelo://app?vid=5c89f992-c2a3-442e-9635-551e0320564d","ios":"levelo://app?vid=5c89f992-c2a3-442e-9635-551e0320564d"},"vehicle_type_id":"4","last_reported":1691953407,"current_range_meters":13600,"station_id":"ce4bgt12rcd13ifvqcd0","pricing_plan_id":"free"},{"bike_id":"8122a28f-d97c-4944-852f-ac7b5ea78bec","system_id":"levelo_inurba_marseille","lat":43.314811,"lon":5.373104,"is_reserved":false,"is_disabled":false,"rental_uris":{"android":"levelo://app?vid=8122a28f-d97c-4944-852f-ac7b5ea78bec","ios":"levelo://app?vid=8122a28f-d97c-4944-852f-ac7b5ea78bec"},"vehicle_type_id":"4","last_reported":1691953407,"current_range_meters":13200,"station_id":"ce4bgt12rcd13ifvqcd0","pricing_plan_id":"free"},{"bike_id":"001b1697-fd1d-4b18-b69a-7b8de9261abd","system_id":"levelo_inurba_marseille","lat":43.314811,"lon":5.373104,"is_reserved":false,"is_disabled":false,"rental_uris":{"android":"levelo://app?vid=001b1697-fd1d-4b18-b69a-7b8de9261abd","ios":"levelo://app?vid=001b1697-fd1d-4b18-b69a-7b8de9261abd"},"vehicle_type_id":"4","last_reported":1691953407,"current_range_meters":15200,"station_id":"ce4bgt12rcd13ifvqcd0","pricing_plan_id":"free"},{"bike_id":"f924de39-63ad-4964-a956-3a582a95590d","system_id":"levelo_inurba_marseille","lat":43.309039,"lon":5.371797,"is_reserved":false,"is_disabled":false,"rental_uris":{"android":"levelo://app?vid=f924de39-63ad-4964-a956-3a582a95590d","ios":"levelo://app?vid=f924de39-63ad-4964-a956-3a582a95590d"},"vehicle_type_id":"4","last_reported":1691953407,"current_range_meters":18800,"station_id":"ce4bguh2rcd13ifvqckg","pricing_plan_id":"free"},{"bike_id":"f028e6ca-67ae-492f-ae77-177d7724adcb","system_id":"levelo_inurba_marseille","lat":43.30542,"lon":5.36697,"is_reserved":false,"is_disabled":false,"rental_uris":{"android":"levelo://app?vid=f028e6ca-67ae-492f-ae77-177d7724adcb","ios":"levelo://app?vid=f028e6ca-67ae-492f-ae77-177d7724adcb"},"vehicle_type_id":"4","last_reported":1691953407,"current_range_meters":0,"station_id":"ce4bgrp2rcd13ifvqc9g","pricing_plan_id":"free"},{"bike_id":"3f0c3418-b0e9-4630-a481-885046e59c77","system_id":"levelo_inurba_marseille","lat":43.3053,"lon":5.36712,"is_reserved":false,"is_disabled":false,"rental_uris":{"android":"levelo://app?vid=3f0c3418-b0e9-4630-a481-885046e59c77","ios":"levelo://app?vid=3f0c3418-b0e9-4630-a481-885046e59c77"},"vehicle_type_id":"4","last_reported":1691953407,"current_range_meters":18800,"station_id":"ce4bgrp2rcd13ifvqc9g","pricing_plan_id":"free"},{"bike_id":"bc0597ae-1418-405d-8582-77cee8666b67","system_id":"levelo_inurba_marseille","lat":43.305989,"lon":5.37225,"is_reserved":false,"is_disabled":false,"rental_uris":{"android":"levelo://app?vid=bc0597ae-1418-405d-8582-77cee8666b67","ios":"levelo://app?vid=bc0597ae-1418-405d-8582-77cee8666b67"},"vehicle_type_id":"4","last_reported":1691953407,"current_range_meters":22800,"station_id":"ce4bgqh2rcd13ifvqc4g","pricing_plan_id":"free"},{"bike_id":"42ffcddf-de48-46c9-9902-697a59f5e3ff","system_id":"levelo_inurba_marseille","lat":43.305989,"lon":5.37225,"is_reserved":false,"is_disabled":false,"rental_uris":{"android":"levelo://app?vid=42ffcddf-de48-46c9-9902-697a59f5e3ff","ios":"levelo://app?vid=42ffcddf-de48-46c9-9902-697a59f5e3ff"},"vehicle_type_id":"4","last_reported":1691953407,"current_range_meters":7600,"station_id":"ce4bgqh2rcd13ifvqc4g","pricing_plan_id":"free"},{"bike_id":"4e76d482-df28-4b9d-8343-4929a1121fce","system_id":"levelo_inurba_marseille","lat":43.311131,"lon":5.377651,"is_reserved":false,"is_disabled":false,"rental_uris":{"android":"levelo://app?vid=4e76d482-df28-4b9d-8343-4929a1121fce","ios":"levelo://app?vid=4e76d482-df28-4b9d-8343-4929a1121fce"},"vehicle_type_id":"4","last_reported":1691953407,"current_range_meters":14000,"station_id":"ce4bgt92rcd13ifvqcg0","pricing_plan_id":"free"},{"bike_id":"61e778fd-587f-4154-bf46-8e05c41fd8e6","system_id":"levelo_inurba_marseille","lat":43.311131,"lon":5.377651,"is_reserved":false,"is_disabled":false,"rental_uris":{"android":"levelo://app?vid=61e778fd-587f-4154-bf46-8e05c41fd8e6","ios":"levelo://app?vid=61e778fd-587f-4154-bf46-8e05c41fd8e6"},"vehicle_type_id":"4","last_reported":1691953407,"current_range_meters":7600,"station_id":"ce4bgt92rcd13ifvqcg0","pricing_plan_id":"free"},{"bike_id":"0b41ddf6-1860-4525-bed0-452a903d3f7c","system_id":"levelo_inurba_marseille","lat":43.31922,"lon":5.37429,"is_reserved":false,"is_disabled":false,"rental_uris":{"android":"levelo://app?vid=0b41ddf6-1860-4525-bed0-452a903d3f7c","ios":"levelo://app?vid=0b41ddf6-1860-4525-bed0-452a903d3f7c"},"vehicle_type_id":"4","last_reported":1691953407,"current_range_meters":15200,"station_id":"","pricing_plan_id":"free"},{"bike_id":"82973fd6-508a-4044-87cc-b5ef16d37f43","system_id":"levelo_inurba_marseille","lat":43.317075,"lon":5.377367,"is_reserved":false,"is_disabled":false,"rental_uris":{"android":"levelo://app?vid=82973fd6-508a-4044-87cc-b5ef16d37f43","ios":"levelo://app?vid=82973fd6-508a-4044-87cc-b5ef16d37f43"},"vehicle_type_id":"4","last_reported":1691953407,"current_range_meters":28800,"station_id":"ce4bgth2rcd13ifvqch0","pricing_plan_id":"free"},{"bike_id":"de460d34-bb09-4664-b305-4061da085597","system_id":"levelo_inurba_marseille","lat":43.31891,"lon":5.37694,"is_reserved":false,"is_disabled":false,"rental_uris":{"android":"levelo://app?vid=de460d34-bb09-4664-b305-4061da085597","ios":"levelo://app?vid=de460d34-bb09-4664-b305-4061da085597"},"vehicle_type_id":"4","last_reported":1691953407,"current_range_meters":19600,"station_id":"","pricing_plan_id":"free"},{"bike_id":"7f60f6e3-83bd-45aa-9558-1b4c134d364d","system_id":"levelo_inurba_marseille","lat":43.30305,"lon":5.36893,"is_reserved":false,"is_disabled":false,"rental_uris":{"android":"levelo://app?vid=7f60f6e3-83bd-45aa-9558-1b4c134d364d","ios":"levelo://app?vid=7f60f6e3-83bd-45aa-9558-1b4c134d364d"},"vehicle_type_id":"4","last_reported":1691953407,"current_range_meters":25200,"station_id":"ce4bgqh2rcd13ifvqc5g","pricing_plan_id":"free"},{"bike_id":"4776d223-119d-4108-819f-9a9b949591b9","system_id":"levelo_inurba_marseille","lat":43.315293,"lon":5.380349,"is_reserved":false,"is_disabled":false,"rental_uris":{"android":"levelo://app?vid=4776d223-119d-4108-819f-9a9b949591b9","ios":"levelo://app?vid=4776d223-119d-4108-819f-9a9b949591b9"},"vehicle_type_id":"4","last_reported":1691953407,"current_range_meters":23200,"station_id":"ce4bhsp2rcd13ifvqi50","pricing_plan_id":"free"},{"bike_id":"e00290c8-1d56-4e61-b8dc-949a9f696918","system_id":"levelo_inurba_marseille","lat":43.315293,"lon":5.380349,"is_reserved":false,"is_disabled":false,"rental_uris":{"android":"levelo://app?vid=e00290c8-1d56-4e61-b8dc-949a9f696918","ios":"levelo://app?vid=e00290c8-1d56-4e61-b8dc-949a9f696918"},"vehicle_type_id":"4","last_reported":1691953407,"current_range_meters":4800,"station_id":"ce4bhsp2rcd13ifvqi50","pricing_plan_id":"free"},{"bike_id":"061c8d67-017d-436c-a69d-4739d7109d5f","system_id":"levelo_inurba_marseille","lat":43.31531,"lon":5.3802,"is_reserved":false,"is_disabled":false,"rental_uris":{"android":"levelo://app?vid=061c8d67-017d-436c-a69d-4739d7109d5f","ios":"levelo://app?vid=061c8d67-017d-436c-a69d-4739d7109d5f"},"vehicle_type_id":"4","last_reported":1691953407,"current_range_meters":11600,"station_id":"ce4bhsp2rcd13ifvqi50","pricing_plan_id":"free"},{"bike_id":"d625d531-5034-474b-abb4-6df6deb493be","system_id":"levelo_inurba_marseille","lat":43.315293,"lon":5.380349,"is_reserved":false,"is_disabled":false,"rental_uris":{"android":"levelo://app?vid=d625d531-5034-474b-abb4-6df6deb493be","ios":"levelo://app?vid=d625d531-5034-474b-abb4-6df6deb493be"},"vehicle_type_id":"4","last_reported":1691953407,"current_range_meters":15200,"station_id":"ce4bhsp2rcd13ifvqi50","pricing_plan_id":"free"},{"bike_id":"91a1afbf-ecd7-44d6-a6a6-d4716539f2f2","system_id":"levelo_inurba_marseille","lat":43.31541,"lon":5.38019,"is_reserved":false,"is_disabled":false,"rental_uris":{"android":"levelo://app?vid=91a1afbf-ecd7-44d6-a6a6-d4716539f2f2","ios":"levelo://app?vid=91a1afbf-ecd7-44d6-a6a6-d4716539f2f2"},"vehicle_type_id":"4","last_reported":1691953407,"current_range_meters":20800,"station_id":"ce4bhsp2rcd13ifvqi50","pricing_plan_id":"free"},{"bike_id":"1d4001ce-b10f-4932-8cf8-d78ab4da1b32","system_id":"levelo_inurba_marseille","lat":43.31537,"lon":5.38022,"is_reserved":false,"is_disabled":false,"rental_uris":{"android":"levelo://app?vid=1d4001ce-b10f-4932-8cf8-d78ab4da1b32","ios":"levelo://app?vid=1d4001ce-b10f-4932-8cf8-d78ab4da1b32"},"vehicle_type_id":"4","last_reported":1691953407,"current_range_meters":12800,"station_id":"ce4bhsp2rcd13ifvqi50","pricing_plan_id":"free"},{"bike_id":"6a0232fa-80b1-4833-b4f3-d079d6504d6f","system_id":"levelo_inurba_marseille","lat":43.315293,"lon":5.380349,"is_reserved":false,"is_disabled":false,"rental_uris":{"android":"levelo://app?vid=6a0232fa-80b1-4833-b4f3-d079d6504d6f","ios":"levelo://app?vid=6a0232fa-80b1-4833-b4f3-d079d6504d6f"},"vehicle_type_id":"4","last_reported":1691953407,"current_range_meters":26400,"station_id":"ce4bhsp2rcd13ifvqi50","pricing_plan_id":"free"},{"bike_id":"ee65936e-c51d-4ed8-bd5e-f57e6949ba5d","system_id":"levelo_inurba_marseille","lat":43.31541,"lon":5.38025,"is_reserved":false,"is_disabled":false,"rental_uris":{"android":"levelo://app?vid=ee65936e-c51d-4ed8-bd5e-f57e6949ba5d","ios":"levelo://app?vid=ee65936e-c51d-4ed8-bd5e-f57e6949ba5d"},"vehicle_type_id":"4","last_reported":1691953407,"current_range_meters":21600,"station_id":"ce4bhsp2rcd13ifvqi50","pricing_plan_id":"free"},{"bike_id":"b5698e6e-13cb-4874-a1f7-a559392d3af4","system_id":"levelo_inurba_marseille","lat":43.31534,"lon":5.3803,"is_reserved":false,"is_disabled":false,"rental_uris":{"android":"levelo://app?vid=b5698e6e-13cb-4874-a1f7-a559392d3af4","ios":"levelo://app?vid=b5698e6e-13cb-4874-a1f7-a559392d3af4"},"vehicle_type_id":"4","last_reported":1691953407,"current_range_meters":30400,"station_id":"ce4bhsp2rcd13ifvqi50","pricing_plan_id":"free"},{"bike_id":"8c12ea8d-a36f-4d35-b5a5-64cc158eff9f","system_id":"levelo_inurba_marseille","lat":43.31537,"lon":5.38033,"is_reserved":false,"is_disabled":false,"rental_uris":{"android":"levelo://app?vid=8c12ea8d-a36f-4d35-b5a5-64cc158eff9f","ios":"levelo://app?vid=8c12ea8d-a36f-4d35-b5a5-64cc158eff9f"},"vehicle_type_id":"4","last_reported":1691953407,"current_range_meters":6000,"station_id":"ce4bhsp2rcd13ifvqi50","pricing_plan_id":"free"},{"bike_id":"c163b105-b4a4-473e-bb90-f48cb22be2f6","system_id":"levelo_inurba_marseille","lat":43.30805,"lon":5.38152,"is_reserved":false,"is_disabled":false,"rental_uris":{"android":"levelo://app?vid=c163b105-b4a4-473e-bb90-f48cb22be2f6","ios":"levelo://app?vid=c163b105-b4a4-473e-bb90-f48cb22be2f6"},"vehicle_type_id":"4","last_reported":1691953407,"current_range_meters":1200,"station_id":"ce4bgt12rcd13ifvqce0","pricing_plan_id":"free"},{"bike_id":"d6abe195-9749-4b9b-a207-93e924cb3dce","system_id":"levelo_inurba_marseille","lat":43.30805,"lon":5.38155,"is_reserved":false,"is_disabled":false,"rental_uris":{"android":"levelo://app?vid=d6abe195-9749-4b9b-a207-93e924cb3dce","ios":"levelo://app?vid=d6abe195-9749-4b9b-a207-93e924cb3dce"},"vehicle_type_id":"4","last_reported":1691953407,"current_range_meters":14000,"station_id":"ce4bgt12rcd13ifvqce0","pricing_plan_id":"free"},{"bike_id":"a51701b1-0377-45ae-b5ab-887c96e12994","system_id":"levelo_inurba_marseille","lat":43.308012,"lon":5.381511,"is_reserved":false,"is_disabled":false,"rental_uris":{"android":"levelo://app?vid=a51701b1-0377-45ae-b5ab-887c96e12994","ios":"levelo://app?vid=a51701b1-0377-45ae-b5ab-887c96e12994"},"vehicle_type_id":"4","last_reported":1691953407,"current_range_meters":14000,"station_id":"ce4bgt12rcd13ifvqce0","pricing_plan_id":"free"},{"bike_id":"7f026629-2a43-4b82-a8a4-6816e8fd806d","system_id":"levelo_inurba_marseille","lat":43.30799,"lon":5.38164,"is_reserved":false,"is_disabled":false,"rental_uris":{"android":"levelo://app?vid=7f026629-2a43-4b82-a8a4-6816e8fd806d","ios":"levelo://app?vid=7f026629-2a43-4b82-a8a4-6816e8fd806d"},"vehicle_type_id":"4","last_reported":1691953407,"current_range_meters":18000,"station_id":"ce4bgt12rcd13ifvqce0","pricing_plan_id":"free"},{"bike_id":"45c2fa8e-1ebf-44d0-8b48-d41ac0aa909e","system_id":"levelo_inurba_marseille","lat":43.304606,"lon":5.379026,"is_reserved":false,"is_disabled":false,"rental_uris":{"android":"levelo://app?vid=45c2fa8e-1ebf-44d0-8b48-d41ac0aa909e","ios":"levelo://app?vid=45c2fa8e-1ebf-44d0-8b48-d41ac0aa909e"},"vehicle_type_id":"4","last_reported":1691953407,"current_range_meters":8800,"station_id":"ce4bgup2rcd13ifvqcn0","pricing_plan_id":"free"},{"bike_id":"51b4ee5b-0914-4232-b219-7ac97b04f408","system_id":"levelo_inurba_marseille","lat":43.302784,"lon":5.377158,"is_reserved":false,"is_disabled":false,"rental_uris":{"android":"levelo://app?vid=51b4ee5b-0914-4232-b219-7ac97b04f408","ios":"levelo://app?vid=51b4ee5b-0914-4232-b219-7ac97b04f408"},"vehicle_type_id":"4","last_reported":1691953407,"current_range_meters":22400,"station_id":"ce4bguh2rcd13ifvqcj0","pricing_plan_id":"free"},{"bike_id":"10ace6ff-ef76-4b4d-a04f-2ec52dd81c45","system_id":"levelo_inurba_marseille","lat":43.319935,"lon":5.381699,"is_reserved":false,"is_disabled":false,"rental_uris":{"android":"levelo://app?vid=10ace6ff-ef76-4b4d-a04f-2ec52dd81c45","ios":"levelo://app?vid=10ace6ff-ef76-4b4d-a04f-2ec52dd81c45"},"vehicle_type_id":"4","last_reported":1691953407,"current_range_meters":28000,"station_id":"ce4bhr12rcd13ifvqhpg","pricing_plan_id":"free"},{"bike_id":"8257b402-9e5d-4065-83c8-88f3934663dd","system_id":"levelo_inurba_marseille","lat":43.319935,"lon":5.381699,"is_reserved":false,"is_disabled":false,"rental_uris":{"android":"levelo://app?vid=8257b402-9e5d-4065-83c8-88f3934663dd","ios":"levelo://app?vid=8257b402-9e5d-4065-83c8-88f3934663dd"},"vehicle_type_id":"4","last_reported":1691953407,"current_range_meters":24400,"station_id":"ce4bhr12rcd13ifvqhpg","pricing_plan_id":"free"},{"bike_id":"6f8ef17a-7233-480b-bf5c-0670e618535f","system_id":"levelo_inurba_marseille","lat":43.319935,"lon":5.381699,"is_reserved":false,"is_disabled":false,"rental_uris":{"android":"levelo://app?vid=6f8ef17a-7233-480b-bf5c-0670e618535f","ios":"levelo://app?vid=6f8ef17a-7233-480b-bf5c-0670e618535f"},"vehicle_type_id":"4","last_reported":1691953407,"current_range_meters":30400,"station_id":"ce4bhr12rcd13ifvqhpg","pricing_plan_id":"free"},{"bike_id":"78abbae6-fb70-438b-804f-1c5ad07d176a","system_id":"levelo_inurba_marseille","lat":43.319935,"lon":5.381699,"is_reserved":false,"is_disabled":false,"rental_uris":{"android":"levelo://app?vid=78abbae6-fb70-438b-804f-1c5ad07d176a","ios":"levelo://app?vid=78abbae6-fb70-438b-804f-1c5ad07d176a"},"vehicle_type_id":"4","last_reported":1691953407,"current_range_meters":16000,"station_id":"ce4bhr12rcd13ifvqhpg","pricing_plan_id":"free"},{"bike_id":"c17c70c2-0b4d-4d13-87b6-0d4475584bb3","system_id":"levelo_inurba_marseille","lat":43.32003,"lon":5.38155,"is_reserved":false,"is_disabled":false,"rental_uris":{"android":"levelo://app?vid=c17c70c2-0b4d-4d13-87b6-0d4475584bb3","ios":"levelo://app?vid=c17c70c2-0b4d-4d13-87b6-0d4475584bb3"},"vehicle_type_id":"4","last_reported":1691953407,"current_range_meters":18000,"station_id":"ce4bhr12rcd13ifvqhpg","pricing_plan_id":"free"},{"bike_id":"18fb29cf-2ee5-4747-8b5d-5d8bb8dd9388","system_id":"levelo_inurba_marseille","lat":43.31998,"lon":5.38168,"is_reserved":false,"is_disabled":false,"rental_uris":{"android":"levelo://app?vid=18fb29cf-2ee5-4747-8b5d-5d8bb8dd9388","ios":"levelo://app?vid=18fb29cf-2ee5-4747-8b5d-5d8bb8dd9388"},"vehicle_type_id":"4","last_reported":1691953407,"current_range_meters":1200,"station_id":"ce4bhr12rcd13ifvqhpg","pricing_plan_id":"free"},{"bike_id":"e77f108f-718f-4b8d-a2a8-e2eeb04a3639","system_id":"levelo_inurba_marseille","lat":43.29971,"lon":5.37173,"is_reserved":false,"is_disabled":false,"rental_uris":{"android":"levelo://app?vid=e77f108f-718f-4b8d-a2a8-e2eeb04a3639","ios":"levelo://app?vid=e77f108f-718f-4b8d-a2a8-e2eeb04a3639"},"vehicle_type_id":"4","last_reported":1691953407,"current_range_meters":22000,"station_id":"ce4bgr92rcd13ifvqc7g","pricing_plan_id":"free"},{"bike_id":"d1e0d3f3-250d-417a-b1c8-bff24218df4c","system_id":"levelo_inurba_marseille","lat":43.29966,"lon":5.37174,"is_reserved":false,"is_disabled":false,"rental_uris":{"android":"levelo://app?vid=d1e0d3f3-250d-417a-b1c8-bff24218df4c","ios":"levelo://app?vid=d1e0d3f3-250d-417a-b1c8-bff24218df4c"},"vehicle_type_id":"4","last_reported":1691953407,"current_range_meters":9600,"station_id":"ce4bgr92rcd13ifvqc7g","pricing_plan_id":"free"},{"bike_id":"3699b861-f8f5-4ac2-a895-b45937d1551f","system_id":"levelo_inurba_marseille","lat":43.305364,"lon":5.384119,"is_reserved":false,"is_disabled":false,"rental_uris":{"android":"levelo://app?vid=3699b861-f8f5-4ac2-a895-b45937d1551f","ios":"levelo://app?vid=3699b861-f8f5-4ac2-a895-b45937d1551f"},"vehicle_type_id":"4","last_reported":1691953407,"current_range_meters":18000,"station_id":"ce4bgg92rcd13ifvqb30","pricing_plan_id":"free"},{"bike_id":"3f717c95-35c0-4480-bf0e-7626f0c8340a","system_id":"levelo_inurba_marseille","lat":43.311722,"lon":5.387247,"is_reserved":false,"is_disabled":false,"rental_uris":{"android":"levelo://app?vid=3f717c95-35c0-4480-bf0e-7626f0c8340a","ios":"levelo://app?vid=3f717c95-35c0-4480-bf0e-7626f0c8340a"},"vehicle_type_id":"4","last_reported":1691953407,"current_range_meters":18800,"station_id":"ce4bgv12rcd13ifvqcp0","pricing_plan_id":"free"},{"bike_id":"2fbab84b-a001-4e06-ab3a-7a9b8f76e6f3","system_id":"levelo_inurba_marseille","lat":43.305364,"lon":5.384119,"is_reserved":false,"is_disabled":false,"rental_uris":{"android":"levelo://app?vid=2fbab84b-a001-4e06-ab3a-7a9b8f76e6f3","ios":"levelo://app?vid=2fbab84b-a001-4e06-ab3a-7a9b8f76e6f3"},"vehicle_type_id":"4","last_reported":1691953407,"current_range_meters":5200,"station_id":"ce4bgg92rcd13ifvqb30","pricing_plan_id":"free"},{"bike_id":"8f7dd28f-c4d5-4ab3-a77c-a7541e9eda04","system_id":"levelo_inurba_marseille","lat":43.299243,"lon":5.37481,"is_reserved":false,"is_disabled":false,"rental_uris":{"android":"levelo://app?vid=8f7dd28f-c4d5-4ab3-a77c-a7541e9eda04","ios":"levelo://app?vid=8f7dd28f-c4d5-4ab3-a77c-a7541e9eda04"},"vehicle_type_id":"4","last_reported":1691953407,"current_range_meters":23600,"station_id":"ce4bgjh2rcd13ifvqbg0","pricing_plan_id":"free"},{"bike_id":"094b494f-38b2-4b2a-94cb-10275f4e9620","system_id":"levelo_inurba_marseille","lat":43.311722,"lon":5.387247,"is_reserved":false,"is_disabled":false,"rental_uris":{"android":"levelo://app?vid=094b494f-38b2-4b2a-94cb-10275f4e9620","ios":"levelo://app?vid=094b494f-38b2-4b2a-94cb-10275f4e9620"},"vehicle_type_id":"4","last_reported":1691953407,"current_range_meters":6800,"station_id":"ce4bgv12rcd13ifvqcp0","pricing_plan_id":"free"},{"bike_id":"bdfff0da-7dd8-4fa9-8b1c-25c6c17ead0c","system_id":"levelo_inurba_marseille","lat":43.297774,"lon":5.370875,"is_reserved":false,"is_disabled":false,"rental_uris":{"android":"levelo://app?vid=bdfff0da-7dd8-4fa9-8b1c-25c6c17ead0c","ios":"levelo://app?vid=bdfff0da-7dd8-4fa9-8b1c-25c6c17ead0c"},"vehicle_type_id":"4","last_reported":1691953407,"current_range_meters":0,"station_id":"ce4bgop2rcd13ifvqc1g","pricing_plan_id":"free"},{"bike_id":"2e341b8a-19ca-467a-9062-4e524deac17d","system_id":"levelo_inurba_marseille","lat":43.32288,"lon":5.38254,"is_reserved":false,"is_disabled":false,"rental_uris":{"android":"levelo://app?vid=2e341b8a-19ca-467a-9062-4e524deac17d","ios":"levelo://app?vid=2e341b8a-19ca-467a-9062-4e524deac17d"},"vehicle_type_id":"4","last_reported":1691953407,"current_range_meters":22400,"station_id":"ce4bhr12rcd13ifvqhqg","pricing_plan_id":"free"},{"bike_id":"daf1c66e-67e4-446b-ab69-51ad2a5f2181","system_id":"levelo_inurba_marseille","lat":43.322872,"lon":5.382756,"is_reserved":false,"is_disabled":false,"rental_uris":{"android":"levelo://app?vid=daf1c66e-67e4-446b-ab69-51ad2a5f2181","ios":"levelo://app?vid=daf1c66e-67e4-446b-ab69-51ad2a5f2181"},"vehicle_type_id":"4","last_reported":1691953407,"current_range_meters":21200,"station_id":"ce4bhr12rcd13ifvqhqg","pricing_plan_id":"free"},{"bike_id":"34544adb-53d3-44b1-86f1-bb8bc7dbf546","system_id":"levelo_inurba_marseille","lat":43.32288,"lon":5.38258,"is_reserved":false,"is_disabled":false,"rental_uris":{"android":"levelo://app?vid=34544adb-53d3-44b1-86f1-bb8bc7dbf546","ios":"levelo://app?vid=34544adb-53d3-44b1-86f1-bb8bc7dbf546"},"vehicle_type_id":"4","last_reported":1691953407,"current_range_meters":19200,"station_id":"ce4bhr12rcd13ifvqhqg","pricing_plan_id":"free"},{"bike_id":"026ee3db-f828-4ad6-9e78-43e60a812318","system_id":"levelo_inurba_marseille","lat":43.32286,"lon":5.38265,"is_reserved":false,"is_disabled":false,"rental_uris":{"android":"levelo://app?vid=026ee3db-f828-4ad6-9e78-43e60a812318","ios":"levelo://app?vid=026ee3db-f828-4ad6-9e78-43e60a812318"},"vehicle_type_id":"4","last_reported":1691953407,"current_range_meters":14800,"station_id":"ce4bhr12rcd13ifvqhqg","pricing_plan_id":"free"},{"bike_id":"de7e422c-72cd-43c3-8ab6-3bd536fd8669","system_id":"levelo_inurba_marseille","lat":43.32293,"lon":5.38258,"is_reserved":false,"is_disabled":false,"rental_uris":{"android":"levelo://app?vid=de7e422c-72cd-43c3-8ab6-3bd536fd8669","ios":"levelo://app?vid=de7e422c-72cd-43c3-8ab6-3bd536fd8669"},"vehicle_type_id":"4","last_reported":1691953407,"current_range_meters":26400,"station_id":"ce4bhr12rcd13ifvqhqg","pricing_plan_id":"free"},{"bike_id":"d3042d76-ddde-40f9-a1f8-5dfd6f7a0500","system_id":"levelo_inurba_marseille","lat":43.322872,"lon":5.382756,"is_reserved":false,"is_disabled":false,"rental_uris":{"android":"levelo://app?vid=d3042d76-ddde-40f9-a1f8-5dfd6f7a0500","ios":"levelo://app?vid=d3042d76-ddde-40f9-a1f8-5dfd6f7a0500"},"vehicle_type_id":"4","last_reported":1691953407,"current_range_meters":15200,"station_id":"ce4bhr12rcd13ifvqhqg","pricing_plan_id":"free"},{"bike_id":"3d75ec31-9bc5-447c-81ba-d21539df621f","system_id":"levelo_inurba_marseille","lat":43.3229,"lon":5.38269,"is_reserved":false,"is_disabled":false,"rental_uris":{"android":"levelo://app?vid=3d75ec31-9bc5-447c-81ba-d21539df621f","ios":"levelo://app?vid=3d75ec31-9bc5-447c-81ba-d21539df621f"},"vehicle_type_id":"4","last_reported":1691953407,"current_range_meters":4000,"station_id":"ce4bhr12rcd13ifvqhqg","pricing_plan_id":"free"},{"bike_id":"2a877c10-47b3-4336-884b-4186f2d4f096","system_id":"levelo_inurba_marseille","lat":43.32293,"lon":5.38266,"is_reserved":false,"is_disabled":false,"rental_uris":{"android":"levelo://app?vid=2a877c10-47b3-4336-884b-4186f2d4f096","ios":"levelo://app?vid=2a877c10-47b3-4336-884b-4186f2d4f096"},"vehicle_type_id":"4","last_reported":1691953407,"current_range_meters":8000,"station_id":"ce4bhr12rcd13ifvqhqg","pricing_plan_id":"free"},{"bike_id":"ccde4fab-a619-4b85-80d1-631ae22c1186","system_id":"levelo_inurba_marseille","lat":43.32285,"lon":5.38276,"is_reserved":false,"is_disabled":false,"rental_uris":{"android":"levelo://app?vid=ccde4fab-a619-4b85-80d1-631ae22c1186","ios":"levelo://app?vid=ccde4fab-a619-4b85-80d1-631ae22c1186"},"vehicle_type_id":"4","last_reported":1691953407,"current_range_meters":13600,"station_id":"ce4bhr12rcd13ifvqhqg","pricing_plan_id":"free"},{"bike_id":"cd57bb78-e25a-4f76-8e50-c045c4859149","system_id":"levelo_inurba_marseille","lat":43.328371,"lon":5.366909,"is_reserved":false,"is_disabled":false,"rental_uris":{"android":"levelo://app?vid=cd57bb78-e25a-4f76-8e50-c045c4859149","ios":"levelo://app?vid=cd57bb78-e25a-4f76-8e50-c045c4859149"},"vehicle_type_id":"4","last_reported":1691953407,"current_range_meters":7600,"station_id":"ce4bhs92rcd13ifvqi0g","pricing_plan_id":"free"},{"bike_id":"53943a50-8d69-4b20-b459-cf6b8dbe01ba","system_id":"levelo_inurba_marseille","lat":43.328371,"lon":5.366909,"is_reserved":false,"is_disabled":false,"rental_uris":{"android":"levelo://app?vid=53943a50-8d69-4b20-b459-cf6b8dbe01ba","ios":"levelo://app?vid=53943a50-8d69-4b20-b459-cf6b8dbe01ba"},"vehicle_type_id":"4","last_reported":1691953407,"current_range_meters":0,"station_id":"ce4bhs92rcd13ifvqi0g","pricing_plan_id":"free"},{"bike_id":"2ca54b04-9f0c-4023-85d1-804237d3eb57","system_id":"levelo_inurba_marseille","lat":43.297163,"lon":5.365866,"is_reserved":false,"is_disabled":false,"rental_uris":{"android":"levelo://app?vid=2ca54b04-9f0c-4023-85d1-804237d3eb57","ios":"levelo://app?vid=2ca54b04-9f0c-4023-85d1-804237d3eb57"},"vehicle_type_id":"4","last_reported":1691953407,"current_range_meters":20000,"station_id":"ce4bgn12rcd13ifvqbt0","pricing_plan_id":"free"},{"bike_id":"dd789220-e7b5-42c1-b9dc-dc4243148021","system_id":"levelo_inurba_marseille","lat":43.297163,"lon":5.365866,"is_reserved":false,"is_disabled":false,"rental_uris":{"android":"levelo://app?vid=dd789220-e7b5-42c1-b9dc-dc4243148021","ios":"levelo://app?vid=dd789220-e7b5-42c1-b9dc-dc4243148021"},"vehicle_type_id":"4","last_reported":1691953407,"current_range_meters":31200,"station_id":"ce4bgn12rcd13ifvqbt0","pricing_plan_id":"free"},{"bike_id":"b32e051d-cee0-49e0-bf68-4ca28c3ad4de","system_id":"levelo_inurba_marseille","lat":43.299028,"lon":5.381509,"is_reserved":false,"is_disabled":false,"rental_uris":{"android":"levelo://app?vid=b32e051d-cee0-49e0-bf68-4ca28c3ad4de","ios":"levelo://app?vid=b32e051d-cee0-49e0-bf68-4ca28c3ad4de"},"vehicle_type_id":"4","last_reported":1691953407,"current_range_meters":0,"station_id":"ce4bgj12rcd13ifvqbc0","pricing_plan_id":"free"},{"bike_id":"3ff5ce40-2ba6-4360-833a-7fcb8719d966","system_id":"levelo_inurba_marseille","lat":43.299028,"lon":5.381509,"is_reserved":false,"is_disabled":false,"rental_uris":{"android":"levelo://app?vid=3ff5ce40-2ba6-4360-833a-7fcb8719d966","ios":"levelo://app?vid=3ff5ce40-2ba6-4360-833a-7fcb8719d966"},"vehicle_type_id":"4","last_reported":1691953407,"current_range_meters":3200,"station_id":"ce4bgj12rcd13ifvqbc0","pricing_plan_id":"free"},{"bike_id":"ec9cd2b4-49fe-4bcb-a784-50ac3d2434e7","system_id":"levelo_inurba_marseille","lat":43.299028,"lon":5.381509,"is_reserved":false,"is_disabled":false,"rental_uris":{"android":"levelo://app?vid=ec9cd2b4-49fe-4bcb-a784-50ac3d2434e7","ios":"levelo://app?vid=ec9cd2b4-49fe-4bcb-a784-50ac3d2434e7"},"vehicle_type_id":"4","last_reported":1691953407,"current_range_meters":23600,"station_id":"ce4bgj12rcd13ifvqbc0","pricing_plan_id":"free"},{"bike_id":"9d35a95c-72d9-4318-aca6-fb6f2da0b0ba","system_id":"levelo_inurba_marseille","lat":43.299028,"lon":5.381509,"is_reserved":false,"is_disabled":false,"rental_uris":{"android":"levelo://app?vid=9d35a95c-72d9-4318-aca6-fb6f2da0b0ba","ios":"levelo://app?vid=9d35a95c-72d9-4318-aca6-fb6f2da0b0ba"},"vehicle_type_id":"4","last_reported":1691953407,"current_range_meters":5200,"station_id":"ce4bgj12rcd13ifvqbc0","pricing_plan_id":"free"},{"bike_id":"a3147d59-f7ca-4f81-95d5-13e68e337abb","system_id":"levelo_inurba_marseille","lat":43.309589,"lon":5.390258,"is_reserved":false,"is_disabled":false,"rental_uris":{"android":"levelo://app?vid=a3147d59-f7ca-4f81-95d5-13e68e337abb","ios":"levelo://app?vid=a3147d59-f7ca-4f81-95d5-13e68e337abb"},"vehicle_type_id":"4","last_reported":1691953407,"current_range_meters":11200,"station_id":"ce4bgup2rcd13ifvqco0","pricing_plan_id":"free"},{"bike_id":"231e4dc5-70c0-4cfd-843f-35d7d6030817","system_id":"levelo_inurba_marseille","lat":43.299028,"lon":5.381509,"is_reserved":false,"is_disabled":false,"rental_uris":{"android":"levelo://app?vid=231e4dc5-70c0-4cfd-843f-35d7d6030817","ios":"levelo://app?vid=231e4dc5-70c0-4cfd-843f-35d7d6030817"},"vehicle_type_id":"4","last_reported":1691953407,"current_range_meters":1600,"station_id":"ce4bgj12rcd13ifvqbc0","pricing_plan_id":"free"},{"bike_id":"b6d14b97-0967-4ae8-a8fd-6bf1f04329bf","system_id":"levelo_inurba_marseille","lat":43.309589,"lon":5.390258,"is_reserved":false,"is_disabled":false,"rental_uris":{"android":"levelo://app?vid=b6d14b97-0967-4ae8-a8fd-6bf1f04329bf","ios":"levelo://app?vid=b6d14b97-0967-4ae8-a8fd-6bf1f04329bf"},"vehicle_type_id":"4","last_reported":1691953407,"current_range_meters":29600,"station_id":"ce4bgup2rcd13ifvqco0","pricing_plan_id":"free"},{"bike_id":"4808673f-0b22-4417-ad76-85ef7621a609","system_id":"levelo_inurba_marseille","lat":43.309589,"lon":5.390258,"is_reserved":false,"is_disabled":false,"rental_uris":{"android":"levelo://app?vid=4808673f-0b22-4417-ad76-85ef7621a609","ios":"levelo://app?vid=4808673f-0b22-4417-ad76-85ef7621a609"},"vehicle_type_id":"4","last_reported":1691953407,"current_range_meters":26400,"station_id":"ce4bgup2rcd13ifvqco0","pricing_plan_id":"free"},{"bike_id":"cba627b2-2b84-4350-bc1e-cdf542972d0d","system_id":"levelo_inurba_marseille","lat":43.309589,"lon":5.390258,"is_reserved":false,"is_disabled":false,"rental_uris":{"android":"levelo://app?vid=cba627b2-2b84-4350-bc1e-cdf542972d0d","ios":"levelo://app?vid=cba627b2-2b84-4350-bc1e-cdf542972d0d"},"vehicle_type_id":"4","last_reported":1691953407,"current_range_meters":31200,"station_id":"ce4bgup2rcd13ifvqco0","pricing_plan_id":"free"},{"bike_id":"dfe40a5e-1838-4ea0-a555-e3b4f2fd0905","system_id":"levelo_inurba_marseille","lat":43.309589,"lon":5.390258,"is_reserved":false,"is_disabled":false,"rental_uris":{"android":"levelo://app?vid=dfe40a5e-1838-4ea0-a555-e3b4f2fd0905","ios":"levelo://app?vid=dfe40a5e-1838-4ea0-a555-e3b4f2fd0905"},"vehicle_type_id":"4","last_reported":1691953407,"current_range_meters":19200,"station_id":"ce4bgup2rcd13ifvqco0","pricing_plan_id":"free"},{"bike_id":"b8a4b0ae-3f5a-4798-a621-7e4b4346774d","system_id":"levelo_inurba_marseille","lat":43.309589,"lon":5.390258,"is_reserved":false,"is_disabled":false,"rental_uris":{"android":"levelo://app?vid=b8a4b0ae-3f5a-4798-a621-7e4b4346774d","ios":"levelo://app?vid=b8a4b0ae-3f5a-4798-a621-7e4b4346774d"},"vehicle_type_id":"4","last_reported":1691953407,"current_range_meters":6000,"station_id":"ce4bgup2rcd13ifvqco0","pricing_plan_id":"free"},{"bike_id":"937e0da5-5ccd-4c81-b3e9-141c062b145b","system_id":"levelo_inurba_marseille","lat":43.31762,"lon":5.39005,"is_reserved":false,"is_disabled":false,"rental_uris":{"android":"levelo://app?vid=937e0da5-5ccd-4c81-b3e9-141c062b145b","ios":"levelo://app?vid=937e0da5-5ccd-4c81-b3e9-141c062b145b"},"vehicle_type_id":"4","last_reported":1691953407,"current_range_meters":2000,"station_id":"","pricing_plan_id":"free"},{"bike_id":"017ed09b-7e6c-410a-b0bd-ab3c482abd60","system_id":"levelo_inurba_marseille","lat":43.317557,"lon":5.390173,"is_reserved":false,"is_disabled":false,"rental_uris":{"android":"levelo://app?vid=017ed09b-7e6c-410a-b0bd-ab3c482abd60","ios":"levelo://app?vid=017ed09b-7e6c-410a-b0bd-ab3c482abd60"},"vehicle_type_id":"4","last_reported":1691953407,"current_range_meters":29200,"station_id":"ce4bhqp2rcd13ifvqhng","pricing_plan_id":"free"},{"bike_id":"94300d13-627d-40bc-a5c5-c1ea69f104e0","system_id":"levelo_inurba_marseille","lat":43.2958,"lon":5.37354,"is_reserved":false,"is_disabled":false,"rental_uris":{"android":"levelo://app?vid=94300d13-627d-40bc-a5c5-c1ea69f104e0","ios":"levelo://app?vid=94300d13-627d-40bc-a5c5-c1ea69f104e0"},"vehicle_type_id":"4","last_reported":1691953407,"current_range_meters":24000,"station_id":"","pricing_plan_id":"free"},{"bike_id":"5d67176e-bfe4-4492-b9ad-4d2e05bbd9e9","system_id":"levelo_inurba_marseille","lat":43.299028,"lon":5.381509,"is_reserved":false,"is_disabled":false,"rental_uris":{"android":"levelo://app?vid=5d67176e-bfe4-4492-b9ad-4d2e05bbd9e9","ios":"levelo://app?vid=5d67176e-bfe4-4492-b9ad-4d2e05bbd9e9"},"vehicle_type_id":"4","last_reported":1691953407,"current_range_meters":6800,"station_id":"ce4bgj12rcd13ifvqbc0","pricing_plan_id":"free"},{"bike_id":"bc2ce8db-5e81-49fe-b771-d1aea44acf0e","system_id":"levelo_inurba_marseille","lat":43.29798,"lon":5.38081,"is_reserved":false,"is_disabled":false,"rental_uris":{"android":"levelo://app?vid=bc2ce8db-5e81-49fe-b771-d1aea44acf0e","ios":"levelo://app?vid=bc2ce8db-5e81-49fe-b771-d1aea44acf0e"},"vehicle_type_id":"4","last_reported":1691953407,"current_range_meters":19600,"station_id":"ce4bgip2rcd13ifvqbb0","pricing_plan_id":"free"},{"bike_id":"a4df99ce-0488-49dd-a888-94686f562e88","system_id":"levelo_inurba_marseille","lat":43.295748,"lon":5.37522,"is_reserved":false,"is_disabled":false,"rental_uris":{"android":"levelo://app?vid=a4df99ce-0488-49dd-a888-94686f562e88","ios":"levelo://app?vid=a4df99ce-0488-49dd-a888-94686f562e88"},"vehicle_type_id":"4","last_reported":1691953407,"current_range_meters":28000,"station_id":"ce4bgh92rcd13ifvqb50","pricing_plan_id":"free"},{"bike_id":"887219dc-b185-4a00-9619-a34018f7b6b6","system_id":"levelo_inurba_marseille","lat":43.296263,"lon":5.377094,"is_reserved":false,"is_disabled":false,"rental_uris":{"android":"levelo://app?vid=887219dc-b185-4a00-9619-a34018f7b6b6","ios":"levelo://app?vid=887219dc-b185-4a00-9619-a34018f7b6b6"},"vehicle_type_id":"4","last_reported":1691953407,"current_range_meters":0,"station_id":"ce4bgi92rcd13ifvqb90","pricing_plan_id":"free"},{"bike_id":"d659969f-c17e-417c-aec7-80be38b7da8c","system_id":"levelo_inurba_marseille","lat":43.29778,"lon":5.38144,"is_reserved":false,"is_disabled":false,"rental_uris":{"android":"levelo://app?vid=d659969f-c17e-417c-aec7-80be38b7da8c","ios":"levelo://app?vid=d659969f-c17e-417c-aec7-80be38b7da8c"},"vehicle_type_id":"4","last_reported":1691953407,"current_range_meters":4000,"station_id":"","pricing_plan_id":"free"},{"bike_id":"c768d1a6-f623-45ed-a1e1-e4a1b3420036","system_id":"levelo_inurba_marseille","lat":43.299707,"lon":5.384859,"is_reserved":false,"is_disabled":false,"rental_uris":{"android":"levelo://app?vid=c768d1a6-f623-45ed-a1e1-e4a1b3420036","ios":"levelo://app?vid=c768d1a6-f623-45ed-a1e1-e4a1b3420036"},"vehicle_type_id":"4","last_reported":1691953407,"current_range_meters":21600,"station_id":"ce4bgj92rcd13ifvqbd0","pricing_plan_id":"free"},{"bike_id":"4b9a2329-b149-451d-8b98-935bddf3092e","system_id":"levelo_inurba_marseille","lat":43.299707,"lon":5.384859,"is_reserved":false,"is_disabled":false,"rental_uris":{"android":"levelo://app?vid=4b9a2329-b149-451d-8b98-935bddf3092e","ios":"levelo://app?vid=4b9a2329-b149-451d-8b98-935bddf3092e"},"vehicle_type_id":"4","last_reported":1691953407,"current_range_meters":15200,"station_id":"ce4bgj92rcd13ifvqbd0","pricing_plan_id":"free"},{"bike_id":"8e4b94e9-ef5a-4fa8-8baa-05546714f60a","system_id":"levelo_inurba_marseille","lat":43.29541,"lon":5.37556,"is_reserved":false,"is_disabled":false,"rental_uris":{"android":"levelo://app?vid=8e4b94e9-ef5a-4fa8-8baa-05546714f60a","ios":"levelo://app?vid=8e4b94e9-ef5a-4fa8-8baa-05546714f60a"},"vehicle_type_id":"4","last_reported":1691953407,"current_range_meters":2400,"station_id":"ce4bgkp2rcd13ifvqbmg","pricing_plan_id":"free"},{"bike_id":"d3ce10b3-b76a-4c78-9837-d97c684cf265","system_id":"levelo_inurba_marseille","lat":43.32366,"lon":5.38876,"is_reserved":false,"is_disabled":false,"rental_uris":{"android":"levelo://app?vid=d3ce10b3-b76a-4c78-9837-d97c684cf265","ios":"levelo://app?vid=d3ce10b3-b76a-4c78-9837-d97c684cf265"},"vehicle_type_id":"4","last_reported":1691953407,"current_range_meters":29600,"station_id":"ce4bhqp2rcd13ifvqhog","pricing_plan_id":"free"},{"bike_id":"3bd7a96a-4b01-442f-89a9-23daa6688275","system_id":"levelo_inurba_marseille","lat":43.3237,"lon":5.38882,"is_reserved":false,"is_disabled":false,"rental_uris":{"android":"levelo://app?vid=3bd7a96a-4b01-442f-89a9-23daa6688275","ios":"levelo://app?vid=3bd7a96a-4b01-442f-89a9-23daa6688275"},"vehicle_type_id":"4","last_reported":1691953407,"current_range_meters":16800,"station_id":"ce4bhqp2rcd13ifvqhog","pricing_plan_id":"free"},{"bike_id":"203c1b7c-8d8b-4a8a-a41d-aff72e47075f","system_id":"levelo_inurba_marseille","lat":43.29602,"lon":5.381084,"is_reserved":false,"is_disabled":false,"rental_uris":{"android":"levelo://app?vid=203c1b7c-8d8b-4a8a-a41d-aff72e47075f","ios":"levelo://app?vid=203c1b7c-8d8b-4a8a-a41d-aff72e47075f"},"vehicle_type_id":"4","last_reported":1691953407,"current_range_meters":8800,"station_id":"ce4bgl12rcd13ifvqbo0","pricing_plan_id":"free"},{"bike_id":"1fa9ce62-deda-42c2-8ea0-67218885c57b","system_id":"levelo_inurba_marseille","lat":43.29602,"lon":5.381084,"is_reserved":false,"is_disabled":false,"rental_uris":{"android":"levelo://app?vid=1fa9ce62-deda-42c2-8ea0-67218885c57b","ios":"levelo://app?vid=1fa9ce62-deda-42c2-8ea0-67218885c57b"},"vehicle_type_id":"4","last_reported":1691953407,"current_range_meters":25600,"station_id":"ce4bgl12rcd13ifvqbo0","pricing_plan_id":"free"},{"bike_id":"84026bcd-ac05-4d4e-8645-d9fd37ed0813","system_id":"levelo_inurba_marseille","lat":43.29602,"lon":5.381084,"is_reserved":false,"is_disabled":false,"rental_uris":{"android":"levelo://app?vid=84026bcd-ac05-4d4e-8645-d9fd37ed0813","ios":"levelo://app?vid=84026bcd-ac05-4d4e-8645-d9fd37ed0813"},"vehicle_type_id":"4","last_reported":1691953407,"current_range_meters":3600,"station_id":"ce4bgl12rcd13ifvqbo0","pricing_plan_id":"free"},{"bike_id":"c54a2721-2b7f-4b8f-8306-206920a07a85","system_id":"levelo_inurba_marseille","lat":43.29602,"lon":5.381084,"is_reserved":false,"is_disabled":false,"rental_uris":{"android":"levelo://app?vid=c54a2721-2b7f-4b8f-8306-206920a07a85","ios":"levelo://app?vid=c54a2721-2b7f-4b8f-8306-206920a07a85"},"vehicle_type_id":"4","last_reported":1691953407,"current_range_meters":800,"station_id":"ce4bgl12rcd13ifvqbo0","pricing_plan_id":"free"},{"bike_id":"4f663c8c-4d38-440d-a159-6d779bd7910e","system_id":"levelo_inurba_marseille","lat":43.29602,"lon":5.381084,"is_reserved":false,"is_disabled":false,"rental_uris":{"android":"levelo://app?vid=4f663c8c-4d38-440d-a159-6d779bd7910e","ios":"levelo://app?vid=4f663c8c-4d38-440d-a159-6d779bd7910e"},"vehicle_type_id":"4","last_reported":1691953407,"current_range_meters":23600,"station_id":"ce4bgl12rcd13ifvqbo0","pricing_plan_id":"free"},{"bike_id":"f3e7ca8e-52d4-49e6-99e9-61aa24d47577","system_id":"levelo_inurba_marseille","lat":43.29602,"lon":5.381084,"is_reserved":false,"is_disabled":false,"rental_uris":{"android":"levelo://app?vid=f3e7ca8e-52d4-49e6-99e9-61aa24d47577","ios":"levelo://app?vid=f3e7ca8e-52d4-49e6-99e9-61aa24d47577"},"vehicle_type_id":"4","last_reported":1691953407,"current_range_meters":13200,"station_id":"ce4bgl12rcd13ifvqbo0","pricing_plan_id":"free"},{"bike_id":"714239f3-170e-42b4-89fa-e3f98c33acb3","system_id":"levelo_inurba_marseille","lat":43.29282,"lon":5.36841,"is_reserved":false,"is_disabled":false,"rental_uris":{"android":"levelo://app?vid=714239f3-170e-42b4-89fa-e3f98c33acb3","ios":"levelo://app?vid=714239f3-170e-42b4-89fa-e3f98c33acb3"},"vehicle_type_id":"4","last_reported":1691953407,"current_range_meters":16000,"station_id":"","pricing_plan_id":"free"},{"bike_id":"dbe406a0-e31d-4174-932b-0d8d584d17c2","system_id":"levelo_inurba_marseille","lat":43.292749,"lon":5.368398,"is_reserved":false,"is_disabled":false,"rental_uris":{"android":"levelo://app?vid=dbe406a0-e31d-4174-932b-0d8d584d17c2","ios":"levelo://app?vid=dbe406a0-e31d-4174-932b-0d8d584d17c2"},"vehicle_type_id":"4","last_reported":1691953407,"current_range_meters":30400,"station_id":"ce4bhbp2rcd13ifvqesg","pricing_plan_id":"free"},{"bike_id":"5342c457-3717-468e-926a-d7fb38299acf","system_id":"levelo_inurba_marseille","lat":43.292749,"lon":5.368402,"is_reserved":false,"is_disabled":false,"rental_uris":{"android":"levelo://app?vid=5342c457-3717-468e-926a-d7fb38299acf","ios":"levelo://app?vid=5342c457-3717-468e-926a-d7fb38299acf"},"vehicle_type_id":"4","last_reported":1691953407,"current_range_meters":0,"station_id":"ce4bhbp2rcd13ifvqesg","pricing_plan_id":"free"},{"bike_id":"30b75f38-6149-41d7-8581-cee7f7a7dd05","system_id":"levelo_inurba_marseille","lat":43.305994,"lon":5.393687,"is_reserved":false,"is_disabled":false,"rental_uris":{"android":"levelo://app?vid=30b75f38-6149-41d7-8581-cee7f7a7dd05","ios":"levelo://app?vid=30b75f38-6149-41d7-8581-cee7f7a7dd05"},"vehicle_type_id":"4","last_reported":1691953407,"current_range_meters":30400,"station_id":"ce4bh0p2rcd13ifvqd80","pricing_plan_id":"free"},{"bike_id":"12b2e6f6-c087-4955-9d2a-c995ab24ff6f","system_id":"levelo_inurba_marseille","lat":43.29302,"lon":5.37454,"is_reserved":false,"is_disabled":false,"rental_uris":{"android":"levelo://app?vid=12b2e6f6-c087-4955-9d2a-c995ab24ff6f","ios":"levelo://app?vid=12b2e6f6-c087-4955-9d2a-c995ab24ff6f"},"vehicle_type_id":"4","last_reported":1691953407,"current_range_meters":6800,"station_id":"ce4bgi12rcd13ifvqb70","pricing_plan_id":"free"},{"bike_id":"bb3bc267-4d8a-4cbd-be45-dbbefb2df729","system_id":"levelo_inurba_marseille","lat":43.293009,"lon":5.374584,"is_reserved":false,"is_disabled":false,"rental_uris":{"android":"levelo://app?vid=bb3bc267-4d8a-4cbd-be45-dbbefb2df729","ios":"levelo://app?vid=bb3bc267-4d8a-4cbd-be45-dbbefb2df729"},"vehicle_type_id":"4","last_reported":1691953407,"current_range_meters":4400,"station_id":"ce4bgi12rcd13ifvqb70","pricing_plan_id":"free"},{"bike_id":"526ea449-6af2-4d0d-8513-41301a6226b5","system_id":"levelo_inurba_marseille","lat":43.305994,"lon":5.393687,"is_reserved":false,"is_disabled":false,"rental_uris":{"android":"levelo://app?vid=526ea449-6af2-4d0d-8513-41301a6226b5","ios":"levelo://app?vid=526ea449-6af2-4d0d-8513-41301a6226b5"},"vehicle_type_id":"4","last_reported":1691953407,"current_range_meters":22800,"station_id":"ce4bh0p2rcd13ifvqd80","pricing_plan_id":"free"},{"bike_id":"c70f94ec-90f3-4826-ae52-fa3e29f12fa9","system_id":"levelo_inurba_marseille","lat":43.305994,"lon":5.393687,"is_reserved":false,"is_disabled":false,"rental_uris":{"android":"levelo://app?vid=c70f94ec-90f3-4826-ae52-fa3e29f12fa9","ios":"levelo://app?vid=c70f94ec-90f3-4826-ae52-fa3e29f12fa9"},"vehicle_type_id":"4","last_reported":1691953407,"current_range_meters":14800,"station_id":"ce4bh0p2rcd13ifvqd80","pricing_plan_id":"free"},{"bike_id":"fbe6346c-351a-48b4-8e87-90d89ebca977","system_id":"levelo_inurba_marseille","lat":43.309589,"lon":5.390258,"is_reserved":false,"is_disabled":false,"rental_uris":{"android":"levelo://app?vid=fbe6346c-351a-48b4-8e87-90d89ebca977","ios":"levelo://app?vid=fbe6346c-351a-48b4-8e87-90d89ebca977"},"vehicle_type_id":"4","last_reported":1691953407,"current_range_meters":22800,"station_id":"ce4bgup2rcd13ifvqco0","pricing_plan_id":"free"},{"bike_id":"4bb960a8-cea0-4ac5-acac-29976d584af2","system_id":"levelo_inurba_marseille","lat":43.30085,"lon":5.390856,"is_reserved":false,"is_disabled":false,"rental_uris":{"android":"levelo://app?vid=4bb960a8-cea0-4ac5-acac-29976d584af2","ios":"levelo://app?vid=4bb960a8-cea0-4ac5-acac-29976d584af2"},"vehicle_type_id":"4","last_reported":1691953407,"current_range_meters":30000,"station_id":"ce4bh192rcd13ifvqdb0","pricing_plan_id":"free"},{"bike_id":"6914042a-2033-4853-aecb-29eddf9fd4b6","system_id":"levelo_inurba_marseille","lat":43.300852,"lon":5.390859,"is_reserved":false,"is_disabled":false,"rental_uris":{"android":"levelo://app?vid=6914042a-2033-4853-aecb-29eddf9fd4b6","ios":"levelo://app?vid=6914042a-2033-4853-aecb-29eddf9fd4b6"},"vehicle_type_id":"4","last_reported":1691953407,"current_range_meters":4800,"station_id":"ce4bh192rcd13ifvqdb0","pricing_plan_id":"free"},{"bike_id":"51f96701-0f7f-47bd-86f3-d7291e4e546c","system_id":"levelo_inurba_marseille","lat":43.298764,"lon":5.388973,"is_reserved":false,"is_disabled":false,"rental_uris":{"android":"levelo://app?vid=51f96701-0f7f-47bd-86f3-d7291e4e546c","ios":"levelo://app?vid=51f96701-0f7f-47bd-86f3-d7291e4e546c"},"vehicle_type_id":"4","last_reported":1691953407,"current_range_meters":20000,"station_id":"ce4bh392rcd13ifvqdl0","pricing_plan_id":"free"},{"bike_id":"892981db-b49f-4f30-93fb-8ee28ed1511d","system_id":"levelo_inurba_marseille","lat":43.292663,"lon":5.376389,"is_reserved":false,"is_disabled":false,"rental_uris":{"android":"levelo://app?vid=892981db-b49f-4f30-93fb-8ee28ed1511d","ios":"levelo://app?vid=892981db-b49f-4f30-93fb-8ee28ed1511d"},"vehicle_type_id":"4","last_reported":1691953407,"current_range_meters":28400,"station_id":"ce4bgi12rcd13ifvqb80","pricing_plan_id":"free"},{"bike_id":"1f0caedf-f29a-4572-898a-d8b1a443ef37","system_id":"levelo_inurba_marseille","lat":43.3089,"lon":5.39634,"is_reserved":false,"is_disabled":false,"rental_uris":{"android":"levelo://app?vid=1f0caedf-f29a-4572-898a-d8b1a443ef37","ios":"levelo://app?vid=1f0caedf-f29a-4572-898a-d8b1a443ef37"},"vehicle_type_id":"4","last_reported":1691953407,"current_range_meters":7600,"station_id":"ce4bh012rcd13ifvqcv0","pricing_plan_id":"free"},{"bike_id":"f9fc65cd-c75f-4a44-bc26-8f031326c715","system_id":"levelo_inurba_marseille","lat":43.313291,"lon":5.396838,"is_reserved":false,"is_disabled":false,"rental_uris":{"android":"levelo://app?vid=f9fc65cd-c75f-4a44-bc26-8f031326c715","ios":"levelo://app?vid=f9fc65cd-c75f-4a44-bc26-8f031326c715"},"vehicle_type_id":"4","last_reported":1691953407,"current_range_meters":18000,"station_id":"ce4bgvp2rcd13ifvqcu0","pricing_plan_id":"free"},{"bike_id":"63b17c89-b558-4f06-a491-63a3b45bc550","system_id":"levelo_inurba_marseille","lat":43.30882,"lon":5.39655,"is_reserved":false,"is_disabled":false,"rental_uris":{"android":"levelo://app?vid=63b17c89-b558-4f06-a491-63a3b45bc550","ios":"levelo://app?vid=63b17c89-b558-4f06-a491-63a3b45bc550"},"vehicle_type_id":"4","last_reported":1691953407,"current_range_meters":8000,"station_id":"ce4bh012rcd13ifvqcv0","pricing_plan_id":"free"},{"bike_id":"d6ae1b45-c75d-4159-94f5-79b55ced1094","system_id":"levelo_inurba_marseille","lat":43.309038,"lon":5.396546,"is_reserved":false,"is_disabled":false,"rental_uris":{"android":"levelo://app?vid=d6ae1b45-c75d-4159-94f5-79b55ced1094","ios":"levelo://app?vid=d6ae1b45-c75d-4159-94f5-79b55ced1094"},"vehicle_type_id":"4","last_reported":1691953407,"current_range_meters":20000,"station_id":"ce4bh012rcd13ifvqcv0","pricing_plan_id":"free"},{"bike_id":"f3047e9e-7bf2-4f6e-9521-af3373ee1a9e","system_id":"levelo_inurba_marseille","lat":43.29538,"lon":5.38542,"is_reserved":false,"is_disabled":false,"rental_uris":{"android":"levelo://app?vid=f3047e9e-7bf2-4f6e-9521-af3373ee1a9e","ios":"levelo://app?vid=f3047e9e-7bf2-4f6e-9521-af3373ee1a9e"},"vehicle_type_id":"4","last_reported":1691953407,"current_range_meters":25200,"station_id":"ce4bgih2rcd13ifvqba0","pricing_plan_id":"free"},{"bike_id":"cc0f1b71-bbd6-4288-ae61-1a5caa5c566c","system_id":"levelo_inurba_marseille","lat":43.29533,"lon":5.38534,"is_reserved":false,"is_disabled":false,"rental_uris":{"android":"levelo://app?vid=cc0f1b71-bbd6-4288-ae61-1a5caa5c566c","ios":"levelo://app?vid=cc0f1b71-bbd6-4288-ae61-1a5caa5c566c"},"vehicle_type_id":"4","last_reported":1691953407,"current_range_meters":7200,"station_id":"ce4bgih2rcd13ifvqba0","pricing_plan_id":"free"},{"bike_id":"3ac468dd-99f9-4da3-91b0-cf51b2c3eab2","system_id":"levelo_inurba_marseille","lat":43.29534,"lon":5.38539,"is_reserved":false,"is_disabled":false,"rental_uris":{"android":"levelo://app?vid=3ac468dd-99f9-4da3-91b0-cf51b2c3eab2","ios":"levelo://app?vid=3ac468dd-99f9-4da3-91b0-cf51b2c3eab2"},"vehicle_type_id":"4","last_reported":1691953407,"current_range_meters":12800,"station_id":"ce4bgih2rcd13ifvqba0","pricing_plan_id":"free"},{"bike_id":"654a1923-9996-432c-98f2-a493313ddb19","system_id":"levelo_inurba_marseille","lat":43.29529,"lon":5.385581,"is_reserved":false,"is_disabled":false,"rental_uris":{"android":"levelo://app?vid=654a1923-9996-432c-98f2-a493313ddb19","ios":"levelo://app?vid=654a1923-9996-432c-98f2-a493313ddb19"},"vehicle_type_id":"4","last_reported":1691953407,"current_range_meters":4800,"station_id":"ce4bgih2rcd13ifvqba0","pricing_plan_id":"free"},{"bike_id":"c95b34f9-2ec7-4d72-a378-67a000115f01","system_id":"levelo_inurba_marseille","lat":43.29532,"lon":5.38546,"is_reserved":false,"is_disabled":false,"rental_uris":{"android":"levelo://app?vid=c95b34f9-2ec7-4d72-a378-67a000115f01","ios":"levelo://app?vid=c95b34f9-2ec7-4d72-a378-67a000115f01"},"vehicle_type_id":"4","last_reported":1691953407,"current_range_meters":22800,"station_id":"ce4bgih2rcd13ifvqba0","pricing_plan_id":"free"},{"bike_id":"49b724c7-0cce-43ee-851d-1150ce3ead46","system_id":"levelo_inurba_marseille","lat":43.29529,"lon":5.385581,"is_reserved":false,"is_disabled":false,"rental_uris":{"android":"levelo://app?vid=49b724c7-0cce-43ee-851d-1150ce3ead46","ios":"levelo://app?vid=49b724c7-0cce-43ee-851d-1150ce3ead46"},"vehicle_type_id":"4","last_reported":1691953407,"current_range_meters":6000,"station_id":"ce4bgih2rcd13ifvqba0","pricing_plan_id":"free"},{"bike_id":"7889c8db-667c-4083-989d-0346d41ecda5","system_id":"levelo_inurba_marseille","lat":43.273613,"lon":5.362705,"is_reserved":false,"is_disabled":false,"rental_uris":{"android":"levelo://app?vid=7889c8db-667c-4083-989d-0346d41ecda5","ios":"levelo://app?vid=7889c8db-667c-4083-989d-0346d41ecda5"},"vehicle_type_id":"4","last_reported":1691953407,"current_range_meters":4000,"station_id":"ce4bhbh2rcd13ifvqeo0","pricing_plan_id":"free"},{"bike_id":"ada6eb4b-4214-483d-a65e-b6a009ce26b7","system_id":"levelo_inurba_marseille","lat":43.302008,"lon":5.394694,"is_reserved":false,"is_disabled":false,"rental_uris":{"android":"levelo://app?vid=ada6eb4b-4214-483d-a65e-b6a009ce26b7","ios":"levelo://app?vid=ada6eb4b-4214-483d-a65e-b6a009ce26b7"},"vehicle_type_id":"4","last_reported":1691953407,"current_range_meters":18000,"station_id":"ce4bh0p2rcd13ifvqd70","pricing_plan_id":"free"},{"bike_id":"dadad3b1-d2a3-44c0-9404-8129f794ab90","system_id":"levelo_inurba_marseille","lat":43.302008,"lon":5.394694,"is_reserved":false,"is_disabled":false,"rental_uris":{"android":"levelo://app?vid=dadad3b1-d2a3-44c0-9404-8129f794ab90","ios":"levelo://app?vid=dadad3b1-d2a3-44c0-9404-8129f794ab90"},"vehicle_type_id":"4","last_reported":1691953407,"current_range_meters":0,"station_id":"ce4bh0p2rcd13ifvqd70","pricing_plan_id":"free"},{"bike_id":"c1a7c044-aa01-4f6a-bd65-2801e1421cf1","system_id":"levelo_inurba_marseille","lat":43.302008,"lon":5.394694,"is_reserved":false,"is_disabled":false,"rental_uris":{"android":"levelo://app?vid=c1a7c044-aa01-4f6a-bd65-2801e1421cf1","ios":"levelo://app?vid=c1a7c044-aa01-4f6a-bd65-2801e1421cf1"},"vehicle_type_id":"4","last_reported":1691953407,"current_range_meters":0,"station_id":"ce4bh0p2rcd13ifvqd70","pricing_plan_id":"free"},{"bike_id":"2c9a3ffc-a9f0-4f71-ad9a-7a0da640d41e","system_id":"levelo_inurba_marseille","lat":43.290631,"lon":5.359244,"is_reserved":false,"is_disabled":false,"rental_uris":{"android":"levelo://app?vid=2c9a3ffc-a9f0-4f71-ad9a-7a0da640d41e","ios":"levelo://app?vid=2c9a3ffc-a9f0-4f71-ad9a-7a0da640d41e"},"vehicle_type_id":"4","last_reported":1691953407,"current_range_meters":12400,"station_id":"ce4bha92rcd13ifvqeg0","pricing_plan_id":"free"},{"bike_id":"90aaeb76-c3ac-4cdd-b866-51070984ff55","system_id":"levelo_inurba_marseille","lat":43.290631,"lon":5.359244,"is_reserved":false,"is_disabled":false,"rental_uris":{"android":"levelo://app?vid=90aaeb76-c3ac-4cdd-b866-51070984ff55","ios":"levelo://app?vid=90aaeb76-c3ac-4cdd-b866-51070984ff55"},"vehicle_type_id":"4","last_reported":1691953407,"current_range_meters":6000,"station_id":"ce4bha92rcd13ifvqeg0","pricing_plan_id":"free"},{"bike_id":"9ebe1f14-b73e-40b9-baf7-007674a731ae","system_id":"levelo_inurba_marseille","lat":43.294153,"lon":5.386305,"is_reserved":false,"is_disabled":false,"rental_uris":{"android":"levelo://app?vid=9ebe1f14-b73e-40b9-baf7-007674a731ae","ios":"levelo://app?vid=9ebe1f14-b73e-40b9-baf7-007674a731ae"},"vehicle_type_id":"4","last_reported":1691953407,"current_range_meters":4000,"station_id":"ce4bh2h2rcd13ifvqdh0","pricing_plan_id":"free"},{"bike_id":"7ea3e918-851e-48ea-9942-4caafaa12eb6","system_id":"levelo_inurba_marseille","lat":43.294153,"lon":5.386305,"is_reserved":false,"is_disabled":false,"rental_uris":{"android":"levelo://app?vid=7ea3e918-851e-48ea-9942-4caafaa12eb6","ios":"levelo://app?vid=7ea3e918-851e-48ea-9942-4caafaa12eb6"},"vehicle_type_id":"4","last_reported":1691953407,"current_range_meters":0,"station_id":"ce4bh2h2rcd13ifvqdh0","pricing_plan_id":"free"},{"bike_id":"495b88e7-497e-4fda-bee8-84d9b28b15e2","system_id":"levelo_inurba_marseille","lat":43.294153,"lon":5.386305,"is_reserved":false,"is_disabled":false,"rental_uris":{"android":"levelo://app?vid=495b88e7-497e-4fda-bee8-84d9b28b15e2","ios":"levelo://app?vid=495b88e7-497e-4fda-bee8-84d9b28b15e2"},"vehicle_type_id":"4","last_reported":1691953407,"current_range_meters":16800,"station_id":"ce4bh2h2rcd13ifvqdh0","pricing_plan_id":"free"},{"bike_id":"b549b370-2258-42c8-aa4c-092ab8ad153d","system_id":"levelo_inurba_marseille","lat":43.294153,"lon":5.386305,"is_reserved":false,"is_disabled":false,"rental_uris":{"android":"levelo://app?vid=b549b370-2258-42c8-aa4c-092ab8ad153d","ios":"levelo://app?vid=b549b370-2258-42c8-aa4c-092ab8ad153d"},"vehicle_type_id":"4","last_reported":1691953407,"current_range_meters":18800,"station_id":"ce4bh2h2rcd13ifvqdh0","pricing_plan_id":"free"},{"bike_id":"a360afb6-89d5-4161-a1ac-3e3407c568b6","system_id":"levelo_inurba_marseille","lat":43.294153,"lon":5.386305,"is_reserved":false,"is_disabled":false,"rental_uris":{"android":"levelo://app?vid=a360afb6-89d5-4161-a1ac-3e3407c568b6","ios":"levelo://app?vid=a360afb6-89d5-4161-a1ac-3e3407c568b6"},"vehicle_type_id":"4","last_reported":1691953407,"current_range_meters":8000,"station_id":"ce4bh2h2rcd13ifvqdh0","pricing_plan_id":"free"},{"bike_id":"3e08159a-fcc5-43b6-a326-383d0c917054","system_id":"levelo_inurba_marseille","lat":43.290327,"lon":5.375711,"is_reserved":false,"is_disabled":false,"rental_uris":{"android":"levelo://app?vid=3e08159a-fcc5-43b6-a326-383d0c917054","ios":"levelo://app?vid=3e08159a-fcc5-43b6-a326-383d0c917054"},"vehicle_type_id":"4","last_reported":1691953407,"current_range_meters":3200,"station_id":"ce4bh692rcd13ifvqe90","pricing_plan_id":"free"},{"bike_id":"7d85d303-7a59-4457-b246-d23d698eea00","system_id":"levelo_inurba_marseille","lat":43.294153,"lon":5.386305,"is_reserved":false,"is_disabled":false,"rental_uris":{"android":"levelo://app?vid=7d85d303-7a59-4457-b246-d23d698eea00","ios":"levelo://app?vid=7d85d303-7a59-4457-b246-d23d698eea00"},"vehicle_type_id":"4","last_reported":1691953407,"current_range_meters":0,"station_id":"ce4bh2h2rcd13ifvqdh0","pricing_plan_id":"free"},{"bike_id":"d59e67d4-8ba1-49bf-8b62-d5cf8504b15d","system_id":"levelo_inurba_marseille","lat":43.289184,"lon":5.366408,"is_reserved":false,"is_disabled":false,"rental_uris":{"android":"levelo://app?vid=d59e67d4-8ba1-49bf-8b62-d5cf8504b15d","ios":"levelo://app?vid=d59e67d4-8ba1-49bf-8b62-d5cf8504b15d"},"vehicle_type_id":"4","last_reported":1691953407,"current_range_meters":15600,"station_id":"ce4bhap2rcd13ifvqek0","pricing_plan_id":"free"},{"bike_id":"f65aaad1-fb0a-4cea-bda0-0c012ebeb0d3","system_id":"levelo_inurba_marseille","lat":43.289184,"lon":5.366408,"is_reserved":false,"is_disabled":false,"rental_uris":{"android":"levelo://app?vid=f65aaad1-fb0a-4cea-bda0-0c012ebeb0d3","ios":"levelo://app?vid=f65aaad1-fb0a-4cea-bda0-0c012ebeb0d3"},"vehicle_type_id":"4","last_reported":1691953407,"current_range_meters":0,"station_id":"ce4bhap2rcd13ifvqek0","pricing_plan_id":"free"},{"bike_id":"c7391c1d-c765-4bbb-902d-e45fe6f88708","system_id":"levelo_inurba_marseille","lat":43.289312,"lon":5.363993,"is_reserved":false,"is_disabled":false,"rental_uris":{"android":"levelo://app?vid=c7391c1d-c765-4bbb-902d-e45fe6f88708","ios":"levelo://app?vid=c7391c1d-c765-4bbb-902d-e45fe6f88708"},"vehicle_type_id":"4","last_reported":1691953407,"current_range_meters":15200,"station_id":"ce4bhc92rcd13ifvqetg","pricing_plan_id":"free"},{"bike_id":"765f8729-4ddb-4910-ab70-fe36823af63a","system_id":"levelo_inurba_marseille","lat":43.292644,"lon":5.384257,"is_reserved":false,"is_disabled":false,"rental_uris":{"android":"levelo://app?vid=765f8729-4ddb-4910-ab70-fe36823af63a","ios":"levelo://app?vid=765f8729-4ddb-4910-ab70-fe36823af63a"},"vehicle_type_id":"4","last_reported":1691953407,"current_range_meters":800,"station_id":"ce4bh692rcd13ifvqea0","pricing_plan_id":"free"},{"bike_id":"df3624cc-ba29-4436-bbba-a1be0e9d33b4","system_id":"levelo_inurba_marseille","lat":43.292642,"lon":5.384254,"is_reserved":false,"is_disabled":false,"rental_uris":{"android":"levelo://app?vid=df3624cc-ba29-4436-bbba-a1be0e9d33b4","ios":"levelo://app?vid=df3624cc-ba29-4436-bbba-a1be0e9d33b4"},"vehicle_type_id":"4","last_reported":1691953407,"current_range_meters":10000,"station_id":"ce4bh692rcd13ifvqea0","pricing_plan_id":"free"},{"bike_id":"4ee90ec6-2ba4-4c48-b1c1-053c5afd7a3b","system_id":"levelo_inurba_marseille","lat":43.29269,"lon":5.38441,"is_reserved":false,"is_disabled":false,"rental_uris":{"android":"levelo://app?vid=4ee90ec6-2ba4-4c48-b1c1-053c5afd7a3b","ios":"levelo://app?vid=4ee90ec6-2ba4-4c48-b1c1-053c5afd7a3b"},"vehicle_type_id":"4","last_reported":1691953407,"current_range_meters":10400,"station_id":"ce4bh692rcd13ifvqea0","pricing_plan_id":"free"},{"bike_id":"5a8e6813-c090-48a1-b4c6-c0bdfcabdd93","system_id":"levelo_inurba_marseille","lat":43.292642,"lon":5.384254,"is_reserved":false,"is_disabled":false,"rental_uris":{"android":"levelo://app?vid=5a8e6813-c090-48a1-b4c6-c0bdfcabdd93","ios":"levelo://app?vid=5a8e6813-c090-48a1-b4c6-c0bdfcabdd93"},"vehicle_type_id":"4","last_reported":1691953407,"current_range_meters":25600,"station_id":"ce4bh692rcd13ifvqea0","pricing_plan_id":"free"},{"bike_id":"560951d6-a996-4f43-99cc-405a110fa367","system_id":"levelo_inurba_marseille","lat":43.292642,"lon":5.384254,"is_reserved":false,"is_disabled":false,"rental_uris":{"android":"levelo://app?vid=560951d6-a996-4f43-99cc-405a110fa367","ios":"levelo://app?vid=560951d6-a996-4f43-99cc-405a110fa367"},"vehicle_type_id":"4","last_reported":1691953407,"current_range_meters":10800,"station_id":"ce4bh692rcd13ifvqea0","pricing_plan_id":"free"},{"bike_id":"3a91c915-399a-43de-bc0b-63073cdae9e2","system_id":"levelo_inurba_marseille","lat":43.292642,"lon":5.384254,"is_reserved":false,"is_disabled":false,"rental_uris":{"android":"levelo://app?vid=3a91c915-399a-43de-bc0b-63073cdae9e2","ios":"levelo://app?vid=3a91c915-399a-43de-bc0b-63073cdae9e2"},"vehicle_type_id":"4","last_reported":1691953407,"current_range_meters":12000,"station_id":"ce4bh692rcd13ifvqea0","pricing_plan_id":"free"},{"bike_id":"be480adb-d050-4225-a409-2afb06134427","system_id":"levelo_inurba_marseille","lat":43.304296,"lon":5.397513,"is_reserved":false,"is_disabled":false,"rental_uris":{"android":"levelo://app?vid=be480adb-d050-4225-a409-2afb06134427","ios":"levelo://app?vid=be480adb-d050-4225-a409-2afb06134427"},"vehicle_type_id":"4","last_reported":1691953407,"current_range_meters":15600,"station_id":"ce4bh092rcd13ifvqd20","pricing_plan_id":"free"},{"bike_id":"8c04d710-2dec-4b08-94ce-b6cea410589f","system_id":"levelo_inurba_marseille","lat":43.292644,"lon":5.384257,"is_reserved":false,"is_disabled":false,"rental_uris":{"android":"levelo://app?vid=8c04d710-2dec-4b08-94ce-b6cea410589f","ios":"levelo://app?vid=8c04d710-2dec-4b08-94ce-b6cea410589f"},"vehicle_type_id":"4","last_reported":1691953407,"current_range_meters":28000,"station_id":"ce4bh692rcd13ifvqea0","pricing_plan_id":"free"},{"bike_id":"b4dc4e3c-a0dc-4b7c-bb8b-9f99d377d439","system_id":"levelo_inurba_marseille","lat":43.292644,"lon":5.384257,"is_reserved":false,"is_disabled":false,"rental_uris":{"android":"levelo://app?vid=b4dc4e3c-a0dc-4b7c-bb8b-9f99d377d439","ios":"levelo://app?vid=b4dc4e3c-a0dc-4b7c-bb8b-9f99d377d439"},"vehicle_type_id":"4","last_reported":1691953407,"current_range_meters":24800,"station_id":"ce4bh692rcd13ifvqea0","pricing_plan_id":"free"},{"bike_id":"96402ac2-983f-4c01-9d1d-cfb055cb2d05","system_id":"levelo_inurba_marseille","lat":43.292642,"lon":5.384254,"is_reserved":false,"is_disabled":false,"rental_uris":{"android":"levelo://app?vid=96402ac2-983f-4c01-9d1d-cfb055cb2d05","ios":"levelo://app?vid=96402ac2-983f-4c01-9d1d-cfb055cb2d05"},"vehicle_type_id":"4","last_reported":1691953407,"current_range_meters":6400,"station_id":"ce4bh692rcd13ifvqea0","pricing_plan_id":"free"},{"bike_id":"69c23820-b8c4-4b33-a6c2-28beb4ed1d2a","system_id":"levelo_inurba_marseille","lat":43.330357,"lon":5.38912,"is_reserved":false,"is_disabled":false,"rental_uris":{"android":"levelo://app?vid=69c23820-b8c4-4b33-a6c2-28beb4ed1d2a","ios":"levelo://app?vid=69c23820-b8c4-4b33-a6c2-28beb4ed1d2a"},"vehicle_type_id":"4","last_reported":1691953407,"current_range_meters":8800,"station_id":"","pricing_plan_id":"free"},{"bike_id":"9ef4775d-1eef-4f53-b9fa-b7d1ca1a147a","system_id":"levelo_inurba_marseille","lat":43.33043,"lon":5.38913,"is_reserved":false,"is_disabled":false,"rental_uris":{"android":"levelo://app?vid=9ef4775d-1eef-4f53-b9fa-b7d1ca1a147a","ios":"levelo://app?vid=9ef4775d-1eef-4f53-b9fa-b7d1ca1a147a"},"vehicle_type_id":"4","last_reported":1691953407,"current_range_meters":31200,"station_id":"ce4bhr92rcd13ifvqhrg","pricing_plan_id":"free"},{"bike_id":"6442b6c7-ca7c-4053-8cc8-de08ef501135","system_id":"levelo_inurba_marseille","lat":43.33043,"lon":5.38914,"is_reserved":false,"is_disabled":false,"rental_uris":{"android":"levelo://app?vid=6442b6c7-ca7c-4053-8cc8-de08ef501135","ios":"levelo://app?vid=6442b6c7-ca7c-4053-8cc8-de08ef501135"},"vehicle_type_id":"4","last_reported":1691953407,"current_range_meters":31200,"station_id":"ce4bhr92rcd13ifvqhrg","pricing_plan_id":"free"},{"bike_id":"8f878f28-ac1b-4cce-960b-11748c4b16d3","system_id":"levelo_inurba_marseille","lat":43.33043,"lon":5.3892,"is_reserved":false,"is_disabled":false,"rental_uris":{"android":"levelo://app?vid=8f878f28-ac1b-4cce-960b-11748c4b16d3","ios":"levelo://app?vid=8f878f28-ac1b-4cce-960b-11748c4b16d3"},"vehicle_type_id":"4","last_reported":1691953407,"current_range_meters":29600,"station_id":"ce4bhr92rcd13ifvqhrg","pricing_plan_id":"free"},{"bike_id":"b196e7c2-39b5-485c-b7d7-2598bdf80c34","system_id":"levelo_inurba_marseille","lat":43.33053,"lon":5.38909,"is_reserved":false,"is_disabled":false,"rental_uris":{"android":"levelo://app?vid=b196e7c2-39b5-485c-b7d7-2598bdf80c34","ios":"levelo://app?vid=b196e7c2-39b5-485c-b7d7-2598bdf80c34"},"vehicle_type_id":"4","last_reported":1691953407,"current_range_meters":28400,"station_id":"ce4bhr92rcd13ifvqhrg","pricing_plan_id":"free"},{"bike_id":"1d36b28c-aac8-4a05-9b28-465d98cd5bbb","system_id":"levelo_inurba_marseille","lat":43.290103,"lon":5.356114,"is_reserved":false,"is_disabled":false,"rental_uris":{"android":"levelo://app?vid=1d36b28c-aac8-4a05-9b28-465d98cd5bbb","ios":"levelo://app?vid=1d36b28c-aac8-4a05-9b28-465d98cd5bbb"},"vehicle_type_id":"4","last_reported":1691953407,"current_range_meters":17200,"station_id":"ce4bhb92rcd13ifvqen0","pricing_plan_id":"free"},{"bike_id":"d92191b5-3897-428d-989c-4b986c7a7e64","system_id":"levelo_inurba_marseille","lat":43.29005,"lon":5.35602,"is_reserved":false,"is_disabled":false,"rental_uris":{"android":"levelo://app?vid=d92191b5-3897-428d-989c-4b986c7a7e64","ios":"levelo://app?vid=d92191b5-3897-428d-989c-4b986c7a7e64"},"vehicle_type_id":"4","last_reported":1691953407,"current_range_meters":12800,"station_id":"ce4bhb92rcd13ifvqen0","pricing_plan_id":"free"},{"bike_id":"892867ae-c845-473e-87fc-2b3f5701ecf4","system_id":"levelo_inurba_marseille","lat":43.29003,"lon":5.35608,"is_reserved":false,"is_disabled":false,"rental_uris":{"android":"levelo://app?vid=892867ae-c845-473e-87fc-2b3f5701ecf4","ios":"levelo://app?vid=892867ae-c845-473e-87fc-2b3f5701ecf4"},"vehicle_type_id":"4","last_reported":1691953407,"current_range_meters":13600,"station_id":"ce4bhb92rcd13ifvqen0","pricing_plan_id":"free"},{"bike_id":"0ac2b7dd-caa0-4a1f-a860-30ce518b34a1","system_id":"levelo_inurba_marseille","lat":43.29108,"lon":5.38138,"is_reserved":false,"is_disabled":false,"rental_uris":{"android":"levelo://app?vid=0ac2b7dd-caa0-4a1f-a860-30ce518b34a1","ios":"levelo://app?vid=0ac2b7dd-caa0-4a1f-a860-30ce518b34a1"},"vehicle_type_id":"4","last_reported":1691953407,"current_range_meters":0,"station_id":"ce4bh512rcd13ifvqe2g","pricing_plan_id":"free"},{"bike_id":"94068be3-76e9-4855-989a-00379b0ba499","system_id":"levelo_inurba_marseille","lat":43.290995,"lon":5.381361,"is_reserved":false,"is_disabled":false,"rental_uris":{"android":"levelo://app?vid=94068be3-76e9-4855-989a-00379b0ba499","ios":"levelo://app?vid=94068be3-76e9-4855-989a-00379b0ba499"},"vehicle_type_id":"4","last_reported":1691953407,"current_range_meters":800,"station_id":"ce4bh512rcd13ifvqe2g","pricing_plan_id":"free"},{"bike_id":"d84c9883-a4be-4000-8567-1822bdb7fc73","system_id":"levelo_inurba_marseille","lat":43.290995,"lon":5.381361,"is_reserved":false,"is_disabled":false,"rental_uris":{"android":"levelo://app?vid=d84c9883-a4be-4000-8567-1822bdb7fc73","ios":"levelo://app?vid=d84c9883-a4be-4000-8567-1822bdb7fc73"},"vehicle_type_id":"4","last_reported":1691953407,"current_range_meters":5200,"station_id":"ce4bh512rcd13ifvqe2g","pricing_plan_id":"free"},{"bike_id":"be005e4f-d207-40fd-bd99-241d744b2797","system_id":"levelo_inurba_marseille","lat":43.33084,"lon":5.389,"is_reserved":false,"is_disabled":false,"rental_uris":{"android":"levelo://app?vid=be005e4f-d207-40fd-bd99-241d744b2797","ios":"levelo://app?vid=be005e4f-d207-40fd-bd99-241d744b2797"},"vehicle_type_id":"4","last_reported":1691953407,"current_range_meters":28800,"station_id":"ce4bhr92rcd13ifvqhrg","pricing_plan_id":"free"},{"bike_id":"e9e4bb4f-ec55-455f-8d57-45754ec672eb","system_id":"levelo_inurba_marseille","lat":43.297815,"lon":5.393548,"is_reserved":false,"is_disabled":false,"rental_uris":{"android":"levelo://app?vid=e9e4bb4f-ec55-455f-8d57-45754ec672eb","ios":"levelo://app?vid=e9e4bb4f-ec55-455f-8d57-45754ec672eb"},"vehicle_type_id":"4","last_reported":1691953407,"current_range_meters":12400,"station_id":"chh1huq6cuj3fo74tm60","pricing_plan_id":"free"},{"bike_id":"9c9793ef-8879-442e-9bb8-5a4b4c300916","system_id":"levelo_inurba_marseille","lat":43.29022,"lon":5.38124,"is_reserved":false,"is_disabled":false,"rental_uris":{"android":"levelo://app?vid=9c9793ef-8879-442e-9bb8-5a4b4c300916","ios":"levelo://app?vid=9c9793ef-8879-442e-9bb8-5a4b4c300916"},"vehicle_type_id":"4","last_reported":1691953407,"current_range_meters":24000,"station_id":"ce4bh4p2rcd13ifvqe1g","pricing_plan_id":"free"},{"bike_id":"1f8c7680-3998-4b79-af62-30c4a7280327","system_id":"levelo_inurba_marseille","lat":43.290139,"lon":5.381142,"is_reserved":false,"is_disabled":false,"rental_uris":{"android":"levelo://app?vid=1f8c7680-3998-4b79-af62-30c4a7280327","ios":"levelo://app?vid=1f8c7680-3998-4b79-af62-30c4a7280327"},"vehicle_type_id":"4","last_reported":1691953407,"current_range_meters":16000,"station_id":"ce4bh4p2rcd13ifvqe1g","pricing_plan_id":"free"},{"bike_id":"f85a0dbb-0332-4e2f-aa50-edbaa3436db7","system_id":"levelo_inurba_marseille","lat":43.29015,"lon":5.38128,"is_reserved":false,"is_disabled":false,"rental_uris":{"android":"levelo://app?vid=f85a0dbb-0332-4e2f-aa50-edbaa3436db7","ios":"levelo://app?vid=f85a0dbb-0332-4e2f-aa50-edbaa3436db7"},"vehicle_type_id":"4","last_reported":1691953407,"current_range_meters":17600,"station_id":"ce4bh4p2rcd13ifvqe1g","pricing_plan_id":"free"},{"bike_id":"e40ea130-76bf-4215-b2ce-1260b9ad36b8","system_id":"levelo_inurba_marseille","lat":43.2901,"lon":5.38121,"is_reserved":false,"is_disabled":false,"rental_uris":{"android":"levelo://app?vid=e40ea130-76bf-4215-b2ce-1260b9ad36b8","ios":"levelo://app?vid=e40ea130-76bf-4215-b2ce-1260b9ad36b8"},"vehicle_type_id":"4","last_reported":1691953407,"current_range_meters":20400,"station_id":"ce4bh4p2rcd13ifvqe1g","pricing_plan_id":"free"},{"bike_id":"3cfeb2c5-21d3-41ee-b54e-5b49c35c9dc1","system_id":"levelo_inurba_marseille","lat":43.30933,"lon":5.40136,"is_reserved":false,"is_disabled":false,"rental_uris":{"android":"levelo://app?vid=3cfeb2c5-21d3-41ee-b54e-5b49c35c9dc1","ios":"levelo://app?vid=3cfeb2c5-21d3-41ee-b54e-5b49c35c9dc1"},"vehicle_type_id":"4","last_reported":1691953407,"current_range_meters":13200,"station_id":"ce4bgvp2rcd13ifvqct0","pricing_plan_id":"free"},{"bike_id":"637d10d6-e6be-4582-a7c5-25c07600848a","system_id":"levelo_inurba_marseille","lat":43.30933,"lon":5.40139,"is_reserved":false,"is_disabled":false,"rental_uris":{"android":"levelo://app?vid=637d10d6-e6be-4582-a7c5-25c07600848a","ios":"levelo://app?vid=637d10d6-e6be-4582-a7c5-25c07600848a"},"vehicle_type_id":"4","last_reported":1691953407,"current_range_meters":18000,"station_id":"ce4bgvp2rcd13ifvqct0","pricing_plan_id":"free"},{"bike_id":"45184e88-a30b-48ed-9575-37acac1f0ef8","system_id":"levelo_inurba_marseille","lat":43.30642,"lon":5.401031,"is_reserved":false,"is_disabled":false,"rental_uris":{"android":"levelo://app?vid=45184e88-a30b-48ed-9575-37acac1f0ef8","ios":"levelo://app?vid=45184e88-a30b-48ed-9575-37acac1f0ef8"},"vehicle_type_id":"4","last_reported":1691953407,"current_range_meters":24800,"station_id":"ce4bh112rcd13ifvqda0","pricing_plan_id":"free"},{"bike_id":"9365af52-41ab-478d-acf1-e234d6236c98","system_id":"levelo_inurba_marseille","lat":43.30398,"lon":5.40058,"is_reserved":false,"is_disabled":false,"rental_uris":{"android":"levelo://app?vid=9365af52-41ab-478d-acf1-e234d6236c98","ios":"levelo://app?vid=9365af52-41ab-478d-acf1-e234d6236c98"},"vehicle_type_id":"4","last_reported":1691953407,"current_range_meters":18400,"station_id":"","pricing_plan_id":"free"},{"bike_id":"63be8ed2-55f8-406b-a44d-ca93fdd9190c","system_id":"levelo_inurba_marseille","lat":43.298681,"lon":5.397225,"is_reserved":false,"is_disabled":false,"rental_uris":{"android":"levelo://app?vid=63be8ed2-55f8-406b-a44d-ca93fdd9190c","ios":"levelo://app?vid=63be8ed2-55f8-406b-a44d-ca93fdd9190c"},"vehicle_type_id":"4","last_reported":1691953407,"current_range_meters":13600,"station_id":"ce4bh0h2rcd13ifvqd50","pricing_plan_id":"free"},{"bike_id":"915f802e-f31b-4c71-8de0-2a5fc39e5970","system_id":"levelo_inurba_marseille","lat":43.32994,"lon":5.39403,"is_reserved":false,"is_disabled":false,"rental_uris":{"android":"levelo://app?vid=915f802e-f31b-4c71-8de0-2a5fc39e5970","ios":"levelo://app?vid=915f802e-f31b-4c71-8de0-2a5fc39e5970"},"vehicle_type_id":"4","last_reported":1691953407,"current_range_meters":0,"station_id":"","pricing_plan_id":"free"},{"bike_id":"5fc02079-6714-43e8-8f25-c16e2468202e","system_id":"levelo_inurba_marseille","lat":43.286591,"lon":5.363346,"is_reserved":false,"is_disabled":false,"rental_uris":{"android":"levelo://app?vid=5fc02079-6714-43e8-8f25-c16e2468202e","ios":"levelo://app?vid=5fc02079-6714-43e8-8f25-c16e2468202e"},"vehicle_type_id":"4","last_reported":1691953407,"current_range_meters":24800,"station_id":"ce4bhah2rcd13ifvqej0","pricing_plan_id":"free"},{"bike_id":"75199276-b705-4ad7-b6a9-49aeaa84628a","system_id":"levelo_inurba_marseille","lat":43.286591,"lon":5.363346,"is_reserved":false,"is_disabled":false,"rental_uris":{"android":"levelo://app?vid=75199276-b705-4ad7-b6a9-49aeaa84628a","ios":"levelo://app?vid=75199276-b705-4ad7-b6a9-49aeaa84628a"},"vehicle_type_id":"4","last_reported":1691953407,"current_range_meters":31200,"station_id":"ce4bhah2rcd13ifvqej0","pricing_plan_id":"free"},{"bike_id":"2c9a6c7a-a6bc-47fc-86c8-01004c129202","system_id":"levelo_inurba_marseille","lat":43.28703,"lon":5.37388,"is_reserved":false,"is_disabled":false,"rental_uris":{"android":"levelo://app?vid=2c9a6c7a-a6bc-47fc-86c8-01004c129202","ios":"levelo://app?vid=2c9a6c7a-a6bc-47fc-86c8-01004c129202"},"vehicle_type_id":"4","last_reported":1691953407,"current_range_meters":26400,"station_id":"ce4bh3p2rcd13ifvqdq0","pricing_plan_id":"free"},{"bike_id":"50dffa20-4826-47d4-a15b-819d07e3e9a3","system_id":"levelo_inurba_marseille","lat":43.28699,"lon":5.37387,"is_reserved":false,"is_disabled":false,"rental_uris":{"android":"levelo://app?vid=50dffa20-4826-47d4-a15b-819d07e3e9a3","ios":"levelo://app?vid=50dffa20-4826-47d4-a15b-819d07e3e9a3"},"vehicle_type_id":"4","last_reported":1691953407,"current_range_meters":20000,"station_id":"ce4bh3p2rcd13ifvqdq0","pricing_plan_id":"free"},{"bike_id":"ff5146fb-30c4-42a2-847b-f6c8c15b464e","system_id":"levelo_inurba_marseille","lat":43.3027,"lon":5.40038,"is_reserved":false,"is_disabled":false,"rental_uris":{"android":"levelo://app?vid=ff5146fb-30c4-42a2-847b-f6c8c15b464e","ios":"levelo://app?vid=ff5146fb-30c4-42a2-847b-f6c8c15b464e"},"vehicle_type_id":"4","last_reported":1691953407,"current_range_meters":31200,"station_id":"","pricing_plan_id":"free"},{"bike_id":"b27c9069-15ae-4256-8ea9-18382b19cf4d","system_id":"levelo_inurba_marseille","lat":43.295194,"lon":5.39397,"is_reserved":false,"is_disabled":false,"rental_uris":{"android":"levelo://app?vid=b27c9069-15ae-4256-8ea9-18382b19cf4d","ios":"levelo://app?vid=b27c9069-15ae-4256-8ea9-18382b19cf4d"},"vehicle_type_id":"4","last_reported":1691953407,"current_range_meters":0,"station_id":"ce4bh292rcd13ifvqdf0","pricing_plan_id":"free"},{"bike_id":"8785d06e-f3ab-4859-be07-3a049ddcee9d","system_id":"levelo_inurba_marseille","lat":43.302759,"lon":5.400793,"is_reserved":false,"is_disabled":false,"rental_uris":{"android":"levelo://app?vid=8785d06e-f3ab-4859-be07-3a049ddcee9d","ios":"levelo://app?vid=8785d06e-f3ab-4859-be07-3a049ddcee9d"},"vehicle_type_id":"4","last_reported":1691953407,"current_range_meters":17200,"station_id":"ce4bgvh2rcd13ifvqcs0","pricing_plan_id":"free"},{"bike_id":"3ebe8c5d-5969-481e-9e6b-2c719c064fc3","system_id":"levelo_inurba_marseille","lat":43.301117,"lon":5.398795,"is_reserved":false,"is_disabled":false,"rental_uris":{"android":"levelo://app?vid=3ebe8c5d-5969-481e-9e6b-2c719c064fc3","ios":"levelo://app?vid=3ebe8c5d-5969-481e-9e6b-2c719c064fc3"},"vehicle_type_id":"4","last_reported":1691953407,"current_range_meters":2000,"station_id":"ce4bh0h2rcd13ifvqd40","pricing_plan_id":"free"},{"bike_id":"324d3429-c81b-46d4-bd15-92978dcbe820","system_id":"levelo_inurba_marseille","lat":43.290345,"lon":5.38646,"is_reserved":false,"is_disabled":false,"rental_uris":{"android":"levelo://app?vid=324d3429-c81b-46d4-bd15-92978dcbe820","ios":"levelo://app?vid=324d3429-c81b-46d4-bd15-92978dcbe820"},"vehicle_type_id":"4","last_reported":1691953407,"current_range_meters":30000,"station_id":"ce4bh4p2rcd13ifvqe0g","pricing_plan_id":"free"},{"bike_id":"f5ccd15d-a3d4-46e6-b23c-3d6064c444b5","system_id":"levelo_inurba_marseille","lat":43.290336,"lon":5.386425,"is_reserved":false,"is_disabled":false,"rental_uris":{"android":"levelo://app?vid=f5ccd15d-a3d4-46e6-b23c-3d6064c444b5","ios":"levelo://app?vid=f5ccd15d-a3d4-46e6-b23c-3d6064c444b5"},"vehicle_type_id":"4","last_reported":1691953407,"current_range_meters":25200,"station_id":"ce4bh4p2rcd13ifvqe0g","pricing_plan_id":"free"},{"bike_id":"50b6dd82-19c8-4ae1-ab40-0e54f8e3d8e1","system_id":"levelo_inurba_marseille","lat":43.28612,"lon":5.37056,"is_reserved":false,"is_disabled":false,"rental_uris":{"android":"levelo://app?vid=50b6dd82-19c8-4ae1-ab40-0e54f8e3d8e1","ios":"levelo://app?vid=50b6dd82-19c8-4ae1-ab40-0e54f8e3d8e1"},"vehicle_type_id":"4","last_reported":1691953407,"current_range_meters":4400,"station_id":"ce4bht12rcd13ifvqi60","pricing_plan_id":"free"},{"bike_id":"04e80991-7bd5-4eaa-ae88-1721f0a71114","system_id":"levelo_inurba_marseille","lat":43.28611,"lon":5.3706,"is_reserved":false,"is_disabled":false,"rental_uris":{"android":"levelo://app?vid=04e80991-7bd5-4eaa-ae88-1721f0a71114","ios":"levelo://app?vid=04e80991-7bd5-4eaa-ae88-1721f0a71114"},"vehicle_type_id":"4","last_reported":1691953407,"current_range_meters":14800,"station_id":"ce4bht12rcd13ifvqi60","pricing_plan_id":"free"},{"bike_id":"226d8f1d-5dd8-471a-a574-9668032596a7","system_id":"levelo_inurba_marseille","lat":43.28611,"lon":5.3706,"is_reserved":false,"is_disabled":false,"rental_uris":{"android":"levelo://app?vid=226d8f1d-5dd8-471a-a574-9668032596a7","ios":"levelo://app?vid=226d8f1d-5dd8-471a-a574-9668032596a7"},"vehicle_type_id":"4","last_reported":1691953407,"current_range_meters":21600,"station_id":"ce4bht12rcd13ifvqi60","pricing_plan_id":"free"},{"bike_id":"6ccb32e0-3641-4a10-b210-4a7e752a5eef","system_id":"levelo_inurba_marseille","lat":43.286039,"lon":5.370681,"is_reserved":false,"is_disabled":false,"rental_uris":{"android":"levelo://app?vid=6ccb32e0-3641-4a10-b210-4a7e752a5eef","ios":"levelo://app?vid=6ccb32e0-3641-4a10-b210-4a7e752a5eef"},"vehicle_type_id":"4","last_reported":1691953407,"current_range_meters":24400,"station_id":"ce4bht12rcd13ifvqi60","pricing_plan_id":"free"},{"bike_id":"a2348519-1ec9-43d1-be2f-1db32422f0fc","system_id":"levelo_inurba_marseille","lat":43.28726,"lon":5.37917,"is_reserved":false,"is_disabled":false,"rental_uris":{"android":"levelo://app?vid=a2348519-1ec9-43d1-be2f-1db32422f0fc","ios":"levelo://app?vid=a2348519-1ec9-43d1-be2f-1db32422f0fc"},"vehicle_type_id":"4","last_reported":1691953407,"current_range_meters":28400,"station_id":"ce4bh9p2rcd13ifvqec0","pricing_plan_id":"free"},{"bike_id":"ebcc8898-a90b-40ac-b17b-34702473ceb8","system_id":"levelo_inurba_marseille","lat":43.31495,"lon":5.403936,"is_reserved":false,"is_disabled":false,"rental_uris":{"android":"levelo://app?vid=ebcc8898-a90b-40ac-b17b-34702473ceb8","ios":"levelo://app?vid=ebcc8898-a90b-40ac-b17b-34702473ceb8"},"vehicle_type_id":"4","last_reported":1691953407,"current_range_meters":12800,"station_id":"ce4bh012rcd13ifvqd00","pricing_plan_id":"free"},{"bike_id":"ef016f74-ec47-4551-9514-52bf1279cfb9","system_id":"levelo_inurba_marseille","lat":43.287185,"lon":5.379373,"is_reserved":false,"is_disabled":false,"rental_uris":{"android":"levelo://app?vid=ef016f74-ec47-4551-9514-52bf1279cfb9","ios":"levelo://app?vid=ef016f74-ec47-4551-9514-52bf1279cfb9"},"vehicle_type_id":"4","last_reported":1691953407,"current_range_meters":6000,"station_id":"ce4bh9p2rcd13ifvqec0","pricing_plan_id":"free"},{"bike_id":"6e710ec2-0129-4148-bbe6-cb7958d6459d","system_id":"levelo_inurba_marseille","lat":43.287185,"lon":5.379373,"is_reserved":false,"is_disabled":false,"rental_uris":{"android":"levelo://app?vid=6e710ec2-0129-4148-bbe6-cb7958d6459d","ios":"levelo://app?vid=6e710ec2-0129-4148-bbe6-cb7958d6459d"},"vehicle_type_id":"4","last_reported":1691953407,"current_range_meters":1200,"station_id":"ce4bh9p2rcd13ifvqec0","pricing_plan_id":"free"},{"bike_id":"862f18f2-a60d-4a5b-aead-0bab401eb7d3","system_id":"levelo_inurba_marseille","lat":43.287185,"lon":5.379373,"is_reserved":false,"is_disabled":false,"rental_uris":{"android":"levelo://app?vid=862f18f2-a60d-4a5b-aead-0bab401eb7d3","ios":"levelo://app?vid=862f18f2-a60d-4a5b-aead-0bab401eb7d3"},"vehicle_type_id":"4","last_reported":1691953407,"current_range_meters":0,"station_id":"ce4bh9p2rcd13ifvqec0","pricing_plan_id":"free"},{"bike_id":"f7386279-61d4-40a7-8250-498929fdf427","system_id":"levelo_inurba_marseille","lat":43.287202,"lon":5.379323,"is_reserved":false,"is_disabled":false,"rental_uris":{"android":"levelo://app?vid=f7386279-61d4-40a7-8250-498929fdf427","ios":"levelo://app?vid=f7386279-61d4-40a7-8250-498929fdf427"},"vehicle_type_id":"4","last_reported":1691953407,"current_range_meters":10000,"station_id":"ce4bh9p2rcd13ifvqec0","pricing_plan_id":"free"},{"bike_id":"12707d68-b5fe-4ec7-a6f9-452190304a78","system_id":"levelo_inurba_marseille","lat":43.28717,"lon":5.37921,"is_reserved":false,"is_disabled":false,"rental_uris":{"android":"levelo://app?vid=12707d68-b5fe-4ec7-a6f9-452190304a78","ios":"levelo://app?vid=12707d68-b5fe-4ec7-a6f9-452190304a78"},"vehicle_type_id":"4","last_reported":1691953407,"current_range_meters":25600,"station_id":"ce4bh9p2rcd13ifvqec0","pricing_plan_id":"free"},{"bike_id":"a67f315e-8c67-45c6-abd4-49c83c156e71","system_id":"levelo_inurba_marseille","lat":43.28715,"lon":5.37927,"is_reserved":false,"is_disabled":false,"rental_uris":{"android":"levelo://app?vid=a67f315e-8c67-45c6-abd4-49c83c156e71","ios":"levelo://app?vid=a67f315e-8c67-45c6-abd4-49c83c156e71"},"vehicle_type_id":"4","last_reported":1691953407,"current_range_meters":13200,"station_id":"ce4bh9p2rcd13ifvqec0","pricing_plan_id":"free"},{"bike_id":"4fe6f118-24d8-477a-9ba5-38993b3cbb9a","system_id":"levelo_inurba_marseille","lat":43.31652,"lon":5.40439,"is_reserved":false,"is_disabled":false,"rental_uris":{"android":"levelo://app?vid=4fe6f118-24d8-477a-9ba5-38993b3cbb9a","ios":"levelo://app?vid=4fe6f118-24d8-477a-9ba5-38993b3cbb9a"},"vehicle_type_id":"4","last_reported":1691953407,"current_range_meters":10000,"station_id":"ce4bh012rcd13ifvqd00","pricing_plan_id":"free"},{"bike_id":"54cce76f-eaaf-4b22-b93d-d5a57c55eec1","system_id":"levelo_inurba_marseille","lat":43.291994,"lon":5.392907,"is_reserved":false,"is_disabled":false,"rental_uris":{"android":"levelo://app?vid=54cce76f-eaaf-4b22-b93d-d5a57c55eec1","ios":"levelo://app?vid=54cce76f-eaaf-4b22-b93d-d5a57c55eec1"},"vehicle_type_id":"4","last_reported":1691953407,"current_range_meters":2000,"station_id":"ce4bh192rcd13ifvqdd0","pricing_plan_id":"free"},{"bike_id":"f430f7f7-17f2-46ab-9f21-3c7e43c2f30a","system_id":"levelo_inurba_marseille","lat":43.291994,"lon":5.392907,"is_reserved":false,"is_disabled":false,"rental_uris":{"android":"levelo://app?vid=f430f7f7-17f2-46ab-9f21-3c7e43c2f30a","ios":"levelo://app?vid=f430f7f7-17f2-46ab-9f21-3c7e43c2f30a"},"vehicle_type_id":"4","last_reported":1691953407,"current_range_meters":17200,"station_id":"ce4bh192rcd13ifvqdd0","pricing_plan_id":"free"},{"bike_id":"878fd201-3630-471c-b3b2-b3a62c4b59d7","system_id":"levelo_inurba_marseille","lat":43.284538,"lon":5.358657,"is_reserved":false,"is_disabled":false,"rental_uris":{"android":"levelo://app?vid=878fd201-3630-471c-b3b2-b3a62c4b59d7","ios":"levelo://app?vid=878fd201-3630-471c-b3b2-b3a62c4b59d7"},"vehicle_type_id":"4","last_reported":1691953407,"current_range_meters":23600,"station_id":"ce4bhah2rcd13ifvqei0","pricing_plan_id":"free"},{"bike_id":"591959a7-1a2c-4be0-a5f9-c4badc61c6e4","system_id":"levelo_inurba_marseille","lat":43.28464,"lon":5.35887,"is_reserved":false,"is_disabled":false,"rental_uris":{"android":"levelo://app?vid=591959a7-1a2c-4be0-a5f9-c4badc61c6e4","ios":"levelo://app?vid=591959a7-1a2c-4be0-a5f9-c4badc61c6e4"},"vehicle_type_id":"4","last_reported":1691953407,"current_range_meters":18800,"station_id":"ce4bhah2rcd13ifvqei0","pricing_plan_id":"free"},{"bike_id":"e314a114-7714-4542-8492-5507458a7af7","system_id":"levelo_inurba_marseille","lat":43.28463,"lon":5.35889,"is_reserved":false,"is_disabled":false,"rental_uris":{"android":"levelo://app?vid=e314a114-7714-4542-8492-5507458a7af7","ios":"levelo://app?vid=e314a114-7714-4542-8492-5507458a7af7"},"vehicle_type_id":"4","last_reported":1691953407,"current_range_meters":19200,"station_id":"ce4bhah2rcd13ifvqei0","pricing_plan_id":"free"},{"bike_id":"1cb5b6af-d26a-4b5a-9283-7e13ee0b44f1","system_id":"levelo_inurba_marseille","lat":43.28457,"lon":5.35888,"is_reserved":false,"is_disabled":false,"rental_uris":{"android":"levelo://app?vid=1cb5b6af-d26a-4b5a-9283-7e13ee0b44f1","ios":"levelo://app?vid=1cb5b6af-d26a-4b5a-9283-7e13ee0b44f1"},"vehicle_type_id":"4","last_reported":1691953407,"current_range_meters":17200,"station_id":"ce4bhah2rcd13ifvqei0","pricing_plan_id":"free"},{"bike_id":"33e4141f-33b2-4487-b986-7feb5dfe391b","system_id":"levelo_inurba_marseille","lat":43.28616,"lon":5.35098,"is_reserved":false,"is_disabled":false,"rental_uris":{"android":"levelo://app?vid=33e4141f-33b2-4487-b986-7feb5dfe391b","ios":"levelo://app?vid=33e4141f-33b2-4487-b986-7feb5dfe391b"},"vehicle_type_id":"4","last_reported":1691953407,"current_range_meters":25600,"station_id":"ce4bhch2rcd13ifvqeug","pricing_plan_id":"free"},{"bike_id":"edecb395-89b4-401c-b878-f6dc76493177","system_id":"levelo_inurba_marseille","lat":43.283998,"lon":5.375062,"is_reserved":false,"is_disabled":false,"rental_uris":{"android":"levelo://app?vid=edecb395-89b4-401c-b878-f6dc76493177","ios":"levelo://app?vid=edecb395-89b4-401c-b878-f6dc76493177"},"vehicle_type_id":"4","last_reported":1691953407,"current_range_meters":11200,"station_id":"ce4bh412rcd13ifvqds0","pricing_plan_id":"free"},{"bike_id":"f6ba5bdc-2516-403e-b4cb-6fd4ac784426","system_id":"levelo_inurba_marseille","lat":43.283998,"lon":5.375062,"is_reserved":false,"is_disabled":false,"rental_uris":{"android":"levelo://app?vid=f6ba5bdc-2516-403e-b4cb-6fd4ac784426","ios":"levelo://app?vid=f6ba5bdc-2516-403e-b4cb-6fd4ac784426"},"vehicle_type_id":"4","last_reported":1691953407,"current_range_meters":1200,"station_id":"ce4bh412rcd13ifvqds0","pricing_plan_id":"free"},{"bike_id":"73d29ba9-3c6f-4364-ba92-fc9531ec0285","system_id":"levelo_inurba_marseille","lat":43.283998,"lon":5.375062,"is_reserved":false,"is_disabled":false,"rental_uris":{"android":"levelo://app?vid=73d29ba9-3c6f-4364-ba92-fc9531ec0285","ios":"levelo://app?vid=73d29ba9-3c6f-4364-ba92-fc9531ec0285"},"vehicle_type_id":"4","last_reported":1691953407,"current_range_meters":30800,"station_id":"ce4bh412rcd13ifvqds0","pricing_plan_id":"free"},{"bike_id":"87e92c70-11c3-4f87-aaca-bc7d4407b67b","system_id":"levelo_inurba_marseille","lat":43.2841,"lon":5.37506,"is_reserved":false,"is_disabled":false,"rental_uris":{"android":"levelo://app?vid=87e92c70-11c3-4f87-aaca-bc7d4407b67b","ios":"levelo://app?vid=87e92c70-11c3-4f87-aaca-bc7d4407b67b"},"vehicle_type_id":"4","last_reported":1691953407,"current_range_meters":11600,"station_id":"ce4bh412rcd13ifvqds0","pricing_plan_id":"free"},{"bike_id":"4745fc03-483a-4c14-a1f1-9ab97149788f","system_id":"levelo_inurba_marseille","lat":43.283998,"lon":5.375062,"is_reserved":false,"is_disabled":false,"rental_uris":{"android":"levelo://app?vid=4745fc03-483a-4c14-a1f1-9ab97149788f","ios":"levelo://app?vid=4745fc03-483a-4c14-a1f1-9ab97149788f"},"vehicle_type_id":"4","last_reported":1691953407,"current_range_meters":0,"station_id":"ce4bh412rcd13ifvqds0","pricing_plan_id":"free"},{"bike_id":"47edd269-0bec-4e55-822a-8294afcf1dbc","system_id":"levelo_inurba_marseille","lat":43.283998,"lon":5.375062,"is_reserved":false,"is_disabled":false,"rental_uris":{"android":"levelo://app?vid=47edd269-0bec-4e55-822a-8294afcf1dbc","ios":"levelo://app?vid=47edd269-0bec-4e55-822a-8294afcf1dbc"},"vehicle_type_id":"4","last_reported":1691953407,"current_range_meters":24400,"station_id":"ce4bh412rcd13ifvqds0","pricing_plan_id":"free"},{"bike_id":"e60a7dbf-add6-47d3-8081-13265202144a","system_id":"levelo_inurba_marseille","lat":43.283998,"lon":5.375062,"is_reserved":false,"is_disabled":false,"rental_uris":{"android":"levelo://app?vid=e60a7dbf-add6-47d3-8081-13265202144a","ios":"levelo://app?vid=e60a7dbf-add6-47d3-8081-13265202144a"},"vehicle_type_id":"4","last_reported":1691953407,"current_range_meters":16400,"station_id":"ce4bh412rcd13ifvqds0","pricing_plan_id":"free"},{"bike_id":"7ddfaf75-6854-4635-bc5f-ecb0fa9c5089","system_id":"levelo_inurba_marseille","lat":43.283998,"lon":5.375062,"is_reserved":false,"is_disabled":false,"rental_uris":{"android":"levelo://app?vid=7ddfaf75-6854-4635-bc5f-ecb0fa9c5089","ios":"levelo://app?vid=7ddfaf75-6854-4635-bc5f-ecb0fa9c5089"},"vehicle_type_id":"4","last_reported":1691953407,"current_range_meters":13200,"station_id":"ce4bh412rcd13ifvqds0","pricing_plan_id":"free"},{"bike_id":"a57f69bf-5bd0-463c-84cc-cd84f41a48a0","system_id":"levelo_inurba_marseille","lat":43.283998,"lon":5.375062,"is_reserved":false,"is_disabled":false,"rental_uris":{"android":"levelo://app?vid=a57f69bf-5bd0-463c-84cc-cd84f41a48a0","ios":"levelo://app?vid=a57f69bf-5bd0-463c-84cc-cd84f41a48a0"},"vehicle_type_id":"4","last_reported":1691953407,"current_range_meters":28000,"station_id":"ce4bh412rcd13ifvqds0","pricing_plan_id":"free"},{"bike_id":"d428c479-84e2-4000-bd46-2301a2f68073","system_id":"levelo_inurba_marseille","lat":43.283998,"lon":5.375062,"is_reserved":false,"is_disabled":false,"rental_uris":{"android":"levelo://app?vid=d428c479-84e2-4000-bd46-2301a2f68073","ios":"levelo://app?vid=d428c479-84e2-4000-bd46-2301a2f68073"},"vehicle_type_id":"4","last_reported":1691953407,"current_range_meters":18800,"station_id":"ce4bh412rcd13ifvqds0","pricing_plan_id":"free"},{"bike_id":"1c38b4e3-14ba-4ff1-bf05-d05c1963dc14","system_id":"levelo_inurba_marseille","lat":43.286595,"lon":5.386795,"is_reserved":false,"is_disabled":false,"rental_uris":{"android":"levelo://app?vid=1c38b4e3-14ba-4ff1-bf05-d05c1963dc14","ios":"levelo://app?vid=1c38b4e3-14ba-4ff1-bf05-d05c1963dc14"},"vehicle_type_id":"4","last_reported":1691953407,"current_range_meters":0,"station_id":"ce4bh492rcd13ifvqdug","pricing_plan_id":"free"},{"bike_id":"96ade314-aef4-4d61-a1dc-fa8b20e20423","system_id":"levelo_inurba_marseille","lat":43.28686,"lon":5.38654,"is_reserved":false,"is_disabled":false,"rental_uris":{"android":"levelo://app?vid=96ade314-aef4-4d61-a1dc-fa8b20e20423","ios":"levelo://app?vid=96ade314-aef4-4d61-a1dc-fa8b20e20423"},"vehicle_type_id":"4","last_reported":1691953407,"current_range_meters":15200,"station_id":"ce4bh492rcd13ifvqdug","pricing_plan_id":"free"},{"bike_id":"4fe5aaa8-3dad-4b41-870e-54734b209211","system_id":"levelo_inurba_marseille","lat":43.28677,"lon":5.38655,"is_reserved":false,"is_disabled":false,"rental_uris":{"android":"levelo://app?vid=4fe5aaa8-3dad-4b41-870e-54734b209211","ios":"levelo://app?vid=4fe5aaa8-3dad-4b41-870e-54734b209211"},"vehicle_type_id":"4","last_reported":1691953407,"current_range_meters":21600,"station_id":"ce4bh492rcd13ifvqdug","pricing_plan_id":"free"},{"bike_id":"a03e5f9e-42cb-4eb5-bcac-b32a6a61c92e","system_id":"levelo_inurba_marseille","lat":43.286595,"lon":5.386795,"is_reserved":false,"is_disabled":false,"rental_uris":{"android":"levelo://app?vid=a03e5f9e-42cb-4eb5-bcac-b32a6a61c92e","ios":"levelo://app?vid=a03e5f9e-42cb-4eb5-bcac-b32a6a61c92e"},"vehicle_type_id":"4","last_reported":1691953407,"current_range_meters":12800,"station_id":"ce4bh492rcd13ifvqdug","pricing_plan_id":"free"},{"bike_id":"e3e767bc-c4cd-4c27-bbbb-079ce2074be1","system_id":"levelo_inurba_marseille","lat":43.28665,"lon":5.38661,"is_reserved":false,"is_disabled":false,"rental_uris":{"android":"levelo://app?vid=e3e767bc-c4cd-4c27-bbbb-079ce2074be1","ios":"levelo://app?vid=e3e767bc-c4cd-4c27-bbbb-079ce2074be1"},"vehicle_type_id":"4","last_reported":1691953407,"current_range_meters":0,"station_id":"ce4bh492rcd13ifvqdug","pricing_plan_id":"free"},{"bike_id":"c18ba6be-13f2-4c39-8832-e46476926e88","system_id":"levelo_inurba_marseille","lat":43.286595,"lon":5.386795,"is_reserved":false,"is_disabled":false,"rental_uris":{"android":"levelo://app?vid=c18ba6be-13f2-4c39-8832-e46476926e88","ios":"levelo://app?vid=c18ba6be-13f2-4c39-8832-e46476926e88"},"vehicle_type_id":"4","last_reported":1691953407,"current_range_meters":0,"station_id":"ce4bh492rcd13ifvqdug","pricing_plan_id":"free"},{"bike_id":"c7f55b38-f91b-41fb-a480-21b4dec7e541","system_id":"levelo_inurba_marseille","lat":43.33714,"lon":5.39174,"is_reserved":false,"is_disabled":false,"rental_uris":{"android":"levelo://app?vid=c7f55b38-f91b-41fb-a480-21b4dec7e541","ios":"levelo://app?vid=c7f55b38-f91b-41fb-a480-21b4dec7e541"},"vehicle_type_id":"4","last_reported":1691953407,"current_range_meters":31200,"station_id":"ce4bhr92rcd13ifvqhsg","pricing_plan_id":"free"},{"bike_id":"516bb14a-6b1b-4c06-b018-75a599b6c480","system_id":"levelo_inurba_marseille","lat":43.33724,"lon":5.39184,"is_reserved":false,"is_disabled":false,"rental_uris":{"android":"levelo://app?vid=516bb14a-6b1b-4c06-b018-75a599b6c480","ios":"levelo://app?vid=516bb14a-6b1b-4c06-b018-75a599b6c480"},"vehicle_type_id":"4","last_reported":1691953407,"current_range_meters":21600,"station_id":"ce4bhr92rcd13ifvqhsg","pricing_plan_id":"free"},{"bike_id":"40ad5127-f3a2-41ef-ae85-1f495e32aa19","system_id":"levelo_inurba_marseille","lat":43.33732,"lon":5.39175,"is_reserved":false,"is_disabled":false,"rental_uris":{"android":"levelo://app?vid=40ad5127-f3a2-41ef-ae85-1f495e32aa19","ios":"levelo://app?vid=40ad5127-f3a2-41ef-ae85-1f495e32aa19"},"vehicle_type_id":"4","last_reported":1691953407,"current_range_meters":31200,"station_id":"ce4bhr92rcd13ifvqhsg","pricing_plan_id":"free"},{"bike_id":"3418df2e-6699-4bed-91a2-b25e9f32f724","system_id":"levelo_inurba_marseille","lat":43.33732,"lon":5.39185,"is_reserved":false,"is_disabled":false,"rental_uris":{"android":"levelo://app?vid=3418df2e-6699-4bed-91a2-b25e9f32f724","ios":"levelo://app?vid=3418df2e-6699-4bed-91a2-b25e9f32f724"},"vehicle_type_id":"4","last_reported":1691953407,"current_range_meters":31200,"station_id":"ce4bhr92rcd13ifvqhsg","pricing_plan_id":"free"},{"bike_id":"8f543fa4-f63d-4f9d-9518-644db34a5130","system_id":"levelo_inurba_marseille","lat":43.288497,"lon":5.393089,"is_reserved":false,"is_disabled":false,"rental_uris":{"android":"levelo://app?vid=8f543fa4-f63d-4f9d-9518-644db34a5130","ios":"levelo://app?vid=8f543fa4-f63d-4f9d-9518-644db34a5130"},"vehicle_type_id":"4","last_reported":1691953407,"current_range_meters":15600,"station_id":"ce4bh2p2rcd13ifvqdi0","pricing_plan_id":"free"},{"bike_id":"a73e6b18-4f68-4e21-9747-6892a713f318","system_id":"levelo_inurba_marseille","lat":43.288497,"lon":5.393089,"is_reserved":false,"is_disabled":false,"rental_uris":{"android":"levelo://app?vid=a73e6b18-4f68-4e21-9747-6892a713f318","ios":"levelo://app?vid=a73e6b18-4f68-4e21-9747-6892a713f318"},"vehicle_type_id":"4","last_reported":1691953407,"current_range_meters":2400,"station_id":"ce4bh2p2rcd13ifvqdi0","pricing_plan_id":"free"},{"bike_id":"443ff2a0-a7b0-4231-946c-a8c60512a95b","system_id":"levelo_inurba_marseille","lat":43.288497,"lon":5.393089,"is_reserved":false,"is_disabled":false,"rental_uris":{"android":"levelo://app?vid=443ff2a0-a7b0-4231-946c-a8c60512a95b","ios":"levelo://app?vid=443ff2a0-a7b0-4231-946c-a8c60512a95b"},"vehicle_type_id":"4","last_reported":1691953407,"current_range_meters":0,"station_id":"ce4bh2p2rcd13ifvqdi0","pricing_plan_id":"free"},{"bike_id":"5484c416-5588-425c-92f4-587d5a7cb750","system_id":"levelo_inurba_marseille","lat":43.288497,"lon":5.393089,"is_reserved":false,"is_disabled":false,"rental_uris":{"android":"levelo://app?vid=5484c416-5588-425c-92f4-587d5a7cb750","ios":"levelo://app?vid=5484c416-5588-425c-92f4-587d5a7cb750"},"vehicle_type_id":"4","last_reported":1691953407,"current_range_meters":8800,"station_id":"ce4bh2p2rcd13ifvqdi0","pricing_plan_id":"free"},{"bike_id":"dbdf492d-b21c-452f-b40d-d5f255ff13ba","system_id":"levelo_inurba_marseille","lat":43.288497,"lon":5.393089,"is_reserved":false,"is_disabled":false,"rental_uris":{"android":"levelo://app?vid=dbdf492d-b21c-452f-b40d-d5f255ff13ba","ios":"levelo://app?vid=dbdf492d-b21c-452f-b40d-d5f255ff13ba"},"vehicle_type_id":"4","last_reported":1691953407,"current_range_meters":20000,"station_id":"ce4bh2p2rcd13ifvqdi0","pricing_plan_id":"free"},{"bike_id":"b8366169-ae54-47aa-ab57-33f8aa36db64","system_id":"levelo_inurba_marseille","lat":43.288497,"lon":5.393089,"is_reserved":false,"is_disabled":false,"rental_uris":{"android":"levelo://app?vid=b8366169-ae54-47aa-ab57-33f8aa36db64","ios":"levelo://app?vid=b8366169-ae54-47aa-ab57-33f8aa36db64"},"vehicle_type_id":"4","last_reported":1691953407,"current_range_meters":12800,"station_id":"ce4bh2p2rcd13ifvqdi0","pricing_plan_id":"free"},{"bike_id":"8e86ed1f-8b2f-493c-995c-8697720691af","system_id":"levelo_inurba_marseille","lat":43.283494,"lon":5.380945,"is_reserved":false,"is_disabled":false,"rental_uris":{"android":"levelo://app?vid=8e86ed1f-8b2f-493c-995c-8697720691af","ios":"levelo://app?vid=8e86ed1f-8b2f-493c-995c-8697720691af"},"vehicle_type_id":"4","last_reported":1691953407,"current_range_meters":15200,"station_id":"ce4bh412rcd13ifvqdr0","pricing_plan_id":"free"},{"bike_id":"f7a08de9-186d-4fbe-956b-a5875e1a0638","system_id":"levelo_inurba_marseille","lat":43.288497,"lon":5.393089,"is_reserved":false,"is_disabled":false,"rental_uris":{"android":"levelo://app?vid=f7a08de9-186d-4fbe-956b-a5875e1a0638","ios":"levelo://app?vid=f7a08de9-186d-4fbe-956b-a5875e1a0638"},"vehicle_type_id":"4","last_reported":1691953407,"current_range_meters":30800,"station_id":"ce4bh2p2rcd13ifvqdi0","pricing_plan_id":"free"},{"bike_id":"e9561482-3629-4da7-bc45-245f1d87ec8a","system_id":"levelo_inurba_marseille","lat":43.283498,"lon":5.380948,"is_reserved":false,"is_disabled":false,"rental_uris":{"android":"levelo://app?vid=e9561482-3629-4da7-bc45-245f1d87ec8a","ios":"levelo://app?vid=e9561482-3629-4da7-bc45-245f1d87ec8a"},"vehicle_type_id":"4","last_reported":1691953407,"current_range_meters":11200,"station_id":"ce4bh412rcd13ifvqdr0","pricing_plan_id":"free"},{"bike_id":"5cec26ac-344f-432b-af34-450b75305b9b","system_id":"levelo_inurba_marseille","lat":43.292724,"lon":5.401131,"is_reserved":false,"is_disabled":false,"rental_uris":{"android":"levelo://app?vid=5cec26ac-344f-432b-af34-450b75305b9b","ios":"levelo://app?vid=5cec26ac-344f-432b-af34-450b75305b9b"},"vehicle_type_id":"4","last_reported":1691953407,"current_range_meters":31200,"station_id":"ce4bh312rcd13ifvqdk0","pricing_plan_id":"free"},{"bike_id":"8cd1d65d-4b6b-476a-bec5-d40c01d46e24","system_id":"levelo_inurba_marseille","lat":43.282754,"lon":5.350519,"is_reserved":false,"is_disabled":false,"rental_uris":{"android":"levelo://app?vid=8cd1d65d-4b6b-476a-bec5-d40c01d46e24","ios":"levelo://app?vid=8cd1d65d-4b6b-476a-bec5-d40c01d46e24"},"vehicle_type_id":"4","last_reported":1691953407,"current_range_meters":15200,"station_id":"ce4bhbp2rcd13ifvqerg","pricing_plan_id":"free"},{"bike_id":"88940920-727e-47f8-bee6-24feedff1167","system_id":"levelo_inurba_marseille","lat":43.282754,"lon":5.350519,"is_reserved":false,"is_disabled":false,"rental_uris":{"android":"levelo://app?vid=88940920-727e-47f8-bee6-24feedff1167","ios":"levelo://app?vid=88940920-727e-47f8-bee6-24feedff1167"},"vehicle_type_id":"4","last_reported":1691953407,"current_range_meters":31200,"station_id":"ce4bhbp2rcd13ifvqerg","pricing_plan_id":"free"},{"bike_id":"59573f74-67bd-4d70-8f1c-08188805ac11","system_id":"levelo_inurba_marseille","lat":43.283502,"lon":5.386471,"is_reserved":false,"is_disabled":false,"rental_uris":{"android":"levelo://app?vid=59573f74-67bd-4d70-8f1c-08188805ac11","ios":"levelo://app?vid=59573f74-67bd-4d70-8f1c-08188805ac11"},"vehicle_type_id":"4","last_reported":1691953407,"current_range_meters":22000,"station_id":"ce4bh492rcd13ifvqdvg","pricing_plan_id":"free"},{"bike_id":"90381bdb-8856-4829-bace-c55f8303123e","system_id":"levelo_inurba_marseille","lat":43.28039,"lon":5.369297,"is_reserved":false,"is_disabled":false,"rental_uris":{"android":"levelo://app?vid=90381bdb-8856-4829-bace-c55f8303123e","ios":"levelo://app?vid=90381bdb-8856-4829-bace-c55f8303123e"},"vehicle_type_id":"4","last_reported":1691953407,"current_range_meters":12400,"station_id":"ce4bha12rcd13ifvqef0","pricing_plan_id":"free"},{"bike_id":"575a842c-046f-4b14-b64f-5ce0dba5bfd1","system_id":"levelo_inurba_marseille","lat":43.280382,"lon":5.369291,"is_reserved":false,"is_disabled":false,"rental_uris":{"android":"levelo://app?vid=575a842c-046f-4b14-b64f-5ce0dba5bfd1","ios":"levelo://app?vid=575a842c-046f-4b14-b64f-5ce0dba5bfd1"},