{"last_updated":1687302386,"ttl":30,"version":"2.2","data":{"bikes":[{"bike_id":"6e4fd040-1866-4783-872c-dd21a7ae18af","system_id":"levelo_inurba_marseille","lat":43.31352,"lon":5.37068,"is_reserved":false,"is_disabled":false,"rental_uris":{"android":"levelo://app?vid=6e4fd040-1866-4783-872c-dd21a7ae18af","ios":"levelo://app?vid=6e4fd040-1866-4783-872c-dd21a7ae18af"},"vehicle_type_id":"4","last_reported":1687302387,"current_range_meters":12800,"station_id":"","pricing_plan_id":"free"},{"bike_id":"2984e924-51e0-411e-86ea-e31cc7bdc0aa","system_id":"levelo_inurba_marseille","lat":43.314811,"lon":5.373103,"is_reserved":false,"is_disabled":false,"rental_uris":{"android":"levelo://app?vid=2984e924-51e0-411e-86ea-e31cc7bdc0aa","ios":"levelo://app?vid=2984e924-51e0-411e-86ea-e31cc7bdc0aa"},"vehicle_type_id":"4","last_reported":1687302387,"current_range_meters":31200,"station_id":"ce4bgt12rcd13ifvqcd0","pricing_plan_id":"free"},{"bike_id":"14a6e91b-7e14-4834-af22-8971e8098b57","system_id":"levelo_inurba_marseille","lat":43.314811,"lon":5.373103,"is_reserved":false,"is_disabled":false,"rental_uris":{"android":"levelo://app?vid=14a6e91b-7e14-4834-af22-8971e8098b57","ios":"levelo://app?vid=14a6e91b-7e14-4834-af22-8971e8098b57"},"vehicle_type_id":"4","last_reported":1687302387,"current_range_meters":19200,"station_id":"ce4bgt12rcd13ifvqcd0","pricing_plan_id":"free"},{"bike_id":"07f43394-ec75-4f70-841c-d1206723157a","system_id":"levelo_inurba_marseille","lat":43.314811,"lon":5.373104,"is_reserved":false,"is_disabled":false,"rental_uris":{"android":"levelo://app?vid=07f43394-ec75-4f70-841c-d1206723157a","ios":"levelo://app?vid=07f43394-ec75-4f70-841c-d1206723157a"},"vehicle_type_id":"4","last_reported":1687302387,"current_range_meters":29200,"station_id":"ce4bgt12rcd13ifvqcd0","pricing_plan_id":"free"},{"bike_id":"d1e2bfa2-ecaa-4819-b76d-6a7316eb1153","system_id":"levelo_inurba_marseille","lat":43.314811,"lon":5.373103,"is_reserved":false,"is_disabled":false,"rental_uris":{"android":"levelo://app?vid=d1e2bfa2-ecaa-4819-b76d-6a7316eb1153","ios":"levelo://app?vid=d1e2bfa2-ecaa-4819-b76d-6a7316eb1153"},"vehicle_type_id":"4","last_reported":1687302387,"current_range_meters":2400,"station_id":"ce4bgt12rcd13ifvqcd0","pricing_plan_id":"free"},{"bike_id":"0f30e9c0-439f-448b-8170-6848ff9cedd8","system_id":"levelo_inurba_marseille","lat":43.314811,"lon":5.373103,"is_reserved":false,"is_disabled":false,"rental_uris":{"android":"levelo://app?vid=0f30e9c0-439f-448b-8170-6848ff9cedd8","ios":"levelo://app?vid=0f30e9c0-439f-448b-8170-6848ff9cedd8"},"vehicle_type_id":"4","last_reported":1687302387,"current_range_meters":30800,"station_id":"ce4bgt12rcd13ifvqcd0","pricing_plan_id":"free"},{"bike_id":"bc5cb4e9-19a3-402d-8482-706cb04f33a6","system_id":"levelo_inurba_marseille","lat":43.314811,"lon":5.373103,"is_reserved":false,"is_disabled":false,"rental_uris":{"android":"levelo://app?vid=bc5cb4e9-19a3-402d-8482-706cb04f33a6","ios":"levelo://app?vid=bc5cb4e9-19a3-402d-8482-706cb04f33a6"},"vehicle_type_id":"4","last_reported":1687302387,"current_range_meters":30000,"station_id":"ce4bgt12rcd13ifvqcd0","pricing_plan_id":"free"},{"bike_id":"3da540aa-5929-4d4a-8397-46574265df24","system_id":"levelo_inurba_marseille","lat":43.30772,"lon":5.3669,"is_reserved":false,"is_disabled":false,"rental_uris":{"android":"levelo://app?vid=3da540aa-5929-4d4a-8397-46574265df24","ios":"levelo://app?vid=3da540aa-5929-4d4a-8397-46574265df24"},"vehicle_type_id":"4","last_reported":1687302387,"current_range_meters":16000,"station_id":"","pricing_plan_id":"free"},{"bike_id":"b475ee37-c1fe-4aca-ac77-025107bae466","system_id":"levelo_inurba_marseille","lat":43.308614,"lon":5.372098,"is_reserved":false,"is_disabled":false,"rental_uris":{"android":"levelo://app?vid=b475ee37-c1fe-4aca-ac77-025107bae466","ios":"levelo://app?vid=b475ee37-c1fe-4aca-ac77-025107bae466"},"vehicle_type_id":"4","last_reported":1687302387,"current_range_meters":4800,"station_id":"ce4bguh2rcd13ifvqckg","pricing_plan_id":"free"},{"bike_id":"fab7070f-fbf1-437e-aeb2-3e7c2540d25a","system_id":"levelo_inurba_marseille","lat":43.308614,"lon":5.372098,"is_reserved":false,"is_disabled":false,"rental_uris":{"android":"levelo://app?vid=fab7070f-fbf1-437e-aeb2-3e7c2540d25a","ios":"levelo://app?vid=fab7070f-fbf1-437e-aeb2-3e7c2540d25a"},"vehicle_type_id":"4","last_reported":1687302387,"current_range_meters":8400,"station_id":"ce4bguh2rcd13ifvqckg","pricing_plan_id":"free"},{"bike_id":"5fbdbe65-e141-4473-b7c7-3ca166ee6d1f","system_id":"levelo_inurba_marseille","lat":43.30824,"lon":5.37172,"is_reserved":false,"is_disabled":false,"rental_uris":{"android":"levelo://app?vid=5fbdbe65-e141-4473-b7c7-3ca166ee6d1f","ios":"levelo://app?vid=5fbdbe65-e141-4473-b7c7-3ca166ee6d1f"},"vehicle_type_id":"4","last_reported":1687302387,"current_range_meters":7200,"station_id":"","pricing_plan_id":"free"},{"bike_id":"ac3948ab-d135-4606-9ae2-b1a6060cb3ff","system_id":"levelo_inurba_marseille","lat":43.30543,"lon":5.36548,"is_reserved":false,"is_disabled":false,"rental_uris":{"android":"levelo://app?vid=ac3948ab-d135-4606-9ae2-b1a6060cb3ff","ios":"levelo://app?vid=ac3948ab-d135-4606-9ae2-b1a6060cb3ff"},"vehicle_type_id":"4","last_reported":1687302387,"current_range_meters":31200,"station_id":"ce4bgs12rcd13ifvqcag","pricing_plan_id":"free"},{"bike_id":"835fbb99-62de-43b1-a44b-02bb17ccd2df","system_id":"levelo_inurba_marseille","lat":43.30518,"lon":5.36695,"is_reserved":false,"is_disabled":false,"rental_uris":{"android":"levelo://app?vid=835fbb99-62de-43b1-a44b-02bb17ccd2df","ios":"levelo://app?vid=835fbb99-62de-43b1-a44b-02bb17ccd2df"},"vehicle_type_id":"4","last_reported":1687302387,"current_range_meters":29600,"station_id":"","pricing_plan_id":"free"},{"bike_id":"890f8faa-909c-44ec-ba9b-4e9f8bdef3b2","system_id":"levelo_inurba_marseille","lat":43.305989,"lon":5.37225,"is_reserved":false,"is_disabled":false,"rental_uris":{"android":"levelo://app?vid=890f8faa-909c-44ec-ba9b-4e9f8bdef3b2","ios":"levelo://app?vid=890f8faa-909c-44ec-ba9b-4e9f8bdef3b2"},"vehicle_type_id":"4","last_reported":1687302387,"current_range_meters":10400,"station_id":"ce4bgqh2rcd13ifvqc4g","pricing_plan_id":"free"},{"bike_id":"405bf2bc-c29d-46bb-8db9-32e904236719","system_id":"levelo_inurba_marseille","lat":43.305989,"lon":5.37225,"is_reserved":false,"is_disabled":false,"rental_uris":{"android":"levelo://app?vid=405bf2bc-c29d-46bb-8db9-32e904236719","ios":"levelo://app?vid=405bf2bc-c29d-46bb-8db9-32e904236719"},"vehicle_type_id":"4","last_reported":1687302387,"current_range_meters":12800,"station_id":"ce4bgqh2rcd13ifvqc4g","pricing_plan_id":"free"},{"bike_id":"1277a784-2446-4233-aee3-9b59fabe9237","system_id":"levelo_inurba_marseille","lat":43.305989,"lon":5.37225,"is_reserved":false,"is_disabled":false,"rental_uris":{"android":"levelo://app?vid=1277a784-2446-4233-aee3-9b59fabe9237","ios":"levelo://app?vid=1277a784-2446-4233-aee3-9b59fabe9237"},"vehicle_type_id":"4","last_reported":1687302387,"current_range_meters":6000,"station_id":"ce4bgqh2rcd13ifvqc4g","pricing_plan_id":"free"},{"bike_id":"949771ca-ce30-418e-a74a-c0fa392b3707","system_id":"levelo_inurba_marseille","lat":43.305989,"lon":5.37225,"is_reserved":false,"is_disabled":false,"rental_uris":{"android":"levelo://app?vid=949771ca-ce30-418e-a74a-c0fa392b3707","ios":"levelo://app?vid=949771ca-ce30-418e-a74a-c0fa392b3707"},"vehicle_type_id":"4","last_reported":1687302387,"current_range_meters":32000,"station_id":"ce4bgqh2rcd13ifvqc4g","pricing_plan_id":"free"},{"bike_id":"9e97c295-69ea-4006-847a-40b8884e99f6","system_id":"levelo_inurba_marseille","lat":43.305989,"lon":5.37225,"is_reserved":false,"is_disabled":false,"rental_uris":{"android":"levelo://app?vid=9e97c295-69ea-4006-847a-40b8884e99f6","ios":"levelo://app?vid=9e97c295-69ea-4006-847a-40b8884e99f6"},"vehicle_type_id":"4","last_reported":1687302387,"current_range_meters":24000,"station_id":"ce4bgqh2rcd13ifvqc4g","pricing_plan_id":"free"},{"bike_id":"9d2356ef-51aa-42a5-8161-0601503615c0","system_id":"levelo_inurba_marseille","lat":43.305989,"lon":5.37225,"is_reserved":false,"is_disabled":false,"rental_uris":{"android":"levelo://app?vid=9d2356ef-51aa-42a5-8161-0601503615c0","ios":"levelo://app?vid=9d2356ef-51aa-42a5-8161-0601503615c0"},"vehicle_type_id":"4","last_reported":1687302387,"current_range_meters":10800,"station_id":"ce4bgqh2rcd13ifvqc4g","pricing_plan_id":"free"},{"bike_id":"8e6bbced-3263-4a07-a24b-e68749bb9089","system_id":"levelo_inurba_marseille","lat":43.305989,"lon":5.37225,"is_reserved":false,"is_disabled":false,"rental_uris":{"android":"levelo://app?vid=8e6bbced-3263-4a07-a24b-e68749bb9089","ios":"levelo://app?vid=8e6bbced-3263-4a07-a24b-e68749bb9089"},"vehicle_type_id":"4","last_reported":1687302387,"current_range_meters":8800,"station_id":"ce4bgqh2rcd13ifvqc4g","pricing_plan_id":"free"},{"bike_id":"23b88467-081d-4bd1-9666-e5f117ee643e","system_id":"levelo_inurba_marseille","lat":43.305989,"lon":5.37225,"is_reserved":false,"is_disabled":false,"rental_uris":{"android":"levelo://app?vid=23b88467-081d-4bd1-9666-e5f117ee643e","ios":"levelo://app?vid=23b88467-081d-4bd1-9666-e5f117ee643e"},"vehicle_type_id":"4","last_reported":1687302387,"current_range_meters":8800,"station_id":"ce4bgqh2rcd13ifvqc4g","pricing_plan_id":"free"},{"bike_id":"b0ad9bea-e931-4dab-9dc9-c595276deb8c","system_id":"levelo_inurba_marseille","lat":43.305989,"lon":5.37225,"is_reserved":false,"is_disabled":false,"rental_uris":{"android":"levelo://app?vid=b0ad9bea-e931-4dab-9dc9-c595276deb8c","ios":"levelo://app?vid=b0ad9bea-e931-4dab-9dc9-c595276deb8c"},"vehicle_type_id":"4","last_reported":1687302387,"current_range_meters":28800,"station_id":"ce4bgqh2rcd13ifvqc4g","pricing_plan_id":"free"},{"bike_id":"b4750d4b-fca1-49f0-9e81-42e88a5e63df","system_id":"levelo_inurba_marseille","lat":43.311131,"lon":5.377651,"is_reserved":false,"is_disabled":false,"rental_uris":{"android":"levelo://app?vid=b4750d4b-fca1-49f0-9e81-42e88a5e63df","ios":"levelo://app?vid=b4750d4b-fca1-49f0-9e81-42e88a5e63df"},"vehicle_type_id":"4","last_reported":1687302387,"current_range_meters":13200,"station_id":"ce4bgt92rcd13ifvqcg0","pricing_plan_id":"free"},{"bike_id":"79e4506c-7524-4404-9815-1653e4d9dc42","system_id":"levelo_inurba_marseille","lat":43.31112,"lon":5.37779,"is_reserved":false,"is_disabled":false,"rental_uris":{"android":"levelo://app?vid=79e4506c-7524-4404-9815-1653e4d9dc42","ios":"levelo://app?vid=79e4506c-7524-4404-9815-1653e4d9dc42"},"vehicle_type_id":"4","last_reported":1687302387,"current_range_meters":25600,"station_id":"","pricing_plan_id":"free"},{"bike_id":"3c5cca0f-da08-4511-a6b3-35846f3de585","system_id":"levelo_inurba_marseille","lat":43.30978,"lon":5.37957,"is_reserved":false,"is_disabled":false,"rental_uris":{"android":"levelo://app?vid=3c5cca0f-da08-4511-a6b3-35846f3de585","ios":"levelo://app?vid=3c5cca0f-da08-4511-a6b3-35846f3de585"},"vehicle_type_id":"4","last_reported":1687302387,"current_range_meters":27600,"station_id":"","pricing_plan_id":"free"},{"bike_id":"20cec88b-4f69-4bf7-982f-3e624128ab0b","system_id":"levelo_inurba_marseille","lat":43.30304,"lon":5.368987,"is_reserved":false,"is_disabled":false,"rental_uris":{"android":"levelo://app?vid=20cec88b-4f69-4bf7-982f-3e624128ab0b","ios":"levelo://app?vid=20cec88b-4f69-4bf7-982f-3e624128ab0b"},"vehicle_type_id":"4","last_reported":1687302387,"current_range_meters":0,"station_id":"ce4bgqh2rcd13ifvqc5g","pricing_plan_id":"free"},{"bike_id":"a6d00662-36f7-4e0b-9bd6-28b6254b1f0a","system_id":"levelo_inurba_marseille","lat":43.315289,"lon":5.380349,"is_reserved":false,"is_disabled":false,"rental_uris":{"android":"levelo://app?vid=a6d00662-36f7-4e0b-9bd6-28b6254b1f0a","ios":"levelo://app?vid=a6d00662-36f7-4e0b-9bd6-28b6254b1f0a"},"vehicle_type_id":"4","last_reported":1687302387,"current_range_meters":15200,"station_id":"ce4bhsp2rcd13ifvqi50","pricing_plan_id":"free"},{"bike_id":"e03a486c-cb94-48d9-bfc0-c160b60b3997","system_id":"levelo_inurba_marseille","lat":43.315289,"lon":5.380349,"is_reserved":false,"is_disabled":false,"rental_uris":{"android":"levelo://app?vid=e03a486c-cb94-48d9-bfc0-c160b60b3997","ios":"levelo://app?vid=e03a486c-cb94-48d9-bfc0-c160b60b3997"},"vehicle_type_id":"4","last_reported":1687302387,"current_range_meters":6400,"station_id":"ce4bhsp2rcd13ifvqi50","pricing_plan_id":"free"},{"bike_id":"34ca65ba-7a01-44ce-910a-74d0eaf65986","system_id":"levelo_inurba_marseille","lat":43.30186,"lon":5.36621,"is_reserved":false,"is_disabled":false,"rental_uris":{"android":"levelo://app?vid=34ca65ba-7a01-44ce-910a-74d0eaf65986","ios":"levelo://app?vid=34ca65ba-7a01-44ce-910a-74d0eaf65986"},"vehicle_type_id":"4","last_reported":1687302387,"current_range_meters":20800,"station_id":"ce4bgrh2rcd13ifvqc8g","pricing_plan_id":"free"},{"bike_id":"956880da-25dd-4483-a513-101ce1d2f6c2","system_id":"levelo_inurba_marseille","lat":43.301939,"lon":5.366286,"is_reserved":false,"is_disabled":false,"rental_uris":{"android":"levelo://app?vid=956880da-25dd-4483-a513-101ce1d2f6c2","ios":"levelo://app?vid=956880da-25dd-4483-a513-101ce1d2f6c2"},"vehicle_type_id":"4","last_reported":1687302387,"current_range_meters":8800,"station_id":"ce4bgrh2rcd13ifvqc8g","pricing_plan_id":"free"},{"bike_id":"879f4dc3-f362-463d-9813-827fbf13d9cb","system_id":"levelo_inurba_marseille","lat":43.308012,"lon":5.381511,"is_reserved":false,"is_disabled":false,"rental_uris":{"android":"levelo://app?vid=879f4dc3-f362-463d-9813-827fbf13d9cb","ios":"levelo://app?vid=879f4dc3-f362-463d-9813-827fbf13d9cb"},"vehicle_type_id":"4","last_reported":1687302387,"current_range_meters":2800,"station_id":"ce4bgt12rcd13ifvqce0","pricing_plan_id":"free"},{"bike_id":"163b19cb-a8fa-459d-ac7c-380c4d0c8061","system_id":"levelo_inurba_marseille","lat":43.308012,"lon":5.381511,"is_reserved":false,"is_disabled":false,"rental_uris":{"android":"levelo://app?vid=163b19cb-a8fa-459d-ac7c-380c4d0c8061","ios":"levelo://app?vid=163b19cb-a8fa-459d-ac7c-380c4d0c8061"},"vehicle_type_id":"4","last_reported":1687302387,"current_range_meters":16400,"station_id":"ce4bgt12rcd13ifvqce0","pricing_plan_id":"free"},{"bike_id":"ae33307b-fcd5-479b-9ae1-9002ed226c6e","system_id":"levelo_inurba_marseille","lat":43.308012,"lon":5.381511,"is_reserved":false,"is_disabled":false,"rental_uris":{"android":"levelo://app?vid=ae33307b-fcd5-479b-9ae1-9002ed226c6e","ios":"levelo://app?vid=ae33307b-fcd5-479b-9ae1-9002ed226c6e"},"vehicle_type_id":"4","last_reported":1687302387,"current_range_meters":18400,"station_id":"ce4bgt12rcd13ifvqce0","pricing_plan_id":"free"},{"bike_id":"56553388-33ad-49ad-b5b6-c45bbb1c9097","system_id":"levelo_inurba_marseille","lat":43.308012,"lon":5.381511,"is_reserved":false,"is_disabled":false,"rental_uris":{"android":"levelo://app?vid=56553388-33ad-49ad-b5b6-c45bbb1c9097","ios":"levelo://app?vid=56553388-33ad-49ad-b5b6-c45bbb1c9097"},"vehicle_type_id":"4","last_reported":1687302387,"current_range_meters":28800,"station_id":"ce4bgt12rcd13ifvqce0","pricing_plan_id":"free"},{"bike_id":"43fc693e-f2a9-4aec-8fd9-d094bb02cb70","system_id":"levelo_inurba_marseille","lat":43.304606,"lon":5.379026,"is_reserved":false,"is_disabled":false,"rental_uris":{"android":"levelo://app?vid=43fc693e-f2a9-4aec-8fd9-d094bb02cb70","ios":"levelo://app?vid=43fc693e-f2a9-4aec-8fd9-d094bb02cb70"},"vehicle_type_id":"4","last_reported":1687302387,"current_range_meters":8000,"station_id":"ce4bgup2rcd13ifvqcn0","pricing_plan_id":"free"},{"bike_id":"baae757c-8f10-49be-a4dd-bb0ca67b7e95","system_id":"levelo_inurba_marseille","lat":43.319935,"lon":5.381699,"is_reserved":false,"is_disabled":false,"rental_uris":{"android":"levelo://app?vid=baae757c-8f10-49be-a4dd-bb0ca67b7e95","ios":"levelo://app?vid=baae757c-8f10-49be-a4dd-bb0ca67b7e95"},"vehicle_type_id":"4","last_reported":1687302387,"current_range_meters":31200,"station_id":"ce4bhr12rcd13ifvqhpg","pricing_plan_id":"free"},{"bike_id":"ac78f4c7-6fc5-44eb-9cd4-13675f3f5d1e","system_id":"levelo_inurba_marseille","lat":43.319935,"lon":5.381699,"is_reserved":false,"is_disabled":false,"rental_uris":{"android":"levelo://app?vid=ac78f4c7-6fc5-44eb-9cd4-13675f3f5d1e","ios":"levelo://app?vid=ac78f4c7-6fc5-44eb-9cd4-13675f3f5d1e"},"vehicle_type_id":"4","last_reported":1687302387,"current_range_meters":29200,"station_id":"ce4bhr12rcd13ifvqhpg","pricing_plan_id":"free"},{"bike_id":"c7c64f8e-4e44-485d-80ef-c29f6be6f29a","system_id":"levelo_inurba_marseille","lat":43.319935,"lon":5.381699,"is_reserved":false,"is_disabled":false,"rental_uris":{"android":"levelo://app?vid=c7c64f8e-4e44-485d-80ef-c29f6be6f29a","ios":"levelo://app?vid=c7c64f8e-4e44-485d-80ef-c29f6be6f29a"},"vehicle_type_id":"4","last_reported":1687302387,"current_range_meters":30800,"station_id":"ce4bhr12rcd13ifvqhpg","pricing_plan_id":"free"},{"bike_id":"06d512ba-15c7-458c-a5d4-b9a3e3e5c174","system_id":"levelo_inurba_marseille","lat":43.319935,"lon":5.381699,"is_reserved":false,"is_disabled":false,"rental_uris":{"android":"levelo://app?vid=06d512ba-15c7-458c-a5d4-b9a3e3e5c174","ios":"levelo://app?vid=06d512ba-15c7-458c-a5d4-b9a3e3e5c174"},"vehicle_type_id":"4","last_reported":1687302387,"current_range_meters":10000,"station_id":"ce4bhr12rcd13ifvqhpg","pricing_plan_id":"free"},{"bike_id":"b74b5536-2615-4fb3-978e-5cc344125ed0","system_id":"levelo_inurba_marseille","lat":43.313571,"lon":5.384829,"is_reserved":false,"is_disabled":false,"rental_uris":{"android":"levelo://app?vid=b74b5536-2615-4fb3-978e-5cc344125ed0","ios":"levelo://app?vid=b74b5536-2615-4fb3-978e-5cc344125ed0"},"vehicle_type_id":"4","last_reported":1687302387,"current_range_meters":30800,"station_id":"ce4bgt92rcd13ifvqcf0","pricing_plan_id":"free"},{"bike_id":"d057949d-ce75-4990-9145-a4652eeb481d","system_id":"levelo_inurba_marseille","lat":43.31352,"lon":5.38492,"is_reserved":false,"is_disabled":false,"rental_uris":{"android":"levelo://app?vid=d057949d-ce75-4990-9145-a4652eeb481d","ios":"levelo://app?vid=d057949d-ce75-4990-9145-a4652eeb481d"},"vehicle_type_id":"4","last_reported":1687302387,"current_range_meters":26800,"station_id":"ce4bgt92rcd13ifvqcf0","pricing_plan_id":"free"},{"bike_id":"dbaa8ac8-d747-499d-93b4-fa5fe076a5c3","system_id":"levelo_inurba_marseille","lat":43.313571,"lon":5.384829,"is_reserved":false,"is_disabled":false,"rental_uris":{"android":"levelo://app?vid=dbaa8ac8-d747-499d-93b4-fa5fe076a5c3","ios":"levelo://app?vid=dbaa8ac8-d747-499d-93b4-fa5fe076a5c3"},"vehicle_type_id":"4","last_reported":1687302387,"current_range_meters":24800,"station_id":"ce4bgt92rcd13ifvqcf0","pricing_plan_id":"free"},{"bike_id":"4160321f-25ba-445d-852a-c4f21fce7e1f","system_id":"levelo_inurba_marseille","lat":43.313571,"lon":5.384829,"is_reserved":false,"is_disabled":false,"rental_uris":{"android":"levelo://app?vid=4160321f-25ba-445d-852a-c4f21fce7e1f","ios":"levelo://app?vid=4160321f-25ba-445d-852a-c4f21fce7e1f"},"vehicle_type_id":"4","last_reported":1687302387,"current_range_meters":25200,"station_id":"ce4bgt92rcd13ifvqcf0","pricing_plan_id":"free"},{"bike_id":"45a8ae92-ac61-4a4e-9264-b5a07f565915","system_id":"levelo_inurba_marseille","lat":43.313571,"lon":5.384829,"is_reserved":false,"is_disabled":false,"rental_uris":{"android":"levelo://app?vid=45a8ae92-ac61-4a4e-9264-b5a07f565915","ios":"levelo://app?vid=45a8ae92-ac61-4a4e-9264-b5a07f565915"},"vehicle_type_id":"4","last_reported":1687302387,"current_range_meters":16800,"station_id":"ce4bgt92rcd13ifvqcf0","pricing_plan_id":"free"},{"bike_id":"7f082426-04bb-4fd0-a315-d021fffff7a4","system_id":"levelo_inurba_marseille","lat":43.313571,"lon":5.384829,"is_reserved":false,"is_disabled":false,"rental_uris":{"android":"levelo://app?vid=7f082426-04bb-4fd0-a315-d021fffff7a4","ios":"levelo://app?vid=7f082426-04bb-4fd0-a315-d021fffff7a4"},"vehicle_type_id":"4","last_reported":1687302387,"current_range_meters":7200,"station_id":"ce4bgt92rcd13ifvqcf0","pricing_plan_id":"free"},{"bike_id":"476af4cc-6d1e-47ac-9d00-55e5bd6e9ba9","system_id":"levelo_inurba_marseille","lat":43.299222,"lon":5.365554,"is_reserved":false,"is_disabled":false,"rental_uris":{"android":"levelo://app?vid=476af4cc-6d1e-47ac-9d00-55e5bd6e9ba9","ios":"levelo://app?vid=476af4cc-6d1e-47ac-9d00-55e5bd6e9ba9"},"vehicle_type_id":"4","last_reported":1687302387,"current_range_meters":17200,"station_id":"ce4bgm92rcd13ifvqbr0","pricing_plan_id":"free"},{"bike_id":"62270a87-ddc7-4231-9504-97801b9c53f1","system_id":"levelo_inurba_marseille","lat":43.299222,"lon":5.365554,"is_reserved":false,"is_disabled":false,"rental_uris":{"android":"levelo://app?vid=62270a87-ddc7-4231-9504-97801b9c53f1","ios":"levelo://app?vid=62270a87-ddc7-4231-9504-97801b9c53f1"},"vehicle_type_id":"4","last_reported":1687302387,"current_range_meters":0,"station_id":"ce4bgm92rcd13ifvqbr0","pricing_plan_id":"free"},{"bike_id":"2d42b842-37f7-4fbb-86b1-5e7c027934de","system_id":"levelo_inurba_marseille","lat":43.299222,"lon":5.365554,"is_reserved":false,"is_disabled":false,"rental_uris":{"android":"levelo://app?vid=2d42b842-37f7-4fbb-86b1-5e7c027934de","ios":"levelo://app?vid=2d42b842-37f7-4fbb-86b1-5e7c027934de"},"vehicle_type_id":"4","last_reported":1687302387,"current_range_meters":30400,"station_id":"ce4bgm92rcd13ifvqbr0","pricing_plan_id":"free"},{"bike_id":"e32fb5c6-81bb-471a-9b16-e2b62131a4e0","system_id":"levelo_inurba_marseille","lat":43.299222,"lon":5.365554,"is_reserved":false,"is_disabled":false,"rental_uris":{"android":"levelo://app?vid=e32fb5c6-81bb-471a-9b16-e2b62131a4e0","ios":"levelo://app?vid=e32fb5c6-81bb-471a-9b16-e2b62131a4e0"},"vehicle_type_id":"4","last_reported":1687302387,"current_range_meters":31200,"station_id":"ce4bgm92rcd13ifvqbr0","pricing_plan_id":"free"},{"bike_id":"429af25e-d07f-4069-a2a6-cca1850be77c","system_id":"levelo_inurba_marseille","lat":43.31174,"lon":5.38705,"is_reserved":false,"is_disabled":false,"rental_uris":{"android":"levelo://app?vid=429af25e-d07f-4069-a2a6-cca1850be77c","ios":"levelo://app?vid=429af25e-d07f-4069-a2a6-cca1850be77c"},"vehicle_type_id":"4","last_reported":1687302387,"current_range_meters":26000,"station_id":"ce4bgv12rcd13ifvqcp0","pricing_plan_id":"free"},{"bike_id":"92a61d2a-6aba-4973-aca9-2408aa84ea29","system_id":"levelo_inurba_marseille","lat":43.311722,"lon":5.387247,"is_reserved":false,"is_disabled":false,"rental_uris":{"android":"levelo://app?vid=92a61d2a-6aba-4973-aca9-2408aa84ea29","ios":"levelo://app?vid=92a61d2a-6aba-4973-aca9-2408aa84ea29"},"vehicle_type_id":"4","last_reported":1687302387,"current_range_meters":30400,"station_id":"ce4bgv12rcd13ifvqcp0","pricing_plan_id":"free"},{"bike_id":"d8b9cd91-019e-440a-b90d-554d309f7589","system_id":"levelo_inurba_marseille","lat":43.311722,"lon":5.387247,"is_reserved":false,"is_disabled":false,"rental_uris":{"android":"levelo://app?vid=d8b9cd91-019e-440a-b90d-554d309f7589","ios":"levelo://app?vid=d8b9cd91-019e-440a-b90d-554d309f7589"},"vehicle_type_id":"4","last_reported":1687302387,"current_range_meters":31200,"station_id":"ce4bgv12rcd13ifvqcp0","pricing_plan_id":"free"},{"bike_id":"a4fc7eae-2d33-4fa9-be29-f037644d5a3d","system_id":"levelo_inurba_marseille","lat":43.311722,"lon":5.387247,"is_reserved":false,"is_disabled":false,"rental_uris":{"android":"levelo://app?vid=a4fc7eae-2d33-4fa9-be29-f037644d5a3d","ios":"levelo://app?vid=a4fc7eae-2d33-4fa9-be29-f037644d5a3d"},"vehicle_type_id":"4","last_reported":1687302387,"current_range_meters":29200,"station_id":"ce4bgv12rcd13ifvqcp0","pricing_plan_id":"free"},{"bike_id":"70460eed-4903-4460-98b4-a3951706d096","system_id":"levelo_inurba_marseille","lat":43.3117,"lon":5.38718,"is_reserved":false,"is_disabled":false,"rental_uris":{"android":"levelo://app?vid=70460eed-4903-4460-98b4-a3951706d096","ios":"levelo://app?vid=70460eed-4903-4460-98b4-a3951706d096"},"vehicle_type_id":"4","last_reported":1687302387,"current_range_meters":1600,"station_id":"ce4bgv12rcd13ifvqcp0","pricing_plan_id":"free"},{"bike_id":"408cdbd3-920b-45b4-ab4e-0217d7cee4ab","system_id":"levelo_inurba_marseille","lat":43.32785,"lon":5.36686,"is_reserved":false,"is_disabled":false,"rental_uris":{"android":"levelo://app?vid=408cdbd3-920b-45b4-ab4e-0217d7cee4ab","ios":"levelo://app?vid=408cdbd3-920b-45b4-ab4e-0217d7cee4ab"},"vehicle_type_id":"4","last_reported":1687302387,"current_range_meters":9200,"station_id":"","pricing_plan_id":"free"},{"bike_id":"b3b33e9b-7102-4ce3-9e64-8ef15500fc00","system_id":"levelo_inurba_marseille","lat":43.328371,"lon":5.366909,"is_reserved":false,"is_disabled":false,"rental_uris":{"android":"levelo://app?vid=b3b33e9b-7102-4ce3-9e64-8ef15500fc00","ios":"levelo://app?vid=b3b33e9b-7102-4ce3-9e64-8ef15500fc00"},"vehicle_type_id":"4","last_reported":1687302387,"current_range_meters":23200,"station_id":"ce4bhs92rcd13ifvqi0g","pricing_plan_id":"free"},{"bike_id":"96155dc0-71ab-4059-9c75-3d1f119bfefc","system_id":"levelo_inurba_marseille","lat":43.328371,"lon":5.366912,"is_reserved":false,"is_disabled":false,"rental_uris":{"android":"levelo://app?vid=96155dc0-71ab-4059-9c75-3d1f119bfefc","ios":"levelo://app?vid=96155dc0-71ab-4059-9c75-3d1f119bfefc"},"vehicle_type_id":"4","last_reported":1687302387,"current_range_meters":0,"station_id":"ce4bhs92rcd13ifvqi0g","pricing_plan_id":"free"},{"bike_id":"b4ea75e9-eca7-4ccc-91f9-d0cb06a4a0a6","system_id":"levelo_inurba_marseille","lat":43.328371,"lon":5.366912,"is_reserved":false,"is_disabled":false,"rental_uris":{"android":"levelo://app?vid=b4ea75e9-eca7-4ccc-91f9-d0cb06a4a0a6","ios":"levelo://app?vid=b4ea75e9-eca7-4ccc-91f9-d0cb06a4a0a6"},"vehicle_type_id":"4","last_reported":1687302387,"current_range_meters":29200,"station_id":"ce4bhs92rcd13ifvqi0g","pricing_plan_id":"free"},{"bike_id":"03da9390-c47e-4a83-9bde-8a2aaf6cd4e0","system_id":"levelo_inurba_marseille","lat":43.29708,"lon":5.36611,"is_reserved":false,"is_disabled":false,"rental_uris":{"android":"levelo://app?vid=03da9390-c47e-4a83-9bde-8a2aaf6cd4e0","ios":"levelo://app?vid=03da9390-c47e-4a83-9bde-8a2aaf6cd4e0"},"vehicle_type_id":"4","last_reported":1687302387,"current_range_meters":28000,"station_id":"ce4bgn12rcd13ifvqbt0","pricing_plan_id":"free"},{"bike_id":"6304e5c4-9bcf-455a-9edc-f89d8365eec8","system_id":"levelo_inurba_marseille","lat":43.29707,"lon":5.3661,"is_reserved":false,"is_disabled":false,"rental_uris":{"android":"levelo://app?vid=6304e5c4-9bcf-455a-9edc-f89d8365eec8","ios":"levelo://app?vid=6304e5c4-9bcf-455a-9edc-f89d8365eec8"},"vehicle_type_id":"4","last_reported":1687302387,"current_range_meters":25600,"station_id":"ce4bgn12rcd13ifvqbt0","pricing_plan_id":"free"},{"bike_id":"176f4894-d7fc-460e-aa5d-7c8c1e206dc3","system_id":"levelo_inurba_marseille","lat":43.29696,"lon":5.36611,"is_reserved":false,"is_disabled":false,"rental_uris":{"android":"levelo://app?vid=176f4894-d7fc-460e-aa5d-7c8c1e206dc3","ios":"levelo://app?vid=176f4894-d7fc-460e-aa5d-7c8c1e206dc3"},"vehicle_type_id":"4","last_reported":1687302387,"current_range_meters":22400,"station_id":"","pricing_plan_id":"free"},{"bike_id":"24f41ca5-b432-4feb-a0c8-a15026b97306","system_id":"levelo_inurba_marseille","lat":43.296131,"lon":5.370773,"is_reserved":false,"is_disabled":false,"rental_uris":{"android":"levelo://app?vid=24f41ca5-b432-4feb-a0c8-a15026b97306","ios":"levelo://app?vid=24f41ca5-b432-4feb-a0c8-a15026b97306"},"vehicle_type_id":"4","last_reported":1687302387,"current_range_meters":2800,"station_id":"ce4bgnh2rcd13ifvqc0g","pricing_plan_id":"free"},{"bike_id":"3d5ddd64-4815-495f-b011-3cb1cba9871b","system_id":"levelo_inurba_marseille","lat":43.299028,"lon":5.381509,"is_reserved":false,"is_disabled":false,"rental_uris":{"android":"levelo://app?vid=3d5ddd64-4815-495f-b011-3cb1cba9871b","ios":"levelo://app?vid=3d5ddd64-4815-495f-b011-3cb1cba9871b"},"vehicle_type_id":"4","last_reported":1687302387,"current_range_meters":18000,"station_id":"ce4bgj12rcd13ifvqbc0","pricing_plan_id":"free"},{"bike_id":"041bc147-ef2f-419b-bb81-deca3bdf89e2","system_id":"levelo_inurba_marseille","lat":43.29611,"lon":5.36046,"is_reserved":false,"is_disabled":false,"rental_uris":{"android":"levelo://app?vid=041bc147-ef2f-419b-bb81-deca3bdf89e2","ios":"levelo://app?vid=041bc147-ef2f-419b-bb81-deca3bdf89e2"},"vehicle_type_id":"4","last_reported":1687302387,"current_range_meters":20400,"station_id":"","pricing_plan_id":"free"},{"bike_id":"4b0b48c0-e786-4a2d-914e-624c1f02598e","system_id":"levelo_inurba_marseille","lat":43.309589,"lon":5.390258,"is_reserved":false,"is_disabled":false,"rental_uris":{"android":"levelo://app?vid=4b0b48c0-e786-4a2d-914e-624c1f02598e","ios":"levelo://app?vid=4b0b48c0-e786-4a2d-914e-624c1f02598e"},"vehicle_type_id":"4","last_reported":1687302387,"current_range_meters":29600,"station_id":"ce4bgup2rcd13ifvqco0","pricing_plan_id":"free"},{"bike_id":"d5577306-08c9-4d6a-a7bc-825fc4934c6b","system_id":"levelo_inurba_marseille","lat":43.317557,"lon":5.390173,"is_reserved":false,"is_disabled":false,"rental_uris":{"android":"levelo://app?vid=d5577306-08c9-4d6a-a7bc-825fc4934c6b","ios":"levelo://app?vid=d5577306-08c9-4d6a-a7bc-825fc4934c6b"},"vehicle_type_id":"4","last_reported":1687302387,"current_range_meters":30000,"station_id":"ce4bhqp2rcd13ifvqhng","pricing_plan_id":"free"},{"bike_id":"f38ebc4d-313b-41fa-90d1-ba716c998cb4","system_id":"levelo_inurba_marseille","lat":43.317557,"lon":5.390173,"is_reserved":false,"is_disabled":false,"rental_uris":{"android":"levelo://app?vid=f38ebc4d-313b-41fa-90d1-ba716c998cb4","ios":"levelo://app?vid=f38ebc4d-313b-41fa-90d1-ba716c998cb4"},"vehicle_type_id":"4","last_reported":1687302387,"current_range_meters":31200,"station_id":"ce4bhqp2rcd13ifvqhng","pricing_plan_id":"free"},{"bike_id":"af8ea858-6c1e-4734-be23-6556f5c81f6b","system_id":"levelo_inurba_marseille","lat":43.317557,"lon":5.390173,"is_reserved":false,"is_disabled":false,"rental_uris":{"android":"levelo://app?vid=af8ea858-6c1e-4734-be23-6556f5c81f6b","ios":"levelo://app?vid=af8ea858-6c1e-4734-be23-6556f5c81f6b"},"vehicle_type_id":"4","last_reported":1687302387,"current_range_meters":31200,"station_id":"ce4bhqp2rcd13ifvqhng","pricing_plan_id":"free"},{"bike_id":"a381d345-38f5-4fc3-9983-0fe6ab9b4cc0","system_id":"levelo_inurba_marseille","lat":43.304278,"lon":5.388868,"is_reserved":false,"is_disabled":false,"rental_uris":{"android":"levelo://app?vid=a381d345-38f5-4fc3-9983-0fe6ab9b4cc0","ios":"levelo://app?vid=a381d345-38f5-4fc3-9983-0fe6ab9b4cc0"},"vehicle_type_id":"4","last_reported":1687302387,"current_range_meters":22000,"station_id":"ce4bgk12rcd13ifvqbi0","pricing_plan_id":"free"},{"bike_id":"250c8a96-8498-4211-b8f3-1b00a8d1fbaf","system_id":"levelo_inurba_marseille","lat":43.296477,"lon":5.37768,"is_reserved":false,"is_disabled":false,"rental_uris":{"android":"levelo://app?vid=250c8a96-8498-4211-b8f3-1b00a8d1fbaf","ios":"levelo://app?vid=250c8a96-8498-4211-b8f3-1b00a8d1fbaf"},"vehicle_type_id":"4","last_reported":1687302387,"current_range_meters":3600,"station_id":"","pricing_plan_id":"free"},{"bike_id":"5c9131fa-2ca0-4465-a7de-e912eba3c5d0","system_id":"levelo_inurba_marseille","lat":43.304278,"lon":5.388868,"is_reserved":false,"is_disabled":false,"rental_uris":{"android":"levelo://app?vid=5c9131fa-2ca0-4465-a7de-e912eba3c5d0","ios":"levelo://app?vid=5c9131fa-2ca0-4465-a7de-e912eba3c5d0"},"vehicle_type_id":"4","last_reported":1687302387,"current_range_meters":24000,"station_id":"ce4bgk12rcd13ifvqbi0","pricing_plan_id":"free"},{"bike_id":"d4e5cd3a-de80-4089-a4ca-4f735fd08f4c","system_id":"levelo_inurba_marseille","lat":43.304274,"lon":5.388873,"is_reserved":false,"is_disabled":false,"rental_uris":{"android":"levelo://app?vid=d4e5cd3a-de80-4089-a4ca-4f735fd08f4c","ios":"levelo://app?vid=d4e5cd3a-de80-4089-a4ca-4f735fd08f4c"},"vehicle_type_id":"4","last_reported":1687302387,"current_range_meters":800,"station_id":"ce4bgk12rcd13ifvqbi0","pricing_plan_id":"free"},{"bike_id":"9c8dcc20-90d9-4a86-93f7-5aeaee89b90c","system_id":"levelo_inurba_marseille","lat":43.304278,"lon":5.388868,"is_reserved":false,"is_disabled":false,"rental_uris":{"android":"levelo://app?vid=9c8dcc20-90d9-4a86-93f7-5aeaee89b90c","ios":"levelo://app?vid=9c8dcc20-90d9-4a86-93f7-5aeaee89b90c"},"vehicle_type_id":"4","last_reported":1687302387,"current_range_meters":26400,"station_id":"ce4bgk12rcd13ifvqbi0","pricing_plan_id":"free"},{"bike_id":"eb56f040-d7e3-440c-9d05-82afe187dd21","system_id":"levelo_inurba_marseille","lat":43.299717,"lon":5.384845,"is_reserved":false,"is_disabled":false,"rental_uris":{"android":"levelo://app?vid=eb56f040-d7e3-440c-9d05-82afe187dd21","ios":"levelo://app?vid=eb56f040-d7e3-440c-9d05-82afe187dd21"},"vehicle_type_id":"4","last_reported":1687302387,"current_range_meters":30000,"station_id":"ce4bgj92rcd13ifvqbd0","pricing_plan_id":"free"},{"bike_id":"dffab29a-9c42-4e17-b998-c0a56f3b1c19","system_id":"levelo_inurba_marseille","lat":43.299717,"lon":5.384845,"is_reserved":false,"is_disabled":false,"rental_uris":{"android":"levelo://app?vid=dffab29a-9c42-4e17-b998-c0a56f3b1c19","ios":"levelo://app?vid=dffab29a-9c42-4e17-b998-c0a56f3b1c19"},"vehicle_type_id":"4","last_reported":1687302387,"current_range_meters":31200,"station_id":"ce4bgj92rcd13ifvqbd0","pricing_plan_id":"free"},{"bike_id":"c94a21c6-e9c2-496f-b510-0a58f08ba1e0","system_id":"levelo_inurba_marseille","lat":43.32367,"lon":5.388836,"is_reserved":false,"is_disabled":false,"rental_uris":{"android":"levelo://app?vid=c94a21c6-e9c2-496f-b510-0a58f08ba1e0","ios":"levelo://app?vid=c94a21c6-e9c2-496f-b510-0a58f08ba1e0"},"vehicle_type_id":"4","last_reported":1687302387,"current_range_meters":12800,"station_id":"ce4bhqp2rcd13ifvqhog","pricing_plan_id":"free"},{"bike_id":"a349cdc6-57f9-4da5-bec9-b24e86494f93","system_id":"levelo_inurba_marseille","lat":43.32367,"lon":5.388836,"is_reserved":false,"is_disabled":false,"rental_uris":{"android":"levelo://app?vid=a349cdc6-57f9-4da5-bec9-b24e86494f93","ios":"levelo://app?vid=a349cdc6-57f9-4da5-bec9-b24e86494f93"},"vehicle_type_id":"4","last_reported":1687302387,"current_range_meters":28000,"station_id":"ce4bhqp2rcd13ifvqhog","pricing_plan_id":"free"},{"bike_id":"16608c32-c312-45cb-a050-471b7a8243f5","system_id":"levelo_inurba_marseille","lat":43.32367,"lon":5.388836,"is_reserved":false,"is_disabled":false,"rental_uris":{"android":"levelo://app?vid=16608c32-c312-45cb-a050-471b7a8243f5","ios":"levelo://app?vid=16608c32-c312-45cb-a050-471b7a8243f5"},"vehicle_type_id":"4","last_reported":1687302387,"current_range_meters":24000,"station_id":"ce4bhqp2rcd13ifvqhog","pricing_plan_id":"free"},{"bike_id":"9d32a99d-7f4d-466c-81fa-ce67eb40e61c","system_id":"levelo_inurba_marseille","lat":43.32367,"lon":5.388836,"is_reserved":false,"is_disabled":false,"rental_uris":{"android":"levelo://app?vid=9d32a99d-7f4d-466c-81fa-ce67eb40e61c","ios":"levelo://app?vid=9d32a99d-7f4d-466c-81fa-ce67eb40e61c"},"vehicle_type_id":"4","last_reported":1687302387,"current_range_meters":5200,"station_id":"ce4bhqp2rcd13ifvqhog","pricing_plan_id":"free"},{"bike_id":"c28c2118-4e3e-4656-bc34-c88de6611e3f","system_id":"levelo_inurba_marseille","lat":43.32367,"lon":5.388836,"is_reserved":false,"is_disabled":false,"rental_uris":{"android":"levelo://app?vid=c28c2118-4e3e-4656-bc34-c88de6611e3f","ios":"levelo://app?vid=c28c2118-4e3e-4656-bc34-c88de6611e3f"},"vehicle_type_id":"4","last_reported":1687302387,"current_range_meters":12400,"station_id":"ce4bhqp2rcd13ifvqhog","pricing_plan_id":"free"},{"bike_id":"f6a8d98e-8c6f-46e8-8844-e46a95c6ded9","system_id":"levelo_inurba_marseille","lat":43.32367,"lon":5.388836,"is_reserved":false,"is_disabled":false,"rental_uris":{"android":"levelo://app?vid=f6a8d98e-8c6f-46e8-8844-e46a95c6ded9","ios":"levelo://app?vid=f6a8d98e-8c6f-46e8-8844-e46a95c6ded9"},"vehicle_type_id":"4","last_reported":1687302387,"current_range_meters":29600,"station_id":"ce4bhqp2rcd13ifvqhog","pricing_plan_id":"free"},{"bike_id":"9e9ce588-c5b6-4d8b-a77b-26a827af3b2c","system_id":"levelo_inurba_marseille","lat":43.32367,"lon":5.388836,"is_reserved":false,"is_disabled":false,"rental_uris":{"android":"levelo://app?vid=9e9ce588-c5b6-4d8b-a77b-26a827af3b2c","ios":"levelo://app?vid=9e9ce588-c5b6-4d8b-a77b-26a827af3b2c"},"vehicle_type_id":"4","last_reported":1687302387,"current_range_meters":0,"station_id":"ce4bhqp2rcd13ifvqhog","pricing_plan_id":"free"},{"bike_id":"79f940be-328f-478d-aa00-a57517d9bda5","system_id":"levelo_inurba_marseille","lat":43.32367,"lon":5.388836,"is_reserved":false,"is_disabled":false,"rental_uris":{"android":"levelo://app?vid=79f940be-328f-478d-aa00-a57517d9bda5","ios":"levelo://app?vid=79f940be-328f-478d-aa00-a57517d9bda5"},"vehicle_type_id":"4","last_reported":1687302387,"current_range_meters":8400,"station_id":"ce4bhqp2rcd13ifvqhog","pricing_plan_id":"free"},{"bike_id":"924f5e2c-3798-48c5-a26b-4aa840da3bf3","system_id":"levelo_inurba_marseille","lat":43.323729,"lon":5.388839,"is_reserved":false,"is_disabled":false,"rental_uris":{"android":"levelo://app?vid=924f5e2c-3798-48c5-a26b-4aa840da3bf3","ios":"levelo://app?vid=924f5e2c-3798-48c5-a26b-4aa840da3bf3"},"vehicle_type_id":"4","last_reported":1687302387,"current_range_meters":24400,"station_id":"","pricing_plan_id":"free"},{"bike_id":"a988ef0b-9666-4875-9632-518448a64389","system_id":"levelo_inurba_marseille","lat":43.32367,"lon":5.388836,"is_reserved":false,"is_disabled":false,"rental_uris":{"android":"levelo://app?vid=a988ef0b-9666-4875-9632-518448a64389","ios":"levelo://app?vid=a988ef0b-9666-4875-9632-518448a64389"},"vehicle_type_id":"4","last_reported":1687302387,"current_range_meters":14800,"station_id":"ce4bhqp2rcd13ifvqhog","pricing_plan_id":"free"},{"bike_id":"b13cbc77-d957-4984-bb84-2727bfd4ea96","system_id":"levelo_inurba_marseille","lat":43.32367,"lon":5.388836,"is_reserved":false,"is_disabled":false,"rental_uris":{"android":"levelo://app?vid=b13cbc77-d957-4984-bb84-2727bfd4ea96","ios":"levelo://app?vid=b13cbc77-d957-4984-bb84-2727bfd4ea96"},"vehicle_type_id":"4","last_reported":1687302387,"current_range_meters":2800,"station_id":"ce4bhqp2rcd13ifvqhog","pricing_plan_id":"free"},{"bike_id":"d5b1acbe-1b75-4099-8c39-44fb9226be98","system_id":"levelo_inurba_marseille","lat":43.29602,"lon":5.381084,"is_reserved":false,"is_disabled":false,"rental_uris":{"android":"levelo://app?vid=d5b1acbe-1b75-4099-8c39-44fb9226be98","ios":"levelo://app?vid=d5b1acbe-1b75-4099-8c39-44fb9226be98"},"vehicle_type_id":"4","last_reported":1687302387,"current_range_meters":14400,"station_id":"ce4bgl12rcd13ifvqbo0","pricing_plan_id":"free"},{"bike_id":"f96bc5ef-773a-4c29-b818-b40707fecfaa","system_id":"levelo_inurba_marseille","lat":43.30602,"lon":5.39352,"is_reserved":false,"is_disabled":false,"rental_uris":{"android":"levelo://app?vid=f96bc5ef-773a-4c29-b818-b40707fecfaa","ios":"levelo://app?vid=f96bc5ef-773a-4c29-b818-b40707fecfaa"},"vehicle_type_id":"4","last_reported":1687302387,"current_range_meters":31600,"station_id":"ce4bh0p2rcd13ifvqd80","pricing_plan_id":"free"},{"bike_id":"66b480a6-9947-4496-98e2-93e61a3244b4","system_id":"levelo_inurba_marseille","lat":43.305994,"lon":5.393687,"is_reserved":false,"is_disabled":false,"rental_uris":{"android":"levelo://app?vid=66b480a6-9947-4496-98e2-93e61a3244b4","ios":"levelo://app?vid=66b480a6-9947-4496-98e2-93e61a3244b4"},"vehicle_type_id":"4","last_reported":1687302387,"current_range_meters":31200,"station_id":"ce4bh0p2rcd13ifvqd80","pricing_plan_id":"free"},{"bike_id":"ded7a504-8bf4-44c8-b142-8c13b0c8c2e2","system_id":"levelo_inurba_marseille","lat":43.305994,"lon":5.393687,"is_reserved":false,"is_disabled":false,"rental_uris":{"android":"levelo://app?vid=ded7a504-8bf4-44c8-b142-8c13b0c8c2e2","ios":"levelo://app?vid=ded7a504-8bf4-44c8-b142-8c13b0c8c2e2"},"vehicle_type_id":"4","last_reported":1687302387,"current_range_meters":30800,"station_id":"ce4bh0p2rcd13ifvqd80","pricing_plan_id":"free"},{"bike_id":"aed8adaf-5d26-40ad-af55-b42d9bcf8fe7","system_id":"levelo_inurba_marseille","lat":43.302992,"lon":5.392136,"is_reserved":false,"is_disabled":false,"rental_uris":{"android":"levelo://app?vid=aed8adaf-5d26-40ad-af55-b42d9bcf8fe7","ios":"levelo://app?vid=aed8adaf-5d26-40ad-af55-b42d9bcf8fe7"},"vehicle_type_id":"4","last_reported":1687302387,"current_range_meters":0,"station_id":"ce4bgkh2rcd13ifvqbk0","pricing_plan_id":"free"},{"bike_id":"49b8415c-40b0-4f35-b645-609d9b16dd5c","system_id":"levelo_inurba_marseille","lat":43.302992,"lon":5.392136,"is_reserved":false,"is_disabled":false,"rental_uris":{"android":"levelo://app?vid=49b8415c-40b0-4f35-b645-609d9b16dd5c","ios":"levelo://app?vid=49b8415c-40b0-4f35-b645-609d9b16dd5c"},"vehicle_type_id":"4","last_reported":1687302387,"current_range_meters":26400,"station_id":"ce4bgkh2rcd13ifvqbk0","pricing_plan_id":"free"},{"bike_id":"7ee8e857-e58f-4d0f-9ec8-cf55d6494b29","system_id":"levelo_inurba_marseille","lat":43.29269,"lon":5.35961,"is_reserved":false,"is_disabled":false,"rental_uris":{"android":"levelo://app?vid=7ee8e857-e58f-4d0f-9ec8-cf55d6494b29","ios":"levelo://app?vid=7ee8e857-e58f-4d0f-9ec8-cf55d6494b29"},"vehicle_type_id":"4","last_reported":1687302387,"current_range_meters":400,"station_id":"","pricing_plan_id":"free"},{"bike_id":"b65bb01f-2ec9-45f1-b289-790a036626dc","system_id":"levelo_inurba_marseille","lat":43.29366,"lon":5.37869,"is_reserved":false,"is_disabled":false,"rental_uris":{"android":"levelo://app?vid=b65bb01f-2ec9-45f1-b289-790a036626dc","ios":"levelo://app?vid=b65bb01f-2ec9-45f1-b289-790a036626dc"},"vehicle_type_id":"4","last_reported":1687302387,"current_range_meters":0,"station_id":"","pricing_plan_id":"free"},{"bike_id":"7367c022-5355-4bab-b5a6-2a7d1c6f947e","system_id":"levelo_inurba_marseille","lat":43.30886,"lon":5.39628,"is_reserved":false,"is_disabled":false,"rental_uris":{"android":"levelo://app?vid=7367c022-5355-4bab-b5a6-2a7d1c6f947e","ios":"levelo://app?vid=7367c022-5355-4bab-b5a6-2a7d1c6f947e"},"vehicle_type_id":"4","last_reported":1687302387,"current_range_meters":31200,"station_id":"ce4bh012rcd13ifvqcv0","pricing_plan_id":"free"},{"bike_id":"128fd267-fa88-49a9-bd57-e1a2cef2d582","system_id":"levelo_inurba_marseille","lat":43.30886,"lon":5.3963,"is_reserved":false,"is_disabled":false,"rental_uris":{"android":"levelo://app?vid=128fd267-fa88-49a9-bd57-e1a2cef2d582","ios":"levelo://app?vid=128fd267-fa88-49a9-bd57-e1a2cef2d582"},"vehicle_type_id":"4","last_reported":1687302387,"current_range_meters":12800,"station_id":"","pricing_plan_id":"free"},{"bike_id":"7a87f340-ac4b-47c8-ac5c-b336014b0809","system_id":"levelo_inurba_marseille","lat":43.30884,"lon":5.39633,"is_reserved":false,"is_disabled":false,"rental_uris":{"android":"levelo://app?vid=7a87f340-ac4b-47c8-ac5c-b336014b0809","ios":"levelo://app?vid=7a87f340-ac4b-47c8-ac5c-b336014b0809"},"vehicle_type_id":"4","last_reported":1687302387,"current_range_meters":16800,"station_id":"","pricing_plan_id":"free"},{"bike_id":"d38c5de4-1b75-44fb-88b5-eb30bcdcd7d0","system_id":"levelo_inurba_marseille","lat":43.313243,"lon":5.396843,"is_reserved":false,"is_disabled":false,"rental_uris":{"android":"levelo://app?vid=d38c5de4-1b75-44fb-88b5-eb30bcdcd7d0","ios":"levelo://app?vid=d38c5de4-1b75-44fb-88b5-eb30bcdcd7d0"},"vehicle_type_id":"4","last_reported":1687302387,"current_range_meters":20800,"station_id":"","pricing_plan_id":"free"},{"bike_id":"cfe4423a-4e9d-4a2b-83c3-2838fc848d96","system_id":"levelo_inurba_marseille","lat":43.30886,"lon":5.39638,"is_reserved":false,"is_disabled":false,"rental_uris":{"android":"levelo://app?vid=cfe4423a-4e9d-4a2b-83c3-2838fc848d96","ios":"levelo://app?vid=cfe4423a-4e9d-4a2b-83c3-2838fc848d96"},"vehicle_type_id":"4","last_reported":1687302387,"current_range_meters":25600,"station_id":"ce4bh012rcd13ifvqcv0","pricing_plan_id":"free"},{"bike_id":"3ab8eaba-da7b-4776-86b0-5d390c3508d9","system_id":"levelo_inurba_marseille","lat":43.30881,"lon":5.39637,"is_reserved":false,"is_disabled":false,"rental_uris":{"android":"levelo://app?vid=3ab8eaba-da7b-4776-86b0-5d390c3508d9","ios":"levelo://app?vid=3ab8eaba-da7b-4776-86b0-5d390c3508d9"},"vehicle_type_id":"4","last_reported":1687302387,"current_range_meters":31200,"station_id":"","pricing_plan_id":"free"},{"bike_id":"542db5ab-99df-4eb7-a015-16337bf422dd","system_id":"levelo_inurba_marseille","lat":43.30887,"lon":5.39639,"is_reserved":false,"is_disabled":false,"rental_uris":{"android":"levelo://app?vid=542db5ab-99df-4eb7-a015-16337bf422dd","ios":"levelo://app?vid=542db5ab-99df-4eb7-a015-16337bf422dd"},"vehicle_type_id":"4","last_reported":1687302387,"current_range_meters":4800,"station_id":"ce4bh012rcd13ifvqcv0","pricing_plan_id":"free"},{"bike_id":"522b8a82-5251-429a-981a-15ca22e57cb0","system_id":"levelo_inurba_marseille","lat":43.313291,"lon":5.396838,"is_reserved":false,"is_disabled":false,"rental_uris":{"android":"levelo://app?vid=522b8a82-5251-429a-981a-15ca22e57cb0","ios":"levelo://app?vid=522b8a82-5251-429a-981a-15ca22e57cb0"},"vehicle_type_id":"4","last_reported":1687302387,"current_range_meters":30800,"station_id":"ce4bgvp2rcd13ifvqcu0","pricing_plan_id":"free"},{"bike_id":"759eb84e-c07a-4a0e-9f58-ce33cca86297","system_id":"levelo_inurba_marseille","lat":43.30887,"lon":5.3964,"is_reserved":false,"is_disabled":false,"rental_uris":{"android":"levelo://app?vid=759eb84e-c07a-4a0e-9f58-ce33cca86297","ios":"levelo://app?vid=759eb84e-c07a-4a0e-9f58-ce33cca86297"},"vehicle_type_id":"4","last_reported":1687302387,"current_range_meters":23200,"station_id":"ce4bh012rcd13ifvqcv0","pricing_plan_id":"free"},{"bike_id":"4a4f54b4-b64a-425e-a820-e56c7df62da5","system_id":"levelo_inurba_marseille","lat":43.30879,"lon":5.39638,"is_reserved":false,"is_disabled":false,"rental_uris":{"android":"levelo://app?vid=4a4f54b4-b64a-425e-a820-e56c7df62da5","ios":"levelo://app?vid=4a4f54b4-b64a-425e-a820-e56c7df62da5"},"vehicle_type_id":"4","last_reported":1687302387,"current_range_meters":24400,"station_id":"","pricing_plan_id":"free"},{"bike_id":"ce745780-8607-4b56-8d8a-a82562ed856a","system_id":"levelo_inurba_marseille","lat":43.30884,"lon":5.3964,"is_reserved":false,"is_disabled":false,"rental_uris":{"android":"levelo://app?vid=ce745780-8607-4b56-8d8a-a82562ed856a","ios":"levelo://app?vid=ce745780-8607-4b56-8d8a-a82562ed856a"},"vehicle_type_id":"4","last_reported":1687302387,"current_range_meters":13200,"station_id":"ce4bh012rcd13ifvqcv0","pricing_plan_id":"free"},{"bike_id":"ef6b5d3a-977c-4692-8cc3-ebe2cdbd99fd","system_id":"levelo_inurba_marseille","lat":43.313291,"lon":5.396838,"is_reserved":false,"is_disabled":false,"rental_uris":{"android":"levelo://app?vid=ef6b5d3a-977c-4692-8cc3-ebe2cdbd99fd","ios":"levelo://app?vid=ef6b5d3a-977c-4692-8cc3-ebe2cdbd99fd"},"vehicle_type_id":"4","last_reported":1687302387,"current_range_meters":0,"station_id":"ce4bgvp2rcd13ifvqcu0","pricing_plan_id":"free"},{"bike_id":"71adf10d-2a55-45fc-adf9-28c46d0517aa","system_id":"levelo_inurba_marseille","lat":43.30882,"lon":5.3964,"is_reserved":false,"is_disabled":false,"rental_uris":{"android":"levelo://app?vid=71adf10d-2a55-45fc-adf9-28c46d0517aa","ios":"levelo://app?vid=71adf10d-2a55-45fc-adf9-28c46d0517aa"},"vehicle_type_id":"4","last_reported":1687302387,"current_range_meters":26800,"station_id":"","pricing_plan_id":"free"},{"bike_id":"fa01efd5-4665-45ef-a43d-4bf3c0c07f32","system_id":"levelo_inurba_marseille","lat":43.30886,"lon":5.39643,"is_reserved":false,"is_disabled":false,"rental_uris":{"android":"levelo://app?vid=fa01efd5-4665-45ef-a43d-4bf3c0c07f32","ios":"levelo://app?vid=fa01efd5-4665-45ef-a43d-4bf3c0c07f32"},"vehicle_type_id":"4","last_reported":1687302387,"current_range_meters":2800,"station_id":"ce4bh012rcd13ifvqcv0","pricing_plan_id":"free"},{"bike_id":"91f27ca4-b1d4-4b07-bbb6-4e3add10a601","system_id":"levelo_inurba_marseille","lat":43.30879,"lon":5.39642,"is_reserved":false,"is_disabled":false,"rental_uris":{"android":"levelo://app?vid=91f27ca4-b1d4-4b07-bbb6-4e3add10a601","ios":"levelo://app?vid=91f27ca4-b1d4-4b07-bbb6-4e3add10a601"},"vehicle_type_id":"4","last_reported":1687302387,"current_range_meters":31200,"station_id":"","pricing_plan_id":"free"},{"bike_id":"61dbc3e9-4b8c-474f-80f8-6f63fe711e97","system_id":"levelo_inurba_marseille","lat":43.313291,"lon":5.396838,"is_reserved":false,"is_disabled":false,"rental_uris":{"android":"levelo://app?vid=61dbc3e9-4b8c-474f-80f8-6f63fe711e97","ios":"levelo://app?vid=61dbc3e9-4b8c-474f-80f8-6f63fe711e97"},"vehicle_type_id":"4","last_reported":1687302387,"current_range_meters":21600,"station_id":"ce4bgvp2rcd13ifvqcu0","pricing_plan_id":"free"},{"bike_id":"b08b8144-f559-46ba-b3ed-768fb92145f2","system_id":"levelo_inurba_marseille","lat":43.30882,"lon":5.39643,"is_reserved":false,"is_disabled":false,"rental_uris":{"android":"levelo://app?vid=b08b8144-f559-46ba-b3ed-768fb92145f2","ios":"levelo://app?vid=b08b8144-f559-46ba-b3ed-768fb92145f2"},"vehicle_type_id":"4","last_reported":1687302387,"current_range_meters":7600,"station_id":"","pricing_plan_id":"free"},{"bike_id":"cce40203-1d8e-41e8-a9fd-763d2f677c68","system_id":"levelo_inurba_marseille","lat":43.31333,"lon":5.39691,"is_reserved":false,"is_disabled":false,"rental_uris":{"android":"levelo://app?vid=cce40203-1d8e-41e8-a9fd-763d2f677c68","ios":"levelo://app?vid=cce40203-1d8e-41e8-a9fd-763d2f677c68"},"vehicle_type_id":"4","last_reported":1687302387,"current_range_meters":13600,"station_id":"ce4bgvp2rcd13ifvqcu0","pricing_plan_id":"free"},{"bike_id":"3d2f0f76-3088-4456-9663-2afb7577fa88","system_id":"levelo_inurba_marseille","lat":43.3089,"lon":5.39646,"is_reserved":false,"is_disabled":false,"rental_uris":{"android":"levelo://app?vid=3d2f0f76-3088-4456-9663-2afb7577fa88","ios":"levelo://app?vid=3d2f0f76-3088-4456-9663-2afb7577fa88"},"vehicle_type_id":"4","last_reported":1687302387,"current_range_meters":30800,"station_id":"ce4bh012rcd13ifvqcv0","pricing_plan_id":"free"},{"bike_id":"cd585734-10cf-4271-a09e-51bc16fd8f0e","system_id":"levelo_inurba_marseille","lat":43.30889,"lon":5.39646,"is_reserved":false,"is_disabled":false,"rental_uris":{"android":"levelo://app?vid=cd585734-10cf-4271-a09e-51bc16fd8f0e","ios":"levelo://app?vid=cd585734-10cf-4271-a09e-51bc16fd8f0e"},"vehicle_type_id":"4","last_reported":1687302387,"current_range_meters":13600,"station_id":"ce4bh012rcd13ifvqcv0","pricing_plan_id":"free"},{"bike_id":"c00a824d-2859-494f-9d8c-e0ccc70e5c17","system_id":"levelo_inurba_marseille","lat":43.31325,"lon":5.39693,"is_reserved":false,"is_disabled":false,"rental_uris":{"android":"levelo://app?vid=c00a824d-2859-494f-9d8c-e0ccc70e5c17","ios":"levelo://app?vid=c00a824d-2859-494f-9d8c-e0ccc70e5c17"},"vehicle_type_id":"4","last_reported":1687302387,"current_range_meters":10400,"station_id":"ce4bgvp2rcd13ifvqcu0","pricing_plan_id":"free"},{"bike_id":"efdb368b-6b7d-4502-80bc-a37b5b15d153","system_id":"levelo_inurba_marseille","lat":43.313291,"lon":5.396838,"is_reserved":false,"is_disabled":false,"rental_uris":{"android":"levelo://app?vid=efdb368b-6b7d-4502-80bc-a37b5b15d153","ios":"levelo://app?vid=efdb368b-6b7d-4502-80bc-a37b5b15d153"},"vehicle_type_id":"4","last_reported":1687302387,"current_range_meters":24000,"station_id":"ce4bgvp2rcd13ifvqcu0","pricing_plan_id":"free"},{"bike_id":"44d81b50-8e77-4afb-bb64-bef15549b486","system_id":"levelo_inurba_marseille","lat":43.30887,"lon":5.39648,"is_reserved":false,"is_disabled":false,"rental_uris":{"android":"levelo://app?vid=44d81b50-8e77-4afb-bb64-bef15549b486","ios":"levelo://app?vid=44d81b50-8e77-4afb-bb64-bef15549b486"},"vehicle_type_id":"4","last_reported":1687302387,"current_range_meters":20400,"station_id":"ce4bh012rcd13ifvqcv0","pricing_plan_id":"free"},{"bike_id":"b859ee65-8c3d-420a-925c-1e111b8afe8f","system_id":"levelo_inurba_marseille","lat":43.30883,"lon":5.3965,"is_reserved":false,"is_disabled":false,"rental_uris":{"android":"levelo://app?vid=b859ee65-8c3d-420a-925c-1e111b8afe8f","ios":"levelo://app?vid=b859ee65-8c3d-420a-925c-1e111b8afe8f"},"vehicle_type_id":"4","last_reported":1687302387,"current_range_meters":26400,"station_id":"ce4bh012rcd13ifvqcv0","pricing_plan_id":"free"},{"bike_id":"71a25f43-1225-457d-9e6f-d92672faa73d","system_id":"levelo_inurba_marseille","lat":43.313291,"lon":5.396838,"is_reserved":false,"is_disabled":false,"rental_uris":{"android":"levelo://app?vid=71a25f43-1225-457d-9e6f-d92672faa73d","ios":"levelo://app?vid=71a25f43-1225-457d-9e6f-d92672faa73d"},"vehicle_type_id":"4","last_reported":1687302387,"current_range_meters":8800,"station_id":"ce4bgvp2rcd13ifvqcu0","pricing_plan_id":"free"},{"bike_id":"15c5178f-5561-4295-8c7c-94b581c4621a","system_id":"levelo_inurba_marseille","lat":43.313291,"lon":5.396838,"is_reserved":false,"is_disabled":false,"rental_uris":{"android":"levelo://app?vid=15c5178f-5561-4295-8c7c-94b581c4621a","ios":"levelo://app?vid=15c5178f-5561-4295-8c7c-94b581c4621a"},"vehicle_type_id":"4","last_reported":1687302387,"current_range_meters":8800,"station_id":"ce4bgvp2rcd13ifvqcu0","pricing_plan_id":"free"},{"bike_id":"b72739af-7d15-4451-89a6-ac1874f77f79","system_id":"levelo_inurba_marseille","lat":43.31328,"lon":5.397,"is_reserved":false,"is_disabled":false,"rental_uris":{"android":"levelo://app?vid=b72739af-7d15-4451-89a6-ac1874f77f79","ios":"levelo://app?vid=b72739af-7d15-4451-89a6-ac1874f77f79"},"vehicle_type_id":"4","last_reported":1687302387,"current_range_meters":15600,"station_id":"ce4bgvp2rcd13ifvqcu0","pricing_plan_id":"free"},{"bike_id":"fb9fbaed-5d69-4a64-a3bc-f40695100982","system_id":"levelo_inurba_marseille","lat":43.31323,"lon":5.39703,"is_reserved":false,"is_disabled":false,"rental_uris":{"android":"levelo://app?vid=fb9fbaed-5d69-4a64-a3bc-f40695100982","ios":"levelo://app?vid=fb9fbaed-5d69-4a64-a3bc-f40695100982"},"vehicle_type_id":"4","last_reported":1687302387,"current_range_meters":23200,"station_id":"ce4bgvp2rcd13ifvqcu0","pricing_plan_id":"free"},{"bike_id":"5d0990c4-38cd-44c8-a85c-c1580e7ecba2","system_id":"levelo_inurba_marseille","lat":43.30845,"lon":5.39658,"is_reserved":false,"is_disabled":false,"rental_uris":{"android":"levelo://app?vid=5d0990c4-38cd-44c8-a85c-c1580e7ecba2","ios":"levelo://app?vid=5d0990c4-38cd-44c8-a85c-c1580e7ecba2"},"vehicle_type_id":"4","last_reported":1687302387,"current_range_meters":13600,"station_id":"ce4bh012rcd13ifvqcv0","pricing_plan_id":"free"},{"bike_id":"ae9402fa-3d72-4d99-8f18-b94413ea8b44","system_id":"levelo_inurba_marseille","lat":43.302008,"lon":5.394694,"is_reserved":false,"is_disabled":false,"rental_uris":{"android":"levelo://app?vid=ae9402fa-3d72-4d99-8f18-b94413ea8b44","ios":"levelo://app?vid=ae9402fa-3d72-4d99-8f18-b94413ea8b44"},"vehicle_type_id":"4","last_reported":1687302387,"current_range_meters":28000,"station_id":"ce4bh0p2rcd13ifvqd70","pricing_plan_id":"free"},{"bike_id":"09616992-0852-4512-853d-e844f7ed30b6","system_id":"levelo_inurba_marseille","lat":43.302008,"lon":5.394694,"is_reserved":false,"is_disabled":false,"rental_uris":{"android":"levelo://app?vid=09616992-0852-4512-853d-e844f7ed30b6","ios":"levelo://app?vid=09616992-0852-4512-853d-e844f7ed30b6"},"vehicle_type_id":"4","last_reported":1687302387,"current_range_meters":13600,"station_id":"ce4bh0p2rcd13ifvqd70","pricing_plan_id":"free"},{"bike_id":"4a806b62-8d1d-4499-9daf-e2003b22bac4","system_id":"levelo_inurba_marseille","lat":43.290624,"lon":5.359245,"is_reserved":false,"is_disabled":false,"rental_uris":{"android":"levelo://app?vid=4a806b62-8d1d-4499-9daf-e2003b22bac4","ios":"levelo://app?vid=4a806b62-8d1d-4499-9daf-e2003b22bac4"},"vehicle_type_id":"4","last_reported":1687302387,"current_range_meters":28800,"station_id":"ce4bha92rcd13ifvqeg0","pricing_plan_id":"free"},{"bike_id":"3f8a925a-6a54-4259-a38f-9cf091aab246","system_id":"levelo_inurba_marseille","lat":43.294162,"lon":5.386292,"is_reserved":false,"is_disabled":false,"rental_uris":{"android":"levelo://app?vid=3f8a925a-6a54-4259-a38f-9cf091aab246","ios":"levelo://app?vid=3f8a925a-6a54-4259-a38f-9cf091aab246"},"vehicle_type_id":"4","last_reported":1687302387,"current_range_meters":31200,"station_id":"ce4bh2h2rcd13ifvqdh0","pricing_plan_id":"free"},{"bike_id":"01eb0812-4558-4aea-bf50-ad066f363f38","system_id":"levelo_inurba_marseille","lat":43.28954,"lon":5.36429,"is_reserved":false,"is_disabled":false,"rental_uris":{"android":"levelo://app?vid=01eb0812-4558-4aea-bf50-ad066f363f38","ios":"levelo://app?vid=01eb0812-4558-4aea-bf50-ad066f363f38"},"vehicle_type_id":"4","last_reported":1687302387,"current_range_meters":5200,"station_id":"","pricing_plan_id":"free"},{"bike_id":"5c1cdd13-b404-4e38-9a7e-89b69e0a8de0","system_id":"levelo_inurba_marseille","lat":43.290327,"lon":5.375711,"is_reserved":false,"is_disabled":false,"rental_uris":{"android":"levelo://app?vid=5c1cdd13-b404-4e38-9a7e-89b69e0a8de0","ios":"levelo://app?vid=5c1cdd13-b404-4e38-9a7e-89b69e0a8de0"},"vehicle_type_id":"4","last_reported":1687302387,"current_range_meters":12000,"station_id":"ce4bh692rcd13ifvqe90","pricing_plan_id":"free"},{"bike_id":"0609f09b-61e5-40d1-a057-3a5b9409ddd1","system_id":"levelo_inurba_marseille","lat":43.294153,"lon":5.386305,"is_reserved":false,"is_disabled":false,"rental_uris":{"android":"levelo://app?vid=0609f09b-61e5-40d1-a057-3a5b9409ddd1","ios":"levelo://app?vid=0609f09b-61e5-40d1-a057-3a5b9409ddd1"},"vehicle_type_id":"4","last_reported":1687302387,"current_range_meters":26400,"station_id":"ce4bh2h2rcd13ifvqdh0","pricing_plan_id":"free"},{"bike_id":"1f5ca1ea-1009-441d-9ed0-b6a0b861918e","system_id":"levelo_inurba_marseille","lat":43.29408,"lon":5.38628,"is_reserved":false,"is_disabled":false,"rental_uris":{"android":"levelo://app?vid=1f5ca1ea-1009-441d-9ed0-b6a0b861918e","ios":"levelo://app?vid=1f5ca1ea-1009-441d-9ed0-b6a0b861918e"},"vehicle_type_id":"4","last_reported":1687302387,"current_range_meters":31200,"station_id":"","pricing_plan_id":"free"},{"bike_id":"cf16cb8a-3cc9-4a79-a05e-7abb06f2505e","system_id":"levelo_inurba_marseille","lat":43.289468,"lon":5.363719,"is_reserved":false,"is_disabled":false,"rental_uris":{"android":"levelo://app?vid=cf16cb8a-3cc9-4a79-a05e-7abb06f2505e","ios":"levelo://app?vid=cf16cb8a-3cc9-4a79-a05e-7abb06f2505e"},"vehicle_type_id":"4","last_reported":1687302387,"current_range_meters":15200,"station_id":"ce4bhc92rcd13ifvqetg","pricing_plan_id":"free"},{"bike_id":"fb243d4e-56ab-4518-9a25-b91c678f975c","system_id":"levelo_inurba_marseille","lat":43.289468,"lon":5.363719,"is_reserved":false,"is_disabled":false,"rental_uris":{"android":"levelo://app?vid=fb243d4e-56ab-4518-9a25-b91c678f975c","ios":"levelo://app?vid=fb243d4e-56ab-4518-9a25-b91c678f975c"},"vehicle_type_id":"4","last_reported":1687302387,"current_range_meters":29600,"station_id":"ce4bhc92rcd13ifvqetg","pricing_plan_id":"free"},{"bike_id":"f8513c32-11c3-4680-b591-2be6f83fd0cb","system_id":"levelo_inurba_marseille","lat":43.28918,"lon":5.36388,"is_reserved":false,"is_disabled":false,"rental_uris":{"android":"levelo://app?vid=f8513c32-11c3-4680-b591-2be6f83fd0cb","ios":"levelo://app?vid=f8513c32-11c3-4680-b591-2be6f83fd0cb"},"vehicle_type_id":"4","last_reported":1687302387,"current_range_meters":22400,"station_id":"","pricing_plan_id":"free"},{"bike_id":"38eb09af-7166-42b9-865e-84246929498f","system_id":"levelo_inurba_marseille","lat":43.292644,"lon":5.384257,"is_reserved":false,"is_disabled":false,"rental_uris":{"android":"levelo://app?vid=38eb09af-7166-42b9-865e-84246929498f","ios":"levelo://app?vid=38eb09af-7166-42b9-865e-84246929498f"},"vehicle_type_id":"4","last_reported":1687302387,"current_range_meters":31200,"station_id":"ce4bh692rcd13ifvqea0","pricing_plan_id":"free"},{"bike_id":"3caffc17-39c9-41f2-8ba1-adb0bc1925da","system_id":"levelo_inurba_marseille","lat":43.33039,"lon":5.38915,"is_reserved":false,"is_disabled":false,"rental_uris":{"android":"levelo://app?vid=3caffc17-39c9-41f2-8ba1-adb0bc1925da","ios":"levelo://app?vid=3caffc17-39c9-41f2-8ba1-adb0bc1925da"},"vehicle_type_id":"4","last_reported":1687302387,"current_range_meters":25600,"station_id":"ce4bhr92rcd13ifvqhrg","pricing_plan_id":"free"},{"bike_id":"bfea3251-44a5-47b4-a6fa-5b481de5de8b","system_id":"levelo_inurba_marseille","lat":43.33041,"lon":5.38916,"is_reserved":false,"is_disabled":false,"rental_uris":{"android":"levelo://app?vid=bfea3251-44a5-47b4-a6fa-5b481de5de8b","ios":"levelo://app?vid=bfea3251-44a5-47b4-a6fa-5b481de5de8b"},"vehicle_type_id":"4","last_reported":1687302387,"current_range_meters":10400,"station_id":"ce4bhr92rcd13ifvqhrg","pricing_plan_id":"free"},{"bike_id":"7b4425c9-9a35-4378-9ded-5d710a02dfe0","system_id":"levelo_inurba_marseille","lat":43.33041,"lon":5.38916,"is_reserved":false,"is_disabled":false,"rental_uris":{"android":"levelo://app?vid=7b4425c9-9a35-4378-9ded-5d710a02dfe0","ios":"levelo://app?vid=7b4425c9-9a35-4378-9ded-5d710a02dfe0"},"vehicle_type_id":"4","last_reported":1687302387,"current_range_meters":19600,"station_id":"ce4bhr92rcd13ifvqhrg","pricing_plan_id":"free"},{"bike_id":"e914f230-8e23-4cc4-8414-49404f0f0dbc","system_id":"levelo_inurba_marseille","lat":43.3304,"lon":5.38921,"is_reserved":false,"is_disabled":false,"rental_uris":{"android":"levelo://app?vid=e914f230-8e23-4cc4-8414-49404f0f0dbc","ios":"levelo://app?vid=e914f230-8e23-4cc4-8414-49404f0f0dbc"},"vehicle_type_id":"4","last_reported":1687302387,"current_range_meters":0,"station_id":"ce4bhr92rcd13ifvqhrg","pricing_plan_id":"free"},{"bike_id":"0a07d6d9-eee7-45eb-ba0a-43c8494a09b4","system_id":"levelo_inurba_marseille","lat":43.33044,"lon":5.38916,"is_reserved":false,"is_disabled":false,"rental_uris":{"android":"levelo://app?vid=0a07d6d9-eee7-45eb-ba0a-43c8494a09b4","ios":"levelo://app?vid=0a07d6d9-eee7-45eb-ba0a-43c8494a09b4"},"vehicle_type_id":"4","last_reported":1687302387,"current_range_meters":30400,"station_id":"ce4bhr92rcd13ifvqhrg","pricing_plan_id":"free"},{"bike_id":"6c7db78f-2ed6-4b3a-a17d-2aa3f8ae2990","system_id":"levelo_inurba_marseille","lat":43.33044,"lon":5.38916,"is_reserved":false,"is_disabled":false,"rental_uris":{"android":"levelo://app?vid=6c7db78f-2ed6-4b3a-a17d-2aa3f8ae2990","ios":"levelo://app?vid=6c7db78f-2ed6-4b3a-a17d-2aa3f8ae2990"},"vehicle_type_id":"4","last_reported":1687302387,"current_range_meters":23200,"station_id":"ce4bhr92rcd13ifvqhrg","pricing_plan_id":"free"},{"bike_id":"3a6cd18e-fdaf-4a7e-9d49-188d87f1ba8c","system_id":"levelo_inurba_marseille","lat":43.33045,"lon":5.38915,"is_reserved":false,"is_disabled":false,"rental_uris":{"android":"levelo://app?vid=3a6cd18e-fdaf-4a7e-9d49-188d87f1ba8c","ios":"levelo://app?vid=3a6cd18e-fdaf-4a7e-9d49-188d87f1ba8c"},"vehicle_type_id":"4","last_reported":1687302387,"current_range_meters":22000,"station_id":"ce4bhr92rcd13ifvqhrg","pricing_plan_id":"free"},{"bike_id":"7bca5aa2-3d46-41b7-aade-65bb55af2371","system_id":"levelo_inurba_marseille","lat":43.33044,"lon":5.38917,"is_reserved":false,"is_disabled":false,"rental_uris":{"android":"levelo://app?vid=7bca5aa2-3d46-41b7-aade-65bb55af2371","ios":"levelo://app?vid=7bca5aa2-3d46-41b7-aade-65bb55af2371"},"vehicle_type_id":"4","last_reported":1687302387,"current_range_meters":26000,"station_id":"ce4bhr92rcd13ifvqhrg","pricing_plan_id":"free"},{"bike_id":"d0a6518f-1e22-4242-a376-0e5f9eede3d6","system_id":"levelo_inurba_marseille","lat":43.33046,"lon":5.38918,"is_reserved":false,"is_disabled":false,"rental_uris":{"android":"levelo://app?vid=d0a6518f-1e22-4242-a376-0e5f9eede3d6","ios":"levelo://app?vid=d0a6518f-1e22-4242-a376-0e5f9eede3d6"},"vehicle_type_id":"4","last_reported":1687302387,"current_range_meters":10000,"station_id":"ce4bhr92rcd13ifvqhrg","pricing_plan_id":"free"},{"bike_id":"fed7de12-d1ad-493b-b899-59068eb18df1","system_id":"levelo_inurba_marseille","lat":43.290104,"lon":5.356111,"is_reserved":false,"is_disabled":false,"rental_uris":{"android":"levelo://app?vid=fed7de12-d1ad-493b-b899-59068eb18df1","ios":"levelo://app?vid=fed7de12-d1ad-493b-b899-59068eb18df1"},"vehicle_type_id":"4","last_reported":1687302387,"current_range_meters":4000,"station_id":"ce4bhb92rcd13ifvqen0","pricing_plan_id":"free"},{"bike_id":"16e5fedd-6e86-436a-a0a2-72c7cd60a6ea","system_id":"levelo_inurba_marseille","lat":43.31702,"lon":5.39946,"is_reserved":false,"is_disabled":false,"rental_uris":{"android":"levelo://app?vid=16e5fedd-6e86-436a-a0a2-72c7cd60a6ea","ios":"levelo://app?vid=16e5fedd-6e86-436a-a0a2-72c7cd60a6ea"},"vehicle_type_id":"4","last_reported":1687302387,"current_range_meters":22000,"station_id":"","pricing_plan_id":"free"},{"bike_id":"f8935ace-c245-411e-80ae-856229a3949d","system_id":"levelo_inurba_marseille","lat":43.28999,"lon":5.35614,"is_reserved":false,"is_disabled":false,"rental_uris":{"android":"levelo://app?vid=f8935ace-c245-411e-80ae-856229a3949d","ios":"levelo://app?vid=f8935ace-c245-411e-80ae-856229a3949d"},"vehicle_type_id":"4","last_reported":1687302387,"current_range_meters":0,"station_id":"ce4bhb92rcd13ifvqen0","pricing_plan_id":"free"},{"bike_id":"78318729-a554-41c7-94d3-def64ec60527","system_id":"levelo_inurba_marseille","lat":43.28856,"lon":5.358371,"is_reserved":false,"is_disabled":false,"rental_uris":{"android":"levelo://app?vid=78318729-a554-41c7-94d3-def64ec60527","ios":"levelo://app?vid=78318729-a554-41c7-94d3-def64ec60527"},"vehicle_type_id":"4","last_reported":1687302387,"current_range_meters":21600,"station_id":"ce4bhb12rcd13ifvqem0","pricing_plan_id":"free"},{"bike_id":"567fd4fc-9fc7-4c67-85cc-7a631633a7f1","system_id":"levelo_inurba_marseille","lat":43.286039,"lon":5.370679,"is_reserved":false,"is_disabled":false,"rental_uris":{"android":"levelo://app?vid=567fd4fc-9fc7-4c67-85cc-7a631633a7f1","ios":"levelo://app?vid=567fd4fc-9fc7-4c67-85cc-7a631633a7f1"},"vehicle_type_id":"4","last_reported":1687302387,"current_range_meters":19200,"station_id":"ce4bht12rcd13ifvqi60","pricing_plan_id":"free"},{"bike_id":"8e2277a9-15d6-4dad-bfcf-48f716dc08f9","system_id":"levelo_inurba_marseille","lat":43.309371,"lon":5.401449,"is_reserved":false,"is_disabled":false,"rental_uris":{"android":"levelo://app?vid=8e2277a9-15d6-4dad-bfcf-48f716dc08f9","ios":"levelo://app?vid=8e2277a9-15d6-4dad-bfcf-48f716dc08f9"},"vehicle_type_id":"4","last_reported":1687302387,"current_range_meters":18400,"station_id":"ce4bgvp2rcd13ifvqct0","pricing_plan_id":"free"},{"bike_id":"49607d8a-6ec3-48ef-9a5c-152f584026db","system_id":"levelo_inurba_marseille","lat":43.309371,"lon":5.401449,"is_reserved":false,"is_disabled":false,"rental_uris":{"android":"levelo://app?vid=49607d8a-6ec3-48ef-9a5c-152f584026db","ios":"levelo://app?vid=49607d8a-6ec3-48ef-9a5c-152f584026db"},"vehicle_type_id":"4","last_reported":1687302387,"current_range_meters":20400,"station_id":"ce4bgvp2rcd13ifvqct0","pricing_plan_id":"free"},{"bike_id":"fbf0ef94-45df-4cd8-aadd-43ad65843939","system_id":"levelo_inurba_marseille","lat":43.30633,"lon":5.4008,"is_reserved":false,"is_disabled":false,"rental_uris":{"android":"levelo://app?vid=fbf0ef94-45df-4cd8-aadd-43ad65843939","ios":"levelo://app?vid=fbf0ef94-45df-4cd8-aadd-43ad65843939"},"vehicle_type_id":"4","last_reported":1687302387,"current_range_meters":800,"station_id":"ce4bh112rcd13ifvqda0","pricing_plan_id":"free"},{"bike_id":"4bafa8b1-cf3a-4d54-a8d6-e052b366cd7a","system_id":"levelo_inurba_marseille","lat":43.306412,"lon":5.401035,"is_reserved":false,"is_disabled":false,"rental_uris":{"android":"levelo://app?vid=4bafa8b1-cf3a-4d54-a8d6-e052b366cd7a","ios":"levelo://app?vid=4bafa8b1-cf3a-4d54-a8d6-e052b366cd7a"},"vehicle_type_id":"4","last_reported":1687302387,"current_range_meters":17600,"station_id":"ce4bh112rcd13ifvqda0","pricing_plan_id":"free"},{"bike_id":"dabe062c-2e2e-471b-ac4b-1e5f52f5f931","system_id":"levelo_inurba_marseille","lat":43.306412,"lon":5.401035,"is_reserved":false,"is_disabled":false,"rental_uris":{"android":"levelo://app?vid=dabe062c-2e2e-471b-ac4b-1e5f52f5f931","ios":"levelo://app?vid=dabe062c-2e2e-471b-ac4b-1e5f52f5f931"},"vehicle_type_id":"4","last_reported":1687302387,"current_range_meters":14000,"station_id":"ce4bh112rcd13ifvqda0","pricing_plan_id":"free"},{"bike_id":"2586c4a8-4b78-4821-905d-7b5aea05d9d6","system_id":"levelo_inurba_marseille","lat":43.306412,"lon":5.401035,"is_reserved":false,"is_disabled":false,"rental_uris":{"android":"levelo://app?vid=2586c4a8-4b78-4821-905d-7b5aea05d9d6","ios":"levelo://app?vid=2586c4a8-4b78-4821-905d-7b5aea05d9d6"},"vehicle_type_id":"4","last_reported":1687302387,"current_range_meters":30400,"station_id":"ce4bh112rcd13ifvqda0","pricing_plan_id":"free"},{"bike_id":"dc70ff00-3b4e-4262-9d75-d4f84cbf75cc","system_id":"levelo_inurba_marseille","lat":43.30642,"lon":5.401031,"is_reserved":false,"is_disabled":false,"rental_uris":{"android":"levelo://app?vid=dc70ff00-3b4e-4262-9d75-d4f84cbf75cc","ios":"levelo://app?vid=dc70ff00-3b4e-4262-9d75-d4f84cbf75cc"},"vehicle_type_id":"4","last_reported":1687302387,"current_range_meters":31200,"station_id":"ce4bh112rcd13ifvqda0","pricing_plan_id":"free"},{"bike_id":"121785df-6b6a-4fbe-9eb3-c500b96f287f","system_id":"levelo_inurba_marseille","lat":43.286591,"lon":5.363346,"is_reserved":false,"is_disabled":false,"rental_uris":{"android":"levelo://app?vid=121785df-6b6a-4fbe-9eb3-c500b96f287f","ios":"levelo://app?vid=121785df-6b6a-4fbe-9eb3-c500b96f287f"},"vehicle_type_id":"4","last_reported":1687302387,"current_range_meters":19200,"station_id":"ce4bhah2rcd13ifvqej0","pricing_plan_id":"free"},{"bike_id":"34f76d12-f20b-40be-ba84-6413ebfc501f","system_id":"levelo_inurba_marseille","lat":43.298681,"lon":5.397225,"is_reserved":false,"is_disabled":false,"rental_uris":{"android":"levelo://app?vid=34f76d12-f20b-40be-ba84-6413ebfc501f","ios":"levelo://app?vid=34f76d12-f20b-40be-ba84-6413ebfc501f"},"vehicle_type_id":"4","last_reported":1687302387,"current_range_meters":6800,"station_id":"ce4bh0h2rcd13ifvqd50","pricing_plan_id":"free"},{"bike_id":"9c50dd7f-6236-4fbd-bae3-a811819130fa","system_id":"levelo_inurba_marseille","lat":43.29865,"lon":5.39725,"is_reserved":false,"is_disabled":false,"rental_uris":{"android":"levelo://app?vid=9c50dd7f-6236-4fbd-bae3-a811819130fa","ios":"levelo://app?vid=9c50dd7f-6236-4fbd-bae3-a811819130fa"},"vehicle_type_id":"4","last_reported":1687302387,"current_range_meters":0,"station_id":"ce4bh0h2rcd13ifvqd50","pricing_plan_id":"free"},{"bike_id":"b8d5986f-a634-4143-91d9-109279e12425","system_id":"levelo_inurba_marseille","lat":43.298681,"lon":5.397225,"is_reserved":false,"is_disabled":false,"rental_uris":{"android":"levelo://app?vid=b8d5986f-a634-4143-91d9-109279e12425","ios":"levelo://app?vid=b8d5986f-a634-4143-91d9-109279e12425"},"vehicle_type_id":"4","last_reported":1687302387,"current_range_meters":28000,"station_id":"ce4bh0h2rcd13ifvqd50","pricing_plan_id":"free"},{"bike_id":"d89f68cc-6a49-4ce2-885b-2d9edcf14731","system_id":"levelo_inurba_marseille","lat":43.286593,"lon":5.363346,"is_reserved":false,"is_disabled":false,"rental_uris":{"android":"levelo://app?vid=d89f68cc-6a49-4ce2-885b-2d9edcf14731","ios":"levelo://app?vid=d89f68cc-6a49-4ce2-885b-2d9edcf14731"},"vehicle_type_id":"4","last_reported":1687302387,"current_range_meters":22400,"station_id":"ce4bhah2rcd13ifvqej0","pricing_plan_id":"free"},{"bike_id":"5ef0a17b-e401-4cd1-bdfe-b9412045c31c","system_id":"levelo_inurba_marseille","lat":43.298681,"lon":5.397225,"is_reserved":false,"is_disabled":false,"rental_uris":{"android":"levelo://app?vid=5ef0a17b-e401-4cd1-bdfe-b9412045c31c","ios":"levelo://app?vid=5ef0a17b-e401-4cd1-bdfe-b9412045c31c"},"vehicle_type_id":"4","last_reported":1687302387,"current_range_meters":4400,"station_id":"ce4bh0h2rcd13ifvqd50","pricing_plan_id":"free"},{"bike_id":"5054e3ca-0890-4b45-969a-d7115d72bb9a","system_id":"levelo_inurba_marseille","lat":43.286961,"lon":5.373785,"is_reserved":false,"is_disabled":false,"rental_uris":{"android":"levelo://app?vid=5054e3ca-0890-4b45-969a-d7115d72bb9a","ios":"levelo://app?vid=5054e3ca-0890-4b45-969a-d7115d72bb9a"},"vehicle_type_id":"4","last_reported":1687302387,"current_range_meters":31200,"station_id":"ce4bh3p2rcd13ifvqdq0","pricing_plan_id":"free"},{"bike_id":"56c74675-01a4-45e4-bce8-c5c7335a422d","system_id":"levelo_inurba_marseille","lat":43.286593,"lon":5.363346,"is_reserved":false,"is_disabled":false,"rental_uris":{"android":"levelo://app?vid=56c74675-01a4-45e4-bce8-c5c7335a422d","ios":"levelo://app?vid=56c74675-01a4-45e4-bce8-c5c7335a422d"},"vehicle_type_id":"4","last_reported":1687302387,"current_range_meters":31200,"station_id":"ce4bhah2rcd13ifvqej0","pricing_plan_id":"free"},{"bike_id":"bd2ee7eb-7fa8-40be-a24b-26778be6e827","system_id":"levelo_inurba_marseille","lat":43.286591,"lon":5.363346,"is_reserved":false,"is_disabled":false,"rental_uris":{"android":"levelo://app?vid=bd2ee7eb-7fa8-40be-a24b-26778be6e827","ios":"levelo://app?vid=bd2ee7eb-7fa8-40be-a24b-26778be6e827"},"vehicle_type_id":"4","last_reported":1687302387,"current_range_meters":31200,"station_id":"ce4bhah2rcd13ifvqej0","pricing_plan_id":"free"},{"bike_id":"c346f97b-6d74-47ec-af74-f15b869dc341","system_id":"levelo_inurba_marseille","lat":43.286591,"lon":5.363346,"is_reserved":false,"is_disabled":false,"rental_uris":{"android":"levelo://app?vid=c346f97b-6d74-47ec-af74-f15b869dc341","ios":"levelo://app?vid=c346f97b-6d74-47ec-af74-f15b869dc341"},"vehicle_type_id":"4","last_reported":1687302387,"current_range_meters":29200,"station_id":"ce4bhah2rcd13ifvqej0","pricing_plan_id":"free"},{"bike_id":"9f64c7a6-dfc2-44e0-ab4f-76a3d1d3f591","system_id":"levelo_inurba_marseille","lat":43.286591,"lon":5.363346,"is_reserved":false,"is_disabled":false,"rental_uris":{"android":"levelo://app?vid=9f64c7a6-dfc2-44e0-ab4f-76a3d1d3f591","ios":"levelo://app?vid=9f64c7a6-dfc2-44e0-ab4f-76a3d1d3f591"},"vehicle_type_id":"4","last_reported":1687302387,"current_range_meters":23600,"station_id":"ce4bhah2rcd13ifvqej0","pricing_plan_id":"free"},{"bike_id":"7b0761ec-5c08-4240-9563-19008f714a9c","system_id":"levelo_inurba_marseille","lat":43.286593,"lon":5.363346,"is_reserved":false,"is_disabled":false,"rental_uris":{"android":"levelo://app?vid=7b0761ec-5c08-4240-9563-19008f714a9c","ios":"levelo://app?vid=7b0761ec-5c08-4240-9563-19008f714a9c"},"vehicle_type_id":"4","last_reported":1687302387,"current_range_meters":16800,"station_id":"ce4bhah2rcd13ifvqej0","pricing_plan_id":"free"},{"bike_id":"fa020c06-37eb-41fb-9859-3646690505db","system_id":"levelo_inurba_marseille","lat":43.286961,"lon":5.373785,"is_reserved":false,"is_disabled":false,"rental_uris":{"android":"levelo://app?vid=fa020c06-37eb-41fb-9859-3646690505db","ios":"levelo://app?vid=fa020c06-37eb-41fb-9859-3646690505db"},"vehicle_type_id":"4","last_reported":1687302387,"current_range_meters":30000,"station_id":"ce4bh3p2rcd13ifvqdq0","pricing_plan_id":"free"},{"bike_id":"c76037a2-c80a-4d84-90f5-00474b839724","system_id":"levelo_inurba_marseille","lat":43.28698,"lon":5.37395,"is_reserved":false,"is_disabled":false,"rental_uris":{"android":"levelo://app?vid=c76037a2-c80a-4d84-90f5-00474b839724","ios":"levelo://app?vid=c76037a2-c80a-4d84-90f5-00474b839724"},"vehicle_type_id":"4","last_reported":1687302387,"current_range_meters":28000,"station_id":"ce4bh3p2rcd13ifvqdq0","pricing_plan_id":"free"},{"bike_id":"fdeab6ee-e3c0-4e8c-bad1-bc4bc3e3b930","system_id":"levelo_inurba_marseille","lat":43.286593,"lon":5.363346,"is_reserved":false,"is_disabled":false,"rental_uris":{"android":"levelo://app?vid=fdeab6ee-e3c0-4e8c-bad1-bc4bc3e3b930","ios":"levelo://app?vid=fdeab6ee-e3c0-4e8c-bad1-bc4bc3e3b930"},"vehicle_type_id":"4","last_reported":1687302387,"current_range_meters":16000,"station_id":"ce4bhah2rcd13ifvqej0","pricing_plan_id":"free"},{"bike_id":"26a78582-e2ee-4495-bc9e-2daf0c692872","system_id":"levelo_inurba_marseille","lat":43.286593,"lon":5.363346,"is_reserved":false,"is_disabled":false,"rental_uris":{"android":"levelo://app?vid=26a78582-e2ee-4495-bc9e-2daf0c692872","ios":"levelo://app?vid=26a78582-e2ee-4495-bc9e-2daf0c692872"},"vehicle_type_id":"4","last_reported":1687302387,"current_range_meters":21600,"station_id":"ce4bhah2rcd13ifvqej0","pricing_plan_id":"free"},{"bike_id":"222cbce9-7315-4a61-b40e-40b441f1422a","system_id":"levelo_inurba_marseille","lat":43.286591,"lon":5.363346,"is_reserved":false,"is_disabled":false,"rental_uris":{"android":"levelo://app?vid=222cbce9-7315-4a61-b40e-40b441f1422a","ios":"levelo://app?vid=222cbce9-7315-4a61-b40e-40b441f1422a"},"vehicle_type_id":"4","last_reported":1687302387,"current_range_meters":28000,"station_id":"ce4bhah2rcd13ifvqej0","pricing_plan_id":"free"},{"bike_id":"e3ec115b-dc29-4a3f-b07f-92adf2051303","system_id":"levelo_inurba_marseille","lat":43.286961,"lon":5.373785,"is_reserved":false,"is_disabled":false,"rental_uris":{"android":"levelo://app?vid=e3ec115b-dc29-4a3f-b07f-92adf2051303","ios":"levelo://app?vid=e3ec115b-dc29-4a3f-b07f-92adf2051303"},"vehicle_type_id":"4","last_reported":1687302387,"current_range_meters":25600,"station_id":"ce4bh3p2rcd13ifvqdq0","pricing_plan_id":"free"},{"bike_id":"0e298c81-443b-46f6-ae7d-e607f85041c7","system_id":"levelo_inurba_marseille","lat":43.302759,"lon":5.400793,"is_reserved":false,"is_disabled":false,"rental_uris":{"android":"levelo://app?vid=0e298c81-443b-46f6-ae7d-e607f85041c7","ios":"levelo://app?vid=0e298c81-443b-46f6-ae7d-e607f85041c7"},"vehicle_type_id":"4","last_reported":1687302387,"current_range_meters":17200,"station_id":"ce4bgvh2rcd13ifvqcs0","pricing_plan_id":"free"},{"bike_id":"96cbb218-d47a-426f-93a4-1447c657e71d","system_id":"levelo_inurba_marseille","lat":43.302759,"lon":5.400793,"is_reserved":false,"is_disabled":false,"rental_uris":{"android":"levelo://app?vid=96cbb218-d47a-426f-93a4-1447c657e71d","ios":"levelo://app?vid=96cbb218-d47a-426f-93a4-1447c657e71d"},"vehicle_type_id":"4","last_reported":1687302387,"current_range_meters":12400,"station_id":"ce4bgvh2rcd13ifvqcs0","pricing_plan_id":"free"},{"bike_id":"f1a8e6e0-8444-473a-aa4e-db64fdd482de","system_id":"levelo_inurba_marseille","lat":43.302759,"lon":5.400793,"is_reserved":false,"is_disabled":false,"rental_uris":{"android":"levelo://app?vid=f1a8e6e0-8444-473a-aa4e-db64fdd482de","ios":"levelo://app?vid=f1a8e6e0-8444-473a-aa4e-db64fdd482de"},"vehicle_type_id":"4","last_reported":1687302387,"current_range_meters":9200,"station_id":"ce4bgvh2rcd13ifvqcs0","pricing_plan_id":"free"},{"bike_id":"c5b3dfcf-7545-4dd0-af2c-140a135ff17b","system_id":"levelo_inurba_marseille","lat":43.286039,"lon":5.370679,"is_reserved":false,"is_disabled":false,"rental_uris":{"android":"levelo://app?vid=c5b3dfcf-7545-4dd0-af2c-140a135ff17b","ios":"levelo://app?vid=c5b3dfcf-7545-4dd0-af2c-140a135ff17b"},"vehicle_type_id":"4","last_reported":1687302387,"current_range_meters":13600,"station_id":"ce4bht12rcd13ifvqi60","pricing_plan_id":"free"},{"bike_id":"e98b1d69-bde9-457a-9287-1b24b6f85e96","system_id":"levelo_inurba_marseille","lat":43.286039,"lon":5.370679,"is_reserved":false,"is_disabled":false,"rental_uris":{"android":"levelo://app?vid=e98b1d69-bde9-457a-9287-1b24b6f85e96","ios":"levelo://app?vid=e98b1d69-bde9-457a-9287-1b24b6f85e96"},"vehicle_type_id":"4","last_reported":1687302387,"current_range_meters":29600,"station_id":"ce4bht12rcd13ifvqi60","pricing_plan_id":"free"},{"bike_id":"5626af29-9ded-4339-8a4f-ae5eb09432c3","system_id":"levelo_inurba_marseille","lat":43.286039,"lon":5.370679,"is_reserved":false,"is_disabled":false,"rental_uris":{"android":"levelo://app?vid=5626af29-9ded-4339-8a4f-ae5eb09432c3","ios":"levelo://app?vid=5626af29-9ded-4339-8a4f-ae5eb09432c3"},"vehicle_type_id":"4","last_reported":1687302387,"current_range_meters":31600,"station_id":"ce4bht12rcd13ifvqi60","pricing_plan_id":"free"},{"bike_id":"4470a268-52ac-4b4d-b391-507b4e65c3d1","system_id":"levelo_inurba_marseille","lat":43.28609,"lon":5.37067,"is_reserved":false,"is_disabled":false,"rental_uris":{"android":"levelo://app?vid=4470a268-52ac-4b4d-b391-507b4e65c3d1","ios":"levelo://app?vid=4470a268-52ac-4b4d-b391-507b4e65c3d1"},"vehicle_type_id":"4","last_reported":1687302387,"current_range_meters":0,"station_id":"ce4bht12rcd13ifvqi60","pricing_plan_id":"free"},{"bike_id":"e9bfbcd4-ff0c-4a60-a7fe-f90d864174f3","system_id":"levelo_inurba_marseille","lat":43.286039,"lon":5.370679,"is_reserved":false,"is_disabled":false,"rental_uris":{"android":"levelo://app?vid=e9bfbcd4-ff0c-4a60-a7fe-f90d864174f3","ios":"levelo://app?vid=e9bfbcd4-ff0c-4a60-a7fe-f90d864174f3"},"vehicle_type_id":"4","last_reported":1687302387,"current_range_meters":28800,"station_id":"ce4bht12rcd13ifvqi60","pricing_plan_id":"free"},{"bike_id":"a1c827a0-f87c-4bf2-b869-2dda00b1023d","system_id":"levelo_inurba_marseille","lat":43.287184,"lon":5.37937,"is_reserved":false,"is_disabled":false,"rental_uris":{"android":"levelo://app?vid=a1c827a0-f87c-4bf2-b869-2dda00b1023d","ios":"levelo://app?vid=a1c827a0-f87c-4bf2-b869-2dda00b1023d"},"vehicle_type_id":"4","last_reported":1687302387,"current_range_meters":12800,"station_id":"ce4bh9p2rcd13ifvqec0","pricing_plan_id":"free"},{"bike_id":"68e8e14d-7354-4621-9f98-ca7770af6b12","system_id":"levelo_inurba_marseille","lat":43.287185,"lon":5.379373,"is_reserved":false,"is_disabled":false,"rental_uris":{"android":"levelo://app?vid=68e8e14d-7354-4621-9f98-ca7770af6b12","ios":"levelo://app?vid=68e8e14d-7354-4621-9f98-ca7770af6b12"},"vehicle_type_id":"4","last_reported":1687302387,"current_range_meters":24800,"station_id":"ce4bh9p2rcd13ifvqec0","pricing_plan_id":"free"},{"bike_id":"86549a6f-8609-4025-ba42-8c02f728877b","system_id":"levelo_inurba_marseille","lat":43.287184,"lon":5.37937,"is_reserved":false,"is_disabled":false,"rental_uris":{"android":"levelo://app?vid=86549a6f-8609-4025-ba42-8c02f728877b","ios":"levelo://app?vid=86549a6f-8609-4025-ba42-8c02f728877b"},"vehicle_type_id":"4","last_reported":1687302387,"current_range_meters":31200,"station_id":"ce4bh9p2rcd13ifvqec0","pricing_plan_id":"free"},{"bike_id":"dfde278f-cd45-4d39-bdb9-c87b2d035809","system_id":"levelo_inurba_marseille","lat":43.269319,"lon":5.389397,"is_reserved":false,"is_disabled":false,"rental_uris":{"android":"levelo://app?vid=dfde278f-cd45-4d39-bdb9-c87b2d035809","ios":"levelo://app?vid=dfde278f-cd45-4d39-bdb9-c87b2d035809"},"vehicle_type_id":"4","last_reported":1687302387,"current_range_meters":6000,"station_id":"ce4bhhh2rcd13ifvqfl0","pricing_plan_id":"free"},{"bike_id":"ac23a2fe-d4b3-4702-8441-b7ed9f4f0ee2","system_id":"levelo_inurba_marseille","lat":43.316517,"lon":5.404375,"is_reserved":false,"is_disabled":false,"rental_uris":{"android":"levelo://app?vid=ac23a2fe-d4b3-4702-8441-b7ed9f4f0ee2","ios":"levelo://app?vid=ac23a2fe-d4b3-4702-8441-b7ed9f4f0ee2"},"vehicle_type_id":"4","last_reported":1687302387,"current_range_meters":2800,"station_id":"ce4bh012rcd13ifvqd00","pricing_plan_id":"free"},{"bike_id":"42e53e8a-cb68-4246-ad90-cd31cd93bee4","system_id":"levelo_inurba_marseille","lat":43.3164,"lon":5.40434,"is_reserved":false,"is_disabled":false,"rental_uris":{"android":"levelo://app?vid=42e53e8a-cb68-4246-ad90-cd31cd93bee4","ios":"levelo://app?vid=42e53e8a-cb68-4246-ad90-cd31cd93bee4"},"vehicle_type_id":"4","last_reported":1687302387,"current_range_meters":31200,"station_id":"ce4bh012rcd13ifvqd00","pricing_plan_id":"free"},{"bike_id":"4c1a61a6-96b4-4329-80dd-11df3c2e496c","system_id":"levelo_inurba_marseille","lat":43.316517,"lon":5.404375,"is_reserved":false,"is_disabled":false,"rental_uris":{"android":"levelo://app?vid=4c1a61a6-96b4-4329-80dd-11df3c2e496c","ios":"levelo://app?vid=4c1a61a6-96b4-4329-80dd-11df3c2e496c"},"vehicle_type_id":"4","last_reported":1687302387,"current_range_meters":31200,"station_id":"ce4bh012rcd13ifvqd00","pricing_plan_id":"free"},{"bike_id":"26392303-4bd8-455c-a2e4-d1bcd7d58670","system_id":"levelo_inurba_marseille","lat":43.31645,"lon":5.40435,"is_reserved":false,"is_disabled":false,"rental_uris":{"android":"levelo://app?vid=26392303-4bd8-455c-a2e4-d1bcd7d58670","ios":"levelo://app?vid=26392303-4bd8-455c-a2e4-d1bcd7d58670"},"vehicle_type_id":"4","last_reported":1687302387,"current_range_meters":28800,"station_id":"ce4bh012rcd13ifvqd00","pricing_plan_id":"free"},{"bike_id":"453525a5-259a-444f-8a44-108d3fc10b6f","system_id":"levelo_inurba_marseille","lat":43.316517,"lon":5.404375,"is_reserved":false,"is_disabled":false,"rental_uris":{"android":"levelo://app?vid=453525a5-259a-444f-8a44-108d3fc10b6f","ios":"levelo://app?vid=453525a5-259a-444f-8a44-108d3fc10b6f"},"vehicle_type_id":"4","last_reported":1687302387,"current_range_meters":0,"station_id":"ce4bh012rcd13ifvqd00","pricing_plan_id":"free"},{"bike_id":"4abea754-0f18-4956-95da-39d148da046e","system_id":"levelo_inurba_marseille","lat":43.316517,"lon":5.404375,"is_reserved":false,"is_disabled":false,"rental_uris":{"android":"levelo://app?vid=4abea754-0f18-4956-95da-39d148da046e","ios":"levelo://app?vid=4abea754-0f18-4956-95da-39d148da046e"},"vehicle_type_id":"4","last_reported":1687302387,"current_range_meters":31200,"station_id":"ce4bh012rcd13ifvqd00","pricing_plan_id":"free"},{"bike_id":"2b64fdd5-1677-4d8c-b743-f129f3a6d392","system_id":"levelo_inurba_marseille","lat":43.3165,"lon":5.40443,"is_reserved":false,"is_disabled":false,"rental_uris":{"android":"levelo://app?vid=2b64fdd5-1677-4d8c-b743-f129f3a6d392","ios":"levelo://app?vid=2b64fdd5-1677-4d8c-b743-f129f3a6d392"},"vehicle_type_id":"4","last_reported":1687302387,"current_range_meters":26800,"station_id":"ce4bh012rcd13ifvqd00","pricing_plan_id":"free"},{"bike_id":"a7fc1897-79df-49f5-b5a0-3a86b7ed938b","system_id":"levelo_inurba_marseille","lat":43.33348,"lon":5.39375,"is_reserved":false,"is_disabled":false,"rental_uris":{"android":"levelo://app?vid=a7fc1897-79df-49f5-b5a0-3a86b7ed938b","ios":"levelo://app?vid=a7fc1897-79df-49f5-b5a0-3a86b7ed938b"},"vehicle_type_id":"4","last_reported":1687302387,"current_range_meters":0,"station_id":"","pricing_plan_id":"free"},{"bike_id":"ebcbeabd-7cc6-4487-9e16-fa01c35244f2","system_id":"levelo_inurba_marseille","lat":43.284534,"lon":5.358662,"is_reserved":false,"is_disabled":false,"rental_uris":{"android":"levelo://app?vid=ebcbeabd-7cc6-4487-9e16-fa01c35244f2","ios":"levelo://app?vid=ebcbeabd-7cc6-4487-9e16-fa01c35244f2"},"vehicle_type_id":"4","last_reported":1687302387,"current_range_meters":16800,"station_id":"ce4bhah2rcd13ifvqei0","pricing_plan_id":"free"},{"bike_id":"06803be0-9b72-4d0b-a2b6-390e6a5c9ee3","system_id":"levelo_inurba_marseille","lat":43.2846,"lon":5.35888,"is_reserved":false,"is_disabled":false,"rental_uris":{"android":"levelo://app?vid=06803be0-9b72-4d0b-a2b6-390e6a5c9ee3","ios":"levelo://app?vid=06803be0-9b72-4d0b-a2b6-390e6a5c9ee3"},"vehicle_type_id":"4","last_reported":1687302387,"current_range_meters":20400,"station_id":"ce4bhah2rcd13ifvqei0","pricing_plan_id":"free"},{"bike_id":"d2ee41f7-506f-45d6-81a9-b4b3e31a5812","system_id":"levelo_inurba_marseille","lat":43.28458,"lon":5.35891,"is_reserved":false,"is_disabled":false,"rental_uris":{"android":"levelo://app?vid=d2ee41f7-506f-45d6-81a9-b4b3e31a5812","ios":"levelo://app?vid=d2ee41f7-506f-45d6-81a9-b4b3e31a5812"},"vehicle_type_id":"4","last_reported":1687302387,"current_range_meters":26000,"station_id":"ce4bhah2rcd13ifvqei0","pricing_plan_id":"free"},{"bike_id":"e58f888d-0346-4fdc-bb60-38af8e986e3e","system_id":"levelo_inurba_marseille","lat":43.284534,"lon":5.358662,"is_reserved":false,"is_disabled":false,"rental_uris":{"android":"levelo://app?vid=e58f888d-0346-4fdc-bb60-38af8e986e3e","ios":"levelo://app?vid=e58f888d-0346-4fdc-bb60-38af8e986e3e"},"vehicle_type_id":"4","last_reported":1687302387,"current_range_meters":4800,"station_id":"ce4bhah2rcd13ifvqei0","pricing_plan_id":"free"},{"bike_id":"4ef3663b-58f7-4278-9bc2-98f3e6eafaef","system_id":"levelo_inurba_marseille","lat":43.284534,"lon":5.358662,"is_reserved":false,"is_disabled":false,"rental_uris":{"android":"levelo://app?vid=4ef3663b-58f7-4278-9bc2-98f3e6eafaef","ios":"levelo://app?vid=4ef3663b-58f7-4278-9bc2-98f3e6eafaef"},"vehicle_type_id":"4","last_reported":1687302387,"current_range_meters":2800,"station_id":"ce4bhah2rcd13ifvqei0","pricing_plan_id":"free"},{"bike_id":"c45c133c-7e18-4892-ad2a-838c1064d748","system_id":"levelo_inurba_marseille","lat":43.28453,"lon":5.35894,"is_reserved":false,"is_disabled":false,"rental_uris":{"android":"levelo://app?vid=c45c133c-7e18-4892-ad2a-838c1064d748","ios":"levelo://app?vid=c45c133c-7e18-4892-ad2a-838c1064d748"},"vehicle_type_id":"4","last_reported":1687302387,"current_range_meters":17600,"station_id":"ce4bhah2rcd13ifvqei0","pricing_plan_id":"free"},{"bike_id":"78e17254-29a2-4b88-9cf1-ae8e54ec40d5","system_id":"levelo_inurba_marseille","lat":43.284534,"lon":5.358662,"is_reserved":false,"is_disabled":false,"rental_uris":{"android":"levelo://app?vid=78e17254-29a2-4b88-9cf1-ae8e54ec40d5","ios":"levelo://app?vid=78e17254-29a2-4b88-9cf1-ae8e54ec40d5"},"vehicle_type_id":"4","last_reported":1687302387,"current_range_meters":26400,"station_id":"ce4bhah2rcd13ifvqei0","pricing_plan_id":"free"},{"bike_id":"2c3ed080-3326-4675-b179-db3f98306890","system_id":"levelo_inurba_marseille","lat":43.28451,"lon":5.35895,"is_reserved":false,"is_disabled":false,"rental_uris":{"android":"levelo://app?vid=2c3ed080-3326-4675-b179-db3f98306890","ios":"levelo://app?vid=2c3ed080-3326-4675-b179-db3f98306890"},"vehicle_type_id":"4","last_reported":1687302387,"current_range_meters":14800,"station_id":"ce4bhah2rcd13ifvqei0","pricing_plan_id":"free"},{"bike_id":"d2bed01b-3eba-48be-a8cb-082f93ec63bf","system_id":"levelo_inurba_marseille","lat":43.29433,"lon":5.39757,"is_reserved":false,"is_disabled":false,"rental_uris":{"android":"levelo://app?vid=d2bed01b-3eba-48be-a8cb-082f93ec63bf","ios":"levelo://app?vid=d2bed01b-3eba-48be-a8cb-082f93ec63bf"},"vehicle_type_id":"4","last_reported":1687302387,"current_range_meters":29600,"station_id":"ce4bh3h2rcd13ifvqdo0","pricing_plan_id":"free"},{"bike_id":"76ee3b52-e785-474b-86c7-6ae4b101ef7d","system_id":"levelo_inurba_marseille","lat":43.283998,"lon":5.375062,"is_reserved":false,"is_disabled":false,"rental_uris":{"android":"levelo://app?vid=76ee3b52-e785-474b-86c7-6ae4b101ef7d","ios":"levelo://app?vid=76ee3b52-e785-474b-86c7-6ae4b101ef7d"},"vehicle_type_id":"4","last_reported":1687302387,"current_range_meters":20400,"station_id":"ce4bh412rcd13ifvqds0","pricing_plan_id":"free"},{"bike_id":"7a928a9f-ea3f-45df-af15-66bb1b53c0cb","system_id":"levelo_inurba_marseille","lat":43.28413,"lon":5.37524,"is_reserved":false,"is_disabled":false,"rental_uris":{"android":"levelo://app?vid=7a928a9f-ea3f-45df-af15-66bb1b53c0cb","ios":"levelo://app?vid=7a928a9f-ea3f-45df-af15-66bb1b53c0cb"},"vehicle_type_id":"4","last_reported":1687302387,"current_range_meters":30000,"station_id":"ce4bh412rcd13ifvqds0","pricing_plan_id":"free"},{"bike_id":"c96c6ebf-83f7-404e-9329-5804e32057fd","system_id":"levelo_inurba_marseille","lat":43.283998,"lon":5.375062,"is_reserved":false,"is_disabled":false,"rental_uris":{"android":"levelo://app?vid=c96c6ebf-83f7-404e-9329-5804e32057fd","ios":"levelo://app?vid=c96c6ebf-83f7-404e-9329-5804e32057fd"},"vehicle_type_id":"4","last_reported":1687302387,"current_range_meters":18400,"station_id":"ce4bh412rcd13ifvqds0","pricing_plan_id":"free"},{"bike_id":"1868ebe4-a43e-44a1-af52-4291b108813e","system_id":"levelo_inurba_marseille","lat":43.28411,"lon":5.37524,"is_reserved":false,"is_disabled":false,"rental_uris":{"android":"levelo://app?vid=1868ebe4-a43e-44a1-af52-4291b108813e","ios":"levelo://app?vid=1868ebe4-a43e-44a1-af52-4291b108813e"},"vehicle_type_id":"4","last_reported":1687302387,"current_range_meters":31200,"station_id":"ce4bh412rcd13ifvqds0","pricing_plan_id":"free"},{"bike_id":"e145ee82-b278-441b-a5e7-00c4b1ffcf19","system_id":"levelo_inurba_marseille","lat":43.283998,"lon":5.375062,"is_reserved":false,"is_disabled":false,"rental_uris":{"android":"levelo://app?vid=e145ee82-b278-441b-a5e7-00c4b1ffcf19","ios":"levelo://app?vid=e145ee82-b278-441b-a5e7-00c4b1ffcf19"},"vehicle_type_id":"4","last_reported":1687302387,"current_range_meters":31200,"station_id":"ce4bh412rcd13ifvqds0","pricing_plan_id":"free"},{"bike_id":"48ddc696-db94-402e-9a2d-6dd4324d67dc","system_id":"levelo_inurba_marseille","lat":43.28407,"lon":5.37517,"is_reserved":false,"is_disabled":false,"rental_uris":{"android":"levelo://app?vid=48ddc696-db94-402e-9a2d-6dd4324d67dc","ios":"levelo://app?vid=48ddc696-db94-402e-9a2d-6dd4324d67dc"},"vehicle_type_id":"4","last_reported":1687302387,"current_range_meters":30800,"station_id":"ce4bh412rcd13ifvqds0","pricing_plan_id":"free"},{"bike_id":"05d09213-c085-4458-bbe4-964304b7d429","system_id":"levelo_inurba_marseille","lat":43.28407,"lon":5.3752,"is_reserved":false,"is_disabled":false,"rental_uris":{"android":"levelo://app?vid=05d09213-c085-4458-bbe4-964304b7d429","ios":"levelo://app?vid=05d09213-c085-4458-bbe4-964304b7d429"},"vehicle_type_id":"4","last_reported":1687302387,"current_range_meters":14400,"station_id":"ce4bh412rcd13ifvqds0","pricing_plan_id":"free"},{"bike_id":"69ffcd18-b3b0-4c4a-91ac-2a0a133069d1","system_id":"levelo_inurba_marseille","lat":43.28399,"lon":5.37533,"is_reserved":false,"is_disabled":false,"rental_uris":{"android":"levelo://app?vid=69ffcd18-b3b0-4c4a-91ac-2a0a133069d1","ios":"levelo://app?vid=69ffcd18-b3b0-4c4a-91ac-2a0a133069d1"},"vehicle_type_id":"4","last_reported":1687302387,"current_range_meters":31600,"station_id":"ce4bh412rcd13ifvqds0","pricing_plan_id":"free"},{"bike_id":"f86d8063-19b9-4bd1-bc4f-4b89d8baa498","system_id":"levelo_inurba_marseille","lat":43.295713,"lon":5.399639,"is_reserved":false,"is_disabled":false,"rental_uris":{"android":"levelo://app?vid=f86d8063-19b9-4bd1-bc4f-4b89d8baa498","ios":"levelo://app?vid=f86d8063-19b9-4bd1-bc4f-4b89d8baa498"},"vehicle_type_id":"4","last_reported":1687302387,"current_range_meters":13200,"station_id":"ce4bh312rcd13ifvqdj0","pricing_plan_id":"free"},{"bike_id":"f6fda2f2-04f1-4377-bae3-2fc212d95c47","system_id":"levelo_inurba_marseille","lat":43.3422,"lon":5.36198,"is_reserved":false,"is_disabled":false,"rental_uris":{"android":"levelo://app?vid=f6fda2f2-04f1-4377-bae3-2fc212d95c47","ios":"levelo://app?vid=f6fda2f2-04f1-4377-bae3-2fc212d95c47"},"vehicle_type_id":"4","last_reported":1687302387,"current_range_meters":8800,"station_id":"","pricing_plan_id":"free"},{"bike_id":"52dc1264-ec77-4efc-81e8-4dcda9b13f81","system_id":"levelo_inurba_marseille","lat":43.286595,"lon":5.386795,"is_reserved":false,"is_disabled":false,"rental_uris":{"android":"levelo://app?vid=52dc1264-ec77-4efc-81e8-4dcda9b13f81","ios":"levelo://app?vid=52dc1264-ec77-4efc-81e8-4dcda9b13f81"},"vehicle_type_id":"4","last_reported":1687302387,"current_range_meters":31200,"station_id":"ce4bh492rcd13ifvqdug","pricing_plan_id":"free"},{"bike_id":"0f8a41f6-9bc4-4663-a61e-93c92bb130fa","system_id":"levelo_inurba_marseille","lat":43.286595,"lon":5.386795,"is_reserved":false,"is_disabled":false,"rental_uris":{"android":"levelo://app?vid=0f8a41f6-9bc4-4663-a61e-93c92bb130fa","ios":"levelo://app?vid=0f8a41f6-9bc4-4663-a61e-93c92bb130fa"},"vehicle_type_id":"4","last_reported":1687302387,"current_range_meters":27600,"station_id":"ce4bh492rcd13ifvqdug","pricing_plan_id":"free"},{"bike_id":"7a9eb0f1-9342-4623-84f7-be9dfb04e7a4","system_id":"levelo_inurba_marseille","lat":43.286595,"lon":5.386795,"is_reserved":false,"is_disabled":false,"rental_uris":{"android":"levelo://app?vid=7a9eb0f1-9342-4623-84f7-be9dfb04e7a4","ios":"levelo://app?vid=7a9eb0f1-9342-4623-84f7-be9dfb04e7a4"},"vehicle_type_id":"4","last_reported":1687302387,"current_range_meters":24000,"station_id":"ce4bh492rcd13ifvqdug","pricing_plan_id":"free"},{"bike_id":"c38b2d75-a2b5-4fc7-a3d0-ffb8d813a208","system_id":"levelo_inurba_marseille","lat":43.286595,"lon":5.386795,"is_reserved":false,"is_disabled":false,"rental_uris":{"android":"levelo://app?vid=c38b2d75-a2b5-4fc7-a3d0-ffb8d813a208","ios":"levelo://app?vid=c38b2d75-a2b5-4fc7-a3d0-ffb8d813a208"},"vehicle_type_id":"4","last_reported":1687302387,"current_range_meters":2800,"station_id":"ce4bh492rcd13ifvqdug","pricing_plan_id":"free"},{"bike_id":"1c3a51da-191f-4e85-a2ba-0e0bc8fa7f51","system_id":"levelo_inurba_marseille","lat":43.286595,"lon":5.386795,"is_reserved":false,"is_disabled":false,"rental_uris":{"android":"levelo://app?vid=1c3a51da-191f-4e85-a2ba-0e0bc8fa7f51","ios":"levelo://app?vid=1c3a51da-191f-4e85-a2ba-0e0bc8fa7f51"},"vehicle_type_id":"4","last_reported":1687302387,"current_range_meters":6000,"station_id":"ce4bh492rcd13ifvqdug","pricing_plan_id":"free"},{"bike_id":"425d37fc-18f3-417f-a71f-4e262c709824","system_id":"levelo_inurba_marseille","lat":43.286595,"lon":5.386795,"is_reserved":false,"is_disabled":false,"rental_uris":{"android":"levelo://app?vid=425d37fc-18f3-417f-a71f-4e262c709824","ios":"levelo://app?vid=425d37fc-18f3-417f-a71f-4e262c709824"},"vehicle_type_id":"4","last_reported":1687302387,"current_range_meters":27600,"station_id":"ce4bh492rcd13ifvqdug","pricing_plan_id":"free"},{"bike_id":"a0294cbe-ddff-445e-81c2-60a75d245509","system_id":"levelo_inurba_marseille","lat":43.32188,"lon":5.40584,"is_reserved":false,"is_disabled":false,"rental_uris":{"android":"levelo://app?vid=a0294cbe-ddff-445e-81c2-60a75d245509","ios":"levelo://app?vid=a0294cbe-ddff-445e-81c2-60a75d245509"},"vehicle_type_id":"4","last_reported":1687302387,"current_range_meters":16400,"station_id":"","pricing_plan_id":"free"},{"bike_id":"c980a01f-6f9a-4a65-954e-7b254c9be80c","system_id":"levelo_inurba_marseille","lat":43.286595,"lon":5.386795,"is_reserved":false,"is_disabled":false,"rental_uris":{"android":"levelo://app?vid=c980a01f-6f9a-4a65-954e-7b254c9be80c","ios":"levelo://app?vid=c980a01f-6f9a-4a65-954e-7b254c9be80c"},"vehicle_type_id":"4","last_reported":1687302387,"current_range_meters":28800,"station_id":"ce4bh492rcd13ifvqdug","pricing_plan_id":"free"},{"bike_id":"1b5cab66-590b-460a-9914-864900fba592","system_id":"levelo_inurba_marseille","lat":43.33712,"lon":5.39186,"is_reserved":false,"is_disabled":false,"rental_uris":{"android":"levelo://app?vid=1b5cab66-590b-460a-9914-864900fba592","ios":"levelo://app?vid=1b5cab66-590b-460a-9914-864900fba592"},"vehicle_type_id":"4","last_reported":1687302387,"current_range_meters":6800,"station_id":"","pricing_plan_id":"free"},{"bike_id":"64766038-4d37-4bbb-8324-fdd09852a999","system_id":"levelo_inurba_marseille","lat":43.33711,"lon":5.39195,"is_reserved":false,"is_disabled":false,"rental_uris":{"android":"levelo://app?vid=64766038-4d37-4bbb-8324-fdd09852a999","ios":"levelo://app?vid=64766038-4d37-4bbb-8324-fdd09852a999"},"vehicle_type_id":"4","last_reported":1687302387,"current_range_meters":16000,"station_id":"","pricing_plan_id":"free"},{"bike_id":"d7b29256-fc07-4272-a85c-ecffd4d1832a","system_id":"levelo_inurba_marseille","lat":43.33716,"lon":5.39192,"is_reserved":false,"is_disabled":false,"rental_uris":{"android":"levelo://app?vid=d7b29256-fc07-4272-a85c-ecffd4d1832a","ios":"levelo://app?vid=d7b29256-fc07-4272-a85c-ecffd4d1832a"},"vehicle_type_id":"4","last_reported":1687302387,"current_range_meters":10400,"station_id":"","pricing_plan_id":"free"},{"bike_id":"bc02fd35-1eb3-40a3-badd-90dc5790ff01","system_id":"levelo_inurba_marseille","lat":43.32337,"lon":5.40623,"is_reserved":false,"is_disabled":false,"rental_uris":{"android":"levelo://app?vid=bc02fd35-1eb3-40a3-badd-90dc5790ff01","ios":"levelo://app?vid=bc02fd35-1eb3-40a3-badd-90dc5790ff01"},"vehicle_type_id":"4","last_reported":1687302387,"current_range_meters":27200,"station_id":"ce4bhq92rcd13ifvqhjg","pricing_plan_id":"free"},{"bike_id":"b2214d7c-78cd-4696-b9db-0999bad8b14f","system_id":"levelo_inurba_marseille","lat":43.32341,"lon":5.40627,"is_reserved":false,"is_disabled":false,"rental_uris":{"android":"levelo://app?vid=b2214d7c-78cd-4696-b9db-0999bad8b14f","ios":"levelo://app?vid=b2214d7c-78cd-4696-b9db-0999bad8b14f"},"vehicle_type_id":"4","last_reported":1687302387,"current_range_meters":31200,"station_id":"ce4bhq92rcd13ifvqhjg","pricing_plan_id":"free"},{"bike_id":"7788a4bc-2308-4616-bcd1-6b5e32da7300","system_id":"levelo_inurba_marseille","lat":43.284793,"lon":5.384113,"is_reserved":false,"is_disabled":false,"rental_uris":{"android":"levelo://app?vid=7788a4bc-2308-4616-bcd1-6b5e32da7300","ios":"levelo://app?vid=7788a4bc-2308-4616-bcd1-6b5e32da7300"},"vehicle_type_id":"4","last_reported":1687302387,"current_range_meters":4400,"station_id":"ce4bh512rcd13ifvqe3g","pricing_plan_id":"free"},