{"last_updated":1744225681,"ttl":60,"version":"2.2","data":{"bikes":[{"bike_id":"2a353b13-ee6b-4196-b870-d93aa6abf93a","system_id":"levelo_inurba_marseille","lat":43.25814,"lon":5.39437,"is_reserved":false,"is_disabled":false,"rental_uris":{"android":"levelo://app?vid=2a353b13-ee6b-4196-b870-d93aa6abf93a","ios":"levelo://app?vid=2a353b13-ee6b-4196-b870-d93aa6abf93a"},"vehicle_type_id":"4","last_reported":1744225681,"current_range_meters":2800,"station_id":"ce4bhip2rcd13ifvqft0","pricing_plan_id":"cebpf4jnsgd1na2vs0mg"},{"bike_id":"3418c590-ee74-4a9e-a929-b4470390ca27","system_id":"levelo_inurba_marseille","lat":43.29263,"lon":5.40906,"is_reserved":false,"is_disabled":false,"rental_uris":{"android":"levelo://app?vid=3418c590-ee74-4a9e-a929-b4470390ca27","ios":"levelo://app?vid=3418c590-ee74-4a9e-a929-b4470390ca27"},"vehicle_type_id":"4","last_reported":1744225681,"current_range_meters":2800,"station_id":"ce4bh192rcd13ifvqdc0","pricing_plan_id":"cebpf4jnsgd1na2vs0mg"},{"bike_id":"1cbab9b2-ddaf-405e-9ebc-8f21aff592ee","system_id":"levelo_inurba_marseille","lat":43.29274,"lon":5.40126,"is_reserved":false,"is_disabled":false,"rental_uris":{"android":"levelo://app?vid=1cbab9b2-ddaf-405e-9ebc-8f21aff592ee","ios":"levelo://app?vid=1cbab9b2-ddaf-405e-9ebc-8f21aff592ee"},"vehicle_type_id":"4","last_reported":1744225681,"current_range_meters":2800,"station_id":"ce4bh312rcd13ifvqdk0","pricing_plan_id":"cebpf4jnsgd1na2vs0mg"},{"bike_id":"3f31f207-3522-4657-a794-551127701951","system_id":"levelo_inurba_marseille","lat":43.27985,"lon":5.41018,"is_reserved":false,"is_disabled":true,"rental_uris":{"android":"levelo://app?vid=3f31f207-3522-4657-a794-551127701951","ios":"levelo://app?vid=3f31f207-3522-4657-a794-551127701951"},"vehicle_type_id":"4","last_reported":1744225681,"current_range_meters":3200,"station_id":"","pricing_plan_id":"cebpf4jnsgd1na2vs0mg"},{"bike_id":"2f139b80-1569-47e7-ae50-09a8792dc14c","system_id":"levelo_inurba_marseille","lat":43.27909,"lon":5.38016,"is_reserved":false,"is_disabled":false,"rental_uris":{"android":"levelo://app?vid=2f139b80-1569-47e7-ae50-09a8792dc14c","ios":"levelo://app?vid=2f139b80-1569-47e7-ae50-09a8792dc14c"},"vehicle_type_id":"4","last_reported":1744225681,"current_range_meters":3200,"station_id":"ce4bhf92rcd13ifvqf50","pricing_plan_id":"cebpf4jnsgd1na2vs0mg"},{"bike_id":"3576b946-70b3-456f-a60a-d98e227f015c","system_id":"levelo_inurba_marseille","lat":43.30088,"lon":5.38232,"is_reserved":false,"is_disabled":false,"rental_uris":{"android":"levelo://app?vid=3576b946-70b3-456f-a60a-d98e227f015c","ios":"levelo://app?vid=3576b946-70b3-456f-a60a-d98e227f015c"},"vehicle_type_id":"4","last_reported":1744225681,"current_range_meters":3200,"station_id":"","pricing_plan_id":"cebpf4jnsgd1na2vs0mg"},{"bike_id":"78d61e89-2593-4d8f-b70c-b337d89cc837","system_id":"levelo_inurba_marseille","lat":43.29031,"lon":5.37561,"is_reserved":false,"is_disabled":false,"rental_uris":{"android":"levelo://app?vid=78d61e89-2593-4d8f-b70c-b337d89cc837","ios":"levelo://app?vid=78d61e89-2593-4d8f-b70c-b337d89cc837"},"vehicle_type_id":"4","last_reported":1744225681,"current_range_meters":3200,"station_id":"ce4bh692rcd13ifvqe90","pricing_plan_id":"cebpf4jnsgd1na2vs0mg"},{"bike_id":"63914ca7-d712-4653-9094-8477827a41ba","system_id":"levelo_inurba_marseille","lat":43.32657,"lon":5.40986,"is_reserved":false,"is_disabled":false,"rental_uris":{"android":"levelo://app?vid=63914ca7-d712-4653-9094-8477827a41ba","ios":"levelo://app?vid=63914ca7-d712-4653-9094-8477827a41ba"},"vehicle_type_id":"4","last_reported":1744225681,"current_range_meters":0,"station_id":"ce4bhpp2rcd13ifvqhgg","pricing_plan_id":"cebpf4jnsgd1na2vs0mg"},{"bike_id":"1f5ede78-5a10-4766-b4bb-f9ce5bb57107","system_id":"levelo_inurba_marseille","lat":43.31714,"lon":5.43714,"is_reserved":false,"is_disabled":false,"rental_uris":{"android":"levelo://app?vid=1f5ede78-5a10-4766-b4bb-f9ce5bb57107","ios":"levelo://app?vid=1f5ede78-5a10-4766-b4bb-f9ce5bb57107"},"vehicle_type_id":"4","last_reported":1744225681,"current_range_meters":3200,"station_id":"ce4bhp92rcd13ifvqhcg","pricing_plan_id":"cebpf4jnsgd1na2vs0mg"},{"bike_id":"e12681da-8b3a-4b60-b66d-c6fddc139dc8","system_id":"levelo_inurba_marseille","lat":43.30799,"lon":5.38129,"is_reserved":false,"is_disabled":false,"rental_uris":{"android":"levelo://app?vid=e12681da-8b3a-4b60-b66d-c6fddc139dc8","ios":"levelo://app?vid=e12681da-8b3a-4b60-b66d-c6fddc139dc8"},"vehicle_type_id":"4","last_reported":1744225681,"current_range_meters":3600,"station_id":"ce4bgt12rcd13ifvqce0","pricing_plan_id":"cebpf4jnsgd1na2vs0mg"},{"bike_id":"61faeab7-d3b1-42ea-8185-a6bb834269b2","system_id":"levelo_inurba_marseille","lat":43.27127,"lon":5.414,"is_reserved":false,"is_disabled":false,"rental_uris":{"android":"levelo://app?vid=61faeab7-d3b1-42ea-8185-a6bb834269b2","ios":"levelo://app?vid=61faeab7-d3b1-42ea-8185-a6bb834269b2"},"vehicle_type_id":"4","last_reported":1744225681,"current_range_meters":3600,"station_id":"","pricing_plan_id":"cebpf4jnsgd1na2vs0mg"},{"bike_id":"7f6cb861-b737-421b-943f-51957e08670d","system_id":"levelo_inurba_marseille","lat":43.27371,"lon":5.36255,"is_reserved":false,"is_disabled":false,"rental_uris":{"android":"levelo://app?vid=7f6cb861-b737-421b-943f-51957e08670d","ios":"levelo://app?vid=7f6cb861-b737-421b-943f-51957e08670d"},"vehicle_type_id":"4","last_reported":1744225681,"current_range_meters":3600,"station_id":"ce4bhbh2rcd13ifvqeo0","pricing_plan_id":"cebpf4jnsgd1na2vs0mg"},{"bike_id":"a5893a1f-7c9d-4af5-acab-6328a27154af","system_id":"levelo_inurba_marseille","lat":43.292785,"lon":5.408999,"is_reserved":false,"is_disabled":true,"rental_uris":{"android":"levelo://app?vid=a5893a1f-7c9d-4af5-acab-6328a27154af","ios":"levelo://app?vid=a5893a1f-7c9d-4af5-acab-6328a27154af"},"vehicle_type_id":"4","last_reported":1744225681,"current_range_meters":3600,"station_id":"","pricing_plan_id":"cebpf4jnsgd1na2vs0mg"},{"bike_id":"ae7fc30f-36a4-4b2d-8b99-bb40d3c9eacc","system_id":"levelo_inurba_marseille","lat":43.29421,"lon":5.38621,"is_reserved":false,"is_disabled":true,"rental_uris":{"android":"levelo://app?vid=ae7fc30f-36a4-4b2d-8b99-bb40d3c9eacc","ios":"levelo://app?vid=ae7fc30f-36a4-4b2d-8b99-bb40d3c9eacc"},"vehicle_type_id":"4","last_reported":1744225681,"current_range_meters":4000,"station_id":"ce4bh2h2rcd13ifvqdh0","pricing_plan_id":"cebpf4jnsgd1na2vs0mg"},{"bike_id":"7dd2d000-302e-426d-95e9-f8ec3abe8932","system_id":"levelo_inurba_marseille","lat":43.3081,"lon":5.38144,"is_reserved":false,"is_disabled":false,"rental_uris":{"android":"levelo://app?vid=7dd2d000-302e-426d-95e9-f8ec3abe8932","ios":"levelo://app?vid=7dd2d000-302e-426d-95e9-f8ec3abe8932"},"vehicle_type_id":"4","last_reported":1744225681,"current_range_meters":4000,"station_id":"ce4bgt12rcd13ifvqce0","pricing_plan_id":"cebpf4jnsgd1na2vs0mg"},{"bike_id":"97678059-3e9f-40bf-aa17-7683623f88ef","system_id":"levelo_inurba_marseille","lat":43.29026,"lon":5.38642,"is_reserved":false,"is_disabled":false,"rental_uris":{"android":"levelo://app?vid=97678059-3e9f-40bf-aa17-7683623f88ef","ios":"levelo://app?vid=97678059-3e9f-40bf-aa17-7683623f88ef"},"vehicle_type_id":"4","last_reported":1744225681,"current_range_meters":4000,"station_id":"ce4bh4p2rcd13ifvqe0g","pricing_plan_id":"cebpf4jnsgd1na2vs0mg"},{"bike_id":"ebe93ec5-62b1-41d4-ab66-7afa00c54d43","system_id":"levelo_inurba_marseille","lat":43.2902,"lon":5.38617,"is_reserved":false,"is_disabled":false,"rental_uris":{"android":"levelo://app?vid=ebe93ec5-62b1-41d4-ab66-7afa00c54d43","ios":"levelo://app?vid=ebe93ec5-62b1-41d4-ab66-7afa00c54d43"},"vehicle_type_id":"4","last_reported":1744225681,"current_range_meters":4000,"station_id":"ce4bh4p2rcd13ifvqe0g","pricing_plan_id":"cebpf4jnsgd1na2vs0mg"},{"bike_id":"f2b2f649-6ac7-463f-bf5b-1e513d8cd681","system_id":"levelo_inurba_marseille","lat":43.29303,"lon":5.37456,"is_reserved":false,"is_disabled":false,"rental_uris":{"android":"levelo://app?vid=f2b2f649-6ac7-463f-bf5b-1e513d8cd681","ios":"levelo://app?vid=f2b2f649-6ac7-463f-bf5b-1e513d8cd681"},"vehicle_type_id":"4","last_reported":1744225681,"current_range_meters":4000,"station_id":"ce4bgi12rcd13ifvqb70","pricing_plan_id":"cebpf4jnsgd1na2vs0mg"},{"bike_id":"4efd10f7-0cf8-4b7f-ba36-00a0f789aceb","system_id":"levelo_inurba_marseille","lat":43.29399,"lon":5.39495,"is_reserved":false,"is_disabled":false,"rental_uris":{"android":"levelo://app?vid=4efd10f7-0cf8-4b7f-ba36-00a0f789aceb","ios":"levelo://app?vid=4efd10f7-0cf8-4b7f-ba36-00a0f789aceb"},"vehicle_type_id":"4","last_reported":1744225681,"current_range_meters":4400,"station_id":"","pricing_plan_id":"cebpf4jnsgd1na2vs0mg"},{"bike_id":"be10f869-d40f-432e-a476-d86f31f6a35c","system_id":"levelo_inurba_marseille","lat":43.2737,"lon":5.36266,"is_reserved":false,"is_disabled":false,"rental_uris":{"android":"levelo://app?vid=be10f869-d40f-432e-a476-d86f31f6a35c","ios":"levelo://app?vid=be10f869-d40f-432e-a476-d86f31f6a35c"},"vehicle_type_id":"4","last_reported":1744225681,"current_range_meters":4400,"station_id":"ce4bhbh2rcd13ifvqeo0","pricing_plan_id":"cebpf4jnsgd1na2vs0mg"},{"bike_id":"f10f06c7-9877-43d4-8fcd-ea39278087e0","system_id":"levelo_inurba_marseille","lat":43.29568,"lon":5.39965,"is_reserved":false,"is_disabled":false,"rental_uris":{"android":"levelo://app?vid=f10f06c7-9877-43d4-8fcd-ea39278087e0","ios":"levelo://app?vid=f10f06c7-9877-43d4-8fcd-ea39278087e0"},"vehicle_type_id":"4","last_reported":1744225681,"current_range_meters":4400,"station_id":"ce4bh312rcd13ifvqdj0","pricing_plan_id":"cebpf4jnsgd1na2vs0mg"},{"bike_id":"597c6422-9598-4d7b-b059-da8a3e9296f6","system_id":"levelo_inurba_marseille","lat":43.31275,"lon":5.40167,"is_reserved":false,"is_disabled":false,"rental_uris":{"android":"levelo://app?vid=597c6422-9598-4d7b-b059-da8a3e9296f6","ios":"levelo://app?vid=597c6422-9598-4d7b-b059-da8a3e9296f6"},"vehicle_type_id":"4","last_reported":1744225681,"current_range_meters":4400,"station_id":"ce4bh092rcd13ifvqd30","pricing_plan_id":"cebpf4jnsgd1na2vs0mg"},{"bike_id":"0ec47a92-64b5-422e-a76c-ed83ef84ab58","system_id":"levelo_inurba_marseille","lat":43.29196,"lon":5.39315,"is_reserved":false,"is_disabled":false,"rental_uris":{"android":"levelo://app?vid=0ec47a92-64b5-422e-a76c-ed83ef84ab58","ios":"levelo://app?vid=0ec47a92-64b5-422e-a76c-ed83ef84ab58"},"vehicle_type_id":"4","last_reported":1744225681,"current_range_meters":4400,"station_id":"ce4bh192rcd13ifvqdd0","pricing_plan_id":"cebpf4jnsgd1na2vs0mg"},{"bike_id":"cd07658d-a6fb-41d7-b49f-5b25a6336379","system_id":"levelo_inurba_marseille","lat":43.23953,"lon":5.3664,"is_reserved":false,"is_disabled":false,"rental_uris":{"android":"levelo://app?vid=cd07658d-a6fb-41d7-b49f-5b25a6336379","ios":"levelo://app?vid=cd07658d-a6fb-41d7-b49f-5b25a6336379"},"vehicle_type_id":"4","last_reported":1744225681,"current_range_meters":4400,"station_id":"ce4bhi12rcd13ifvqfp0","pricing_plan_id":"cebpf4jnsgd1na2vs0mg"},{"bike_id":"dc5553de-ada2-4fb1-8959-c8ed0643c8c5","system_id":"levelo_inurba_marseille","lat":43.29306,"lon":5.37181,"is_reserved":false,"is_disabled":false,"rental_uris":{"android":"levelo://app?vid=dc5553de-ada2-4fb1-8959-c8ed0643c8c5","ios":"levelo://app?vid=dc5553de-ada2-4fb1-8959-c8ed0643c8c5"},"vehicle_type_id":"4","last_reported":1744225681,"current_range_meters":4000,"station_id":"ce4bgh92rcd13ifvqb40","pricing_plan_id":"cebpf4jnsgd1na2vs0mg"},{"bike_id":"488970c7-ad85-4166-a4ad-456252c5bcc5","system_id":"levelo_inurba_marseille","lat":43.273705,"lon":5.40873,"is_reserved":false,"is_disabled":false,"rental_uris":{"android":"levelo://app?vid=488970c7-ad85-4166-a4ad-456252c5bcc5","ios":"levelo://app?vid=488970c7-ad85-4166-a4ad-456252c5bcc5"},"vehicle_type_id":"4","last_reported":1744225681,"current_range_meters":4400,"station_id":"","pricing_plan_id":"cebpf4jnsgd1na2vs0mg"},{"bike_id":"178c9d07-0086-476c-9e55-3199488aba76","system_id":"levelo_inurba_marseille","lat":43.30652,"lon":5.40078,"is_reserved":false,"is_disabled":false,"rental_uris":{"android":"levelo://app?vid=178c9d07-0086-476c-9e55-3199488aba76","ios":"levelo://app?vid=178c9d07-0086-476c-9e55-3199488aba76"},"vehicle_type_id":"4","last_reported":1744225681,"current_range_meters":4400,"station_id":"ce4bh112rcd13ifvqda0","pricing_plan_id":"cebpf4jnsgd1na2vs0mg"},{"bike_id":"ebe1ea58-9f38-4c10-a6da-a9d33ab03a52","system_id":"levelo_inurba_marseille","lat":43.24987,"lon":5.3895,"is_reserved":false,"is_disabled":true,"rental_uris":{"android":"levelo://app?vid=ebe1ea58-9f38-4c10-a6da-a9d33ab03a52","ios":"levelo://app?vid=ebe1ea58-9f38-4c10-a6da-a9d33ab03a52"},"vehicle_type_id":"4","last_reported":1744225681,"current_range_meters":4800,"station_id":"ce4bhgp2rcd13ifvqfd0","pricing_plan_id":"cebpf4jnsgd1na2vs0mg"},{"bike_id":"3ea27e54-f8eb-412e-930d-2d778578f9d0","system_id":"levelo_inurba_marseille","lat":43.24079,"lon":5.37752,"is_reserved":false,"is_disabled":false,"rental_uris":{"android":"levelo://app?vid=3ea27e54-f8eb-412e-930d-2d778578f9d0","ios":"levelo://app?vid=3ea27e54-f8eb-412e-930d-2d778578f9d0"},"vehicle_type_id":"4","last_reported":1744225681,"current_range_meters":4800,"station_id":"ce4bhnp2rcd13ifvqgvg","pricing_plan_id":"cebpf4jnsgd1na2vs0mg"},{"bike_id":"efd1dac0-255d-453e-af20-6e5f1ef5dc25","system_id":"levelo_inurba_marseille","lat":43.28407,"lon":5.3753,"is_reserved":false,"is_disabled":false,"rental_uris":{"android":"levelo://app?vid=efd1dac0-255d-453e-af20-6e5f1ef5dc25","ios":"levelo://app?vid=efd1dac0-255d-453e-af20-6e5f1ef5dc25"},"vehicle_type_id":"4","last_reported":1744225681,"current_range_meters":800,"station_id":"ce4bh412rcd13ifvqds0","pricing_plan_id":"cebpf4jnsgd1na2vs0mg"},{"bike_id":"b35a9ced-fefc-432b-9319-fa64c43c0187","system_id":"levelo_inurba_marseille","lat":43.29301,"lon":5.37173,"is_reserved":false,"is_disabled":false,"rental_uris":{"android":"levelo://app?vid=b35a9ced-fefc-432b-9319-fa64c43c0187","ios":"levelo://app?vid=b35a9ced-fefc-432b-9319-fa64c43c0187"},"vehicle_type_id":"4","last_reported":1744225681,"current_range_meters":4800,"station_id":"ce4bgh92rcd13ifvqb40","pricing_plan_id":"cebpf4jnsgd1na2vs0mg"},{"bike_id":"a84bb7ac-1cd6-4f9d-85ff-a944ac89811a","system_id":"levelo_inurba_marseille","lat":43.28935,"lon":5.38401,"is_reserved":false,"is_disabled":false,"rental_uris":{"android":"levelo://app?vid=a84bb7ac-1cd6-4f9d-85ff-a944ac89811a","ios":"levelo://app?vid=a84bb7ac-1cd6-4f9d-85ff-a944ac89811a"},"vehicle_type_id":"4","last_reported":1744225681,"current_range_meters":4800,"station_id":"ce4bh612rcd13ifvqe6g","pricing_plan_id":"cebpf4jnsgd1na2vs0mg"},{"bike_id":"6090bc0a-6bf5-42df-8ad5-818421a19ba2","system_id":"levelo_inurba_marseille","lat":43.28349,"lon":5.38112,"is_reserved":false,"is_disabled":false,"rental_uris":{"android":"levelo://app?vid=6090bc0a-6bf5-42df-8ad5-818421a19ba2","ios":"levelo://app?vid=6090bc0a-6bf5-42df-8ad5-818421a19ba2"},"vehicle_type_id":"4","last_reported":1744225681,"current_range_meters":5600,"station_id":"ce4bh412rcd13ifvqdr0","pricing_plan_id":"cebpf4jnsgd1na2vs0mg"},{"bike_id":"fdb4c052-f138-4355-8297-fbb28be751b3","system_id":"levelo_inurba_marseille","lat":43.27374,"lon":5.36262,"is_reserved":false,"is_disabled":true,"rental_uris":{"android":"levelo://app?vid=fdb4c052-f138-4355-8297-fbb28be751b3","ios":"levelo://app?vid=fdb4c052-f138-4355-8297-fbb28be751b3"},"vehicle_type_id":"4","last_reported":1744225681,"current_range_meters":5600,"station_id":"ce4bhbh2rcd13ifvqeo0","pricing_plan_id":"cebpf4jnsgd1na2vs0mg"},{"bike_id":"ec41b842-c84f-4ab1-894c-fc6101e00efb","system_id":"levelo_inurba_marseille","lat":43.31709,"lon":5.40305,"is_reserved":false,"is_disabled":false,"rental_uris":{"android":"levelo://app?vid=ec41b842-c84f-4ab1-894c-fc6101e00efb","ios":"levelo://app?vid=ec41b842-c84f-4ab1-894c-fc6101e00efb"},"vehicle_type_id":"4","last_reported":1744225681,"current_range_meters":5600,"station_id":"","pricing_plan_id":"cebpf4jnsgd1na2vs0mg"},{"bike_id":"ab49a13c-2639-4892-9481-e8e655428f28","system_id":"levelo_inurba_marseille","lat":43.29778,"lon":5.3711,"is_reserved":false,"is_disabled":false,"rental_uris":{"android":"levelo://app?vid=ab49a13c-2639-4892-9481-e8e655428f28","ios":"levelo://app?vid=ab49a13c-2639-4892-9481-e8e655428f28"},"vehicle_type_id":"4","last_reported":1744225681,"current_range_meters":5600,"station_id":"ce4bgop2rcd13ifvqc1g","pricing_plan_id":"cebpf4jnsgd1na2vs0mg"},{"bike_id":"25342297-a032-41cd-b93e-bfbfdad394a5","system_id":"levelo_inurba_marseille","lat":43.29029,"lon":5.37566,"is_reserved":false,"is_disabled":false,"rental_uris":{"android":"levelo://app?vid=25342297-a032-41cd-b93e-bfbfdad394a5","ios":"levelo://app?vid=25342297-a032-41cd-b93e-bfbfdad394a5"},"vehicle_type_id":"4","last_reported":1744225681,"current_range_meters":5600,"station_id":"ce4bh692rcd13ifvqe90","pricing_plan_id":"cebpf4jnsgd1na2vs0mg"},{"bike_id":"cf334e37-1932-42c6-b9e9-e5d0e849cd74","system_id":"levelo_inurba_marseille","lat":43.29526,"lon":5.39396,"is_reserved":false,"is_disabled":false,"rental_uris":{"android":"levelo://app?vid=cf334e37-1932-42c6-b9e9-e5d0e849cd74","ios":"levelo://app?vid=cf334e37-1932-42c6-b9e9-e5d0e849cd74"},"vehicle_type_id":"4","last_reported":1744225681,"current_range_meters":6000,"station_id":"ce4bh292rcd13ifvqdf0","pricing_plan_id":"cebpf4jnsgd1na2vs0mg"},{"bike_id":"f38f2c9a-2811-492d-9177-583f4ce25dca","system_id":"levelo_inurba_marseille","lat":43.28607,"lon":5.3511,"is_reserved":false,"is_disabled":false,"rental_uris":{"android":"levelo://app?vid=f38f2c9a-2811-492d-9177-583f4ce25dca","ios":"levelo://app?vid=f38f2c9a-2811-492d-9177-583f4ce25dca"},"vehicle_type_id":"4","last_reported":1744225681,"current_range_meters":6000,"station_id":"ce4bhch2rcd13ifvqeug","pricing_plan_id":"cebpf4jnsgd1na2vs0mg"},{"bike_id":"55eadb60-af42-4096-8fd3-22a3dc2c2a70","system_id":"levelo_inurba_marseille","lat":43.26551,"lon":5.37284,"is_reserved":false,"is_disabled":false,"rental_uris":{"android":"levelo://app?vid=55eadb60-af42-4096-8fd3-22a3dc2c2a70","ios":"levelo://app?vid=55eadb60-af42-4096-8fd3-22a3dc2c2a70"},"vehicle_type_id":"4","last_reported":1744225681,"current_range_meters":6000,"station_id":"ce4bhg12rcd13ifvqf70","pricing_plan_id":"cebpf4jnsgd1na2vs0mg"},{"bike_id":"e1d02663-a0a4-4fee-99e0-dce0d82fbfbf","system_id":"levelo_inurba_marseille","lat":43.3089,"lon":5.37185,"is_reserved":false,"is_disabled":false,"rental_uris":{"android":"levelo://app?vid=e1d02663-a0a4-4fee-99e0-dce0d82fbfbf","ios":"levelo://app?vid=e1d02663-a0a4-4fee-99e0-dce0d82fbfbf"},"vehicle_type_id":"4","last_reported":1744225681,"current_range_meters":6000,"station_id":"ce4bguh2rcd13ifvqckg","pricing_plan_id":"cebpf4jnsgd1na2vs0mg"},{"bike_id":"a60cbd8f-254a-44f4-bb78-b7e215e0cd25","system_id":"levelo_inurba_marseille","lat":43.2988,"lon":5.38905,"is_reserved":false,"is_disabled":false,"rental_uris":{"android":"levelo://app?vid=a60cbd8f-254a-44f4-bb78-b7e215e0cd25","ios":"levelo://app?vid=a60cbd8f-254a-44f4-bb78-b7e215e0cd25"},"vehicle_type_id":"4","last_reported":1744225681,"current_range_meters":6000,"station_id":"ce4bh392rcd13ifvqdl0","pricing_plan_id":"cebpf4jnsgd1na2vs0mg"},{"bike_id":"2ea0e531-d908-4aba-86b9-16b6889b5ad9","system_id":"levelo_inurba_marseille","lat":43.28373,"lon":5.38639,"is_reserved":false,"is_disabled":false,"rental_uris":{"android":"levelo://app?vid=2ea0e531-d908-4aba-86b9-16b6889b5ad9","ios":"levelo://app?vid=2ea0e531-d908-4aba-86b9-16b6889b5ad9"},"vehicle_type_id":"4","last_reported":1744225681,"current_range_meters":6000,"station_id":"ce4bh492rcd13ifvqdvg","pricing_plan_id":"cebpf4jnsgd1na2vs0mg"},{"bike_id":"79b4a3fe-83b6-4a7e-b62d-fbe80c1f5666","system_id":"levelo_inurba_marseille","lat":43.21754,"lon":5.34606,"is_reserved":false,"is_disabled":false,"rental_uris":{"android":"levelo://app?vid=79b4a3fe-83b6-4a7e-b62d-fbe80c1f5666","ios":"levelo://app?vid=79b4a3fe-83b6-4a7e-b62d-fbe80c1f5666"},"vehicle_type_id":"4","last_reported":1744225681,"current_range_meters":6400,"station_id":"st_cvj6r9ubvosntc0bgbag","pricing_plan_id":"cebpf4jnsgd1na2vs0mg"},{"bike_id":"3bfd792d-8024-4b3d-8c0a-4428de874fa2","system_id":"levelo_inurba_marseille","lat":43.32042,"lon":5.38592,"is_reserved":false,"is_disabled":false,"rental_uris":{"android":"levelo://app?vid=3bfd792d-8024-4b3d-8c0a-4428de874fa2","ios":"levelo://app?vid=3bfd792d-8024-4b3d-8c0a-4428de874fa2"},"vehicle_type_id":"4","last_reported":1744225681,"current_range_meters":6400,"station_id":"","pricing_plan_id":"cebpf4jnsgd1na2vs0mg"},{"bike_id":"68848945-f620-41ff-9818-a36c2baff89a","system_id":"levelo_inurba_marseille","lat":43.30319,"lon":5.4043,"is_reserved":false,"is_disabled":false,"rental_uris":{"android":"levelo://app?vid=68848945-f620-41ff-9818-a36c2baff89a","ios":"levelo://app?vid=68848945-f620-41ff-9818-a36c2baff89a"},"vehicle_type_id":"4","last_reported":1744225681,"current_range_meters":6400,"station_id":"ce4bh012rcd13ifvqd10","pricing_plan_id":"cebpf4jnsgd1na2vs0mg"},{"bike_id":"6569a176-a49c-464b-9416-ff731ba8b325","system_id":"levelo_inurba_marseille","lat":43.31121,"lon":5.37765,"is_reserved":false,"is_disabled":true,"rental_uris":{"android":"levelo://app?vid=6569a176-a49c-464b-9416-ff731ba8b325","ios":"levelo://app?vid=6569a176-a49c-464b-9416-ff731ba8b325"},"vehicle_type_id":"4","last_reported":1744225681,"current_range_meters":6400,"station_id":"ce4bgt92rcd13ifvqcg0","pricing_plan_id":"cebpf4jnsgd1na2vs0mg"},{"bike_id":"30d1b9f2-05f3-47dd-8bfb-29a1d4c148de","system_id":"levelo_inurba_marseille","lat":43.28614,"lon":5.35083,"is_reserved":false,"is_disabled":false,"rental_uris":{"android":"levelo://app?vid=30d1b9f2-05f3-47dd-8bfb-29a1d4c148de","ios":"levelo://app?vid=30d1b9f2-05f3-47dd-8bfb-29a1d4c148de"},"vehicle_type_id":"4","last_reported":1744225681,"current_range_meters":6400,"station_id":"ce4bhch2rcd13ifvqeug","pricing_plan_id":"cebpf4jnsgd1na2vs0mg"},{"bike_id":"9dad613b-fd85-481c-8b7c-456e1be1d564","system_id":"levelo_inurba_marseille","lat":43.26194,"lon":5.37925,"is_reserved":false,"is_disabled":false,"rental_uris":{"android":"levelo://app?vid=9dad613b-fd85-481c-8b7c-456e1be1d564","ios":"levelo://app?vid=9dad613b-fd85-481c-8b7c-456e1be1d564"},"vehicle_type_id":"4","last_reported":1744225681,"current_range_meters":6400,"station_id":"ce4bhjp2rcd13ifvqg90","pricing_plan_id":"cebpf4jnsgd1na2vs0mg"},{"bike_id":"86b48419-f6e0-4c45-877f-37618aea9ed2","system_id":"levelo_inurba_marseille","lat":43.2845,"lon":5.35892,"is_reserved":false,"is_disabled":false,"rental_uris":{"android":"levelo://app?vid=86b48419-f6e0-4c45-877f-37618aea9ed2","ios":"levelo://app?vid=86b48419-f6e0-4c45-877f-37618aea9ed2"},"vehicle_type_id":"4","last_reported":1744225681,"current_range_meters":6400,"station_id":"ce4bhah2rcd13ifvqei0","pricing_plan_id":"cebpf4jnsgd1na2vs0mg"},{"bike_id":"3d0cae43-5b75-4aac-b7cb-471ce1151dd5","system_id":"levelo_inurba_marseille","lat":43.3303,"lon":5.39389,"is_reserved":false,"is_disabled":true,"rental_uris":{"android":"levelo://app?vid=3d0cae43-5b75-4aac-b7cb-471ce1151dd5","ios":"levelo://app?vid=3d0cae43-5b75-4aac-b7cb-471ce1151dd5"},"vehicle_type_id":"4","last_reported":1744225681,"current_range_meters":6400,"station_id":"","pricing_plan_id":"cebpf4jnsgd1na2vs0mg"},{"bike_id":"51689922-834e-44a8-ac11-5c7daafadf08","system_id":"levelo_inurba_marseille","lat":43.30888,"lon":5.39657,"is_reserved":false,"is_disabled":false,"rental_uris":{"android":"levelo://app?vid=51689922-834e-44a8-ac11-5c7daafadf08","ios":"levelo://app?vid=51689922-834e-44a8-ac11-5c7daafadf08"},"vehicle_type_id":"4","last_reported":1744225681,"current_range_meters":6400,"station_id":"ce4bh012rcd13ifvqcv0","pricing_plan_id":"cebpf4jnsgd1na2vs0mg"},{"bike_id":"6806d000-65f7-4912-97c7-24bf8c24ae8f","system_id":"levelo_inurba_marseille","lat":43.31137,"lon":5.38434,"is_reserved":false,"is_disabled":false,"rental_uris":{"android":"levelo://app?vid=6806d000-65f7-4912-97c7-24bf8c24ae8f","ios":"levelo://app?vid=6806d000-65f7-4912-97c7-24bf8c24ae8f"},"vehicle_type_id":"4","last_reported":1744225681,"current_range_meters":6400,"station_id":"","pricing_plan_id":"cebpf4jnsgd1na2vs0mg"},{"bike_id":"90da7274-1034-4c5c-ae93-3d26370d7917","system_id":"levelo_inurba_marseille","lat":43.25496,"lon":5.37649,"is_reserved":false,"is_disabled":false,"rental_uris":{"android":"levelo://app?vid=90da7274-1034-4c5c-ae93-3d26370d7917","ios":"levelo://app?vid=90da7274-1034-4c5c-ae93-3d26370d7917"},"vehicle_type_id":"4","last_reported":1744225681,"current_range_meters":6400,"station_id":"ce4bhh12rcd13ifvqff0","pricing_plan_id":"cebpf4jnsgd1na2vs0mg"},{"bike_id":"4dd1a26e-f6af-4da8-bd6e-ba27a6ee0abd","system_id":"levelo_inurba_marseille","lat":43.30782,"lon":5.37637,"is_reserved":false,"is_disabled":false,"rental_uris":{"android":"levelo://app?vid=4dd1a26e-f6af-4da8-bd6e-ba27a6ee0abd","ios":"levelo://app?vid=4dd1a26e-f6af-4da8-bd6e-ba27a6ee0abd"},"vehicle_type_id":"4","last_reported":1744225681,"current_range_meters":6800,"station_id":"ce4bgv92rcd13ifvqcq0","pricing_plan_id":"cebpf4jnsgd1na2vs0mg"},{"bike_id":"4c9a98ed-3aa6-4243-9d17-bc770ac8619a","system_id":"levelo_inurba_marseille","lat":43.28149,"lon":5.42648,"is_reserved":false,"is_disabled":false,"rental_uris":{"android":"levelo://app?vid=4c9a98ed-3aa6-4243-9d17-bc770ac8619a","ios":"levelo://app?vid=4c9a98ed-3aa6-4243-9d17-bc770ac8619a"},"vehicle_type_id":"4","last_reported":1744225681,"current_range_meters":6800,"station_id":"ce4bhnh2rcd13ifvqgug","pricing_plan_id":"cebpf4jnsgd1na2vs0mg"},{"bike_id":"38f5d2c2-fad4-4662-8b58-8e4cf703d195","system_id":"levelo_inurba_marseille","lat":43.30127,"lon":5.39869,"is_reserved":false,"is_disabled":false,"rental_uris":{"android":"levelo://app?vid=38f5d2c2-fad4-4662-8b58-8e4cf703d195","ios":"levelo://app?vid=38f5d2c2-fad4-4662-8b58-8e4cf703d195"},"vehicle_type_id":"4","last_reported":1744225681,"current_range_meters":6800,"station_id":"ce4bh0h2rcd13ifvqd40","pricing_plan_id":"cebpf4jnsgd1na2vs0mg"},{"bike_id":"03926bc9-f9d8-4451-80fc-eb49eedc74e1","system_id":"levelo_inurba_marseille","lat":43.27813,"lon":5.40724,"is_reserved":false,"is_disabled":false,"rental_uris":{"android":"levelo://app?vid=03926bc9-f9d8-4451-80fc-eb49eedc74e1","ios":"levelo://app?vid=03926bc9-f9d8-4451-80fc-eb49eedc74e1"},"vehicle_type_id":"4","last_reported":1744225681,"current_range_meters":6800,"station_id":"ce4bhnh2rcd13ifvqgtg","pricing_plan_id":"cebpf4jnsgd1na2vs0mg"},{"bike_id":"76eea79a-68c2-4f82-9d55-cc5acb6d8619","system_id":"levelo_inurba_marseille","lat":43.29977,"lon":5.37176,"is_reserved":false,"is_disabled":false,"rental_uris":{"android":"levelo://app?vid=76eea79a-68c2-4f82-9d55-cc5acb6d8619","ios":"levelo://app?vid=76eea79a-68c2-4f82-9d55-cc5acb6d8619"},"vehicle_type_id":"4","last_reported":1744225681,"current_range_meters":6800,"station_id":"ce4bgr92rcd13ifvqc7g","pricing_plan_id":"cebpf4jnsgd1na2vs0mg"},{"bike_id":"475bdb20-9e68-4012-8629-4f0cbb383336","system_id":"levelo_inurba_marseille","lat":43.28069,"lon":5.39649,"is_reserved":false,"is_disabled":false,"rental_uris":{"android":"levelo://app?vid=475bdb20-9e68-4012-8629-4f0cbb383336","ios":"levelo://app?vid=475bdb20-9e68-4012-8629-4f0cbb383336"},"vehicle_type_id":"4","last_reported":1744225681,"current_range_meters":6800,"station_id":"ce4bho12rcd13ifvqh2g","pricing_plan_id":"cebpf4jnsgd1na2vs0mg"},{"bike_id":"68d1cc33-0218-451e-8e10-d32225c21263","system_id":"levelo_inurba_marseille","lat":43.23164,"lon":5.43708,"is_reserved":false,"is_disabled":true,"rental_uris":{"android":"levelo://app?vid=68d1cc33-0218-451e-8e10-d32225c21263","ios":"levelo://app?vid=68d1cc33-0218-451e-8e10-d32225c21263"},"vehicle_type_id":"4","last_reported":1744225681,"current_range_meters":6800,"station_id":"ce4bhmp2rcd13ifvqgog","pricing_plan_id":"cebpf4jnsgd1na2vs0mg"},{"bike_id":"5e6ad826-38da-4531-b4ba-2eda8622ede3","system_id":"levelo_inurba_marseille","lat":43.31095,"lon":5.40476,"is_reserved":false,"is_disabled":false,"rental_uris":{"android":"levelo://app?vid=5e6ad826-38da-4531-b4ba-2eda8622ede3","ios":"levelo://app?vid=5e6ad826-38da-4531-b4ba-2eda8622ede3"},"vehicle_type_id":"4","last_reported":1744225681,"current_range_meters":6800,"station_id":"","pricing_plan_id":"cebpf4jnsgd1na2vs0mg"},{"bike_id":"25091db6-7cbc-4d6a-a8ad-6d6900c5c5e6","system_id":"levelo_inurba_marseille","lat":43.281655,"lon":5.426635,"is_reserved":false,"is_disabled":false,"rental_uris":{"android":"levelo://app?vid=25091db6-7cbc-4d6a-a8ad-6d6900c5c5e6","ios":"levelo://app?vid=25091db6-7cbc-4d6a-a8ad-6d6900c5c5e6"},"vehicle_type_id":"4","last_reported":1744225681,"current_range_meters":6800,"station_id":"ce4bhnh2rcd13ifvqgug","pricing_plan_id":"cebpf4jnsgd1na2vs0mg"},{"bike_id":"faf66d9e-b4ec-47e4-a274-f8b212226216","system_id":"levelo_inurba_marseille","lat":43.2895,"lon":5.38396,"is_reserved":false,"is_disabled":false,"rental_uris":{"android":"levelo://app?vid=faf66d9e-b4ec-47e4-a274-f8b212226216","ios":"levelo://app?vid=faf66d9e-b4ec-47e4-a274-f8b212226216"},"vehicle_type_id":"4","last_reported":1744225681,"current_range_meters":13600,"station_id":"ce4bh612rcd13ifvqe6g","pricing_plan_id":"cebpf4jnsgd1na2vs0mg"},{"bike_id":"e3076b25-b8ed-42a9-b42c-bdd1186d647f","system_id":"levelo_inurba_marseille","lat":43.28934,"lon":5.36637,"is_reserved":false,"is_disabled":false,"rental_uris":{"android":"levelo://app?vid=e3076b25-b8ed-42a9-b42c-bdd1186d647f","ios":"levelo://app?vid=e3076b25-b8ed-42a9-b42c-bdd1186d647f"},"vehicle_type_id":"4","last_reported":1744225681,"current_range_meters":7200,"station_id":"ce4bhap2rcd13ifvqek0","pricing_plan_id":"cebpf4jnsgd1na2vs0mg"},{"bike_id":"38141ddd-988d-42e4-a68c-d045870a91c9","system_id":"levelo_inurba_marseille","lat":43.26031,"lon":5.37569,"is_reserved":false,"is_disabled":false,"rental_uris":{"android":"levelo://app?vid=38141ddd-988d-42e4-a68c-d045870a91c9","ios":"levelo://app?vid=38141ddd-988d-42e4-a68c-d045870a91c9"},"vehicle_type_id":"4","last_reported":1744225681,"current_range_meters":7200,"station_id":"ce4bhgh2rcd13ifvqfa0","pricing_plan_id":"cebpf4jnsgd1na2vs0mg"},{"bike_id":"c40a2e2c-2a66-4aa2-81cf-c4ae98211b54","system_id":"levelo_inurba_marseille","lat":43.21766,"lon":5.34606,"is_reserved":false,"is_disabled":false,"rental_uris":{"android":"levelo://app?vid=c40a2e2c-2a66-4aa2-81cf-c4ae98211b54","ios":"levelo://app?vid=c40a2e2c-2a66-4aa2-81cf-c4ae98211b54"},"vehicle_type_id":"4","last_reported":1744225681,"current_range_meters":7200,"station_id":"st_cvj6r9ubvosntc0bgbag","pricing_plan_id":"cebpf4jnsgd1na2vs0mg"},{"bike_id":"806aabc5-a68c-49c9-9a9a-b9e74a1e0ea6","system_id":"levelo_inurba_marseille","lat":43.24815,"lon":5.37468,"is_reserved":false,"is_disabled":false,"rental_uris":{"android":"levelo://app?vid=806aabc5-a68c-49c9-9a9a-b9e74a1e0ea6","ios":"levelo://app?vid=806aabc5-a68c-49c9-9a9a-b9e74a1e0ea6"},"vehicle_type_id":"4","last_reported":1744225681,"current_range_meters":7200,"station_id":"ce4bhgh2rcd13ifvqfb0","pricing_plan_id":"cebpf4jnsgd1na2vs0mg"},{"bike_id":"e30b2d67-c5f1-4aba-846c-630f5f152ac4","system_id":"levelo_inurba_marseille","lat":43.29717,"lon":5.36629,"is_reserved":false,"is_disabled":false,"rental_uris":{"android":"levelo://app?vid=e30b2d67-c5f1-4aba-846c-630f5f152ac4","ios":"levelo://app?vid=e30b2d67-c5f1-4aba-846c-630f5f152ac4"},"vehicle_type_id":"4","last_reported":1744225681,"current_range_meters":7200,"station_id":"ce4bgn12rcd13ifvqbt0","pricing_plan_id":"cebpf4jnsgd1na2vs0mg"},{"bike_id":"3d330149-9dd5-4c2d-a3e0-5bb066b82a7e","system_id":"levelo_inurba_marseille","lat":43.30735,"lon":5.42441,"is_reserved":false,"is_disabled":false,"rental_uris":{"android":"levelo://app?vid=3d330149-9dd5-4c2d-a3e0-5bb066b82a7e","ios":"levelo://app?vid=3d330149-9dd5-4c2d-a3e0-5bb066b82a7e"},"vehicle_type_id":"4","last_reported":1744225681,"current_range_meters":7200,"station_id":"st_cvj6ca6bvosntc0bfgr0","pricing_plan_id":"cebpf4jnsgd1na2vs0mg"},{"bike_id":"c741c748-b6ec-4bc6-930e-87d4a5e40466","system_id":"levelo_inurba_marseille","lat":43.29704,"lon":5.366,"is_reserved":false,"is_disabled":false,"rental_uris":{"android":"levelo://app?vid=c741c748-b6ec-4bc6-930e-87d4a5e40466","ios":"levelo://app?vid=c741c748-b6ec-4bc6-930e-87d4a5e40466"},"vehicle_type_id":"4","last_reported":1744225681,"current_range_meters":8000,"station_id":"ce4bgn12rcd13ifvqbt0","pricing_plan_id":"cebpf4jnsgd1na2vs0mg"},{"bike_id":"934fd9c2-70bb-4928-849a-1720bc17c1ca","system_id":"levelo_inurba_marseille","lat":43.313523,"lon":5.384936,"is_reserved":false,"is_disabled":false,"rental_uris":{"android":"levelo://app?vid=934fd9c2-70bb-4928-849a-1720bc17c1ca","ios":"levelo://app?vid=934fd9c2-70bb-4928-849a-1720bc17c1ca"},"vehicle_type_id":"4","last_reported":1744225681,"current_range_meters":8400,"station_id":"ce4bgt92rcd13ifvqcf0","pricing_plan_id":"cebpf4jnsgd1na2vs0mg"},{"bike_id":"80663e12-6b64-446d-88c9-20255bde1a8a","system_id":"levelo_inurba_marseille","lat":43.30876,"lon":5.39653,"is_reserved":false,"is_disabled":true,"rental_uris":{"android":"levelo://app?vid=80663e12-6b64-446d-88c9-20255bde1a8a","ios":"levelo://app?vid=80663e12-6b64-446d-88c9-20255bde1a8a"},"vehicle_type_id":"4","last_reported":1744225681,"current_range_meters":8000,"station_id":"ce4bh012rcd13ifvqcv0","pricing_plan_id":"cebpf4jnsgd1na2vs0mg"},{"bike_id":"96d5e638-d982-4bb6-94cf-494b81a1fa2a","system_id":"levelo_inurba_marseille","lat":43.26804,"lon":5.40259,"is_reserved":false,"is_disabled":false,"rental_uris":{"android":"levelo://app?vid=96d5e638-d982-4bb6-94cf-494b81a1fa2a","ios":"levelo://app?vid=96d5e638-d982-4bb6-94cf-494b81a1fa2a"},"vehicle_type_id":"4","last_reported":1744225681,"current_range_meters":8000,"station_id":"ce501612rcd8frsf0b60","pricing_plan_id":"cebpf4jnsgd1na2vs0mg"},{"bike_id":"951a075f-4063-499f-95ef-2ec50db6526c","system_id":"levelo_inurba_marseille","lat":43.22931,"lon":5.35381,"is_reserved":false,"is_disabled":false,"rental_uris":{"android":"levelo://app?vid=951a075f-4063-499f-95ef-2ec50db6526c","ios":"levelo://app?vid=951a075f-4063-499f-95ef-2ec50db6526c"},"vehicle_type_id":"4","last_reported":1744225681,"current_range_meters":8000,"station_id":"cpo3532slgdg3j2ikp40","pricing_plan_id":"cebpf4jnsgd1na2vs0mg"},{"bike_id":"feca3d9e-12e9-4a3a-8f8a-211aa953b3fa","system_id":"levelo_inurba_marseille","lat":43.29321,"lon":5.41165,"is_reserved":false,"is_disabled":false,"rental_uris":{"android":"levelo://app?vid=feca3d9e-12e9-4a3a-8f8a-211aa953b3fa","ios":"levelo://app?vid=feca3d9e-12e9-4a3a-8f8a-211aa953b3fa"},"vehicle_type_id":"4","last_reported":1744225681,"current_range_meters":8000,"station_id":"","pricing_plan_id":"cebpf4jnsgd1na2vs0mg"},{"bike_id":"b6643798-317d-4551-971b-fc594bf74850","system_id":"levelo_inurba_marseille","lat":43.29025,"lon":5.38636,"is_reserved":false,"is_disabled":false,"rental_uris":{"android":"levelo://app?vid=b6643798-317d-4551-971b-fc594bf74850","ios":"levelo://app?vid=b6643798-317d-4551-971b-fc594bf74850"},"vehicle_type_id":"4","last_reported":1744225681,"current_range_meters":8000,"station_id":"ce4bh4p2rcd13ifvqe0g","pricing_plan_id":"cebpf4jnsgd1na2vs0mg"},{"bike_id":"0f83edd4-4bd7-4463-a730-ed9e2bbb730f","system_id":"levelo_inurba_marseille","lat":43.29314,"lon":5.37178,"is_reserved":false,"is_disabled":false,"rental_uris":{"android":"levelo://app?vid=0f83edd4-4bd7-4463-a730-ed9e2bbb730f","ios":"levelo://app?vid=0f83edd4-4bd7-4463-a730-ed9e2bbb730f"},"vehicle_type_id":"4","last_reported":1744225681,"current_range_meters":8000,"station_id":"ce4bgh92rcd13ifvqb40","pricing_plan_id":"cebpf4jnsgd1na2vs0mg"},{"bike_id":"2a99769b-48ed-4949-a825-c1344e83de30","system_id":"levelo_inurba_marseille","lat":43.2743,"lon":5.39404,"is_reserved":false,"is_disabled":false,"rental_uris":{"android":"levelo://app?vid=2a99769b-48ed-4949-a825-c1344e83de30","ios":"levelo://app?vid=2a99769b-48ed-4949-a825-c1344e83de30"},"vehicle_type_id":"4","last_reported":1744225681,"current_range_meters":8000,"station_id":"ce4bhdp2rcd13ifvqf20","pricing_plan_id":"cebpf4jnsgd1na2vs0mg"},{"bike_id":"e8d39bce-0a7d-436e-ae5f-0ec737a8ab7d","system_id":"levelo_inurba_marseille","lat":43.24806,"lon":5.37459,"is_reserved":false,"is_disabled":false,"rental_uris":{"android":"levelo://app?vid=e8d39bce-0a7d-436e-ae5f-0ec737a8ab7d","ios":"levelo://app?vid=e8d39bce-0a7d-436e-ae5f-0ec737a8ab7d"},"vehicle_type_id":"4","last_reported":1744225681,"current_range_meters":8800,"station_id":"ce4bhgh2rcd13ifvqfb0","pricing_plan_id":"cebpf4jnsgd1na2vs0mg"},{"bike_id":"1adcfecd-7da9-485c-b40f-e62ffc130e51","system_id":"levelo_inurba_marseille","lat":43.21758,"lon":5.34595,"is_reserved":false,"is_disabled":false,"rental_uris":{"android":"levelo://app?vid=1adcfecd-7da9-485c-b40f-e62ffc130e51","ios":"levelo://app?vid=1adcfecd-7da9-485c-b40f-e62ffc130e51"},"vehicle_type_id":"4","last_reported":1744225681,"current_range_meters":8400,"station_id":"st_cvj6r9ubvosntc0bgbag","pricing_plan_id":"cebpf4jnsgd1na2vs0mg"},{"bike_id":"7c41bab6-0404-4314-b218-f822072c5aba","system_id":"levelo_inurba_marseille","lat":43.24092,"lon":5.37747,"is_reserved":false,"is_disabled":false,"rental_uris":{"android":"levelo://app?vid=7c41bab6-0404-4314-b218-f822072c5aba","ios":"levelo://app?vid=7c41bab6-0404-4314-b218-f822072c5aba"},"vehicle_type_id":"4","last_reported":1744225681,"current_range_meters":8400,"station_id":"ce4bhnp2rcd13ifvqgvg","pricing_plan_id":"cebpf4jnsgd1na2vs0mg"},{"bike_id":"a22562d5-ac8f-413f-92e5-729988c1ac7d","system_id":"levelo_inurba_marseille","lat":43.279418,"lon":5.410558,"is_reserved":false,"is_disabled":false,"rental_uris":{"android":"levelo://app?vid=a22562d5-ac8f-413f-92e5-729988c1ac7d","ios":"levelo://app?vid=a22562d5-ac8f-413f-92e5-729988c1ac7d"},"vehicle_type_id":"4","last_reported":1744225681,"current_range_meters":8400,"station_id":"ce4bgrp2rcd13ifvqc9g","pricing_plan_id":"cebpf4jnsgd1na2vs0mg"},{"bike_id":"b64d45c4-b5b7-477d-b4f7-9430e1ebdabf","system_id":"levelo_inurba_marseille","lat":43.29571,"lon":5.39982,"is_reserved":false,"is_disabled":false,"rental_uris":{"android":"levelo://app?vid=b64d45c4-b5b7-477d-b4f7-9430e1ebdabf","ios":"levelo://app?vid=b64d45c4-b5b7-477d-b4f7-9430e1ebdabf"},"vehicle_type_id":"4","last_reported":1744225681,"current_range_meters":8400,"station_id":"ce4bh312rcd13ifvqdj0","pricing_plan_id":"cebpf4jnsgd1na2vs0mg"},{"bike_id":"76391588-c7b1-4986-925f-8fe7d3917fb9","system_id":"levelo_inurba_marseille","lat":43.29966,"lon":5.38499,"is_reserved":false,"is_disabled":false,"rental_uris":{"android":"levelo://app?vid=76391588-c7b1-4986-925f-8fe7d3917fb9","ios":"levelo://app?vid=76391588-c7b1-4986-925f-8fe7d3917fb9"},"vehicle_type_id":"4","last_reported":1744225681,"current_range_meters":8400,"station_id":"ce4bgj92rcd13ifvqbd0","pricing_plan_id":"cebpf4jnsgd1na2vs0mg"},{"bike_id":"117be171-4e56-41e4-86e6-8fbe4c010556","system_id":"levelo_inurba_marseille","lat":43.27924,"lon":5.39566,"is_reserved":false,"is_disabled":false,"rental_uris":{"android":"levelo://app?vid=117be171-4e56-41e4-86e6-8fbe4c010556","ios":"levelo://app?vid=117be171-4e56-41e4-86e6-8fbe4c010556"},"vehicle_type_id":"4","last_reported":1744225681,"current_range_meters":8400,"station_id":"ce4bhf92rcd13ifvqf40","pricing_plan_id":"cebpf4jnsgd1na2vs0mg"},{"bike_id":"08f9c0c8-8b33-4578-8a03-20f44d582241","system_id":"levelo_inurba_marseille","lat":43.30563,"lon":5.37013,"is_reserved":false,"is_disabled":false,"rental_uris":{"android":"levelo://app?vid=08f9c0c8-8b33-4578-8a03-20f44d582241","ios":"levelo://app?vid=08f9c0c8-8b33-4578-8a03-20f44d582241"},"vehicle_type_id":"4","last_reported":1744225681,"current_range_meters":8400,"station_id":"","pricing_plan_id":"cebpf4jnsgd1na2vs0mg"},{"bike_id":"fc973399-e131-445b-9648-7b0ac8e69419","system_id":"levelo_inurba_marseille","lat":43.26552,"lon":5.37284,"is_reserved":false,"is_disabled":false,"rental_uris":{"android":"levelo://app?vid=fc973399-e131-445b-9648-7b0ac8e69419","ios":"levelo://app?vid=fc973399-e131-445b-9648-7b0ac8e69419"},"vehicle_type_id":"4","last_reported":1744225681,"current_range_meters":8400,"station_id":"ce4bhg12rcd13ifvqf70","pricing_plan_id":"cebpf4jnsgd1na2vs0mg"},{"bike_id":"b397701f-0d3d-44bf-ab3e-3ccc7e74fb2e","system_id":"levelo_inurba_marseille","lat":43.26486,"lon":5.42238,"is_reserved":false,"is_disabled":false,"rental_uris":{"android":"levelo://app?vid=b397701f-0d3d-44bf-ab3e-3ccc7e74fb2e","ios":"levelo://app?vid=b397701f-0d3d-44bf-ab3e-3ccc7e74fb2e"},"vehicle_type_id":"4","last_reported":1744225681,"current_range_meters":8400,"station_id":"","pricing_plan_id":"cebpf4jnsgd1na2vs0mg"},{"bike_id":"523f199e-c50d-4cd7-8cb0-ecd6da8f7fb1","system_id":"levelo_inurba_marseille","lat":43.31727,"lon":5.42398,"is_reserved":false,"is_disabled":false,"rental_uris":{"android":"levelo://app?vid=523f199e-c50d-4cd7-8cb0-ecd6da8f7fb1","ios":"levelo://app?vid=523f199e-c50d-4cd7-8cb0-ecd6da8f7fb1"},"vehicle_type_id":"4","last_reported":1744225681,"current_range_meters":8800,"station_id":"ce4bhp92rcd13ifvqhbg","pricing_plan_id":"cebpf4jnsgd1na2vs0mg"},{"bike_id":"28b901ca-f450-46be-98f2-eb62b58396b1","system_id":"levelo_inurba_marseille","lat":43.30589,"lon":5.39362,"is_reserved":false,"is_disabled":false,"rental_uris":{"android":"levelo://app?vid=28b901ca-f450-46be-98f2-eb62b58396b1","ios":"levelo://app?vid=28b901ca-f450-46be-98f2-eb62b58396b1"},"vehicle_type_id":"4","last_reported":1744225681,"current_range_meters":8800,"station_id":"ce4bh0p2rcd13ifvqd80","pricing_plan_id":"cebpf4jnsgd1na2vs0mg"},{"bike_id":"dcbce7b1-b47f-4126-a4bb-1365bf569ac6","system_id":"levelo_inurba_marseille","lat":43.28931,"lon":5.36627,"is_reserved":false,"is_disabled":false,"rental_uris":{"android":"levelo://app?vid=dcbce7b1-b47f-4126-a4bb-1365bf569ac6","ios":"levelo://app?vid=dcbce7b1-b47f-4126-a4bb-1365bf569ac6"},"vehicle_type_id":"4","last_reported":1744225681,"current_range_meters":8800,"station_id":"ce4bhap2rcd13ifvqek0","pricing_plan_id":"cebpf4jnsgd1na2vs0mg"},{"bike_id":"4ce1f9c6-ca43-45f6-bad7-55d7134cb815","system_id":"levelo_inurba_marseille","lat":43.28273,"lon":5.35087,"is_reserved":false,"is_disabled":false,"rental_uris":{"android":"levelo://app?vid=4ce1f9c6-ca43-45f6-bad7-55d7134cb815","ios":"levelo://app?vid=4ce1f9c6-ca43-45f6-bad7-55d7134cb815"},"vehicle_type_id":"4","last_reported":1744225681,"current_range_meters":8800,"station_id":"ce4bhbp2rcd13ifvqerg","pricing_plan_id":"cebpf4jnsgd1na2vs0mg"},{"bike_id":"b83f5d56-be0a-4603-8ebb-6e6897497140","system_id":"levelo_inurba_marseille","lat":43.248,"lon":5.37453,"is_reserved":false,"is_disabled":false,"rental_uris":{"android":"levelo://app?vid=b83f5d56-be0a-4603-8ebb-6e6897497140","ios":"levelo://app?vid=b83f5d56-be0a-4603-8ebb-6e6897497140"},"vehicle_type_id":"4","last_reported":1744225681,"current_range_meters":8800,"station_id":"ce4bhgh2rcd13ifvqfb0","pricing_plan_id":"cebpf4jnsgd1na2vs0mg"},{"bike_id":"5a514589-cb88-4d0d-a176-9dcbce6008d2","system_id":"levelo_inurba_marseille","lat":43.24805,"lon":5.37456,"is_reserved":false,"is_disabled":false,"rental_uris":{"android":"levelo://app?vid=5a514589-cb88-4d0d-a176-9dcbce6008d2","ios":"levelo://app?vid=5a514589-cb88-4d0d-a176-9dcbce6008d2"},"vehicle_type_id":"4","last_reported":1744225681,"current_range_meters":8800,"station_id":"ce4bhgh2rcd13ifvqfb0","pricing_plan_id":"cebpf4jnsgd1na2vs0mg"},{"bike_id":"4bb343b3-262b-478d-87c4-0fdd5adbcab5","system_id":"levelo_inurba_marseille","lat":43.2857,"lon":5.39499,"is_reserved":false,"is_disabled":false,"rental_uris":{"android":"levelo://app?vid=4bb343b3-262b-478d-87c4-0fdd5adbcab5","ios":"levelo://app?vid=4bb343b3-262b-478d-87c4-0fdd5adbcab5"},"vehicle_type_id":"4","last_reported":1744225681,"current_range_meters":8800,"station_id":"ce4bh292rcd13ifvqdg0","pricing_plan_id":"cebpf4jnsgd1na2vs0mg"},{"bike_id":"841cc48f-644f-4c42-a397-236e943da4b4","system_id":"levelo_inurba_marseille","lat":43.270748,"lon":5.422798,"is_reserved":false,"is_disabled":false,"rental_uris":{"android":"levelo://app?vid=841cc48f-644f-4c42-a397-236e943da4b4","ios":"levelo://app?vid=841cc48f-644f-4c42-a397-236e943da4b4"},"vehicle_type_id":"4","last_reported":1744225681,"current_range_meters":8800,"station_id":"ce4bhk92rcd13ifvqgb0","pricing_plan_id":"cebpf4jnsgd1na2vs0mg"},{"bike_id":"8bc63561-3ade-4bdb-b1ea-5dd0c7860be1","system_id":"levelo_inurba_marseille","lat":43.302103,"lon":5.394693,"is_reserved":false,"is_disabled":false,"rental_uris":{"android":"levelo://app?vid=8bc63561-3ade-4bdb-b1ea-5dd0c7860be1","ios":"levelo://app?vid=8bc63561-3ade-4bdb-b1ea-5dd0c7860be1"},"vehicle_type_id":"4","last_reported":1744225681,"current_range_meters":8000,"station_id":"ce4bgi92rcd13ifvqb90","pricing_plan_id":"cebpf4jnsgd1na2vs0mg"},{"bike_id":"b33ba6a8-2d45-4a12-8829-1acebce21922","system_id":"levelo_inurba_marseille","lat":43.27314,"lon":5.39074,"is_reserved":false,"is_disabled":true,"rental_uris":{"android":"levelo://app?vid=b33ba6a8-2d45-4a12-8829-1acebce21922","ios":"levelo://app?vid=b33ba6a8-2d45-4a12-8829-1acebce21922"},"vehicle_type_id":"4","last_reported":1744225681,"current_range_meters":8800,"station_id":"ce4bhgp2rcd13ifvqfe0","pricing_plan_id":"cebpf4jnsgd1na2vs0mg"},{"bike_id":"794f8372-c137-464b-a859-e933ddc5f5b4","system_id":"levelo_inurba_marseille","lat":43.27939,"lon":5.41058,"is_reserved":false,"is_disabled":false,"rental_uris":{"android":"levelo://app?vid=794f8372-c137-464b-a859-e933ddc5f5b4","ios":"levelo://app?vid=794f8372-c137-464b-a859-e933ddc5f5b4"},"vehicle_type_id":"4","last_reported":1744225681,"current_range_meters":8800,"station_id":"ce4bhnp2rcd13ifvqh0g","pricing_plan_id":"cebpf4jnsgd1na2vs0mg"},{"bike_id":"e55e878d-dadc-4d10-88c8-89ba95dfdd5a","system_id":"levelo_inurba_marseille","lat":43.30203,"lon":5.39465,"is_reserved":false,"is_disabled":false,"rental_uris":{"android":"levelo://app?vid=e55e878d-dadc-4d10-88c8-89ba95dfdd5a","ios":"levelo://app?vid=e55e878d-dadc-4d10-88c8-89ba95dfdd5a"},"vehicle_type_id":"4","last_reported":1744225681,"current_range_meters":9200,"station_id":"ce4bh0p2rcd13ifvqd70","pricing_plan_id":"cebpf4jnsgd1na2vs0mg"},{"bike_id":"f167ea30-1ac9-42af-b166-3ba7c31469d3","system_id":"levelo_inurba_marseille","lat":43.30297,"lon":5.39207,"is_reserved":false,"is_disabled":false,"rental_uris":{"android":"levelo://app?vid=f167ea30-1ac9-42af-b166-3ba7c31469d3","ios":"levelo://app?vid=f167ea30-1ac9-42af-b166-3ba7c31469d3"},"vehicle_type_id":"4","last_reported":1744225681,"current_range_meters":9200,"station_id":"ce4bgkh2rcd13ifvqbk0","pricing_plan_id":"cebpf4jnsgd1na2vs0mg"},{"bike_id":"ef27ef31-21ca-44c5-8b45-d5d3d78a60fb","system_id":"levelo_inurba_marseille","lat":43.2971,"lon":5.36608,"is_reserved":false,"is_disabled":false,"rental_uris":{"android":"levelo://app?vid=ef27ef31-21ca-44c5-8b45-d5d3d78a60fb","ios":"levelo://app?vid=ef27ef31-21ca-44c5-8b45-d5d3d78a60fb"},"vehicle_type_id":"4","last_reported":1744225681,"current_range_meters":3600,"station_id":"ce4bgn12rcd13ifvqbt0","pricing_plan_id":"cebpf4jnsgd1na2vs0mg"},{"bike_id":"4f48eb1c-c038-4a78-89a5-f51d42adcec7","system_id":"levelo_inurba_marseille","lat":43.282672,"lon":5.350531,"is_reserved":false,"is_disabled":false,"rental_uris":{"android":"levelo://app?vid=4f48eb1c-c038-4a78-89a5-f51d42adcec7","ios":"levelo://app?vid=4f48eb1c-c038-4a78-89a5-f51d42adcec7"},"vehicle_type_id":"4","last_reported":1744225681,"current_range_meters":9200,"station_id":"ce4bgs12rcd13ifvqcag","pricing_plan_id":"cebpf4jnsgd1na2vs0mg"},{"bike_id":"e44fda30-6a40-4761-ab8c-d6213ab027d7","system_id":"levelo_inurba_marseille","lat":43.28407,"lon":5.37515,"is_reserved":false,"is_disabled":false,"rental_uris":{"android":"levelo://app?vid=e44fda30-6a40-4761-ab8c-d6213ab027d7","ios":"levelo://app?vid=e44fda30-6a40-4761-ab8c-d6213ab027d7"},"vehicle_type_id":"4","last_reported":1744225681,"current_range_meters":9200,"station_id":"ce4bh412rcd13ifvqds0","pricing_plan_id":"cebpf4jnsgd1na2vs0mg"},{"bike_id":"86497999-bebd-4800-a867-ec81bdbf771d","system_id":"levelo_inurba_marseille","lat":43.30375,"lon":5.42491,"is_reserved":false,"is_disabled":false,"rental_uris":{"android":"levelo://app?vid=86497999-bebd-4800-a867-ec81bdbf771d","ios":"levelo://app?vid=86497999-bebd-4800-a867-ec81bdbf771d"},"vehicle_type_id":"4","last_reported":1744225681,"current_range_meters":9200,"station_id":"ce4bhoh2rcd13ifvqh6g","pricing_plan_id":"cebpf4jnsgd1na2vs0mg"},{"bike_id":"94b39cc7-cbff-4bd4-8b61-cef917871dc2","system_id":"levelo_inurba_marseille","lat":43.30882,"lon":5.372,"is_reserved":false,"is_disabled":false,"rental_uris":{"android":"levelo://app?vid=94b39cc7-cbff-4bd4-8b61-cef917871dc2","ios":"levelo://app?vid=94b39cc7-cbff-4bd4-8b61-cef917871dc2"},"vehicle_type_id":"4","last_reported":1744225681,"current_range_meters":9200,"station_id":"ce4bguh2rcd13ifvqckg","pricing_plan_id":"cebpf4jnsgd1na2vs0mg"},{"bike_id":"80e32b05-6929-487c-8fd5-a86817c7e19b","system_id":"levelo_inurba_marseille","lat":43.290263,"lon":5.386552,"is_reserved":false,"is_disabled":false,"rental_uris":{"android":"levelo://app?vid=80e32b05-6929-487c-8fd5-a86817c7e19b","ios":"levelo://app?vid=80e32b05-6929-487c-8fd5-a86817c7e19b"},"vehicle_type_id":"4","last_reported":1744225681,"current_range_meters":9600,"station_id":"ce4bh4p2rcd13ifvqe0g","pricing_plan_id":"cebpf4jnsgd1na2vs0mg"},{"bike_id":"ab29a2e3-2fba-480e-905f-aa7fea000cd3","system_id":"levelo_inurba_marseille","lat":43.26809,"lon":5.40258,"is_reserved":false,"is_disabled":false,"rental_uris":{"android":"levelo://app?vid=ab29a2e3-2fba-480e-905f-aa7fea000cd3","ios":"levelo://app?vid=ab29a2e3-2fba-480e-905f-aa7fea000cd3"},"vehicle_type_id":"4","last_reported":1744225681,"current_range_meters":9600,"station_id":"ce501612rcd8frsf0b60","pricing_plan_id":"cebpf4jnsgd1na2vs0mg"},{"bike_id":"85c6c1a7-1e02-4ae5-b680-67cbc15bed7f","system_id":"levelo_inurba_marseille","lat":43.275021,"lon":5.424539,"is_reserved":false,"is_disabled":false,"rental_uris":{"android":"levelo://app?vid=85c6c1a7-1e02-4ae5-b680-67cbc15bed7f","ios":"levelo://app?vid=85c6c1a7-1e02-4ae5-b680-67cbc15bed7f"},"vehicle_type_id":"4","last_reported":1744225681,"current_range_meters":9600,"station_id":"ce4bhn92rcd13ifvqgrg","pricing_plan_id":"cebpf4jnsgd1na2vs0mg"},{"bike_id":"9398c150-468a-44da-a847-b73d932acb0c","system_id":"levelo_inurba_marseille","lat":43.2908,"lon":5.37171,"is_reserved":false,"is_disabled":false,"rental_uris":{"android":"levelo://app?vid=9398c150-468a-44da-a847-b73d932acb0c","ios":"levelo://app?vid=9398c150-468a-44da-a847-b73d932acb0c"},"vehicle_type_id":"4","last_reported":1744225681,"current_range_meters":9600,"station_id":"ce4bh5p2rcd13ifvqe4g","pricing_plan_id":"cebpf4jnsgd1na2vs0mg"},{"bike_id":"1a8c3bfa-7658-4f5e-93b8-93807ec24b6f","system_id":"levelo_inurba_marseille","lat":43.26573,"lon":5.39041,"is_reserved":false,"is_disabled":true,"rental_uris":{"android":"levelo://app?vid=1a8c3bfa-7658-4f5e-93b8-93807ec24b6f","ios":"levelo://app?vid=1a8c3bfa-7658-4f5e-93b8-93807ec24b6f"},"vehicle_type_id":"4","last_reported":1744225681,"current_range_meters":9600,"station_id":"ce4bhe12rcd13ifvqf30","pricing_plan_id":"cebpf4jnsgd1na2vs0mg"},{"bike_id":"59b621ed-81cf-40df-a684-917ebf84494c","system_id":"levelo_inurba_marseille","lat":43.28627,"lon":5.35114,"is_reserved":false,"is_disabled":false,"rental_uris":{"android":"levelo://app?vid=59b621ed-81cf-40df-a684-917ebf84494c","ios":"levelo://app?vid=59b621ed-81cf-40df-a684-917ebf84494c"},"vehicle_type_id":"4","last_reported":1744225681,"current_range_meters":9600,"station_id":"ce4bhch2rcd13ifvqeug","pricing_plan_id":"cebpf4jnsgd1na2vs0mg"},{"bike_id":"621641f2-86a9-4aa3-9a67-533e092a7c5e","system_id":"levelo_inurba_marseille","lat":43.30086,"lon":5.39078,"is_reserved":false,"is_disabled":false,"rental_uris":{"android":"levelo://app?vid=621641f2-86a9-4aa3-9a67-533e092a7c5e","ios":"levelo://app?vid=621641f2-86a9-4aa3-9a67-533e092a7c5e"},"vehicle_type_id":"4","last_reported":1744225681,"current_range_meters":11200,"station_id":"ce4bh192rcd13ifvqdb0","pricing_plan_id":"cebpf4jnsgd1na2vs0mg"},{"bike_id":"dfae54e1-d848-4d9a-ab1b-df6378b10b58","system_id":"levelo_inurba_marseille","lat":43.29517,"lon":5.39043,"is_reserved":false,"is_disabled":false,"rental_uris":{"android":"levelo://app?vid=dfae54e1-d848-4d9a-ab1b-df6378b10b58","ios":"levelo://app?vid=dfae54e1-d848-4d9a-ab1b-df6378b10b58"},"vehicle_type_id":"4","last_reported":1744225681,"current_range_meters":9600,"station_id":"ce4bh3p2rcd13ifvqdp0","pricing_plan_id":"cebpf4jnsgd1na2vs0mg"},{"bike_id":"cdec9674-00b2-4947-9623-a1f742ce86c8","system_id":"levelo_inurba_marseille","lat":43.269323,"lon":5.366713,"is_reserved":false,"is_disabled":false,"rental_uris":{"android":"levelo://app?vid=cdec9674-00b2-4947-9623-a1f742ce86c8","ios":"levelo://app?vid=cdec9674-00b2-4947-9623-a1f742ce86c8"},"vehicle_type_id":"4","last_reported":1744225681,"current_range_meters":9600,"station_id":"ce4bhbh2rcd13ifvqepg","pricing_plan_id":"cebpf4jnsgd1na2vs0mg"},{"bike_id":"ee979330-1018-4e12-8f55-8eadda58bbd7","system_id":"levelo_inurba_marseille","lat":43.29293,"lon":5.37467,"is_reserved":false,"is_disabled":false,"rental_uris":{"android":"levelo://app?vid=ee979330-1018-4e12-8f55-8eadda58bbd7","ios":"levelo://app?vid=ee979330-1018-4e12-8f55-8eadda58bbd7"},"vehicle_type_id":"4","last_reported":1744225681,"current_range_meters":9600,"station_id":"ce4bgi12rcd13ifvqb70","pricing_plan_id":"cebpf4jnsgd1na2vs0mg"},{"bike_id":"a5bc26c2-c4e6-442b-8370-aeba65c50e4e","system_id":"levelo_inurba_marseille","lat":43.293083,"lon":5.371656,"is_reserved":false,"is_disabled":false,"rental_uris":{"android":"levelo://app?vid=a5bc26c2-c4e6-442b-8370-aeba65c50e4e","ios":"levelo://app?vid=a5bc26c2-c4e6-442b-8370-aeba65c50e4e"},"vehicle_type_id":"4","last_reported":1744225681,"current_range_meters":10000,"station_id":"ce4bgh92rcd13ifvqb40","pricing_plan_id":"cebpf4jnsgd1na2vs0mg"},{"bike_id":"007bca57-6178-4378-9e9f-b071d84b3f04","system_id":"levelo_inurba_marseille","lat":43.28463,"lon":5.35886,"is_reserved":false,"is_disabled":false,"rental_uris":{"android":"levelo://app?vid=007bca57-6178-4378-9e9f-b071d84b3f04","ios":"levelo://app?vid=007bca57-6178-4378-9e9f-b071d84b3f04"},"vehicle_type_id":"4","last_reported":1744225681,"current_range_meters":10000,"station_id":"ce4bhah2rcd13ifvqei0","pricing_plan_id":"cebpf4jnsgd1na2vs0mg"},{"bike_id":"110de606-a94a-4204-9f93-f0bcdbe5961d","system_id":"levelo_inurba_marseille","lat":43.29267,"lon":5.38438,"is_reserved":false,"is_disabled":false,"rental_uris":{"android":"levelo://app?vid=110de606-a94a-4204-9f93-f0bcdbe5961d","ios":"levelo://app?vid=110de606-a94a-4204-9f93-f0bcdbe5961d"},"vehicle_type_id":"4","last_reported":1744225681,"current_range_meters":10000,"station_id":"ce4bh692rcd13ifvqea0","pricing_plan_id":"cebpf4jnsgd1na2vs0mg"},{"bike_id":"8b1885c7-c990-486a-9363-3a428e6713c7","system_id":"levelo_inurba_marseille","lat":43.28458,"lon":5.3589,"is_reserved":false,"is_disabled":false,"rental_uris":{"android":"levelo://app?vid=8b1885c7-c990-486a-9363-3a428e6713c7","ios":"levelo://app?vid=8b1885c7-c990-486a-9363-3a428e6713c7"},"vehicle_type_id":"4","last_reported":1744225681,"current_range_meters":10000,"station_id":"ce4bhah2rcd13ifvqei0","pricing_plan_id":"cebpf4jnsgd1na2vs0mg"},{"bike_id":"f50472af-bab2-4183-a9a7-7e703cc03e0c","system_id":"levelo_inurba_marseille","lat":43.2957,"lon":5.39978,"is_reserved":false,"is_disabled":false,"rental_uris":{"android":"levelo://app?vid=f50472af-bab2-4183-a9a7-7e703cc03e0c","ios":"levelo://app?vid=f50472af-bab2-4183-a9a7-7e703cc03e0c"},"vehicle_type_id":"4","last_reported":1744225681,"current_range_meters":10000,"station_id":"ce4bh312rcd13ifvqdj0","pricing_plan_id":"cebpf4jnsgd1na2vs0mg"},{"bike_id":"9250f7ee-9c09-4ee4-a261-efb6cca51dd7","system_id":"levelo_inurba_marseille","lat":43.23962,"lon":5.36652,"is_reserved":false,"is_disabled":false,"rental_uris":{"android":"levelo://app?vid=9250f7ee-9c09-4ee4-a261-efb6cca51dd7","ios":"levelo://app?vid=9250f7ee-9c09-4ee4-a261-efb6cca51dd7"},"vehicle_type_id":"4","last_reported":1744225681,"current_range_meters":10800,"station_id":"ce4bhi12rcd13ifvqfp0","pricing_plan_id":"cebpf4jnsgd1na2vs0mg"},{"bike_id":"b21d2f0d-a1e5-495b-a023-569074e16d19","system_id":"levelo_inurba_marseille","lat":43.26501,"lon":5.39514,"is_reserved":false,"is_disabled":false,"rental_uris":{"android":"levelo://app?vid=b21d2f0d-a1e5-495b-a023-569074e16d19","ios":"levelo://app?vid=b21d2f0d-a1e5-495b-a023-569074e16d19"},"vehicle_type_id":"4","last_reported":1744225681,"current_range_meters":10000,"station_id":"ce4bhi12rcd13ifvqfq0","pricing_plan_id":"cebpf4jnsgd1na2vs0mg"},{"bike_id":"c1c84328-b412-42f6-bb08-d4273df8d987","system_id":"levelo_inurba_marseille","lat":43.30793,"lon":5.43527,"is_reserved":false,"is_disabled":false,"rental_uris":{"android":"levelo://app?vid=c1c84328-b412-42f6-bb08-d4273df8d987","ios":"levelo://app?vid=c1c84328-b412-42f6-bb08-d4273df8d987"},"vehicle_type_id":"4","last_reported":1744225681,"current_range_meters":10000,"station_id":"ce4bhph2rcd13ifvqheg","pricing_plan_id":"cebpf4jnsgd1na2vs0mg"},{"bike_id":"37da48c4-5c0c-4597-9b62-c59df7449568","system_id":"levelo_inurba_marseille","lat":43.2603,"lon":5.37512,"is_reserved":false,"is_disabled":false,"rental_uris":{"android":"levelo://app?vid=37da48c4-5c0c-4597-9b62-c59df7449568","ios":"levelo://app?vid=37da48c4-5c0c-4597-9b62-c59df7449568"},"vehicle_type_id":"4","last_reported":1744225681,"current_range_meters":10000,"station_id":"ce4bhgh2rcd13ifvqfa0","pricing_plan_id":"cebpf4jnsgd1na2vs0mg"},{"bike_id":"89dfd0e1-42d4-477b-8087-7eeae11c13d5","system_id":"levelo_inurba_marseille","lat":43.28628,"lon":5.3706,"is_reserved":false,"is_disabled":false,"rental_uris":{"android":"levelo://app?vid=89dfd0e1-42d4-477b-8087-7eeae11c13d5","ios":"levelo://app?vid=89dfd0e1-42d4-477b-8087-7eeae11c13d5"},"vehicle_type_id":"4","last_reported":1744225681,"current_range_meters":10000,"station_id":"ce4bht12rcd13ifvqi60","pricing_plan_id":"cebpf4jnsgd1na2vs0mg"},{"bike_id":"4d506690-a5a7-4260-958d-98e593d70208","system_id":"levelo_inurba_marseille","lat":43.27613,"lon":5.36095,"is_reserved":false,"is_disabled":false,"rental_uris":{"android":"levelo://app?vid=4d506690-a5a7-4260-958d-98e593d70208","ios":"levelo://app?vid=4d506690-a5a7-4260-958d-98e593d70208"},"vehicle_type_id":"4","last_reported":1744225681,"current_range_meters":6800,"station_id":"ce4bgj92rcd13ifvqbe0","pricing_plan_id":"cebpf4jnsgd1na2vs0mg"},{"bike_id":"a5f81979-db12-42e6-b86b-94d39f8f2d1c","system_id":"levelo_inurba_marseille","lat":43.3108,"lon":5.42464,"is_reserved":false,"is_disabled":false,"rental_uris":{"android":"levelo://app?vid=a5f81979-db12-42e6-b86b-94d39f8f2d1c","ios":"levelo://app?vid=a5f81979-db12-42e6-b86b-94d39f8f2d1c"},"vehicle_type_id":"4","last_reported":1744225681,"current_range_meters":10000,"station_id":"ce4bhp92rcd13ifvqhag","pricing_plan_id":"cebpf4jnsgd1na2vs0mg"},{"bike_id":"eb49e27b-4bb6-4d1d-b494-aabd8c09eba9","system_id":"levelo_inurba_marseille","lat":43.24384,"lon":5.37055,"is_reserved":false,"is_disabled":false,"rental_uris":{"android":"levelo://app?vid=eb49e27b-4bb6-4d1d-b494-aabd8c09eba9","ios":"levelo://app?vid=eb49e27b-4bb6-4d1d-b494-aabd8c09eba9"},"vehicle_type_id":"4","last_reported":1744225681,"current_range_meters":9600,"station_id":"ce4bhhh2rcd13ifvqfk0","pricing_plan_id":"cebpf4jnsgd1na2vs0mg"},{"bike_id":"32d65979-397b-473e-b9c9-2706f5729c89","system_id":"levelo_inurba_marseille","lat":43.30322,"lon":5.40441,"is_reserved":false,"is_disabled":false,"rental_uris":{"android":"levelo://app?vid=32d65979-397b-473e-b9c9-2706f5729c89","ios":"levelo://app?vid=32d65979-397b-473e-b9c9-2706f5729c89"},"vehicle_type_id":"4","last_reported":1744225681,"current_range_meters":10800,"station_id":"ce4bh012rcd13ifvqd10","pricing_plan_id":"cebpf4jnsgd1na2vs0mg"},{"bike_id":"8fa78f52-8834-4b2c-8a1d-e4f911c35cd4","system_id":"levelo_inurba_marseille","lat":43.25721,"lon":5.41112,"is_reserved":false,"is_disabled":true,"rental_uris":{"android":"levelo://app?vid=8fa78f52-8834-4b2c-8a1d-e4f911c35cd4","ios":"levelo://app?vid=8fa78f52-8834-4b2c-8a1d-e4f911c35cd4"},"vehicle_type_id":"4","last_reported":1744225681,"current_range_meters":10800,"station_id":"ce4bhkp2rcd13ifvqgd0","pricing_plan_id":"cebpf4jnsgd1na2vs0mg"},{"bike_id":"f606755d-52a0-4dc9-b45f-451db148bde2","system_id":"levelo_inurba_marseille","lat":43.29515,"lon":5.390211,"is_reserved":false,"is_disabled":false,"rental_uris":{"android":"levelo://app?vid=f606755d-52a0-4dc9-b45f-451db148bde2","ios":"levelo://app?vid=f606755d-52a0-4dc9-b45f-451db148bde2"},"vehicle_type_id":"4","last_reported":1744225681,"current_range_meters":10800,"station_id":"ce4bh3p2rcd13ifvqdp0","pricing_plan_id":"cebpf4jnsgd1na2vs0mg"},{"bike_id":"a7096ac2-8449-41c2-be54-9f2ae8294c09","system_id":"levelo_inurba_marseille","lat":43.32359,"lon":5.38882,"is_reserved":false,"is_disabled":false,"rental_uris":{"android":"levelo://app?vid=a7096ac2-8449-41c2-be54-9f2ae8294c09","ios":"levelo://app?vid=a7096ac2-8449-41c2-be54-9f2ae8294c09"},"vehicle_type_id":"4","last_reported":1744225681,"current_range_meters":10800,"station_id":"ce4bhqp2rcd13ifvqhog","pricing_plan_id":"cebpf4jnsgd1na2vs0mg"},{"bike_id":"58e7944d-3b03-43ec-98d6-cf7eb361b1eb","system_id":"levelo_inurba_marseille","lat":43.29602,"lon":5.38103,"is_reserved":false,"is_disabled":false,"rental_uris":{"android":"levelo://app?vid=58e7944d-3b03-43ec-98d6-cf7eb361b1eb","ios":"levelo://app?vid=58e7944d-3b03-43ec-98d6-cf7eb361b1eb"},"vehicle_type_id":"4","last_reported":1744225681,"current_range_meters":10800,"station_id":"ce4bgl12rcd13ifvqbo0","pricing_plan_id":"cebpf4jnsgd1na2vs0mg"},{"bike_id":"60bc3fb2-7a9c-478d-bae3-531d94541e5b","system_id":"levelo_inurba_marseille","lat":43.27093,"lon":5.42284,"is_reserved":false,"is_disabled":false,"rental_uris":{"android":"levelo://app?vid=60bc3fb2-7a9c-478d-bae3-531d94541e5b","ios":"levelo://app?vid=60bc3fb2-7a9c-478d-bae3-531d94541e5b"},"vehicle_type_id":"4","last_reported":1744225681,"current_range_meters":10800,"station_id":"ce4bhk92rcd13ifvqgb0","pricing_plan_id":"cebpf4jnsgd1na2vs0mg"},{"bike_id":"5bdeb26a-11aa-4dd3-b37a-508fd7b0299b","system_id":"levelo_inurba_marseille","lat":43.29269,"lon":5.38426,"is_reserved":false,"is_disabled":false,"rental_uris":{"android":"levelo://app?vid=5bdeb26a-11aa-4dd3-b37a-508fd7b0299b","ios":"levelo://app?vid=5bdeb26a-11aa-4dd3-b37a-508fd7b0299b"},"vehicle_type_id":"4","last_reported":1744225681,"current_range_meters":10800,"station_id":"ce4bh692rcd13ifvqea0","pricing_plan_id":"cebpf4jnsgd1na2vs0mg"},{"bike_id":"f75e44ae-3fe1-48f9-89b7-a0721f242e10","system_id":"levelo_inurba_marseille","lat":43.30355,"lon":5.41869,"is_reserved":false,"is_disabled":false,"rental_uris":{"android":"levelo://app?vid=f75e44ae-3fe1-48f9-89b7-a0721f242e10","ios":"levelo://app?vid=f75e44ae-3fe1-48f9-89b7-a0721f242e10"},"vehicle_type_id":"4","last_reported":1744225681,"current_range_meters":10800,"station_id":"ce4bhop2rcd13ifvqh7g","pricing_plan_id":"cebpf4jnsgd1na2vs0mg"},{"bike_id":"638b21eb-bd60-4474-aecd-c2b01f323b69","system_id":"levelo_inurba_marseille","lat":43.30802,"lon":5.3815,"is_reserved":false,"is_disabled":false,"rental_uris":{"android":"levelo://app?vid=638b21eb-bd60-4474-aecd-c2b01f323b69","ios":"levelo://app?vid=638b21eb-bd60-4474-aecd-c2b01f323b69"},"vehicle_type_id":"4","last_reported":1744225681,"current_range_meters":10800,"station_id":"ce4bgt12rcd13ifvqce0","pricing_plan_id":"cebpf4jnsgd1na2vs0mg"},{"bike_id":"0d05c424-4af6-4961-bebd-f107bfa0153f","system_id":"levelo_inurba_marseille","lat":43.28164,"lon":5.42652,"is_reserved":false,"is_disabled":false,"rental_uris":{"android":"levelo://app?vid=0d05c424-4af6-4961-bebd-f107bfa0153f","ios":"levelo://app?vid=0d05c424-4af6-4961-bebd-f107bfa0153f"},"vehicle_type_id":"4","last_reported":1744225681,"current_range_meters":10800,"station_id":"ce4bhnh2rcd13ifvqgug","pricing_plan_id":"cebpf4jnsgd1na2vs0mg"},{"bike_id":"678c2f83-774f-4560-abc7-60287e466b90","system_id":"levelo_inurba_marseille","lat":43.30091,"lon":5.3909,"is_reserved":false,"is_disabled":false,"rental_uris":{"android":"levelo://app?vid=678c2f83-774f-4560-abc7-60287e466b90","ios":"levelo://app?vid=678c2f83-774f-4560-abc7-60287e466b90"},"vehicle_type_id":"4","last_reported":1744225681,"current_range_meters":10000,"station_id":"ce4bh192rcd13ifvqdb0","pricing_plan_id":"cebpf4jnsgd1na2vs0mg"},{"bike_id":"b084350c-1802-4eac-a826-a69fe47f829d","system_id":"levelo_inurba_marseille","lat":43.28924,"lon":5.38409,"is_reserved":false,"is_disabled":false,"rental_uris":{"android":"levelo://app?vid=b084350c-1802-4eac-a826-a69fe47f829d","ios":"levelo://app?vid=b084350c-1802-4eac-a826-a69fe47f829d"},"vehicle_type_id":"4","last_reported":1744225681,"current_range_meters":11200,"station_id":"ce4bh612rcd13ifvqe6g","pricing_plan_id":"cebpf4jnsgd1na2vs0mg"},{"bike_id":"01e31f15-bc9b-4d18-bebd-edf19bcedef2","system_id":"levelo_inurba_marseille","lat":43.28753,"lon":5.3795,"is_reserved":false,"is_disabled":true,"rental_uris":{"android":"levelo://app?vid=01e31f15-bc9b-4d18-bebd-edf19bcedef2","ios":"levelo://app?vid=01e31f15-bc9b-4d18-bebd-edf19bcedef2"},"vehicle_type_id":"4","last_reported":1744225681,"current_range_meters":11200,"station_id":"ce4bh9p2rcd13ifvqec0","pricing_plan_id":"cebpf4jnsgd1na2vs0mg"},{"bike_id":"35efe588-de68-42cb-85e2-c164ce2bf050","system_id":"levelo_inurba_marseille","lat":43.28931,"lon":5.36633,"is_reserved":false,"is_disabled":false,"rental_uris":{"android":"levelo://app?vid=35efe588-de68-42cb-85e2-c164ce2bf050","ios":"levelo://app?vid=35efe588-de68-42cb-85e2-c164ce2bf050"},"vehicle_type_id":"4","last_reported":1744225681,"current_range_meters":11200,"station_id":"ce4bhap2rcd13ifvqek0","pricing_plan_id":"cebpf4jnsgd1na2vs0mg"},{"bike_id":"5f30a5a4-de9f-499e-b151-b811ebb3b43a","system_id":"levelo_inurba_marseille","lat":43.31074,"lon":5.38345,"is_reserved":false,"is_disabled":true,"rental_uris":{"android":"levelo://app?vid=5f30a5a4-de9f-499e-b151-b811ebb3b43a","ios":"levelo://app?vid=5f30a5a4-de9f-499e-b151-b811ebb3b43a"},"vehicle_type_id":"4","last_reported":1744225681,"current_range_meters":11200,"station_id":"ce4bgv92rcd13ifvqcr0","pricing_plan_id":"cebpf4jnsgd1na2vs0mg"},{"bike_id":"92ff6695-ed01-46db-8aad-d9aff8dfb61f","system_id":"levelo_inurba_marseille","lat":43.322451,"lon":5.412179,"is_reserved":false,"is_disabled":false,"rental_uris":{"android":"levelo://app?vid=92ff6695-ed01-46db-8aad-d9aff8dfb61f","ios":"levelo://app?vid=92ff6695-ed01-46db-8aad-d9aff8dfb61f"},"vehicle_type_id":"4","last_reported":1744225681,"current_range_meters":11200,"station_id":"ce4bhq92rcd13ifvqhkg","pricing_plan_id":"cebpf4jnsgd1na2vs0mg"},{"bike_id":"2293611d-7025-48e3-be5a-dfd45666a02b","system_id":"levelo_inurba_marseille","lat":43.311203,"lon":5.377717,"is_reserved":false,"is_disabled":false,"rental_uris":{"android":"levelo://app?vid=2293611d-7025-48e3-be5a-dfd45666a02b","ios":"levelo://app?vid=2293611d-7025-48e3-be5a-dfd45666a02b"},"vehicle_type_id":"4","last_reported":1744225681,"current_range_meters":11200,"station_id":"ce4bgt92rcd13ifvqcg0","pricing_plan_id":"cebpf4jnsgd1na2vs0mg"},{"bike_id":"e80384b8-6368-4b2c-b987-d9c8917f3a41","system_id":"levelo_inurba_marseille","lat":43.290285,"lon":5.386489,"is_reserved":false,"is_disabled":false,"rental_uris":{"android":"levelo://app?vid=e80384b8-6368-4b2c-b987-d9c8917f3a41","ios":"levelo://app?vid=e80384b8-6368-4b2c-b987-d9c8917f3a41"},"vehicle_type_id":"4","last_reported":1744225681,"current_range_meters":11600,"station_id":"ce4bh3h2rcd13ifvqdo0","pricing_plan_id":"cebpf4jnsgd1na2vs0mg"},{"bike_id":"17f4902e-c861-4806-a819-8e218247cad7","system_id":"levelo_inurba_marseille","lat":43.24654,"lon":5.3815,"is_reserved":false,"is_disabled":false,"rental_uris":{"android":"levelo://app?vid=17f4902e-c861-4806-a819-8e218247cad7","ios":"levelo://app?vid=17f4902e-c861-4806-a819-8e218247cad7"},"vehicle_type_id":"4","last_reported":1744225681,"current_range_meters":11600,"station_id":"ce4bhih2rcd13ifvqfr0","pricing_plan_id":"cebpf4jnsgd1na2vs0mg"},{"bike_id":"585423e7-774a-4fa0-a5df-d1e5eac4c622","system_id":"levelo_inurba_marseille","lat":43.29569,"lon":5.37512,"is_reserved":false,"is_disabled":false,"rental_uris":{"android":"levelo://app?vid=585423e7-774a-4fa0-a5df-d1e5eac4c622","ios":"levelo://app?vid=585423e7-774a-4fa0-a5df-d1e5eac4c622"},"vehicle_type_id":"4","last_reported":1744225681,"current_range_meters":11600,"station_id":"ce4bgh92rcd13ifvqb50","pricing_plan_id":"cebpf4jnsgd1na2vs0mg"},{"bike_id":"bc1d2fed-b042-4cee-b264-0ca6e1223d11","system_id":"levelo_inurba_marseille","lat":43.29886,"lon":5.38896,"is_reserved":false,"is_disabled":false,"rental_uris":{"android":"levelo://app?vid=bc1d2fed-b042-4cee-b264-0ca6e1223d11","ios":"levelo://app?vid=bc1d2fed-b042-4cee-b264-0ca6e1223d11"},"vehicle_type_id":"4","last_reported":1744225681,"current_range_meters":11600,"station_id":"ce4bh392rcd13ifvqdl0","pricing_plan_id":"cebpf4jnsgd1na2vs0mg"},{"bike_id":"49ff83c9-b7ae-4714-8e73-f563a5b3bbce","system_id":"levelo_inurba_marseille","lat":43.28171,"lon":5.42647,"is_reserved":false,"is_disabled":false,"rental_uris":{"android":"levelo://app?vid=49ff83c9-b7ae-4714-8e73-f563a5b3bbce","ios":"levelo://app?vid=49ff83c9-b7ae-4714-8e73-f563a5b3bbce"},"vehicle_type_id":"4","last_reported":1744225681,"current_range_meters":12000,"station_id":"ce4bhnh2rcd13ifvqgug","pricing_plan_id":"cebpf4jnsgd1na2vs0mg"},{"bike_id":"42183e06-5978-4858-b301-03ad7c7deda6","system_id":"levelo_inurba_marseille","lat":43.27179,"lon":5.4098,"is_reserved":false,"is_disabled":false,"rental_uris":{"android":"levelo://app?vid=42183e06-5978-4858-b301-03ad7c7deda6","ios":"levelo://app?vid=42183e06-5978-4858-b301-03ad7c7deda6"},"vehicle_type_id":"4","last_reported":1744225681,"current_range_meters":12000,"station_id":"ce4bhl12rcd13ifvqgf0","pricing_plan_id":"cebpf4jnsgd1na2vs0mg"},{"bike_id":"d412d5f5-b1d8-400f-b05b-3b5003cddbda","system_id":"levelo_inurba_marseille","lat":43.29519,"lon":5.37509,"is_reserved":false,"is_disabled":false,"rental_uris":{"android":"levelo://app?vid=d412d5f5-b1d8-400f-b05b-3b5003cddbda","ios":"levelo://app?vid=d412d5f5-b1d8-400f-b05b-3b5003cddbda"},"vehicle_type_id":"4","last_reported":1744225681,"current_range_meters":12000,"station_id":"ce4bgkp2rcd13ifvqbmg","pricing_plan_id":"cebpf4jnsgd1na2vs0mg"},{"bike_id":"51220fd5-275f-44db-a81e-280c0ca810af","system_id":"levelo_inurba_marseille","lat":43.32264,"lon":5.38534,"is_reserved":false,"is_disabled":false,"rental_uris":{"android":"levelo://app?vid=51220fd5-275f-44db-a81e-280c0ca810af","ios":"levelo://app?vid=51220fd5-275f-44db-a81e-280c0ca810af"},"vehicle_type_id":"4","last_reported":1744225681,"current_range_meters":12000,"station_id":"","pricing_plan_id":"cebpf4jnsgd1na2vs0mg"},{"bike_id":"4b495b04-c48e-4b58-a030-e298ff23848a","system_id":"levelo_inurba_marseille","lat":43.31366,"lon":5.38495,"is_reserved":false,"is_disabled":false,"rental_uris":{"android":"levelo://app?vid=4b495b04-c48e-4b58-a030-e298ff23848a","ios":"levelo://app?vid=4b495b04-c48e-4b58-a030-e298ff23848a"},"vehicle_type_id":"4","last_reported":1744225681,"current_range_meters":12000,"station_id":"ce4bgt92rcd13ifvqcf0","pricing_plan_id":"cebpf4jnsgd1na2vs0mg"},{"bike_id":"b96be04a-adcd-4816-8c18-ee76dccce0e8","system_id":"levelo_inurba_marseille","lat":43.24175,"lon":5.36395,"is_reserved":false,"is_disabled":false,"rental_uris":{"android":"levelo://app?vid=b96be04a-adcd-4816-8c18-ee76dccce0e8","ios":"levelo://app?vid=b96be04a-adcd-4816-8c18-ee76dccce0e8"},"vehicle_type_id":"4","last_reported":1744225681,"current_range_meters":12000,"station_id":"cpo36qri1sfpv3e86is0","pricing_plan_id":"cebpf4jnsgd1na2vs0mg"},{"bike_id":"cc0b19bd-0040-40ba-8872-0047c3cc2158","system_id":"levelo_inurba_marseille","lat":43.27361,"lon":5.3626,"is_reserved":false,"is_disabled":false,"rental_uris":{"android":"levelo://app?vid=cc0b19bd-0040-40ba-8872-0047c3cc2158","ios":"levelo://app?vid=cc0b19bd-0040-40ba-8872-0047c3cc2158"},"vehicle_type_id":"4","last_reported":1744225681,"current_range_meters":12000,"station_id":"ce4bhbh2rcd13ifvqeo0","pricing_plan_id":"cebpf4jnsgd1na2vs0mg"},{"bike_id":"8d230c60-9103-4548-9c22-ea80e462ea92","system_id":"levelo_inurba_marseille","lat":43.29256,"lon":5.37633,"is_reserved":false,"is_disabled":false,"rental_uris":{"android":"levelo://app?vid=8d230c60-9103-4548-9c22-ea80e462ea92","ios":"levelo://app?vid=8d230c60-9103-4548-9c22-ea80e462ea92"},"vehicle_type_id":"4","last_reported":1744225681,"current_range_meters":12000,"station_id":"ce4bgi12rcd13ifvqb80","pricing_plan_id":"cebpf4jnsgd1na2vs0mg"},{"bike_id":"3757c314-1829-433c-9aa0-d220a6bfd245","system_id":"levelo_inurba_marseille","lat":43.30421,"lon":5.41296,"is_reserved":false,"is_disabled":false,"rental_uris":{"android":"levelo://app?vid=3757c314-1829-433c-9aa0-d220a6bfd245","ios":"levelo://app?vid=3757c314-1829-433c-9aa0-d220a6bfd245"},"vehicle_type_id":"4","last_reported":1744225681,"current_range_meters":12000,"station_id":"ce4bhop2rcd13ifvqh8g","pricing_plan_id":"cebpf4jnsgd1na2vs0mg"},{"bike_id":"0e7051ad-00f7-4897-9995-929c1987289a","system_id":"levelo_inurba_marseille","lat":43.33139,"lon":5.37844,"is_reserved":false,"is_disabled":false,"rental_uris":{"android":"levelo://app?vid=0e7051ad-00f7-4897-9995-929c1987289a","ios":"levelo://app?vid=0e7051ad-00f7-4897-9995-929c1987289a"},"vehicle_type_id":"4","last_reported":1744225681,"current_range_meters":12000,"station_id":"","pricing_plan_id":"cebpf4jnsgd1na2vs0mg"},{"bike_id":"95c5f464-234c-4df8-b9dd-9aba430cf477","system_id":"levelo_inurba_marseille","lat":43.306,"lon":5.37233,"is_reserved":false,"is_disabled":false,"rental_uris":{"android":"levelo://app?vid=95c5f464-234c-4df8-b9dd-9aba430cf477","ios":"levelo://app?vid=95c5f464-234c-4df8-b9dd-9aba430cf477"},"vehicle_type_id":"4","last_reported":1744225681,"current_range_meters":12000,"station_id":"ce4bgqh2rcd13ifvqc4g","pricing_plan_id":"cebpf4jnsgd1na2vs0mg"},{"bike_id":"53fb0077-3a65-43ca-a501-d7c36dc0627d","system_id":"levelo_inurba_marseille","lat":43.317689,"lon":5.387933,"is_reserved":false,"is_disabled":false,"rental_uris":{"android":"levelo://app?vid=53fb0077-3a65-43ca-a501-d7c36dc0627d","ios":"levelo://app?vid=53fb0077-3a65-43ca-a501-d7c36dc0627d"},"vehicle_type_id":"4","last_reported":1744225681,"current_range_meters":12400,"station_id":"","pricing_plan_id":"cebpf4jnsgd1na2vs0mg"},{"bike_id":"d8aeea32-0a7f-491a-9322-215f46785e2e","system_id":"levelo_inurba_marseille","lat":43.29597,"lon":5.381,"is_reserved":false,"is_disabled":false,"rental_uris":{"android":"levelo://app?vid=d8aeea32-0a7f-491a-9322-215f46785e2e","ios":"levelo://app?vid=d8aeea32-0a7f-491a-9322-215f46785e2e"},"vehicle_type_id":"4","last_reported":1744225681,"current_range_meters":12400,"station_id":"ce4bgl12rcd13ifvqbo0","pricing_plan_id":"cebpf4jnsgd1na2vs0mg"},{"bike_id":"9fce7fb9-26b6-4832-9f96-ea1b75c489f0","system_id":"levelo_inurba_marseille","lat":43.21216,"lon":5.35069,"is_reserved":false,"is_disabled":false,"rental_uris":{"android":"levelo://app?vid=9fce7fb9-26b6-4832-9f96-ea1b75c489f0","ios":"levelo://app?vid=9fce7fb9-26b6-4832-9f96-ea1b75c489f0"},"vehicle_type_id":"4","last_reported":1744225681,"current_range_meters":12400,"station_id":"st_cvj6sg6p6f1abm77japg","pricing_plan_id":"cebpf4jnsgd1na2vs0mg"},{"bike_id":"97d1c2bd-5c86-4225-9597-1f9e1dbbaa92","system_id":"levelo_inurba_marseille","lat":43.28078,"lon":5.39662,"is_reserved":false,"is_disabled":false,"rental_uris":{"android":"levelo://app?vid=97d1c2bd-5c86-4225-9597-1f9e1dbbaa92","ios":"levelo://app?vid=97d1c2bd-5c86-4225-9597-1f9e1dbbaa92"},"vehicle_type_id":"4","last_reported":1744225681,"current_range_meters":16400,"station_id":"ce4bho12rcd13ifvqh2g","pricing_plan_id":"cebpf4jnsgd1na2vs0mg"},{"bike_id":"1b536a9e-ebfa-4791-9597-54a1def20dcc","system_id":"levelo_inurba_marseille","lat":43.29415,"lon":5.38629,"is_reserved":false,"is_disabled":false,"rental_uris":{"android":"levelo://app?vid=1b536a9e-ebfa-4791-9597-54a1def20dcc","ios":"levelo://app?vid=1b536a9e-ebfa-4791-9597-54a1def20dcc"},"vehicle_type_id":"4","last_reported":1744225681,"current_range_meters":12400,"station_id":"ce4bh2h2rcd13ifvqdh0","pricing_plan_id":"cebpf4jnsgd1na2vs0mg"},{"bike_id":"9adf4e56-12f0-46d4-90c9-f41c5b523214","system_id":"levelo_inurba_marseille","lat":43.28454,"lon":5.35898,"is_reserved":false,"is_disabled":false,"rental_uris":{"android":"levelo://app?vid=9adf4e56-12f0-46d4-90c9-f41c5b523214","ios":"levelo://app?vid=9adf4e56-12f0-46d4-90c9-f41c5b523214"},"vehicle_type_id":"4","last_reported":1744225681,"current_range_meters":12400,"station_id":"ce4bhah2rcd13ifvqei0","pricing_plan_id":"cebpf4jnsgd1na2vs0mg"},{"bike_id":"4c28f3d7-3228-4605-8a0a-01ab16fbb532","system_id":"levelo_inurba_marseille","lat":43.27199,"lon":5.39191,"is_reserved":false,"is_disabled":true,"rental_uris":{"android":"levelo://app?vid=4c28f3d7-3228-4605-8a0a-01ab16fbb532","ios":"levelo://app?vid=4c28f3d7-3228-4605-8a0a-01ab16fbb532"},"vehicle_type_id":"4","last_reported":1744225681,"current_range_meters":12400,"station_id":"ce4bhhp2rcd13ifvqfm0","pricing_plan_id":"cebpf4jnsgd1na2vs0mg"},{"bike_id":"370c5ce7-3d00-4a67-b12b-0443c7b825ee","system_id":"levelo_inurba_marseille","lat":43.27612,"lon":5.36111,"is_reserved":false,"is_disabled":false,"rental_uris":{"android":"levelo://app?vid=370c5ce7-3d00-4a67-b12b-0443c7b825ee","ios":"levelo://app?vid=370c5ce7-3d00-4a67-b12b-0443c7b825ee"},"vehicle_type_id":"4","last_reported":1744225681,"current_range_meters":12400,"station_id":"ce4bgj92rcd13ifvqbe0","pricing_plan_id":"cebpf4jnsgd1na2vs0mg"},{"bike_id":"77857721-3c6f-49d9-9f2d-693feb29a9ee","system_id":"levelo_inurba_marseille","lat":43.29304,"lon":5.37183,"is_reserved":false,"is_disabled":false,"rental_uris":{"android":"levelo://app?vid=77857721-3c6f-49d9-9f2d-693feb29a9ee","ios":"levelo://app?vid=77857721-3c6f-49d9-9f2d-693feb29a9ee"},"vehicle_type_id":"4","last_reported":1744225681,"current_range_meters":12400,"station_id":"ce4bgh92rcd13ifvqb40","pricing_plan_id":"cebpf4jnsgd1na2vs0mg"},{"bike_id":"2be59056-90ee-4dc6-95fd-dd7b27b0c4cd","system_id":"levelo_inurba_marseille","lat":43.29261,"lon":5.3845,"is_reserved":false,"is_disabled":false,"rental_uris":{"android":"levelo://app?vid=2be59056-90ee-4dc6-95fd-dd7b27b0c4cd","ios":"levelo://app?vid=2be59056-90ee-4dc6-95fd-dd7b27b0c4cd"},"vehicle_type_id":"4","last_reported":1744225681,"current_range_meters":12400,"station_id":"ce4bh692rcd13ifvqea0","pricing_plan_id":"cebpf4jnsgd1na2vs0mg"},{"bike_id":"03d5506e-4500-4026-8110-f7de237a534f","system_id":"levelo_inurba_marseille","lat":43.28611,"lon":5.37056,"is_reserved":false,"is_disabled":false,"rental_uris":{"android":"levelo://app?vid=03d5506e-4500-4026-8110-f7de237a534f","ios":"levelo://app?vid=03d5506e-4500-4026-8110-f7de237a534f"},"vehicle_type_id":"4","last_reported":1744225681,"current_range_meters":12400,"station_id":"ce4bht12rcd13ifvqi60","pricing_plan_id":"cebpf4jnsgd1na2vs0mg"},{"bike_id":"d87cc5c4-1c8e-421b-a351-02b810df9ea3","system_id":"levelo_inurba_marseille","lat":43.25821,"lon":5.39442,"is_reserved":false,"is_disabled":false,"rental_uris":{"android":"levelo://app?vid=d87cc5c4-1c8e-421b-a351-02b810df9ea3","ios":"levelo://app?vid=d87cc5c4-1c8e-421b-a351-02b810df9ea3"},"vehicle_type_id":"4","last_reported":1744225681,"current_range_meters":12800,"station_id":"ce4bhip2rcd13ifvqft0","pricing_plan_id":"cebpf4jnsgd1na2vs0mg"},{"bike_id":"b4b93a64-d083-4ab2-bbd0-53609c602fb5","system_id":"levelo_inurba_marseille","lat":43.30925,"lon":5.40142,"is_reserved":false,"is_disabled":true,"rental_uris":{"android":"levelo://app?vid=b4b93a64-d083-4ab2-bbd0-53609c602fb5","ios":"levelo://app?vid=b4b93a64-d083-4ab2-bbd0-53609c602fb5"},"vehicle_type_id":"4","last_reported":1744225681,"current_range_meters":12800,"station_id":"ce4bgvp2rcd13ifvqct0","pricing_plan_id":"cebpf4jnsgd1na2vs0mg"},{"bike_id":"09fbd369-0449-462c-8ad6-b5f61d0c7247","system_id":"levelo_inurba_marseille","lat":43.31521,"lon":5.38035,"is_reserved":false,"is_disabled":false,"rental_uris":{"android":"levelo://app?vid=09fbd369-0449-462c-8ad6-b5f61d0c7247","ios":"levelo://app?vid=09fbd369-0449-462c-8ad6-b5f61d0c7247"},"vehicle_type_id":"4","last_reported":1744225681,"current_range_meters":12800,"station_id":"ce4bhsp2rcd13ifvqi50","pricing_plan_id":"cebpf4jnsgd1na2vs0mg"},{"bike_id":"0b1c4f08-d48e-4ce1-94ae-f1464f705e8e","system_id":"levelo_inurba_marseille","lat":43.30539,"lon":5.36556,"is_reserved":false,"is_disabled":false,"rental_uris":{"android":"levelo://app?vid=0b1c4f08-d48e-4ce1-94ae-f1464f705e8e","ios":"levelo://app?vid=0b1c4f08-d48e-4ce1-94ae-f1464f705e8e"},"vehicle_type_id":"4","last_reported":1744225681,"current_range_meters":12800,"station_id":"ce4bgs12rcd13ifvqcag","pricing_plan_id":"cebpf4jnsgd1na2vs0mg"},{"bike_id":"f2ddeead-c55a-49b3-90e5-4eec0e251056","system_id":"levelo_inurba_marseille","lat":43.31721,"lon":5.43735,"is_reserved":false,"is_disabled":false,"rental_uris":{"android":"levelo://app?vid=f2ddeead-c55a-49b3-90e5-4eec0e251056","ios":"levelo://app?vid=f2ddeead-c55a-49b3-90e5-4eec0e251056"},"vehicle_type_id":"4","last_reported":1744225681,"current_range_meters":12800,"station_id":"ce4bhp92rcd13ifvqhcg","pricing_plan_id":"cebpf4jnsgd1na2vs0mg"},{"bike_id":"42eef53d-3bef-4bf2-9c48-23993540f001","system_id":"levelo_inurba_marseille","lat":43.28103,"lon":5.37836,"is_reserved":false,"is_disabled":false,"rental_uris":{"android":"levelo://app?vid=42eef53d-3bef-4bf2-9c48-23993540f001","ios":"levelo://app?vid=42eef53d-3bef-4bf2-9c48-23993540f001"},"vehicle_type_id":"4","last_reported":1744225681,"current_range_meters":12800,"station_id":"ce4bha12rcd13ifvqee0","pricing_plan_id":"cebpf4jnsgd1na2vs0mg"},{"bike_id":"122cdde6-9512-4fc1-b3dd-8da01087c3ed","system_id":"levelo_inurba_marseille","lat":43.2119,"lon":5.35081,"is_reserved":false,"is_disabled":false,"rental_uris":{"android":"levelo://app?vid=122cdde6-9512-4fc1-b3dd-8da01087c3ed","ios":"levelo://app?vid=122cdde6-9512-4fc1-b3dd-8da01087c3ed"},"vehicle_type_id":"4","last_reported":1744225681,"current_range_meters":12800,"station_id":"","pricing_plan_id":"cebpf4jnsgd1na2vs0mg"},{"bike_id":"de07ea0a-be7c-4e4e-90a4-07f0b64a1287","system_id":"levelo_inurba_marseille","lat":43.24812,"lon":5.37454,"is_reserved":false,"is_disabled":false,"rental_uris":{"android":"levelo://app?vid=de07ea0a-be7c-4e4e-90a4-07f0b64a1287","ios":"levelo://app?vid=de07ea0a-be7c-4e4e-90a4-07f0b64a1287"},"vehicle_type_id":"4","last_reported":1744225681,"current_range_meters":12800,"station_id":"ce4bhgh2rcd13ifvqfb0","pricing_plan_id":"cebpf4jnsgd1na2vs0mg"},{"bike_id":"ba728d24-8c4f-46e1-8222-1fa05e7dad6c","system_id":"levelo_inurba_marseille","lat":43.30256,"lon":5.40072,"is_reserved":false,"is_disabled":false,"rental_uris":{"android":"levelo://app?vid=ba728d24-8c4f-46e1-8222-1fa05e7dad6c","ios":"levelo://app?vid=ba728d24-8c4f-46e1-8222-1fa05e7dad6c"},"vehicle_type_id":"4","last_reported":1744225681,"current_range_meters":12800,"station_id":"ce4bgvh2rcd13ifvqcs0","pricing_plan_id":"cebpf4jnsgd1na2vs0mg"},{"bike_id":"b62ca712-90d1-40bc-b827-117b1bb8ce73","system_id":"levelo_inurba_marseille","lat":43.28719,"lon":5.3794,"is_reserved":false,"is_disabled":false,"rental_uris":{"android":"levelo://app?vid=b62ca712-90d1-40bc-b827-117b1bb8ce73","ios":"levelo://app?vid=b62ca712-90d1-40bc-b827-117b1bb8ce73"},"vehicle_type_id":"4","last_reported":1744225681,"current_range_meters":13600,"station_id":"ce4bh9p2rcd13ifvqec0","pricing_plan_id":"cebpf4jnsgd1na2vs0mg"},{"bike_id":"c5dd0da1-b11c-4a15-8365-ce16e6ab0a90","system_id":"levelo_inurba_marseille","lat":43.29309,"lon":5.37184,"is_reserved":false,"is_disabled":false,"rental_uris":{"android":"levelo://app?vid=c5dd0da1-b11c-4a15-8365-ce16e6ab0a90","ios":"levelo://app?vid=c5dd0da1-b11c-4a15-8365-ce16e6ab0a90"},"vehicle_type_id":"4","last_reported":1744225681,"current_range_meters":13600,"station_id":"ce4bgh92rcd13ifvqb40","pricing_plan_id":"cebpf4jnsgd1na2vs0mg"},{"bike_id":"210a3b19-1ddf-4125-a3e1-4059b67ecc8f","system_id":"levelo_inurba_marseille","lat":43.27069,"lon":5.42284,"is_reserved":false,"is_disabled":false,"rental_uris":{"android":"levelo://app?vid=210a3b19-1ddf-4125-a3e1-4059b67ecc8f","ios":"levelo://app?vid=210a3b19-1ddf-4125-a3e1-4059b67ecc8f"},"vehicle_type_id":"4","last_reported":1744225681,"current_range_meters":12800,"station_id":"ce4bhk92rcd13ifvqgb0","pricing_plan_id":"cebpf4jnsgd1na2vs0mg"},{"bike_id":"18635cc0-fe97-486b-96ad-27997f44d843","system_id":"levelo_inurba_marseille","lat":43.272165,"lon":5.391775,"is_reserved":false,"is_disabled":false,"rental_uris":{"android":"levelo://app?vid=18635cc0-fe97-486b-96ad-27997f44d843","ios":"levelo://app?vid=18635cc0-fe97-486b-96ad-27997f44d843"},"vehicle_type_id":"4","last_reported":1744225681,"current_range_meters":13600,"station_id":"ce4bhjp2rcd13ifvqg90","pricing_plan_id":"cebpf4jnsgd1na2vs0mg"},{"bike_id":"d44ff2b9-417e-4368-bebb-1fc974db3122","system_id":"levelo_inurba_marseille","lat":43.33669,"lon":5.39762,"is_reserved":false,"is_disabled":false,"rental_uris":{"android":"levelo://app?vid=d44ff2b9-417e-4368-bebb-1fc974db3122","ios":"levelo://app?vid=d44ff2b9-417e-4368-bebb-1fc974db3122"},"vehicle_type_id":"4","last_reported":1744225681,"current_range_meters":13600,"station_id":"","pricing_plan_id":"cebpf4jnsgd1na2vs0mg"},{"bike_id":"9b79bb98-fa32-4048-99c0-2e2d2d033395","system_id":"levelo_inurba_marseille","lat":43.29102,"lon":5.38159,"is_reserved":false,"is_disabled":false,"rental_uris":{"android":"levelo://app?vid=9b79bb98-fa32-4048-99c0-2e2d2d033395","ios":"levelo://app?vid=9b79bb98-fa32-4048-99c0-2e2d2d033395"},"vehicle_type_id":"4","last_reported":1744225681,"current_range_meters":12800,"station_id":"ce4bh512rcd13ifvqe2g","pricing_plan_id":"cebpf4jnsgd1na2vs0mg"},{"bike_id":"910571f4-4962-4503-b883-b4534b9b6603","system_id":"levelo_inurba_marseille","lat":43.32297,"lon":5.38602,"is_reserved":false,"is_disabled":false,"rental_uris":{"android":"levelo://app?vid=910571f4-4962-4503-b883-b4534b9b6603","ios":"levelo://app?vid=910571f4-4962-4503-b883-b4534b9b6603"},"vehicle_type_id":"4","last_reported":1744225681,"current_range_meters":14000,"station_id":"","pricing_plan_id":"cebpf4jnsgd1na2vs0mg"},{"bike_id":"4e78f6b1-c541-4270-95bc-54b84d1371cb","system_id":"levelo_inurba_marseille","lat":43.28624,"lon":5.35085,"is_reserved":false,"is_disabled":false,"rental_uris":{"android":"levelo://app?vid=4e78f6b1-c541-4270-95bc-54b84d1371cb","ios":"levelo://app?vid=4e78f6b1-c541-4270-95bc-54b84d1371cb"},"vehicle_type_id":"4","last_reported":1744225681,"current_range_meters":14000,"station_id":"ce4bhch2rcd13ifvqeug","pricing_plan_id":"cebpf4jnsgd1na2vs0mg"},{"bike_id":"8ab6dcfc-9a38-4d9a-b92d-93ebc3289f5f","system_id":"levelo_inurba_marseille","lat":43.26066,"lon":5.39389,"is_reserved":false,"is_disabled":true,"rental_uris":{"android":"levelo://app?vid=8ab6dcfc-9a38-4d9a-b92d-93ebc3289f5f","ios":"levelo://app?vid=8ab6dcfc-9a38-4d9a-b92d-93ebc3289f5f"},"vehicle_type_id":"4","last_reported":1744225681,"current_range_meters":14000,"station_id":"ce4bhh92rcd13ifvqfj0","pricing_plan_id":"cebpf4jnsgd1na2vs0mg"},{"bike_id":"d1eaca4f-b777-4a8a-837a-a18eb99a698a","system_id":"levelo_inurba_marseille","lat":43.30648,"lon":5.40017,"is_reserved":false,"is_disabled":false,"rental_uris":{"android":"levelo://app?vid=d1eaca4f-b777-4a8a-837a-a18eb99a698a","ios":"levelo://app?vid=d1eaca4f-b777-4a8a-837a-a18eb99a698a"},"vehicle_type_id":"4","last_reported":1744225681,"current_range_meters":14400,"station_id":"ce4bh112rcd13ifvqda0","pricing_plan_id":"cebpf4jnsgd1na2vs0mg"},{"bike_id":"5154dce8-1dfa-451e-b897-845edc6aea9b","system_id":"levelo_inurba_marseille","lat":43.29769,"lon":5.37104,"is_reserved":false,"is_disabled":false,"rental_uris":{"android":"levelo://app?vid=5154dce8-1dfa-451e-b897-845edc6aea9b","ios":"levelo://app?vid=5154dce8-1dfa-451e-b897-845edc6aea9b"},"vehicle_type_id":"4","last_reported":1744225681,"current_range_meters":14400,"station_id":"ce4bgop2rcd13ifvqc1g","pricing_plan_id":"cebpf4jnsgd1na2vs0mg"},{"bike_id":"da98100a-acc0-49b0-b71c-586538fc311f","system_id":"levelo_inurba_marseille","lat":43.30327,"lon":5.40444,"is_reserved":false,"is_disabled":false,"rental_uris":{"android":"levelo://app?vid=da98100a-acc0-49b0-b71c-586538fc311f","ios":"levelo://app?vid=da98100a-acc0-49b0-b71c-586538fc311f"},"vehicle_type_id":"4","last_reported":1744225681,"current_range_meters":14400,"station_id":"ce4bh012rcd13ifvqd10","pricing_plan_id":"cebpf4jnsgd1na2vs0mg"},{"bike_id":"c369bf23-f24d-4fbc-a2a6-9db5e7f2adca","system_id":"levelo_inurba_marseille","lat":43.27611,"lon":5.3611,"is_reserved":false,"is_disabled":false,"rental_uris":{"android":"levelo://app?vid=c369bf23-f24d-4fbc-a2a6-9db5e7f2adca","ios":"levelo://app?vid=c369bf23-f24d-4fbc-a2a6-9db5e7f2adca"},"vehicle_type_id":"4","last_reported":1744225681,"current_range_meters":14400,"station_id":"ce4bgj92rcd13ifvqbe0","pricing_plan_id":"cebpf4jnsgd1na2vs0mg"},{"bike_id":"32f8a68b-2be1-4202-b589-afe78e78d940","system_id":"levelo_inurba_marseille","lat":43.26955,"lon":5.38631,"is_reserved":false,"is_disabled":false,"rental_uris":{"android":"levelo://app?vid=32f8a68b-2be1-4202-b589-afe78e78d940","ios":"levelo://app?vid=32f8a68b-2be1-4202-b589-afe78e78d940"},"vehicle_type_id":"4","last_reported":1744225681,"current_range_meters":14400,"station_id":"ce4bhh92rcd13ifvqfh0","pricing_plan_id":"cebpf4jnsgd1na2vs0mg"},{"bike_id":"ae158248-d8c1-42a9-9466-b356e48cc0e3","system_id":"levelo_inurba_marseille","lat":43.3078,"lon":5.38178,"is_reserved":false,"is_disabled":false,"rental_uris":{"android":"levelo://app?vid=ae158248-d8c1-42a9-9466-b356e48cc0e3","ios":"levelo://app?vid=ae158248-d8c1-42a9-9466-b356e48cc0e3"},"vehicle_type_id":"4","last_reported":1744225681,"current_range_meters":14400,"station_id":"ce4bgt12rcd13ifvqce0","pricing_plan_id":"cebpf4jnsgd1na2vs0mg"},{"bike_id":"7a875248-5ae0-4586-ba99-6bf01db4c327","system_id":"levelo_inurba_marseille","lat":43.29415,"lon":5.38643,"is_reserved":false,"is_disabled":false,"rental_uris":{"android":"levelo://app?vid=7a875248-5ae0-4586-ba99-6bf01db4c327","ios":"levelo://app?vid=7a875248-5ae0-4586-ba99-6bf01db4c327"},"vehicle_type_id":"4","last_reported":1744225681,"current_range_meters":14400,"station_id":"ce4bh2h2rcd13ifvqdh0","pricing_plan_id":"cebpf4jnsgd1na2vs0mg"},{"bike_id":"11151168-6e97-4df0-9c59-0c5ceb26730e","system_id":"levelo_inurba_marseille","lat":43.3027,"lon":5.40063,"is_reserved":false,"is_disabled":false,"rental_uris":{"android":"levelo://app?vid=11151168-6e97-4df0-9c59-0c5ceb26730e","ios":"levelo://app?vid=11151168-6e97-4df0-9c59-0c5ceb26730e"},"vehicle_type_id":"4","last_reported":1744225681,"current_range_meters":14400,"station_id":"ce4bgvh2rcd13ifvqcs0","pricing_plan_id":"cebpf4jnsgd1na2vs0mg"},{"bike_id":"5829cd0d-c17e-4de3-b63f-9cd151926e69","system_id":"levelo_inurba_marseille","lat":43.2959,"lon":5.36746,"is_reserved":false,"is_disabled":true,"rental_uris":{"android":"levelo://app?vid=5829cd0d-c17e-4de3-b63f-9cd151926e69","ios":"levelo://app?vid=5829cd0d-c17e-4de3-b63f-9cd151926e69"},"vehicle_type_id":"4","last_reported":1744225681,"current_range_meters":14400,"station_id":"ce4bgph2rcd13ifvqc2g","pricing_plan_id":"cebpf4jnsgd1na2vs0mg"},{"bike_id":"4372f18e-c37f-44c1-abd1-65c34fa89ebc","system_id":"levelo_inurba_marseille","lat":43.27188,"lon":5.40978,"is_reserved":false,"is_disabled":false,"rental_uris":{"android":"levelo://app?vid=4372f18e-c37f-44c1-abd1-65c34fa89ebc","ios":"levelo://app?vid=4372f18e-c37f-44c1-abd1-65c34fa89ebc"},"vehicle_type_id":"4","last_reported":1744225681,"current_range_meters":14800,"station_id":"ce4bhl12rcd13ifvqgf0","pricing_plan_id":"cebpf4jnsgd1na2vs0mg"},{"bike_id":"8d708f6d-df7e-4b8c-9703-c7e737ed86bd","system_id":"levelo_inurba_marseille","lat":43.29569,"lon":5.39993,"is_reserved":false,"is_disabled":false,"rental_uris":{"android":"levelo://app?vid=8d708f6d-df7e-4b8c-9703-c7e737ed86bd","ios":"levelo://app?vid=8d708f6d-df7e-4b8c-9703-c7e737ed86bd"},"vehicle_type_id":"4","last_reported":1744225681,"current_range_meters":14800,"station_id":"ce4bh312rcd13ifvqdj0","pricing_plan_id":"cebpf4jnsgd1na2vs0mg"},{"bike_id":"3ce3d920-dde9-4fd8-b282-79c836620424","system_id":"levelo_inurba_marseille","lat":43.281473,"lon":5.426427,"is_reserved":false,"is_disabled":false,"rental_uris":{"android":"levelo://app?vid=3ce3d920-dde9-4fd8-b282-79c836620424","ios":"levelo://app?vid=3ce3d920-dde9-4fd8-b282-79c836620424"},"vehicle_type_id":"4","last_reported":1744225681,"current_range_meters":14800,"station_id":"ce4bhnh2rcd13ifvqgug","pricing_plan_id":"cebpf4jnsgd1na2vs0mg"},{"bike_id":"4d2b5cd5-2c6c-4905-b4b8-8faa5aae631b","system_id":"levelo_inurba_marseille","lat":43.33127,"lon":5.39372,"is_reserved":false,"is_disabled":false,"rental_uris":{"android":"levelo://app?vid=4d2b5cd5-2c6c-4905-b4b8-8faa5aae631b","ios":"levelo://app?vid=4d2b5cd5-2c6c-4905-b4b8-8faa5aae631b"},"vehicle_type_id":"4","last_reported":1744225681,"current_range_meters":15200,"station_id":"","pricing_plan_id":"cebpf4jnsgd1na2vs0mg"},{"bike_id":"ac59196c-bd48-4883-af48-600f5357909f","system_id":"levelo_inurba_marseille","lat":43.30884,"lon":5.39662,"is_reserved":false,"is_disabled":false,"rental_uris":{"android":"levelo://app?vid=ac59196c-bd48-4883-af48-600f5357909f","ios":"levelo://app?vid=ac59196c-bd48-4883-af48-600f5357909f"},"vehicle_type_id":"4","last_reported":1744225681,"current_range_meters":15200,"station_id":"ce4bh012rcd13ifvqcv0","pricing_plan_id":"cebpf4jnsgd1na2vs0mg"},{"bike_id":"6ea13098-fa17-4d72-9a98-dc3e83f8f184","system_id":"levelo_inurba_marseille","lat":43.30873,"lon":5.39643,"is_reserved":false,"is_disabled":false,"rental_uris":{"android":"levelo://app?vid=6ea13098-fa17-4d72-9a98-dc3e83f8f184","ios":"levelo://app?vid=6ea13098-fa17-4d72-9a98-dc3e83f8f184"},"vehicle_type_id":"4","last_reported":1744225681,"current_range_meters":15200,"station_id":"ce4bh012rcd13ifvqcv0","pricing_plan_id":"cebpf4jnsgd1na2vs0mg"},{"bike_id":"48b4a70e-c1a2-4feb-a103-01186884391e","system_id":"levelo_inurba_marseille","lat":43.29517,"lon":5.39408,"is_reserved":false,"is_disabled":false,"rental_uris":{"android":"levelo://app?vid=48b4a70e-c1a2-4feb-a103-01186884391e","ios":"levelo://app?vid=48b4a70e-c1a2-4feb-a103-01186884391e"},"vehicle_type_id":"4","last_reported":1744225681,"current_range_meters":15200,"station_id":"ce4bh292rcd13ifvqdf0","pricing_plan_id":"cebpf4jnsgd1na2vs0mg"},{"bike_id":"3eb4db5a-216b-43d3-addc-9c000b4d9b9f","system_id":"levelo_inurba_marseille","lat":43.3089,"lon":5.39657,"is_reserved":false,"is_disabled":false,"rental_uris":{"android":"levelo://app?vid=3eb4db5a-216b-43d3-addc-9c000b4d9b9f","ios":"levelo://app?vid=3eb4db5a-216b-43d3-addc-9c000b4d9b9f"},"vehicle_type_id":"4","last_reported":1744225681,"current_range_meters":15200,"station_id":"ce4bh012rcd13ifvqcv0","pricing_plan_id":"cebpf4jnsgd1na2vs0mg"},{"bike_id":"518b713e-4dce-40f5-8183-08541e1e24d3","system_id":"levelo_inurba_marseille","lat":43.3009,"lon":5.39081,"is_reserved":false,"is_disabled":false,"rental_uris":{"android":"levelo://app?vid=518b713e-4dce-40f5-8183-08541e1e24d3","ios":"levelo://app?vid=518b713e-4dce-40f5-8183-08541e1e24d3"},"vehicle_type_id":"4","last_reported":1744225681,"current_range_meters":14800,"station_id":"ce4bh192rcd13ifvqdb0","pricing_plan_id":"cebpf4jnsgd1na2vs0mg"},{"bike_id":"3793c586-97be-4a28-9040-b70307499045","system_id":"levelo_inurba_marseille","lat":43.270683,"lon":5.407559,"is_reserved":false,"is_disabled":false,"rental_uris":{"android":"levelo://app?vid=3793c586-97be-4a28-9040-b70307499045","ios":"levelo://app?vid=3793c586-97be-4a28-9040-b70307499045"},"vehicle_type_id":"4","last_reported":1744225681,"current_range_meters":15200,"station_id":"ce4bhl12rcd13ifvqgf0","pricing_plan_id":"cebpf4jnsgd1na2vs0mg"},{"bike_id":"c07985d3-7ab9-400f-90a6-cdca7608e30e","system_id":"levelo_inurba_marseille","lat":43.248047,"lon":5.374639,"is_reserved":false,"is_disabled":false,"rental_uris":{"android":"levelo://app?vid=c07985d3-7ab9-400f-90a6-cdca7608e30e","ios":"levelo://app?vid=c07985d3-7ab9-400f-90a6-cdca7608e30e"},"vehicle_type_id":"4","last_reported":1744225681,"current_range_meters":15200,"station_id":"ce4bha12rcd13ifvqef0","pricing_plan_id":"cebpf4jnsgd1na2vs0mg"},{"bike_id":"2bafbe75-d3f9-429f-811a-466c8b635987","system_id":"levelo_inurba_marseille","lat":43.29253,"lon":5.40916,"is_reserved":false,"is_disabled":false,"rental_uris":{"android":"levelo://app?vid=2bafbe75-d3f9-429f-811a-466c8b635987","ios":"levelo://app?vid=2bafbe75-d3f9-429f-811a-466c8b635987"},"vehicle_type_id":"4","last_reported":1744225681,"current_range_meters":16000,"station_id":"ce4bh192rcd13ifvqdc0","pricing_plan_id":"cebpf4jnsgd1na2vs0mg"},{"bike_id":"39f5dca5-c7bd-400c-aa1f-66c8ec105342","system_id":"levelo_inurba_marseille","lat":43.27574,"lon":5.38415,"is_reserved":false,"is_disabled":false,"rental_uris":{"android":"levelo://app?vid=39f5dca5-c7bd-400c-aa1f-66c8ec105342","ios":"levelo://app?vid=39f5dca5-c7bd-400c-aa1f-66c8ec105342"},"vehicle_type_id":"4","last_reported":1744225681,"current_range_meters":16000,"station_id":"ce4bhh92rcd13ifvqfi0","pricing_plan_id":"cebpf4jnsgd1na2vs0mg"},{"bike_id":"934d286e-1a7a-4e88-8688-5048b50c70aa","system_id":"levelo_inurba_marseille","lat":43.27836,"lon":5.39209,"is_reserved":false,"is_disabled":false,"rental_uris":{"android":"levelo://app?vid=934d286e-1a7a-4e88-8688-5048b50c70aa","ios":"levelo://app?vid=934d286e-1a7a-4e88-8688-5048b50c70aa"},"vehicle_type_id":"4","last_reported":1744225681,"current_range_meters":16000,"station_id":"ce4bhjp2rcd13ifvqga0","pricing_plan_id":"cebpf4jnsgd1na2vs0mg"},{"bike_id":"c0caac97-a957-4f01-bd7d-413a2d6a15d7","system_id":"levelo_inurba_marseille","lat":43.24814,"lon":5.3746,"is_reserved":false,"is_disabled":false,"rental_uris":{"android":"levelo://app?vid=c0caac97-a957-4f01-bd7d-413a2d6a15d7","ios":"levelo://app?vid=c0caac97-a957-4f01-bd7d-413a2d6a15d7"},"vehicle_type_id":"4","last_reported":1744225681,"current_range_meters":16000,"station_id":"ce4bhgh2rcd13ifvqfb0","pricing_plan_id":"cebpf4jnsgd1na2vs0mg"},{"bike_id":"42c1fdc6-38af-4ea1-a910-702e15d5a9b4","system_id":"levelo_inurba_marseille","lat":43.30931,"lon":5.40172,"is_reserved":false,"is_disabled":true,"rental_uris":{"android":"levelo://app?vid=42c1fdc6-38af-4ea1-a910-702e15d5a9b4","ios":"levelo://app?vid=42c1fdc6-38af-4ea1-a910-702e15d5a9b4"},"vehicle_type_id":"4","last_reported":1744225681,"current_range_meters":16000,"station_id":"ce4bgvp2rcd13ifvqct0","pricing_plan_id":"cebpf4jnsgd1na2vs0mg"},{"bike_id":"df2354e4-9f4f-40f4-a036-6da29fa06b04","system_id":"levelo_inurba_marseille","lat":43.29736,"lon":5.36589,"is_reserved":false,"is_disabled":false,"rental_uris":{"android":"levelo://app?vid=df2354e4-9f4f-40f4-a036-6da29fa06b04","ios":"levelo://app?vid=df2354e4-9f4f-40f4-a036-6da29fa06b04"},"vehicle_type_id":"4","last_reported":1744225681,"current_range_meters":16000,"station_id":"ce4bgn12rcd13ifvqbt0","pricing_plan_id":"cebpf4jnsgd1na2vs0mg"},{"bike_id":"d589b5fe-11f6-4aed-864f-dae6b64c9adc","system_id":"levelo_inurba_marseille","lat":43.29032,"lon":5.37567,"is_reserved":false,"is_disabled":false,"rental_uris":{"android":"levelo://app?vid=d589b5fe-11f6-4aed-864f-dae6b64c9adc","ios":"levelo://app?vid=d589b5fe-11f6-4aed-864f-dae6b64c9adc"},"vehicle_type_id":"4","last_reported":1744225681,"current_range_meters":16400,"station_id":"ce4bh692rcd13ifvqe90","pricing_plan_id":"cebpf4jnsgd1na2vs0mg"},{"bike_id":"5d14c852-7d39-4daa-9337-9b008497a52a","system_id":"levelo_inurba_marseille","lat":43.2942,"lon":5.38612,"is_reserved":false,"is_disabled":true,"rental_uris":{"android":"levelo://app?vid=5d14c852-7d39-4daa-9337-9b008497a52a","ios":"levelo://app?vid=5d14c852-7d39-4daa-9337-9b008497a52a"},"vehicle_type_id":"4","last_reported":1744225681,"current_range_meters":16400,"station_id":"ce4bh2h2rcd13ifvqdh0","pricing_plan_id":"cebpf4jnsgd1na2vs0mg"},{"bike_id":"1a3cd0ab-ec77-41b3-982c-74e5093499a8","system_id":"levelo_inurba_marseille","lat":43.30451,"lon":5.38866,"is_reserved":false,"is_disabled":true,"rental_uris":{"android":"levelo://app?vid=1a3cd0ab-ec77-41b3-982c-74e5093499a8","ios":"levelo://app?vid=1a3cd0ab-ec77-41b3-982c-74e5093499a8"},