{"last_updated":1745807320,"ttl":60,"version":"2.2","data":{"bikes":[{"bike_id":"6a6ccd26-ffa8-462a-a85d-73c50a5b0858","system_id":"levelo_inurba_marseille","lat":43.319076,"lon":5.36739,"is_reserved":false,"is_disabled":true,"rental_uris":{"android":"levelo://app?vid=6a6ccd26-ffa8-462a-a85d-73c50a5b0858","ios":"levelo://app?vid=6a6ccd26-ffa8-462a-a85d-73c50a5b0858"},"vehicle_type_id":"4","last_reported":1745807321,"current_range_meters":0,"station_id":"","pricing_plan_id":"cebpf4jnsgd1na2vs0mg"},{"bike_id":"597c734b-f343-4817-8915-1b18d2927fa8","system_id":"levelo_inurba_marseille","lat":43.27033,"lon":5.42311,"is_reserved":false,"is_disabled":true,"rental_uris":{"android":"levelo://app?vid=597c734b-f343-4817-8915-1b18d2927fa8","ios":"levelo://app?vid=597c734b-f343-4817-8915-1b18d2927fa8"},"vehicle_type_id":"4","last_reported":1745807321,"current_range_meters":0,"station_id":"","pricing_plan_id":"cebpf4jnsgd1na2vs0mg"},{"bike_id":"e03e1053-abd2-4c0e-8c40-ba7b8236642b","system_id":"levelo_inurba_marseille","lat":43.300081,"lon":5.402147,"is_reserved":false,"is_disabled":true,"rental_uris":{"android":"levelo://app?vid=e03e1053-abd2-4c0e-8c40-ba7b8236642b","ios":"levelo://app?vid=e03e1053-abd2-4c0e-8c40-ba7b8236642b"},"vehicle_type_id":"4","last_reported":1745807321,"current_range_meters":0,"station_id":"","pricing_plan_id":"cebpf4jnsgd1na2vs0mg"},{"bike_id":"809e59ac-ee8e-4f79-a65e-a2fad53fd2cc","system_id":"levelo_inurba_marseille","lat":43.29763,"lon":5.40971,"is_reserved":false,"is_disabled":true,"rental_uris":{"android":"levelo://app?vid=809e59ac-ee8e-4f79-a65e-a2fad53fd2cc","ios":"levelo://app?vid=809e59ac-ee8e-4f79-a65e-a2fad53fd2cc"},"vehicle_type_id":"4","last_reported":1745807321,"current_range_meters":0,"station_id":"","pricing_plan_id":"cebpf4jnsgd1na2vs0mg"},{"bike_id":"0b9a7af0-bb1e-499e-9cef-5ca1f43db2fe","system_id":"levelo_inurba_marseille","lat":43.31115,"lon":5.37156,"is_reserved":false,"is_disabled":true,"rental_uris":{"android":"levelo://app?vid=0b9a7af0-bb1e-499e-9cef-5ca1f43db2fe","ios":"levelo://app?vid=0b9a7af0-bb1e-499e-9cef-5ca1f43db2fe"},"vehicle_type_id":"4","last_reported":1745807321,"current_range_meters":0,"station_id":"","pricing_plan_id":"cebpf4jnsgd1na2vs0mg"},{"bike_id":"c5251972-d279-4ec2-bcf1-956c2d9d91f3","system_id":"levelo_inurba_marseille","lat":43.22499,"lon":5.34811,"is_reserved":false,"is_disabled":true,"rental_uris":{"android":"levelo://app?vid=c5251972-d279-4ec2-bcf1-956c2d9d91f3","ios":"levelo://app?vid=c5251972-d279-4ec2-bcf1-956c2d9d91f3"},"vehicle_type_id":"4","last_reported":1745807321,"current_range_meters":0,"station_id":"st_cvj5dfep6f1abm77gieg","pricing_plan_id":"cebpf4jnsgd1na2vs0mg"},{"bike_id":"042a36cf-a68c-4f02-8fbe-a3d4f36fa492","system_id":"levelo_inurba_marseille","lat":43.21217,"lon":5.35079,"is_reserved":false,"is_disabled":false,"rental_uris":{"android":"levelo://app?vid=042a36cf-a68c-4f02-8fbe-a3d4f36fa492","ios":"levelo://app?vid=042a36cf-a68c-4f02-8fbe-a3d4f36fa492"},"vehicle_type_id":"4","last_reported":1745807321,"current_range_meters":4800,"station_id":"st_cvj6sg6p6f1abm77japg","pricing_plan_id":"cebpf4jnsgd1na2vs0mg"},{"bike_id":"c1b1b433-bcb9-4a7d-8963-3218bcdcba1e","system_id":"levelo_inurba_marseille","lat":43.23375,"lon":5.36086,"is_reserved":false,"is_disabled":false,"rental_uris":{"android":"levelo://app?vid=c1b1b433-bcb9-4a7d-8963-3218bcdcba1e","ios":"levelo://app?vid=c1b1b433-bcb9-4a7d-8963-3218bcdcba1e"},"vehicle_type_id":"4","last_reported":1745807321,"current_range_meters":6000,"station_id":"","pricing_plan_id":"cebpf4jnsgd1na2vs0mg"},{"bike_id":"b203106f-15ad-4224-a9bb-aef6d708468c","system_id":"levelo_inurba_marseille","lat":43.275007,"lon":5.424491,"is_reserved":false,"is_disabled":false,"rental_uris":{"android":"levelo://app?vid=b203106f-15ad-4224-a9bb-aef6d708468c","ios":"levelo://app?vid=b203106f-15ad-4224-a9bb-aef6d708468c"},"vehicle_type_id":"4","last_reported":1745807321,"current_range_meters":6000,"station_id":"ce4bhn92rcd13ifvqgrg","pricing_plan_id":"cebpf4jnsgd1na2vs0mg"},{"bike_id":"cfedda18-f895-49da-bc3d-8d22c0dd79d7","system_id":"levelo_inurba_marseille","lat":43.25695,"lon":5.41149,"is_reserved":false,"is_disabled":false,"rental_uris":{"android":"levelo://app?vid=cfedda18-f895-49da-bc3d-8d22c0dd79d7","ios":"levelo://app?vid=cfedda18-f895-49da-bc3d-8d22c0dd79d7"},"vehicle_type_id":"4","last_reported":1745807321,"current_range_meters":6400,"station_id":"ce4bhkp2rcd13ifvqgd0","pricing_plan_id":"cebpf4jnsgd1na2vs0mg"},{"bike_id":"284efe7b-2e61-45b1-a1e4-7089a3b3d2dd","system_id":"levelo_inurba_marseille","lat":43.25944,"lon":5.40901,"is_reserved":false,"is_disabled":false,"rental_uris":{"android":"levelo://app?vid=284efe7b-2e61-45b1-a1e4-7089a3b3d2dd","ios":"levelo://app?vid=284efe7b-2e61-45b1-a1e4-7089a3b3d2dd"},"vehicle_type_id":"4","last_reported":1745807321,"current_range_meters":6400,"station_id":"ce4bhm92rcd13ifvqglg","pricing_plan_id":"cebpf4jnsgd1na2vs0mg"},{"bike_id":"b4ab71dc-7ecc-4fcb-bfaf-2cb4e735be46","system_id":"levelo_inurba_marseille","lat":43.241728,"lon":5.397305,"is_reserved":false,"is_disabled":false,"rental_uris":{"android":"levelo://app?vid=b4ab71dc-7ecc-4fcb-bfaf-2cb4e735be46","ios":"levelo://app?vid=b4ab71dc-7ecc-4fcb-bfaf-2cb4e735be46"},"vehicle_type_id":"4","last_reported":1745807321,"current_range_meters":6400,"station_id":"ce4bhn12rcd13ifvqgpg","pricing_plan_id":"cebpf4jnsgd1na2vs0mg"},{"bike_id":"d9d42592-3084-4d0e-9bdc-dde1c8c2459a","system_id":"levelo_inurba_marseille","lat":43.23186,"lon":5.39996,"is_reserved":false,"is_disabled":false,"rental_uris":{"android":"levelo://app?vid=d9d42592-3084-4d0e-9bdc-dde1c8c2459a","ios":"levelo://app?vid=d9d42592-3084-4d0e-9bdc-dde1c8c2459a"},"vehicle_type_id":"4","last_reported":1745807321,"current_range_meters":6400,"station_id":"ce4bhn12rcd13ifvqgqg","pricing_plan_id":"cebpf4jnsgd1na2vs0mg"},{"bike_id":"4f237f57-7e6d-4454-a0e6-195d0a8fae7b","system_id":"levelo_inurba_marseille","lat":43.32456,"lon":5.43865,"is_reserved":false,"is_disabled":false,"rental_uris":{"android":"levelo://app?vid=4f237f57-7e6d-4454-a0e6-195d0a8fae7b","ios":"levelo://app?vid=4f237f57-7e6d-4454-a0e6-195d0a8fae7b"},"vehicle_type_id":"4","last_reported":1745807321,"current_range_meters":6800,"station_id":"","pricing_plan_id":"cebpf4jnsgd1na2vs0mg"},{"bike_id":"23409f09-a128-4d95-aaca-9870edcbab46","system_id":"levelo_inurba_marseille","lat":43.30088,"lon":5.390786,"is_reserved":false,"is_disabled":false,"rental_uris":{"android":"levelo://app?vid=23409f09-a128-4d95-aaca-9870edcbab46","ios":"levelo://app?vid=23409f09-a128-4d95-aaca-9870edcbab46"},"vehicle_type_id":"4","last_reported":1745807321,"current_range_meters":6800,"station_id":"ce4bh192rcd13ifvqdb0","pricing_plan_id":"cebpf4jnsgd1na2vs0mg"},{"bike_id":"cf6ec47c-bcb7-43da-a2f5-7144fabd8db5","system_id":"levelo_inurba_marseille","lat":43.23152,"lon":5.4372,"is_reserved":false,"is_disabled":false,"rental_uris":{"android":"levelo://app?vid=cf6ec47c-bcb7-43da-a2f5-7144fabd8db5","ios":"levelo://app?vid=cf6ec47c-bcb7-43da-a2f5-7144fabd8db5"},"vehicle_type_id":"4","last_reported":1745807321,"current_range_meters":6800,"station_id":"ce4bhmp2rcd13ifvqgog","pricing_plan_id":"cebpf4jnsgd1na2vs0mg"},{"bike_id":"49567d34-daf3-413f-837e-ee3ec76e01ef","system_id":"levelo_inurba_marseille","lat":43.24999,"lon":5.38961,"is_reserved":false,"is_disabled":false,"rental_uris":{"android":"levelo://app?vid=49567d34-daf3-413f-837e-ee3ec76e01ef","ios":"levelo://app?vid=49567d34-daf3-413f-837e-ee3ec76e01ef"},"vehicle_type_id":"4","last_reported":1745807321,"current_range_meters":7200,"station_id":"ce4bhgp2rcd13ifvqfd0","pricing_plan_id":"cebpf4jnsgd1na2vs0mg"},{"bike_id":"647eceb0-396c-4b66-9b6a-15942a39bd89","system_id":"levelo_inurba_marseille","lat":43.24121,"lon":5.36433,"is_reserved":false,"is_disabled":false,"rental_uris":{"android":"levelo://app?vid=647eceb0-396c-4b66-9b6a-15942a39bd89","ios":"levelo://app?vid=647eceb0-396c-4b66-9b6a-15942a39bd89"},"vehicle_type_id":"4","last_reported":1745807321,"current_range_meters":7200,"station_id":"cpo36qri1sfpv3e86is0","pricing_plan_id":"cebpf4jnsgd1na2vs0mg"},{"bike_id":"721ac694-ddc1-45a4-93fe-2aef08d4b564","system_id":"levelo_inurba_marseille","lat":43.24172,"lon":5.36404,"is_reserved":false,"is_disabled":false,"rental_uris":{"android":"levelo://app?vid=721ac694-ddc1-45a4-93fe-2aef08d4b564","ios":"levelo://app?vid=721ac694-ddc1-45a4-93fe-2aef08d4b564"},"vehicle_type_id":"4","last_reported":1745807321,"current_range_meters":7200,"station_id":"cpo36qri1sfpv3e86is0","pricing_plan_id":"cebpf4jnsgd1na2vs0mg"},{"bike_id":"d207e63a-1126-4002-8817-099b9155cf2f","system_id":"levelo_inurba_marseille","lat":43.26167,"lon":5.37953,"is_reserved":false,"is_disabled":false,"rental_uris":{"android":"levelo://app?vid=d207e63a-1126-4002-8817-099b9155cf2f","ios":"levelo://app?vid=d207e63a-1126-4002-8817-099b9155cf2f"},"vehicle_type_id":"4","last_reported":1745807321,"current_range_meters":8000,"station_id":"ce4bhjp2rcd13ifvqg90","pricing_plan_id":"cebpf4jnsgd1na2vs0mg"},{"bike_id":"d0cf06dd-3f0a-4b7a-8ff4-c5b13d37b8f6","system_id":"levelo_inurba_marseille","lat":43.29427,"lon":5.39773,"is_reserved":false,"is_disabled":false,"rental_uris":{"android":"levelo://app?vid=d0cf06dd-3f0a-4b7a-8ff4-c5b13d37b8f6","ios":"levelo://app?vid=d0cf06dd-3f0a-4b7a-8ff4-c5b13d37b8f6"},"vehicle_type_id":"4","last_reported":1745807321,"current_range_meters":8400,"station_id":"ce4bh3h2rcd13ifvqdo0","pricing_plan_id":"cebpf4jnsgd1na2vs0mg"},{"bike_id":"c1faacd0-1f5b-4c1f-996a-7cfb70349eca","system_id":"levelo_inurba_marseille","lat":43.25717,"lon":5.411153,"is_reserved":false,"is_disabled":false,"rental_uris":{"android":"levelo://app?vid=c1faacd0-1f5b-4c1f-996a-7cfb70349eca","ios":"levelo://app?vid=c1faacd0-1f5b-4c1f-996a-7cfb70349eca"},"vehicle_type_id":"4","last_reported":1745807321,"current_range_meters":8400,"station_id":"ce4bhkp2rcd13ifvqgd0","pricing_plan_id":"cebpf4jnsgd1na2vs0mg"},{"bike_id":"7285c221-847b-46d9-b086-1b7053cfaa3d","system_id":"levelo_inurba_marseille","lat":43.241774,"lon":5.397201,"is_reserved":false,"is_disabled":false,"rental_uris":{"android":"levelo://app?vid=7285c221-847b-46d9-b086-1b7053cfaa3d","ios":"levelo://app?vid=7285c221-847b-46d9-b086-1b7053cfaa3d"},"vehicle_type_id":"4","last_reported":1745807321,"current_range_meters":8400,"station_id":"ce4bhn12rcd13ifvqgpg","pricing_plan_id":"cebpf4jnsgd1na2vs0mg"},{"bike_id":"0a9ce590-55b9-45e9-9435-54ff11ab8d7a","system_id":"levelo_inurba_marseille","lat":43.31352,"lon":5.38492,"is_reserved":false,"is_disabled":false,"rental_uris":{"android":"levelo://app?vid=0a9ce590-55b9-45e9-9435-54ff11ab8d7a","ios":"levelo://app?vid=0a9ce590-55b9-45e9-9435-54ff11ab8d7a"},"vehicle_type_id":"4","last_reported":1745807321,"current_range_meters":8800,"station_id":"ce4bgt92rcd13ifvqcf0","pricing_plan_id":"cebpf4jnsgd1na2vs0mg"},{"bike_id":"b9573801-f8cd-450a-943a-86a4083bccfa","system_id":"levelo_inurba_marseille","lat":43.25114,"lon":5.40318,"is_reserved":false,"is_disabled":false,"rental_uris":{"android":"levelo://app?vid=b9573801-f8cd-450a-943a-86a4083bccfa","ios":"levelo://app?vid=b9573801-f8cd-450a-943a-86a4083bccfa"},"vehicle_type_id":"4","last_reported":1745807321,"current_range_meters":8800,"station_id":"ce4bhlh2rcd13ifvqgig","pricing_plan_id":"cebpf4jnsgd1na2vs0mg"},{"bike_id":"554c7222-d609-4841-a832-33adb157bebb","system_id":"levelo_inurba_marseille","lat":43.21186,"lon":5.35092,"is_reserved":false,"is_disabled":false,"rental_uris":{"android":"levelo://app?vid=554c7222-d609-4841-a832-33adb157bebb","ios":"levelo://app?vid=554c7222-d609-4841-a832-33adb157bebb"},"vehicle_type_id":"4","last_reported":1745807321,"current_range_meters":8800,"station_id":"st_cvj6sg6p6f1abm77japg","pricing_plan_id":"cebpf4jnsgd1na2vs0mg"},{"bike_id":"91474842-32bf-45c2-856a-80fd91d22aa5","system_id":"levelo_inurba_marseille","lat":43.21206,"lon":5.35056,"is_reserved":false,"is_disabled":false,"rental_uris":{"android":"levelo://app?vid=91474842-32bf-45c2-856a-80fd91d22aa5","ios":"levelo://app?vid=91474842-32bf-45c2-856a-80fd91d22aa5"},"vehicle_type_id":"4","last_reported":1745807321,"current_range_meters":8800,"station_id":"st_cvj6sg6p6f1abm77japg","pricing_plan_id":"cebpf4jnsgd1na2vs0mg"},{"bike_id":"470d2f4f-18f9-40aa-a6ee-c93cc79026b0","system_id":"levelo_inurba_marseille","lat":43.30323,"lon":5.40441,"is_reserved":false,"is_disabled":false,"rental_uris":{"android":"levelo://app?vid=470d2f4f-18f9-40aa-a6ee-c93cc79026b0","ios":"levelo://app?vid=470d2f4f-18f9-40aa-a6ee-c93cc79026b0"},"vehicle_type_id":"4","last_reported":1745807321,"current_range_meters":9200,"station_id":"ce4bh012rcd13ifvqd10","pricing_plan_id":"cebpf4jnsgd1na2vs0mg"},{"bike_id":"76316d19-5943-4847-b0e7-ad2cbc1d3155","system_id":"levelo_inurba_marseille","lat":43.2846,"lon":5.359,"is_reserved":false,"is_disabled":false,"rental_uris":{"android":"levelo://app?vid=76316d19-5943-4847-b0e7-ad2cbc1d3155","ios":"levelo://app?vid=76316d19-5943-4847-b0e7-ad2cbc1d3155"},"vehicle_type_id":"4","last_reported":1745807321,"current_range_meters":9200,"station_id":"ce4bhah2rcd13ifvqei0","pricing_plan_id":"cebpf4jnsgd1na2vs0mg"},{"bike_id":"30288cb7-e849-4b02-8ab1-96deccfd974f","system_id":"levelo_inurba_marseille","lat":43.23966,"lon":5.36633,"is_reserved":false,"is_disabled":false,"rental_uris":{"android":"levelo://app?vid=30288cb7-e849-4b02-8ab1-96deccfd974f","ios":"levelo://app?vid=30288cb7-e849-4b02-8ab1-96deccfd974f"},"vehicle_type_id":"4","last_reported":1745807321,"current_range_meters":9200,"station_id":"ce4bhi12rcd13ifvqfp0","pricing_plan_id":"cebpf4jnsgd1na2vs0mg"},{"bike_id":"78489e0f-0b4a-4de4-938c-aa05f1951ddd","system_id":"levelo_inurba_marseille","lat":43.28149,"lon":5.42659,"is_reserved":false,"is_disabled":false,"rental_uris":{"android":"levelo://app?vid=78489e0f-0b4a-4de4-938c-aa05f1951ddd","ios":"levelo://app?vid=78489e0f-0b4a-4de4-938c-aa05f1951ddd"},"vehicle_type_id":"4","last_reported":1745807321,"current_range_meters":9200,"station_id":"ce4bhnh2rcd13ifvqgug","pricing_plan_id":"cebpf4jnsgd1na2vs0mg"},{"bike_id":"980a0cb2-d545-4925-bccb-f686b0fe7d5a","system_id":"levelo_inurba_marseille","lat":43.29259,"lon":5.408973,"is_reserved":false,"is_disabled":false,"rental_uris":{"android":"levelo://app?vid=980a0cb2-d545-4925-bccb-f686b0fe7d5a","ios":"levelo://app?vid=980a0cb2-d545-4925-bccb-f686b0fe7d5a"},"vehicle_type_id":"4","last_reported":1745807321,"current_range_meters":9600,"station_id":"ce4bh192rcd13ifvqdc0","pricing_plan_id":"cebpf4jnsgd1na2vs0mg"},{"bike_id":"42714ffe-c42c-407f-8e86-4a0c4f465a7a","system_id":"levelo_inurba_marseille","lat":43.24543,"lon":5.39536,"is_reserved":false,"is_disabled":false,"rental_uris":{"android":"levelo://app?vid=42714ffe-c42c-407f-8e86-4a0c4f465a7a","ios":"levelo://app?vid=42714ffe-c42c-407f-8e86-4a0c4f465a7a"},"vehicle_type_id":"4","last_reported":1745807321,"current_range_meters":9600,"station_id":"ce4bhlp2rcd13ifvqgjg","pricing_plan_id":"cebpf4jnsgd1na2vs0mg"},{"bike_id":"44530a1d-b48a-47f5-a929-63b20a3c24dc","system_id":"levelo_inurba_marseille","lat":43.24171,"lon":5.36419,"is_reserved":false,"is_disabled":false,"rental_uris":{"android":"levelo://app?vid=44530a1d-b48a-47f5-a929-63b20a3c24dc","ios":"levelo://app?vid=44530a1d-b48a-47f5-a929-63b20a3c24dc"},"vehicle_type_id":"4","last_reported":1745807321,"current_range_meters":9600,"station_id":"cpo36qri1sfpv3e86is0","pricing_plan_id":"cebpf4jnsgd1na2vs0mg"},{"bike_id":"8235d872-096e-497c-a719-c2fcbf16281e","system_id":"levelo_inurba_marseille","lat":43.24653,"lon":5.38893,"is_reserved":false,"is_disabled":false,"rental_uris":{"android":"levelo://app?vid=8235d872-096e-497c-a719-c2fcbf16281e","ios":"levelo://app?vid=8235d872-096e-497c-a719-c2fcbf16281e"},"vehicle_type_id":"4","last_reported":1745807321,"current_range_meters":10000,"station_id":"ce4bhg12rcd13ifvqf60","pricing_plan_id":"cebpf4jnsgd1na2vs0mg"},{"bike_id":"a2e988ca-4cad-46d4-8096-1d1b1de4b0e4","system_id":"levelo_inurba_marseille","lat":43.32367,"lon":5.36765,"is_reserved":false,"is_disabled":false,"rental_uris":{"android":"levelo://app?vid=a2e988ca-4cad-46d4-8096-1d1b1de4b0e4","ios":"levelo://app?vid=a2e988ca-4cad-46d4-8096-1d1b1de4b0e4"},"vehicle_type_id":"4","last_reported":1745807321,"current_range_meters":10000,"station_id":"ce4bhsh2rcd13ifvqi2g","pricing_plan_id":"cebpf4jnsgd1na2vs0mg"},{"bike_id":"3ccac05c-9dfe-40ab-8170-c07c58eafdc3","system_id":"levelo_inurba_marseille","lat":43.26236,"lon":5.40471,"is_reserved":false,"is_disabled":false,"rental_uris":{"android":"levelo://app?vid=3ccac05c-9dfe-40ab-8170-c07c58eafdc3","ios":"levelo://app?vid=3ccac05c-9dfe-40ab-8170-c07c58eafdc3"},"vehicle_type_id":"4","last_reported":1745807321,"current_range_meters":10800,"station_id":"ce4bhmh2rcd13ifvqgmg","pricing_plan_id":"cebpf4jnsgd1na2vs0mg"},{"bike_id":"6303aeb8-901b-4f8f-8588-7c345791c8ea","system_id":"levelo_inurba_marseille","lat":43.247414,"lon":5.411818,"is_reserved":false,"is_disabled":false,"rental_uris":{"android":"levelo://app?vid=6303aeb8-901b-4f8f-8588-7c345791c8ea","ios":"levelo://app?vid=6303aeb8-901b-4f8f-8588-7c345791c8ea"},"vehicle_type_id":"4","last_reported":1745807321,"current_range_meters":11200,"station_id":"","pricing_plan_id":"cebpf4jnsgd1na2vs0mg"},{"bike_id":"6e7a0261-66ff-4ef0-9e0a-3171efd10510","system_id":"levelo_inurba_marseille","lat":43.25581,"lon":5.3824,"is_reserved":false,"is_disabled":false,"rental_uris":{"android":"levelo://app?vid=6e7a0261-66ff-4ef0-9e0a-3171efd10510","ios":"levelo://app?vid=6e7a0261-66ff-4ef0-9e0a-3171efd10510"},"vehicle_type_id":"4","last_reported":1745807321,"current_range_meters":11200,"station_id":"ce4bhih2rcd13ifvqfs0","pricing_plan_id":"cebpf4jnsgd1na2vs0mg"},{"bike_id":"9d4d8b2b-5202-49f6-afbb-79cd96acce1d","system_id":"levelo_inurba_marseille","lat":43.28853,"lon":5.393165,"is_reserved":false,"is_disabled":false,"rental_uris":{"android":"levelo://app?vid=9d4d8b2b-5202-49f6-afbb-79cd96acce1d","ios":"levelo://app?vid=9d4d8b2b-5202-49f6-afbb-79cd96acce1d"},"vehicle_type_id":"4","last_reported":1745807321,"current_range_meters":11600,"station_id":"ce4bh2p2rcd13ifvqdi0","pricing_plan_id":"cebpf4jnsgd1na2vs0mg"},{"bike_id":"03bd42f6-231b-41f0-967c-979162658d23","system_id":"levelo_inurba_marseille","lat":43.24651,"lon":5.38184,"is_reserved":false,"is_disabled":false,"rental_uris":{"android":"levelo://app?vid=03bd42f6-231b-41f0-967c-979162658d23","ios":"levelo://app?vid=03bd42f6-231b-41f0-967c-979162658d23"},"vehicle_type_id":"4","last_reported":1745807321,"current_range_meters":11600,"station_id":"ce4bhih2rcd13ifvqfr0","pricing_plan_id":"cebpf4jnsgd1na2vs0mg"},{"bike_id":"3d934169-6946-46cc-87a4-ce5d03b77075","system_id":"levelo_inurba_marseille","lat":43.21764,"lon":5.34607,"is_reserved":false,"is_disabled":false,"rental_uris":{"android":"levelo://app?vid=3d934169-6946-46cc-87a4-ce5d03b77075","ios":"levelo://app?vid=3d934169-6946-46cc-87a4-ce5d03b77075"},"vehicle_type_id":"4","last_reported":1745807321,"current_range_meters":11600,"station_id":"st_cvj6r9ubvosntc0bgbag","pricing_plan_id":"cebpf4jnsgd1na2vs0mg"},{"bike_id":"0d777af5-4166-475a-a6b9-6a0197032592","system_id":"levelo_inurba_marseille","lat":43.23259,"lon":5.35213,"is_reserved":false,"is_disabled":false,"rental_uris":{"android":"levelo://app?vid=0d777af5-4166-475a-a6b9-6a0197032592","ios":"levelo://app?vid=0d777af5-4166-475a-a6b9-6a0197032592"},"vehicle_type_id":"4","last_reported":1745807321,"current_range_meters":12000,"station_id":"","pricing_plan_id":"cebpf4jnsgd1na2vs0mg"},{"bike_id":"06b75956-2687-4df9-b215-943b6923c19a","system_id":"levelo_inurba_marseille","lat":43.29259,"lon":5.40907,"is_reserved":false,"is_disabled":false,"rental_uris":{"android":"levelo://app?vid=06b75956-2687-4df9-b215-943b6923c19a","ios":"levelo://app?vid=06b75956-2687-4df9-b215-943b6923c19a"},"vehicle_type_id":"4","last_reported":1745807321,"current_range_meters":12000,"station_id":"ce4bh192rcd13ifvqdc0","pricing_plan_id":"cebpf4jnsgd1na2vs0mg"},{"bike_id":"44340736-56d7-476e-8588-833b330433aa","system_id":"levelo_inurba_marseille","lat":43.28474,"lon":5.35879,"is_reserved":false,"is_disabled":false,"rental_uris":{"android":"levelo://app?vid=44340736-56d7-476e-8588-833b330433aa","ios":"levelo://app?vid=44340736-56d7-476e-8588-833b330433aa"},"vehicle_type_id":"4","last_reported":1745807321,"current_range_meters":12000,"station_id":"ce4bhah2rcd13ifvqei0","pricing_plan_id":"cebpf4jnsgd1na2vs0mg"},{"bike_id":"3a329fe9-deb6-4729-bbed-973ea17872b9","system_id":"levelo_inurba_marseille","lat":43.251192,"lon":5.403205,"is_reserved":false,"is_disabled":false,"rental_uris":{"android":"levelo://app?vid=3a329fe9-deb6-4729-bbed-973ea17872b9","ios":"levelo://app?vid=3a329fe9-deb6-4729-bbed-973ea17872b9"},"vehicle_type_id":"4","last_reported":1745807321,"current_range_meters":12400,"station_id":"ce4bhlh2rcd13ifvqgig","pricing_plan_id":"cebpf4jnsgd1na2vs0mg"},{"bike_id":"d4ce7eab-d2e5-4dd9-bd61-f458b6331907","system_id":"levelo_inurba_marseille","lat":43.31358,"lon":5.38512,"is_reserved":false,"is_disabled":false,"rental_uris":{"android":"levelo://app?vid=d4ce7eab-d2e5-4dd9-bd61-f458b6331907","ios":"levelo://app?vid=d4ce7eab-d2e5-4dd9-bd61-f458b6331907"},"vehicle_type_id":"4","last_reported":1745807321,"current_range_meters":12800,"station_id":"ce4bgt92rcd13ifvqcf0","pricing_plan_id":"cebpf4jnsgd1na2vs0mg"},{"bike_id":"45d09500-4580-4832-b2a0-d173ab8318b9","system_id":"levelo_inurba_marseille","lat":43.32478,"lon":5.36573,"is_reserved":false,"is_disabled":false,"rental_uris":{"android":"levelo://app?vid=45d09500-4580-4832-b2a0-d173ab8318b9","ios":"levelo://app?vid=45d09500-4580-4832-b2a0-d173ab8318b9"},"vehicle_type_id":"4","last_reported":1745807321,"current_range_meters":13600,"station_id":"ce4bhs12rcd13ifvqhvg","pricing_plan_id":"cebpf4jnsgd1na2vs0mg"},{"bike_id":"f17b8bc9-cb61-461c-a30c-7a4a35ea4852","system_id":"levelo_inurba_marseille","lat":43.28461,"lon":5.35888,"is_reserved":false,"is_disabled":false,"rental_uris":{"android":"levelo://app?vid=f17b8bc9-cb61-461c-a30c-7a4a35ea4852","ios":"levelo://app?vid=f17b8bc9-cb61-461c-a30c-7a4a35ea4852"},"vehicle_type_id":"4","last_reported":1745807321,"current_range_meters":14000,"station_id":"ce4bhah2rcd13ifvqei0","pricing_plan_id":"cebpf4jnsgd1na2vs0mg"},{"bike_id":"9979a00e-2e44-430d-a52a-2c59b70df091","system_id":"levelo_inurba_marseille","lat":43.23184,"lon":5.40007,"is_reserved":false,"is_disabled":false,"rental_uris":{"android":"levelo://app?vid=9979a00e-2e44-430d-a52a-2c59b70df091","ios":"levelo://app?vid=9979a00e-2e44-430d-a52a-2c59b70df091"},"vehicle_type_id":"4","last_reported":1745807321,"current_range_meters":14000,"station_id":"ce4bhn12rcd13ifvqgqg","pricing_plan_id":"cebpf4jnsgd1na2vs0mg"},{"bike_id":"4046a82f-66e8-4b55-bd0a-356edea772d8","system_id":"levelo_inurba_marseille","lat":43.30604,"lon":5.38176,"is_reserved":false,"is_disabled":false,"rental_uris":{"android":"levelo://app?vid=4046a82f-66e8-4b55-bd0a-356edea772d8","ios":"levelo://app?vid=4046a82f-66e8-4b55-bd0a-356edea772d8"},"vehicle_type_id":"4","last_reported":1745807321,"current_range_meters":14400,"station_id":"","pricing_plan_id":"cebpf4jnsgd1na2vs0mg"},{"bike_id":"647355cc-822f-41e4-b0fe-856d5a69a337","system_id":"levelo_inurba_marseille","lat":43.21193,"lon":5.35064,"is_reserved":false,"is_disabled":false,"rental_uris":{"android":"levelo://app?vid=647355cc-822f-41e4-b0fe-856d5a69a337","ios":"levelo://app?vid=647355cc-822f-41e4-b0fe-856d5a69a337"},"vehicle_type_id":"4","last_reported":1745807321,"current_range_meters":14400,"station_id":"st_cvj6sg6p6f1abm77japg","pricing_plan_id":"cebpf4jnsgd1na2vs0mg"},{"bike_id":"97fd7a4c-36e8-401d-b12d-1b4015a01ebe","system_id":"levelo_inurba_marseille","lat":43.2654,"lon":5.42195,"is_reserved":false,"is_disabled":false,"rental_uris":{"android":"levelo://app?vid=97fd7a4c-36e8-401d-b12d-1b4015a01ebe","ios":"levelo://app?vid=97fd7a4c-36e8-401d-b12d-1b4015a01ebe"},"vehicle_type_id":"4","last_reported":1745807321,"current_range_meters":14800,"station_id":"","pricing_plan_id":"cebpf4jnsgd1na2vs0mg"},{"bike_id":"7d4859bb-6fe0-424f-a942-9c856aafc025","system_id":"levelo_inurba_marseille","lat":43.31489,"lon":5.37298,"is_reserved":false,"is_disabled":false,"rental_uris":{"android":"levelo://app?vid=7d4859bb-6fe0-424f-a942-9c856aafc025","ios":"levelo://app?vid=7d4859bb-6fe0-424f-a942-9c856aafc025"},"vehicle_type_id":"4","last_reported":1745807321,"current_range_meters":14800,"station_id":"ce4bgt12rcd13ifvqcd0","pricing_plan_id":"cebpf4jnsgd1na2vs0mg"},{"bike_id":"5debd579-c045-4892-a39c-8ac3bb501315","system_id":"levelo_inurba_marseille","lat":43.284108,"lon":5.375117,"is_reserved":false,"is_disabled":false,"rental_uris":{"android":"levelo://app?vid=5debd579-c045-4892-a39c-8ac3bb501315","ios":"levelo://app?vid=5debd579-c045-4892-a39c-8ac3bb501315"},"vehicle_type_id":"4","last_reported":1745807321,"current_range_meters":14800,"station_id":"ce4bh412rcd13ifvqds0","pricing_plan_id":"cebpf4jnsgd1na2vs0mg"},{"bike_id":"4de6f493-e285-48e2-b411-17ea7eea5c29","system_id":"levelo_inurba_marseille","lat":43.32359,"lon":5.38886,"is_reserved":false,"is_disabled":false,"rental_uris":{"android":"levelo://app?vid=4de6f493-e285-48e2-b411-17ea7eea5c29","ios":"levelo://app?vid=4de6f493-e285-48e2-b411-17ea7eea5c29"},"vehicle_type_id":"4","last_reported":1745807321,"current_range_meters":14800,"station_id":"ce4bhqp2rcd13ifvqhog","pricing_plan_id":"cebpf4jnsgd1na2vs0mg"},{"bike_id":"fbe5fa9c-e8fb-46cf-9f80-4c4dab68ff13","system_id":"levelo_inurba_marseille","lat":43.32469,"lon":5.36595,"is_reserved":false,"is_disabled":false,"rental_uris":{"android":"levelo://app?vid=fbe5fa9c-e8fb-46cf-9f80-4c4dab68ff13","ios":"levelo://app?vid=fbe5fa9c-e8fb-46cf-9f80-4c4dab68ff13"},"vehicle_type_id":"4","last_reported":1745807321,"current_range_meters":14800,"station_id":"ce4bhs12rcd13ifvqhvg","pricing_plan_id":"cebpf4jnsgd1na2vs0mg"},{"bike_id":"3d3d2912-5a45-4ddf-bd41-f85c707436c3","system_id":"levelo_inurba_marseille","lat":43.23193,"lon":5.3555,"is_reserved":false,"is_disabled":false,"rental_uris":{"android":"levelo://app?vid=3d3d2912-5a45-4ddf-bd41-f85c707436c3","ios":"levelo://app?vid=3d3d2912-5a45-4ddf-bd41-f85c707436c3"},"vehicle_type_id":"4","last_reported":1745807321,"current_range_meters":14800,"station_id":"ce4bhu92rcd13ifvqi70","pricing_plan_id":"cebpf4jnsgd1na2vs0mg"},{"bike_id":"d003d4c2-e712-4b4b-a918-2cf2a97cd6d4","system_id":"levelo_inurba_marseille","lat":43.29199,"lon":5.39316,"is_reserved":false,"is_disabled":false,"rental_uris":{"android":"levelo://app?vid=d003d4c2-e712-4b4b-a918-2cf2a97cd6d4","ios":"levelo://app?vid=d003d4c2-e712-4b4b-a918-2cf2a97cd6d4"},"vehicle_type_id":"4","last_reported":1745807321,"current_range_meters":15200,"station_id":"ce4bh192rcd13ifvqdd0","pricing_plan_id":"cebpf4jnsgd1na2vs0mg"},{"bike_id":"e492037e-60a9-4864-84d6-2fe9ea031f90","system_id":"levelo_inurba_marseille","lat":43.27977,"lon":5.38742,"is_reserved":false,"is_disabled":false,"rental_uris":{"android":"levelo://app?vid=e492037e-60a9-4864-84d6-2fe9ea031f90","ios":"levelo://app?vid=e492037e-60a9-4864-84d6-2fe9ea031f90"},"vehicle_type_id":"4","last_reported":1745807321,"current_range_meters":15200,"station_id":"ce4bhg12rcd13ifvqf80","pricing_plan_id":"cebpf4jnsgd1na2vs0mg"},{"bike_id":"13b849e7-ec86-4245-aa21-287dc6e1e5ba","system_id":"levelo_inurba_marseille","lat":43.2512,"lon":5.40362,"is_reserved":false,"is_disabled":false,"rental_uris":{"android":"levelo://app?vid=13b849e7-ec86-4245-aa21-287dc6e1e5ba","ios":"levelo://app?vid=13b849e7-ec86-4245-aa21-287dc6e1e5ba"},"vehicle_type_id":"4","last_reported":1745807321,"current_range_meters":15200,"station_id":"ce4bhlh2rcd13ifvqgig","pricing_plan_id":"cebpf4jnsgd1na2vs0mg"},{"bike_id":"3f5f2c9a-9e49-4b78-9b1b-0708da9fec39","system_id":"levelo_inurba_marseille","lat":43.22496,"lon":5.34781,"is_reserved":false,"is_disabled":false,"rental_uris":{"android":"levelo://app?vid=3f5f2c9a-9e49-4b78-9b1b-0708da9fec39","ios":"levelo://app?vid=3f5f2c9a-9e49-4b78-9b1b-0708da9fec39"},"vehicle_type_id":"4","last_reported":1745807321,"current_range_meters":15200,"station_id":"st_cvj5dfep6f1abm77gieg","pricing_plan_id":"cebpf4jnsgd1na2vs0mg"},{"bike_id":"cdefb1fb-f28b-4051-a0f5-a9451436b4ed","system_id":"levelo_inurba_marseille","lat":43.25797,"lon":5.38597,"is_reserved":false,"is_disabled":false,"rental_uris":{"android":"levelo://app?vid=cdefb1fb-f28b-4051-a0f5-a9451436b4ed","ios":"levelo://app?vid=cdefb1fb-f28b-4051-a0f5-a9451436b4ed"},"vehicle_type_id":"4","last_reported":1745807321,"current_range_meters":16000,"station_id":"","pricing_plan_id":"cebpf4jnsgd1na2vs0mg"},{"bike_id":"2d8ee308-03ed-4761-9d96-95839d6c6deb","system_id":"levelo_inurba_marseille","lat":43.28603,"lon":5.370704,"is_reserved":false,"is_disabled":false,"rental_uris":{"android":"levelo://app?vid=2d8ee308-03ed-4761-9d96-95839d6c6deb","ios":"levelo://app?vid=2d8ee308-03ed-4761-9d96-95839d6c6deb"},"vehicle_type_id":"4","last_reported":1745807321,"current_range_meters":16000,"station_id":"","pricing_plan_id":"cebpf4jnsgd1na2vs0mg"},{"bike_id":"5a6ac1ef-2dc1-443e-9eb7-7c540b3b79a7","system_id":"levelo_inurba_marseille","lat":43.31492,"lon":5.37313,"is_reserved":false,"is_disabled":false,"rental_uris":{"android":"levelo://app?vid=5a6ac1ef-2dc1-443e-9eb7-7c540b3b79a7","ios":"levelo://app?vid=5a6ac1ef-2dc1-443e-9eb7-7c540b3b79a7"},"vehicle_type_id":"4","last_reported":1745807321,"current_range_meters":16000,"station_id":"ce4bgt12rcd13ifvqcd0","pricing_plan_id":"cebpf4jnsgd1na2vs0mg"},{"bike_id":"02b3b6da-d67b-490c-8691-301aea41ade1","system_id":"levelo_inurba_marseille","lat":43.28454,"lon":5.35936,"is_reserved":false,"is_disabled":false,"rental_uris":{"android":"levelo://app?vid=02b3b6da-d67b-490c-8691-301aea41ade1","ios":"levelo://app?vid=02b3b6da-d67b-490c-8691-301aea41ade1"},"vehicle_type_id":"4","last_reported":1745807321,"current_range_meters":16000,"station_id":"ce4bhah2rcd13ifvqei0","pricing_plan_id":"cebpf4jnsgd1na2vs0mg"},{"bike_id":"2e7ac15a-983b-44da-a8d0-533b1e803195","system_id":"levelo_inurba_marseille","lat":43.255767,"lon":5.382313,"is_reserved":false,"is_disabled":false,"rental_uris":{"android":"levelo://app?vid=2e7ac15a-983b-44da-a8d0-533b1e803195","ios":"levelo://app?vid=2e7ac15a-983b-44da-a8d0-533b1e803195"},"vehicle_type_id":"4","last_reported":1745807321,"current_range_meters":16000,"station_id":"ce4bhih2rcd13ifvqfs0","pricing_plan_id":"cebpf4jnsgd1na2vs0mg"},{"bike_id":"0f708391-a7ed-4e44-bc44-cf2926cd4a0c","system_id":"levelo_inurba_marseille","lat":43.26209,"lon":5.40434,"is_reserved":false,"is_disabled":false,"rental_uris":{"android":"levelo://app?vid=0f708391-a7ed-4e44-bc44-cf2926cd4a0c","ios":"levelo://app?vid=0f708391-a7ed-4e44-bc44-cf2926cd4a0c"},"vehicle_type_id":"4","last_reported":1745807321,"current_range_meters":16000,"station_id":"ce4bhmh2rcd13ifvqgmg","pricing_plan_id":"cebpf4jnsgd1na2vs0mg"},{"bike_id":"f8b82dd5-2d85-4846-8b9d-5afc30043cf6","system_id":"levelo_inurba_marseille","lat":43.22497,"lon":5.34796,"is_reserved":false,"is_disabled":false,"rental_uris":{"android":"levelo://app?vid=f8b82dd5-2d85-4846-8b9d-5afc30043cf6","ios":"levelo://app?vid=f8b82dd5-2d85-4846-8b9d-5afc30043cf6"},"vehicle_type_id":"4","last_reported":1745807321,"current_range_meters":16000,"station_id":"st_cvj5dfep6f1abm77gieg","pricing_plan_id":"cebpf4jnsgd1na2vs0mg"},{"bike_id":"6a3ad0ca-897c-414f-a69a-aae8b2ea7b61","system_id":"levelo_inurba_marseille","lat":43.21757,"lon":5.34601,"is_reserved":false,"is_disabled":false,"rental_uris":{"android":"levelo://app?vid=6a3ad0ca-897c-414f-a69a-aae8b2ea7b61","ios":"levelo://app?vid=6a3ad0ca-897c-414f-a69a-aae8b2ea7b61"},"vehicle_type_id":"4","last_reported":1745807321,"current_range_meters":16000,"station_id":"st_cvj6r9ubvosntc0bgbag","pricing_plan_id":"cebpf4jnsgd1na2vs0mg"},{"bike_id":"ff75ad8a-84a8-4e09-b733-5fb0903ef15d","system_id":"levelo_inurba_marseille","lat":43.322858,"lon":5.382778,"is_reserved":false,"is_disabled":false,"rental_uris":{"android":"levelo://app?vid=ff75ad8a-84a8-4e09-b733-5fb0903ef15d","ios":"levelo://app?vid=ff75ad8a-84a8-4e09-b733-5fb0903ef15d"},"vehicle_type_id":"4","last_reported":1745807321,"current_range_meters":16400,"station_id":"ce4bhr12rcd13ifvqhqg","pricing_plan_id":"cebpf4jnsgd1na2vs0mg"},{"bike_id":"510d1b76-27be-4268-aedc-46993a5973e8","system_id":"levelo_inurba_marseille","lat":43.24631,"lon":5.38937,"is_reserved":false,"is_disabled":false,"rental_uris":{"android":"levelo://app?vid=510d1b76-27be-4268-aedc-46993a5973e8","ios":"levelo://app?vid=510d1b76-27be-4268-aedc-46993a5973e8"},"vehicle_type_id":"4","last_reported":1745807321,"current_range_meters":16800,"station_id":"ce4bhg12rcd13ifvqf60","pricing_plan_id":"cebpf4jnsgd1na2vs0mg"},{"bike_id":"b45721df-1911-4bd0-96bb-0c84adb69cfd","system_id":"levelo_inurba_marseille","lat":43.2397,"lon":5.36613,"is_reserved":false,"is_disabled":false,"rental_uris":{"android":"levelo://app?vid=b45721df-1911-4bd0-96bb-0c84adb69cfd","ios":"levelo://app?vid=b45721df-1911-4bd0-96bb-0c84adb69cfd"},"vehicle_type_id":"4","last_reported":1745807321,"current_range_meters":17200,"station_id":"ce4bhi12rcd13ifvqfp0","pricing_plan_id":"cebpf4jnsgd1na2vs0mg"},{"bike_id":"5d80cec4-cf0d-4b75-87cc-4649871dd5da","system_id":"levelo_inurba_marseille","lat":43.27507,"lon":5.42481,"is_reserved":false,"is_disabled":false,"rental_uris":{"android":"levelo://app?vid=5d80cec4-cf0d-4b75-87cc-4649871dd5da","ios":"levelo://app?vid=5d80cec4-cf0d-4b75-87cc-4649871dd5da"},"vehicle_type_id":"4","last_reported":1745807321,"current_range_meters":17200,"station_id":"ce4bhn92rcd13ifvqgrg","pricing_plan_id":"cebpf4jnsgd1na2vs0mg"},{"bike_id":"daa5fb12-4e0b-4bce-a6b1-6719a5e359ca","system_id":"levelo_inurba_marseille","lat":43.23144,"lon":5.43745,"is_reserved":false,"is_disabled":false,"rental_uris":{"android":"levelo://app?vid=daa5fb12-4e0b-4bce-a6b1-6719a5e359ca","ios":"levelo://app?vid=daa5fb12-4e0b-4bce-a6b1-6719a5e359ca"},"vehicle_type_id":"4","last_reported":1745807321,"current_range_meters":17600,"station_id":"ce4bhmp2rcd13ifvqgog","pricing_plan_id":"cebpf4jnsgd1na2vs0mg"},{"bike_id":"7d642a85-a2ce-4a2b-8b78-82205bdd50c2","system_id":"levelo_inurba_marseille","lat":43.2322,"lon":5.40027,"is_reserved":false,"is_disabled":false,"rental_uris":{"android":"levelo://app?vid=7d642a85-a2ce-4a2b-8b78-82205bdd50c2","ios":"levelo://app?vid=7d642a85-a2ce-4a2b-8b78-82205bdd50c2"},"vehicle_type_id":"4","last_reported":1745807321,"current_range_meters":17600,"station_id":"ce4bhn12rcd13ifvqgqg","pricing_plan_id":"cebpf4jnsgd1na2vs0mg"},{"bike_id":"20f39650-9dfb-45df-bdda-86b58245b145","system_id":"levelo_inurba_marseille","lat":43.28727,"lon":5.36087,"is_reserved":false,"is_disabled":false,"rental_uris":{"android":"levelo://app?vid=20f39650-9dfb-45df-bdda-86b58245b145","ios":"levelo://app?vid=20f39650-9dfb-45df-bdda-86b58245b145"},"vehicle_type_id":"4","last_reported":1745807321,"current_range_meters":17600,"station_id":"cki0cbj6b192h4jlfktg","pricing_plan_id":"cebpf4jnsgd1na2vs0mg"},{"bike_id":"6c72de35-de49-45aa-84fb-0f4a50376358","system_id":"levelo_inurba_marseille","lat":43.32971,"lon":5.43875,"is_reserved":false,"is_disabled":false,"rental_uris":{"android":"levelo://app?vid=6c72de35-de49-45aa-84fb-0f4a50376358","ios":"levelo://app?vid=6c72de35-de49-45aa-84fb-0f4a50376358"},"vehicle_type_id":"4","last_reported":1745807321,"current_range_meters":18000,"station_id":"","pricing_plan_id":"cebpf4jnsgd1na2vs0mg"},{"bike_id":"ae024c84-7e44-4a33-b963-d7705c42478f","system_id":"levelo_inurba_marseille","lat":43.2395,"lon":5.36645,"is_reserved":false,"is_disabled":false,"rental_uris":{"android":"levelo://app?vid=ae024c84-7e44-4a33-b963-d7705c42478f","ios":"levelo://app?vid=ae024c84-7e44-4a33-b963-d7705c42478f"},"vehicle_type_id":"4","last_reported":1745807321,"current_range_meters":18000,"station_id":"ce4bhi12rcd13ifvqfp0","pricing_plan_id":"cebpf4jnsgd1na2vs0mg"},{"bike_id":"d6f5efac-6ee4-4c3c-943a-fc9ab91c85d8","system_id":"levelo_inurba_marseille","lat":43.292513,"lon":5.409015,"is_reserved":false,"is_disabled":false,"rental_uris":{"android":"levelo://app?vid=d6f5efac-6ee4-4c3c-943a-fc9ab91c85d8","ios":"levelo://app?vid=d6f5efac-6ee4-4c3c-943a-fc9ab91c85d8"},"vehicle_type_id":"4","last_reported":1745807321,"current_range_meters":18800,"station_id":"ce4bh192rcd13ifvqdc0","pricing_plan_id":"cebpf4jnsgd1na2vs0mg"},{"bike_id":"2420ad39-a5b7-4ea3-b775-69cf92e1a47f","system_id":"levelo_inurba_marseille","lat":43.2592,"lon":5.40904,"is_reserved":false,"is_disabled":false,"rental_uris":{"android":"levelo://app?vid=2420ad39-a5b7-4ea3-b775-69cf92e1a47f","ios":"levelo://app?vid=2420ad39-a5b7-4ea3-b775-69cf92e1a47f"},"vehicle_type_id":"4","last_reported":1745807321,"current_range_meters":18800,"station_id":"ce4bhm92rcd13ifvqglg","pricing_plan_id":"cebpf4jnsgd1na2vs0mg"},{"bike_id":"dd8ba2ea-896c-46a8-a041-af1fe4723729","system_id":"levelo_inurba_marseille","lat":43.25708,"lon":5.41127,"is_reserved":false,"is_disabled":false,"rental_uris":{"android":"levelo://app?vid=dd8ba2ea-896c-46a8-a041-af1fe4723729","ios":"levelo://app?vid=dd8ba2ea-896c-46a8-a041-af1fe4723729"},"vehicle_type_id":"4","last_reported":1745807321,"current_range_meters":19200,"station_id":"ce4bhkp2rcd13ifvqgd0","pricing_plan_id":"cebpf4jnsgd1na2vs0mg"},{"bike_id":"1c484a84-52df-485c-b15f-8dc40bad3cae","system_id":"levelo_inurba_marseille","lat":43.30807,"lon":5.43525,"is_reserved":false,"is_disabled":false,"rental_uris":{"android":"levelo://app?vid=1c484a84-52df-485c-b15f-8dc40bad3cae","ios":"levelo://app?vid=1c484a84-52df-485c-b15f-8dc40bad3cae"},"vehicle_type_id":"4","last_reported":1745807321,"current_range_meters":19200,"station_id":"ce4bhph2rcd13ifvqheg","pricing_plan_id":"cebpf4jnsgd1na2vs0mg"},{"bike_id":"0ab928f1-313f-453f-a075-ecf067324cdb","system_id":"levelo_inurba_marseille","lat":43.26221,"lon":5.40468,"is_reserved":false,"is_disabled":false,"rental_uris":{"android":"levelo://app?vid=0ab928f1-313f-453f-a075-ecf067324cdb","ios":"levelo://app?vid=0ab928f1-313f-453f-a075-ecf067324cdb"},"vehicle_type_id":"4","last_reported":1745807321,"current_range_meters":19600,"station_id":"ce4bhmh2rcd13ifvqgmg","pricing_plan_id":"cebpf4jnsgd1na2vs0mg"},{"bike_id":"abf2dc50-2eb1-45c0-80d0-deafb929859f","system_id":"levelo_inurba_marseille","lat":43.32672,"lon":5.41011,"is_reserved":false,"is_disabled":false,"rental_uris":{"android":"levelo://app?vid=abf2dc50-2eb1-45c0-80d0-deafb929859f","ios":"levelo://app?vid=abf2dc50-2eb1-45c0-80d0-deafb929859f"},"vehicle_type_id":"4","last_reported":1745807321,"current_range_meters":19600,"station_id":"ce4bhpp2rcd13ifvqhgg","pricing_plan_id":"cebpf4jnsgd1na2vs0mg"},{"bike_id":"120277a4-e644-406f-9354-c1381245ac98","system_id":"levelo_inurba_marseille","lat":43.28716,"lon":5.36101,"is_reserved":false,"is_disabled":false,"rental_uris":{"android":"levelo://app?vid=120277a4-e644-406f-9354-c1381245ac98","ios":"levelo://app?vid=120277a4-e644-406f-9354-c1381245ac98"},"vehicle_type_id":"4","last_reported":1745807321,"current_range_meters":19600,"station_id":"cki0cbj6b192h4jlfktg","pricing_plan_id":"cebpf4jnsgd1na2vs0mg"},{"bike_id":"d8b9b350-6636-4922-af94-8fbc6798af45","system_id":"levelo_inurba_marseille","lat":43.23964,"lon":5.36637,"is_reserved":false,"is_disabled":false,"rental_uris":{"android":"levelo://app?vid=d8b9b350-6636-4922-af94-8fbc6798af45","ios":"levelo://app?vid=d8b9b350-6636-4922-af94-8fbc6798af45"},"vehicle_type_id":"4","last_reported":1745807321,"current_range_meters":20000,"station_id":"ce4bhi12rcd13ifvqfp0","pricing_plan_id":"cebpf4jnsgd1na2vs0mg"},{"bike_id":"07445598-68fe-40db-b19b-e14bab0e7c33","system_id":"levelo_inurba_marseille","lat":43.308603,"lon":5.374323,"is_reserved":false,"is_disabled":false,"rental_uris":{"android":"levelo://app?vid=07445598-68fe-40db-b19b-e14bab0e7c33","ios":"levelo://app?vid=07445598-68fe-40db-b19b-e14bab0e7c33"},"vehicle_type_id":"4","last_reported":1745807321,"current_range_meters":20400,"station_id":"ce4bgqh2rcd13ifvqc4g","pricing_plan_id":"cebpf4jnsgd1na2vs0mg"},{"bike_id":"7046c6e0-63e7-4772-821a-9dbb15a79431","system_id":"levelo_inurba_marseille","lat":43.31362,"lon":5.38493,"is_reserved":false,"is_disabled":false,"rental_uris":{"android":"levelo://app?vid=7046c6e0-63e7-4772-821a-9dbb15a79431","ios":"levelo://app?vid=7046c6e0-63e7-4772-821a-9dbb15a79431"},"vehicle_type_id":"4","last_reported":1745807321,"current_range_meters":20400,"station_id":"ce4bgt92rcd13ifvqcf0","pricing_plan_id":"cebpf4jnsgd1na2vs0mg"},{"bike_id":"504af8b5-2522-4176-8201-9c37815f0fa0","system_id":"levelo_inurba_marseille","lat":43.23961,"lon":5.36629,"is_reserved":false,"is_disabled":false,"rental_uris":{"android":"levelo://app?vid=504af8b5-2522-4176-8201-9c37815f0fa0","ios":"levelo://app?vid=504af8b5-2522-4176-8201-9c37815f0fa0"},"vehicle_type_id":"4","last_reported":1745807321,"current_range_meters":20400,"station_id":"ce4bhi12rcd13ifvqfp0","pricing_plan_id":"cebpf4jnsgd1na2vs0mg"},{"bike_id":"2d7b50c2-e414-4e82-82a2-7035113690ad","system_id":"levelo_inurba_marseille","lat":43.31471,"lon":5.37309,"is_reserved":false,"is_disabled":false,"rental_uris":{"android":"levelo://app?vid=2d7b50c2-e414-4e82-82a2-7035113690ad","ios":"levelo://app?vid=2d7b50c2-e414-4e82-82a2-7035113690ad"},"vehicle_type_id":"4","last_reported":1745807321,"current_range_meters":20800,"station_id":"ce4bgt12rcd13ifvqcd0","pricing_plan_id":"cebpf4jnsgd1na2vs0mg"},{"bike_id":"b5fe6816-f873-4cb9-8652-42ccdeb37fe9","system_id":"levelo_inurba_marseille","lat":43.27163,"lon":5.41005,"is_reserved":false,"is_disabled":false,"rental_uris":{"android":"levelo://app?vid=b5fe6816-f873-4cb9-8652-42ccdeb37fe9","ios":"levelo://app?vid=b5fe6816-f873-4cb9-8652-42ccdeb37fe9"},"vehicle_type_id":"4","last_reported":1745807321,"current_range_meters":21600,"station_id":"ce4bhl12rcd13ifvqgf0","pricing_plan_id":"cebpf4jnsgd1na2vs0mg"},{"bike_id":"a7a5c59b-8fdc-4ceb-a16c-2fd89466328d","system_id":"levelo_inurba_marseille","lat":43.32107,"lon":5.368,"is_reserved":false,"is_disabled":false,"rental_uris":{"android":"levelo://app?vid=a7a5c59b-8fdc-4ceb-a16c-2fd89466328d","ios":"levelo://app?vid=a7a5c59b-8fdc-4ceb-a16c-2fd89466328d"},"vehicle_type_id":"4","last_reported":1745807321,"current_range_meters":21600,"station_id":"ce4bhrh2rcd13ifvqhug","pricing_plan_id":"cebpf4jnsgd1na2vs0mg"},{"bike_id":"2ed76ab3-29f9-4f23-8162-d0d033a13590","system_id":"levelo_inurba_marseille","lat":43.24057,"lon":5.37776,"is_reserved":false,"is_disabled":false,"rental_uris":{"android":"levelo://app?vid=2ed76ab3-29f9-4f23-8162-d0d033a13590","ios":"levelo://app?vid=2ed76ab3-29f9-4f23-8162-d0d033a13590"},"vehicle_type_id":"4","last_reported":1745807321,"current_range_meters":22000,"station_id":"ce4bhnp2rcd13ifvqgvg","pricing_plan_id":"cebpf4jnsgd1na2vs0mg"},{"bike_id":"c9a186da-b941-47bb-b124-488b5449bd4e","system_id":"levelo_inurba_marseille","lat":43.336121,"lon":5.410116,"is_reserved":false,"is_disabled":false,"rental_uris":{"android":"levelo://app?vid=c9a186da-b941-47bb-b124-488b5449bd4e","ios":"levelo://app?vid=c9a186da-b941-47bb-b124-488b5449bd4e"},"vehicle_type_id":"4","last_reported":1745807321,"current_range_meters":22000,"station_id":"ce4bhqh2rcd13ifvqhmg","pricing_plan_id":"cebpf4jnsgd1na2vs0mg"},{"bike_id":"3b73e112-a19d-47d3-8128-205527bc344a","system_id":"levelo_inurba_marseille","lat":43.2839,"lon":5.37516,"is_reserved":false,"is_disabled":false,"rental_uris":{"android":"levelo://app?vid=3b73e112-a19d-47d3-8128-205527bc344a","ios":"levelo://app?vid=3b73e112-a19d-47d3-8128-205527bc344a"},"vehicle_type_id":"4","last_reported":1745807321,"current_range_meters":22400,"station_id":"ce4bh412rcd13ifvqds0","pricing_plan_id":"cebpf4jnsgd1na2vs0mg"},{"bike_id":"aaecc94e-a371-48c8-8300-38cd0d87784e","system_id":"levelo_inurba_marseille","lat":43.24636,"lon":5.38903,"is_reserved":false,"is_disabled":false,"rental_uris":{"android":"levelo://app?vid=aaecc94e-a371-48c8-8300-38cd0d87784e","ios":"levelo://app?vid=aaecc94e-a371-48c8-8300-38cd0d87784e"},"vehicle_type_id":"4","last_reported":1745807321,"current_range_meters":22400,"station_id":"ce4bhg12rcd13ifvqf60","pricing_plan_id":"cebpf4jnsgd1na2vs0mg"},{"bike_id":"5b8f78a8-a4bf-408e-904d-fb55256215fc","system_id":"levelo_inurba_marseille","lat":43.28923,"lon":5.36641,"is_reserved":false,"is_disabled":false,"rental_uris":{"android":"levelo://app?vid=5b8f78a8-a4bf-408e-904d-fb55256215fc","ios":"levelo://app?vid=5b8f78a8-a4bf-408e-904d-fb55256215fc"},"vehicle_type_id":"4","last_reported":1745807321,"current_range_meters":22800,"station_id":"ce4bhap2rcd13ifvqek0","pricing_plan_id":"cebpf4jnsgd1na2vs0mg"},{"bike_id":"4d44d216-dc3c-4118-89d6-a76311950baf","system_id":"levelo_inurba_marseille","lat":43.32538,"lon":5.41462,"is_reserved":false,"is_disabled":false,"rental_uris":{"android":"levelo://app?vid=4d44d216-dc3c-4118-89d6-a76311950baf","ios":"levelo://app?vid=4d44d216-dc3c-4118-89d6-a76311950baf"},"vehicle_type_id":"4","last_reported":1745807321,"current_range_meters":22800,"station_id":"ce4bhq12rcd13ifvqhhg","pricing_plan_id":"cebpf4jnsgd1na2vs0mg"},{"bike_id":"d7f0f05d-3cc9-442a-8a8d-6275e283d032","system_id":"levelo_inurba_marseille","lat":43.29756,"lon":5.46014,"is_reserved":false,"is_disabled":false,"rental_uris":{"android":"levelo://app?vid=d7f0f05d-3cc9-442a-8a8d-6275e283d032","ios":"levelo://app?vid=d7f0f05d-3cc9-442a-8a8d-6275e283d032"},"vehicle_type_id":"4","last_reported":1745807321,"current_range_meters":23200,"station_id":"","pricing_plan_id":"cebpf4jnsgd1na2vs0mg"},{"bike_id":"ae1ea35f-c087-4075-8951-1dc116cdb425","system_id":"levelo_inurba_marseille","lat":43.30452,"lon":5.38912,"is_reserved":false,"is_disabled":false,"rental_uris":{"android":"levelo://app?vid=ae1ea35f-c087-4075-8951-1dc116cdb425","ios":"levelo://app?vid=ae1ea35f-c087-4075-8951-1dc116cdb425"},"vehicle_type_id":"4","last_reported":1745807321,"current_range_meters":23200,"station_id":"ce4bgk12rcd13ifvqbi0","pricing_plan_id":"cebpf4jnsgd1na2vs0mg"},{"bike_id":"9d986fec-547e-4839-8e5f-e0340a61adaf","system_id":"levelo_inurba_marseille","lat":43.30932,"lon":5.4014,"is_reserved":false,"is_disabled":false,"rental_uris":{"android":"levelo://app?vid=9d986fec-547e-4839-8e5f-e0340a61adaf","ios":"levelo://app?vid=9d986fec-547e-4839-8e5f-e0340a61adaf"},"vehicle_type_id":"4","last_reported":1745807321,"current_range_meters":23200,"station_id":"ce4bgvp2rcd13ifvqct0","pricing_plan_id":"cebpf4jnsgd1na2vs0mg"},{"bike_id":"fe27e3a7-db31-4a3c-b2db-f7f85e5f90ab","system_id":"levelo_inurba_marseille","lat":43.3127,"lon":5.4018,"is_reserved":false,"is_disabled":false,"rental_uris":{"android":"levelo://app?vid=fe27e3a7-db31-4a3c-b2db-f7f85e5f90ab","ios":"levelo://app?vid=fe27e3a7-db31-4a3c-b2db-f7f85e5f90ab"},"vehicle_type_id":"4","last_reported":1745807321,"current_range_meters":23200,"station_id":"ce4bh092rcd13ifvqd30","pricing_plan_id":"cebpf4jnsgd1na2vs0mg"},{"bike_id":"c3087ea8-3303-4162-b517-cd5a45178f81","system_id":"levelo_inurba_marseille","lat":43.287094,"lon":5.373963,"is_reserved":false,"is_disabled":false,"rental_uris":{"android":"levelo://app?vid=c3087ea8-3303-4162-b517-cd5a45178f81","ios":"levelo://app?vid=c3087ea8-3303-4162-b517-cd5a45178f81"},"vehicle_type_id":"4","last_reported":1745807321,"current_range_meters":23200,"station_id":"ce4bh3p2rcd13ifvqdq0","pricing_plan_id":"cebpf4jnsgd1na2vs0mg"},{"bike_id":"2ee98afc-740b-4e97-a955-ebff5e1f8902","system_id":"levelo_inurba_marseille","lat":43.28839,"lon":5.35836,"is_reserved":false,"is_disabled":false,"rental_uris":{"android":"levelo://app?vid=2ee98afc-740b-4e97-a955-ebff5e1f8902","ios":"levelo://app?vid=2ee98afc-740b-4e97-a955-ebff5e1f8902"},"vehicle_type_id":"4","last_reported":1745807321,"current_range_meters":23200,"station_id":"ce4bhb12rcd13ifvqem0","pricing_plan_id":"cebpf4jnsgd1na2vs0mg"},{"bike_id":"867997b4-3589-4859-9406-f2d8e812e375","system_id":"levelo_inurba_marseille","lat":43.27497,"lon":5.42467,"is_reserved":false,"is_disabled":false,"rental_uris":{"android":"levelo://app?vid=867997b4-3589-4859-9406-f2d8e812e375","ios":"levelo://app?vid=867997b4-3589-4859-9406-f2d8e812e375"},"vehicle_type_id":"4","last_reported":1745807321,"current_range_meters":23200,"station_id":"ce4bhn92rcd13ifvqgrg","pricing_plan_id":"cebpf4jnsgd1na2vs0mg"},{"bike_id":"e0e0a52a-57f9-448e-b7ef-0232403aef34","system_id":"levelo_inurba_marseille","lat":43.24168,"lon":5.36383,"is_reserved":false,"is_disabled":false,"rental_uris":{"android":"levelo://app?vid=e0e0a52a-57f9-448e-b7ef-0232403aef34","ios":"levelo://app?vid=e0e0a52a-57f9-448e-b7ef-0232403aef34"},"vehicle_type_id":"4","last_reported":1745807321,"current_range_meters":23200,"station_id":"cpo36qri1sfpv3e86is0","pricing_plan_id":"cebpf4jnsgd1na2vs0mg"},{"bike_id":"dd0d9de5-5317-433e-924b-4f9f7dfe078e","system_id":"levelo_inurba_marseille","lat":43.30791,"lon":5.38165,"is_reserved":false,"is_disabled":false,"rental_uris":{"android":"levelo://app?vid=dd0d9de5-5317-433e-924b-4f9f7dfe078e","ios":"levelo://app?vid=dd0d9de5-5317-433e-924b-4f9f7dfe078e"},"vehicle_type_id":"4","last_reported":1745807321,"current_range_meters":24000,"station_id":"ce4bgt12rcd13ifvqce0","pricing_plan_id":"cebpf4jnsgd1na2vs0mg"},{"bike_id":"9db023e7-cfd5-42d5-8cd5-7836bd3239c3","system_id":"levelo_inurba_marseille","lat":43.3088,"lon":5.39625,"is_reserved":false,"is_disabled":false,"rental_uris":{"android":"levelo://app?vid=9db023e7-cfd5-42d5-8cd5-7836bd3239c3","ios":"levelo://app?vid=9db023e7-cfd5-42d5-8cd5-7836bd3239c3"},"vehicle_type_id":"4","last_reported":1745807321,"current_range_meters":24000,"station_id":"ce4bh012rcd13ifvqcv0","pricing_plan_id":"cebpf4jnsgd1na2vs0mg"},{"bike_id":"499cf8cf-6dc3-483a-bfa0-938414fa5ff8","system_id":"levelo_inurba_marseille","lat":43.32266,"lon":5.38274,"is_reserved":false,"is_disabled":false,"rental_uris":{"android":"levelo://app?vid=499cf8cf-6dc3-483a-bfa0-938414fa5ff8","ios":"levelo://app?vid=499cf8cf-6dc3-483a-bfa0-938414fa5ff8"},"vehicle_type_id":"4","last_reported":1745807321,"current_range_meters":24000,"station_id":"ce4bhr12rcd13ifvqhqg","pricing_plan_id":"cebpf4jnsgd1na2vs0mg"},{"bike_id":"39987612-e249-4f14-80ba-63b3b1ca5fae","system_id":"levelo_inurba_marseille","lat":43.31151,"lon":5.37816,"is_reserved":false,"is_disabled":false,"rental_uris":{"android":"levelo://app?vid=39987612-e249-4f14-80ba-63b3b1ca5fae","ios":"levelo://app?vid=39987612-e249-4f14-80ba-63b3b1ca5fae"},"vehicle_type_id":"4","last_reported":1745807321,"current_range_meters":24400,"station_id":"ce4bgt92rcd13ifvqcg0","pricing_plan_id":"cebpf4jnsgd1na2vs0mg"},{"bike_id":"17d6ed41-3161-4c3f-8596-2040f46f95a7","system_id":"levelo_inurba_marseille","lat":43.28405,"lon":5.37513,"is_reserved":false,"is_disabled":false,"rental_uris":{"android":"levelo://app?vid=17d6ed41-3161-4c3f-8596-2040f46f95a7","ios":"levelo://app?vid=17d6ed41-3161-4c3f-8596-2040f46f95a7"},"vehicle_type_id":"4","last_reported":1745807321,"current_range_meters":24400,"station_id":"ce4bh412rcd13ifvqds0","pricing_plan_id":"cebpf4jnsgd1na2vs0mg"},{"bike_id":"3994c53a-428f-479b-9b4b-2f1ca60eb458","system_id":"levelo_inurba_marseille","lat":43.2513,"lon":5.40345,"is_reserved":false,"is_disabled":false,"rental_uris":{"android":"levelo://app?vid=3994c53a-428f-479b-9b4b-2f1ca60eb458","ios":"levelo://app?vid=3994c53a-428f-479b-9b4b-2f1ca60eb458"},"vehicle_type_id":"4","last_reported":1745807321,"current_range_meters":24400,"station_id":"ce4bhlh2rcd13ifvqgig","pricing_plan_id":"cebpf4jnsgd1na2vs0mg"},{"bike_id":"871b00ca-bc51-41f1-85e1-c47972d08559","system_id":"levelo_inurba_marseille","lat":43.2406,"lon":5.37759,"is_reserved":false,"is_disabled":false,"rental_uris":{"android":"levelo://app?vid=871b00ca-bc51-41f1-85e1-c47972d08559","ios":"levelo://app?vid=871b00ca-bc51-41f1-85e1-c47972d08559"},"vehicle_type_id":"4","last_reported":1745807321,"current_range_meters":24400,"station_id":"ce4bhnp2rcd13ifvqgvg","pricing_plan_id":"cebpf4jnsgd1na2vs0mg"},{"bike_id":"ded63ce0-b6c6-4275-8aae-28a95aaf954a","system_id":"levelo_inurba_marseille","lat":43.30879,"lon":5.39659,"is_reserved":false,"is_disabled":false,"rental_uris":{"android":"levelo://app?vid=ded63ce0-b6c6-4275-8aae-28a95aaf954a","ios":"levelo://app?vid=ded63ce0-b6c6-4275-8aae-28a95aaf954a"},"vehicle_type_id":"4","last_reported":1745807321,"current_range_meters":24800,"station_id":"ce4bh012rcd13ifvqcv0","pricing_plan_id":"cebpf4jnsgd1na2vs0mg"},{"bike_id":"e9830214-0a29-4a00-a67c-181c91df276a","system_id":"levelo_inurba_marseille","lat":43.317026,"lon":5.404542,"is_reserved":false,"is_disabled":false,"rental_uris":{"android":"levelo://app?vid=e9830214-0a29-4a00-a67c-181c91df276a","ios":"levelo://app?vid=e9830214-0a29-4a00-a67c-181c91df276a"},"vehicle_type_id":"4","last_reported":1745807321,"current_range_meters":24800,"station_id":"ce4bh012rcd13ifvqd00","pricing_plan_id":"cebpf4jnsgd1na2vs0mg"},{"bike_id":"a7ee3b09-76f3-402e-95d2-71cd8af2c46d","system_id":"levelo_inurba_marseille","lat":43.301073,"lon":5.390873,"is_reserved":false,"is_disabled":false,"rental_uris":{"android":"levelo://app?vid=a7ee3b09-76f3-402e-95d2-71cd8af2c46d","ios":"levelo://app?vid=a7ee3b09-76f3-402e-95d2-71cd8af2c46d"},"vehicle_type_id":"4","last_reported":1745807321,"current_range_meters":24800,"station_id":"ce4bh192rcd13ifvqdb0","pricing_plan_id":"cebpf4jnsgd1na2vs0mg"},{"bike_id":"1e4448ba-2167-4f3a-b07d-7b70baaf89c8","system_id":"levelo_inurba_marseille","lat":43.28414,"lon":5.37513,"is_reserved":false,"is_disabled":false,"rental_uris":{"android":"levelo://app?vid=1e4448ba-2167-4f3a-b07d-7b70baaf89c8","ios":"levelo://app?vid=1e4448ba-2167-4f3a-b07d-7b70baaf89c8"},"vehicle_type_id":"4","last_reported":1745807321,"current_range_meters":24800,"station_id":"ce4bh412rcd13ifvqds0","pricing_plan_id":"cebpf4jnsgd1na2vs0mg"},{"bike_id":"ef107f7d-e1aa-4d06-b7d5-9e10d4a8e4a7","system_id":"levelo_inurba_marseille","lat":43.25106,"lon":5.40344,"is_reserved":false,"is_disabled":false,"rental_uris":{"android":"levelo://app?vid=ef107f7d-e1aa-4d06-b7d5-9e10d4a8e4a7","ios":"levelo://app?vid=ef107f7d-e1aa-4d06-b7d5-9e10d4a8e4a7"},"vehicle_type_id":"4","last_reported":1745807321,"current_range_meters":24800,"station_id":"ce4bhlh2rcd13ifvqgig","pricing_plan_id":"cebpf4jnsgd1na2vs0mg"},{"bike_id":"ccfa8a49-935d-4411-adfe-72c702fb2679","system_id":"levelo_inurba_marseille","lat":43.23178,"lon":5.39987,"is_reserved":false,"is_disabled":false,"rental_uris":{"android":"levelo://app?vid=ccfa8a49-935d-4411-adfe-72c702fb2679","ios":"levelo://app?vid=ccfa8a49-935d-4411-adfe-72c702fb2679"},"vehicle_type_id":"4","last_reported":1745807321,"current_range_meters":24800,"station_id":"ce4bhn12rcd13ifvqgqg","pricing_plan_id":"cebpf4jnsgd1na2vs0mg"},{"bike_id":"d0c37e39-5177-4428-9805-f10a757ba411","system_id":"levelo_inurba_marseille","lat":43.281605,"lon":5.426499,"is_reserved":false,"is_disabled":false,"rental_uris":{"android":"levelo://app?vid=d0c37e39-5177-4428-9805-f10a757ba411","ios":"levelo://app?vid=d0c37e39-5177-4428-9805-f10a757ba411"},"vehicle_type_id":"4","last_reported":1745807321,"current_range_meters":24800,"station_id":"ce4bhnh2rcd13ifvqgug","pricing_plan_id":"cebpf4jnsgd1na2vs0mg"},{"bike_id":"3837d7f1-052c-41c6-8053-8a2ca1b81e7c","system_id":"levelo_inurba_marseille","lat":43.3176,"lon":5.39011,"is_reserved":false,"is_disabled":false,"rental_uris":{"android":"levelo://app?vid=3837d7f1-052c-41c6-8053-8a2ca1b81e7c","ios":"levelo://app?vid=3837d7f1-052c-41c6-8053-8a2ca1b81e7c"},"vehicle_type_id":"4","last_reported":1745807321,"current_range_meters":24800,"station_id":"ce4bhqp2rcd13ifvqhng","pricing_plan_id":"cebpf4jnsgd1na2vs0mg"},{"bike_id":"147db62e-39ba-4013-8b08-fd493c8114b8","system_id":"levelo_inurba_marseille","lat":43.22669,"lon":5.34803,"is_reserved":false,"is_disabled":false,"rental_uris":{"android":"levelo://app?vid=147db62e-39ba-4013-8b08-fd493c8114b8","ios":"levelo://app?vid=147db62e-39ba-4013-8b08-fd493c8114b8"},"vehicle_type_id":"4","last_reported":1745807321,"current_range_meters":25200,"station_id":"","pricing_plan_id":"cebpf4jnsgd1na2vs0mg"},{"bike_id":"e453a262-1c8d-4f1c-85d1-44cdc42d3fe4","system_id":"levelo_inurba_marseille","lat":43.315,"lon":5.37325,"is_reserved":false,"is_disabled":false,"rental_uris":{"android":"levelo://app?vid=e453a262-1c8d-4f1c-85d1-44cdc42d3fe4","ios":"levelo://app?vid=e453a262-1c8d-4f1c-85d1-44cdc42d3fe4"},"vehicle_type_id":"4","last_reported":1745807321,"current_range_meters":25200,"station_id":"ce4bgt12rcd13ifvqcd0","pricing_plan_id":"cebpf4jnsgd1na2vs0mg"},{"bike_id":"f63bfab8-d07c-4b8c-8faa-93a814367824","system_id":"levelo_inurba_marseille","lat":43.30895,"lon":5.39641,"is_reserved":false,"is_disabled":false,"rental_uris":{"android":"levelo://app?vid=f63bfab8-d07c-4b8c-8faa-93a814367824","ios":"levelo://app?vid=f63bfab8-d07c-4b8c-8faa-93a814367824"},"vehicle_type_id":"4","last_reported":1745807321,"current_range_meters":25200,"station_id":"ce4bh012rcd13ifvqcv0","pricing_plan_id":"cebpf4jnsgd1na2vs0mg"},{"bike_id":"f776ed62-cae7-4ec5-a52b-50577312c064","system_id":"levelo_inurba_marseille","lat":43.2464,"lon":5.38889,"is_reserved":false,"is_disabled":false,"rental_uris":{"android":"levelo://app?vid=f776ed62-cae7-4ec5-a52b-50577312c064","ios":"levelo://app?vid=f776ed62-cae7-4ec5-a52b-50577312c064"},"vehicle_type_id":"4","last_reported":1745807321,"current_range_meters":25200,"station_id":"ce4bhg12rcd13ifvqf60","pricing_plan_id":"cebpf4jnsgd1na2vs0mg"},{"bike_id":"b4fb144b-a847-4890-a9eb-d36b22bbb894","system_id":"levelo_inurba_marseille","lat":43.33596,"lon":5.40975,"is_reserved":false,"is_disabled":false,"rental_uris":{"android":"levelo://app?vid=b4fb144b-a847-4890-a9eb-d36b22bbb894","ios":"levelo://app?vid=b4fb144b-a847-4890-a9eb-d36b22bbb894"},"vehicle_type_id":"4","last_reported":1745807321,"current_range_meters":25200,"station_id":"ce4bhqh2rcd13ifvqhmg","pricing_plan_id":"cebpf4jnsgd1na2vs0mg"},{"bike_id":"379dc632-b932-4447-b6d3-7c36903acf9a","system_id":"levelo_inurba_marseille","lat":43.33501,"lon":5.41042,"is_reserved":false,"is_disabled":false,"rental_uris":{"android":"levelo://app?vid=379dc632-b932-4447-b6d3-7c36903acf9a","ios":"levelo://app?vid=379dc632-b932-4447-b6d3-7c36903acf9a"},"vehicle_type_id":"4","last_reported":1745807321,"current_range_meters":25200,"station_id":"ce4bhqh2rcd13ifvqhmg","pricing_plan_id":"cebpf4jnsgd1na2vs0mg"},{"bike_id":"2516bfc0-fc6c-441b-9d82-3b77f68540d4","system_id":"levelo_inurba_marseille","lat":43.23198,"lon":5.3554,"is_reserved":false,"is_disabled":false,"rental_uris":{"android":"levelo://app?vid=2516bfc0-fc6c-441b-9d82-3b77f68540d4","ios":"levelo://app?vid=2516bfc0-fc6c-441b-9d82-3b77f68540d4"},"vehicle_type_id":"4","last_reported":1745807321,"current_range_meters":25200,"station_id":"ce4bhu92rcd13ifvqi70","pricing_plan_id":"cebpf4jnsgd1na2vs0mg"},{"bike_id":"3d70467b-d377-46e2-86ad-cb0e65397431","system_id":"levelo_inurba_marseille","lat":43.22926,"lon":5.35384,"is_reserved":false,"is_disabled":false,"rental_uris":{"android":"levelo://app?vid=3d70467b-d377-46e2-86ad-cb0e65397431","ios":"levelo://app?vid=3d70467b-d377-46e2-86ad-cb0e65397431"},"vehicle_type_id":"4","last_reported":1745807321,"current_range_meters":25200,"station_id":"cpo3532slgdg3j2ikp40","pricing_plan_id":"cebpf4jnsgd1na2vs0mg"},{"bike_id":"82d5a32a-d34f-4157-8ce8-8eb3a26c43b8","system_id":"levelo_inurba_marseille","lat":43.24142,"lon":5.36418,"is_reserved":false,"is_disabled":false,"rental_uris":{"android":"levelo://app?vid=82d5a32a-d34f-4157-8ce8-8eb3a26c43b8","ios":"levelo://app?vid=82d5a32a-d34f-4157-8ce8-8eb3a26c43b8"},"vehicle_type_id":"4","last_reported":1745807321,"current_range_meters":25200,"station_id":"cpo36qri1sfpv3e86is0","pricing_plan_id":"cebpf4jnsgd1na2vs0mg"},{"bike_id":"ae1a5972-fd86-4f73-9794-964fd82f9021","system_id":"levelo_inurba_marseille","lat":43.31305,"lon":5.40173,"is_reserved":false,"is_disabled":false,"rental_uris":{"android":"levelo://app?vid=ae1a5972-fd86-4f73-9794-964fd82f9021","ios":"levelo://app?vid=ae1a5972-fd86-4f73-9794-964fd82f9021"},"vehicle_type_id":"4","last_reported":1745807321,"current_range_meters":25600,"station_id":"ce4bh092rcd13ifvqd30","pricing_plan_id":"cebpf4jnsgd1na2vs0mg"},{"bike_id":"8fe0beb4-71d6-4047-9923-e71cc28cb8e0","system_id":"levelo_inurba_marseille","lat":43.26053,"lon":5.39397,"is_reserved":false,"is_disabled":false,"rental_uris":{"android":"levelo://app?vid=8fe0beb4-71d6-4047-9923-e71cc28cb8e0","ios":"levelo://app?vid=8fe0beb4-71d6-4047-9923-e71cc28cb8e0"},"vehicle_type_id":"4","last_reported":1745807321,"current_range_meters":25600,"station_id":"ce4bhh92rcd13ifvqfj0","pricing_plan_id":"cebpf4jnsgd1na2vs0mg"},{"bike_id":"71ca96dd-db42-4214-9c4d-38d92215a366","system_id":"levelo_inurba_marseille","lat":43.27195,"lon":5.40995,"is_reserved":false,"is_disabled":false,"rental_uris":{"android":"levelo://app?vid=71ca96dd-db42-4214-9c4d-38d92215a366","ios":"levelo://app?vid=71ca96dd-db42-4214-9c4d-38d92215a366"},"vehicle_type_id":"4","last_reported":1745807321,"current_range_meters":25600,"station_id":"ce4bhl12rcd13ifvqgf0","pricing_plan_id":"cebpf4jnsgd1na2vs0mg"},{"bike_id":"72822771-67fc-41dc-81f6-8a81f8e72774","system_id":"levelo_inurba_marseille","lat":43.25118,"lon":5.4032,"is_reserved":false,"is_disabled":false,"rental_uris":{"android":"levelo://app?vid=72822771-67fc-41dc-81f6-8a81f8e72774","ios":"levelo://app?vid=72822771-67fc-41dc-81f6-8a81f8e72774"},"vehicle_type_id":"4","last_reported":1745807321,"current_range_meters":25600,"station_id":"ce4bhlh2rcd13ifvqgig","pricing_plan_id":"cebpf4jnsgd1na2vs0mg"},{"bike_id":"24aaf325-26b7-4657-8ec3-ef2f0ff302e4","system_id":"levelo_inurba_marseille","lat":43.23187,"lon":5.35551,"is_reserved":false,"is_disabled":false,"rental_uris":{"android":"levelo://app?vid=24aaf325-26b7-4657-8ec3-ef2f0ff302e4","ios":"levelo://app?vid=24aaf325-26b7-4657-8ec3-ef2f0ff302e4"},"vehicle_type_id":"4","last_reported":1745807321,"current_range_meters":25600,"station_id":"ce4bhu92rcd13ifvqi70","pricing_plan_id":"cebpf4jnsgd1na2vs0mg"},{"bike_id":"21045022-01ab-4fb1-9047-e7675b2d0817","system_id":"levelo_inurba_marseille","lat":43.31117,"lon":5.37775,"is_reserved":false,"is_disabled":false,"rental_uris":{"android":"levelo://app?vid=21045022-01ab-4fb1-9047-e7675b2d0817","ios":"levelo://app?vid=21045022-01ab-4fb1-9047-e7675b2d0817"},"vehicle_type_id":"4","last_reported":1745807321,"current_range_meters":26000,"station_id":"ce4bgt92rcd13ifvqcg0","pricing_plan_id":"cebpf4jnsgd1na2vs0mg"},{"bike_id":"3a7c72da-849e-4034-b4df-0d6b684d20d3","system_id":"levelo_inurba_marseille","lat":43.27944,"lon":5.41036,"is_reserved":false,"is_disabled":false,"rental_uris":{"android":"levelo://app?vid=3a7c72da-849e-4034-b4df-0d6b684d20d3","ios":"levelo://app?vid=3a7c72da-849e-4034-b4df-0d6b684d20d3"},"vehicle_type_id":"4","last_reported":1745807321,"current_range_meters":26000,"station_id":"ce4bhnp2rcd13ifvqh0g","pricing_plan_id":"cebpf4jnsgd1na2vs0mg"},{"bike_id":"3ffecbf4-5512-4269-ac48-3e0a4bfa4e29","system_id":"levelo_inurba_marseille","lat":43.29547,"lon":5.42299,"is_reserved":false,"is_disabled":false,"rental_uris":{"android":"levelo://app?vid=3ffecbf4-5512-4269-ac48-3e0a4bfa4e29","ios":"levelo://app?vid=3ffecbf4-5512-4269-ac48-3e0a4bfa4e29"},"vehicle_type_id":"4","last_reported":1745807321,"current_range_meters":26000,"station_id":"ce4bhph2rcd13ifvqhdg","pricing_plan_id":"cebpf4jnsgd1na2vs0mg"},{"bike_id":"be74ba03-b3ef-46b9-be90-7ff491bd09a0","system_id":"levelo_inurba_marseille","lat":43.32318,"lon":5.40613,"is_reserved":false,"is_disabled":false,"rental_uris":{"android":"levelo://app?vid=be74ba03-b3ef-46b9-be90-7ff491bd09a0","ios":"levelo://app?vid=be74ba03-b3ef-46b9-be90-7ff491bd09a0"},"vehicle_type_id":"4","last_reported":1745807321,"current_range_meters":26000,"station_id":"ce4bhq92rcd13ifvqhjg","pricing_plan_id":"cebpf4jnsgd1na2vs0mg"},{"bike_id":"9068dcc2-3f5d-403c-9d0d-d20e4a116f4d","system_id":"levelo_inurba_marseille","lat":43.32318,"lon":5.40646,"is_reserved":false,"is_disabled":false,"rental_uris":{"android":"levelo://app?vid=9068dcc2-3f5d-403c-9d0d-d20e4a116f4d","ios":"levelo://app?vid=9068dcc2-3f5d-403c-9d0d-d20e4a116f4d"},"vehicle_type_id":"4","last_reported":1745807321,"current_range_meters":26000,"station_id":"ce4bhq92rcd13ifvqhjg","pricing_plan_id":"cebpf4jnsgd1na2vs0mg"},{"bike_id":"5d81d436-0f02-46c5-9ac2-75b1a8d33ad6","system_id":"levelo_inurba_marseille","lat":43.31485,"lon":5.3732,"is_reserved":false,"is_disabled":false,"rental_uris":{"android":"levelo://app?vid=5d81d436-0f02-46c5-9ac2-75b1a8d33ad6","ios":"levelo://app?vid=5d81d436-0f02-46c5-9ac2-75b1a8d33ad6"},"vehicle_type_id":"4","last_reported":1745807321,"current_range_meters":26800,"station_id":"ce4bgt12rcd13ifvqcd0","pricing_plan_id":"cebpf4jnsgd1na2vs0mg"},{"bike_id":"b67e3e89-936d-4d8d-8f11-dbd530b676e9","system_id":"levelo_inurba_marseille","lat":43.31072,"lon":5.38369,"is_reserved":false,"is_disabled":false,"rental_uris":{"android":"levelo://app?vid=b67e3e89-936d-4d8d-8f11-dbd530b676e9","ios":"levelo://app?vid=b67e3e89-936d-4d8d-8f11-dbd530b676e9"},"vehicle_type_id":"4","last_reported":1745807321,"current_range_meters":26800,"station_id":"ce4bgv92rcd13ifvqcr0","pricing_plan_id":"cebpf4jnsgd1na2vs0mg"},{"bike_id":"c0ffa066-d466-4b70-bdee-5906a5449479","system_id":"levelo_inurba_marseille","lat":43.245558,"lon":5.395137,"is_reserved":false,"is_disabled":false,"rental_uris":{"android":"levelo://app?vid=c0ffa066-d466-4b70-bdee-5906a5449479","ios":"levelo://app?vid=c0ffa066-d466-4b70-bdee-5906a5449479"},"vehicle_type_id":"4","last_reported":1745807321,"current_range_meters":26800,"station_id":"ce4bhlp2rcd13ifvqgjg","pricing_plan_id":"cebpf4jnsgd1na2vs0mg"},{"bike_id":"9c268fab-d979-4600-8b19-31639af68498","system_id":"levelo_inurba_marseille","lat":43.2413,"lon":5.36412,"is_reserved":false,"is_disabled":false,"rental_uris":{"android":"levelo://app?vid=9c268fab-d979-4600-8b19-31639af68498","ios":"levelo://app?vid=9c268fab-d979-4600-8b19-31639af68498"},"vehicle_type_id":"4","last_reported":1745807321,"current_range_meters":26800,"station_id":"cpo36qri1sfpv3e86is0","pricing_plan_id":"cebpf4jnsgd1na2vs0mg"},{"bike_id":"06d7135f-92dd-41bb-bcb5-deada055d361","system_id":"levelo_inurba_marseille","lat":43.2501,"lon":5.37965,"is_reserved":false,"is_disabled":false,"rental_uris":{"android":"levelo://app?vid=06d7135f-92dd-41bb-bcb5-deada055d361","ios":"levelo://app?vid=06d7135f-92dd-41bb-bcb5-deada055d361"},"vehicle_type_id":"4","last_reported":1745807321,"current_range_meters":27200,"station_id":"","pricing_plan_id":"cebpf4jnsgd1na2vs0mg"},{"bike_id":"083cc163-62c1-4f50-8447-80ea8a3accc4","system_id":"levelo_inurba_marseille","lat":43.292175,"lon":5.369015,"is_reserved":false,"is_disabled":false,"rental_uris":{"android":"levelo://app?vid=083cc163-62c1-4f50-8447-80ea8a3accc4","ios":"levelo://app?vid=083cc163-62c1-4f50-8447-80ea8a3accc4"},"vehicle_type_id":"4","last_reported":1745807321,"current_range_meters":27200,"station_id":"","pricing_plan_id":"cebpf4jnsgd1na2vs0mg"},{"bike_id":"8631cac4-d687-49ec-a898-e71ecb49540f","system_id":"levelo_inurba_marseille","lat":43.312708,"lon":5.401708,"is_reserved":false,"is_disabled":false,"rental_uris":{"android":"levelo://app?vid=8631cac4-d687-49ec-a898-e71ecb49540f","ios":"levelo://app?vid=8631cac4-d687-49ec-a898-e71ecb49540f"},"vehicle_type_id":"4","last_reported":1745807321,"current_range_meters":27200,"station_id":"ce4bh092rcd13ifvqd30","pricing_plan_id":"cebpf4jnsgd1na2vs0mg"},{"bike_id":"56a2fd94-c1ca-49d8-ab0c-465ea20925ec","system_id":"levelo_inurba_marseille","lat":43.30643,"lon":5.40069,"is_reserved":false,"is_disabled":false,"rental_uris":{"android":"levelo://app?vid=56a2fd94-c1ca-49d8-ab0c-465ea20925ec","ios":"levelo://app?vid=56a2fd94-c1ca-49d8-ab0c-465ea20925ec"},"vehicle_type_id":"4","last_reported":1745807321,"current_range_meters":27200,"station_id":"ce4bh112rcd13ifvqda0","pricing_plan_id":"cebpf4jnsgd1na2vs0mg"},{"bike_id":"8cd88e1e-0127-4f50-9139-191246902330","system_id":"levelo_inurba_marseille","lat":43.25581,"lon":5.38254,"is_reserved":false,"is_disabled":false,"rental_uris":{"android":"levelo://app?vid=8cd88e1e-0127-4f50-9139-191246902330","ios":"levelo://app?vid=8cd88e1e-0127-4f50-9139-191246902330"},"vehicle_type_id":"4","last_reported":1745807321,"current_range_meters":27200,"station_id":"ce4bhih2rcd13ifvqfs0","pricing_plan_id":"cebpf4jnsgd1na2vs0mg"},{"bike_id":"962b9356-255a-4380-9199-78a866627fe1","system_id":"levelo_inurba_marseille","lat":43.231499,"lon":5.437154,"is_reserved":false,"is_disabled":false,"rental_uris":{"android":"levelo://app?vid=962b9356-255a-4380-9199-78a866627fe1","ios":"levelo://app?vid=962b9356-255a-4380-9199-78a866627fe1"},"vehicle_type_id":"4","last_reported":1745807321,"current_range_meters":27200,"station_id":"ce4bhmp2rcd13ifvqgog","pricing_plan_id":"cebpf4jnsgd1na2vs0mg"},{"bike_id":"60ebd736-fcb3-4f4c-8296-ee8470d685bb","system_id":"levelo_inurba_marseille","lat":43.281582,"lon":5.426308,"is_reserved":false,"is_disabled":false,"rental_uris":{"android":"levelo://app?vid=60ebd736-fcb3-4f4c-8296-ee8470d685bb","ios":"levelo://app?vid=60ebd736-fcb3-4f4c-8296-ee8470d685bb"},"vehicle_type_id":"4","last_reported":1745807321,"current_range_meters":27200,"station_id":"ce4bhnh2rcd13ifvqgug","pricing_plan_id":"cebpf4jnsgd1na2vs0mg"},{"bike_id":"3d54962c-ad23-44aa-93cd-ecf3707a1308","system_id":"levelo_inurba_marseille","lat":43.32337,"lon":5.40616,"is_reserved":false,"is_disabled":false,"rental_uris":{"android":"levelo://app?vid=3d54962c-ad23-44aa-93cd-ecf3707a1308","ios":"levelo://app?vid=3d54962c-ad23-44aa-93cd-ecf3707a1308"},"vehicle_type_id":"4","last_reported":1745807321,"current_range_meters":27200,"station_id":"ce4bhq92rcd13ifvqhjg","pricing_plan_id":"cebpf4jnsgd1na2vs0mg"},{"bike_id":"a7564461-2812-48dc-8bce-b7caab6f6895","system_id":"levelo_inurba_marseille","lat":43.2362,"lon":5.40353,"is_reserved":false,"is_disabled":false,"rental_uris":{"android":"levelo://app?vid=a7564461-2812-48dc-8bce-b7caab6f6895","ios":"levelo://app?vid=a7564461-2812-48dc-8bce-b7caab6f6895"},"vehicle_type_id":"4","last_reported":1745807321,"current_range_meters":27600,"station_id":"","pricing_plan_id":"cebpf4jnsgd1na2vs0mg"},{"bike_id":"a9a329f9-3bb3-4b77-967a-fc47385b443d","system_id":"levelo_inurba_marseille","lat":43.29574,"lon":5.3675,"is_reserved":false,"is_disabled":false,"rental_uris":{"android":"levelo://app?vid=a9a329f9-3bb3-4b77-967a-fc47385b443d","ios":"levelo://app?vid=a9a329f9-3bb3-4b77-967a-fc47385b443d"},"vehicle_type_id":"4","last_reported":1745807321,"current_range_meters":27600,"station_id":"ce4bgph2rcd13ifvqc2g","pricing_plan_id":"cebpf4jnsgd1na2vs0mg"},{"bike_id":"ab1d8a2a-8850-4d84-9dab-0b9fabed96c4","system_id":"levelo_inurba_marseille","lat":43.27061,"lon":5.42309,"is_reserved":false,"is_disabled":false,"rental_uris":{"android":"levelo://app?vid=ab1d8a2a-8850-4d84-9dab-0b9fabed96c4","ios":"levelo://app?vid=ab1d8a2a-8850-4d84-9dab-0b9fabed96c4"},"vehicle_type_id":"4","last_reported":1745807321,"current_range_meters":27600,"station_id":"ce4bhk92rcd13ifvqgb0","pricing_plan_id":"cebpf4jnsgd1na2vs0mg"},{"bike_id":"3e2c408b-ceea-45a5-888c-ba93f4913736","system_id":"levelo_inurba_marseille","lat":43.257175,"lon":5.411099,"is_reserved":false,"is_disabled":false,"rental_uris":{"android":"levelo://app?vid=3e2c408b-ceea-45a5-888c-ba93f4913736","ios":"levelo://app?vid=3e2c408b-ceea-45a5-888c-ba93f4913736"},"vehicle_type_id":"4","last_reported":1745807321,"current_range_meters":27600,"station_id":"ce4bhkp2rcd13ifvqgd0","pricing_plan_id":"cebpf4jnsgd1na2vs0mg"},{"bike_id":"fdde66e7-2d14-4013-a0b8-1a2fc4f9db7b","system_id":"levelo_inurba_marseille","lat":43.32327,"lon":5.40604,"is_reserved":false,"is_disabled":false,"rental_uris":{"android":"levelo://app?vid=fdde66e7-2d14-4013-a0b8-1a2fc4f9db7b","ios":"levelo://app?vid=fdde66e7-2d14-4013-a0b8-1a2fc4f9db7b"},"vehicle_type_id":"4","last_reported":1745807321,"current_range_meters":27600,"station_id":"ce4bhq92rcd13ifvqhjg","pricing_plan_id":"cebpf4jnsgd1na2vs0mg"},{"bike_id":"6e9630fe-b1a5-4f4f-9c68-788f8ad4b722","system_id":"levelo_inurba_marseille","lat":43.310738,"lon":5.383542,"is_reserved":false,"is_disabled":false,"rental_uris":{"android":"levelo://app?vid=6e9630fe-b1a5-4f4f-9c68-788f8ad4b722","ios":"levelo://app?vid=6e9630fe-b1a5-4f4f-9c68-788f8ad4b722"},"vehicle_type_id":"4","last_reported":1745807321,"current_range_meters":27600,"station_id":"ce4bhr12rcd13ifvqhqg","pricing_plan_id":"cebpf4jnsgd1na2vs0mg"},{"bike_id":"e46e06e6-cdff-416b-9396-261c7249a729","system_id":"levelo_inurba_marseille","lat":43.337444,"lon":5.374475,"is_reserved":false,"is_disabled":false,"rental_uris":{"android":"levelo://app?vid=e46e06e6-cdff-416b-9396-261c7249a729","ios":"levelo://app?vid=e46e06e6-cdff-416b-9396-261c7249a729"},"vehicle_type_id":"4","last_reported":1745807321,"current_range_meters":28000,"station_id":"","pricing_plan_id":"cebpf4jnsgd1na2vs0mg"},{"bike_id":"4c59b79c-7f2c-4c2e-8cfc-8d11c3d6c2c3","system_id":"levelo_inurba_marseille","lat":43.29995,"lon":5.37221,"is_reserved":false,"is_disabled":false,"rental_uris":{"android":"levelo://app?vid=4c59b79c-7f2c-4c2e-8cfc-8d11c3d6c2c3","ios":"levelo://app?vid=4c59b79c-7f2c-4c2e-8cfc-8d11c3d6c2c3"},"vehicle_type_id":"4","last_reported":1745807321,"current_range_meters":28000,"station_id":"ce4bgr92rcd13ifvqc7g","pricing_plan_id":"cebpf4jnsgd1na2vs0mg"},{"bike_id":"a8d2fe6c-b1b9-4ef3-99e0-c96f2cbb4e08","system_id":"levelo_inurba_marseille","lat":43.31362,"lon":5.38506,"is_reserved":false,"is_disabled":false,"rental_uris":{"android":"levelo://app?vid=a8d2fe6c-b1b9-4ef3-99e0-c96f2cbb4e08","ios":"levelo://app?vid=a8d2fe6c-b1b9-4ef3-99e0-c96f2cbb4e08"},"vehicle_type_id":"4","last_reported":1745807321,"current_range_meters":28000,"station_id":"ce4bgt92rcd13ifvqcf0","pricing_plan_id":"cebpf4jnsgd1na2vs0mg"},{"bike_id":"c920997d-a52e-47da-90e6-e6ee5658154c","system_id":"levelo_inurba_marseille","lat":43.31191,"lon":5.38714,"is_reserved":false,"is_disabled":false,"rental_uris":{"android":"levelo://app?vid=c920997d-a52e-47da-90e6-e6ee5658154c","ios":"levelo://app?vid=c920997d-a52e-47da-90e6-e6ee5658154c"},"vehicle_type_id":"4","last_reported":1745807321,"current_range_meters":28000,"station_id":"ce4bgv12rcd13ifvqcp0","pricing_plan_id":"cebpf4jnsgd1na2vs0mg"},{"bike_id":"a6c50e25-507a-4bca-84b3-6664e513faf0","system_id":"levelo_inurba_marseille","lat":43.292531,"lon":5.409041,"is_reserved":false,"is_disabled":false,"rental_uris":{"android":"levelo://app?vid=a6c50e25-507a-4bca-84b3-6664e513faf0","ios":"levelo://app?vid=a6c50e25-507a-4bca-84b3-6664e513faf0"},"vehicle_type_id":"4","last_reported":1745807321,"current_range_meters":28000,"station_id":"ce4bh192rcd13ifvqdc0","pricing_plan_id":"cebpf4jnsgd1na2vs0mg"},{"bike_id":"f3bf5ef5-43d2-444b-be52-5ba28b116a53","system_id":"levelo_inurba_marseille","lat":43.28946,"lon":5.36626,"is_reserved":false,"is_disabled":false,"rental_uris":{"android":"levelo://app?vid=f3bf5ef5-43d2-444b-be52-5ba28b116a53","ios":"levelo://app?vid=f3bf5ef5-43d2-444b-be52-5ba28b116a53"},"vehicle_type_id":"4","last_reported":1745807321,"current_range_meters":28000,"station_id":"ce4bhap2rcd13ifvqek0","pricing_plan_id":"cebpf4jnsgd1na2vs0mg"},{"bike_id":"8fc99840-fa1e-4de7-aab0-457985b7ae9b","system_id":"levelo_inurba_marseille","lat":43.27206,"lon":5.41,"is_reserved":false,"is_disabled":false,"rental_uris":{"android":"levelo://app?vid=8fc99840-fa1e-4de7-aab0-457985b7ae9b","ios":"levelo://app?vid=8fc99840-fa1e-4de7-aab0-457985b7ae9b"},"vehicle_type_id":"4","last_reported":1745807321,"current_range_meters":28000,"station_id":"ce4bhl12rcd13ifvqgf0","pricing_plan_id":"cebpf4jnsgd1na2vs0mg"},{"bike_id":"844c4e66-7715-41c3-9d71-57e44153211c","system_id":"levelo_inurba_marseille","lat":43.24163,"lon":5.39739,"is_reserved":false,"is_disabled":false,"rental_uris":{"android":"levelo://app?vid=844c4e66-7715-41c3-9d71-57e44153211c","ios":"levelo://app?vid=844c4e66-7715-41c3-9d71-57e44153211c"},"vehicle_type_id":"4","last_reported":1745807321,"current_range_meters":28000,"station_id":"ce4bhn12rcd13ifvqgpg","pricing_plan_id":"cebpf4jnsgd1na2vs0mg"},{"bike_id":"8d247f18-59f0-4c71-ae69-180e2a5cbe3f","system_id":"levelo_inurba_marseille","lat":43.2749,"lon":5.42471,"is_reserved":false,"is_disabled":false,"rental_uris":{"android":"levelo://app?vid=8d247f18-59f0-4c71-ae69-180e2a5cbe3f","ios":"levelo://app?vid=8d247f18-59f0-4c71-ae69-180e2a5cbe3f"},"vehicle_type_id":"4","last_reported":1745807321,"current_range_meters":28000,"station_id":"ce4bhn92rcd13ifvqgrg","pricing_plan_id":"cebpf4jnsgd1na2vs0mg"},{"bike_id":"7058d16a-52c6-4d0e-9cae-c91d44439c34","system_id":"levelo_inurba_marseille","lat":43.28131,"lon":5.42683,"is_reserved":false,"is_disabled":false,"rental_uris":{"android":"levelo://app?vid=7058d16a-52c6-4d0e-9cae-c91d44439c34","ios":"levelo://app?vid=7058d16a-52c6-4d0e-9cae-c91d44439c34"},"vehicle_type_id":"4","last_reported":1745807321,"current_range_meters":28000,"station_id":"ce4bhnh2rcd13ifvqgug","pricing_plan_id":"cebpf4jnsgd1na2vs0mg"},{"bike_id":"a49aeaf9-c071-432a-a6ea-a1869a14e620","system_id":"levelo_inurba_marseille","lat":43.21753,"lon":5.34609,"is_reserved":false,"is_disabled":false,"rental_uris":{"android":"levelo://app?vid=a49aeaf9-c071-432a-a6ea-a1869a14e620","ios":"levelo://app?vid=a49aeaf9-c071-432a-a6ea-a1869a14e620"},"vehicle_type_id":"4","last_reported":1745807321,"current_range_meters":28000,"station_id":"st_cvj6r9ubvosntc0bgbag","pricing_plan_id":"cebpf4jnsgd1na2vs0mg"},{"bike_id":"6aa9bb8b-0ee5-4130-b734-4984553f7143","system_id":"levelo_inurba_marseille","lat":43.26164,"lon":5.40733,"is_reserved":false,"is_disabled":false,"rental_uris":{"android":"levelo://app?vid=6aa9bb8b-0ee5-4130-b734-4984553f7143","ios":"levelo://app?vid=6aa9bb8b-0ee5-4130-b734-4984553f7143"},"vehicle_type_id":"4","last_reported":1745807321,"current_range_meters":28400,"station_id":"","pricing_plan_id":"cebpf4jnsgd1na2vs0mg"},{"bike_id":"7e5ad590-6874-4afb-9cdb-dc162eca4aa9","system_id":"levelo_inurba_marseille","lat":43.246652,"lon":5.381699,"is_reserved":false,"is_disabled":false,"rental_uris":{"android":"levelo://app?vid=7e5ad590-6874-4afb-9cdb-dc162eca4aa9","ios":"levelo://app?vid=7e5ad590-6874-4afb-9cdb-dc162eca4aa9"},"vehicle_type_id":"4","last_reported":1745807321,"current_range_meters":28400,"station_id":"","pricing_plan_id":"cebpf4jnsgd1na2vs0mg"},{"bike_id":"a638d552-b53d-40ba-afa5-73e8431027c5","system_id":"levelo_inurba_marseille","lat":43.23606,"lon":5.36525,"is_reserved":false,"is_disabled":false,"rental_uris":{"android":"levelo://app?vid=a638d552-b53d-40ba-afa5-73e8431027c5","ios":"levelo://app?vid=a638d552-b53d-40ba-afa5-73e8431027c5"},"vehicle_type_id":"4","last_reported":1745807321,"current_range_meters":28400,"station_id":"","pricing_plan_id":"cebpf4jnsgd1na2vs0mg"},{"bike_id":"780f0921-40ca-448d-9a84-533024521806","system_id":"levelo_inurba_marseille","lat":43.29996,"lon":5.3723,"is_reserved":false,"is_disabled":false,"rental_uris":{"android":"levelo://app?vid=780f0921-40ca-448d-9a84-533024521806","ios":"levelo://app?vid=780f0921-40ca-448d-9a84-533024521806"},"vehicle_type_id":"4","last_reported":1745807321,"current_range_meters":28400,"station_id":"ce4bgr92rcd13ifvqc7g","pricing_plan_id":"cebpf4jnsgd1na2vs0mg"},{"bike_id":"cdfd983b-b844-46e2-80f5-63052182defb","system_id":"levelo_inurba_marseille","lat":43.28852,"lon":5.35865,"is_reserved":false,"is_disabled":false,"rental_uris":{"android":"levelo://app?vid=cdfd983b-b844-46e2-80f5-63052182defb","ios":"levelo://app?vid=cdfd983b-b844-46e2-80f5-63052182defb"},"vehicle_type_id":"4","last_reported":1745807321,"current_range_meters":28400,"station_id":"ce4bhb12rcd13ifvqem0","pricing_plan_id":"cebpf4jnsgd1na2vs0mg"},{"bike_id":"3426c3dd-a0bc-47aa-9dc4-f9c50aef5118","system_id":"levelo_inurba_marseille","lat":43.2417,"lon":5.39726,"is_reserved":false,"is_disabled":false,"rental_uris":{"android":"levelo://app?vid=3426c3dd-a0bc-47aa-9dc4-f9c50aef5118","ios":"levelo://app?vid=3426c3dd-a0bc-47aa-9dc4-f9c50aef5118"},"vehicle_type_id":"4","last_reported":1745807321,"current_range_meters":28400,"station_id":"ce4bhn12rcd13ifvqgpg","pricing_plan_id":"cebpf4jnsgd1na2vs0mg"},{"bike_id":"a5af7363-aa60-4a32-b0d2-295daf31fdfe","system_id":"levelo_inurba_marseille","lat":43.30743,"lon":5.42444,"is_reserved":false,"is_disabled":false,"rental_uris":{"android":"levelo://app?vid=a5af7363-aa60-4a32-b0d2-295daf31fdfe","ios":"levelo://app?vid=a5af7363-aa60-4a32-b0d2-295daf31fdfe"},"vehicle_type_id":"4","last_reported":1745807321,"current_range_meters":28400,"station_id":"st_cvj6ca6bvosntc0bfgr0","pricing_plan_id":"cebpf4jnsgd1na2vs0mg"},{"bike_id":"e5ee914a-4967-48a7-9751-e3ca616edf9a","system_id":"levelo_inurba_marseille","lat":43.31358,"lon":5.38508,"is_reserved":false,"is_disabled":false,"rental_uris":{"android":"levelo://app?vid=e5ee914a-4967-48a7-9751-e3ca616edf9a","ios":"levelo://app?vid=e5ee914a-4967-48a7-9751-e3ca616edf9a"},"vehicle_type_id":"4","last_reported":1745807321,"current_range_meters":28800,"station_id":"ce4bgt92rcd13ifvqcf0","pricing_plan_id":"cebpf4jnsgd1na2vs0mg"},{"bike_id":"642de928-085b-4fd4-8761-ab7497e5d57d","system_id":"levelo_inurba_marseille","lat":43.30861,"lon":5.39647,"is_reserved":false,"is_disabled":false,"rental_uris":{"android":"levelo://app?vid=642de928-085b-4fd4-8761-ab7497e5d57d","ios":"levelo://app?vid=642de928-085b-4fd4-8761-ab7497e5d57d"},"vehicle_type_id":"4","last_reported":1745807321,"current_range_meters":28800,"station_id":"ce4bh012rcd13ifvqcv0","pricing_plan_id":"cebpf4jnsgd1na2vs0mg"},{"bike_id":"eb2cd288-7e6b-4994-946a-d1098a23ff12","system_id":"levelo_inurba_marseille","lat":43.29272,"lon":5.40125,"is_reserved":false,"is_disabled":false,"rental_uris":{"android":"levelo://app?vid=eb2cd288-7e6b-4994-946a-d1098a23ff12","ios":"levelo://app?vid=eb2cd288-7e6b-4994-946a-d1098a23ff12"},"vehicle_type_id":"4","last_reported":1745807321,"current_range_meters":28800,"station_id":"ce4bh312rcd13ifvqdk0","pricing_plan_id":"cebpf4jnsgd1na2vs0mg"},{"bike_id":"5eeff6e1-4d09-49c3-a22b-92406726c72f","system_id":"levelo_inurba_marseille","lat":43.28834,"lon":5.35854,"is_reserved":false,"is_disabled":false,"rental_uris":{"android":"levelo://app?vid=5eeff6e1-4d09-49c3-a22b-92406726c72f","ios":"levelo://app?vid=5eeff6e1-4d09-49c3-a22b-92406726c72f"},"vehicle_type_id":"4","last_reported":1745807321,"current_range_meters":28800,"station_id":"ce4bhb12rcd13ifvqem0","pricing_plan_id":"cebpf4jnsgd1na2vs0mg"},{"bike_id":"32408215-018f-4f63-8f30-8ef7e2be6f73","system_id":"levelo_inurba_marseille","lat":43.24175,"lon":5.39751,"is_reserved":false,"is_disabled":false,"rental_uris":{"android":"levelo://app?vid=32408215-018f-4f63-8f30-8ef7e2be6f73","ios":"levelo://app?vid=32408215-018f-4f63-8f30-8ef7e2be6f73"},"vehicle_type_id":"4","last_reported":1745807321,"current_range_meters":28800,"station_id":"ce4bhn12rcd13ifvqgpg","pricing_plan_id":"cebpf4jnsgd1na2vs0mg"},{"bike_id":"848b722d-d606-4578-ab04-b0d8f10befac","system_id":"levelo_inurba_marseille","lat":43.30926,"lon":5.40175,"is_reserved":false,"is_disabled":false,"rental_uris":{"android":"levelo://app?vid=848b722d-d606-4578-ab04-b0d8f10befac","ios":"levelo://app?vid=848b722d-d606-4578-ab04-b0d8f10befac"},"vehicle_type_id":"4","last_reported":1745807321,"current_range_meters":29600,"station_id":"ce4bgvp2rcd13ifvqct0","pricing_plan_id":"cebpf4jnsgd1na2vs0mg"},{"bike_id":"37f5824e-6533-4d30-9e14-8372f9086c7f","system_id":"levelo_inurba_marseille","lat":43.2834,"lon":5.38108,"is_reserved":false,"is_disabled":false,"rental_uris":{"android":"levelo://app?vid=37f5824e-6533-4d30-9e14-8372f9086c7f","ios":"levelo://app?vid=37f5824e-6533-4d30-9e14-8372f9086c7f"},"vehicle_type_id":"4","last_reported":1745807321,"current_range_meters":29600,"station_id":"ce4bh412rcd13ifvqdr0","pricing_plan_id":"cebpf4jnsgd1na2vs0mg"},{"bike_id":"7dd408bd-59be-49b1-b62b-9d19c35ce7ba","system_id":"levelo_inurba_marseille","lat":43.26555,"lon":5.39009,"is_reserved":false,"is_disabled":false,"rental_uris":{"android":"levelo://app?vid=7dd408bd-59be-49b1-b62b-9d19c35ce7ba","ios":"levelo://app?vid=7dd408bd-59be-49b1-b62b-9d19c35ce7ba"},"vehicle_type_id":"4","last_reported":1745807321,"current_range_meters":29600,"station_id":"ce4bhe12rcd13ifvqf30","pricing_plan_id":"cebpf4jnsgd1na2vs0mg"},{"bike_id":"a77274df-515f-4056-8418-d726ad218bd7","system_id":"levelo_inurba_marseille","lat":43.2607,"lon":5.39403,"is_reserved":false,"is_disabled":false,"rental_uris":{"android":"levelo://app?vid=a77274df-515f-4056-8418-d726ad218bd7","ios":"levelo://app?vid=a77274df-515f-4056-8418-d726ad218bd7"},"vehicle_type_id":"4","last_reported":1745807321,"current_range_meters":29600,"station_id":"ce4bhh92rcd13ifvqfj0","pricing_plan_id":"cebpf4jnsgd1na2vs0mg"},{"bike_id":"faf8a5d0-574c-4c7d-adc1-8a57e4375967","system_id":"levelo_inurba_marseille","lat":43.2816,"lon":5.42676,"is_reserved":false,"is_disabled":false,"rental_uris":{"android":"levelo://app?vid=faf8a5d0-574c-4c7d-adc1-8a57e4375967","ios":"levelo://app?vid=faf8a5d0-574c-4c7d-adc1-8a57e4375967"},"vehicle_type_id":"4","last_reported":1745807321,"current_range_meters":29600,"station_id":"ce4bhnh2rcd13ifvqgug","pricing_plan_id":"cebpf4jnsgd1na2vs0mg"},{"bike_id":"43265c63-b649-4911-bb73-476e176ec1e3","system_id":"levelo_inurba_marseille","lat":43.28962,"lon":5.36625,"is_reserved":false,"is_disabled":false,"rental_uris":{"android":"levelo://app?vid=43265c63-b649-4911-bb73-476e176ec1e3","ios":"levelo://app?vid=43265c63-b649-4911-bb73-476e176ec1e3"},"vehicle_type_id":"4","last_reported":1745807321,"current_range_meters":30000,"station_id":"","pricing_plan_id":"cebpf4jnsgd1na2vs0mg"},{"bike_id":"b49eff9c-1925-4472-8f52-78f1b28c6283","system_id":"levelo_inurba_marseille","lat":43.30461,"lon":5.37909,"is_reserved":false,"is_disabled":false,"rental_uris":{"android":"levelo://app?vid=b49eff9c-1925-4472-8f52-78f1b28c6283","ios":"levelo://app?vid=b49eff9c-1925-4472-8f52-78f1b28c6283"},"vehicle_type_id":"4","last_reported":1745807321,"current_range_meters":30000,"station_id":"ce4bgup2rcd13ifvqcn0","pricing_plan_id":"cebpf4jnsgd1na2vs0mg"},{"bike_id":"aba76054-ea8a-4909-9a10-32d0be3fa0ff","system_id":"levelo_inurba_marseille","lat":43.279371,"lon":5.379743,"is_reserved":false,"is_disabled":false,"rental_uris":{"android":"levelo://app?vid=aba76054-ea8a-4909-9a10-32d0be3fa0ff","ios":"levelo://app?vid=aba76054-ea8a-4909-9a10-32d0be3fa0ff"},"vehicle_type_id":"4","last_reported":1745807321,"current_range_meters":30000,"station_id":"ce4bgup2rcd13ifvqcn0","pricing_plan_id":"cebpf4jnsgd1na2vs0mg"},{"bike_id":"8d30bcb5-334f-4f3d-8209-eff7048ff965","system_id":"levelo_inurba_marseille","lat":43.28961,"lon":5.36401,"is_reserved":false,"is_disabled":false,"rental_uris":{"android":"levelo://app?vid=8d30bcb5-334f-4f3d-8209-eff7048ff965","ios":"levelo://app?vid=8d30bcb5-334f-4f3d-8209-eff7048ff965"},"vehicle_type_id":"4","last_reported":1745807321,"current_range_meters":30000,"station_id":"ce4bhc92rcd13ifvqetg","pricing_plan_id":"cebpf4jnsgd1na2vs0mg"},{"bike_id":"f58c2460-447f-4009-aca3-ca32bc86a424","system_id":"levelo_inurba_marseille","lat":43.24684,"lon":5.38139,"is_reserved":false,"is_disabled":false,"rental_uris":{"android":"levelo://app?vid=f58c2460-447f-4009-aca3-ca32bc86a424","ios":"levelo://app?vid=f58c2460-447f-4009-aca3-ca32bc86a424"},"vehicle_type_id":"4","last_reported":1745807321,"current_range_meters":30000,"station_id":"ce4bhih2rcd13ifvqfr0","pricing_plan_id":"cebpf4jnsgd1na2vs0mg"},{"bike_id":"62819554-518a-49a1-b76c-cab65ac6ee64","system_id":"levelo_inurba_marseille","lat":43.30812,"lon":5.43531,"is_reserved":false,"is_disabled":false,"rental_uris":{"android":"levelo://app?vid=62819554-518a-49a1-b76c-cab65ac6ee64","ios":"levelo://app?vid=62819554-518a-49a1-b76c-cab65ac6ee64"},"vehicle_type_id":"4","last_reported":1745807321,"current_range_meters":30000,"station_id":"ce4bhph2rcd13ifvqheg","pricing_plan_id":"cebpf4jnsgd1na2vs0mg"},{"bike_id":"6931aa35-3392-4450-8b17-a57e1906d27e","system_id":"levelo_inurba_marseille","lat":43.33599,"lon":5.40988,"is_reserved":false,"is_disabled":false,"rental_uris":{"android":"levelo://app?vid=6931aa35-3392-4450-8b17-a57e1906d27e","ios":"levelo://app?vid=6931aa35-3392-4450-8b17-a57e1906d27e"},"vehicle_type_id":"4","last_reported":1745807321,"current_range_meters":30000,"station_id":"ce4bhqh2rcd13ifvqhmg","pricing_plan_id":"cebpf4jnsgd1na2vs0mg"},{"bike_id":"889eb7ae-0895-4996-908a-f60390a74938","system_id":"levelo_inurba_marseille","lat":43.2959,"lon":5.3869,"is_reserved":false,"is_disabled":false,"rental_uris":{"android":"levelo://app?vid=889eb7ae-0895-4996-908a-f60390a74938","ios":"levelo://app?vid=889eb7ae-0895-4996-908a-f60390a74938"},"vehicle_type_id":"4","last_reported":1745807321,"current_range_meters":30400,"station_id":"","pricing_plan_id":"cebpf4jnsgd1na2vs0mg"},{"bike_id":"241ebc74-8676-4229-b202-f590b7cb234f","system_id":"levelo_inurba_marseille","lat":43.3087,"lon":5.39644,"is_reserved":false,"is_disabled":false,"rental_uris":{"android":"levelo://app?vid=241ebc74-8676-4229-b202-f590b7cb234f","ios":"levelo://app?vid=241ebc74-8676-4229-b202-f590b7cb234f"},"vehicle_type_id":"4","last_reported":1745807321,"current_range_meters":30400,"station_id":"ce4bh012rcd13ifvqcv0","pricing_plan_id":"cebpf4jnsgd1na2vs0mg"},{"bike_id":"0191b660-6a09-4dda-a29e-8f3b3a9fcd99","system_id":"levelo_inurba_marseille","lat":43.30091,"lon":5.39074,"is_reserved":false,"is_disabled":false,"rental_uris":{"android":"levelo://app?vid=0191b660-6a09-4dda-a29e-8f3b3a9fcd99","ios":"levelo://app?vid=0191b660-6a09-4dda-a29e-8f3b3a9fcd99"},"vehicle_type_id":"4","last_reported":1745807321,"current_range_meters":30400,"station_id":"ce4bh192rcd13ifvqdb0","pricing_plan_id":"cebpf4jnsgd1na2vs0mg"},{"bike_id":"28c5a892-e276-4cd1-9f45-8418cb9f0e47","system_id":"levelo_inurba_marseille","lat":43.28941,"lon":5.39625,"is_reserved":false,"is_disabled":false,"rental_uris":{"android":"levelo://app?vid=28c5a892-e276-4cd1-9f45-8418cb9f0e47","ios":"levelo://app?vid=28c5a892-e276-4cd1-9f45-8418cb9f0e47"},"vehicle_type_id":"4","last_reported":1745807321,"current_range_meters":30400,"station_id":"ce4bh3h2rcd13ifvqdn0","pricing_plan_id":"cebpf4jnsgd1na2vs0mg"},{"bike_id":"af411d7f-7e10-4436-8c31-69bdf635ed76","system_id":"levelo_inurba_marseille","lat":43.2841,"lon":5.37532,"is_reserved":false,"is_disabled":false,"rental_uris":{"android":"levelo://app?vid=af411d7f-7e10-4436-8c31-69bdf635ed76","ios":"levelo://app?vid=af411d7f-7e10-4436-8c31-69bdf635ed76"},"vehicle_type_id":"4","last_reported":1745807321,"current_range_meters":30400,"station_id":"ce4bh412rcd13ifvqds0","pricing_plan_id":"cebpf4jnsgd1na2vs0mg"},{"bike_id":"a6048654-461c-4ead-adac-b6e3b872ad89","system_id":"levelo_inurba_marseille","lat":43.28448,"lon":5.35889,"is_reserved":false,"is_disabled":false,"rental_uris":{"android":"levelo://app?vid=a6048654-461c-4ead-adac-b6e3b872ad89","ios":"levelo://app?vid=a6048654-461c-4ead-adac-b6e3b872ad89"},"vehicle_type_id":"4","last_reported":1745807321,"current_range_meters":30400,"station_id":"ce4bhah2rcd13ifvqei0","pricing_plan_id":"cebpf4jnsgd1na2vs0mg"},{"bike_id":"a11df432-f881-4c85-ac8b-f7dd44d99fcb","system_id":"levelo_inurba_marseille","lat":43.28659,"lon":5.36357,"is_reserved":false,"is_disabled":false,"rental_uris":{"android":"levelo://app?vid=a11df432-f881-4c85-ac8b-f7dd44d99fcb","ios":"levelo://app?vid=a11df432-f881-4c85-ac8b-f7dd44d99fcb"},"vehicle_type_id":"4","last_reported":1745807321,"current_range_meters":30400,"station_id":"ce4bhah2rcd13ifvqej0","pricing_plan_id":"cebpf4jnsgd1na2vs0mg"},{"bike_id":"9c7203b0-efcc-4c39-abad-011d88d9a062","system_id":"levelo_inurba_marseille","lat":43.28945,"lon":5.36633,"is_reserved":false,"is_disabled":false,"rental_uris":{"android":"levelo://app?vid=9c7203b0-efcc-4c39-abad-011d88d9a062","ios":"levelo://app?vid=9c7203b0-efcc-4c39-abad-011d88d9a062"},"vehicle_type_id":"4","last_reported":1745807321,"current_range_meters":30400,"station_id":"ce4bhap2rcd13ifvqek0","pricing_plan_id":"cebpf4jnsgd1na2vs0mg"},{"bike_id":"732a5215-d005-4ebe-80f9-98261e7f611f","system_id":"levelo_inurba_marseille","lat":43.27811,"lon":5.40709,"is_reserved":false,"is_disabled":false,"rental_uris":{"android":"levelo://app?vid=732a5215-d005-4ebe-80f9-98261e7f611f","ios":"levelo://app?vid=732a5215-d005-4ebe-80f9-98261e7f611f"},"vehicle_type_id":"4","last_reported":1745807321,"current_range_meters":30400,"station_id":"ce4bhnh2rcd13ifvqgtg","pricing_plan_id":"cebpf4jnsgd1na2vs0mg"},{"bike_id":"0a99f3fb-89db-4557-96c5-912d144c1b42","system_id":"levelo_inurba_marseille","lat":43.28728,"lon":5.36083,"is_reserved":false,"is_disabled":false,"rental_uris":{"android":"levelo://app?vid=0a99f3fb-89db-4557-96c5-912d144c1b42","ios":"levelo://app?vid=0a99f3fb-89db-4557-96c5-912d144c1b42"},"vehicle_type_id":"4","last_reported":1745807321,"current_range_meters":30400,"station_id":"cki0cbj6b192h4jlfktg","pricing_plan_id":"cebpf4jnsgd1na2vs0mg"},{"bike_id":"cd6b64e7-8e04-461d-a96e-14aef9cd67d1","system_id":"levelo_inurba_marseille","lat":43.241639,"lon":5.364042,"is_reserved":false,"is_disabled":false,"rental_uris":{"android":"levelo://app?vid=cd6b64e7-8e04-461d-a96e-14aef9cd67d1","ios":"levelo://app?vid=cd6b64e7-8e04-461d-a96e-14aef9cd67d1"},"vehicle_type_id":"4","last_reported":1745807321,"current_range_meters":30400,"station_id":"cpo36qri1sfpv3e86is0","pricing_plan_id":"cebpf4jnsgd1na2vs0mg"},{"bike_id":"979ad6ea-2d04-49c7-8e88-73c4b8b6d81c","system_id":"levelo_inurba_marseille","lat":43.31491,"lon":5.37296,"is_reserved":false,"is_disabled":false,"rental_uris":{"android":"levelo://app?vid=979ad6ea-2d04-49c7-8e88-73c4b8b6d81c","ios":"levelo://app?vid=979ad6ea-2d04-49c7-8e88-73c4b8b6d81c"},"vehicle_type_id":"4","last_reported":1745807321,"current_range_meters":30800,"station_id":"ce4bgt12rcd13ifvqcd0","pricing_plan_id":"cebpf4jnsgd1na2vs0mg"},{"bike_id":"4e26f854-27c2-4a90-87ff-722729d5f32d","system_id":"levelo_inurba_marseille","lat":43.3032,"lon":5.40446,"is_reserved":false,"is_disabled":false,"rental_uris":{"android":"levelo://app?vid=4e26f854-27c2-4a90-87ff-722729d5f32d","ios":"levelo://app?vid=4e26f854-27c2-4a90-87ff-722729d5f32d"},"vehicle_type_id":"4","last_reported":1745807321,"current_range_meters":30800,"station_id":"ce4bh012rcd13ifvqd10","pricing_plan_id":"cebpf4jnsgd1na2vs0mg"},{"bike_id":"7f8e5b0a-9b27-4090-8a0b-80fb640a2e0e","system_id":"levelo_inurba_marseille","lat":43.29278,"lon":5.40921,"is_reserved":false,"is_disabled":false,"rental_uris":{"android":"levelo://app?vid=7f8e5b0a-9b27-4090-8a0b-80fb640a2e0e","ios":"levelo://app?vid=7f8e5b0a-9b27-4090-8a0b-80fb640a2e0e"},"vehicle_type_id":"4","last_reported":1745807321,"current_range_meters":30800,"station_id":"ce4bh192rcd13ifvqdc0","pricing_plan_id":"cebpf4jnsgd1na2vs0mg"},{"bike_id":"d8cd055d-567d-41a9-8065-dca6bee59c73","system_id":"levelo_inurba_marseille","lat":43.28616,"lon":5.35099,"is_reserved":false,"is_disabled":false,"rental_uris":{"android":"levelo://app?vid=d8cd055d-567d-41a9-8065-dca6bee59c73","ios":"levelo://app?vid=d8cd055d-567d-41a9-8065-dca6bee59c73"},"vehicle_type_id":"4","last_reported":1745807321,"current_range_meters":30800,"station_id":"ce4bhch2rcd13ifvqeug","pricing_plan_id":"cebpf4jnsgd1na2vs0mg"},{"bike_id":"47f32fd9-3efe-4727-a807-429a46c299e1","system_id":"levelo_inurba_marseille","lat":43.3081,"lon":5.43527,"is_reserved":false,"is_disabled":false,"rental_uris":{"android":"levelo://app?vid=47f32fd9-3efe-4727-a807-429a46c299e1","ios":"levelo://app?vid=47f32fd9-3efe-4727-a807-429a46c299e1"},"vehicle_type_id":"4","last_reported":1745807321,"current_range_meters":30800,"station_id":"ce4bhph2rcd13ifvqheg","pricing_plan_id":"cebpf4jnsgd1na2vs0mg"},{"bike_id":"0aea03c9-d87b-4091-89ad-e9b9ee195054","system_id":"levelo_inurba_marseille","lat":43.31496,"lon":5.37309,"is_reserved":false,"is_disabled":false,"rental_uris":{"android":"levelo://app?vid=0aea03c9-d87b-4091-89ad-e9b9ee195054","ios":"levelo://app?vid=0aea03c9-d87b-4091-89ad-e9b9ee195054"},"vehicle_type_id":"4","last_reported":1745807321,"current_range_meters":31200,"station_id":"ce4bgt12rcd13ifvqcd0","pricing_plan_id":"cebpf4jnsgd1na2vs0mg"},{"bike_id":"2985651d-4165-4bde-9159-7e5dd4ca7b70","system_id":"levelo_inurba_marseille","lat":43.30927,"lon":5.40134,"is_reserved":false,"is_disabled":false,"rental_uris":{"android":"levelo://app?vid=2985651d-4165-4bde-9159-7e5dd4ca7b70","ios":"levelo://app?vid=2985651d-4165-4bde-9159-7e5dd4ca7b70"},"vehicle_type_id":"4","last_reported":1745807321,"current_range_meters":31200,"station_id":"ce4bgvp2rcd13ifvqct0","pricing_plan_id":"cebpf4jnsgd1na2vs0mg"},{"bike_id":"7c0299c1-21cf-46f7-b65a-7138a191a071","system_id":"levelo_inurba_marseille","lat":43.25495,"lon":5.3765,"is_reserved":false,"is_disabled":false,"rental_uris":{"android":"levelo://app?vid=7c0299c1-21cf-46f7-b65a-7138a191a071","ios":"levelo://app?vid=7c0299c1-21cf-46f7-b65a-7138a191a071"},"vehicle_type_id":"4","last_reported":1745807321,"current_range_meters":31200,"station_id":"ce4bhh12rcd13ifvqff0","pricing_plan_id":"cebpf4jnsgd1na2vs0mg"},{"bike_id":"b0141cb2-79f3-480c-9bc5-02c5d6b89536","system_id":"levelo_inurba_marseille","lat":43.27933,"lon":5.41061,"is_reserved":false,"is_disabled":false,"rental_uris":{"android":"levelo://app?vid=b0141cb2-79f3-480c-9bc5-02c5d6b89536","ios":"levelo://app?vid=b0141cb2-79f3-480c-9bc5-02c5d6b89536"},"vehicle_type_id":"4","last_reported":1745807321,"current_range_meters":31200,"station_id":"ce4bhnp2rcd13ifvqh0g","pricing_plan_id":"cebpf4jnsgd1na2vs0mg"},{"bike_id":"28cf00d4-515d-4390-8d3b-d1cab0acca0b","system_id":"levelo_inurba_marseille","lat":43.29568,"lon":5.42297,"is_reserved":false,"is_disabled":false,"rental_uris":{"android":"levelo://app?vid=28cf00d4-515d-4390-8d3b-d1cab0acca0b","ios":"levelo://app?vid=28cf00d4-515d-4390-8d3b-d1cab0acca0b"},"vehicle_type_id":"4","last_reported":1745807321,"current_range_meters":31200,"station_id":"ce4bhph2rcd13ifvqhdg","pricing_plan_id":"cebpf4jnsgd1na2vs0mg"},{"bike_id":"adabf14e-0015-429a-b984-a866124bb74b","system_id":"levelo_inurba_marseille","lat":43.32329,"lon":5.40702,"is_reserved":false,"is_disabled":false,"rental_uris":{"android":"levelo://app?vid=adabf14e-0015-429a-b984-a866124bb74b","ios":"levelo://app?vid=adabf14e-0015-429a-b984-a866124bb74b"},"vehicle_type_id":"4","last_reported":1745807321,"current_range_meters":31200,"station_id":"ce4bhq92rcd13ifvqhjg","pricing_plan_id":"cebpf4jnsgd1na2vs0mg"},{"bike_id":"0b3df682-bfdf-46da-861c-a431fd2e7fbb","system_id":"levelo_inurba_marseille","lat":43.24167,"lon":5.36409,"is_reserved":false,"is_disabled":false,"rental_uris":{"android":"levelo://app?vid=0b3df682-bfdf-46da-861c-a431fd2e7fbb","ios":"levelo://app?vid=0b3df682-bfdf-46da-861c-a431fd2e7fbb"},"vehicle_type_id":"4","last_reported":1745807321,"current_range_meters":31200,"station_id":"cpo36qri1sfpv3e86is0","pricing_plan_id":"cebpf4jnsgd1na2vs0mg"},{"bike_id":"3895061a-0b84-45de-89b2-cd6e8213cd92","system_id":"levelo_inurba_marseille","lat":43.31527,"lon":5.37328,"is_reserved":false,"is_disabled":false,"rental_uris":{"android":"levelo://app?vid=3895061a-0b84-45de-89b2-cd6e8213cd92","ios":"levelo://app?vid=3895061a-0b84-45de-89b2-cd6e8213cd92"},"vehicle_type_id":"4","last_reported":1745807321,"current_range_meters":32000,"station_id":"","pricing_plan_id":"cebpf4jnsgd1na2vs0mg"},{"bike_id":"35124b0d-94d1-43c8-83e0-e75f01a3e0a8","system_id":"levelo_inurba_marseille","lat":43.3032,"lon":5.4043,"is_reserved":false,"is_disabled":false,"rental_uris":{"android":"levelo://app?vid=35124b0d-94d1-43c8-83e0-e75f01a3e0a8","ios":"levelo://app?vid=35124b0d-94d1-43c8-83e0-e75f01a3e0a8"},"vehicle_type_id":"4","last_reported":1745807321,"current_range_meters":32000,"station_id":"ce4bh012rcd13ifvqd10","pricing_plan_id":"cebpf4jnsgd1na2vs0mg"},{"bike_id":"5e92b97c-6256-46c1-9d90-453591401fe0","system_id":"levelo_inurba_marseille","lat":43.30266,"lon":5.40078,"is_reserved":false,"is_disabled":false,"rental_uris":{"android":"levelo://app?vid=5e92b97c-6256-46c1-9d90-453591401fe0","ios":"levelo://app?vid=5e92b97c-6256-46c1-9d90-453591401fe0"},