{"last_updated":1699755613,"ttl":30,"version":"2.2","data":{"bikes":[{"bike_id":"6014e2ea-8380-4cd2-bfb4-a3e1fffca1f5","system_id":"levelo_inurba_marseille","lat":43.314811,"lon":5.373103,"is_reserved":false,"is_disabled":false,"rental_uris":{"android":"levelo://app?vid=6014e2ea-8380-4cd2-bfb4-a3e1fffca1f5","ios":"levelo://app?vid=6014e2ea-8380-4cd2-bfb4-a3e1fffca1f5"},"vehicle_type_id":"4","last_reported":1699755613,"current_range_meters":31600,"station_id":"ce4bgt12rcd13ifvqcd0","pricing_plan_id":"free"},{"bike_id":"0714a2b5-d6d7-4501-9614-be245ffa29b2","system_id":"levelo_inurba_marseille","lat":43.314811,"lon":5.373103,"is_reserved":false,"is_disabled":false,"rental_uris":{"android":"levelo://app?vid=0714a2b5-d6d7-4501-9614-be245ffa29b2","ios":"levelo://app?vid=0714a2b5-d6d7-4501-9614-be245ffa29b2"},"vehicle_type_id":"4","last_reported":1699755613,"current_range_meters":31600,"station_id":"ce4bgt12rcd13ifvqcd0","pricing_plan_id":"free"},{"bike_id":"44edb680-07e8-4b90-a42c-41c221042e1c","system_id":"levelo_inurba_marseille","lat":43.314811,"lon":5.373104,"is_reserved":false,"is_disabled":false,"rental_uris":{"android":"levelo://app?vid=44edb680-07e8-4b90-a42c-41c221042e1c","ios":"levelo://app?vid=44edb680-07e8-4b90-a42c-41c221042e1c"},"vehicle_type_id":"4","last_reported":1699755613,"current_range_meters":25200,"station_id":"ce4bgt12rcd13ifvqcd0","pricing_plan_id":"free"},{"bike_id":"7bad2d53-a792-46fb-b6b2-1390b0613487","system_id":"levelo_inurba_marseille","lat":43.309039,"lon":5.371797,"is_reserved":false,"is_disabled":false,"rental_uris":{"android":"levelo://app?vid=7bad2d53-a792-46fb-b6b2-1390b0613487","ios":"levelo://app?vid=7bad2d53-a792-46fb-b6b2-1390b0613487"},"vehicle_type_id":"4","last_reported":1699755613,"current_range_meters":8800,"station_id":"ce4bguh2rcd13ifvqckg","pricing_plan_id":"free"},{"bike_id":"6de27ae7-7d5d-40f1-8137-b2f7c517f567","system_id":"levelo_inurba_marseille","lat":43.309039,"lon":5.371797,"is_reserved":false,"is_disabled":false,"rental_uris":{"android":"levelo://app?vid=6de27ae7-7d5d-40f1-8137-b2f7c517f567","ios":"levelo://app?vid=6de27ae7-7d5d-40f1-8137-b2f7c517f567"},"vehicle_type_id":"4","last_reported":1699755613,"current_range_meters":30800,"station_id":"ce4bguh2rcd13ifvqckg","pricing_plan_id":"free"},{"bike_id":"863376ef-c80b-45a5-96d1-67b45bebfa30","system_id":"levelo_inurba_marseille","lat":43.316647,"lon":5.374596,"is_reserved":false,"is_disabled":false,"rental_uris":{"android":"levelo://app?vid=863376ef-c80b-45a5-96d1-67b45bebfa30","ios":"levelo://app?vid=863376ef-c80b-45a5-96d1-67b45bebfa30"},"vehicle_type_id":"4","last_reported":1699755613,"current_range_meters":0,"station_id":"","pricing_plan_id":"free"},{"bike_id":"e7e859da-80f8-4a95-b594-befc06773b3d","system_id":"levelo_inurba_marseille","lat":43.30557,"lon":5.36694,"is_reserved":false,"is_disabled":false,"rental_uris":{"android":"levelo://app?vid=e7e859da-80f8-4a95-b594-befc06773b3d","ios":"levelo://app?vid=e7e859da-80f8-4a95-b594-befc06773b3d"},"vehicle_type_id":"4","last_reported":1699755613,"current_range_meters":0,"station_id":"ce4bgrp2rcd13ifvqc9g","pricing_plan_id":"free"},{"bike_id":"67b5fc20-e117-4a39-bfea-4617b74bf86c","system_id":"levelo_inurba_marseille","lat":43.3054,"lon":5.36697,"is_reserved":false,"is_disabled":false,"rental_uris":{"android":"levelo://app?vid=67b5fc20-e117-4a39-bfea-4617b74bf86c","ios":"levelo://app?vid=67b5fc20-e117-4a39-bfea-4617b74bf86c"},"vehicle_type_id":"4","last_reported":1699755613,"current_range_meters":26400,"station_id":"ce4bgrp2rcd13ifvqc9g","pricing_plan_id":"free"},{"bike_id":"76b359af-c20b-45d0-a1df-78f4c9a6553a","system_id":"levelo_inurba_marseille","lat":43.30549,"lon":5.3653,"is_reserved":false,"is_disabled":false,"rental_uris":{"android":"levelo://app?vid=76b359af-c20b-45d0-a1df-78f4c9a6553a","ios":"levelo://app?vid=76b359af-c20b-45d0-a1df-78f4c9a6553a"},"vehicle_type_id":"4","last_reported":1699755613,"current_range_meters":16400,"station_id":"ce4bgs12rcd13ifvqcag","pricing_plan_id":"free"},{"bike_id":"308cc65d-6c90-44b0-af5e-26ff0f873c1c","system_id":"levelo_inurba_marseille","lat":43.30541,"lon":5.36538,"is_reserved":false,"is_disabled":false,"rental_uris":{"android":"levelo://app?vid=308cc65d-6c90-44b0-af5e-26ff0f873c1c","ios":"levelo://app?vid=308cc65d-6c90-44b0-af5e-26ff0f873c1c"},"vehicle_type_id":"4","last_reported":1699755613,"current_range_meters":18400,"station_id":"ce4bgs12rcd13ifvqcag","pricing_plan_id":"free"},{"bike_id":"28619d59-ffc7-49b9-8ddb-e451710f05eb","system_id":"levelo_inurba_marseille","lat":43.305357,"lon":5.365658,"is_reserved":false,"is_disabled":false,"rental_uris":{"android":"levelo://app?vid=28619d59-ffc7-49b9-8ddb-e451710f05eb","ios":"levelo://app?vid=28619d59-ffc7-49b9-8ddb-e451710f05eb"},"vehicle_type_id":"4","last_reported":1699755613,"current_range_meters":25600,"station_id":"ce4bgjh2rcd13ifvqbg0","pricing_plan_id":"free"},{"bike_id":"d898fc2b-3eda-46d8-b10d-9d6a0b30af95","system_id":"levelo_inurba_marseille","lat":43.30532,"lon":5.36548,"is_reserved":false,"is_disabled":false,"rental_uris":{"android":"levelo://app?vid=d898fc2b-3eda-46d8-b10d-9d6a0b30af95","ios":"levelo://app?vid=d898fc2b-3eda-46d8-b10d-9d6a0b30af95"},"vehicle_type_id":"4","last_reported":1699755613,"current_range_meters":30000,"station_id":"","pricing_plan_id":"free"},{"bike_id":"e7a8d292-51f3-4cc1-8908-d185745c130e","system_id":"levelo_inurba_marseille","lat":43.305989,"lon":5.37225,"is_reserved":false,"is_disabled":false,"rental_uris":{"android":"levelo://app?vid=e7a8d292-51f3-4cc1-8908-d185745c130e","ios":"levelo://app?vid=e7a8d292-51f3-4cc1-8908-d185745c130e"},"vehicle_type_id":"4","last_reported":1699755613,"current_range_meters":30400,"station_id":"ce4bgqh2rcd13ifvqc4g","pricing_plan_id":"free"},{"bike_id":"e7390b64-ec1f-4f29-ada8-1b6e50418f43","system_id":"levelo_inurba_marseille","lat":43.305989,"lon":5.37225,"is_reserved":false,"is_disabled":false,"rental_uris":{"android":"levelo://app?vid=e7390b64-ec1f-4f29-ada8-1b6e50418f43","ios":"levelo://app?vid=e7390b64-ec1f-4f29-ada8-1b6e50418f43"},"vehicle_type_id":"4","last_reported":1699755613,"current_range_meters":26400,"station_id":"ce4bgqh2rcd13ifvqc4g","pricing_plan_id":"free"},{"bike_id":"8f7397df-a956-4a5e-996b-c21ae1a6a829","system_id":"levelo_inurba_marseille","lat":43.305989,"lon":5.37225,"is_reserved":false,"is_disabled":false,"rental_uris":{"android":"levelo://app?vid=8f7397df-a956-4a5e-996b-c21ae1a6a829","ios":"levelo://app?vid=8f7397df-a956-4a5e-996b-c21ae1a6a829"},"vehicle_type_id":"4","last_reported":1699755613,"current_range_meters":30000,"station_id":"ce4bgqh2rcd13ifvqc4g","pricing_plan_id":"free"},{"bike_id":"08eeac99-4d3f-43fa-a64d-342b7acba7f7","system_id":"levelo_inurba_marseille","lat":43.311131,"lon":5.377651,"is_reserved":false,"is_disabled":false,"rental_uris":{"android":"levelo://app?vid=08eeac99-4d3f-43fa-a64d-342b7acba7f7","ios":"levelo://app?vid=08eeac99-4d3f-43fa-a64d-342b7acba7f7"},"vehicle_type_id":"4","last_reported":1699755613,"current_range_meters":30000,"station_id":"ce4bgt92rcd13ifvqcg0","pricing_plan_id":"free"},{"bike_id":"fe36bad0-c16c-463b-ba94-3a84df69d688","system_id":"levelo_inurba_marseille","lat":43.307945,"lon":5.376487,"is_reserved":false,"is_disabled":false,"rental_uris":{"android":"levelo://app?vid=fe36bad0-c16c-463b-ba94-3a84df69d688","ios":"levelo://app?vid=fe36bad0-c16c-463b-ba94-3a84df69d688"},"vehicle_type_id":"4","last_reported":1699755613,"current_range_meters":22400,"station_id":"ce4bgv92rcd13ifvqcq0","pricing_plan_id":"free"},{"bike_id":"725738a6-5f5e-45e1-ae23-125571a43936","system_id":"levelo_inurba_marseille","lat":43.307945,"lon":5.376487,"is_reserved":false,"is_disabled":false,"rental_uris":{"android":"levelo://app?vid=725738a6-5f5e-45e1-ae23-125571a43936","ios":"levelo://app?vid=725738a6-5f5e-45e1-ae23-125571a43936"},"vehicle_type_id":"4","last_reported":1699755613,"current_range_meters":26800,"station_id":"ce4bgv92rcd13ifvqcq0","pricing_plan_id":"free"},{"bike_id":"8b4bd6e0-f4e2-4f30-9038-f56de7860a5f","system_id":"levelo_inurba_marseille","lat":43.307945,"lon":5.376487,"is_reserved":false,"is_disabled":false,"rental_uris":{"android":"levelo://app?vid=8b4bd6e0-f4e2-4f30-9038-f56de7860a5f","ios":"levelo://app?vid=8b4bd6e0-f4e2-4f30-9038-f56de7860a5f"},"vehicle_type_id":"4","last_reported":1699755613,"current_range_meters":30400,"station_id":"ce4bgv92rcd13ifvqcq0","pricing_plan_id":"free"},{"bike_id":"57053367-5328-4d78-8951-737f56b37ed9","system_id":"levelo_inurba_marseille","lat":43.319924,"lon":5.373389,"is_reserved":false,"is_disabled":false,"rental_uris":{"android":"levelo://app?vid=57053367-5328-4d78-8951-737f56b37ed9","ios":"levelo://app?vid=57053367-5328-4d78-8951-737f56b37ed9"},"vehicle_type_id":"4","last_reported":1699755613,"current_range_meters":16400,"station_id":"","pricing_plan_id":"free"},{"bike_id":"b1915af2-e2f9-4895-b5b2-540311cde8e3","system_id":"levelo_inurba_marseille","lat":43.30782,"lon":5.3766,"is_reserved":false,"is_disabled":false,"rental_uris":{"android":"levelo://app?vid=b1915af2-e2f9-4895-b5b2-540311cde8e3","ios":"levelo://app?vid=b1915af2-e2f9-4895-b5b2-540311cde8e3"},"vehicle_type_id":"4","last_reported":1699755613,"current_range_meters":0,"station_id":"ce4bgv92rcd13ifvqcq0","pricing_plan_id":"free"},{"bike_id":"376f9c62-bfe6-4a65-827f-6dad0f919a97","system_id":"levelo_inurba_marseille","lat":43.317075,"lon":5.377367,"is_reserved":false,"is_disabled":false,"rental_uris":{"android":"levelo://app?vid=376f9c62-bfe6-4a65-827f-6dad0f919a97","ios":"levelo://app?vid=376f9c62-bfe6-4a65-827f-6dad0f919a97"},"vehicle_type_id":"4","last_reported":1699755613,"current_range_meters":16400,"station_id":"ce4bgth2rcd13ifvqch0","pricing_plan_id":"free"},{"bike_id":"2bc62703-d3d0-4adf-8fcf-eab26ac973b6","system_id":"levelo_inurba_marseille","lat":43.317075,"lon":5.377367,"is_reserved":false,"is_disabled":false,"rental_uris":{"android":"levelo://app?vid=2bc62703-d3d0-4adf-8fcf-eab26ac973b6","ios":"levelo://app?vid=2bc62703-d3d0-4adf-8fcf-eab26ac973b6"},"vehicle_type_id":"4","last_reported":1699755613,"current_range_meters":28000,"station_id":"ce4bgth2rcd13ifvqch0","pricing_plan_id":"free"},{"bike_id":"a6966d37-fdb6-4a9e-9d84-f3e69daa40de","system_id":"levelo_inurba_marseille","lat":43.317075,"lon":5.377367,"is_reserved":false,"is_disabled":false,"rental_uris":{"android":"levelo://app?vid=a6966d37-fdb6-4a9e-9d84-f3e69daa40de","ios":"levelo://app?vid=a6966d37-fdb6-4a9e-9d84-f3e69daa40de"},"vehicle_type_id":"4","last_reported":1699755613,"current_range_meters":28800,"station_id":"ce4bgth2rcd13ifvqch0","pricing_plan_id":"free"},{"bike_id":"f5d7923d-c0e3-4fbd-8c6e-7645d55b1746","system_id":"levelo_inurba_marseille","lat":43.30184,"lon":5.36613,"is_reserved":false,"is_disabled":false,"rental_uris":{"android":"levelo://app?vid=f5d7923d-c0e3-4fbd-8c6e-7645d55b1746","ios":"levelo://app?vid=f5d7923d-c0e3-4fbd-8c6e-7645d55b1746"},"vehicle_type_id":"4","last_reported":1699755613,"current_range_meters":6400,"station_id":"ce4bgrh2rcd13ifvqc8g","pricing_plan_id":"free"},{"bike_id":"a26a672c-8f86-40f5-9e8e-9856cf399a24","system_id":"levelo_inurba_marseille","lat":43.308064,"lon":5.38153,"is_reserved":false,"is_disabled":false,"rental_uris":{"android":"levelo://app?vid=a26a672c-8f86-40f5-9e8e-9856cf399a24","ios":"levelo://app?vid=a26a672c-8f86-40f5-9e8e-9856cf399a24"},"vehicle_type_id":"4","last_reported":1699755613,"current_range_meters":24800,"station_id":"ce4bgt12rcd13ifvqce0","pricing_plan_id":"free"},{"bike_id":"8ef52193-4a3c-4256-8c92-d02dc1148f05","system_id":"levelo_inurba_marseille","lat":43.324818,"lon":5.365625,"is_reserved":false,"is_disabled":false,"rental_uris":{"android":"levelo://app?vid=8ef52193-4a3c-4256-8c92-d02dc1148f05","ios":"levelo://app?vid=8ef52193-4a3c-4256-8c92-d02dc1148f05"},"vehicle_type_id":"4","last_reported":1699755613,"current_range_meters":10000,"station_id":"ce4bhs12rcd13ifvqhvg","pricing_plan_id":"free"},{"bike_id":"3a1a5d32-c24c-4df1-9f98-6e7f82f68534","system_id":"levelo_inurba_marseille","lat":43.301429,"lon":5.37413,"is_reserved":false,"is_disabled":false,"rental_uris":{"android":"levelo://app?vid=3a1a5d32-c24c-4df1-9f98-6e7f82f68534","ios":"levelo://app?vid=3a1a5d32-c24c-4df1-9f98-6e7f82f68534"},"vehicle_type_id":"4","last_reported":1699755613,"current_range_meters":16000,"station_id":"ce4bgs92rcd13ifvqcc0","pricing_plan_id":"free"},{"bike_id":"3819deec-fe3d-41c7-8346-2b107cb07054","system_id":"levelo_inurba_marseille","lat":43.315237,"lon":5.383797,"is_reserved":false,"is_disabled":false,"rental_uris":{"android":"levelo://app?vid=3819deec-fe3d-41c7-8346-2b107cb07054","ios":"levelo://app?vid=3819deec-fe3d-41c7-8346-2b107cb07054"},"vehicle_type_id":"4","last_reported":1699755613,"current_range_meters":0,"station_id":"","pricing_plan_id":"free"},{"bike_id":"69166d53-ec8e-4a0a-864c-7a29f7650dd8","system_id":"levelo_inurba_marseille","lat":43.321235,"lon":5.380034,"is_reserved":false,"is_disabled":false,"rental_uris":{"android":"levelo://app?vid=69166d53-ec8e-4a0a-864c-7a29f7650dd8","ios":"levelo://app?vid=69166d53-ec8e-4a0a-864c-7a29f7650dd8"},"vehicle_type_id":"4","last_reported":1699755613,"current_range_meters":16400,"station_id":"","pricing_plan_id":"free"},{"bike_id":"13d78257-2559-4a10-97b8-aaa7032179bc","system_id":"levelo_inurba_marseille","lat":43.319975,"lon":5.381519,"is_reserved":false,"is_disabled":false,"rental_uris":{"android":"levelo://app?vid=13d78257-2559-4a10-97b8-aaa7032179bc","ios":"levelo://app?vid=13d78257-2559-4a10-97b8-aaa7032179bc"},"vehicle_type_id":"4","last_reported":1699755613,"current_range_meters":2400,"station_id":"","pricing_plan_id":"free"},{"bike_id":"5b15b8b2-a52d-474e-aa67-ca7d1ec7cbc3","system_id":"levelo_inurba_marseille","lat":43.319935,"lon":5.381699,"is_reserved":false,"is_disabled":false,"rental_uris":{"android":"levelo://app?vid=5b15b8b2-a52d-474e-aa67-ca7d1ec7cbc3","ios":"levelo://app?vid=5b15b8b2-a52d-474e-aa67-ca7d1ec7cbc3"},"vehicle_type_id":"4","last_reported":1699755613,"current_range_meters":9600,"station_id":"ce4bhr12rcd13ifvqhpg","pricing_plan_id":"free"},{"bike_id":"c0985fbd-c500-46c9-aae5-e6275d5bf15c","system_id":"levelo_inurba_marseille","lat":43.319935,"lon":5.381699,"is_reserved":false,"is_disabled":false,"rental_uris":{"android":"levelo://app?vid=c0985fbd-c500-46c9-aae5-e6275d5bf15c","ios":"levelo://app?vid=c0985fbd-c500-46c9-aae5-e6275d5bf15c"},"vehicle_type_id":"4","last_reported":1699755613,"current_range_meters":18800,"station_id":"ce4bhr12rcd13ifvqhpg","pricing_plan_id":"free"},{"bike_id":"627d8c25-4397-4e23-90f2-8a321c87a482","system_id":"levelo_inurba_marseille","lat":43.313626,"lon":5.38494,"is_reserved":false,"is_disabled":false,"rental_uris":{"android":"levelo://app?vid=627d8c25-4397-4e23-90f2-8a321c87a482","ios":"levelo://app?vid=627d8c25-4397-4e23-90f2-8a321c87a482"},"vehicle_type_id":"4","last_reported":1699755613,"current_range_meters":29600,"station_id":"ce4bgt92rcd13ifvqcf0","pricing_plan_id":"free"},{"bike_id":"7ea4a509-ef2b-49fd-a09b-d99ffde64971","system_id":"levelo_inurba_marseille","lat":43.31363,"lon":5.384985,"is_reserved":false,"is_disabled":false,"rental_uris":{"android":"levelo://app?vid=7ea4a509-ef2b-49fd-a09b-d99ffde64971","ios":"levelo://app?vid=7ea4a509-ef2b-49fd-a09b-d99ffde64971"},"vehicle_type_id":"4","last_reported":1699755613,"current_range_meters":31200,"station_id":"ce4bgt92rcd13ifvqcf0","pricing_plan_id":"free"},{"bike_id":"77d8d805-7190-4f03-8116-7b447c27f570","system_id":"levelo_inurba_marseille","lat":43.313724,"lon":5.384996,"is_reserved":false,"is_disabled":false,"rental_uris":{"android":"levelo://app?vid=77d8d805-7190-4f03-8116-7b447c27f570","ios":"levelo://app?vid=77d8d805-7190-4f03-8116-7b447c27f570"},"vehicle_type_id":"4","last_reported":1699755613,"current_range_meters":25600,"station_id":"ce4bgt92rcd13ifvqcf0","pricing_plan_id":"free"},{"bike_id":"229d1788-dab7-44cf-8daf-5b09e2dbfaa0","system_id":"levelo_inurba_marseille","lat":43.31363,"lon":5.38503,"is_reserved":false,"is_disabled":false,"rental_uris":{"android":"levelo://app?vid=229d1788-dab7-44cf-8daf-5b09e2dbfaa0","ios":"levelo://app?vid=229d1788-dab7-44cf-8daf-5b09e2dbfaa0"},"vehicle_type_id":"4","last_reported":1699755613,"current_range_meters":28400,"station_id":"ce4bgt92rcd13ifvqcf0","pricing_plan_id":"free"},{"bike_id":"80697842-0806-4314-bfd8-b50afea5482b","system_id":"levelo_inurba_marseille","lat":43.31356,"lon":5.38508,"is_reserved":false,"is_disabled":false,"rental_uris":{"android":"levelo://app?vid=80697842-0806-4314-bfd8-b50afea5482b","ios":"levelo://app?vid=80697842-0806-4314-bfd8-b50afea5482b"},"vehicle_type_id":"4","last_reported":1699755613,"current_range_meters":31200,"station_id":"ce4bgt92rcd13ifvqcf0","pricing_plan_id":"free"},{"bike_id":"3e30ef58-1d95-45a1-bb5f-3a4448a3833a","system_id":"levelo_inurba_marseille","lat":43.313699,"lon":5.385075,"is_reserved":false,"is_disabled":false,"rental_uris":{"android":"levelo://app?vid=3e30ef58-1d95-45a1-bb5f-3a4448a3833a","ios":"levelo://app?vid=3e30ef58-1d95-45a1-bb5f-3a4448a3833a"},"vehicle_type_id":"4","last_reported":1699755613,"current_range_meters":29600,"station_id":"ce4bgt92rcd13ifvqcf0","pricing_plan_id":"free"},{"bike_id":"f0cd0e99-99df-428b-bcc4-5dfc1403c621","system_id":"levelo_inurba_marseille","lat":43.299403,"lon":5.36744,"is_reserved":false,"is_disabled":false,"rental_uris":{"android":"levelo://app?vid=f0cd0e99-99df-428b-bcc4-5dfc1403c621","ios":"levelo://app?vid=f0cd0e99-99df-428b-bcc4-5dfc1403c621"},"vehicle_type_id":"4","last_reported":1699755613,"current_range_meters":14000,"station_id":"","pricing_plan_id":"free"},{"bike_id":"2aa07dbd-abc3-43b6-a1fa-b3b25d3cf066","system_id":"levelo_inurba_marseille","lat":43.32148,"lon":5.38202,"is_reserved":false,"is_disabled":false,"rental_uris":{"android":"levelo://app?vid=2aa07dbd-abc3-43b6-a1fa-b3b25d3cf066","ios":"levelo://app?vid=2aa07dbd-abc3-43b6-a1fa-b3b25d3cf066"},"vehicle_type_id":"4","last_reported":1699755613,"current_range_meters":0,"station_id":"","pricing_plan_id":"free"},{"bike_id":"de86e3d1-a596-40c7-ba28-8077c5a08266","system_id":"levelo_inurba_marseille","lat":43.311722,"lon":5.387247,"is_reserved":false,"is_disabled":false,"rental_uris":{"android":"levelo://app?vid=de86e3d1-a596-40c7-ba28-8077c5a08266","ios":"levelo://app?vid=de86e3d1-a596-40c7-ba28-8077c5a08266"},"vehicle_type_id":"4","last_reported":1699755613,"current_range_meters":30400,"station_id":"ce4bgv12rcd13ifvqcp0","pricing_plan_id":"free"},{"bike_id":"8950f55a-e75d-4fac-9a7c-f529bc0580a5","system_id":"levelo_inurba_marseille","lat":43.320464,"lon":5.384144,"is_reserved":false,"is_disabled":false,"rental_uris":{"android":"levelo://app?vid=8950f55a-e75d-4fac-9a7c-f529bc0580a5","ios":"levelo://app?vid=8950f55a-e75d-4fac-9a7c-f529bc0580a5"},"vehicle_type_id":"4","last_reported":1699755613,"current_range_meters":11200,"station_id":"","pricing_plan_id":"free"},{"bike_id":"bc65f8a5-589d-4ae1-8620-42d2c579e103","system_id":"levelo_inurba_marseille","lat":43.322872,"lon":5.382756,"is_reserved":false,"is_disabled":false,"rental_uris":{"android":"levelo://app?vid=bc65f8a5-589d-4ae1-8620-42d2c579e103","ios":"levelo://app?vid=bc65f8a5-589d-4ae1-8620-42d2c579e103"},"vehicle_type_id":"4","last_reported":1699755613,"current_range_meters":23200,"station_id":"ce4bhr12rcd13ifvqhqg","pricing_plan_id":"free"},{"bike_id":"5d33c8da-15bc-40fe-b4eb-1d8d6465f82b","system_id":"levelo_inurba_marseille","lat":43.297794,"lon":5.370888,"is_reserved":false,"is_disabled":false,"rental_uris":{"android":"levelo://app?vid=5d33c8da-15bc-40fe-b4eb-1d8d6465f82b","ios":"levelo://app?vid=5d33c8da-15bc-40fe-b4eb-1d8d6465f82b"},"vehicle_type_id":"4","last_reported":1699755613,"current_range_meters":17600,"station_id":"ce4bgop2rcd13ifvqc1g","pricing_plan_id":"free"},{"bike_id":"1e65f059-8f9e-4f78-8b4e-b40aef3dca28","system_id":"levelo_inurba_marseille","lat":43.322872,"lon":5.382756,"is_reserved":false,"is_disabled":false,"rental_uris":{"android":"levelo://app?vid=1e65f059-8f9e-4f78-8b4e-b40aef3dca28","ios":"levelo://app?vid=1e65f059-8f9e-4f78-8b4e-b40aef3dca28"},"vehicle_type_id":"4","last_reported":1699755613,"current_range_meters":7600,"station_id":"ce4bhr12rcd13ifvqhqg","pricing_plan_id":"free"},{"bike_id":"1bb861ef-57bc-498b-b32e-a0eda2c305cb","system_id":"levelo_inurba_marseille","lat":43.32829,"lon":5.36696,"is_reserved":false,"is_disabled":false,"rental_uris":{"android":"levelo://app?vid=1bb861ef-57bc-498b-b32e-a0eda2c305cb","ios":"levelo://app?vid=1bb861ef-57bc-498b-b32e-a0eda2c305cb"},"vehicle_type_id":"4","last_reported":1699755613,"current_range_meters":12400,"station_id":"ce4bhs92rcd13ifvqi0g","pricing_plan_id":"free"},{"bike_id":"d2d0f7da-b236-4617-8f3a-aabe3bd3e52e","system_id":"levelo_inurba_marseille","lat":43.3283,"lon":5.36692,"is_reserved":false,"is_disabled":false,"rental_uris":{"android":"levelo://app?vid=d2d0f7da-b236-4617-8f3a-aabe3bd3e52e","ios":"levelo://app?vid=d2d0f7da-b236-4617-8f3a-aabe3bd3e52e"},"vehicle_type_id":"4","last_reported":1699755613,"current_range_meters":29600,"station_id":"ce4bhs92rcd13ifvqi0g","pricing_plan_id":"free"},{"bike_id":"a5f55da8-6724-472e-bcc9-c26d48cc07a7","system_id":"levelo_inurba_marseille","lat":43.328315,"lon":5.366855,"is_reserved":false,"is_disabled":false,"rental_uris":{"android":"levelo://app?vid=a5f55da8-6724-472e-bcc9-c26d48cc07a7","ios":"levelo://app?vid=a5f55da8-6724-472e-bcc9-c26d48cc07a7"},"vehicle_type_id":"4","last_reported":1699755613,"current_range_meters":4800,"station_id":"ce4bhs92rcd13ifvqi0g","pricing_plan_id":"free"},{"bike_id":"a46312e7-2ce8-4bc2-b854-62161f1506e5","system_id":"levelo_inurba_marseille","lat":43.32832,"lon":5.36691,"is_reserved":false,"is_disabled":false,"rental_uris":{"android":"levelo://app?vid=a46312e7-2ce8-4bc2-b854-62161f1506e5","ios":"levelo://app?vid=a46312e7-2ce8-4bc2-b854-62161f1506e5"},"vehicle_type_id":"4","last_reported":1699755613,"current_range_meters":30800,"station_id":"ce4bhs92rcd13ifvqi0g","pricing_plan_id":"free"},{"bike_id":"6e7351e1-4cd5-4415-b20c-72cd66273662","system_id":"levelo_inurba_marseille","lat":43.32832,"lon":5.366801,"is_reserved":false,"is_disabled":false,"rental_uris":{"android":"levelo://app?vid=6e7351e1-4cd5-4415-b20c-72cd66273662","ios":"levelo://app?vid=6e7351e1-4cd5-4415-b20c-72cd66273662"},"vehicle_type_id":"4","last_reported":1699755613,"current_range_meters":27600,"station_id":"ce4bhs92rcd13ifvqi0g","pricing_plan_id":"free"},{"bike_id":"3fc29c95-14f8-466b-984e-30e97660fd5f","system_id":"levelo_inurba_marseille","lat":43.328323,"lon":5.366878,"is_reserved":false,"is_disabled":false,"rental_uris":{"android":"levelo://app?vid=3fc29c95-14f8-466b-984e-30e97660fd5f","ios":"levelo://app?vid=3fc29c95-14f8-466b-984e-30e97660fd5f"},"vehicle_type_id":"4","last_reported":1699755613,"current_range_meters":0,"station_id":"ce4bhs92rcd13ifvqi0g","pricing_plan_id":"free"},{"bike_id":"3acec72d-dace-40d0-ba68-5a09713c41d7","system_id":"levelo_inurba_marseille","lat":43.297163,"lon":5.365866,"is_reserved":false,"is_disabled":false,"rental_uris":{"android":"levelo://app?vid=3acec72d-dace-40d0-ba68-5a09713c41d7","ios":"levelo://app?vid=3acec72d-dace-40d0-ba68-5a09713c41d7"},"vehicle_type_id":"4","last_reported":1699755613,"current_range_meters":24400,"station_id":"ce4bgn12rcd13ifvqbt0","pricing_plan_id":"free"},{"bike_id":"d447991a-59b4-4778-a190-7d2b0920a414","system_id":"levelo_inurba_marseille","lat":43.32215,"lon":5.38613,"is_reserved":false,"is_disabled":false,"rental_uris":{"android":"levelo://app?vid=d447991a-59b4-4778-a190-7d2b0920a414","ios":"levelo://app?vid=d447991a-59b4-4778-a190-7d2b0920a414"},"vehicle_type_id":"4","last_reported":1699755613,"current_range_meters":18400,"station_id":"","pricing_plan_id":"free"},{"bike_id":"408e1bba-ac1b-479c-ad30-32026784c873","system_id":"levelo_inurba_marseille","lat":43.2966,"lon":5.37463,"is_reserved":false,"is_disabled":false,"rental_uris":{"android":"levelo://app?vid=408e1bba-ac1b-479c-ad30-32026784c873","ios":"levelo://app?vid=408e1bba-ac1b-479c-ad30-32026784c873"},"vehicle_type_id":"4","last_reported":1699755613,"current_range_meters":13600,"station_id":"","pricing_plan_id":"free"},{"bike_id":"608964c0-4ecf-4c42-93df-bc5bcdb7a4db","system_id":"levelo_inurba_marseille","lat":43.29726,"lon":5.37692,"is_reserved":false,"is_disabled":false,"rental_uris":{"android":"levelo://app?vid=608964c0-4ecf-4c42-93df-bc5bcdb7a4db","ios":"levelo://app?vid=608964c0-4ecf-4c42-93df-bc5bcdb7a4db"},"vehicle_type_id":"4","last_reported":1699755613,"current_range_meters":0,"station_id":"ce4bgkh2rcd13ifvqbl0","pricing_plan_id":"free"},{"bike_id":"85e752a9-4e8b-4661-b149-fd63b29fbd41","system_id":"levelo_inurba_marseille","lat":43.309645,"lon":5.39035,"is_reserved":false,"is_disabled":false,"rental_uris":{"android":"levelo://app?vid=85e752a9-4e8b-4661-b149-fd63b29fbd41","ios":"levelo://app?vid=85e752a9-4e8b-4661-b149-fd63b29fbd41"},"vehicle_type_id":"4","last_reported":1699755613,"current_range_meters":2000,"station_id":"ce4bgup2rcd13ifvqco0","pricing_plan_id":"free"},{"bike_id":"67666d06-b522-43ec-9311-267b85d5c931","system_id":"levelo_inurba_marseille","lat":43.30945,"lon":5.39036,"is_reserved":false,"is_disabled":false,"rental_uris":{"android":"levelo://app?vid=67666d06-b522-43ec-9311-267b85d5c931","ios":"levelo://app?vid=67666d06-b522-43ec-9311-267b85d5c931"},"vehicle_type_id":"4","last_reported":1699755613,"current_range_meters":0,"station_id":"ce4bgup2rcd13ifvqco0","pricing_plan_id":"free"},{"bike_id":"ee16c8e6-4080-4f1f-8d1e-e70a79ffc07f","system_id":"levelo_inurba_marseille","lat":43.317557,"lon":5.390173,"is_reserved":false,"is_disabled":false,"rental_uris":{"android":"levelo://app?vid=ee16c8e6-4080-4f1f-8d1e-e70a79ffc07f","ios":"levelo://app?vid=ee16c8e6-4080-4f1f-8d1e-e70a79ffc07f"},"vehicle_type_id":"4","last_reported":1699755613,"current_range_meters":31600,"station_id":"ce4bhqp2rcd13ifvqhng","pricing_plan_id":"free"},{"bike_id":"6eb543ca-2cb1-49ae-a045-513302c5e6e5","system_id":"levelo_inurba_marseille","lat":43.317557,"lon":5.390173,"is_reserved":false,"is_disabled":false,"rental_uris":{"android":"levelo://app?vid=6eb543ca-2cb1-49ae-a045-513302c5e6e5","ios":"levelo://app?vid=6eb543ca-2cb1-49ae-a045-513302c5e6e5"},"vehicle_type_id":"4","last_reported":1699755613,"current_range_meters":31600,"station_id":"ce4bhqp2rcd13ifvqhng","pricing_plan_id":"free"},{"bike_id":"feff7d8e-9456-4b4b-b917-4f91bb23e023","system_id":"levelo_inurba_marseille","lat":43.3175,"lon":5.39022,"is_reserved":false,"is_disabled":false,"rental_uris":{"android":"levelo://app?vid=feff7d8e-9456-4b4b-b917-4f91bb23e023","ios":"levelo://app?vid=feff7d8e-9456-4b4b-b917-4f91bb23e023"},"vehicle_type_id":"4","last_reported":1699755613,"current_range_meters":16800,"station_id":"","pricing_plan_id":"free"},{"bike_id":"86b77831-73b2-483e-9b0e-cc137d4a3525","system_id":"levelo_inurba_marseille","lat":43.317557,"lon":5.390173,"is_reserved":false,"is_disabled":false,"rental_uris":{"android":"levelo://app?vid=86b77831-73b2-483e-9b0e-cc137d4a3525","ios":"levelo://app?vid=86b77831-73b2-483e-9b0e-cc137d4a3525"},"vehicle_type_id":"4","last_reported":1699755613,"current_range_meters":0,"station_id":"ce4bhqp2rcd13ifvqhng","pricing_plan_id":"free"},{"bike_id":"b895c862-71d5-45b0-a93a-2984fba6e59b","system_id":"levelo_inurba_marseille","lat":43.317557,"lon":5.390173,"is_reserved":false,"is_disabled":false,"rental_uris":{"android":"levelo://app?vid=b895c862-71d5-45b0-a93a-2984fba6e59b","ios":"levelo://app?vid=b895c862-71d5-45b0-a93a-2984fba6e59b"},"vehicle_type_id":"4","last_reported":1699755613,"current_range_meters":2400,"station_id":"ce4bhqp2rcd13ifvqhng","pricing_plan_id":"free"},{"bike_id":"c5de44e5-8b58-4e2c-add7-5bf95b4b86e5","system_id":"levelo_inurba_marseille","lat":43.304278,"lon":5.388868,"is_reserved":false,"is_disabled":false,"rental_uris":{"android":"levelo://app?vid=c5de44e5-8b58-4e2c-add7-5bf95b4b86e5","ios":"levelo://app?vid=c5de44e5-8b58-4e2c-add7-5bf95b4b86e5"},"vehicle_type_id":"4","last_reported":1699755613,"current_range_meters":24800,"station_id":"ce4bgk12rcd13ifvqbi0","pricing_plan_id":"free"},{"bike_id":"7d2090d9-0288-4527-885d-30aa98f0303a","system_id":"levelo_inurba_marseille","lat":43.296263,"lon":5.377094,"is_reserved":false,"is_disabled":false,"rental_uris":{"android":"levelo://app?vid=7d2090d9-0288-4527-885d-30aa98f0303a","ios":"levelo://app?vid=7d2090d9-0288-4527-885d-30aa98f0303a"},"vehicle_type_id":"4","last_reported":1699755613,"current_range_meters":5200,"station_id":"ce4bgi92rcd13ifvqb90","pricing_plan_id":"free"},{"bike_id":"23cb2e74-fbfd-49a0-86d7-6ee1a88c7350","system_id":"levelo_inurba_marseille","lat":43.296101,"lon":5.377275,"is_reserved":false,"is_disabled":false,"rental_uris":{"android":"levelo://app?vid=23cb2e74-fbfd-49a0-86d7-6ee1a88c7350","ios":"levelo://app?vid=23cb2e74-fbfd-49a0-86d7-6ee1a88c7350"},"vehicle_type_id":"4","last_reported":1699755613,"current_range_meters":0,"station_id":"ce4bgi92rcd13ifvqb90","pricing_plan_id":"free"},{"bike_id":"b2842481-0257-4533-bcc7-6e6c3a43ac97","system_id":"levelo_inurba_marseille","lat":43.299735,"lon":5.38483,"is_reserved":false,"is_disabled":false,"rental_uris":{"android":"levelo://app?vid=b2842481-0257-4533-bcc7-6e6c3a43ac97","ios":"levelo://app?vid=b2842481-0257-4533-bcc7-6e6c3a43ac97"},"vehicle_type_id":"4","last_reported":1699755613,"current_range_meters":28400,"station_id":"ce4bgj92rcd13ifvqbd0","pricing_plan_id":"free"},{"bike_id":"46d09fc5-4b41-49e9-877f-06d206140e89","system_id":"levelo_inurba_marseille","lat":43.299707,"lon":5.384859,"is_reserved":false,"is_disabled":false,"rental_uris":{"android":"levelo://app?vid=46d09fc5-4b41-49e9-877f-06d206140e89","ios":"levelo://app?vid=46d09fc5-4b41-49e9-877f-06d206140e89"},"vehicle_type_id":"4","last_reported":1699755613,"current_range_meters":4800,"station_id":"ce4bgj92rcd13ifvqbd0","pricing_plan_id":"free"},{"bike_id":"4072558f-ff31-4b9b-90e4-0b5f3c289591","system_id":"levelo_inurba_marseille","lat":43.299707,"lon":5.384859,"is_reserved":false,"is_disabled":false,"rental_uris":{"android":"levelo://app?vid=4072558f-ff31-4b9b-90e4-0b5f3c289591","ios":"levelo://app?vid=4072558f-ff31-4b9b-90e4-0b5f3c289591"},"vehicle_type_id":"4","last_reported":1699755613,"current_range_meters":32000,"station_id":"ce4bgj92rcd13ifvqbd0","pricing_plan_id":"free"},{"bike_id":"6e50e984-6ebf-49a4-a2ab-ad86c0282cb2","system_id":"levelo_inurba_marseille","lat":43.31277,"lon":5.39389,"is_reserved":false,"is_disabled":false,"rental_uris":{"android":"levelo://app?vid=6e50e984-6ebf-49a4-a2ab-ad86c0282cb2","ios":"levelo://app?vid=6e50e984-6ebf-49a4-a2ab-ad86c0282cb2"},"vehicle_type_id":"4","last_reported":1699755613,"current_range_meters":0,"station_id":"","pricing_plan_id":"free"},{"bike_id":"ce54ed79-11dc-4bb6-ad35-53c194896a42","system_id":"levelo_inurba_marseille","lat":43.293259,"lon":5.371586,"is_reserved":false,"is_disabled":false,"rental_uris":{"android":"levelo://app?vid=ce54ed79-11dc-4bb6-ad35-53c194896a42","ios":"levelo://app?vid=ce54ed79-11dc-4bb6-ad35-53c194896a42"},"vehicle_type_id":"4","last_reported":1699755613,"current_range_meters":12400,"station_id":"ce4bgh92rcd13ifvqb40","pricing_plan_id":"free"},{"bike_id":"1f2edeec-835f-4188-b75a-b19c37bb1dac","system_id":"levelo_inurba_marseille","lat":43.30109,"lon":5.3894,"is_reserved":false,"is_disabled":false,"rental_uris":{"android":"levelo://app?vid=1f2edeec-835f-4188-b75a-b19c37bb1dac","ios":"levelo://app?vid=1f2edeec-835f-4188-b75a-b19c37bb1dac"},"vehicle_type_id":"4","last_reported":1699755613,"current_range_meters":3600,"station_id":"","pricing_plan_id":"free"},{"bike_id":"57903118-0cf0-412a-8669-c8a0b0dd2dfb","system_id":"levelo_inurba_marseille","lat":43.31323,"lon":5.39676,"is_reserved":false,"is_disabled":false,"rental_uris":{"android":"levelo://app?vid=57903118-0cf0-412a-8669-c8a0b0dd2dfb","ios":"levelo://app?vid=57903118-0cf0-412a-8669-c8a0b0dd2dfb"},"vehicle_type_id":"4","last_reported":1699755613,"current_range_meters":31200,"station_id":"ce4bgvp2rcd13ifvqcu0","pricing_plan_id":"free"},{"bike_id":"f59b27db-d978-4153-95fe-92bc07a9844d","system_id":"levelo_inurba_marseille","lat":43.309038,"lon":5.396546,"is_reserved":false,"is_disabled":false,"rental_uris":{"android":"levelo://app?vid=f59b27db-d978-4153-95fe-92bc07a9844d","ios":"levelo://app?vid=f59b27db-d978-4153-95fe-92bc07a9844d"},"vehicle_type_id":"4","last_reported":1699755613,"current_range_meters":26000,"station_id":"ce4bh012rcd13ifvqcv0","pricing_plan_id":"free"},{"bike_id":"fc5e01a8-0846-4c8d-b6bc-eb17c75bfbcf","system_id":"levelo_inurba_marseille","lat":43.31334,"lon":5.39696,"is_reserved":false,"is_disabled":false,"rental_uris":{"android":"levelo://app?vid=fc5e01a8-0846-4c8d-b6bc-eb17c75bfbcf","ios":"levelo://app?vid=fc5e01a8-0846-4c8d-b6bc-eb17c75bfbcf"},"vehicle_type_id":"4","last_reported":1699755613,"current_range_meters":30800,"station_id":"ce4bgvp2rcd13ifvqcu0","pricing_plan_id":"free"},{"bike_id":"313dd4a7-00cd-4a51-97c2-2bc4a19f8416","system_id":"levelo_inurba_marseille","lat":43.31326,"lon":5.39698,"is_reserved":false,"is_disabled":false,"rental_uris":{"android":"levelo://app?vid=313dd4a7-00cd-4a51-97c2-2bc4a19f8416","ios":"levelo://app?vid=313dd4a7-00cd-4a51-97c2-2bc4a19f8416"},"vehicle_type_id":"4","last_reported":1699755613,"current_range_meters":30400,"station_id":"ce4bgvp2rcd13ifvqcu0","pricing_plan_id":"free"},{"bike_id":"54c2015a-8c0c-4d00-9b37-c79646c26110","system_id":"levelo_inurba_marseille","lat":43.313307,"lon":5.397004,"is_reserved":false,"is_disabled":false,"rental_uris":{"android":"levelo://app?vid=54c2015a-8c0c-4d00-9b37-c79646c26110","ios":"levelo://app?vid=54c2015a-8c0c-4d00-9b37-c79646c26110"},"vehicle_type_id":"4","last_reported":1699755613,"current_range_meters":7200,"station_id":"","pricing_plan_id":"free"},{"bike_id":"173fa19f-be95-4252-9c41-a51cd0cc5b5f","system_id":"levelo_inurba_marseille","lat":43.31327,"lon":5.39701,"is_reserved":false,"is_disabled":false,"rental_uris":{"android":"levelo://app?vid=173fa19f-be95-4252-9c41-a51cd0cc5b5f","ios":"levelo://app?vid=173fa19f-be95-4252-9c41-a51cd0cc5b5f"},"vehicle_type_id":"4","last_reported":1699755613,"current_range_meters":24800,"station_id":"ce4bgvp2rcd13ifvqcu0","pricing_plan_id":"free"},{"bike_id":"8fcea171-576a-4878-b340-69a955b8d1db","system_id":"levelo_inurba_marseille","lat":43.29529,"lon":5.385581,"is_reserved":false,"is_disabled":false,"rental_uris":{"android":"levelo://app?vid=8fcea171-576a-4878-b340-69a955b8d1db","ios":"levelo://app?vid=8fcea171-576a-4878-b340-69a955b8d1db"},"vehicle_type_id":"4","last_reported":1699755613,"current_range_meters":30800,"station_id":"ce4bgih2rcd13ifvqba0","pricing_plan_id":"free"},{"bike_id":"87d9a03e-8f09-4ce3-80d6-ce5aa057b47f","system_id":"levelo_inurba_marseille","lat":43.290327,"lon":5.375711,"is_reserved":false,"is_disabled":false,"rental_uris":{"android":"levelo://app?vid=87d9a03e-8f09-4ce3-80d6-ce5aa057b47f","ios":"levelo://app?vid=87d9a03e-8f09-4ce3-80d6-ce5aa057b47f"},"vehicle_type_id":"4","last_reported":1699755613,"current_range_meters":1600,"station_id":"ce4bh692rcd13ifvqe90","pricing_plan_id":"free"},{"bike_id":"e1bfe33b-96e2-4171-b8d5-a0afc1b87669","system_id":"levelo_inurba_marseille","lat":43.289184,"lon":5.366408,"is_reserved":false,"is_disabled":false,"rental_uris":{"android":"levelo://app?vid=e1bfe33b-96e2-4171-b8d5-a0afc1b87669","ios":"levelo://app?vid=e1bfe33b-96e2-4171-b8d5-a0afc1b87669"},"vehicle_type_id":"4","last_reported":1699755613,"current_range_meters":15200,"station_id":"ce4bhap2rcd13ifvqek0","pricing_plan_id":"free"},{"bike_id":"cc1aa884-459e-464c-b00d-d06b3e9b2096","system_id":"levelo_inurba_marseille","lat":43.289468,"lon":5.363719,"is_reserved":false,"is_disabled":false,"rental_uris":{"android":"levelo://app?vid=cc1aa884-459e-464c-b00d-d06b3e9b2096","ios":"levelo://app?vid=cc1aa884-459e-464c-b00d-d06b3e9b2096"},"vehicle_type_id":"4","last_reported":1699755613,"current_range_meters":20400,"station_id":"ce4bhc92rcd13ifvqetg","pricing_plan_id":"free"},{"bike_id":"e9a5b566-3224-4a1c-bcf8-d2a9a42b6590","system_id":"levelo_inurba_marseille","lat":43.330442,"lon":5.389148,"is_reserved":false,"is_disabled":false,"rental_uris":{"android":"levelo://app?vid=e9a5b566-3224-4a1c-bcf8-d2a9a42b6590","ios":"levelo://app?vid=e9a5b566-3224-4a1c-bcf8-d2a9a42b6590"},"vehicle_type_id":"4","last_reported":1699755613,"current_range_meters":14800,"station_id":"ce4bhr92rcd13ifvqhrg","pricing_plan_id":"free"},{"bike_id":"a36c42f0-31f6-4776-919a-6e5f675caef7","system_id":"levelo_inurba_marseille","lat":43.33039,"lon":5.38923,"is_reserved":false,"is_disabled":false,"rental_uris":{"android":"levelo://app?vid=a36c42f0-31f6-4776-919a-6e5f675caef7","ios":"levelo://app?vid=a36c42f0-31f6-4776-919a-6e5f675caef7"},"vehicle_type_id":"4","last_reported":1699755613,"current_range_meters":26000,"station_id":"ce4bhr92rcd13ifvqhrg","pricing_plan_id":"free"},{"bike_id":"5af5c8ff-304a-4e4c-8dd0-2a9a98ffbb7d","system_id":"levelo_inurba_marseille","lat":43.330442,"lon":5.389148,"is_reserved":false,"is_disabled":false,"rental_uris":{"android":"levelo://app?vid=5af5c8ff-304a-4e4c-8dd0-2a9a98ffbb7d","ios":"levelo://app?vid=5af5c8ff-304a-4e4c-8dd0-2a9a98ffbb7d"},"vehicle_type_id":"4","last_reported":1699755613,"current_range_meters":31200,"station_id":"ce4bhr92rcd13ifvqhrg","pricing_plan_id":"free"},{"bike_id":"5c560e3a-f944-4e78-aaf9-2a95d755a896","system_id":"levelo_inurba_marseille","lat":43.33043,"lon":5.3892,"is_reserved":false,"is_disabled":false,"rental_uris":{"android":"levelo://app?vid=5c560e3a-f944-4e78-aaf9-2a95d755a896","ios":"levelo://app?vid=5c560e3a-f944-4e78-aaf9-2a95d755a896"},"vehicle_type_id":"4","last_reported":1699755613,"current_range_meters":30000,"station_id":"ce4bhr92rcd13ifvqhrg","pricing_plan_id":"free"},{"bike_id":"3ab72e3c-0d27-431a-a496-5585e2f22788","system_id":"levelo_inurba_marseille","lat":43.330442,"lon":5.389148,"is_reserved":false,"is_disabled":false,"rental_uris":{"android":"levelo://app?vid=3ab72e3c-0d27-431a-a496-5585e2f22788","ios":"levelo://app?vid=3ab72e3c-0d27-431a-a496-5585e2f22788"},"vehicle_type_id":"4","last_reported":1699755613,"current_range_meters":28400,"station_id":"ce4bhr92rcd13ifvqhrg","pricing_plan_id":"free"},{"bike_id":"d91be78c-ebe2-4f7c-a4da-a0753ed823e7","system_id":"levelo_inurba_marseille","lat":43.330442,"lon":5.389148,"is_reserved":false,"is_disabled":false,"rental_uris":{"android":"levelo://app?vid=d91be78c-ebe2-4f7c-a4da-a0753ed823e7","ios":"levelo://app?vid=d91be78c-ebe2-4f7c-a4da-a0753ed823e7"},"vehicle_type_id":"4","last_reported":1699755613,"current_range_meters":20000,"station_id":"ce4bhr92rcd13ifvqhrg","pricing_plan_id":"free"},{"bike_id":"9546bf20-d75e-443c-b7da-9540acb88d8d","system_id":"levelo_inurba_marseille","lat":43.297875,"lon":5.393462,"is_reserved":false,"is_disabled":false,"rental_uris":{"android":"levelo://app?vid=9546bf20-d75e-443c-b7da-9540acb88d8d","ios":"levelo://app?vid=9546bf20-d75e-443c-b7da-9540acb88d8d"},"vehicle_type_id":"4","last_reported":1699755613,"current_range_meters":0,"station_id":"chh1huq6cuj3fo74tm60","pricing_plan_id":"free"},{"bike_id":"f5eb8271-31ff-4930-bafb-043693fbd373","system_id":"levelo_inurba_marseille","lat":43.295169,"lon":5.390426,"is_reserved":false,"is_disabled":false,"rental_uris":{"android":"levelo://app?vid=f5eb8271-31ff-4930-bafb-043693fbd373","ios":"levelo://app?vid=f5eb8271-31ff-4930-bafb-043693fbd373"},"vehicle_type_id":"4","last_reported":1699755613,"current_range_meters":30000,"station_id":"ce4bh3p2rcd13ifvqdp0","pricing_plan_id":"free"},{"bike_id":"acc31003-a7b8-4606-abc9-eb063c4ead4f","system_id":"levelo_inurba_marseille","lat":43.295311,"lon":5.390361,"is_reserved":false,"is_disabled":false,"rental_uris":{"android":"levelo://app?vid=acc31003-a7b8-4606-abc9-eb063c4ead4f","ios":"levelo://app?vid=acc31003-a7b8-4606-abc9-eb063c4ead4f"},"vehicle_type_id":"4","last_reported":1699755613,"current_range_meters":31200,"station_id":"ce4bh3p2rcd13ifvqdp0","pricing_plan_id":"free"},{"bike_id":"197abf59-4c46-462c-a765-46e836014a12","system_id":"levelo_inurba_marseille","lat":43.295305,"lon":5.390356,"is_reserved":false,"is_disabled":false,"rental_uris":{"android":"levelo://app?vid=197abf59-4c46-462c-a765-46e836014a12","ios":"levelo://app?vid=197abf59-4c46-462c-a765-46e836014a12"},"vehicle_type_id":"4","last_reported":1699755613,"current_range_meters":28000,"station_id":"ce4bh3p2rcd13ifvqdp0","pricing_plan_id":"free"},{"bike_id":"870ce5af-ca32-406e-a45a-98a7e00a7e3b","system_id":"levelo_inurba_marseille","lat":43.295304,"lon":5.390366,"is_reserved":false,"is_disabled":false,"rental_uris":{"android":"levelo://app?vid=870ce5af-ca32-406e-a45a-98a7e00a7e3b","ios":"levelo://app?vid=870ce5af-ca32-406e-a45a-98a7e00a7e3b"},"vehicle_type_id":"4","last_reported":1699755613,"current_range_meters":30000,"station_id":"ce4bh3p2rcd13ifvqdp0","pricing_plan_id":"free"},{"bike_id":"75bd2bfa-3d15-4ffa-bcee-4b41697e579d","system_id":"levelo_inurba_marseille","lat":43.295169,"lon":5.390426,"is_reserved":false,"is_disabled":false,"rental_uris":{"android":"levelo://app?vid=75bd2bfa-3d15-4ffa-bcee-4b41697e579d","ios":"levelo://app?vid=75bd2bfa-3d15-4ffa-bcee-4b41697e579d"},"vehicle_type_id":"4","last_reported":1699755613,"current_range_meters":31600,"station_id":"ce4bh3p2rcd13ifvqdp0","pricing_plan_id":"free"},{"bike_id":"22ac5185-f34d-4fee-8602-aabec51fbfe7","system_id":"levelo_inurba_marseille","lat":43.295169,"lon":5.390426,"is_reserved":false,"is_disabled":false,"rental_uris":{"android":"levelo://app?vid=22ac5185-f34d-4fee-8602-aabec51fbfe7","ios":"levelo://app?vid=22ac5185-f34d-4fee-8602-aabec51fbfe7"},"vehicle_type_id":"4","last_reported":1699755613,"current_range_meters":29200,"station_id":"ce4bh3p2rcd13ifvqdp0","pricing_plan_id":"free"},{"bike_id":"aaa7d48e-0fa8-46bd-8c22-21a4e5928530","system_id":"levelo_inurba_marseille","lat":43.306412,"lon":5.401035,"is_reserved":false,"is_disabled":false,"rental_uris":{"android":"levelo://app?vid=aaa7d48e-0fa8-46bd-8c22-21a4e5928530","ios":"levelo://app?vid=aaa7d48e-0fa8-46bd-8c22-21a4e5928530"},"vehicle_type_id":"4","last_reported":1699755613,"current_range_meters":32000,"station_id":"ce4bh112rcd13ifvqda0","pricing_plan_id":"free"},{"bike_id":"0f4f5a74-c459-47a6-9034-b0e42af42ed6","system_id":"levelo_inurba_marseille","lat":43.312609,"lon":5.401662,"is_reserved":false,"is_disabled":false,"rental_uris":{"android":"levelo://app?vid=0f4f5a74-c459-47a6-9034-b0e42af42ed6","ios":"levelo://app?vid=0f4f5a74-c459-47a6-9034-b0e42af42ed6"},"vehicle_type_id":"4","last_reported":1699755613,"current_range_meters":31200,"station_id":"ce4bh092rcd13ifvqd30","pricing_plan_id":"free"},{"bike_id":"eaea4368-c42e-4d29-bdcf-f6b7a85a1021","system_id":"levelo_inurba_marseille","lat":43.31274,"lon":5.40168,"is_reserved":false,"is_disabled":false,"rental_uris":{"android":"levelo://app?vid=eaea4368-c42e-4d29-bdcf-f6b7a85a1021","ios":"levelo://app?vid=eaea4368-c42e-4d29-bdcf-f6b7a85a1021"},"vehicle_type_id":"4","last_reported":1699755613,"current_range_meters":16800,"station_id":"ce4bh092rcd13ifvqd30","pricing_plan_id":"free"},{"bike_id":"8e8be408-3a3b-4ecf-ab7d-db5a7ae7b3f4","system_id":"levelo_inurba_marseille","lat":43.31279,"lon":5.4017,"is_reserved":false,"is_disabled":false,"rental_uris":{"android":"levelo://app?vid=8e8be408-3a3b-4ecf-ab7d-db5a7ae7b3f4","ios":"levelo://app?vid=8e8be408-3a3b-4ecf-ab7d-db5a7ae7b3f4"},"vehicle_type_id":"4","last_reported":1699755613,"current_range_meters":28400,"station_id":"ce4bh092rcd13ifvqd30","pricing_plan_id":"free"},{"bike_id":"8d0e7d5a-a5e3-4a7e-b28e-96d761caf723","system_id":"levelo_inurba_marseille","lat":43.312811,"lon":5.401708,"is_reserved":false,"is_disabled":false,"rental_uris":{"android":"levelo://app?vid=8d0e7d5a-a5e3-4a7e-b28e-96d761caf723","ios":"levelo://app?vid=8d0e7d5a-a5e3-4a7e-b28e-96d761caf723"},"vehicle_type_id":"4","last_reported":1699755613,"current_range_meters":6400,"station_id":"ce4bh092rcd13ifvqd30","pricing_plan_id":"free"},{"bike_id":"c0f81438-5037-4c1a-8b76-ce72bc1f5c4a","system_id":"levelo_inurba_marseille","lat":43.30927,"lon":5.40139,"is_reserved":false,"is_disabled":false,"rental_uris":{"android":"levelo://app?vid=c0f81438-5037-4c1a-8b76-ce72bc1f5c4a","ios":"levelo://app?vid=c0f81438-5037-4c1a-8b76-ce72bc1f5c4a"},"vehicle_type_id":"4","last_reported":1699755613,"current_range_meters":29200,"station_id":"ce4bgvp2rcd13ifvqct0","pricing_plan_id":"free"},{"bike_id":"7069865c-8ec8-421f-9325-ef00e54b0fd0","system_id":"levelo_inurba_marseille","lat":43.31276,"lon":5.40172,"is_reserved":false,"is_disabled":false,"rental_uris":{"android":"levelo://app?vid=7069865c-8ec8-421f-9325-ef00e54b0fd0","ios":"levelo://app?vid=7069865c-8ec8-421f-9325-ef00e54b0fd0"},"vehicle_type_id":"4","last_reported":1699755613,"current_range_meters":31200,"station_id":"ce4bh092rcd13ifvqd30","pricing_plan_id":"free"},{"bike_id":"9516bea0-980f-4069-940a-6400bc4cad62","system_id":"levelo_inurba_marseille","lat":43.30929,"lon":5.40143,"is_reserved":false,"is_disabled":false,"rental_uris":{"android":"levelo://app?vid=9516bea0-980f-4069-940a-6400bc4cad62","ios":"levelo://app?vid=9516bea0-980f-4069-940a-6400bc4cad62"},"vehicle_type_id":"4","last_reported":1699755613,"current_range_meters":31200,"station_id":"ce4bgvp2rcd13ifvqct0","pricing_plan_id":"free"},{"bike_id":"cef397f5-a8b0-4133-839e-429572821167","system_id":"levelo_inurba_marseille","lat":43.30923,"lon":5.40144,"is_reserved":false,"is_disabled":false,"rental_uris":{"android":"levelo://app?vid=cef397f5-a8b0-4133-839e-429572821167","ios":"levelo://app?vid=cef397f5-a8b0-4133-839e-429572821167"},"vehicle_type_id":"4","last_reported":1699755613,"current_range_meters":31600,"station_id":"ce4bgvp2rcd13ifvqct0","pricing_plan_id":"free"},{"bike_id":"f691344a-50b1-4798-bf1d-7392f5e2759c","system_id":"levelo_inurba_marseille","lat":43.309363,"lon":5.401503,"is_reserved":false,"is_disabled":false,"rental_uris":{"android":"levelo://app?vid=f691344a-50b1-4798-bf1d-7392f5e2759c","ios":"levelo://app?vid=f691344a-50b1-4798-bf1d-7392f5e2759c"},"vehicle_type_id":"4","last_reported":1699755613,"current_range_meters":29200,"station_id":"ce4bgvp2rcd13ifvqct0","pricing_plan_id":"free"},{"bike_id":"fda95fd6-7932-445d-b394-81373726a0f4","system_id":"levelo_inurba_marseille","lat":43.30642,"lon":5.401031,"is_reserved":false,"is_disabled":false,"rental_uris":{"android":"levelo://app?vid=fda95fd6-7932-445d-b394-81373726a0f4","ios":"levelo://app?vid=fda95fd6-7932-445d-b394-81373726a0f4"},"vehicle_type_id":"4","last_reported":1699755613,"current_range_meters":31200,"station_id":"ce4bh112rcd13ifvqda0","pricing_plan_id":"free"},{"bike_id":"1fe4eea9-e9b1-4eec-a425-6616c56c856f","system_id":"levelo_inurba_marseille","lat":43.306412,"lon":5.401035,"is_reserved":false,"is_disabled":false,"rental_uris":{"android":"levelo://app?vid=1fe4eea9-e9b1-4eec-a425-6616c56c856f","ios":"levelo://app?vid=1fe4eea9-e9b1-4eec-a425-6616c56c856f"},"vehicle_type_id":"4","last_reported":1699755613,"current_range_meters":32000,"station_id":"ce4bh112rcd13ifvqda0","pricing_plan_id":"free"},{"bike_id":"4fcd6969-d073-4555-b031-34f4c4fec1dd","system_id":"levelo_inurba_marseille","lat":43.306412,"lon":5.401035,"is_reserved":false,"is_disabled":false,"rental_uris":{"android":"levelo://app?vid=4fcd6969-d073-4555-b031-34f4c4fec1dd","ios":"levelo://app?vid=4fcd6969-d073-4555-b031-34f4c4fec1dd"},"vehicle_type_id":"4","last_reported":1699755613,"current_range_meters":800,"station_id":"ce4bh112rcd13ifvqda0","pricing_plan_id":"free"},{"bike_id":"743f3bc5-43c9-45a3-8965-b67b169c6c30","system_id":"levelo_inurba_marseille","lat":43.30513,"lon":5.40077,"is_reserved":false,"is_disabled":false,"rental_uris":{"android":"levelo://app?vid=743f3bc5-43c9-45a3-8965-b67b169c6c30","ios":"levelo://app?vid=743f3bc5-43c9-45a3-8965-b67b169c6c30"},"vehicle_type_id":"4","last_reported":1699755613,"current_range_meters":9600,"station_id":"","pricing_plan_id":"free"},{"bike_id":"cc164c50-43f8-44cf-b6da-d795e8200570","system_id":"levelo_inurba_marseille","lat":43.28727,"lon":5.36078,"is_reserved":false,"is_disabled":false,"rental_uris":{"android":"levelo://app?vid=cc164c50-43f8-44cf-b6da-d795e8200570","ios":"levelo://app?vid=cc164c50-43f8-44cf-b6da-d795e8200570"},"vehicle_type_id":"4","last_reported":1699755613,"current_range_meters":31200,"station_id":"cki0cbj6b192h4jlfktg","pricing_plan_id":"free"},{"bike_id":"9288764c-722e-440e-9e6b-a36059f9dd21","system_id":"levelo_inurba_marseille","lat":43.28727,"lon":5.360774,"is_reserved":false,"is_disabled":false,"rental_uris":{"android":"levelo://app?vid=9288764c-722e-440e-9e6b-a36059f9dd21","ios":"levelo://app?vid=9288764c-722e-440e-9e6b-a36059f9dd21"},"vehicle_type_id":"4","last_reported":1699755613,"current_range_meters":31200,"station_id":"cki0cbj6b192h4jlfktg","pricing_plan_id":"free"},{"bike_id":"71f88df4-e774-4d97-b967-d5394a875906","system_id":"levelo_inurba_marseille","lat":43.28727,"lon":5.36078,"is_reserved":false,"is_disabled":false,"rental_uris":{"android":"levelo://app?vid=71f88df4-e774-4d97-b967-d5394a875906","ios":"levelo://app?vid=71f88df4-e774-4d97-b967-d5394a875906"},"vehicle_type_id":"4","last_reported":1699755613,"current_range_meters":31200,"station_id":"cki0cbj6b192h4jlfktg","pricing_plan_id":"free"},{"bike_id":"0ba76634-83ab-4ae2-956c-75edd8dd6ad8","system_id":"levelo_inurba_marseille","lat":43.28727,"lon":5.36078,"is_reserved":false,"is_disabled":false,"rental_uris":{"android":"levelo://app?vid=0ba76634-83ab-4ae2-956c-75edd8dd6ad8","ios":"levelo://app?vid=0ba76634-83ab-4ae2-956c-75edd8dd6ad8"},"vehicle_type_id":"4","last_reported":1699755613,"current_range_meters":6000,"station_id":"cki0cbj6b192h4jlfktg","pricing_plan_id":"free"},{"bike_id":"d1890a70-6409-44b9-b8ee-7500423553e8","system_id":"levelo_inurba_marseille","lat":43.298681,"lon":5.397225,"is_reserved":false,"is_disabled":false,"rental_uris":{"android":"levelo://app?vid=d1890a70-6409-44b9-b8ee-7500423553e8","ios":"levelo://app?vid=d1890a70-6409-44b9-b8ee-7500423553e8"},"vehicle_type_id":"4","last_reported":1699755613,"current_range_meters":27200,"station_id":"ce4bh0h2rcd13ifvqd50","pricing_plan_id":"free"},{"bike_id":"4227f876-3bdf-4e87-b356-697b4942d0d1","system_id":"levelo_inurba_marseille","lat":43.302759,"lon":5.400793,"is_reserved":false,"is_disabled":false,"rental_uris":{"android":"levelo://app?vid=4227f876-3bdf-4e87-b356-697b4942d0d1","ios":"levelo://app?vid=4227f876-3bdf-4e87-b356-697b4942d0d1"},"vehicle_type_id":"4","last_reported":1699755613,"current_range_meters":28400,"station_id":"ce4bgvh2rcd13ifvqcs0","pricing_plan_id":"free"},{"bike_id":"755c1b59-f233-40c3-b2ae-92e5e74d8a11","system_id":"levelo_inurba_marseille","lat":43.302759,"lon":5.400793,"is_reserved":false,"is_disabled":false,"rental_uris":{"android":"levelo://app?vid=755c1b59-f233-40c3-b2ae-92e5e74d8a11","ios":"levelo://app?vid=755c1b59-f233-40c3-b2ae-92e5e74d8a11"},"vehicle_type_id":"4","last_reported":1699755613,"current_range_meters":2000,"station_id":"ce4bgvh2rcd13ifvqcs0","pricing_plan_id":"free"},{"bike_id":"45675d66-35cb-4665-8cf1-2b2eff2590e1","system_id":"levelo_inurba_marseille","lat":43.302759,"lon":5.400793,"is_reserved":false,"is_disabled":false,"rental_uris":{"android":"levelo://app?vid=45675d66-35cb-4665-8cf1-2b2eff2590e1","ios":"levelo://app?vid=45675d66-35cb-4665-8cf1-2b2eff2590e1"},"vehicle_type_id":"4","last_reported":1699755613,"current_range_meters":0,"station_id":"ce4bgvh2rcd13ifvqcs0","pricing_plan_id":"free"},{"bike_id":"485597e3-569e-4759-811e-1467c0ef875e","system_id":"levelo_inurba_marseille","lat":43.287184,"lon":5.37937,"is_reserved":false,"is_disabled":false,"rental_uris":{"android":"levelo://app?vid=485597e3-569e-4759-811e-1467c0ef875e","ios":"levelo://app?vid=485597e3-569e-4759-811e-1467c0ef875e"},"vehicle_type_id":"4","last_reported":1699755613,"current_range_meters":13200,"station_id":"ce4bh9p2rcd13ifvqec0","pricing_plan_id":"free"},{"bike_id":"a1b39922-14c9-4573-8801-fb57b34fa119","system_id":"levelo_inurba_marseille","lat":43.316523,"lon":5.404367,"is_reserved":false,"is_disabled":false,"rental_uris":{"android":"levelo://app?vid=a1b39922-14c9-4573-8801-fb57b34fa119","ios":"levelo://app?vid=a1b39922-14c9-4573-8801-fb57b34fa119"},"vehicle_type_id":"4","last_reported":1699755613,"current_range_meters":31200,"station_id":"ce4bh012rcd13ifvqd00","pricing_plan_id":"free"},{"bike_id":"10c3658b-4879-46c4-9c64-c9f6b65a4980","system_id":"levelo_inurba_marseille","lat":43.316517,"lon":5.404375,"is_reserved":false,"is_disabled":false,"rental_uris":{"android":"levelo://app?vid=10c3658b-4879-46c4-9c64-c9f6b65a4980","ios":"levelo://app?vid=10c3658b-4879-46c4-9c64-c9f6b65a4980"},"vehicle_type_id":"4","last_reported":1699755613,"current_range_meters":31200,"station_id":"ce4bh012rcd13ifvqd00","pricing_plan_id":"free"},{"bike_id":"7b515ad7-8382-468f-8226-53251379577f","system_id":"levelo_inurba_marseille","lat":43.316513,"lon":5.404467,"is_reserved":false,"is_disabled":false,"rental_uris":{"android":"levelo://app?vid=7b515ad7-8382-468f-8226-53251379577f","ios":"levelo://app?vid=7b515ad7-8382-468f-8226-53251379577f"},"vehicle_type_id":"4","last_reported":1699755613,"current_range_meters":12000,"station_id":"ce4bh012rcd13ifvqd00","pricing_plan_id":"free"},{"bike_id":"e57449c2-d088-47cf-8bf2-271593713c89","system_id":"levelo_inurba_marseille","lat":43.328576,"lon":5.398841,"is_reserved":false,"is_disabled":false,"rental_uris":{"android":"levelo://app?vid=e57449c2-d088-47cf-8bf2-271593713c89","ios":"levelo://app?vid=e57449c2-d088-47cf-8bf2-271593713c89"},"vehicle_type_id":"4","last_reported":1699755613,"current_range_meters":6000,"station_id":"","pricing_plan_id":"free"},{"bike_id":"0a1f9900-0aa8-4ca4-8071-284e61490898","system_id":"levelo_inurba_marseille","lat":43.291908,"lon":5.393203,"is_reserved":false,"is_disabled":false,"rental_uris":{"android":"levelo://app?vid=0a1f9900-0aa8-4ca4-8071-284e61490898","ios":"levelo://app?vid=0a1f9900-0aa8-4ca4-8071-284e61490898"},"vehicle_type_id":"4","last_reported":1699755613,"current_range_meters":0,"station_id":"ce4bh192rcd13ifvqdd0","pricing_plan_id":"free"},{"bike_id":"4749d076-7f7b-4b38-8dbc-12fe347e5e3f","system_id":"levelo_inurba_marseille","lat":43.284534,"lon":5.358662,"is_reserved":false,"is_disabled":false,"rental_uris":{"android":"levelo://app?vid=4749d076-7f7b-4b38-8dbc-12fe347e5e3f","ios":"levelo://app?vid=4749d076-7f7b-4b38-8dbc-12fe347e5e3f"},"vehicle_type_id":"4","last_reported":1699755613,"current_range_meters":25600,"station_id":"ce4bhah2rcd13ifvqei0","pricing_plan_id":"free"},{"bike_id":"e7663299-ed8b-4f15-850c-d622e3eda133","system_id":"levelo_inurba_marseille","lat":43.284534,"lon":5.358662,"is_reserved":false,"is_disabled":false,"rental_uris":{"android":"levelo://app?vid=e7663299-ed8b-4f15-850c-d622e3eda133","ios":"levelo://app?vid=e7663299-ed8b-4f15-850c-d622e3eda133"},"vehicle_type_id":"4","last_reported":1699755613,"current_range_meters":30800,"station_id":"ce4bhah2rcd13ifvqei0","pricing_plan_id":"free"},{"bike_id":"b4336bf5-84b7-4331-9317-adcaf2c5c8ab","system_id":"levelo_inurba_marseille","lat":43.284534,"lon":5.358662,"is_reserved":false,"is_disabled":false,"rental_uris":{"android":"levelo://app?vid=b4336bf5-84b7-4331-9317-adcaf2c5c8ab","ios":"levelo://app?vid=b4336bf5-84b7-4331-9317-adcaf2c5c8ab"},"vehicle_type_id":"4","last_reported":1699755613,"current_range_meters":1200,"station_id":"ce4bhah2rcd13ifvqei0","pricing_plan_id":"free"},{"bike_id":"fcbc09d0-a56e-44b1-8f38-8e6d5183a315","system_id":"levelo_inurba_marseille","lat":43.294314,"lon":5.397498,"is_reserved":false,"is_disabled":false,"rental_uris":{"android":"levelo://app?vid=fcbc09d0-a56e-44b1-8f38-8e6d5183a315","ios":"levelo://app?vid=fcbc09d0-a56e-44b1-8f38-8e6d5183a315"},"vehicle_type_id":"4","last_reported":1699755613,"current_range_meters":20400,"station_id":"ce4bh3h2rcd13ifvqdo0","pricing_plan_id":"free"},{"bike_id":"da2a4076-eb32-4a7c-974a-b1513619f5bb","system_id":"levelo_inurba_marseille","lat":43.294314,"lon":5.397498,"is_reserved":false,"is_disabled":false,"rental_uris":{"android":"levelo://app?vid=da2a4076-eb32-4a7c-974a-b1513619f5bb","ios":"levelo://app?vid=da2a4076-eb32-4a7c-974a-b1513619f5bb"},"vehicle_type_id":"4","last_reported":1699755613,"current_range_meters":23600,"station_id":"ce4bh3h2rcd13ifvqdo0","pricing_plan_id":"free"},{"bike_id":"1acc4e6e-f83b-4934-aabf-b5a819736f72","system_id":"levelo_inurba_marseille","lat":43.294314,"lon":5.397498,"is_reserved":false,"is_disabled":false,"rental_uris":{"android":"levelo://app?vid=1acc4e6e-f83b-4934-aabf-b5a819736f72","ios":"levelo://app?vid=1acc4e6e-f83b-4934-aabf-b5a819736f72"},"vehicle_type_id":"4","last_reported":1699755613,"current_range_meters":14800,"station_id":"ce4bh3h2rcd13ifvqdo0","pricing_plan_id":"free"},{"bike_id":"fe34be37-ab2a-4f07-b681-27d873d714a7","system_id":"levelo_inurba_marseille","lat":43.283998,"lon":5.375062,"is_reserved":false,"is_disabled":false,"rental_uris":{"android":"levelo://app?vid=fe34be37-ab2a-4f07-b681-27d873d714a7","ios":"levelo://app?vid=fe34be37-ab2a-4f07-b681-27d873d714a7"},"vehicle_type_id":"4","last_reported":1699755613,"current_range_meters":25200,"station_id":"ce4bh412rcd13ifvqds0","pricing_plan_id":"free"},{"bike_id":"c2955002-96fb-4cc6-a6a9-23839dfa5746","system_id":"levelo_inurba_marseille","lat":43.283998,"lon":5.375062,"is_reserved":false,"is_disabled":false,"rental_uris":{"android":"levelo://app?vid=c2955002-96fb-4cc6-a6a9-23839dfa5746","ios":"levelo://app?vid=c2955002-96fb-4cc6-a6a9-23839dfa5746"},"vehicle_type_id":"4","last_reported":1699755613,"current_range_meters":12400,"station_id":"ce4bh412rcd13ifvqds0","pricing_plan_id":"free"},{"bike_id":"70adb5b1-274a-437e-91ee-0d828abcebb8","system_id":"levelo_inurba_marseille","lat":43.295713,"lon":5.399639,"is_reserved":false,"is_disabled":false,"rental_uris":{"android":"levelo://app?vid=70adb5b1-274a-437e-91ee-0d828abcebb8","ios":"levelo://app?vid=70adb5b1-274a-437e-91ee-0d828abcebb8"},"vehicle_type_id":"4","last_reported":1699755613,"current_range_meters":31600,"station_id":"ce4bh312rcd13ifvqdj0","pricing_plan_id":"free"},{"bike_id":"08295c26-f27a-4ede-85e5-385b363c2964","system_id":"levelo_inurba_marseille","lat":43.319179,"lon":5.407725,"is_reserved":false,"is_disabled":false,"rental_uris":{"android":"levelo://app?vid=08295c26-f27a-4ede-85e5-385b363c2964","ios":"levelo://app?vid=08295c26-f27a-4ede-85e5-385b363c2964"},"vehicle_type_id":"4","last_reported":1699755613,"current_range_meters":31600,"station_id":"ce4bhq12rcd13ifvqhig","pricing_plan_id":"free"},{"bike_id":"c9982d22-c49f-43d9-bfbb-1ef6adfe757a","system_id":"levelo_inurba_marseille","lat":43.319179,"lon":5.407725,"is_reserved":false,"is_disabled":false,"rental_uris":{"android":"levelo://app?vid=c9982d22-c49f-43d9-bfbb-1ef6adfe757a","ios":"levelo://app?vid=c9982d22-c49f-43d9-bfbb-1ef6adfe757a"},"vehicle_type_id":"4","last_reported":1699755613,"current_range_meters":26000,"station_id":"ce4bhq12rcd13ifvqhig","pricing_plan_id":"free"},{"bike_id":"030625bd-f8ba-4389-9944-df2973894a22","system_id":"levelo_inurba_marseille","lat":43.325731,"lon":5.404186,"is_reserved":false,"is_disabled":false,"rental_uris":{"android":"levelo://app?vid=030625bd-f8ba-4389-9944-df2973894a22","ios":"levelo://app?vid=030625bd-f8ba-4389-9944-df2973894a22"},"vehicle_type_id":"4","last_reported":1699755613,"current_range_meters":1600,"station_id":"","pricing_plan_id":"free"},{"bike_id":"f0f283f2-bb6c-4724-afe8-19f46cefa39d","system_id":"levelo_inurba_marseille","lat":43.319179,"lon":5.407725,"is_reserved":false,"is_disabled":false,"rental_uris":{"android":"levelo://app?vid=f0f283f2-bb6c-4724-afe8-19f46cefa39d","ios":"levelo://app?vid=f0f283f2-bb6c-4724-afe8-19f46cefa39d"},"vehicle_type_id":"4","last_reported":1699755613,"current_range_meters":30800,"station_id":"ce4bhq12rcd13ifvqhig","pricing_plan_id":"free"},{"bike_id":"0b083c6d-d1d4-4abb-84f8-baa4bad07eff","system_id":"levelo_inurba_marseille","lat":43.28716,"lon":5.38908,"is_reserved":false,"is_disabled":false,"rental_uris":{"android":"levelo://app?vid=0b083c6d-d1d4-4abb-84f8-baa4bad07eff","ios":"levelo://app?vid=0b083c6d-d1d4-4abb-84f8-baa4bad07eff"},"vehicle_type_id":"4","last_reported":1699755613,"current_range_meters":800,"station_id":"","pricing_plan_id":"free"},{"bike_id":"92905be3-3ac9-48a9-81f5-f31dfa311c3b","system_id":"levelo_inurba_marseille","lat":43.33717,"lon":5.391857,"is_reserved":false,"is_disabled":false,"rental_uris":{"android":"levelo://app?vid=92905be3-3ac9-48a9-81f5-f31dfa311c3b","ios":"levelo://app?vid=92905be3-3ac9-48a9-81f5-f31dfa311c3b"},"vehicle_type_id":"4","last_reported":1699755613,"current_range_meters":28000,"station_id":"ce4bhr92rcd13ifvqhsg","pricing_plan_id":"free"},{"bike_id":"27511aab-823c-465b-826c-e631eb925b28","system_id":"levelo_inurba_marseille","lat":43.33717,"lon":5.391857,"is_reserved":false,"is_disabled":false,"rental_uris":{"android":"levelo://app?vid=27511aab-823c-465b-826c-e631eb925b28","ios":"levelo://app?vid=27511aab-823c-465b-826c-e631eb925b28"},"vehicle_type_id":"4","last_reported":1699755613,"current_range_meters":29200,"station_id":"ce4bhr92rcd13ifvqhsg","pricing_plan_id":"free"},{"bike_id":"5657435d-5dda-4fe7-89bd-c5d2f39e6ad8","system_id":"levelo_inurba_marseille","lat":43.337168,"lon":5.391825,"is_reserved":false,"is_disabled":false,"rental_uris":{"android":"levelo://app?vid=5657435d-5dda-4fe7-89bd-c5d2f39e6ad8","ios":"levelo://app?vid=5657435d-5dda-4fe7-89bd-c5d2f39e6ad8"},"vehicle_type_id":"4","last_reported":1699755613,"current_range_meters":27600,"station_id":"ce4bhr92rcd13ifvqhsg","pricing_plan_id":"free"},{"bike_id":"8f73f349-a272-4ad6-b8fd-7b017ee1ab31","system_id":"levelo_inurba_marseille","lat":43.337168,"lon":5.391825,"is_reserved":false,"is_disabled":false,"rental_uris":{"android":"levelo://app?vid=8f73f349-a272-4ad6-b8fd-7b017ee1ab31","ios":"levelo://app?vid=8f73f349-a272-4ad6-b8fd-7b017ee1ab31"},"vehicle_type_id":"4","last_reported":1699755613,"current_range_meters":31200,"station_id":"ce4bhr92rcd13ifvqhsg","pricing_plan_id":"free"},{"bike_id":"4059a96c-410f-44e5-aa76-510671624795","system_id":"levelo_inurba_marseille","lat":43.323464,"lon":5.406297,"is_reserved":false,"is_disabled":false,"rental_uris":{"android":"levelo://app?vid=4059a96c-410f-44e5-aa76-510671624795","ios":"levelo://app?vid=4059a96c-410f-44e5-aa76-510671624795"},"vehicle_type_id":"4","last_reported":1699755613,"current_range_meters":27200,"station_id":"ce4bhq92rcd13ifvqhjg","pricing_plan_id":"free"},{"bike_id":"0ea42eb7-d94a-4ce4-b101-6b35a0334432","system_id":"levelo_inurba_marseille","lat":43.323464,"lon":5.406297,"is_reserved":false,"is_disabled":false,"rental_uris":{"android":"levelo://app?vid=0ea42eb7-d94a-4ce4-b101-6b35a0334432","ios":"levelo://app?vid=0ea42eb7-d94a-4ce4-b101-6b35a0334432"},"vehicle_type_id":"4","last_reported":1699755613,"current_range_meters":22800,"station_id":"ce4bhq92rcd13ifvqhjg","pricing_plan_id":"free"},{"bike_id":"4e44b55a-0585-4ab9-bbe6-e3b6b61e4e2b","system_id":"levelo_inurba_marseille","lat":43.283433,"lon":5.381077,"is_reserved":false,"is_disabled":false,"rental_uris":{"android":"levelo://app?vid=4e44b55a-0585-4ab9-bbe6-e3b6b61e4e2b","ios":"levelo://app?vid=4e44b55a-0585-4ab9-bbe6-e3b6b61e4e2b"},"vehicle_type_id":"4","last_reported":1699755613,"current_range_meters":14400,"station_id":"ce4bh412rcd13ifvqdr0","pricing_plan_id":"free"},{"bike_id":"bfabb695-6f85-47ee-97fb-e81604c4a605","system_id":"levelo_inurba_marseille","lat":43.28942,"lon":5.39633,"is_reserved":false,"is_disabled":false,"rental_uris":{"android":"levelo://app?vid=bfabb695-6f85-47ee-97fb-e81604c4a605","ios":"levelo://app?vid=bfabb695-6f85-47ee-97fb-e81604c4a605"},"vehicle_type_id":"4","last_reported":1699755613,"current_range_meters":0,"station_id":"ce4bh3h2rcd13ifvqdn0","pricing_plan_id":"free"},{"bike_id":"694cc18d-6823-481a-9d09-67d990c2d197","system_id":"levelo_inurba_marseille","lat":43.324289,"lon":5.407562,"is_reserved":false,"is_disabled":false,"rental_uris":{"android":"levelo://app?vid=694cc18d-6823-481a-9d09-67d990c2d197","ios":"levelo://app?vid=694cc18d-6823-481a-9d09-67d990c2d197"},"vehicle_type_id":"4","last_reported":1699755613,"current_range_meters":0,"station_id":"","pricing_plan_id":"free"},{"bike_id":"432ad7c0-c091-4db3-bee6-1975f7d19759","system_id":"levelo_inurba_marseille","lat":43.29276,"lon":5.40119,"is_reserved":false,"is_disabled":false,"rental_uris":{"android":"levelo://app?vid=432ad7c0-c091-4db3-bee6-1975f7d19759","ios":"levelo://app?vid=432ad7c0-c091-4db3-bee6-1975f7d19759"},"vehicle_type_id":"4","last_reported":1699755613,"current_range_meters":12400,"station_id":"ce4bh312rcd13ifvqdk0","pricing_plan_id":"free"},{"bike_id":"cf4444bc-a8a7-4c52-9c6d-d70a42b0c5b9","system_id":"levelo_inurba_marseille","lat":43.292724,"lon":5.401131,"is_reserved":false,"is_disabled":false,"rental_uris":{"android":"levelo://app?vid=cf4444bc-a8a7-4c52-9c6d-d70a42b0c5b9","ios":"levelo://app?vid=cf4444bc-a8a7-4c52-9c6d-d70a42b0c5b9"},"vehicle_type_id":"4","last_reported":1699755613,"current_range_meters":24000,"station_id":"ce4bh312rcd13ifvqdk0","pricing_plan_id":"free"},{"bike_id":"b4b5c0fb-b1c6-492b-a3ae-53de46baeaad","system_id":"levelo_inurba_marseille","lat":43.283502,"lon":5.386471,"is_reserved":false,"is_disabled":false,"rental_uris":{"android":"levelo://app?vid=b4b5c0fb-b1c6-492b-a3ae-53de46baeaad","ios":"levelo://app?vid=b4b5c0fb-b1c6-492b-a3ae-53de46baeaad"},"vehicle_type_id":"4","last_reported":1699755613,"current_range_meters":28000,"station_id":"ce4bh492rcd13ifvqdvg","pricing_plan_id":"free"},{"bike_id":"12306468-1d20-416c-9379-1f5e2b1e7e90","system_id":"levelo_inurba_marseille","lat":43.280382,"lon":5.369291,"is_reserved":false,"is_disabled":false,"rental_uris":{"android":"levelo://app?vid=12306468-1d20-416c-9379-1f5e2b1e7e90","ios":"levelo://app?vid=12306468-1d20-416c-9379-1f5e2b1e7e90"},"vehicle_type_id":"4","last_reported":1699755613,"current_range_meters":29600,"station_id":"ce4bha12rcd13ifvqef0","pricing_plan_id":"free"},{"bike_id":"84fdd310-b6c4-4824-ba30-a8673539b410","system_id":"levelo_inurba_marseille","lat":43.296263,"lon":5.40601,"is_reserved":false,"is_disabled":false,"rental_uris":{"android":"levelo://app?vid=84fdd310-b6c4-4824-ba30-a8673539b410","ios":"levelo://app?vid=84fdd310-b6c4-4824-ba30-a8673539b410"},"vehicle_type_id":"4","last_reported":1699755613,"current_range_meters":28800,"station_id":"ce4bh0h2rcd13ifvqd60","pricing_plan_id":"free"},{"bike_id":"0c0469f4-4331-4fc2-afe9-d221a351ee95","system_id":"levelo_inurba_marseille","lat":43.296263,"lon":5.40601,"is_reserved":false,"is_disabled":false,"rental_uris":{"android":"levelo://app?vid=0c0469f4-4331-4fc2-afe9-d221a351ee95","ios":"levelo://app?vid=0c0469f4-4331-4fc2-afe9-d221a351ee95"},"vehicle_type_id":"4","last_reported":1699755613,"current_range_meters":10800,"station_id":"ce4bh0h2rcd13ifvqd60","pricing_plan_id":"free"},{"bike_id":"b35e6659-d289-4c23-b25c-c0be4cd11147","system_id":"levelo_inurba_marseille","lat":43.296263,"lon":5.40601,"is_reserved":false,"is_disabled":false,"rental_uris":{"android":"levelo://app?vid=b35e6659-d289-4c23-b25c-c0be4cd11147","ios":"levelo://app?vid=b35e6659-d289-4c23-b25c-c0be4cd11147"},"vehicle_type_id":"4","last_reported":1699755613,"current_range_meters":20800,"station_id":"ce4bh0h2rcd13ifvqd60","pricing_plan_id":"free"},{"bike_id":"c5269fde-c094-4163-a2ac-a6350e774e3c","system_id":"levelo_inurba_marseille","lat":43.323447,"lon":5.41003,"is_reserved":false,"is_disabled":false,"rental_uris":{"android":"levelo://app?vid=c5269fde-c094-4163-a2ac-a6350e774e3c","ios":"levelo://app?vid=c5269fde-c094-4163-a2ac-a6350e774e3c"},"vehicle_type_id":"4","last_reported":1699755613,"current_range_meters":3200,"station_id":"","pricing_plan_id":"free"},{"bike_id":"a7a718c5-ee63-4243-a2aa-d5332bbd0e52","system_id":"levelo_inurba_marseille","lat":43.284462,"lon":5.392121,"is_reserved":false,"is_disabled":false,"rental_uris":{"android":"levelo://app?vid=a7a718c5-ee63-4243-a2aa-d5332bbd0e52","ios":"levelo://app?vid=a7a718c5-ee63-4243-a2aa-d5332bbd0e52"},"vehicle_type_id":"4","last_reported":1699755613,"current_range_meters":10400,"station_id":"ce4bhoh2rcd13ifvqh5g","pricing_plan_id":"free"},{"bike_id":"1117b9a7-7693-4138-9782-62063356de7d","system_id":"levelo_inurba_marseille","lat":43.285742,"lon":5.395004,"is_reserved":false,"is_disabled":false,"rental_uris":{"android":"levelo://app?vid=1117b9a7-7693-4138-9782-62063356de7d","ios":"levelo://app?vid=1117b9a7-7693-4138-9782-62063356de7d"},"vehicle_type_id":"4","last_reported":1699755613,"current_range_meters":26400,"station_id":"ce4bh292rcd13ifvqdg0","pricing_plan_id":"free"},{"bike_id":"3174f05f-5ad4-4a14-b725-25d2dbd60472","system_id":"levelo_inurba_marseille","lat":43.28573,"lon":5.394992,"is_reserved":false,"is_disabled":false,"rental_uris":{"android":"levelo://app?vid=3174f05f-5ad4-4a14-b725-25d2dbd60472","ios":"levelo://app?vid=3174f05f-5ad4-4a14-b725-25d2dbd60472"},"vehicle_type_id":"4","last_reported":1699755613,"current_range_meters":25600,"station_id":"ce4bh292rcd13ifvqdg0","pricing_plan_id":"free"},{"bike_id":"aca80618-b48e-4f2d-ae6a-3957117fd225","system_id":"levelo_inurba_marseille","lat":43.28573,"lon":5.394992,"is_reserved":false,"is_disabled":false,"rental_uris":{"android":"levelo://app?vid=aca80618-b48e-4f2d-ae6a-3957117fd225","ios":"levelo://app?vid=aca80618-b48e-4f2d-ae6a-3957117fd225"},"vehicle_type_id":"4","last_reported":1699755613,"current_range_meters":31200,"station_id":"ce4bh292rcd13ifvqdg0","pricing_plan_id":"free"},{"bike_id":"f9b238b3-ce91-46fe-a65f-e1771ef13ae2","system_id":"levelo_inurba_marseille","lat":43.28573,"lon":5.394992,"is_reserved":false,"is_disabled":false,"rental_uris":{"android":"levelo://app?vid=f9b238b3-ce91-46fe-a65f-e1771ef13ae2","ios":"levelo://app?vid=f9b238b3-ce91-46fe-a65f-e1771ef13ae2"},"vehicle_type_id":"4","last_reported":1699755613,"current_range_meters":17200,"station_id":"ce4bh292rcd13ifvqdg0","pricing_plan_id":"free"},{"bike_id":"8753fbf8-8786-4ee7-8f02-556c941e2086","system_id":"levelo_inurba_marseille","lat":43.304188,"lon":5.412904,"is_reserved":false,"is_disabled":false,"rental_uris":{"android":"levelo://app?vid=8753fbf8-8786-4ee7-8f02-556c941e2086","ios":"levelo://app?vid=8753fbf8-8786-4ee7-8f02-556c941e2086"},"vehicle_type_id":"4","last_reported":1699755613,"current_range_meters":28400,"station_id":"ce4bhop2rcd13ifvqh8g","pricing_plan_id":"free"},{"bike_id":"5e9c99ea-9137-41c6-a0e7-03f126e9dc5d","system_id":"levelo_inurba_marseille","lat":43.279087,"lon":5.380114,"is_reserved":false,"is_disabled":false,"rental_uris":{"android":"levelo://app?vid=5e9c99ea-9137-41c6-a0e7-03f126e9dc5d","ios":"levelo://app?vid=5e9c99ea-9137-41c6-a0e7-03f126e9dc5d"},"vehicle_type_id":"4","last_reported":1699755613,"current_range_meters":28400,"station_id":"ce4bhf92rcd13ifvqf50","pricing_plan_id":"free"},{"bike_id":"9c352657-0cd2-470b-93f2-6b5ccbefddd3","system_id":"levelo_inurba_marseille","lat":43.287154,"lon":5.399979,"is_reserved":false,"is_disabled":false,"rental_uris":{"android":"levelo://app?vid=9c352657-0cd2-470b-93f2-6b5ccbefddd3","ios":"levelo://app?vid=9c352657-0cd2-470b-93f2-6b5ccbefddd3"},"vehicle_type_id":"4","last_reported":1699755613,"current_range_meters":4400,"station_id":"ce4bho92rcd13ifvqh3g","pricing_plan_id":"free"},{"bike_id":"feca28d2-7019-4e39-96be-d7938cc29597","system_id":"levelo_inurba_marseille","lat":43.32435,"lon":5.4137,"is_reserved":false,"is_disabled":false,"rental_uris":{"android":"levelo://app?vid=feca28d2-7019-4e39-96be-d7938cc29597","ios":"levelo://app?vid=feca28d2-7019-4e39-96be-d7938cc29597"},"vehicle_type_id":"4","last_reported":1699755613,"current_range_meters":19200,"station_id":"","pricing_plan_id":"free"},{"bike_id":"0779d43e-fe69-423b-a527-8860d39e5292","system_id":"levelo_inurba_marseille","lat":43.279742,"lon":5.38744,"is_reserved":false,"is_disabled":false,"rental_uris":{"android":"levelo://app?vid=0779d43e-fe69-423b-a527-8860d39e5292","ios":"levelo://app?vid=0779d43e-fe69-423b-a527-8860d39e5292"},"vehicle_type_id":"4","last_reported":1699755613,"current_range_meters":28000,"station_id":"ce4bhg12rcd13ifvqf80","pricing_plan_id":"free"},{"bike_id":"80fa2f1a-d106-4131-9662-893ca7e4994e","system_id":"levelo_inurba_marseille","lat":43.292571,"lon":5.409107,"is_reserved":false,"is_disabled":false,"rental_uris":{"android":"levelo://app?vid=80fa2f1a-d106-4131-9662-893ca7e4994e","ios":"levelo://app?vid=80fa2f1a-d106-4131-9662-893ca7e4994e"},"vehicle_type_id":"4","last_reported":1699755613,"current_range_meters":29600,"station_id":"ce4bh192rcd13ifvqdc0","pricing_plan_id":"free"},{"bike_id":"51e39558-6fce-4d4a-807a-0fa0031da8af","system_id":"levelo_inurba_marseille","lat":43.292571,"lon":5.409107,"is_reserved":false,"is_disabled":false,"rental_uris":{"android":"levelo://app?vid=51e39558-6fce-4d4a-807a-0fa0031da8af","ios":"levelo://app?vid=51e39558-6fce-4d4a-807a-0fa0031da8af"},"vehicle_type_id":"4","last_reported":1699755613,"current_range_meters":27600,"station_id":"ce4bh192rcd13ifvqdc0","pricing_plan_id":"free"},{"bike_id":"06b94600-95a5-4ab7-8bc0-a183d84abc7e","system_id":"levelo_inurba_marseille","lat":43.292569,"lon":5.409107,"is_reserved":false,"is_disabled":false,"rental_uris":{"android":"levelo://app?vid=06b94600-95a5-4ab7-8bc0-a183d84abc7e","ios":"levelo://app?vid=06b94600-95a5-4ab7-8bc0-a183d84abc7e"},"vehicle_type_id":"4","last_reported":1699755613,"current_range_meters":400,"station_id":"ce4bh192rcd13ifvqdc0","pricing_plan_id":"free"},{"bike_id":"48c00647-4111-4a89-8f4b-6cf4b68213f2","system_id":"levelo_inurba_marseille","lat":43.292569,"lon":5.409107,"is_reserved":false,"is_disabled":false,"rental_uris":{"android":"levelo://app?vid=48c00647-4111-4a89-8f4b-6cf4b68213f2","ios":"levelo://app?vid=48c00647-4111-4a89-8f4b-6cf4b68213f2"},"vehicle_type_id":"4","last_reported":1699755613,"current_range_meters":18800,"station_id":"ce4bh192rcd13ifvqdc0","pricing_plan_id":"free"},{"bike_id":"e4a19567-06a0-4d1b-98ea-632ee0682def","system_id":"levelo_inurba_marseille","lat":43.27621,"lon":5.3611,"is_reserved":false,"is_disabled":false,"rental_uris":{"android":"levelo://app?vid=e4a19567-06a0-4d1b-98ea-632ee0682def","ios":"levelo://app?vid=e4a19567-06a0-4d1b-98ea-632ee0682def"},"vehicle_type_id":"4","last_reported":1699755613,"current_range_meters":22800,"station_id":"ce4bgj92rcd13ifvqbe0","pricing_plan_id":"free"},{"bike_id":"85e9b556-fd01-44a1-a96b-a6581d302ffa","system_id":"levelo_inurba_marseille","lat":43.325233,"lon":5.414318,"is_reserved":false,"is_disabled":false,"rental_uris":{"android":"levelo://app?vid=85e9b556-fd01-44a1-a96b-a6581d302ffa","ios":"levelo://app?vid=85e9b556-fd01-44a1-a96b-a6581d302ffa"},"vehicle_type_id":"4","last_reported":1699755613,"current_range_meters":30400,"station_id":"ce4bhq12rcd13ifvqhhg","pricing_plan_id":"free"},{"bike_id":"3ba97417-810b-4ddb-bd2d-96fba8f7873c","system_id":"levelo_inurba_marseille","lat":43.276141,"lon":5.361161,"is_reserved":false,"is_disabled":false,"rental_uris":{"android":"levelo://app?vid=3ba97417-810b-4ddb-bd2d-96fba8f7873c","ios":"levelo://app?vid=3ba97417-810b-4ddb-bd2d-96fba8f7873c"},"vehicle_type_id":"4","last_reported":1699755613,"current_range_meters":28400,"station_id":"ce4bgj92rcd13ifvqbe0","pricing_plan_id":"free"},{"bike_id":"9b317e32-ce46-4553-8b47-f8ff080d430a","system_id":"levelo_inurba_marseille","lat":43.2761,"lon":5.36114,"is_reserved":false,"is_disabled":false,"rental_uris":{"android":"levelo://app?vid=9b317e32-ce46-4553-8b47-f8ff080d430a","ios":"levelo://app?vid=9b317e32-ce46-4553-8b47-f8ff080d430a"},"vehicle_type_id":"4","last_reported":1699755613,"current_range_meters":7200,"station_id":"ce4bgj92rcd13ifvqbe0","pricing_plan_id":"free"},{"bike_id":"ff1d36f2-94a1-4cf2-9aa0-202365e5981d","system_id":"levelo_inurba_marseille","lat":43.280784,"lon":5.396622,"is_reserved":false,"is_disabled":false,"rental_uris":{"android":"levelo://app?vid=ff1d36f2-94a1-4cf2-9aa0-202365e5981d","ios":"levelo://app?vid=ff1d36f2-94a1-4cf2-9aa0-202365e5981d"},"vehicle_type_id":"4","last_reported":1699755613,"current_range_meters":31600,"station_id":"ce4bho12rcd13ifvqh2g","pricing_plan_id":"free"},{"bike_id":"9dbe2033-6288-411c-b9f1-bd08dcc8b534","system_id":"levelo_inurba_marseille","lat":43.280699,"lon":5.396518,"is_reserved":false,"is_disabled":false,"rental_uris":{"android":"levelo://app?vid=9dbe2033-6288-411c-b9f1-bd08dcc8b534","ios":"levelo://app?vid=9dbe2033-6288-411c-b9f1-bd08dcc8b534"},"vehicle_type_id":"4","last_reported":1699755613,"current_range_meters":31200,"station_id":"","pricing_plan_id":"free"},{"bike_id":"7c112e6a-ec57-4d77-96db-4118a8fc598d","system_id":"levelo_inurba_marseille","lat":43.278301,"lon":5.392071,"is_reserved":false,"is_disabled":false,"rental_uris":{"android":"levelo://app?vid=7c112e6a-ec57-4d77-96db-4118a8fc598d","ios":"levelo://app?vid=7c112e6a-ec57-4d77-96db-4118a8fc598d"},"vehicle_type_id":"4","last_reported":1699755613,"current_range_meters":30000,"station_id":"ce4bhjp2rcd13ifvqga0","pricing_plan_id":"free"},{"bike_id":"2e385f44-e589-4e63-8afa-a1d938e2ab74","system_id":"levelo_inurba_marseille","lat":43.27374,"lon":5.36264,"is_reserved":false,"is_disabled":false,"rental_uris":{"android":"levelo://app?vid=2e385f44-e589-4e63-8afa-a1d938e2ab74","ios":"levelo://app?vid=2e385f44-e589-4e63-8afa-a1d938e2ab74"},"vehicle_type_id":"4","last_reported":1699755613,"current_range_meters":0,"station_id":"ce4bhbh2rcd13ifvqeo0","pricing_plan_id":"free"},{"bike_id":"087ae938-5fe8-462b-b10d-05b58d1a973d","system_id":"levelo_inurba_marseille","lat":43.275625,"lon":5.384392,"is_reserved":false,"is_disabled":false,"rental_uris":{"android":"levelo://app?vid=087ae938-5fe8-462b-b10d-05b58d1a973d","ios":"levelo://app?vid=087ae938-5fe8-462b-b10d-05b58d1a973d"},"vehicle_type_id":"4","last_reported":1699755613,"current_range_meters":30400,"station_id":"ce4bhh92rcd13ifvqfi0","pricing_plan_id":"free"},{"bike_id":"30b8a61b-a048-475c-a678-6286a5aa4aa6","system_id":"levelo_inurba_marseille","lat":43.273609,"lon":5.362708,"is_reserved":false,"is_disabled":false,"rental_uris":{"android":"levelo://app?vid=30b8a61b-a048-475c-a678-6286a5aa4aa6","ios":"levelo://app?vid=30b8a61b-a048-475c-a678-6286a5aa4aa6"},"vehicle_type_id":"4","last_reported":1699755613,"current_range_meters":9600,"station_id":"ce4bhbh2rcd13ifvqeo0","pricing_plan_id":"free"},{"bike_id":"a9bdb548-b338-43ad-a2a2-3e3fe9cd0e15","system_id":"levelo_inurba_marseille","lat":43.275643,"lon":5.384217,"is_reserved":false,"is_disabled":false,"rental_uris":{"android":"levelo://app?vid=a9bdb548-b338-43ad-a2a2-3e3fe9cd0e15","ios":"levelo://app?vid=a9bdb548-b338-43ad-a2a2-3e3fe9cd0e15"},"vehicle_type_id":"4","last_reported":1699755613,"current_range_meters":4400,"station_id":"ce4bhh92rcd13ifvqfi0","pricing_plan_id":"free"},{"bike_id":"74426711-c575-43c1-be92-c3d5c7022cad","system_id":"levelo_inurba_marseille","lat":43.275625,"lon":5.384392,"is_reserved":false,"is_disabled":false,"rental_uris":{"android":"levelo://app?vid=74426711-c575-43c1-be92-c3d5c7022cad","ios":"levelo://app?vid=74426711-c575-43c1-be92-c3d5c7022cad"},"vehicle_type_id":"4","last_reported":1699755613,"current_range_meters":26800,"station_id":"ce4bhh92rcd13ifvqfi0","pricing_plan_id":"free"},{"bike_id":"31213c42-fd39-44c9-ab64-8587e44cbb68","system_id":"levelo_inurba_marseille","lat":43.33612,"lon":5.410321,"is_reserved":false,"is_disabled":false,"rental_uris":{"android":"levelo://app?vid=31213c42-fd39-44c9-ab64-8587e44cbb68","ios":"levelo://app?vid=31213c42-fd39-44c9-ab64-8587e44cbb68"},"vehicle_type_id":"4","last_reported":1699755613,"current_range_meters":31600,"station_id":"ce4bhqh2rcd13ifvqhmg","pricing_plan_id":"free"},{"bike_id":"7422f2af-2fa3-41e5-a40b-351660716d89","system_id":"levelo_inurba_marseille","lat":43.336134,"lon":5.410341,"is_reserved":false,"is_disabled":false,"rental_uris":{"android":"levelo://app?vid=7422f2af-2fa3-41e5-a40b-351660716d89","ios":"levelo://app?vid=7422f2af-2fa3-41e5-a40b-351660716d89"},"vehicle_type_id":"4","last_reported":1699755613,"current_range_meters":28800,"station_id":"ce4bhqh2rcd13ifvqhmg","pricing_plan_id":"free"},{"bike_id":"20065e28-63b5-49fd-8bda-4f488a826029","system_id":"levelo_inurba_marseille","lat":43.336134,"lon":5.410341,"is_reserved":false,"is_disabled":false,"rental_uris":{"android":"levelo://app?vid=20065e28-63b5-49fd-8bda-4f488a826029","ios":"levelo://app?vid=20065e28-63b5-49fd-8bda-4f488a826029"},"vehicle_type_id":"4","last_reported":1699755613,"current_range_meters":14400,"station_id":"ce4bhqh2rcd13ifvqhmg","pricing_plan_id":"free"},{"bike_id":"68ffca5c-f92e-4d2b-b812-3edfa190d5ea","system_id":"levelo_inurba_marseille","lat":43.278275,"lon":5.396505,"is_reserved":false,"is_disabled":false,"rental_uris":{"android":"levelo://app?vid=68ffca5c-f92e-4d2b-b812-3edfa190d5ea","ios":"levelo://app?vid=68ffca5c-f92e-4d2b-b812-3edfa190d5ea"},"vehicle_type_id":"4","last_reported":1699755613,"current_range_meters":6800,"station_id":"","pricing_plan_id":"free"},{"bike_id":"6a67f168-92cd-4ba4-bbe7-e0d5add12544","system_id":"levelo_inurba_marseille","lat":43.279952,"lon":5.400085,"is_reserved":false,"is_disabled":false,"rental_uris":{"android":"levelo://app?vid=6a67f168-92cd-4ba4-bbe7-e0d5add12544","ios":"levelo://app?vid=6a67f168-92cd-4ba4-bbe7-e0d5add12544"},"vehicle_type_id":"4","last_reported":1699755613,"current_range_meters":32000,"station_id":"ce4bho92rcd13ifvqh4g","pricing_plan_id":"free"},{"bike_id":"fb678694-b49f-4fb3-ad47-4f150f1527d7","system_id":"levelo_inurba_marseille","lat":43.279952,"lon":5.400085,"is_reserved":false,"is_disabled":false,"rental_uris":{"android":"levelo://app?vid=fb678694-b49f-4fb3-ad47-4f150f1527d7","ios":"levelo://app?vid=fb678694-b49f-4fb3-ad47-4f150f1527d7"},"vehicle_type_id":"4","last_reported":1699755613,"current_range_meters":32000,"station_id":"ce4bho92rcd13ifvqh4g","pricing_plan_id":"free"},{"bike_id":"3a740c5c-b5c6-48b8-8736-3c09a24decaa","system_id":"levelo_inurba_marseille","lat":43.279952,"lon":5.400085,"is_reserved":false,"is_disabled":false,"rental_uris":{"android":"levelo://app?vid=3a740c5c-b5c6-48b8-8736-3c09a24decaa","ios":"levelo://app?vid=3a740c5c-b5c6-48b8-8736-3c09a24decaa"},"vehicle_type_id":"4","last_reported":1699755613,"current_range_meters":31600,"station_id":"ce4bho92rcd13ifvqh4g","pricing_plan_id":"free"},{"bike_id":"9ca07053-fada-47fa-804a-492a24d14302","system_id":"levelo_inurba_marseille","lat":43.279952,"lon":5.400085,"is_reserved":false,"is_disabled":false,"rental_uris":{"android":"levelo://app?vid=9ca07053-fada-47fa-804a-492a24d14302","ios":"levelo://app?vid=9ca07053-fada-47fa-804a-492a24d14302"},"vehicle_type_id":"4","last_reported":1699755613,"current_range_meters":24000,"station_id":"ce4bho92rcd13ifvqh4g","pricing_plan_id":"free"},{"bike_id":"c2fc3bad-d6f3-44af-aa68-4b442aac0a94","system_id":"levelo_inurba_marseille","lat":43.317121,"lon":5.423936,"is_reserved":false,"is_disabled":false,"rental_uris":{"android":"levelo://app?vid=c2fc3bad-d6f3-44af-aa68-4b442aac0a94","ios":"levelo://app?vid=c2fc3bad-d6f3-44af-aa68-4b442aac0a94"},"vehicle_type_id":"4","last_reported":1699755613,"current_range_meters":27200,"station_id":"ce4bhp92rcd13ifvqhbg","pricing_plan_id":"free"},{"bike_id":"3a1d316d-e271-415d-9afd-81db9736cf60","system_id":"levelo_inurba_marseille","lat":43.310785,"lon":5.424305,"is_reserved":false,"is_disabled":false,"rental_uris":{"android":"levelo://app?vid=3a1d316d-e271-415d-9afd-81db9736cf60","ios":"levelo://app?vid=3a1d316d-e271-415d-9afd-81db9736cf60"},"vehicle_type_id":"4","last_reported":1699755613,"current_range_meters":20400,"station_id":"ce4bhp92rcd13ifvqhag","pricing_plan_id":"free"},{"bike_id":"a0514d4c-4605-4875-9c27-d322cd2d7c43","system_id":"levelo_inurba_marseille","lat":43.317121,"lon":5.423936,"is_reserved":false,"is_disabled":false,"rental_uris":{"android":"levelo://app?vid=a0514d4c-4605-4875-9c27-d322cd2d7c43","ios":"levelo://app?vid=a0514d4c-4605-4875-9c27-d322cd2d7c43"},"vehicle_type_id":"4","last_reported":1699755613,"current_range_meters":14400,"station_id":"ce4bhp92rcd13ifvqhbg","pricing_plan_id":"free"},{"bike_id":"3ff75dc1-a336-4195-b5b8-760ffaefca40","system_id":"levelo_inurba_marseille","lat":43.340804,"lon":5.410219,"is_reserved":false,"is_disabled":false,"rental_uris":{"android":"levelo://app?vid=3ff75dc1-a336-4195-b5b8-760ffaefca40","ios":"levelo://app?vid=3ff75dc1-a336-4195-b5b8-760ffaefca40"},"vehicle_type_id":"4","last_reported":1699755613,"current_range_meters":29200,"station_id":"ce4bhqh2rcd13ifvqhlg","pricing_plan_id":"free"},{"bike_id":"2e6c6616-bc87-409d-9cb7-3ec51b5a775a","system_id":"levelo_inurba_marseille","lat":43.340804,"lon":5.410219,"is_reserved":false,"is_disabled":false,"rental_uris":{"android":"levelo://app?vid=2e6c6616-bc87-409d-9cb7-3ec51b5a775a","ios":"levelo://app?vid=2e6c6616-bc87-409d-9cb7-3ec51b5a775a"},"vehicle_type_id":"4","last_reported":1699755613,"current_range_meters":24800,"station_id":"ce4bhqh2rcd13ifvqhlg","pricing_plan_id":"free"},{"bike_id":"939b8081-2b4e-4cfc-b396-d2d2da6bb39b","system_id":"levelo_inurba_marseille","lat":43.273129,"lon":5.390725,"is_reserved":false,"is_disabled":false,"rental_uris":{"android":"levelo://app?vid=939b8081-2b4e-4cfc-b396-d2d2da6bb39b","ios":"levelo://app?vid=939b8081-2b4e-4cfc-b396-d2d2da6bb39b"},"vehicle_type_id":"4","last_reported":1699755613,"current_range_meters":28800,"station_id":"ce4bhgp2rcd13ifvqfe0","pricing_plan_id":"free"},{"bike_id":"1e6b6d63-42cc-4e04-b97c-8593811d5f34","system_id":"levelo_inurba_marseille","lat":43.30413,"lon":5.42545,"is_reserved":false,"is_disabled":false,"rental_uris":{"android":"levelo://app?vid=1e6b6d63-42cc-4e04-b97c-8593811d5f34","ios":"levelo://app?vid=1e6b6d63-42cc-4e04-b97c-8593811d5f34"},"vehicle_type_id":"4","last_reported":1699755613,"current_range_meters":0,"station_id":"ce4bhoh2rcd13ifvqh6g","pricing_plan_id":"free"},{"bike_id":"b32f71cd-6d6f-4dfc-b9cd-a72b3574284a","system_id":"levelo_inurba_marseille","lat":43.295523,"lon":5.422926,"is_reserved":false,"is_disabled":false,"rental_uris":{"android":"levelo://app?vid=b32f71cd-6d6f-4dfc-b9cd-a72b3574284a","ios":"levelo://app?vid=b32f71cd-6d6f-4dfc-b9cd-a72b3574284a"},"vehicle_type_id":"4","last_reported":1699755613,"current_range_meters":29200,"station_id":"ce4bhph2rcd13ifvqhdg","pricing_plan_id":"free"},{"bike_id":"84f35a2d-f0ec-4933-aac5-2b000c2ec3cb","system_id":"levelo_inurba_marseille","lat":43.29551,"lon":5.42285,"is_reserved":false,"is_disabled":false,"rental_uris":{"android":"levelo://app?vid=84f35a2d-f0ec-4933-aac5-2b000c2ec3cb","ios":"levelo://app?vid=84f35a2d-f0ec-4933-aac5-2b000c2ec3cb"},"vehicle_type_id":"4","last_reported":1699755613,"current_range_meters":22000,"station_id":"ce4bhph2rcd13ifvqhdg","pricing_plan_id":"free"},{"bike_id":"856a52ff-a401-4d3c-9086-1916de1c4fb0","system_id":"levelo_inurba_marseille","lat":43.29551,"lon":5.42287,"is_reserved":false,"is_disabled":false,"rental_uris":{"android":"levelo://app?vid=856a52ff-a401-4d3c-9086-1916de1c4fb0","ios":"levelo://app?vid=856a52ff-a401-4d3c-9086-1916de1c4fb0"},"vehicle_type_id":"4","last_reported":1699755613,"current_range_meters":31200,"station_id":"ce4bhph2rcd13ifvqhdg","pricing_plan_id":"free"},{"bike_id":"cc8a3062-3e51-404f-a5bb-fed5633eee2d","system_id":"levelo_inurba_marseille","lat":43.29554,"lon":5.42295,"is_reserved":false,"is_disabled":false,"rental_uris":{"android":"levelo://app?vid=cc8a3062-3e51-404f-a5bb-fed5633eee2d","ios":"levelo://app?vid=cc8a3062-3e51-404f-a5bb-fed5633eee2d"},"vehicle_type_id":"4","last_reported":1699755613,"current_range_meters":18800,"station_id":"ce4bhph2rcd13ifvqhdg","pricing_plan_id":"free"},{"bike_id":"fea03e83-2672-4901-b739-2fbff174dd7e","system_id":"levelo_inurba_marseille","lat":43.27216,"lon":5.39252,"is_reserved":false,"is_disabled":false,"rental_uris":{"android":"levelo://app?vid=fea03e83-2672-4901-b739-2fbff174dd7e","ios":"levelo://app?vid=fea03e83-2672-4901-b739-2fbff174dd7e"},"vehicle_type_id":"4","last_reported":1699755613,"current_range_meters":3200,"station_id":"","pricing_plan_id":"free"},{"bike_id":"71e768a2-9b49-49d8-bb9b-827044bbb7f7","system_id":"levelo_inurba_marseille","lat":43.27203,"lon":5.39295,"is_reserved":false,"is_disabled":false,"rental_uris":{"android":"levelo://app?vid=71e768a2-9b49-49d8-bb9b-827044bbb7f7","ios":"levelo://app?vid=71e768a2-9b49-49d8-bb9b-827044bbb7f7"},"vehicle_type_id":"4","last_reported":1699755613,"current_range_meters":16800,"station_id":"","pricing_plan_id":"free"},{"bike_id":"eb620939-ae4a-4359-b067-c44d4162d9f6","system_id":"levelo_inurba_marseille","lat":43.278128,"lon":5.407195,"is_reserved":false,"is_disabled":false,"rental_uris":{"android":"levelo://app?vid=eb620939-ae4a-4359-b067-c44d4162d9f6","ios":"levelo://app?vid=eb620939-ae4a-4359-b067-c44d4162d9f6"},"vehicle_type_id":"4","last_reported":1699755613,"current_range_meters":28800,"station_id":"ce4bhnh2rcd13ifvqgtg","pricing_plan_id":"free"},{"bike_id":"86d62e71-04dc-47ec-9e03-c23c4f9a904d","system_id":"levelo_inurba_marseille","lat":43.278128,"lon":5.407195,"is_reserved":false,"is_disabled":false,"rental_uris":{"android":"levelo://app?vid=86d62e71-04dc-47ec-9e03-c23c4f9a904d","ios":"levelo://app?vid=86d62e71-04dc-47ec-9e03-c23c4f9a904d"},"vehicle_type_id":"4","last_reported":1699755613,"current_range_meters":28400,"station_id":"ce4bhnh2rcd13ifvqgtg","pricing_plan_id":"free"},{"bike_id":"0079183f-ae09-4f33-a47e-978a14a9abeb","system_id":"levelo_inurba_marseille","lat":43.279465,"lon":5.410561,"is_reserved":false,"is_disabled":false,"rental_uris":{"android":"levelo://app?vid=0079183f-ae09-4f33-a47e-978a14a9abeb","ios":"levelo://app?vid=0079183f-ae09-4f33-a47e-978a14a9abeb"},"vehicle_type_id":"4","last_reported":1699755613,"current_range_meters":26000,"station_id":"ce4bhnp2rcd13ifvqh0g","pricing_plan_id":"free"},{"bike_id":"04e2b25a-ab9c-498c-9ebe-f54fd018f28f","system_id":"levelo_inurba_marseille","lat":43.279465,"lon":5.410561,"is_reserved":false,"is_disabled":false,"rental_uris":{"android":"levelo://app?vid=04e2b25a-ab9c-498c-9ebe-f54fd018f28f","ios":"levelo://app?vid=04e2b25a-ab9c-498c-9ebe-f54fd018f28f"},"vehicle_type_id":"4","last_reported":1699755613,"current_range_meters":11600,"station_id":"ce4bhnp2rcd13ifvqh0g","pricing_plan_id":"free"},{"bike_id":"1b19979b-652d-46c8-ae19-1c751da94377","system_id":"levelo_inurba_marseille","lat":43.27939,"lon":5.41047,"is_reserved":false,"is_disabled":false,"rental_uris":{"android":"levelo://app?vid=1b19979b-652d-46c8-ae19-1c751da94377","ios":"levelo://app?vid=1b19979b-652d-46c8-ae19-1c751da94377"},"vehicle_type_id":"4","last_reported":1699755613,"current_range_meters":17600,"station_id":"ce4bhnp2rcd13ifvqh0g","pricing_plan_id":"free"},{"bike_id":"dd8f2e37-556e-45a4-bffc-c8b658e10895","system_id":"levelo_inurba_marseille","lat":43.269319,"lon":5.389397,"is_reserved":false,"is_disabled":false,"rental_uris":{"android":"levelo://app?vid=dd8f2e37-556e-45a4-bffc-c8b658e10895","ios":"levelo://app?vid=dd8f2e37-556e-45a4-bffc-c8b658e10895"},"vehicle_type_id":"4","last_reported":1699755613,"current_range_meters":23600,"station_id":"ce4bhhh2rcd13ifvqfl0","pricing_plan_id":"free"},{"bike_id":"e12a3227-389b-4154-8329-69235b3b6624","system_id":"levelo_inurba_marseille","lat":43.26678,"lon":5.38243,"is_reserved":false,"is_disabled":false,"rental_uris":{"android":"levelo://app?vid=e12a3227-389b-4154-8329-69235b3b6624","ios":"levelo://app?vid=e12a3227-389b-4154-8329-69235b3b6624"},"vehicle_type_id":"4","last_reported":1699755613,"current_range_meters":400,"station_id":"ce4bhg92rcd13ifvqf90","pricing_plan_id":"free"},{"bike_id":"801f10c7-5476-4e80-b826-cf842eaf694f","system_id":"levelo_inurba_marseille","lat":43.26681,"lon":5.382694,"is_reserved":false,"is_disabled":false,"rental_uris":{"android":"levelo://app?vid=801f10c7-5476-4e80-b826-cf842eaf694f","ios":"levelo://app?vid=801f10c7-5476-4e80-b826-cf842eaf694f"},"vehicle_type_id":"4","last_reported":1699755613,"current_range_meters":31600,"station_id":"ce4bhg92rcd13ifvqf90","pricing_plan_id":"free"},{"bike_id":"ce3a7489-33b7-44e7-b164-0fb7bf1a45d4","system_id":"levelo_inurba_marseille","lat":43.27996,"lon":5.416624,"is_reserved":false,"is_disabled":false,"rental_uris":{"android":"levelo://app?vid=ce3a7489-33b7-44e7-b164-0fb7bf1a45d4","ios":"levelo://app?vid=ce3a7489-33b7-44e7-b164-0fb7bf1a45d4"},"vehicle_type_id":"4","last_reported":1699755613,"current_range_meters":0,"station_id":"ce4bho12rcd13ifvqh1g","pricing_plan_id":"free"},{"bike_id":"f0c78f88-8b02-492f-9447-2122526d86ce","system_id":"levelo_inurba_marseille","lat":43.267966,"lon":5.393976,"is_reserved":false,"is_disabled":false,"rental_uris":{"android":"levelo://app?vid=f0c78f88-8b02-492f-9447-2122526d86ce","ios":"levelo://app?vid=f0c78f88-8b02-492f-9447-2122526d86ce"},"vehicle_type_id":"4","last_reported":1699755613,"current_range_meters":23200,"station_id":"ce4bhh12rcd13ifvqfg0","pricing_plan_id":"free"},{"bike_id":"7837aafa-17dd-4fd3-a24c-cc785f8fea15","system_id":"levelo_inurba_marseille","lat":43.27478,"lon":5.41114,"is_reserved":false,"is_disabled":false,"rental_uris":{"android":"levelo://app?vid=7837aafa-17dd-4fd3-a24c-cc785f8fea15","ios":"levelo://app?vid=7837aafa-17dd-4fd3-a24c-cc785f8fea15"},"vehicle_type_id":"4","last_reported":1699755613,"current_range_meters":0,"station_id":"","pricing_plan_id":"free"},{"bike_id":"575ca992-e936-4074-b7c6-852b3c666dc2","system_id":"levelo_inurba_marseille","lat":43.308051,"lon":5.43527,"is_reserved":false,"is_disabled":false,"rental_uris":{"android":"levelo://app?vid=575ca992-e936-4074-b7c6-852b3c666dc2","ios":"levelo://app?vid=575ca992-e936-4074-b7c6-852b3c666dc2"},"vehicle_type_id":"4","last_reported":1699755613,"current_range_meters":27600,"station_id":"ce4bhph2rcd13ifvqheg","pricing_plan_id":"free"},{"bike_id":"67e522cd-7615-4ba2-8304-903517acc0e3","system_id":"levelo_inurba_marseille","lat":43.307984,"lon":5.435246,"is_reserved":false,"is_disabled":false,"rental_uris":{"android":"levelo://app?vid=67e522cd-7615-4ba2-8304-903517acc0e3","ios":"levelo://app?vid=67e522cd-7615-4ba2-8304-903517acc0e3"},"vehicle_type_id":"4","last_reported":1699755613,"current_range_meters":14800,"station_id":"ce4bhph2rcd13ifvqheg","pricing_plan_id":"free"},{"bike_id":"f39776f8-e338-4e5d-8296-2a44b065e822","system_id":"levelo_inurba_marseille","lat":43.308051,"lon":5.43527,"is_reserved":false,"is_disabled":false,"rental_uris":{"android":"levelo://app?vid=f39776f8-e338-4e5d-8296-2a44b065e822","ios":"levelo://app?vid=f39776f8-e338-4e5d-8296-2a44b065e822"},"vehicle_type_id":"4","last_reported":1699755613,"current_range_meters":7600,"station_id":"ce4bhph2rcd13ifvqheg","pricing_plan_id":"free"},{"bike_id":"c8fdb620-a10e-4602-afb3-5b20d8ca4ea8","system_id":"levelo_inurba_marseille","lat":43.26565,"lon":5.38998,"is_reserved":false,"is_disabled":false,"rental_uris":{"android":"levelo://app?vid=c8fdb620-a10e-4602-afb3-5b20d8ca4ea8","ios":"levelo://app?vid=c8fdb620-a10e-4602-afb3-5b20d8ca4ea8"},"vehicle_type_id":"4","last_reported":1699755613,"current_range_meters":6000,"station_id":"ce4bhe12rcd13ifvqf30","pricing_plan_id":"free"},{"bike_id":"601a0c02-8143-4e83-8c07-da6d7c15f109","system_id":"levelo_inurba_marseille","lat":43.265641,"lon":5.390179,"is_reserved":false,"is_disabled":false,"rental_uris":{"android":"levelo://app?vid=601a0c02-8143-4e83-8c07-da6d7c15f109","ios":"levelo://app?vid=601a0c02-8143-4e83-8c07-da6d7c15f109"},"vehicle_type_id":"4","last_reported":1699755613,"current_range_meters":4400,"station_id":"ce4bhe12rcd13ifvqf30","pricing_plan_id":"free"},{"bike_id":"c57b95e7-52ff-4e92-95eb-2d98112a606b","system_id":"levelo_inurba_marseille","lat":43.265648,"lon":5.39037,"is_reserved":false,"is_disabled":false,"rental_uris":{"android":"levelo://app?vid=c57b95e7-52ff-4e92-95eb-2d98112a606b","ios":"levelo://app?vid=c57b95e7-52ff-4e92-95eb-2d98112a606b"},"vehicle_type_id":"4","last_reported":1699755613,"current_range_meters":0,"station_id":"ce4bhe12rcd13ifvqf30","pricing_plan_id":"free"},{"bike_id":"4f955f48-a170-4081-94e3-454cc8e42144","system_id":"levelo_inurba_marseille","lat":43.26945,"lon":5.40243,"is_reserved":false,"is_disabled":false,"rental_uris":{"android":"levelo://app?vid=4f955f48-a170-4081-94e3-454cc8e42144","ios":"levelo://app?vid=4f955f48-a170-4081-94e3-454cc8e42144"},"vehicle_type_id":"4","last_reported":1699755613,"current_range_meters":0,"station_id":"cjm6bp8fraef2m0cb0m0","pricing_plan_id":"free"},{"bike_id":"7321f479-ab40-4305-9114-26ce72f873c2","system_id":"levelo_inurba_marseille","lat":43.26939,"lon":5.40253,"is_reserved":false,"is_disabled":false,"rental_uris":{"android":"levelo://app?vid=7321f479-ab40-4305-9114-26ce72f873c2","ios":"levelo://app?vid=7321f479-ab40-4305-9114-26ce72f873c2"},"vehicle_type_id":"4","last_reported":1699755613,"current_range_meters":21200,"station_id":"cjm6bp8fraef2m0cb0m0","pricing_plan_id":"free"},{"bike_id":"2aa6c4b1-a67d-43b7-9eb1-fe5b5bec91bf","system_id":"levelo_inurba_marseille","lat":43.32903,"lon":5.43282,"is_reserved":false,"is_disabled":false,"rental_uris":{"android":"levelo://app?vid=2aa6c4b1-a67d-43b7-9eb1-fe5b5bec91bf","ios":"levelo://app?vid=2aa6c4b1-a67d-43b7-9eb1-fe5b5bec91bf"},"vehicle_type_id":"4","last_reported":1699755613,"current_range_meters":9600,"station_id":"","pricing_plan_id":"free"},{"bike_id":"161f3ca8-e08a-49ad-bec9-bdb6c85479a9","system_id":"levelo_inurba_marseille","lat":43.261782,"lon":5.374515,"is_reserved":false,"is_disabled":false,"rental_uris":{"android":"levelo://app?vid=161f3ca8-e08a-49ad-bec9-bdb6c85479a9","ios":"levelo://app?vid=161f3ca8-e08a-49ad-bec9-bdb6c85479a9"},"vehicle_type_id":"4","last_reported":1699755613,"current_range_meters":12400,"station_id":"ce4bhgp2rcd13ifvqfc0","pricing_plan_id":"free"},{"bike_id":"b2213f87-cb15-43c5-b87a-a0503caf1a4b","system_id":"levelo_inurba_marseille","lat":43.31714,"lon":5.43704,"is_reserved":false,"is_disabled":false,"rental_uris":{"android":"levelo://app?vid=b2213f87-cb15-43c5-b87a-a0503caf1a4b","ios":"levelo://app?vid=b2213f87-cb15-43c5-b87a-a0503caf1a4b"},"vehicle_type_id":"4","last_reported":1699755613,"current_range_meters":6000,"station_id":"ce4bhp92rcd13ifvqhcg","pricing_plan_id":"free"},{"bike_id":"af5d5471-20e1-479f-9d61-377137050f90","system_id":"levelo_inurba_marseille","lat":43.31714,"lon":5.43707,"is_reserved":false,"is_disabled":false,"rental_uris":{"android":"levelo://app?vid=af5d5471-20e1-479f-9d61-377137050f90","ios":"levelo://app?vid=af5d5471-20e1-479f-9d61-377137050f90"},"vehicle_type_id":"4","last_reported":1699755613,"current_range_meters":400,"station_id":"ce4bhp92rcd13ifvqhcg","pricing_plan_id":"free"},{"bike_id":"5fd3f98d-0850-4098-9f23-b6b396cf8e47","system_id":"levelo_inurba_marseille","lat":43.271867,"lon":5.409911,"is_reserved":false,"is_disabled":false,"rental_uris":{"android":"levelo://app?vid=5fd3f98d-0850-4098-9f23-b6b396cf8e47","ios":"levelo://app?vid=5fd3f98d-0850-4098-9f23-b6b396cf8e47"},"vehicle_type_id":"4","last_reported":1699755613,"current_range_meters":0,"station_id":"ce4bhl12rcd13ifvqgf0","pricing_plan_id":"free"},{"bike_id":"7bdfcc81-c985-4331-a0b1-62b878414027","system_id":"levelo_inurba_marseille","lat":43.26202,"lon":5.379299,"is_reserved":false,"is_disabled":false,"rental_uris":{"android":"levelo://app?vid=7bdfcc81-c985-4331-a0b1-62b878414027","ios":"levelo://app?vid=7bdfcc81-c985-4331-a0b1-62b878414027"},"vehicle_type_id":"4","last_reported":1699755613,"current_range_meters":28400,"station_id":"ce4bhjp2rcd13ifvqg90","pricing_plan_id":"free"},{"bike_id":"568ad8bf-4bf6-4d56-ab2c-b3496db4e125","system_id":"levelo_inurba_marseille","lat":43.271368,"lon":5.40928,"is_reserved":false,"is_disabled":false,"rental_uris":{"android":"levelo://app?vid=568ad8bf-4bf6-4d56-ab2c-b3496db4e125","ios":"levelo://app?vid=568ad8bf-4bf6-4d56-ab2c-b3496db4e125"},"vehicle_type_id":"4","last_reported":1699755613,"current_range_meters":20000,"station_id":"ce4bhl12rcd13ifvqgf0","pricing_plan_id":"free"},