{"last_updated":1700579187,"ttl":30,"version":"2.2","data":{"bikes":[{"bike_id":"80295390-7c44-40e3-989d-72acc878ee20","system_id":"levelo_inurba_marseille","lat":43.313391,"lon":5.36706,"is_reserved":false,"is_disabled":false,"rental_uris":{"android":"levelo://app?vid=80295390-7c44-40e3-989d-72acc878ee20","ios":"levelo://app?vid=80295390-7c44-40e3-989d-72acc878ee20"},"vehicle_type_id":"4","last_reported":1700579187,"current_range_meters":28000,"station_id":"ce4bgr92rcd13ifvqc6g","pricing_plan_id":"free"},{"bike_id":"618128aa-f30c-43f1-8311-d87cc269d5e6","system_id":"levelo_inurba_marseille","lat":43.31341,"lon":5.367098,"is_reserved":false,"is_disabled":false,"rental_uris":{"android":"levelo://app?vid=618128aa-f30c-43f1-8311-d87cc269d5e6","ios":"levelo://app?vid=618128aa-f30c-43f1-8311-d87cc269d5e6"},"vehicle_type_id":"4","last_reported":1700579187,"current_range_meters":19600,"station_id":"ce4bgr92rcd13ifvqc6g","pricing_plan_id":"free"},{"bike_id":"ed71600a-50f6-4f61-9310-d953bf97d4ec","system_id":"levelo_inurba_marseille","lat":43.31341,"lon":5.367098,"is_reserved":false,"is_disabled":false,"rental_uris":{"android":"levelo://app?vid=ed71600a-50f6-4f61-9310-d953bf97d4ec","ios":"levelo://app?vid=ed71600a-50f6-4f61-9310-d953bf97d4ec"},"vehicle_type_id":"4","last_reported":1700579187,"current_range_meters":28400,"station_id":"ce4bgr92rcd13ifvqc6g","pricing_plan_id":"free"},{"bike_id":"555980be-a001-4e60-92d7-4ed6561e949f","system_id":"levelo_inurba_marseille","lat":43.31341,"lon":5.367098,"is_reserved":false,"is_disabled":false,"rental_uris":{"android":"levelo://app?vid=555980be-a001-4e60-92d7-4ed6561e949f","ios":"levelo://app?vid=555980be-a001-4e60-92d7-4ed6561e949f"},"vehicle_type_id":"4","last_reported":1700579187,"current_range_meters":31600,"station_id":"ce4bgr92rcd13ifvqc6g","pricing_plan_id":"free"},{"bike_id":"659efd43-77bc-4beb-9674-eb449dd59807","system_id":"levelo_inurba_marseille","lat":43.31341,"lon":5.367098,"is_reserved":false,"is_disabled":false,"rental_uris":{"android":"levelo://app?vid=659efd43-77bc-4beb-9674-eb449dd59807","ios":"levelo://app?vid=659efd43-77bc-4beb-9674-eb449dd59807"},"vehicle_type_id":"4","last_reported":1700579187,"current_range_meters":31600,"station_id":"ce4bgr92rcd13ifvqc6g","pricing_plan_id":"free"},{"bike_id":"1958f026-7e0f-4757-831d-bb207f105e65","system_id":"levelo_inurba_marseille","lat":43.313391,"lon":5.36706,"is_reserved":false,"is_disabled":false,"rental_uris":{"android":"levelo://app?vid=1958f026-7e0f-4757-831d-bb207f105e65","ios":"levelo://app?vid=1958f026-7e0f-4757-831d-bb207f105e65"},"vehicle_type_id":"4","last_reported":1700579187,"current_range_meters":31200,"station_id":"ce4bgr92rcd13ifvqc6g","pricing_plan_id":"free"},{"bike_id":"f5df17fc-4b88-49ec-9a68-4d82d09b8f0d","system_id":"levelo_inurba_marseille","lat":43.31341,"lon":5.367098,"is_reserved":false,"is_disabled":false,"rental_uris":{"android":"levelo://app?vid=f5df17fc-4b88-49ec-9a68-4d82d09b8f0d","ios":"levelo://app?vid=f5df17fc-4b88-49ec-9a68-4d82d09b8f0d"},"vehicle_type_id":"4","last_reported":1700579187,"current_range_meters":21600,"station_id":"ce4bgr92rcd13ifvqc6g","pricing_plan_id":"free"},{"bike_id":"47fb7d53-1efa-4a9b-8c3d-6303f0d6289b","system_id":"levelo_inurba_marseille","lat":43.313391,"lon":5.36706,"is_reserved":false,"is_disabled":false,"rental_uris":{"android":"levelo://app?vid=47fb7d53-1efa-4a9b-8c3d-6303f0d6289b","ios":"levelo://app?vid=47fb7d53-1efa-4a9b-8c3d-6303f0d6289b"},"vehicle_type_id":"4","last_reported":1700579187,"current_range_meters":31200,"station_id":"ce4bgr92rcd13ifvqc6g","pricing_plan_id":"free"},{"bike_id":"b4f2643e-b5f7-41e5-88de-b2c035ebfaed","system_id":"levelo_inurba_marseille","lat":43.31341,"lon":5.367098,"is_reserved":false,"is_disabled":false,"rental_uris":{"android":"levelo://app?vid=b4f2643e-b5f7-41e5-88de-b2c035ebfaed","ios":"levelo://app?vid=b4f2643e-b5f7-41e5-88de-b2c035ebfaed"},"vehicle_type_id":"4","last_reported":1700579187,"current_range_meters":31600,"station_id":"ce4bgr92rcd13ifvqc6g","pricing_plan_id":"free"},{"bike_id":"3995c520-8591-4e25-9185-f6ff7761a402","system_id":"levelo_inurba_marseille","lat":43.312239,"lon":5.368562,"is_reserved":false,"is_disabled":false,"rental_uris":{"android":"levelo://app?vid=3995c520-8591-4e25-9185-f6ff7761a402","ios":"levelo://app?vid=3995c520-8591-4e25-9185-f6ff7761a402"},"vehicle_type_id":"4","last_reported":1700579187,"current_range_meters":30000,"station_id":"ce4bgl92rcd13ifvqbq0","pricing_plan_id":"free"},{"bike_id":"8311aee2-2b33-4bba-bd8e-a2e4a38116a9","system_id":"levelo_inurba_marseille","lat":43.312239,"lon":5.368562,"is_reserved":false,"is_disabled":false,"rental_uris":{"android":"levelo://app?vid=8311aee2-2b33-4bba-bd8e-a2e4a38116a9","ios":"levelo://app?vid=8311aee2-2b33-4bba-bd8e-a2e4a38116a9"},"vehicle_type_id":"4","last_reported":1700579187,"current_range_meters":31600,"station_id":"ce4bgl92rcd13ifvqbq0","pricing_plan_id":"free"},{"bike_id":"1feddad9-6e26-4a3a-a41f-9e5c39c820f4","system_id":"levelo_inurba_marseille","lat":43.312239,"lon":5.368562,"is_reserved":false,"is_disabled":false,"rental_uris":{"android":"levelo://app?vid=1feddad9-6e26-4a3a-a41f-9e5c39c820f4","ios":"levelo://app?vid=1feddad9-6e26-4a3a-a41f-9e5c39c820f4"},"vehicle_type_id":"4","last_reported":1700579187,"current_range_meters":31600,"station_id":"ce4bgl92rcd13ifvqbq0","pricing_plan_id":"free"},{"bike_id":"78617399-35cd-4c14-863b-edfa628818e4","system_id":"levelo_inurba_marseille","lat":43.312239,"lon":5.368562,"is_reserved":false,"is_disabled":false,"rental_uris":{"android":"levelo://app?vid=78617399-35cd-4c14-863b-edfa628818e4","ios":"levelo://app?vid=78617399-35cd-4c14-863b-edfa628818e4"},"vehicle_type_id":"4","last_reported":1700579187,"current_range_meters":31200,"station_id":"ce4bgl92rcd13ifvqbq0","pricing_plan_id":"free"},{"bike_id":"17ce31b8-3a4c-4428-a3f3-0da50823970c","system_id":"levelo_inurba_marseille","lat":43.312239,"lon":5.368562,"is_reserved":false,"is_disabled":false,"rental_uris":{"android":"levelo://app?vid=17ce31b8-3a4c-4428-a3f3-0da50823970c","ios":"levelo://app?vid=17ce31b8-3a4c-4428-a3f3-0da50823970c"},"vehicle_type_id":"4","last_reported":1700579187,"current_range_meters":31600,"station_id":"ce4bgl92rcd13ifvqbq0","pricing_plan_id":"free"},{"bike_id":"28650432-587b-46b6-9f50-6d7198848e47","system_id":"levelo_inurba_marseille","lat":43.312239,"lon":5.368562,"is_reserved":false,"is_disabled":false,"rental_uris":{"android":"levelo://app?vid=28650432-587b-46b6-9f50-6d7198848e47","ios":"levelo://app?vid=28650432-587b-46b6-9f50-6d7198848e47"},"vehicle_type_id":"4","last_reported":1700579187,"current_range_meters":29600,"station_id":"ce4bgl92rcd13ifvqbq0","pricing_plan_id":"free"},{"bike_id":"9eec3ffe-fdfb-472b-b62f-592153f55d95","system_id":"levelo_inurba_marseille","lat":43.312239,"lon":5.368562,"is_reserved":false,"is_disabled":false,"rental_uris":{"android":"levelo://app?vid=9eec3ffe-fdfb-472b-b62f-592153f55d95","ios":"levelo://app?vid=9eec3ffe-fdfb-472b-b62f-592153f55d95"},"vehicle_type_id":"4","last_reported":1700579187,"current_range_meters":2800,"station_id":"ce4bgl92rcd13ifvqbq0","pricing_plan_id":"free"},{"bike_id":"14ead429-c547-47ed-a35b-85841b61ca40","system_id":"levelo_inurba_marseille","lat":43.308395,"lon":5.368805,"is_reserved":false,"is_disabled":false,"rental_uris":{"android":"levelo://app?vid=14ead429-c547-47ed-a35b-85841b61ca40","ios":"levelo://app?vid=14ead429-c547-47ed-a35b-85841b61ca40"},"vehicle_type_id":"4","last_reported":1700579187,"current_range_meters":16000,"station_id":"","pricing_plan_id":"free"},{"bike_id":"9acceb62-1fe0-4a12-a400-b022ec7fc427","system_id":"levelo_inurba_marseille","lat":43.31497,"lon":5.37302,"is_reserved":false,"is_disabled":false,"rental_uris":{"android":"levelo://app?vid=9acceb62-1fe0-4a12-a400-b022ec7fc427","ios":"levelo://app?vid=9acceb62-1fe0-4a12-a400-b022ec7fc427"},"vehicle_type_id":"4","last_reported":1700579187,"current_range_meters":31600,"station_id":"ce4bgt12rcd13ifvqcd0","pricing_plan_id":"free"},{"bike_id":"2bc311dc-da0b-403e-8cae-84f8764bc67c","system_id":"levelo_inurba_marseille","lat":43.30679,"lon":5.3679,"is_reserved":false,"is_disabled":false,"rental_uris":{"android":"levelo://app?vid=2bc311dc-da0b-403e-8cae-84f8764bc67c","ios":"levelo://app?vid=2bc311dc-da0b-403e-8cae-84f8764bc67c"},"vehicle_type_id":"4","last_reported":1700579187,"current_range_meters":2800,"station_id":"","pricing_plan_id":"free"},{"bike_id":"507df416-09d7-4a67-8e4f-afe3327bfd4d","system_id":"levelo_inurba_marseille","lat":43.305368,"lon":5.367343,"is_reserved":false,"is_disabled":false,"rental_uris":{"android":"levelo://app?vid=507df416-09d7-4a67-8e4f-afe3327bfd4d","ios":"levelo://app?vid=507df416-09d7-4a67-8e4f-afe3327bfd4d"},"vehicle_type_id":"4","last_reported":1700579187,"current_range_meters":5600,"station_id":"ce4bgrp2rcd13ifvqc9g","pricing_plan_id":"free"},{"bike_id":"bb3487dd-2866-4cf2-8e96-985240187c97","system_id":"levelo_inurba_marseille","lat":43.305368,"lon":5.367343,"is_reserved":false,"is_disabled":false,"rental_uris":{"android":"levelo://app?vid=bb3487dd-2866-4cf2-8e96-985240187c97","ios":"levelo://app?vid=bb3487dd-2866-4cf2-8e96-985240187c97"},"vehicle_type_id":"4","last_reported":1700579187,"current_range_meters":11600,"station_id":"ce4bgrp2rcd13ifvqc9g","pricing_plan_id":"free"},{"bike_id":"44dc1dbf-7193-4f3e-b65d-61adafd48a1a","system_id":"levelo_inurba_marseille","lat":43.30533,"lon":5.36717,"is_reserved":false,"is_disabled":false,"rental_uris":{"android":"levelo://app?vid=44dc1dbf-7193-4f3e-b65d-61adafd48a1a","ios":"levelo://app?vid=44dc1dbf-7193-4f3e-b65d-61adafd48a1a"},"vehicle_type_id":"4","last_reported":1700579187,"current_range_meters":8800,"station_id":"ce4bgrp2rcd13ifvqc9g","pricing_plan_id":"free"},{"bike_id":"bcc37eeb-1cc1-41b0-b665-d7cb115367ac","system_id":"levelo_inurba_marseille","lat":43.305393,"lon":5.365493,"is_reserved":false,"is_disabled":false,"rental_uris":{"android":"levelo://app?vid=bcc37eeb-1cc1-41b0-b665-d7cb115367ac","ios":"levelo://app?vid=bcc37eeb-1cc1-41b0-b665-d7cb115367ac"},"vehicle_type_id":"4","last_reported":1700579187,"current_range_meters":8000,"station_id":"ce4bgs12rcd13ifvqcag","pricing_plan_id":"free"},{"bike_id":"1d416571-d731-4a8e-aedd-16731057f6dc","system_id":"levelo_inurba_marseille","lat":43.305714,"lon":5.365633,"is_reserved":false,"is_disabled":false,"rental_uris":{"android":"levelo://app?vid=1d416571-d731-4a8e-aedd-16731057f6dc","ios":"levelo://app?vid=1d416571-d731-4a8e-aedd-16731057f6dc"},"vehicle_type_id":"4","last_reported":1700579187,"current_range_meters":0,"station_id":"ce4bgs12rcd13ifvqcag","pricing_plan_id":"free"},{"bike_id":"515dad22-b137-4341-aaf5-02ea4b37db11","system_id":"levelo_inurba_marseille","lat":43.305368,"lon":5.367343,"is_reserved":false,"is_disabled":false,"rental_uris":{"android":"levelo://app?vid=515dad22-b137-4341-aaf5-02ea4b37db11","ios":"levelo://app?vid=515dad22-b137-4341-aaf5-02ea4b37db11"},"vehicle_type_id":"4","last_reported":1700579187,"current_range_meters":22800,"station_id":"ce4bgrp2rcd13ifvqc9g","pricing_plan_id":"free"},{"bike_id":"a7c81621-9277-4660-80e0-2ea5042900d7","system_id":"levelo_inurba_marseille","lat":43.305368,"lon":5.367343,"is_reserved":false,"is_disabled":false,"rental_uris":{"android":"levelo://app?vid=a7c81621-9277-4660-80e0-2ea5042900d7","ios":"levelo://app?vid=a7c81621-9277-4660-80e0-2ea5042900d7"},"vehicle_type_id":"4","last_reported":1700579187,"current_range_meters":16800,"station_id":"ce4bgrp2rcd13ifvqc9g","pricing_plan_id":"free"},{"bike_id":"790d8068-0ca3-4ee2-ac94-5b1995eb78d3","system_id":"levelo_inurba_marseille","lat":43.319694,"lon":5.370985,"is_reserved":false,"is_disabled":false,"rental_uris":{"android":"levelo://app?vid=790d8068-0ca3-4ee2-ac94-5b1995eb78d3","ios":"levelo://app?vid=790d8068-0ca3-4ee2-ac94-5b1995eb78d3"},"vehicle_type_id":"4","last_reported":1700579187,"current_range_meters":0,"station_id":"","pricing_plan_id":"free"},{"bike_id":"90fd8148-59e1-4a83-9513-0615c219de46","system_id":"levelo_inurba_marseille","lat":43.317075,"lon":5.377367,"is_reserved":false,"is_disabled":false,"rental_uris":{"android":"levelo://app?vid=90fd8148-59e1-4a83-9513-0615c219de46","ios":"levelo://app?vid=90fd8148-59e1-4a83-9513-0615c219de46"},"vehicle_type_id":"4","last_reported":1700579187,"current_range_meters":28800,"station_id":"ce4bgth2rcd13ifvqch0","pricing_plan_id":"free"},{"bike_id":"a6feeec9-5dd7-4b2d-b405-66b738201918","system_id":"levelo_inurba_marseille","lat":43.317075,"lon":5.377367,"is_reserved":false,"is_disabled":false,"rental_uris":{"android":"levelo://app?vid=a6feeec9-5dd7-4b2d-b405-66b738201918","ios":"levelo://app?vid=a6feeec9-5dd7-4b2d-b405-66b738201918"},"vehicle_type_id":"4","last_reported":1700579187,"current_range_meters":6800,"station_id":"ce4bgth2rcd13ifvqch0","pricing_plan_id":"free"},{"bike_id":"2fb15a4b-ca39-4d49-8835-e0e879ff2cea","system_id":"levelo_inurba_marseille","lat":43.303189,"lon":5.369034,"is_reserved":false,"is_disabled":false,"rental_uris":{"android":"levelo://app?vid=2fb15a4b-ca39-4d49-8835-e0e879ff2cea","ios":"levelo://app?vid=2fb15a4b-ca39-4d49-8835-e0e879ff2cea"},"vehicle_type_id":"4","last_reported":1700579187,"current_range_meters":26400,"station_id":"ce4bgqh2rcd13ifvqc5g","pricing_plan_id":"free"},{"bike_id":"6493f7d0-71c8-4d57-9a7d-c8bac071c8b1","system_id":"levelo_inurba_marseille","lat":43.303046,"lon":5.368981,"is_reserved":false,"is_disabled":false,"rental_uris":{"android":"levelo://app?vid=6493f7d0-71c8-4d57-9a7d-c8bac071c8b1","ios":"levelo://app?vid=6493f7d0-71c8-4d57-9a7d-c8bac071c8b1"},"vehicle_type_id":"4","last_reported":1700579187,"current_range_meters":7600,"station_id":"ce4bgqh2rcd13ifvqc5g","pricing_plan_id":"free"},{"bike_id":"bd5aad25-f76c-4dc2-8648-dca438ee65e9","system_id":"levelo_inurba_marseille","lat":43.30625,"lon":5.37694,"is_reserved":false,"is_disabled":false,"rental_uris":{"android":"levelo://app?vid=bd5aad25-f76c-4dc2-8648-dca438ee65e9","ios":"levelo://app?vid=bd5aad25-f76c-4dc2-8648-dca438ee65e9"},"vehicle_type_id":"4","last_reported":1700579187,"current_range_meters":6400,"station_id":"","pricing_plan_id":"free"},{"bike_id":"73d6ca47-9cf3-4d17-96f1-982b7fd9ce34","system_id":"levelo_inurba_marseille","lat":43.303046,"lon":5.368981,"is_reserved":false,"is_disabled":false,"rental_uris":{"android":"levelo://app?vid=73d6ca47-9cf3-4d17-96f1-982b7fd9ce34","ios":"levelo://app?vid=73d6ca47-9cf3-4d17-96f1-982b7fd9ce34"},"vehicle_type_id":"4","last_reported":1700579187,"current_range_meters":0,"station_id":"ce4bgqh2rcd13ifvqc5g","pricing_plan_id":"free"},{"bike_id":"2859534e-e42a-47c0-ab67-dc3932090d0f","system_id":"levelo_inurba_marseille","lat":43.30305,"lon":5.3691,"is_reserved":false,"is_disabled":false,"rental_uris":{"android":"levelo://app?vid=2859534e-e42a-47c0-ab67-dc3932090d0f","ios":"levelo://app?vid=2859534e-e42a-47c0-ab67-dc3932090d0f"},"vehicle_type_id":"4","last_reported":1700579187,"current_range_meters":21200,"station_id":"ce4bgqh2rcd13ifvqc5g","pricing_plan_id":"free"},{"bike_id":"0908f1f0-63a0-4b5f-80ee-8df37acfa673","system_id":"levelo_inurba_marseille","lat":43.303033,"lon":5.369003,"is_reserved":false,"is_disabled":false,"rental_uris":{"android":"levelo://app?vid=0908f1f0-63a0-4b5f-80ee-8df37acfa673","ios":"levelo://app?vid=0908f1f0-63a0-4b5f-80ee-8df37acfa673"},"vehicle_type_id":"4","last_reported":1700579187,"current_range_meters":2400,"station_id":"ce4bgqh2rcd13ifvqc5g","pricing_plan_id":"free"},{"bike_id":"42898b9b-33bc-4b46-aec8-eba90e3a7c2c","system_id":"levelo_inurba_marseille","lat":43.303046,"lon":5.368981,"is_reserved":false,"is_disabled":false,"rental_uris":{"android":"levelo://app?vid=42898b9b-33bc-4b46-aec8-eba90e3a7c2c","ios":"levelo://app?vid=42898b9b-33bc-4b46-aec8-eba90e3a7c2c"},"vehicle_type_id":"4","last_reported":1700579187,"current_range_meters":24800,"station_id":"ce4bgqh2rcd13ifvqc5g","pricing_plan_id":"free"},{"bike_id":"19323406-d2a7-4859-8276-d87779517364","system_id":"levelo_inurba_marseille","lat":43.32181,"lon":5.3747,"is_reserved":false,"is_disabled":false,"rental_uris":{"android":"levelo://app?vid=19323406-d2a7-4859-8276-d87779517364","ios":"levelo://app?vid=19323406-d2a7-4859-8276-d87779517364"},"vehicle_type_id":"4","last_reported":1700579187,"current_range_meters":30800,"station_id":"","pricing_plan_id":"free"},{"bike_id":"65d0661a-1a1b-4639-bb28-4807f1680ce8","system_id":"levelo_inurba_marseille","lat":43.301811,"lon":5.366198,"is_reserved":false,"is_disabled":false,"rental_uris":{"android":"levelo://app?vid=65d0661a-1a1b-4639-bb28-4807f1680ce8","ios":"levelo://app?vid=65d0661a-1a1b-4639-bb28-4807f1680ce8"},"vehicle_type_id":"4","last_reported":1700579187,"current_range_meters":0,"station_id":"ce4bgt12rcd13ifvqce0","pricing_plan_id":"free"},{"bike_id":"fae7807b-f9ce-4d03-83ab-a00265cfea88","system_id":"levelo_inurba_marseille","lat":43.301939,"lon":5.366286,"is_reserved":false,"is_disabled":false,"rental_uris":{"android":"levelo://app?vid=fae7807b-f9ce-4d03-83ab-a00265cfea88","ios":"levelo://app?vid=fae7807b-f9ce-4d03-83ab-a00265cfea88"},"vehicle_type_id":"4","last_reported":1700579187,"current_range_meters":11600,"station_id":"ce4bgrh2rcd13ifvqc8g","pricing_plan_id":"free"},{"bike_id":"a0c175c7-8763-48b2-96c0-ee3535174374","system_id":"levelo_inurba_marseille","lat":43.324771,"lon":5.36557,"is_reserved":false,"is_disabled":false,"rental_uris":{"android":"levelo://app?vid=a0c175c7-8763-48b2-96c0-ee3535174374","ios":"levelo://app?vid=a0c175c7-8763-48b2-96c0-ee3535174374"},"vehicle_type_id":"4","last_reported":1700579187,"current_range_meters":400,"station_id":"ce4bhs12rcd13ifvqhvg","pricing_plan_id":"free"},{"bike_id":"c90a41a9-c5aa-4dd8-9b0d-ce41e58f0f76","system_id":"levelo_inurba_marseille","lat":43.30146,"lon":5.37406,"is_reserved":false,"is_disabled":false,"rental_uris":{"android":"levelo://app?vid=c90a41a9-c5aa-4dd8-9b0d-ce41e58f0f76","ios":"levelo://app?vid=c90a41a9-c5aa-4dd8-9b0d-ce41e58f0f76"},"vehicle_type_id":"4","last_reported":1700579187,"current_range_meters":24400,"station_id":"ce4bgs92rcd13ifvqcc0","pricing_plan_id":"free"},{"bike_id":"d9bb9f6e-fa73-4f68-958f-f300d9bbe99f","system_id":"levelo_inurba_marseille","lat":43.30143,"lon":5.374073,"is_reserved":false,"is_disabled":false,"rental_uris":{"android":"levelo://app?vid=d9bb9f6e-fa73-4f68-958f-f300d9bbe99f","ios":"levelo://app?vid=d9bb9f6e-fa73-4f68-958f-f300d9bbe99f"},"vehicle_type_id":"4","last_reported":1700579187,"current_range_meters":25600,"station_id":"ce4bgs92rcd13ifvqcc0","pricing_plan_id":"free"},{"bike_id":"1d2970c0-db37-4053-86a7-1058272b07f8","system_id":"levelo_inurba_marseille","lat":43.313571,"lon":5.384829,"is_reserved":false,"is_disabled":false,"rental_uris":{"android":"levelo://app?vid=1d2970c0-db37-4053-86a7-1058272b07f8","ios":"levelo://app?vid=1d2970c0-db37-4053-86a7-1058272b07f8"},"vehicle_type_id":"4","last_reported":1700579187,"current_range_meters":16800,"station_id":"ce4bgt92rcd13ifvqcf0","pricing_plan_id":"free"},{"bike_id":"67562798-beb0-42cb-af7a-4fa0340e4c52","system_id":"levelo_inurba_marseille","lat":43.313571,"lon":5.384829,"is_reserved":false,"is_disabled":false,"rental_uris":{"android":"levelo://app?vid=67562798-beb0-42cb-af7a-4fa0340e4c52","ios":"levelo://app?vid=67562798-beb0-42cb-af7a-4fa0340e4c52"},"vehicle_type_id":"4","last_reported":1700579187,"current_range_meters":12000,"station_id":"ce4bgt92rcd13ifvqcf0","pricing_plan_id":"free"},{"bike_id":"534c7baa-3659-4630-b6d9-601b3f673d12","system_id":"levelo_inurba_marseille","lat":43.298433,"lon":5.362774,"is_reserved":false,"is_disabled":false,"rental_uris":{"android":"levelo://app?vid=534c7baa-3659-4630-b6d9-601b3f673d12","ios":"levelo://app?vid=534c7baa-3659-4630-b6d9-601b3f673d12"},"vehicle_type_id":"4","last_reported":1700579187,"current_range_meters":30400,"station_id":"ce4bgpp2rcd13ifvqc3g","pricing_plan_id":"free"},{"bike_id":"168abb28-860a-40d8-b463-787a7dc9dcc0","system_id":"levelo_inurba_marseille","lat":43.298433,"lon":5.362774,"is_reserved":false,"is_disabled":false,"rental_uris":{"android":"levelo://app?vid=168abb28-860a-40d8-b463-787a7dc9dcc0","ios":"levelo://app?vid=168abb28-860a-40d8-b463-787a7dc9dcc0"},"vehicle_type_id":"4","last_reported":1700579187,"current_range_meters":24000,"station_id":"ce4bgpp2rcd13ifvqc3g","pricing_plan_id":"free"},{"bike_id":"c0b1b3a0-8809-4365-bfed-70c9be4bb402","system_id":"levelo_inurba_marseille","lat":43.29845,"lon":5.36275,"is_reserved":false,"is_disabled":false,"rental_uris":{"android":"levelo://app?vid=c0b1b3a0-8809-4365-bfed-70c9be4bb402","ios":"levelo://app?vid=c0b1b3a0-8809-4365-bfed-70c9be4bb402"},"vehicle_type_id":"4","last_reported":1700579187,"current_range_meters":0,"station_id":"ce4bgpp2rcd13ifvqc3g","pricing_plan_id":"free"},{"bike_id":"3ad504f6-5186-41a0-82af-485387d2fbe4","system_id":"levelo_inurba_marseille","lat":43.299243,"lon":5.374807,"is_reserved":false,"is_disabled":false,"rental_uris":{"android":"levelo://app?vid=3ad504f6-5186-41a0-82af-485387d2fbe4","ios":"levelo://app?vid=3ad504f6-5186-41a0-82af-485387d2fbe4"},"vehicle_type_id":"4","last_reported":1700579187,"current_range_meters":7600,"station_id":"ce4bgjh2rcd13ifvqbg0","pricing_plan_id":"free"},{"bike_id":"57dc01b9-ff27-4572-a483-300a429e082d","system_id":"levelo_inurba_marseille","lat":43.298433,"lon":5.362774,"is_reserved":false,"is_disabled":false,"rental_uris":{"android":"levelo://app?vid=57dc01b9-ff27-4572-a483-300a429e082d","ios":"levelo://app?vid=57dc01b9-ff27-4572-a483-300a429e082d"},"vehicle_type_id":"4","last_reported":1700579187,"current_range_meters":30400,"station_id":"ce4bgpp2rcd13ifvqc3g","pricing_plan_id":"free"},{"bike_id":"4d5f6155-3765-4a12-9dfc-016c9ebc3703","system_id":"levelo_inurba_marseille","lat":43.298433,"lon":5.362774,"is_reserved":false,"is_disabled":false,"rental_uris":{"android":"levelo://app?vid=4d5f6155-3765-4a12-9dfc-016c9ebc3703","ios":"levelo://app?vid=4d5f6155-3765-4a12-9dfc-016c9ebc3703"},"vehicle_type_id":"4","last_reported":1700579187,"current_range_meters":27200,"station_id":"ce4bgpp2rcd13ifvqc3g","pricing_plan_id":"free"},{"bike_id":"cb4d2ae5-f160-4767-a697-654901f078ee","system_id":"levelo_inurba_marseille","lat":43.299156,"lon":5.374706,"is_reserved":false,"is_disabled":false,"rental_uris":{"android":"levelo://app?vid=cb4d2ae5-f160-4767-a697-654901f078ee","ios":"levelo://app?vid=cb4d2ae5-f160-4767-a697-654901f078ee"},"vehicle_type_id":"4","last_reported":1700579187,"current_range_meters":8800,"station_id":"ce4bgjh2rcd13ifvqbg0","pricing_plan_id":"free"},{"bike_id":"d9a95eb2-3ca7-4d5c-ae71-fae5be7a5a02","system_id":"levelo_inurba_marseille","lat":43.29811,"lon":5.37099,"is_reserved":false,"is_disabled":false,"rental_uris":{"android":"levelo://app?vid=d9a95eb2-3ca7-4d5c-ae71-fae5be7a5a02","ios":"levelo://app?vid=d9a95eb2-3ca7-4d5c-ae71-fae5be7a5a02"},"vehicle_type_id":"4","last_reported":1700579187,"current_range_meters":16000,"station_id":"ce4bgop2rcd13ifvqc1g","pricing_plan_id":"free"},{"bike_id":"c0b973e4-2fbb-42ca-85ab-e363512fc4c6","system_id":"levelo_inurba_marseille","lat":43.297774,"lon":5.370875,"is_reserved":false,"is_disabled":false,"rental_uris":{"android":"levelo://app?vid=c0b973e4-2fbb-42ca-85ab-e363512fc4c6","ios":"levelo://app?vid=c0b973e4-2fbb-42ca-85ab-e363512fc4c6"},"vehicle_type_id":"4","last_reported":1700579187,"current_range_meters":29600,"station_id":"ce4bgop2rcd13ifvqc1g","pricing_plan_id":"free"},{"bike_id":"478df89d-9841-4617-b99b-36c590360ec4","system_id":"levelo_inurba_marseille","lat":43.297794,"lon":5.370888,"is_reserved":false,"is_disabled":false,"rental_uris":{"android":"levelo://app?vid=478df89d-9841-4617-b99b-36c590360ec4","ios":"levelo://app?vid=478df89d-9841-4617-b99b-36c590360ec4"},"vehicle_type_id":"4","last_reported":1700579187,"current_range_meters":28000,"station_id":"ce4bgop2rcd13ifvqc1g","pricing_plan_id":"free"},{"bike_id":"aa70e5c0-d57c-4df6-80ed-600c8e58ec93","system_id":"levelo_inurba_marseille","lat":43.297774,"lon":5.370875,"is_reserved":false,"is_disabled":false,"rental_uris":{"android":"levelo://app?vid=aa70e5c0-d57c-4df6-80ed-600c8e58ec93","ios":"levelo://app?vid=aa70e5c0-d57c-4df6-80ed-600c8e58ec93"},"vehicle_type_id":"4","last_reported":1700579187,"current_range_meters":21200,"station_id":"ce4bgop2rcd13ifvqc1g","pricing_plan_id":"free"},{"bike_id":"9f0f4961-1f05-43ad-9173-d5cbfdfedbd7","system_id":"levelo_inurba_marseille","lat":43.2978,"lon":5.37119,"is_reserved":false,"is_disabled":false,"rental_uris":{"android":"levelo://app?vid=9f0f4961-1f05-43ad-9173-d5cbfdfedbd7","ios":"levelo://app?vid=9f0f4961-1f05-43ad-9173-d5cbfdfedbd7"},"vehicle_type_id":"4","last_reported":1700579187,"current_range_meters":15200,"station_id":"ce4bgop2rcd13ifvqc1g","pricing_plan_id":"free"},{"bike_id":"6505f04c-d84b-437d-884a-0cc6aada90c0","system_id":"levelo_inurba_marseille","lat":43.322872,"lon":5.382756,"is_reserved":false,"is_disabled":false,"rental_uris":{"android":"levelo://app?vid=6505f04c-d84b-437d-884a-0cc6aada90c0","ios":"levelo://app?vid=6505f04c-d84b-437d-884a-0cc6aada90c0"},"vehicle_type_id":"4","last_reported":1700579187,"current_range_meters":26400,"station_id":"ce4bhr12rcd13ifvqhqg","pricing_plan_id":"free"},{"bike_id":"81693054-05f9-4d9f-a768-7db842c1e65f","system_id":"levelo_inurba_marseille","lat":43.328292,"lon":5.36691,"is_reserved":false,"is_disabled":false,"rental_uris":{"android":"levelo://app?vid=81693054-05f9-4d9f-a768-7db842c1e65f","ios":"levelo://app?vid=81693054-05f9-4d9f-a768-7db842c1e65f"},"vehicle_type_id":"4","last_reported":1700579187,"current_range_meters":25600,"station_id":"","pricing_plan_id":"free"},{"bike_id":"24256210-dd9b-4e06-8284-ac9b4520be6f","system_id":"levelo_inurba_marseille","lat":43.3283,"lon":5.36694,"is_reserved":false,"is_disabled":false,"rental_uris":{"android":"levelo://app?vid=24256210-dd9b-4e06-8284-ac9b4520be6f","ios":"levelo://app?vid=24256210-dd9b-4e06-8284-ac9b4520be6f"},"vehicle_type_id":"4","last_reported":1700579187,"current_range_meters":0,"station_id":"ce4bhs92rcd13ifvqi0g","pricing_plan_id":"free"},{"bike_id":"33f7a205-a0fa-45aa-8dec-d47c850fa3fa","system_id":"levelo_inurba_marseille","lat":43.29734,"lon":5.37006,"is_reserved":false,"is_disabled":false,"rental_uris":{"android":"levelo://app?vid=33f7a205-a0fa-45aa-8dec-d47c850fa3fa","ios":"levelo://app?vid=33f7a205-a0fa-45aa-8dec-d47c850fa3fa"},"vehicle_type_id":"4","last_reported":1700579187,"current_range_meters":400,"station_id":"","pricing_plan_id":"free"},{"bike_id":"5f62de2a-5858-4ee3-969d-7426f61cc39d","system_id":"levelo_inurba_marseille","lat":43.32831,"lon":5.36693,"is_reserved":false,"is_disabled":false,"rental_uris":{"android":"levelo://app?vid=5f62de2a-5858-4ee3-969d-7426f61cc39d","ios":"levelo://app?vid=5f62de2a-5858-4ee3-969d-7426f61cc39d"},"vehicle_type_id":"4","last_reported":1700579187,"current_range_meters":20400,"station_id":"ce4bhs92rcd13ifvqi0g","pricing_plan_id":"free"},{"bike_id":"c180b649-cea0-4239-8dcb-73a3e522760e","system_id":"levelo_inurba_marseille","lat":43.297163,"lon":5.365866,"is_reserved":false,"is_disabled":false,"rental_uris":{"android":"levelo://app?vid=c180b649-cea0-4239-8dcb-73a3e522760e","ios":"levelo://app?vid=c180b649-cea0-4239-8dcb-73a3e522760e"},"vehicle_type_id":"4","last_reported":1700579187,"current_range_meters":23600,"station_id":"ce4bgn12rcd13ifvqbt0","pricing_plan_id":"free"},{"bike_id":"d057e447-5cce-4125-adc8-5ddc9a1beb92","system_id":"levelo_inurba_marseille","lat":43.297163,"lon":5.365866,"is_reserved":false,"is_disabled":false,"rental_uris":{"android":"levelo://app?vid=d057e447-5cce-4125-adc8-5ddc9a1beb92","ios":"levelo://app?vid=d057e447-5cce-4125-adc8-5ddc9a1beb92"},"vehicle_type_id":"4","last_reported":1700579187,"current_range_meters":27600,"station_id":"ce4bgn12rcd13ifvqbt0","pricing_plan_id":"free"},{"bike_id":"f9896fc6-7033-438f-b576-0c525507c276","system_id":"levelo_inurba_marseille","lat":43.2968,"lon":5.37291,"is_reserved":false,"is_disabled":false,"rental_uris":{"android":"levelo://app?vid=f9896fc6-7033-438f-b576-0c525507c276","ios":"levelo://app?vid=f9896fc6-7033-438f-b576-0c525507c276"},"vehicle_type_id":"4","last_reported":1700579187,"current_range_meters":18800,"station_id":"ce4bgk12rcd13ifvqbj0","pricing_plan_id":"free"},{"bike_id":"7f07985a-6b0f-4eaf-bab8-e60f389507ee","system_id":"levelo_inurba_marseille","lat":43.2968,"lon":5.37291,"is_reserved":false,"is_disabled":false,"rental_uris":{"android":"levelo://app?vid=7f07985a-6b0f-4eaf-bab8-e60f389507ee","ios":"levelo://app?vid=7f07985a-6b0f-4eaf-bab8-e60f389507ee"},"vehicle_type_id":"4","last_reported":1700579187,"current_range_meters":9600,"station_id":"ce4bgk12rcd13ifvqbj0","pricing_plan_id":"free"},{"bike_id":"55463bea-8362-4d47-b2fc-b57123ea0d01","system_id":"levelo_inurba_marseille","lat":43.296131,"lon":5.370773,"is_reserved":false,"is_disabled":false,"rental_uris":{"android":"levelo://app?vid=55463bea-8362-4d47-b2fc-b57123ea0d01","ios":"levelo://app?vid=55463bea-8362-4d47-b2fc-b57123ea0d01"},"vehicle_type_id":"4","last_reported":1700579187,"current_range_meters":31600,"station_id":"ce4bgnh2rcd13ifvqc0g","pricing_plan_id":"free"},{"bike_id":"a2e0a36e-7812-4a8c-84fd-7bc938afdd81","system_id":"levelo_inurba_marseille","lat":43.29725,"lon":5.37687,"is_reserved":false,"is_disabled":false,"rental_uris":{"android":"levelo://app?vid=a2e0a36e-7812-4a8c-84fd-7bc938afdd81","ios":"levelo://app?vid=a2e0a36e-7812-4a8c-84fd-7bc938afdd81"},"vehicle_type_id":"4","last_reported":1700579187,"current_range_meters":11600,"station_id":"ce4bgkh2rcd13ifvqbl0","pricing_plan_id":"free"},{"bike_id":"dd5c00e8-6745-41a5-96f9-025185e1b26e","system_id":"levelo_inurba_marseille","lat":43.296935,"lon":5.376544,"is_reserved":false,"is_disabled":false,"rental_uris":{"android":"levelo://app?vid=dd5c00e8-6745-41a5-96f9-025185e1b26e","ios":"levelo://app?vid=dd5c00e8-6745-41a5-96f9-025185e1b26e"},"vehicle_type_id":"4","last_reported":1700579187,"current_range_meters":20800,"station_id":"ce4bgkh2rcd13ifvqbl0","pricing_plan_id":"free"},{"bike_id":"06aaef6f-2d36-4eeb-8cd7-a561f906513b","system_id":"levelo_inurba_marseille","lat":43.296921,"lon":5.376579,"is_reserved":false,"is_disabled":false,"rental_uris":{"android":"levelo://app?vid=06aaef6f-2d36-4eeb-8cd7-a561f906513b","ios":"levelo://app?vid=06aaef6f-2d36-4eeb-8cd7-a561f906513b"},"vehicle_type_id":"4","last_reported":1700579187,"current_range_meters":4800,"station_id":"ce4bgkh2rcd13ifvqbl0","pricing_plan_id":"free"},{"bike_id":"db008435-e902-42de-8f46-c4649c22c459","system_id":"levelo_inurba_marseille","lat":43.296921,"lon":5.376579,"is_reserved":false,"is_disabled":false,"rental_uris":{"android":"levelo://app?vid=db008435-e902-42de-8f46-c4649c22c459","ios":"levelo://app?vid=db008435-e902-42de-8f46-c4649c22c459"},"vehicle_type_id":"4","last_reported":1700579187,"current_range_meters":29600,"station_id":"ce4bgkh2rcd13ifvqbl0","pricing_plan_id":"free"},{"bike_id":"664c3aea-3efd-4167-8f7e-529bc7d83324","system_id":"levelo_inurba_marseille","lat":43.296921,"lon":5.376579,"is_reserved":false,"is_disabled":false,"rental_uris":{"android":"levelo://app?vid=664c3aea-3efd-4167-8f7e-529bc7d83324","ios":"levelo://app?vid=664c3aea-3efd-4167-8f7e-529bc7d83324"},"vehicle_type_id":"4","last_reported":1700579187,"current_range_meters":19600,"station_id":"ce4bgkh2rcd13ifvqbl0","pricing_plan_id":"free"},{"bike_id":"7f67734d-8a1a-42f1-bc9a-6192ba358dfb","system_id":"levelo_inurba_marseille","lat":43.296921,"lon":5.376579,"is_reserved":false,"is_disabled":false,"rental_uris":{"android":"levelo://app?vid=7f67734d-8a1a-42f1-bc9a-6192ba358dfb","ios":"levelo://app?vid=7f67734d-8a1a-42f1-bc9a-6192ba358dfb"},"vehicle_type_id":"4","last_reported":1700579187,"current_range_meters":9200,"station_id":"ce4bgkh2rcd13ifvqbl0","pricing_plan_id":"free"},{"bike_id":"10bf5d44-54cf-41d3-807c-ed68675e6fdc","system_id":"levelo_inurba_marseille","lat":43.296935,"lon":5.376544,"is_reserved":false,"is_disabled":false,"rental_uris":{"android":"levelo://app?vid=10bf5d44-54cf-41d3-807c-ed68675e6fdc","ios":"levelo://app?vid=10bf5d44-54cf-41d3-807c-ed68675e6fdc"},"vehicle_type_id":"4","last_reported":1700579187,"current_range_meters":30400,"station_id":"ce4bgkh2rcd13ifvqbl0","pricing_plan_id":"free"},{"bike_id":"2b88bebf-3668-4e5c-a26e-3e62184a7a2e","system_id":"levelo_inurba_marseille","lat":43.296935,"lon":5.376544,"is_reserved":false,"is_disabled":false,"rental_uris":{"android":"levelo://app?vid=2b88bebf-3668-4e5c-a26e-3e62184a7a2e","ios":"levelo://app?vid=2b88bebf-3668-4e5c-a26e-3e62184a7a2e"},"vehicle_type_id":"4","last_reported":1700579187,"current_range_meters":28000,"station_id":"ce4bgkh2rcd13ifvqbl0","pricing_plan_id":"free"},{"bike_id":"b968e930-4ad8-4dcb-a1ce-ac7a5b0654e1","system_id":"levelo_inurba_marseille","lat":43.296921,"lon":5.376579,"is_reserved":false,"is_disabled":false,"rental_uris":{"android":"levelo://app?vid=b968e930-4ad8-4dcb-a1ce-ac7a5b0654e1","ios":"levelo://app?vid=b968e930-4ad8-4dcb-a1ce-ac7a5b0654e1"},"vehicle_type_id":"4","last_reported":1700579187,"current_range_meters":14400,"station_id":"ce4bgkh2rcd13ifvqbl0","pricing_plan_id":"free"},{"bike_id":"951c951d-10bf-4139-b76e-934ecd9c9f4f","system_id":"levelo_inurba_marseille","lat":43.309589,"lon":5.390258,"is_reserved":false,"is_disabled":false,"rental_uris":{"android":"levelo://app?vid=951c951d-10bf-4139-b76e-934ecd9c9f4f","ios":"levelo://app?vid=951c951d-10bf-4139-b76e-934ecd9c9f4f"},"vehicle_type_id":"4","last_reported":1700579187,"current_range_meters":9200,"station_id":"ce4bgup2rcd13ifvqco0","pricing_plan_id":"free"},{"bike_id":"d2ef74bf-d73c-4302-868b-2506d5b12c4f","system_id":"levelo_inurba_marseille","lat":43.296921,"lon":5.376579,"is_reserved":false,"is_disabled":false,"rental_uris":{"android":"levelo://app?vid=d2ef74bf-d73c-4302-868b-2506d5b12c4f","ios":"levelo://app?vid=d2ef74bf-d73c-4302-868b-2506d5b12c4f"},"vehicle_type_id":"4","last_reported":1700579187,"current_range_meters":22800,"station_id":"ce4bgkh2rcd13ifvqbl0","pricing_plan_id":"free"},{"bike_id":"9fb402a7-7a41-4473-81d2-1fec663a6035","system_id":"levelo_inurba_marseille","lat":43.305515,"lon":5.388805,"is_reserved":false,"is_disabled":false,"rental_uris":{"android":"levelo://app?vid=9fb402a7-7a41-4473-81d2-1fec663a6035","ios":"levelo://app?vid=9fb402a7-7a41-4473-81d2-1fec663a6035"},"vehicle_type_id":"4","last_reported":1700579187,"current_range_meters":28800,"station_id":"","pricing_plan_id":"free"},{"bike_id":"3fe2bf2c-8cb4-449e-9ce7-cb63c33e0e25","system_id":"levelo_inurba_marseille","lat":43.317557,"lon":5.390173,"is_reserved":false,"is_disabled":false,"rental_uris":{"android":"levelo://app?vid=3fe2bf2c-8cb4-449e-9ce7-cb63c33e0e25","ios":"levelo://app?vid=3fe2bf2c-8cb4-449e-9ce7-cb63c33e0e25"},"vehicle_type_id":"4","last_reported":1700579187,"current_range_meters":22800,"station_id":"ce4bhqp2rcd13ifvqhng","pricing_plan_id":"free"},{"bike_id":"ea797e8b-2c7a-4864-9da1-bb339ca52157","system_id":"levelo_inurba_marseille","lat":43.31758,"lon":5.3902,"is_reserved":false,"is_disabled":false,"rental_uris":{"android":"levelo://app?vid=ea797e8b-2c7a-4864-9da1-bb339ca52157","ios":"levelo://app?vid=ea797e8b-2c7a-4864-9da1-bb339ca52157"},"vehicle_type_id":"4","last_reported":1700579187,"current_range_meters":27600,"station_id":"ce4bhqp2rcd13ifvqhng","pricing_plan_id":"free"},{"bike_id":"9bc0abc3-ae0d-43b8-9a65-492a91a3bce2","system_id":"levelo_inurba_marseille","lat":43.295748,"lon":5.37522,"is_reserved":false,"is_disabled":false,"rental_uris":{"android":"levelo://app?vid=9bc0abc3-ae0d-43b8-9a65-492a91a3bce2","ios":"levelo://app?vid=9bc0abc3-ae0d-43b8-9a65-492a91a3bce2"},"vehicle_type_id":"4","last_reported":1700579187,"current_range_meters":25600,"station_id":"ce4bgh92rcd13ifvqb50","pricing_plan_id":"free"},{"bike_id":"d7e8b58a-5ffc-4df3-82ba-e47335ccf303","system_id":"levelo_inurba_marseille","lat":43.298037,"lon":5.381066,"is_reserved":false,"is_disabled":false,"rental_uris":{"android":"levelo://app?vid=d7e8b58a-5ffc-4df3-82ba-e47335ccf303","ios":"levelo://app?vid=d7e8b58a-5ffc-4df3-82ba-e47335ccf303"},"vehicle_type_id":"4","last_reported":1700579187,"current_range_meters":3600,"station_id":"ce4bgip2rcd13ifvqbb0","pricing_plan_id":"free"},{"bike_id":"3059d4c1-3d42-4321-a339-0fea9a03ef82","system_id":"levelo_inurba_marseille","lat":43.328154,"lon":5.380034,"is_reserved":false,"is_disabled":false,"rental_uris":{"android":"levelo://app?vid=3059d4c1-3d42-4321-a339-0fea9a03ef82","ios":"levelo://app?vid=3059d4c1-3d42-4321-a339-0fea9a03ef82"},"vehicle_type_id":"4","last_reported":1700579187,"current_range_meters":0,"station_id":"","pricing_plan_id":"free"},{"bike_id":"f2a07ed2-e05a-4074-8f3a-c5d2503742fa","system_id":"levelo_inurba_marseille","lat":43.296233,"lon":5.377293,"is_reserved":false,"is_disabled":false,"rental_uris":{"android":"levelo://app?vid=f2a07ed2-e05a-4074-8f3a-c5d2503742fa","ios":"levelo://app?vid=f2a07ed2-e05a-4074-8f3a-c5d2503742fa"},"vehicle_type_id":"4","last_reported":1700579187,"current_range_meters":13600,"station_id":"ce4bgi92rcd13ifvqb90","pricing_plan_id":"free"},{"bike_id":"89f976c3-d432-406a-8160-d715434e97db","system_id":"levelo_inurba_marseille","lat":43.296146,"lon":5.377153,"is_reserved":false,"is_disabled":false,"rental_uris":{"android":"levelo://app?vid=89f976c3-d432-406a-8160-d715434e97db","ios":"levelo://app?vid=89f976c3-d432-406a-8160-d715434e97db"},"vehicle_type_id":"4","last_reported":1700579187,"current_range_meters":29600,"station_id":"","pricing_plan_id":"free"},{"bike_id":"992e2132-b63b-4f3d-8292-341b0b8b87de","system_id":"levelo_inurba_marseille","lat":43.29607,"lon":5.37733,"is_reserved":false,"is_disabled":false,"rental_uris":{"android":"levelo://app?vid=992e2132-b63b-4f3d-8292-341b0b8b87de","ios":"levelo://app?vid=992e2132-b63b-4f3d-8292-341b0b8b87de"},"vehicle_type_id":"4","last_reported":1700579187,"current_range_meters":29200,"station_id":"ce4bgi92rcd13ifvqb90","pricing_plan_id":"free"},{"bike_id":"bb73206c-1e57-4444-9b0e-3144fa1b3569","system_id":"levelo_inurba_marseille","lat":43.29979,"lon":5.38483,"is_reserved":false,"is_disabled":false,"rental_uris":{"android":"levelo://app?vid=bb73206c-1e57-4444-9b0e-3144fa1b3569","ios":"levelo://app?vid=bb73206c-1e57-4444-9b0e-3144fa1b3569"},"vehicle_type_id":"4","last_reported":1700579187,"current_range_meters":10000,"station_id":"ce4bgj92rcd13ifvqbd0","pricing_plan_id":"free"},{"bike_id":"d4da279c-335b-47ba-9560-3c5b62f864ca","system_id":"levelo_inurba_marseille","lat":43.29525,"lon":5.37503,"is_reserved":false,"is_disabled":false,"rental_uris":{"android":"levelo://app?vid=d4da279c-335b-47ba-9560-3c5b62f864ca","ios":"levelo://app?vid=d4da279c-335b-47ba-9560-3c5b62f864ca"},"vehicle_type_id":"4","last_reported":1700579187,"current_range_meters":0,"station_id":"ce4bgkp2rcd13ifvqbmg","pricing_plan_id":"free"},{"bike_id":"48d79865-9098-4561-ab34-16c5ede21972","system_id":"levelo_inurba_marseille","lat":43.295279,"lon":5.375048,"is_reserved":false,"is_disabled":false,"rental_uris":{"android":"levelo://app?vid=48d79865-9098-4561-ab34-16c5ede21972","ios":"levelo://app?vid=48d79865-9098-4561-ab34-16c5ede21972"},"vehicle_type_id":"4","last_reported":1700579187,"current_range_meters":8400,"station_id":"ce4bgkp2rcd13ifvqbmg","pricing_plan_id":"free"},{"bike_id":"3d26e336-075a-453f-b252-512cc30f5f54","system_id":"levelo_inurba_marseille","lat":43.295279,"lon":5.375048,"is_reserved":false,"is_disabled":false,"rental_uris":{"android":"levelo://app?vid=3d26e336-075a-453f-b252-512cc30f5f54","ios":"levelo://app?vid=3d26e336-075a-453f-b252-512cc30f5f54"},"vehicle_type_id":"4","last_reported":1700579187,"current_range_meters":25200,"station_id":"ce4bgkp2rcd13ifvqbmg","pricing_plan_id":"free"},{"bike_id":"6b621983-5e9e-42f7-990d-ad5a093820d2","system_id":"levelo_inurba_marseille","lat":43.293801,"lon":5.363066,"is_reserved":false,"is_disabled":false,"rental_uris":{"android":"levelo://app?vid=6b621983-5e9e-42f7-990d-ad5a093820d2","ios":"levelo://app?vid=6b621983-5e9e-42f7-990d-ad5a093820d2"},"vehicle_type_id":"4","last_reported":1700579187,"current_range_meters":15600,"station_id":"","pricing_plan_id":"free"},{"bike_id":"d08f04bf-d1cb-49fb-9aa7-04e7f7676b3c","system_id":"levelo_inurba_marseille","lat":43.32342,"lon":5.38947,"is_reserved":false,"is_disabled":false,"rental_uris":{"android":"levelo://app?vid=d08f04bf-d1cb-49fb-9aa7-04e7f7676b3c","ios":"levelo://app?vid=d08f04bf-d1cb-49fb-9aa7-04e7f7676b3c"},"vehicle_type_id":"4","last_reported":1700579187,"current_range_meters":0,"station_id":"","pricing_plan_id":"free"},{"bike_id":"599306a0-75d9-443a-89ab-f3821a7230dd","system_id":"levelo_inurba_marseille","lat":43.29601,"lon":5.381084,"is_reserved":false,"is_disabled":false,"rental_uris":{"android":"levelo://app?vid=599306a0-75d9-443a-89ab-f3821a7230dd","ios":"levelo://app?vid=599306a0-75d9-443a-89ab-f3821a7230dd"},"vehicle_type_id":"4","last_reported":1700579187,"current_range_meters":30800,"station_id":"ce4bgl12rcd13ifvqbo0","pricing_plan_id":"free"},{"bike_id":"6f710790-a8bb-49f0-84ef-99bcd23d11b1","system_id":"levelo_inurba_marseille","lat":43.296032,"lon":5.381007,"is_reserved":false,"is_disabled":false,"rental_uris":{"android":"levelo://app?vid=6f710790-a8bb-49f0-84ef-99bcd23d11b1","ios":"levelo://app?vid=6f710790-a8bb-49f0-84ef-99bcd23d11b1"},"vehicle_type_id":"4","last_reported":1700579187,"current_range_meters":28800,"station_id":"ce4bgl12rcd13ifvqbo0","pricing_plan_id":"free"},{"bike_id":"bc9620c6-2565-4a1a-89a8-02c998193722","system_id":"levelo_inurba_marseille","lat":43.29602,"lon":5.381084,"is_reserved":false,"is_disabled":false,"rental_uris":{"android":"levelo://app?vid=bc9620c6-2565-4a1a-89a8-02c998193722","ios":"levelo://app?vid=bc9620c6-2565-4a1a-89a8-02c998193722"},"vehicle_type_id":"4","last_reported":1700579187,"current_range_meters":22000,"station_id":"ce4bgl12rcd13ifvqbo0","pricing_plan_id":"free"},{"bike_id":"13a75026-a7dd-42bd-87b0-fb5043a425c2","system_id":"levelo_inurba_marseille","lat":43.29601,"lon":5.38108,"is_reserved":false,"is_disabled":false,"rental_uris":{"android":"levelo://app?vid=13a75026-a7dd-42bd-87b0-fb5043a425c2","ios":"levelo://app?vid=13a75026-a7dd-42bd-87b0-fb5043a425c2"},"vehicle_type_id":"4","last_reported":1700579187,"current_range_meters":15600,"station_id":"ce4bgl12rcd13ifvqbo0","pricing_plan_id":"free"},{"bike_id":"56976b36-0d06-4b7b-9507-582ab8ce8f96","system_id":"levelo_inurba_marseille","lat":43.2929,"lon":5.37459,"is_reserved":false,"is_disabled":false,"rental_uris":{"android":"levelo://app?vid=56976b36-0d06-4b7b-9507-582ab8ce8f96","ios":"levelo://app?vid=56976b36-0d06-4b7b-9507-582ab8ce8f96"},"vehicle_type_id":"4","last_reported":1700579187,"current_range_meters":14000,"station_id":"ce4bgi12rcd13ifvqb70","pricing_plan_id":"free"},{"bike_id":"679d6013-5f69-4199-b7a0-04df5acc415a","system_id":"levelo_inurba_marseille","lat":43.292779,"lon":5.374835,"is_reserved":false,"is_disabled":false,"rental_uris":{"android":"levelo://app?vid=679d6013-5f69-4199-b7a0-04df5acc415a","ios":"levelo://app?vid=679d6013-5f69-4199-b7a0-04df5acc415a"},"vehicle_type_id":"4","last_reported":1700579187,"current_range_meters":30000,"station_id":"ce4bgi12rcd13ifvqb70","pricing_plan_id":"free"},{"bike_id":"b41a3ef8-9c81-4484-8369-e5021b184792","system_id":"levelo_inurba_marseille","lat":43.2936,"lon":5.37835,"is_reserved":false,"is_disabled":false,"rental_uris":{"android":"levelo://app?vid=b41a3ef8-9c81-4484-8369-e5021b184792","ios":"levelo://app?vid=b41a3ef8-9c81-4484-8369-e5021b184792"},"vehicle_type_id":"4","last_reported":1700579187,"current_range_meters":21600,"station_id":"ce4bgjh2rcd13ifvqbf0","pricing_plan_id":"free"},{"bike_id":"79025ab0-356f-48b5-ac40-5a11e8965a42","system_id":"levelo_inurba_marseille","lat":43.300852,"lon":5.390859,"is_reserved":false,"is_disabled":false,"rental_uris":{"android":"levelo://app?vid=79025ab0-356f-48b5-ac40-5a11e8965a42","ios":"levelo://app?vid=79025ab0-356f-48b5-ac40-5a11e8965a42"},"vehicle_type_id":"4","last_reported":1700579187,"current_range_meters":12800,"station_id":"ce4bh192rcd13ifvqdb0","pricing_plan_id":"free"},{"bike_id":"c1a122bc-2d82-4afe-bd13-7c0d166532ae","system_id":"levelo_inurba_marseille","lat":43.292663,"lon":5.376389,"is_reserved":false,"is_disabled":false,"rental_uris":{"android":"levelo://app?vid=c1a122bc-2d82-4afe-bd13-7c0d166532ae","ios":"levelo://app?vid=c1a122bc-2d82-4afe-bd13-7c0d166532ae"},"vehicle_type_id":"4","last_reported":1700579187,"current_range_meters":24000,"station_id":"ce4bgi12rcd13ifvqb80","pricing_plan_id":"free"},{"bike_id":"df15d2d3-71b7-4b9f-ac5b-84c43ed816a2","system_id":"levelo_inurba_marseille","lat":43.292663,"lon":5.376389,"is_reserved":false,"is_disabled":false,"rental_uris":{"android":"levelo://app?vid=df15d2d3-71b7-4b9f-ac5b-84c43ed816a2","ios":"levelo://app?vid=df15d2d3-71b7-4b9f-ac5b-84c43ed816a2"},"vehicle_type_id":"4","last_reported":1700579187,"current_range_meters":7200,"station_id":"ce4bgi12rcd13ifvqb80","pricing_plan_id":"free"},{"bike_id":"5b6e90ab-f814-4237-be6c-40acc212709d","system_id":"levelo_inurba_marseille","lat":43.291675,"lon":5.371583,"is_reserved":false,"is_disabled":false,"rental_uris":{"android":"levelo://app?vid=5b6e90ab-f814-4237-be6c-40acc212709d","ios":"levelo://app?vid=5b6e90ab-f814-4237-be6c-40acc212709d"},"vehicle_type_id":"4","last_reported":1700579187,"current_range_meters":16000,"station_id":"ce4bha92rcd13ifvqeh0","pricing_plan_id":"free"},{"bike_id":"c228bb15-9057-4b38-8057-87efd65db270","system_id":"levelo_inurba_marseille","lat":43.2925,"lon":5.37634,"is_reserved":false,"is_disabled":false,"rental_uris":{"android":"levelo://app?vid=c228bb15-9057-4b38-8057-87efd65db270","ios":"levelo://app?vid=c228bb15-9057-4b38-8057-87efd65db270"},"vehicle_type_id":"4","last_reported":1700579187,"current_range_meters":30800,"station_id":"ce4bgi12rcd13ifvqb80","pricing_plan_id":"free"},{"bike_id":"1d10a1b1-d55f-4279-928a-9c6858f32ca9","system_id":"levelo_inurba_marseille","lat":43.332113,"lon":5.379907,"is_reserved":false,"is_disabled":false,"rental_uris":{"android":"levelo://app?vid=1d10a1b1-d55f-4279-928a-9c6858f32ca9","ios":"levelo://app?vid=1d10a1b1-d55f-4279-928a-9c6858f32ca9"},"vehicle_type_id":"4","last_reported":1700579187,"current_range_meters":3200,"station_id":"","pricing_plan_id":"free"},{"bike_id":"cb8d2b9c-cac9-4630-8922-235bc125a387","system_id":"levelo_inurba_marseille","lat":43.29198,"lon":5.35793,"is_reserved":false,"is_disabled":false,"rental_uris":{"android":"levelo://app?vid=cb8d2b9c-cac9-4630-8922-235bc125a387","ios":"levelo://app?vid=cb8d2b9c-cac9-4630-8922-235bc125a387"},"vehicle_type_id":"4","last_reported":1700579187,"current_range_meters":0,"station_id":"ce4bhb12rcd13ifvqel0","pricing_plan_id":"free"},{"bike_id":"4fdc9e0d-d2b1-4468-a601-87ceee55ecf0","system_id":"levelo_inurba_marseille","lat":43.31334,"lon":5.3969,"is_reserved":false,"is_disabled":false,"rental_uris":{"android":"levelo://app?vid=4fdc9e0d-d2b1-4468-a601-87ceee55ecf0","ios":"levelo://app?vid=4fdc9e0d-d2b1-4468-a601-87ceee55ecf0"},"vehicle_type_id":"4","last_reported":1700579187,"current_range_meters":18000,"station_id":"ce4bgvp2rcd13ifvqcu0","pricing_plan_id":"free"},{"bike_id":"04b487af-4478-445b-8918-d0a50c8f45fe","system_id":"levelo_inurba_marseille","lat":43.31326,"lon":5.39692,"is_reserved":false,"is_disabled":false,"rental_uris":{"android":"levelo://app?vid=04b487af-4478-445b-8918-d0a50c8f45fe","ios":"levelo://app?vid=04b487af-4478-445b-8918-d0a50c8f45fe"},"vehicle_type_id":"4","last_reported":1700579187,"current_range_meters":6400,"station_id":"ce4bgvp2rcd13ifvqcu0","pricing_plan_id":"free"},{"bike_id":"cdfd4d0a-14e5-4e93-b6b8-0b2e2f85621f","system_id":"levelo_inurba_marseille","lat":43.31325,"lon":5.39693,"is_reserved":false,"is_disabled":false,"rental_uris":{"android":"levelo://app?vid=cdfd4d0a-14e5-4e93-b6b8-0b2e2f85621f","ios":"levelo://app?vid=cdfd4d0a-14e5-4e93-b6b8-0b2e2f85621f"},"vehicle_type_id":"4","last_reported":1700579187,"current_range_meters":2800,"station_id":"ce4bgvp2rcd13ifvqcu0","pricing_plan_id":"free"},{"bike_id":"f43aa4fa-d333-4e1e-9d52-2765ccc04d89","system_id":"levelo_inurba_marseille","lat":43.302008,"lon":5.394694,"is_reserved":false,"is_disabled":false,"rental_uris":{"android":"levelo://app?vid=f43aa4fa-d333-4e1e-9d52-2765ccc04d89","ios":"levelo://app?vid=f43aa4fa-d333-4e1e-9d52-2765ccc04d89"},"vehicle_type_id":"4","last_reported":1700579187,"current_range_meters":2800,"station_id":"ce4bh0p2rcd13ifvqd70","pricing_plan_id":"free"},{"bike_id":"532bc8d9-c928-44f4-8385-37d2f1b8d079","system_id":"levelo_inurba_marseille","lat":43.294314,"lon":5.397498,"is_reserved":false,"is_disabled":false,"rental_uris":{"android":"levelo://app?vid=532bc8d9-c928-44f4-8385-37d2f1b8d079","ios":"levelo://app?vid=532bc8d9-c928-44f4-8385-37d2f1b8d079"},"vehicle_type_id":"4","last_reported":1700579187,"current_range_meters":23200,"station_id":"ce4bh3h2rcd13ifvqdo0","pricing_plan_id":"free"},{"bike_id":"d63bacb7-b50f-4c34-b0d0-e0a260abc4c9","system_id":"levelo_inurba_marseille","lat":43.290327,"lon":5.375711,"is_reserved":false,"is_disabled":false,"rental_uris":{"android":"levelo://app?vid=d63bacb7-b50f-4c34-b0d0-e0a260abc4c9","ios":"levelo://app?vid=d63bacb7-b50f-4c34-b0d0-e0a260abc4c9"},"vehicle_type_id":"4","last_reported":1700579187,"current_range_meters":21600,"station_id":"ce4bh692rcd13ifvqe90","pricing_plan_id":"free"},{"bike_id":"d66efb4d-3982-42bd-aef9-b4576df389b0","system_id":"levelo_inurba_marseille","lat":43.290327,"lon":5.375711,"is_reserved":false,"is_disabled":false,"rental_uris":{"android":"levelo://app?vid=d66efb4d-3982-42bd-aef9-b4576df389b0","ios":"levelo://app?vid=d66efb4d-3982-42bd-aef9-b4576df389b0"},"vehicle_type_id":"4","last_reported":1700579187,"current_range_meters":5200,"station_id":"ce4bh692rcd13ifvqe90","pricing_plan_id":"free"},{"bike_id":"aafb5b7a-7c68-4075-8760-3b07af25e027","system_id":"levelo_inurba_marseille","lat":43.292644,"lon":5.384257,"is_reserved":false,"is_disabled":false,"rental_uris":{"android":"levelo://app?vid=aafb5b7a-7c68-4075-8760-3b07af25e027","ios":"levelo://app?vid=aafb5b7a-7c68-4075-8760-3b07af25e027"},"vehicle_type_id":"4","last_reported":1700579187,"current_range_meters":16800,"station_id":"ce4bh692rcd13ifvqea0","pricing_plan_id":"free"},{"bike_id":"db35e604-5f8b-4c48-85f5-e0d527c95ebe","system_id":"levelo_inurba_marseille","lat":43.292642,"lon":5.384254,"is_reserved":false,"is_disabled":false,"rental_uris":{"android":"levelo://app?vid=db35e604-5f8b-4c48-85f5-e0d527c95ebe","ios":"levelo://app?vid=db35e604-5f8b-4c48-85f5-e0d527c95ebe"},"vehicle_type_id":"4","last_reported":1700579187,"current_range_meters":0,"station_id":"ce4bh692rcd13ifvqea0","pricing_plan_id":"free"},{"bike_id":"f03ae30f-cb3e-42da-96f9-1ac25da72088","system_id":"levelo_inurba_marseille","lat":43.30423,"lon":5.39744,"is_reserved":false,"is_disabled":false,"rental_uris":{"android":"levelo://app?vid=f03ae30f-cb3e-42da-96f9-1ac25da72088","ios":"levelo://app?vid=f03ae30f-cb3e-42da-96f9-1ac25da72088"},"vehicle_type_id":"4","last_reported":1700579187,"current_range_meters":3600,"station_id":"ce4bh092rcd13ifvqd20","pricing_plan_id":"free"},{"bike_id":"55ed4fe4-63b5-469f-a5c4-4e30f83ddd0a","system_id":"levelo_inurba_marseille","lat":43.330442,"lon":5.389148,"is_reserved":false,"is_disabled":false,"rental_uris":{"android":"levelo://app?vid=55ed4fe4-63b5-469f-a5c4-4e30f83ddd0a","ios":"levelo://app?vid=55ed4fe4-63b5-469f-a5c4-4e30f83ddd0a"},"vehicle_type_id":"4","last_reported":1700579187,"current_range_meters":6000,"station_id":"ce4bhr92rcd13ifvqhrg","pricing_plan_id":"free"},{"bike_id":"230361b1-bac5-4d7d-a60e-9b2f2891ee92","system_id":"levelo_inurba_marseille","lat":43.290103,"lon":5.356114,"is_reserved":false,"is_disabled":false,"rental_uris":{"android":"levelo://app?vid=230361b1-bac5-4d7d-a60e-9b2f2891ee92","ios":"levelo://app?vid=230361b1-bac5-4d7d-a60e-9b2f2891ee92"},"vehicle_type_id":"4","last_reported":1700579187,"current_range_meters":0,"station_id":"ce4bhb92rcd13ifvqen0","pricing_plan_id":"free"},{"bike_id":"c0691913-4d43-42af-9fa5-975aa1a8621b","system_id":"levelo_inurba_marseille","lat":43.29099,"lon":5.38159,"is_reserved":false,"is_disabled":false,"rental_uris":{"android":"levelo://app?vid=c0691913-4d43-42af-9fa5-975aa1a8621b","ios":"levelo://app?vid=c0691913-4d43-42af-9fa5-975aa1a8621b"},"vehicle_type_id":"4","last_reported":1700579187,"current_range_meters":0,"station_id":"ce4bh512rcd13ifvqe2g","pricing_plan_id":"free"},{"bike_id":"1dbf9f5a-1fb9-4876-a149-459c63aff602","system_id":"levelo_inurba_marseille","lat":43.29775,"lon":5.39345,"is_reserved":false,"is_disabled":false,"rental_uris":{"android":"levelo://app?vid=1dbf9f5a-1fb9-4876-a149-459c63aff602","ios":"levelo://app?vid=1dbf9f5a-1fb9-4876-a149-459c63aff602"},"vehicle_type_id":"4","last_reported":1700579187,"current_range_meters":20400,"station_id":"chh1huq6cuj3fo74tm60","pricing_plan_id":"free"},{"bike_id":"b8a1c75d-75f3-4045-b497-19dffb99a10c","system_id":"levelo_inurba_marseille","lat":43.290094,"lon":5.381264,"is_reserved":false,"is_disabled":false,"rental_uris":{"android":"levelo://app?vid=b8a1c75d-75f3-4045-b497-19dffb99a10c","ios":"levelo://app?vid=b8a1c75d-75f3-4045-b497-19dffb99a10c"},"vehicle_type_id":"4","last_reported":1700579187,"current_range_meters":400,"station_id":"ce4bh4p2rcd13ifvqe1g","pricing_plan_id":"free"},{"bike_id":"60d61e5d-308f-4f08-8b74-642c17a54fe3","system_id":"levelo_inurba_marseille","lat":43.28856,"lon":5.358371,"is_reserved":false,"is_disabled":false,"rental_uris":{"android":"levelo://app?vid=60d61e5d-308f-4f08-8b74-642c17a54fe3","ios":"levelo://app?vid=60d61e5d-308f-4f08-8b74-642c17a54fe3"},"vehicle_type_id":"4","last_reported":1700579187,"current_range_meters":19200,"station_id":"ce4bhb12rcd13ifvqem0","pricing_plan_id":"free"},{"bike_id":"aad9a792-6976-4183-919a-aef819ff2e25","system_id":"levelo_inurba_marseille","lat":43.31251,"lon":5.40162,"is_reserved":false,"is_disabled":false,"rental_uris":{"android":"levelo://app?vid=aad9a792-6976-4183-919a-aef819ff2e25","ios":"levelo://app?vid=aad9a792-6976-4183-919a-aef819ff2e25"},"vehicle_type_id":"4","last_reported":1700579187,"current_range_meters":2800,"station_id":"","pricing_plan_id":"free"},{"bike_id":"3163f781-3e6f-46f2-b027-bf40351baa20","system_id":"levelo_inurba_marseille","lat":43.28727,"lon":5.36078,"is_reserved":false,"is_disabled":false,"rental_uris":{"android":"levelo://app?vid=3163f781-3e6f-46f2-b027-bf40351baa20","ios":"levelo://app?vid=3163f781-3e6f-46f2-b027-bf40351baa20"},"vehicle_type_id":"4","last_reported":1700579187,"current_range_meters":20000,"station_id":"cki0cbj6b192h4jlfktg","pricing_plan_id":"free"},{"bike_id":"5a9b8f1b-2ccc-4a62-bf6b-63a45831360b","system_id":"levelo_inurba_marseille","lat":43.286591,"lon":5.363346,"is_reserved":false,"is_disabled":false,"rental_uris":{"android":"levelo://app?vid=5a9b8f1b-2ccc-4a62-bf6b-63a45831360b","ios":"levelo://app?vid=5a9b8f1b-2ccc-4a62-bf6b-63a45831360b"},"vehicle_type_id":"4","last_reported":1700579187,"current_range_meters":5200,"station_id":"ce4bhah2rcd13ifvqej0","pricing_plan_id":"free"},{"bike_id":"86372c97-87fa-46d5-ac88-f31e27461c17","system_id":"levelo_inurba_marseille","lat":43.286591,"lon":5.363346,"is_reserved":false,"is_disabled":false,"rental_uris":{"android":"levelo://app?vid=86372c97-87fa-46d5-ac88-f31e27461c17","ios":"levelo://app?vid=86372c97-87fa-46d5-ac88-f31e27461c17"},"vehicle_type_id":"4","last_reported":1700579187,"current_range_meters":30000,"station_id":"ce4bhah2rcd13ifvqej0","pricing_plan_id":"free"},{"bike_id":"9159da8e-22c0-4e9b-9f48-83e3eab46d9c","system_id":"levelo_inurba_marseille","lat":43.286961,"lon":5.373785,"is_reserved":false,"is_disabled":false,"rental_uris":{"android":"levelo://app?vid=9159da8e-22c0-4e9b-9f48-83e3eab46d9c","ios":"levelo://app?vid=9159da8e-22c0-4e9b-9f48-83e3eab46d9c"},"vehicle_type_id":"4","last_reported":1700579187,"current_range_meters":31200,"station_id":"ce4bh3p2rcd13ifvqdq0","pricing_plan_id":"free"},{"bike_id":"94963c29-2b14-41b5-a9a0-d5c1d116df89","system_id":"levelo_inurba_marseille","lat":43.286961,"lon":5.373785,"is_reserved":false,"is_disabled":false,"rental_uris":{"android":"levelo://app?vid=94963c29-2b14-41b5-a9a0-d5c1d116df89","ios":"levelo://app?vid=94963c29-2b14-41b5-a9a0-d5c1d116df89"},"vehicle_type_id":"4","last_reported":1700579187,"current_range_meters":24800,"station_id":"ce4bh3p2rcd13ifvqdq0","pricing_plan_id":"free"},{"bike_id":"b33bb7f1-fa00-4c54-bd3e-408fcd0f7ba0","system_id":"levelo_inurba_marseille","lat":43.286591,"lon":5.363346,"is_reserved":false,"is_disabled":false,"rental_uris":{"android":"levelo://app?vid=b33bb7f1-fa00-4c54-bd3e-408fcd0f7ba0","ios":"levelo://app?vid=b33bb7f1-fa00-4c54-bd3e-408fcd0f7ba0"},"vehicle_type_id":"4","last_reported":1700579187,"current_range_meters":4400,"station_id":"ce4bhah2rcd13ifvqej0","pricing_plan_id":"free"},{"bike_id":"7d50d301-3f96-4a90-8598-b37116f29492","system_id":"levelo_inurba_marseille","lat":43.29038,"lon":5.38643,"is_reserved":false,"is_disabled":false,"rental_uris":{"android":"levelo://app?vid=7d50d301-3f96-4a90-8598-b37116f29492","ios":"levelo://app?vid=7d50d301-3f96-4a90-8598-b37116f29492"},"vehicle_type_id":"4","last_reported":1700579187,"current_range_meters":18000,"station_id":"ce4bh4p2rcd13ifvqe0g","pricing_plan_id":"free"},{"bike_id":"400ee66d-12fe-4e09-95a4-4489f476ef3b","system_id":"levelo_inurba_marseille","lat":43.302759,"lon":5.400793,"is_reserved":false,"is_disabled":false,"rental_uris":{"android":"levelo://app?vid=400ee66d-12fe-4e09-95a4-4489f476ef3b","ios":"levelo://app?vid=400ee66d-12fe-4e09-95a4-4489f476ef3b"},"vehicle_type_id":"4","last_reported":1700579187,"current_range_meters":24800,"station_id":"ce4bgvh2rcd13ifvqcs0","pricing_plan_id":"free"},{"bike_id":"421f2583-3213-4d8f-811e-3b0b6aae271e","system_id":"levelo_inurba_marseille","lat":43.302759,"lon":5.400793,"is_reserved":false,"is_disabled":false,"rental_uris":{"android":"levelo://app?vid=421f2583-3213-4d8f-811e-3b0b6aae271e","ios":"levelo://app?vid=421f2583-3213-4d8f-811e-3b0b6aae271e"},"vehicle_type_id":"4","last_reported":1700579187,"current_range_meters":23200,"station_id":"ce4bgvh2rcd13ifvqcs0","pricing_plan_id":"free"},{"bike_id":"8fe986ff-06ce-468e-a5e6-850dba9761c9","system_id":"levelo_inurba_marseille","lat":43.286039,"lon":5.370679,"is_reserved":false,"is_disabled":false,"rental_uris":{"android":"levelo://app?vid=8fe986ff-06ce-468e-a5e6-850dba9761c9","ios":"levelo://app?vid=8fe986ff-06ce-468e-a5e6-850dba9761c9"},"vehicle_type_id":"4","last_reported":1700579187,"current_range_meters":19200,"station_id":"ce4bht12rcd13ifvqi60","pricing_plan_id":"free"},{"bike_id":"ac363c2c-32f2-4e6c-8ef5-18d6bdb60313","system_id":"levelo_inurba_marseille","lat":43.286125,"lon":5.370595,"is_reserved":false,"is_disabled":false,"rental_uris":{"android":"levelo://app?vid=ac363c2c-32f2-4e6c-8ef5-18d6bdb60313","ios":"levelo://app?vid=ac363c2c-32f2-4e6c-8ef5-18d6bdb60313"},"vehicle_type_id":"4","last_reported":1700579187,"current_range_meters":9200,"station_id":"ce4bht12rcd13ifvqi60","pricing_plan_id":"free"},{"bike_id":"c5a98dac-59d5-4fd6-9129-9cb3bf341204","system_id":"levelo_inurba_marseille","lat":43.286105,"lon":5.370627,"is_reserved":false,"is_disabled":false,"rental_uris":{"android":"levelo://app?vid=c5a98dac-59d5-4fd6-9129-9cb3bf341204","ios":"levelo://app?vid=c5a98dac-59d5-4fd6-9129-9cb3bf341204"},"vehicle_type_id":"4","last_reported":1700579187,"current_range_meters":12000,"station_id":"ce4bht12rcd13ifvqi60","pricing_plan_id":"free"},{"bike_id":"e20842cd-8eea-4741-8c73-0475dbb8d81a","system_id":"levelo_inurba_marseille","lat":43.28606,"lon":5.37062,"is_reserved":false,"is_disabled":false,"rental_uris":{"android":"levelo://app?vid=e20842cd-8eea-4741-8c73-0475dbb8d81a","ios":"levelo://app?vid=e20842cd-8eea-4741-8c73-0475dbb8d81a"},"vehicle_type_id":"4","last_reported":1700579187,"current_range_meters":12800,"station_id":"ce4bht12rcd13ifvqi60","pricing_plan_id":"free"},{"bike_id":"5a967657-a178-4978-803d-2799c246a64a","system_id":"levelo_inurba_marseille","lat":43.31647,"lon":5.40438,"is_reserved":false,"is_disabled":false,"rental_uris":{"android":"levelo://app?vid=5a967657-a178-4978-803d-2799c246a64a","ios":"levelo://app?vid=5a967657-a178-4978-803d-2799c246a64a"},"vehicle_type_id":"4","last_reported":1700579187,"current_range_meters":17600,"station_id":"ce4bh012rcd13ifvqd00","pricing_plan_id":"free"},{"bike_id":"de1fd897-c6c6-4280-9366-feaa2fc03aeb","system_id":"levelo_inurba_marseille","lat":43.284534,"lon":5.358662,"is_reserved":false,"is_disabled":false,"rental_uris":{"android":"levelo://app?vid=de1fd897-c6c6-4280-9366-feaa2fc03aeb","ios":"levelo://app?vid=de1fd897-c6c6-4280-9366-feaa2fc03aeb"},"vehicle_type_id":"4","last_reported":1700579187,"current_range_meters":18400,"station_id":"ce4bhah2rcd13ifvqei0","pricing_plan_id":"free"},{"bike_id":"4a40b4a9-e10b-4654-8c45-b3e8598373c1","system_id":"levelo_inurba_marseille","lat":43.284534,"lon":5.358662,"is_reserved":false,"is_disabled":false,"rental_uris":{"android":"levelo://app?vid=4a40b4a9-e10b-4654-8c45-b3e8598373c1","ios":"levelo://app?vid=4a40b4a9-e10b-4654-8c45-b3e8598373c1"},"vehicle_type_id":"4","last_reported":1700579187,"current_range_meters":16800,"station_id":"ce4bhah2rcd13ifvqei0","pricing_plan_id":"free"},{"bike_id":"7d67e984-52a6-4692-96a1-8211adec0e3c","system_id":"levelo_inurba_marseille","lat":43.284534,"lon":5.358662,"is_reserved":false,"is_disabled":false,"rental_uris":{"android":"levelo://app?vid=7d67e984-52a6-4692-96a1-8211adec0e3c","ios":"levelo://app?vid=7d67e984-52a6-4692-96a1-8211adec0e3c"},"vehicle_type_id":"4","last_reported":1700579187,"current_range_meters":0,"station_id":"ce4bhah2rcd13ifvqei0","pricing_plan_id":"free"},{"bike_id":"f247b111-e3da-43b6-9a08-99e15a3f4ea1","system_id":"levelo_inurba_marseille","lat":43.294314,"lon":5.397498,"is_reserved":false,"is_disabled":false,"rental_uris":{"android":"levelo://app?vid=f247b111-e3da-43b6-9a08-99e15a3f4ea1","ios":"levelo://app?vid=f247b111-e3da-43b6-9a08-99e15a3f4ea1"},"vehicle_type_id":"4","last_reported":1700579187,"current_range_meters":30400,"station_id":"ce4bh3h2rcd13ifvqdo0","pricing_plan_id":"free"},{"bike_id":"88bb81a1-f30b-46c6-b403-9167110de5cb","system_id":"levelo_inurba_marseille","lat":43.284534,"lon":5.358662,"is_reserved":false,"is_disabled":false,"rental_uris":{"android":"levelo://app?vid=88bb81a1-f30b-46c6-b403-9167110de5cb","ios":"levelo://app?vid=88bb81a1-f30b-46c6-b403-9167110de5cb"},"vehicle_type_id":"4","last_reported":1700579187,"current_range_meters":24400,"station_id":"ce4bhah2rcd13ifvqei0","pricing_plan_id":"free"},{"bike_id":"70e9c2a3-2c99-4b35-a2c1-c807f8c6fd47","system_id":"levelo_inurba_marseille","lat":43.284534,"lon":5.358662,"is_reserved":false,"is_disabled":false,"rental_uris":{"android":"levelo://app?vid=70e9c2a3-2c99-4b35-a2c1-c807f8c6fd47","ios":"levelo://app?vid=70e9c2a3-2c99-4b35-a2c1-c807f8c6fd47"},"vehicle_type_id":"4","last_reported":1700579187,"current_range_meters":28800,"station_id":"ce4bhah2rcd13ifvqei0","pricing_plan_id":"free"},{"bike_id":"9996c2c5-2c7f-48f8-abba-c12b74a36428","system_id":"levelo_inurba_marseille","lat":43.284534,"lon":5.358662,"is_reserved":false,"is_disabled":false,"rental_uris":{"android":"levelo://app?vid=9996c2c5-2c7f-48f8-abba-c12b74a36428","ios":"levelo://app?vid=9996c2c5-2c7f-48f8-abba-c12b74a36428"},"vehicle_type_id":"4","last_reported":1700579187,"current_range_meters":12400,"station_id":"ce4bhah2rcd13ifvqei0","pricing_plan_id":"free"},{"bike_id":"93591452-78a8-4deb-aa6d-58319e661151","system_id":"levelo_inurba_marseille","lat":43.286086,"lon":5.351127,"is_reserved":false,"is_disabled":false,"rental_uris":{"android":"levelo://app?vid=93591452-78a8-4deb-aa6d-58319e661151","ios":"levelo://app?vid=93591452-78a8-4deb-aa6d-58319e661151"},"vehicle_type_id":"4","last_reported":1700579187,"current_range_meters":26400,"station_id":"ce4bhch2rcd13ifvqeug","pricing_plan_id":"free"},{"bike_id":"36409650-8ef9-4f55-a4bb-3b278bd1f538","system_id":"levelo_inurba_marseille","lat":43.283998,"lon":5.375062,"is_reserved":false,"is_disabled":false,"rental_uris":{"android":"levelo://app?vid=36409650-8ef9-4f55-a4bb-3b278bd1f538","ios":"levelo://app?vid=36409650-8ef9-4f55-a4bb-3b278bd1f538"},"vehicle_type_id":"4","last_reported":1700579187,"current_range_meters":800,"station_id":"ce4bh412rcd13ifvqds0","pricing_plan_id":"free"},{"bike_id":"1cd0da63-25f2-4ff3-a8bf-1addacee5414","system_id":"levelo_inurba_marseille","lat":43.283998,"lon":5.375062,"is_reserved":false,"is_disabled":false,"rental_uris":{"android":"levelo://app?vid=1cd0da63-25f2-4ff3-a8bf-1addacee5414","ios":"levelo://app?vid=1cd0da63-25f2-4ff3-a8bf-1addacee5414"},"vehicle_type_id":"4","last_reported":1700579187,"current_range_meters":14000,"station_id":"ce4bh412rcd13ifvqds0","pricing_plan_id":"free"},{"bike_id":"a3469534-085b-414f-98e4-804ea88af2d3","system_id":"levelo_inurba_marseille","lat":43.28407,"lon":5.37519,"is_reserved":false,"is_disabled":false,"rental_uris":{"android":"levelo://app?vid=a3469534-085b-414f-98e4-804ea88af2d3","ios":"levelo://app?vid=a3469534-085b-414f-98e4-804ea88af2d3"},"vehicle_type_id":"4","last_reported":1700579187,"current_range_meters":20400,"station_id":"ce4bh412rcd13ifvqds0","pricing_plan_id":"free"},{"bike_id":"a6f6ea90-abe9-4a70-94d1-ea14ee2c65d1","system_id":"levelo_inurba_marseille","lat":43.28405,"lon":5.37514,"is_reserved":false,"is_disabled":false,"rental_uris":{"android":"levelo://app?vid=a6f6ea90-abe9-4a70-94d1-ea14ee2c65d1","ios":"levelo://app?vid=a6f6ea90-abe9-4a70-94d1-ea14ee2c65d1"},"vehicle_type_id":"4","last_reported":1700579187,"current_range_meters":0,"station_id":"ce4bh412rcd13ifvqds0","pricing_plan_id":"free"},{"bike_id":"db1b1a09-ff42-43a4-9195-3baa33885b02","system_id":"levelo_inurba_marseille","lat":43.286595,"lon":5.386795,"is_reserved":false,"is_disabled":false,"rental_uris":{"android":"levelo://app?vid=db1b1a09-ff42-43a4-9195-3baa33885b02","ios":"levelo://app?vid=db1b1a09-ff42-43a4-9195-3baa33885b02"},"vehicle_type_id":"4","last_reported":1700579187,"current_range_meters":26400,"station_id":"ce4bh492rcd13ifvqdug","pricing_plan_id":"free"},{"bike_id":"35b19955-8c3e-4374-b999-0b151664b0e8","system_id":"levelo_inurba_marseille","lat":43.33237,"lon":5.3985,"is_reserved":false,"is_disabled":false,"rental_uris":{"android":"levelo://app?vid=35b19955-8c3e-4374-b999-0b151664b0e8","ios":"levelo://app?vid=35b19955-8c3e-4374-b999-0b151664b0e8"},"vehicle_type_id":"4","last_reported":1700579187,"current_range_meters":0,"station_id":"","pricing_plan_id":"free"},{"bike_id":"76ef9d80-f23d-49dc-b1a7-ff2ca6c37f35","system_id":"levelo_inurba_marseille","lat":43.28484,"lon":5.38414,"is_reserved":false,"is_disabled":false,"rental_uris":{"android":"levelo://app?vid=76ef9d80-f23d-49dc-b1a7-ff2ca6c37f35","ios":"levelo://app?vid=76ef9d80-f23d-49dc-b1a7-ff2ca6c37f35"},"vehicle_type_id":"4","last_reported":1700579187,"current_range_meters":26800,"station_id":"ce4bh512rcd13ifvqe3g","pricing_plan_id":"free"},{"bike_id":"7ebbf1bf-9c9b-45dc-a105-846fb25938c7","system_id":"levelo_inurba_marseille","lat":43.28857,"lon":5.39332,"is_reserved":false,"is_disabled":false,"rental_uris":{"android":"levelo://app?vid=7ebbf1bf-9c9b-45dc-a105-846fb25938c7","ios":"levelo://app?vid=7ebbf1bf-9c9b-45dc-a105-846fb25938c7"},"vehicle_type_id":"4","last_reported":1700579187,"current_range_meters":22800,"station_id":"ce4bh2p2rcd13ifvqdi0","pricing_plan_id":"free"},{"bike_id":"1797353f-5bfe-47f6-bae5-4e50c4708741","system_id":"levelo_inurba_marseille","lat":43.283494,"lon":5.380945,"is_reserved":false,"is_disabled":false,"rental_uris":{"android":"levelo://app?vid=1797353f-5bfe-47f6-bae5-4e50c4708741","ios":"levelo://app?vid=1797353f-5bfe-47f6-bae5-4e50c4708741"},"vehicle_type_id":"4","last_reported":1700579187,"current_range_meters":9600,"station_id":"ce4bh412rcd13ifvqdr0","pricing_plan_id":"free"},{"bike_id":"99810d7f-0f26-4bbb-9f31-6754c802a4e6","system_id":"levelo_inurba_marseille","lat":43.283494,"lon":5.380945,"is_reserved":false,"is_disabled":false,"rental_uris":{"android":"levelo://app?vid=99810d7f-0f26-4bbb-9f31-6754c802a4e6","ios":"levelo://app?vid=99810d7f-0f26-4bbb-9f31-6754c802a4e6"},"vehicle_type_id":"4","last_reported":1700579187,"current_range_meters":12400,"station_id":"ce4bh412rcd13ifvqdr0","pricing_plan_id":"free"},{"bike_id":"a7e78337-8acf-4967-bb4e-cf74c287ca7f","system_id":"levelo_inurba_marseille","lat":43.283498,"lon":5.380948,"is_reserved":false,"is_disabled":false,"rental_uris":{"android":"levelo://app?vid=a7e78337-8acf-4967-bb4e-cf74c287ca7f","ios":"levelo://app?vid=a7e78337-8acf-4967-bb4e-cf74c287ca7f"},"vehicle_type_id":"4","last_reported":1700579187,"current_range_meters":23200,"station_id":"ce4bh412rcd13ifvqdr0","pricing_plan_id":"free"},{"bike_id":"d9809cf1-6049-409f-8450-a27713587162","system_id":"levelo_inurba_marseille","lat":43.283378,"lon":5.381075,"is_reserved":false,"is_disabled":false,"rental_uris":{"android":"levelo://app?vid=d9809cf1-6049-409f-8450-a27713587162","ios":"levelo://app?vid=d9809cf1-6049-409f-8450-a27713587162"},"vehicle_type_id":"4","last_reported":1700579187,"current_range_meters":14000,"station_id":"ce4bh412rcd13ifvqdr0","pricing_plan_id":"free"},{"bike_id":"0a3af502-4319-473f-9d1d-822a7b2b3ea4","system_id":"levelo_inurba_marseille","lat":43.283498,"lon":5.380948,"is_reserved":false,"is_disabled":false,"rental_uris":{"android":"levelo://app?vid=0a3af502-4319-473f-9d1d-822a7b2b3ea4","ios":"levelo://app?vid=0a3af502-4319-473f-9d1d-822a7b2b3ea4"},"vehicle_type_id":"4","last_reported":1700579187,"current_range_meters":9200,"station_id":"ce4bh412rcd13ifvqdr0","pricing_plan_id":"free"},{"bike_id":"74c3a9d6-d93a-45fa-b61a-05b774e64c38","system_id":"levelo_inurba_marseille","lat":43.289363,"lon":5.396322,"is_reserved":false,"is_disabled":false,"rental_uris":{"android":"levelo://app?vid=74c3a9d6-d93a-45fa-b61a-05b774e64c38","ios":"levelo://app?vid=74c3a9d6-d93a-45fa-b61a-05b774e64c38"},"vehicle_type_id":"4","last_reported":1700579187,"current_range_meters":29200,"station_id":"ce4bh3h2rcd13ifvqdn0","pricing_plan_id":"free"},{"bike_id":"1e067431-574c-402b-a0c6-71c8d843ef6b","system_id":"levelo_inurba_marseille","lat":43.289363,"lon":5.396322,"is_reserved":false,"is_disabled":false,"rental_uris":{"android":"levelo://app?vid=1e067431-574c-402b-a0c6-71c8d843ef6b","ios":"levelo://app?vid=1e067431-574c-402b-a0c6-71c8d843ef6b"},"vehicle_type_id":"4","last_reported":1700579187,"current_range_meters":27600,"station_id":"ce4bh3h2rcd13ifvqdn0","pricing_plan_id":"free"},{"bike_id":"cbf0770a-50ad-465a-9664-fb1d7c0e3c46","system_id":"levelo_inurba_marseille","lat":43.292724,"lon":5.401131,"is_reserved":false,"is_disabled":false,"rental_uris":{"android":"levelo://app?vid=cbf0770a-50ad-465a-9664-fb1d7c0e3c46","ios":"levelo://app?vid=cbf0770a-50ad-465a-9664-fb1d7c0e3c46"},"vehicle_type_id":"4","last_reported":1700579187,"current_range_meters":21200,"station_id":"ce4bh312rcd13ifvqdk0","pricing_plan_id":"free"},{"bike_id":"012dc07b-f114-459b-9d5a-66c4961f1994","system_id":"levelo_inurba_marseille","lat":43.292724,"lon":5.401131,"is_reserved":false,"is_disabled":false,"rental_uris":{"android":"levelo://app?vid=012dc07b-f114-459b-9d5a-66c4961f1994","ios":"levelo://app?vid=012dc07b-f114-459b-9d5a-66c4961f1994"},"vehicle_type_id":"4","last_reported":1700579187,"current_range_meters":16400,"station_id":"ce4bh312rcd13ifvqdk0","pricing_plan_id":"free"},{"bike_id":"17758aad-34f0-4aad-a1e9-1009f8f03094","system_id":"levelo_inurba_marseille","lat":43.292724,"lon":5.401131,"is_reserved":false,"is_disabled":false,"rental_uris":{"android":"levelo://app?vid=17758aad-34f0-4aad-a1e9-1009f8f03094","ios":"levelo://app?vid=17758aad-34f0-4aad-a1e9-1009f8f03094"},"vehicle_type_id":"4","last_reported":1700579187,"current_range_meters":29200,"station_id":"ce4bh312rcd13ifvqdk0","pricing_plan_id":"free"},{"bike_id":"2aa17e7e-9b3b-46fa-94e7-eb7b52fe904e","system_id":"levelo_inurba_marseille","lat":43.282754,"lon":5.350519,"is_reserved":false,"is_disabled":false,"rental_uris":{"android":"levelo://app?vid=2aa17e7e-9b3b-46fa-94e7-eb7b52fe904e","ios":"levelo://app?vid=2aa17e7e-9b3b-46fa-94e7-eb7b52fe904e"},"vehicle_type_id":"4","last_reported":1700579187,"current_range_meters":4400,"station_id":"ce4bhbp2rcd13ifvqerg","pricing_plan_id":"free"},{"bike_id":"44afae0c-c610-4e0b-8b8e-f5ebf3d20f32","system_id":"levelo_inurba_marseille","lat":43.282744,"lon":5.350533,"is_reserved":false,"is_disabled":false,"rental_uris":{"android":"levelo://app?vid=44afae0c-c610-4e0b-8b8e-f5ebf3d20f32","ios":"levelo://app?vid=44afae0c-c610-4e0b-8b8e-f5ebf3d20f32"},"vehicle_type_id":"4","last_reported":1700579187,"current_range_meters":4800,"station_id":"ce4bhbp2rcd13ifvqerg","pricing_plan_id":"free"},{"bike_id":"748cb1c1-4abb-4edf-9c70-0756130a97a5","system_id":"levelo_inurba_marseille","lat":43.283502,"lon":5.386471,"is_reserved":false,"is_disabled":false,"rental_uris":{"android":"levelo://app?vid=748cb1c1-4abb-4edf-9c70-0756130a97a5","ios":"levelo://app?vid=748cb1c1-4abb-4edf-9c70-0756130a97a5"},"vehicle_type_id":"4","last_reported":1700579187,"current_range_meters":12000,"station_id":"ce4bh492rcd13ifvqdvg","pricing_plan_id":"free"},{"bike_id":"eb6498a9-d430-47b4-afd9-088416c93e58","system_id":"levelo_inurba_marseille","lat":43.282744,"lon":5.350533,"is_reserved":false,"is_disabled":false,"rental_uris":{"android":"levelo://app?vid=eb6498a9-d430-47b4-afd9-088416c93e58","ios":"levelo://app?vid=eb6498a9-d430-47b4-afd9-088416c93e58"},"vehicle_type_id":"4","last_reported":1700579187,"current_range_meters":19600,"station_id":"ce4bhbp2rcd13ifvqerg","pricing_plan_id":"free"},{"bike_id":"d5278778-3a03-48d3-87c5-599535cd143a","system_id":"levelo_inurba_marseille","lat":43.283502,"lon":5.386471,"is_reserved":false,"is_disabled":false,"rental_uris":{"android":"levelo://app?vid=d5278778-3a03-48d3-87c5-599535cd143a","ios":"levelo://app?vid=d5278778-3a03-48d3-87c5-599535cd143a"},"vehicle_type_id":"4","last_reported":1700579187,"current_range_meters":0,"station_id":"ce4bh492rcd13ifvqdvg","pricing_plan_id":"free"},{"bike_id":"b0253230-b53b-4dd1-8be8-74e612820f2f","system_id":"levelo_inurba_marseille","lat":43.28039,"lon":5.369297,"is_reserved":false,"is_disabled":false,"rental_uris":{"android":"levelo://app?vid=b0253230-b53b-4dd1-8be8-74e612820f2f","ios":"levelo://app?vid=b0253230-b53b-4dd1-8be8-74e612820f2f"},"vehicle_type_id":"4","last_reported":1700579187,"current_range_meters":26800,"station_id":"ce4bha12rcd13ifvqef0","pricing_plan_id":"free"},{"bike_id":"5e4ef7db-4482-4feb-8b0a-cd6d841e2690","system_id":"levelo_inurba_marseille","lat":43.28036,"lon":5.36941,"is_reserved":false,"is_disabled":false,"rental_uris":{"android":"levelo://app?vid=5e4ef7db-4482-4feb-8b0a-cd6d841e2690","ios":"levelo://app?vid=5e4ef7db-4482-4feb-8b0a-cd6d841e2690"},"vehicle_type_id":"4","last_reported":1700579187,"current_range_meters":7200,"station_id":"ce4bha12rcd13ifvqef0","pricing_plan_id":"free"},{"bike_id":"d3f50e3c-7405-4a04-95b2-851c9018af33","system_id":"levelo_inurba_marseille","lat":43.29039,"lon":5.39952,"is_reserved":false,"is_disabled":false,"rental_uris":{"android":"levelo://app?vid=d3f50e3c-7405-4a04-95b2-851c9018af33","ios":"levelo://app?vid=d3f50e3c-7405-4a04-95b2-851c9018af33"},"vehicle_type_id":"4","last_reported":1700579187,"current_range_meters":400,"station_id":"ce4bh392rcd13ifvqdm0","pricing_plan_id":"free"},{"bike_id":"7ef1bbf4-5fc1-4b67-8fa5-fa9888b967d6","system_id":"levelo_inurba_marseille","lat":43.29041,"lon":5.399634,"is_reserved":false,"is_disabled":false,"rental_uris":{"android":"levelo://app?vid=7ef1bbf4-5fc1-4b67-8fa5-fa9888b967d6","ios":"levelo://app?vid=7ef1bbf4-5fc1-4b67-8fa5-fa9888b967d6"},"vehicle_type_id":"4","last_reported":1700579187,"current_range_meters":1600,"station_id":"ce4bh392rcd13ifvqdm0","pricing_plan_id":"free"},{"bike_id":"f0ebf015-51eb-43cd-ae14-bc8ac02b9892","system_id":"levelo_inurba_marseille","lat":43.29041,"lon":5.399634,"is_reserved":false,"is_disabled":false,"rental_uris":{"android":"levelo://app?vid=f0ebf015-51eb-43cd-ae14-bc8ac02b9892","ios":"levelo://app?vid=f0ebf015-51eb-43cd-ae14-bc8ac02b9892"},"vehicle_type_id":"4","last_reported":1700579187,"current_range_meters":19600,"station_id":"ce4bh392rcd13ifvqdm0","pricing_plan_id":"free"},{"bike_id":"ba2baf8e-a137-4f39-a597-eca2d0df35f3","system_id":"levelo_inurba_marseille","lat":43.29041,"lon":5.3999,"is_reserved":false,"is_disabled":false,"rental_uris":{"android":"levelo://app?vid=ba2baf8e-a137-4f39-a597-eca2d0df35f3","ios":"levelo://app?vid=ba2baf8e-a137-4f39-a597-eca2d0df35f3"},"vehicle_type_id":"4","last_reported":1700579187,"current_range_meters":27600,"station_id":"ce4bh392rcd13ifvqdm0","pricing_plan_id":"free"},{"bike_id":"bead1f0d-365c-4ac9-89da-be8f5c3b0e0a","system_id":"levelo_inurba_marseille","lat":43.281044,"lon":5.378308,"is_reserved":false,"is_disabled":false,"rental_uris":{"android":"levelo://app?vid=bead1f0d-365c-4ac9-89da-be8f5c3b0e0a","ios":"levelo://app?vid=bead1f0d-365c-4ac9-89da-be8f5c3b0e0a"},"vehicle_type_id":"4","last_reported":1700579187,"current_range_meters":24400,"station_id":"ce4bha12rcd13ifvqee0","pricing_plan_id":"free"},{"bike_id":"a90afe5c-8bed-4686-a856-3c8bafe3339c","system_id":"levelo_inurba_marseille","lat":43.281044,"lon":5.378308,"is_reserved":false,"is_disabled":false,"rental_uris":{"android":"levelo://app?vid=a90afe5c-8bed-4686-a856-3c8bafe3339c","ios":"levelo://app?vid=a90afe5c-8bed-4686-a856-3c8bafe3339c"},"vehicle_type_id":"4","last_reported":1700579187,"current_range_meters":24000,"station_id":"ce4bha12rcd13ifvqee0","pricing_plan_id":"free"},{"bike_id":"a3f449d0-f355-4ac7-a319-02d14118a46f","system_id":"levelo_inurba_marseille","lat":43.281044,"lon":5.378308,"is_reserved":false,"is_disabled":false,"rental_uris":{"android":"levelo://app?vid=a3f449d0-f355-4ac7-a319-02d14118a46f","ios":"levelo://app?vid=a3f449d0-f355-4ac7-a319-02d14118a46f"},"vehicle_type_id":"4","last_reported":1700579187,"current_range_meters":20400,"station_id":"ce4bha12rcd13ifvqee0","pricing_plan_id":"free"},{"bike_id":"f34a1dc8-df46-484a-b680-02880a9f7845","system_id":"levelo_inurba_marseille","lat":43.281044,"lon":5.378308,"is_reserved":false,"is_disabled":false,"rental_uris":{"android":"levelo://app?vid=f34a1dc8-df46-484a-b680-02880a9f7845","ios":"levelo://app?vid=f34a1dc8-df46-484a-b680-02880a9f7845"},"vehicle_type_id":"4","last_reported":1700579187,"current_range_meters":31200,"station_id":"ce4bha12rcd13ifvqee0","pricing_plan_id":"free"},{"bike_id":"02538fab-9421-4126-9687-ce622b7371ba","system_id":"levelo_inurba_marseille","lat":43.28103,"lon":5.37855,"is_reserved":false,"is_disabled":false,"rental_uris":{"android":"levelo://app?vid=02538fab-9421-4126-9687-ce622b7371ba","ios":"levelo://app?vid=02538fab-9421-4126-9687-ce622b7371ba"},"vehicle_type_id":"4","last_reported":1700579187,"current_range_meters":26800,"station_id":"ce4bha12rcd13ifvqee0","pricing_plan_id":"free"},{"bike_id":"eff96cc1-0cf4-4d32-96fa-360c8e15736d","system_id":"levelo_inurba_marseille","lat":43.29041,"lon":5.399634,"is_reserved":false,"is_disabled":false,"rental_uris":{"android":"levelo://app?vid=eff96cc1-0cf4-4d32-96fa-360c8e15736d","ios":"levelo://app?vid=eff96cc1-0cf4-4d32-96fa-360c8e15736d"},"vehicle_type_id":"4","last_reported":1700579187,"current_range_meters":30000,"station_id":"ce4bh392rcd13ifvqdm0","pricing_plan_id":"free"},{"bike_id":"240d0ee4-57a8-49e8-a40a-e2c2c4d7cbd0","system_id":"levelo_inurba_marseille","lat":43.296263,"lon":5.40601,"is_reserved":false,"is_disabled":false,"rental_uris":{"android":"levelo://app?vid=240d0ee4-57a8-49e8-a40a-e2c2c4d7cbd0","ios":"levelo://app?vid=240d0ee4-57a8-49e8-a40a-e2c2c4d7cbd0"},"vehicle_type_id":"4","last_reported":1700579187,"current_range_meters":4800,"station_id":"ce4bh0h2rcd13ifvqd60","pricing_plan_id":"free"},{"bike_id":"0ff90e43-63ca-4543-a935-cb1136af4af4","system_id":"levelo_inurba_marseille","lat":43.304188,"lon":5.412904,"is_reserved":false,"is_disabled":false,"rental_uris":{"android":"levelo://app?vid=0ff90e43-63ca-4543-a935-cb1136af4af4","ios":"levelo://app?vid=0ff90e43-63ca-4543-a935-cb1136af4af4"},"vehicle_type_id":"4","last_reported":1700579187,"current_range_meters":30400,"station_id":"ce4bhop2rcd13ifvqh8g","pricing_plan_id":"free"},{"bike_id":"94d17398-66a6-4746-8482-d589b1f43633","system_id":"levelo_inurba_marseille","lat":43.304188,"lon":5.412904,"is_reserved":false,"is_disabled":false,"rental_uris":{"android":"levelo://app?vid=94d17398-66a6-4746-8482-d589b1f43633","ios":"levelo://app?vid=94d17398-66a6-4746-8482-d589b1f43633"},"vehicle_type_id":"4","last_reported":1700579187,"current_range_meters":26000,"station_id":"ce4bhop2rcd13ifvqh8g","pricing_plan_id":"free"},{"bike_id":"1c302f5e-0707-45bb-9371-81a30ec814b1","system_id":"levelo_inurba_marseille","lat":43.287154,"lon":5.399979,"is_reserved":false,"is_disabled":false,"rental_uris":{"android":"levelo://app?vid=1c302f5e-0707-45bb-9371-81a30ec814b1","ios":"levelo://app?vid=1c302f5e-0707-45bb-9371-81a30ec814b1"},"vehicle_type_id":"4","last_reported":1700579187,"current_range_meters":30400,"station_id":"ce4bho92rcd13ifvqh3g","pricing_plan_id":"free"},{"bike_id":"6e425b34-65b6-41a7-ba8c-d1651b6989a1","system_id":"levelo_inurba_marseille","lat":43.287154,"lon":5.399979,"is_reserved":false,"is_disabled":false,"rental_uris":{"android":"levelo://app?vid=6e425b34-65b6-41a7-ba8c-d1651b6989a1","ios":"levelo://app?vid=6e425b34-65b6-41a7-ba8c-d1651b6989a1"},"vehicle_type_id":"4","last_reported":1700579187,"current_range_meters":23200,"station_id":"ce4bho92rcd13ifvqh3g","pricing_plan_id":"free"},{"bike_id":"eda9d867-2059-4904-8524-bd940ef8bcda","system_id":"levelo_inurba_marseille","lat":43.28703,"lon":5.39996,"is_reserved":false,"is_disabled":false,"rental_uris":{"android":"levelo://app?vid=eda9d867-2059-4904-8524-bd940ef8bcda","ios":"levelo://app?vid=eda9d867-2059-4904-8524-bd940ef8bcda"},"vehicle_type_id":"4","last_reported":1700579187,"current_range_meters":14800,"station_id":"ce4bho92rcd13ifvqh3g","pricing_plan_id":"free"},{"bike_id":"4664f1fe-236e-4f92-8417-4de274d3a712","system_id":"levelo_inurba_marseille","lat":43.287154,"lon":5.399979,"is_reserved":false,"is_disabled":false,"rental_uris":{"android":"levelo://app?vid=4664f1fe-236e-4f92-8417-4de274d3a712","ios":"levelo://app?vid=4664f1fe-236e-4f92-8417-4de274d3a712"},"vehicle_type_id":"4","last_reported":1700579187,"current_range_meters":22400,"station_id":"ce4bho92rcd13ifvqh3g","pricing_plan_id":"free"},{"bike_id":"1b8d9ef9-fa03-4cc0-a78f-66cce4714703","system_id":"levelo_inurba_marseille","lat":43.28669,"lon":5.3999,"is_reserved":false,"is_disabled":false,"rental_uris":{"android":"levelo://app?vid=1b8d9ef9-fa03-4cc0-a78f-66cce4714703","ios":"levelo://app?vid=1b8d9ef9-fa03-4cc0-a78f-66cce4714703"},"vehicle_type_id":"4","last_reported":1700579187,"current_range_meters":8400,"station_id":"","pricing_plan_id":"free"},{"bike_id":"cfd46e0d-f1e9-4358-866c-1fc6103fbd43","system_id":"levelo_inurba_marseille","lat":43.279742,"lon":5.38744,"is_reserved":false,"is_disabled":false,"rental_uris":{"android":"levelo://app?vid=cfd46e0d-f1e9-4358-866c-1fc6103fbd43","ios":"levelo://app?vid=cfd46e0d-f1e9-4358-866c-1fc6103fbd43"},"vehicle_type_id":"4","last_reported":1700579187,"current_range_meters":23200,"station_id":"ce4bhg12rcd13ifvqf80","pricing_plan_id":"free"},{"bike_id":"cf7c6503-d761-4e4a-b826-f55f74848caf","system_id":"levelo_inurba_marseille","lat":43.34879,"lon":5.3751,"is_reserved":false,"is_disabled":false,"rental_uris":{"android":"levelo://app?vid=cf7c6503-d761-4e4a-b826-f55f74848caf","ios":"levelo://app?vid=cf7c6503-d761-4e4a-b826-f55f74848caf"},"vehicle_type_id":"4","last_reported":1700579187,"current_range_meters":9200,"station_id":"","pricing_plan_id":"free"},{"bike_id":"2d852623-6558-458d-adde-0f06cf3eea2b","system_id":"levelo_inurba_marseille","lat":43.292569,"lon":5.409107,"is_reserved":false,"is_disabled":false,"rental_uris":{"android":"levelo://app?vid=2d852623-6558-458d-adde-0f06cf3eea2b","ios":"levelo://app?vid=2d852623-6558-458d-adde-0f06cf3eea2b"},"vehicle_type_id":"4","last_reported":1700579187,"current_range_meters":27200,"station_id":"ce4bh192rcd13ifvqdc0","pricing_plan_id":"free"},{"bike_id":"8b9360dc-7335-4af8-a0fa-9165ebc43290","system_id":"levelo_inurba_marseille","lat":43.27618,"lon":5.361009,"is_reserved":false,"is_disabled":false,"rental_uris":{"android":"levelo://app?vid=8b9360dc-7335-4af8-a0fa-9165ebc43290","ios":"levelo://app?vid=8b9360dc-7335-4af8-a0fa-9165ebc43290"},"vehicle_type_id":"4","last_reported":1700579187,"current_range_meters":2800,"station_id":"ce4bgj92rcd13ifvqbe0","pricing_plan_id":"free"},{"bike_id":"e2935fdb-6e49-43a6-8e74-fba58b281319","system_id":"levelo_inurba_marseille","lat":43.278399,"lon":5.392139,"is_reserved":false,"is_disabled":false,"rental_uris":{"android":"levelo://app?vid=e2935fdb-6e49-43a6-8e74-fba58b281319","ios":"levelo://app?vid=e2935fdb-6e49-43a6-8e74-fba58b281319"},"vehicle_type_id":"4","last_reported":1700579187,"current_range_meters":0,"station_id":"ce4bhjp2rcd13ifvqga0","pricing_plan_id":"free"},{"bike_id":"37d486b1-0291-4be9-bf91-4d3d93e45274","system_id":"levelo_inurba_marseille","lat":43.27371,"lon":5.36251,"is_reserved":false,"is_disabled":false,"rental_uris":{"android":"levelo://app?vid=37d486b1-0291-4be9-bf91-4d3d93e45274","ios":"levelo://app?vid=37d486b1-0291-4be9-bf91-4d3d93e45274"},"vehicle_type_id":"4","last_reported":1700579187,"current_range_meters":25600,"station_id":"ce4bhbh2rcd13ifvqeo0","pricing_plan_id":"free"},{"bike_id":"b9b8dec9-64d4-4a02-868a-a0aa44f0f2ce","system_id":"levelo_inurba_marseille","lat":43.275625,"lon":5.384392,"is_reserved":false,"is_disabled":false,"rental_uris":{"android":"levelo://app?vid=b9b8dec9-64d4-4a02-868a-a0aa44f0f2ce","ios":"levelo://app?vid=b9b8dec9-64d4-4a02-868a-a0aa44f0f2ce"},"vehicle_type_id":"4","last_reported":1700579187,"current_range_meters":17600,"station_id":"ce4bhh92rcd13ifvqfi0","pricing_plan_id":"free"},{"bike_id":"1f3e2ef8-cb78-42ff-8d25-7d6acdb17be1","system_id":"levelo_inurba_marseille","lat":43.273609,"lon":5.362708,"is_reserved":false,"is_disabled":false,"rental_uris":{"android":"levelo://app?vid=1f3e2ef8-cb78-42ff-8d25-7d6acdb17be1","ios":"levelo://app?vid=1f3e2ef8-cb78-42ff-8d25-7d6acdb17be1"},"vehicle_type_id":"4","last_reported":1700579187,"current_range_meters":30400,"station_id":"ce4bhbh2rcd13ifvqeo0","pricing_plan_id":"free"},{"bike_id":"521db101-4d08-4e78-a1a5-e85726fb4f45","system_id":"levelo_inurba_marseille","lat":43.275567,"lon":5.384319,"is_reserved":false,"is_disabled":false,"rental_uris":{"android":"levelo://app?vid=521db101-4d08-4e78-a1a5-e85726fb4f45","ios":"levelo://app?vid=521db101-4d08-4e78-a1a5-e85726fb4f45"},"vehicle_type_id":"4","last_reported":1700579187,"current_range_meters":12400,"station_id":"ce4bhh92rcd13ifvqfi0","pricing_plan_id":"free"},{"bike_id":"b9a924ef-ecfb-4a60-af0f-cdcb3430acd7","system_id":"levelo_inurba_marseille","lat":43.276769,"lon":5.388787,"is_reserved":false,"is_disabled":false,"rental_uris":{"android":"levelo://app?vid=b9a924ef-ecfb-4a60-af0f-cdcb3430acd7","ios":"levelo://app?vid=b9a924ef-ecfb-4a60-af0f-cdcb3430acd7"},"vehicle_type_id":"4","last_reported":1700579187,"current_range_meters":29200,"station_id":"ce4bhi12rcd13ifvqfo0","pricing_plan_id":"free"},{"bike_id":"ef1a8411-db5d-44fd-a98f-1239eab30b07","system_id":"levelo_inurba_marseille","lat":43.276771,"lon":5.388799,"is_reserved":false,"is_disabled":false,"rental_uris":{"android":"levelo://app?vid=ef1a8411-db5d-44fd-a98f-1239eab30b07","ios":"levelo://app?vid=ef1a8411-db5d-44fd-a98f-1239eab30b07"},"vehicle_type_id":"4","last_reported":1700579187,"current_range_meters":31600,"station_id":"ce4bhi12rcd13ifvqfo0","pricing_plan_id":"free"},{"bike_id":"121c1c6a-feae-4d50-aecc-7a429d318d1a","system_id":"levelo_inurba_marseille","lat":43.2732,"lon":5.39065,"is_reserved":false,"is_disabled":false,"rental_uris":{"android":"levelo://app?vid=121c1c6a-feae-4d50-aecc-7a429d318d1a","ios":"levelo://app?vid=121c1c6a-feae-4d50-aecc-7a429d318d1a"},"vehicle_type_id":"4","last_reported":1700579187,"current_range_meters":31200,"station_id":"","pricing_plan_id":"free"},{"bike_id":"862ac8aa-966c-45b1-8597-a7c9a76d7c67","system_id":"levelo_inurba_marseille","lat":43.274099,"lon":5.394019,"is_reserved":false,"is_disabled":false,"rental_uris":{"android":"levelo://app?vid=862ac8aa-966c-45b1-8597-a7c9a76d7c67","ios":"levelo://app?vid=862ac8aa-966c-45b1-8597-a7c9a76d7c67"},"vehicle_type_id":"4","last_reported":1700579187,"current_range_meters":18000,"station_id":"ce4bhdp2rcd13ifvqf20","pricing_plan_id":"free"},{"bike_id":"820381c9-b308-4eef-b1a1-8306431e7961","system_id":"levelo_inurba_marseille","lat":43.273125,"lon":5.390731,"is_reserved":false,"is_disabled":false,"rental_uris":{"android":"levelo://app?vid=820381c9-b308-4eef-b1a1-8306431e7961","ios":"levelo://app?vid=820381c9-b308-4eef-b1a1-8306431e7961"},"vehicle_type_id":"4","last_reported":1700579187,"current_range_meters":0,"station_id":"ce4bhgp2rcd13ifvqfe0","pricing_plan_id":"free"},{"bike_id":"4a3b1e7c-abc5-46a2-a606-4f6618642ff8","system_id":"levelo_inurba_marseille","lat":43.274099,"lon":5.394019,"is_reserved":false,"is_disabled":false,"rental_uris":{"android":"levelo://app?vid=4a3b1e7c-abc5-46a2-a606-4f6618642ff8","ios":"levelo://app?vid=4a3b1e7c-abc5-46a2-a606-4f6618642ff8"},"vehicle_type_id":"4","last_reported":1700579187,"current_range_meters":19200,"station_id":"ce4bhdp2rcd13ifvqf20","pricing_plan_id":"free"},{"bike_id":"89c2a813-3d06-49c4-b711-3fdc38047b2a","system_id":"levelo_inurba_marseille","lat":43.274103,"lon":5.394016,"is_reserved":false,"is_disabled":false,"rental_uris":{"android":"levelo://app?vid=89c2a813-3d06-49c4-b711-3fdc38047b2a","ios":"levelo://app?vid=89c2a813-3d06-49c4-b711-3fdc38047b2a"},"vehicle_type_id":"4","last_reported":1700579187,"current_range_meters":5200,"station_id":"ce4bhdp2rcd13ifvqf20","pricing_plan_id":"free"},{"bike_id":"9924ceca-94db-4aa1-b77e-9c7345c77c57","system_id":"levelo_inurba_marseille","lat":43.295523,"lon":5.422926,"is_reserved":false,"is_disabled":false,"rental_uris":{"android":"levelo://app?vid=9924ceca-94db-4aa1-b77e-9c7345c77c57","ios":"levelo://app?vid=9924ceca-94db-4aa1-b77e-9c7345c77c57"},"vehicle_type_id":"4","last_reported":1700579187,"current_range_meters":16400,"station_id":"ce4bhph2rcd13ifvqhdg","pricing_plan_id":"free"},{"bike_id":"e66dacf1-aa13-4c9b-b2a6-7b260fce58f1","system_id":"levelo_inurba_marseille","lat":43.295511,"lon":5.422926,"is_reserved":false,"is_disabled":false,"rental_uris":{"android":"levelo://app?vid=e66dacf1-aa13-4c9b-b2a6-7b260fce58f1","ios":"levelo://app?vid=e66dacf1-aa13-4c9b-b2a6-7b260fce58f1"},"vehicle_type_id":"4","last_reported":1700579187,"current_range_meters":28400,"station_id":"ce4bhph2rcd13ifvqhdg","pricing_plan_id":"free"},{"bike_id":"d63f0213-db4d-4ade-9fb5-b0161bcbc51a","system_id":"levelo_inurba_marseille","lat":43.27217,"lon":5.39261,"is_reserved":false,"is_disabled":false,"rental_uris":{"android":"levelo://app?vid=d63f0213-db4d-4ade-9fb5-b0161bcbc51a","ios":"levelo://app?vid=d63f0213-db4d-4ade-9fb5-b0161bcbc51a"},"vehicle_type_id":"4","last_reported":1700579187,"current_range_meters":800,"station_id":"ce4bhhp2rcd13ifvqfm0","pricing_plan_id":"free"},{"bike_id":"a156f68f-2d1e-4430-80de-f604a6c33213","system_id":"levelo_inurba_marseille","lat":43.272118,"lon":5.391758,"is_reserved":false,"is_disabled":false,"rental_uris":{"android":"levelo://app?vid=a156f68f-2d1e-4430-80de-f604a6c33213","ios":"levelo://app?vid=a156f68f-2d1e-4430-80de-f604a6c33213"},"vehicle_type_id":"4","last_reported":1700579187,"current_range_meters":14800,"station_id":"ce4bhhp2rcd13ifvqfm0","pricing_plan_id":"free"},{"bike_id":"cbc2fb9f-e1d7-438a-87af-611b36f7eeb3","system_id":"levelo_inurba_marseille","lat":43.271891,"lon":5.392412,"is_reserved":false,"is_disabled":false,"rental_uris":{"android":"levelo://app?vid=cbc2fb9f-e1d7-438a-87af-611b36f7eeb3","ios":"levelo://app?vid=cbc2fb9f-e1d7-438a-87af-611b36f7eeb3"},"vehicle_type_id":"4","last_reported":1700579187,"current_range_meters":0,"station_id":"","pricing_plan_id":"free"},{"bike_id":"f8f467a5-9044-48b1-b05f-71311018976e","system_id":"levelo_inurba_marseille","lat":43.26949,"lon":5.38633,"is_reserved":false,"is_disabled":false,"rental_uris":{"android":"levelo://app?vid=f8f467a5-9044-48b1-b05f-71311018976e","ios":"levelo://app?vid=f8f467a5-9044-48b1-b05f-71311018976e"},"vehicle_type_id":"4","last_reported":1700579187,"current_range_meters":0,"station_id":"ce4bhh92rcd13ifvqfh0","pricing_plan_id":"free"},{"bike_id":"b917c19a-863c-40d8-aae1-dce47c94bffa","system_id":"levelo_inurba_marseille","lat":43.270156,"lon":5.393136,"is_reserved":false,"is_disabled":false,"rental_uris":{"android":"levelo://app?vid=b917c19a-863c-40d8-aae1-dce47c94bffa","ios":"levelo://app?vid=b917c19a-863c-40d8-aae1-dce47c94bffa"},"vehicle_type_id":"4","last_reported":1700579187,"current_range_meters":20400,"station_id":"","pricing_plan_id":"free"},{"bike_id":"22a59273-fd60-4adb-a068-10ff9a2bd957","system_id":"levelo_inurba_marseille","lat":43.26686,"lon":5.38273,"is_reserved":false,"is_disabled":false,"rental_uris":{"android":"levelo://app?vid=22a59273-fd60-4adb-a068-10ff9a2bd957","ios":"levelo://app?vid=22a59273-fd60-4adb-a068-10ff9a2bd957"},"vehicle_type_id":"4","last_reported":1700579187,"current_range_meters":28000,"station_id":"ce4bhg92rcd13ifvqf90","pricing_plan_id":"free"},{"bike_id":"be19b6bc-3f21-490e-92b7-2ed7d476706b","system_id":"levelo_inurba_marseille","lat":43.26556,"lon":5.37283,"is_reserved":false,"is_disabled":false,"rental_uris":{"android":"levelo://app?vid=be19b6bc-3f21-490e-92b7-2ed7d476706b","ios":"levelo://app?vid=be19b6bc-3f21-490e-92b7-2ed7d476706b"},"vehicle_type_id":"4","last_reported":1700579187,"current_range_meters":0,"station_id":"ce4bhg12rcd13ifvqf70","pricing_plan_id":"free"},{"bike_id":"9e98f43f-931d-4d4d-8152-9c7938546989","system_id":"levelo_inurba_marseille","lat":43.265547,"lon":5.37285,"is_reserved":false,"is_disabled":false,"rental_uris":{"android":"levelo://app?vid=9e98f43f-931d-4d4d-8152-9c7938546989","ios":"levelo://app?vid=9e98f43f-931d-4d4d-8152-9c7938546989"},"vehicle_type_id":"4","last_reported":1700579187,"current_range_meters":0,"station_id":"ce4bhg12rcd13ifvqf70","pricing_plan_id":"free"},{"bike_id":"c44b6908-4c66-4dc6-8e70-4196ad9a2a01","system_id":"levelo_inurba_marseille","lat":43.26681,"lon":5.382694,"is_reserved":false,"is_disabled":false,"rental_uris":{"android":"levelo://app?vid=c44b6908-4c66-4dc6-8e70-4196ad9a2a01","ios":"levelo://app?vid=c44b6908-4c66-4dc6-8e70-4196ad9a2a01"},"vehicle_type_id":"4","last_reported":1700579187,"current_range_meters":20400,"station_id":"ce4bhg92rcd13ifvqf90","pricing_plan_id":"free"},{"bike_id":"c4bf4638-d0be-4870-a4c9-6cc014208aed","system_id":"levelo_inurba_marseille","lat":43.326053,"lon":5.429943,"is_reserved":false,"is_disabled":false,"rental_uris":{"android":"levelo://app?vid=c4bf4638-d0be-4870-a4c9-6cc014208aed","ios":"levelo://app?vid=c4bf4638-d0be-4870-a4c9-6cc014208aed"},"vehicle_type_id":"4","last_reported":1700579187,"current_range_meters":0,"station_id":"","pricing_plan_id":"free"},{"bike_id":"28e8ce00-6b21-4e06-9930-c7c4408cc650","system_id":"levelo_inurba_marseille","lat":43.326174,"lon":5.430584,"is_reserved":false,"is_disabled":false,"rental_uris":{"android":"levelo://app?vid=28e8ce00-6b21-4e06-9930-c7c4408cc650","ios":"levelo://app?vid=28e8ce00-6b21-4e06-9930-c7c4408cc650"},"vehicle_type_id":"4","last_reported":1700579187,"current_range_meters":10400,"station_id":"","pricing_plan_id":"free"},{"bike_id":"941e3502-7a0b-47d6-b792-7242492cdbb7","system_id":"levelo_inurba_marseille","lat":43.265714,"lon":5.372891,"is_reserved":false,"is_disabled":false,"rental_uris":{"android":"levelo://app?vid=941e3502-7a0b-47d6-b792-7242492cdbb7","ios":"levelo://app?vid=941e3502-7a0b-47d6-b792-7242492cdbb7"},"vehicle_type_id":"4","last_reported":1700579187,"current_range_meters":20400,"station_id":"ce4bhg12rcd13ifvqf70","pricing_plan_id":"free"},{"bike_id":"4026488f-59f8-4363-9b8b-83bd4e835be6","system_id":"levelo_inurba_marseille","lat":43.267966,"lon":5.393976,"is_reserved":false,"is_disabled":false,"rental_uris":{"android":"levelo://app?vid=4026488f-59f8-4363-9b8b-83bd4e835be6","ios":"levelo://app?vid=4026488f-59f8-4363-9b8b-83bd4e835be6"},"vehicle_type_id":"4","last_reported":1700579187,"current_range_meters":22400,"station_id":"ce4bhh12rcd13ifvqfg0","pricing_plan_id":"free"},{"bike_id":"264e9b48-7eaa-4140-9fc9-09ee9c3eaf71","system_id":"levelo_inurba_marseille","lat":43.267966,"lon":5.393976,"is_reserved":false,"is_disabled":false,"rental_uris":{"android":"levelo://app?vid=264e9b48-7eaa-4140-9fc9-09ee9c3eaf71","ios":"levelo://app?vid=264e9b48-7eaa-4140-9fc9-09ee9c3eaf71"},"vehicle_type_id":"4","last_reported":1700579187,"current_range_meters":29600,"station_id":"ce4bhh12rcd13ifvqfg0","pricing_plan_id":"free"},{"bike_id":"311ca6d4-2e26-4147-acd7-9164846cf69e","system_id":"levelo_inurba_marseille","lat":43.267966,"lon":5.393976,"is_reserved":false,"is_disabled":false,"rental_uris":{"android":"levelo://app?vid=311ca6d4-2e26-4147-acd7-9164846cf69e","ios":"levelo://app?vid=311ca6d4-2e26-4147-acd7-9164846cf69e"},"vehicle_type_id":"4","last_reported":1700579187,"current_range_meters":28800,"station_id":"ce4bhh12rcd13ifvqfg0","pricing_plan_id":"free"},{"bike_id":"32472631-49e4-46d0-bc57-c6ee47a9ddc9","system_id":"levelo_inurba_marseille","lat":43.267966,"lon":5.393976,"is_reserved":false,"is_disabled":false,"rental_uris":{"android":"levelo://app?vid=32472631-49e4-46d0-bc57-c6ee47a9ddc9","ios":"levelo://app?vid=32472631-49e4-46d0-bc57-c6ee47a9ddc9"},"vehicle_type_id":"4","last_reported":1700579187,"current_range_meters":20400,"station_id":"ce4bhh12rcd13ifvqfg0","pricing_plan_id":"free"},{"bike_id":"adbb4cc7-c682-47c5-bbf0-648ae0ba2327","system_id":"levelo_inurba_marseille","lat":43.270905,"lon":5.40311,"is_reserved":false,"is_disabled":false,"rental_uris":{"android":"levelo://app?vid=adbb4cc7-c682-47c5-bbf0-648ae0ba2327","ios":"levelo://app?vid=adbb4cc7-c682-47c5-bbf0-648ae0ba2327"},"vehicle_type_id":"4","last_reported":1700579187,"current_range_meters":26400,"station_id":"","pricing_plan_id":"free"},{"bike_id":"b09782df-b195-4415-af8d-20dff7beef19","system_id":"levelo_inurba_marseille","lat":43.265714,"lon":5.372891,"is_reserved":false,"is_disabled":false,"rental_uris":{"android":"levelo://app?vid=b09782df-b195-4415-af8d-20dff7beef19","ios":"levelo://app?vid=b09782df-b195-4415-af8d-20dff7beef19"},"vehicle_type_id":"4","last_reported":1700579187,"current_range_meters":27200,"station_id":"ce4bhg12rcd13ifvqf70","pricing_plan_id":"free"},{"bike_id":"8d13cfe0-8db5-4faf-8dab-bec17c39f5d4","system_id":"levelo_inurba_marseille","lat":43.30798,"lon":5.43523,"is_reserved":false,"is_disabled":false,"rental_uris":{"android":"levelo://app?vid=8d13cfe0-8db5-4faf-8dab-bec17c39f5d4","ios":"levelo://app?vid=8d13cfe0-8db5-4faf-8dab-bec17c39f5d4"},"vehicle_type_id":"4","last_reported":1700579187,"current_range_meters":0,"station_id":"ce4bhph2rcd13ifvqheg","pricing_plan_id":"free"},{"bike_id":"89b71c53-4f67-41fd-aa37-a4535298851f","system_id":"levelo_inurba_marseille","lat":43.30802,"lon":5.43537,"is_reserved":false,"is_disabled":false,"rental_uris":{"android":"levelo://app?vid=89b71c53-4f67-41fd-aa37-a4535298851f","ios":"levelo://app?vid=89b71c53-4f67-41fd-aa37-a4535298851f"},"vehicle_type_id":"4","last_reported":1700579187,"current_range_meters":16400,"station_id":"ce4bhph2rcd13ifvqheg","pricing_plan_id":"free"},{"bike_id":"26de35e2-55f6-436e-ade6-237070770273","system_id":"levelo_inurba_marseille","lat":43.26561,"lon":5.39013,"is_reserved":false,"is_disabled":false,"rental_uris":{"android":"levelo://app?vid=26de35e2-55f6-436e-ade6-237070770273","ios":"levelo://app?vid=26de35e2-55f6-436e-ade6-237070770273"},"vehicle_type_id":"4","last_reported":1700579187,"current_range_meters":15600,"station_id":"ce4bhe12rcd13ifvqf30","pricing_plan_id":"free"},