{"last_updated":1723838933,"ttl":30,"version":"2.2","data":{"bikes":[{"bike_id":"74e0a376-5a9b-4895-b09b-89b92c5c43fe","system_id":"levelo_inurba_marseille","lat":43.31341,"lon":5.367098,"is_reserved":false,"is_disabled":false,"rental_uris":{"android":"levelo://app?vid=74e0a376-5a9b-4895-b09b-89b92c5c43fe","ios":"levelo://app?vid=74e0a376-5a9b-4895-b09b-89b92c5c43fe"},"vehicle_type_id":"4","last_reported":1723838933,"current_range_meters":24400,"station_id":"ce4bgr92rcd13ifvqc6g","pricing_plan_id":"cebpf4jnsgd1na2vs0mg"},{"bike_id":"cdf387ab-96cc-46c0-9fc7-02c965e53973","system_id":"levelo_inurba_marseille","lat":43.312239,"lon":5.368562,"is_reserved":false,"is_disabled":false,"rental_uris":{"android":"levelo://app?vid=cdf387ab-96cc-46c0-9fc7-02c965e53973","ios":"levelo://app?vid=cdf387ab-96cc-46c0-9fc7-02c965e53973"},"vehicle_type_id":"4","last_reported":1723838933,"current_range_meters":3600,"station_id":"ce4bgl92rcd13ifvqbq0","pricing_plan_id":"cebpf4jnsgd1na2vs0mg"},{"bike_id":"3a2a3995-5f11-4e49-8664-00007201b48b","system_id":"levelo_inurba_marseille","lat":43.312239,"lon":5.368562,"is_reserved":false,"is_disabled":false,"rental_uris":{"android":"levelo://app?vid=3a2a3995-5f11-4e49-8664-00007201b48b","ios":"levelo://app?vid=3a2a3995-5f11-4e49-8664-00007201b48b"},"vehicle_type_id":"4","last_reported":1723838933,"current_range_meters":11600,"station_id":"ce4bgl92rcd13ifvqbq0","pricing_plan_id":"cebpf4jnsgd1na2vs0mg"},{"bike_id":"98d39639-db06-415c-9aba-839443153387","system_id":"levelo_inurba_marseille","lat":43.309076,"lon":5.368465,"is_reserved":false,"is_disabled":false,"rental_uris":{"android":"levelo://app?vid=98d39639-db06-415c-9aba-839443153387","ios":"levelo://app?vid=98d39639-db06-415c-9aba-839443153387"},"vehicle_type_id":"4","last_reported":1723838933,"current_range_meters":24000,"station_id":"ce4bgn92rcd13ifvqbvg","pricing_plan_id":"cebpf4jnsgd1na2vs0mg"},{"bike_id":"25322b98-3caf-47d2-ac08-9de91a8b691b","system_id":"levelo_inurba_marseille","lat":43.309076,"lon":5.368465,"is_reserved":false,"is_disabled":false,"rental_uris":{"android":"levelo://app?vid=25322b98-3caf-47d2-ac08-9de91a8b691b","ios":"levelo://app?vid=25322b98-3caf-47d2-ac08-9de91a8b691b"},"vehicle_type_id":"4","last_reported":1723838933,"current_range_meters":30400,"station_id":"ce4bgn92rcd13ifvqbvg","pricing_plan_id":"cebpf4jnsgd1na2vs0mg"},{"bike_id":"54c1372a-fb16-40c9-bf2f-6e56b7ad5b8e","system_id":"levelo_inurba_marseille","lat":43.31495,"lon":5.37311,"is_reserved":false,"is_disabled":false,"rental_uris":{"android":"levelo://app?vid=54c1372a-fb16-40c9-bf2f-6e56b7ad5b8e","ios":"levelo://app?vid=54c1372a-fb16-40c9-bf2f-6e56b7ad5b8e"},"vehicle_type_id":"4","last_reported":1723838933,"current_range_meters":0,"station_id":"ce4bgt12rcd13ifvqcd0","pricing_plan_id":"cebpf4jnsgd1na2vs0mg"},{"bike_id":"37e5d2be-c2b9-4e1d-92ce-29430264ca19","system_id":"levelo_inurba_marseille","lat":43.309039,"lon":5.371797,"is_reserved":false,"is_disabled":false,"rental_uris":{"android":"levelo://app?vid=37e5d2be-c2b9-4e1d-92ce-29430264ca19","ios":"levelo://app?vid=37e5d2be-c2b9-4e1d-92ce-29430264ca19"},"vehicle_type_id":"4","last_reported":1723838933,"current_range_meters":27200,"station_id":"ce4bguh2rcd13ifvqckg","pricing_plan_id":"cebpf4jnsgd1na2vs0mg"},{"bike_id":"1080f4cf-8d0b-49a3-90a1-cd44acc0587f","system_id":"levelo_inurba_marseille","lat":43.309034,"lon":5.371783,"is_reserved":false,"is_disabled":false,"rental_uris":{"android":"levelo://app?vid=1080f4cf-8d0b-49a3-90a1-cd44acc0587f","ios":"levelo://app?vid=1080f4cf-8d0b-49a3-90a1-cd44acc0587f"},"vehicle_type_id":"4","last_reported":1723838933,"current_range_meters":20400,"station_id":"ce4bguh2rcd13ifvqckg","pricing_plan_id":"cebpf4jnsgd1na2vs0mg"},{"bike_id":"43e71fcf-94ee-458d-8ba2-1096d2116419","system_id":"levelo_inurba_marseille","lat":43.305714,"lon":5.365633,"is_reserved":false,"is_disabled":false,"rental_uris":{"android":"levelo://app?vid=43e71fcf-94ee-458d-8ba2-1096d2116419","ios":"levelo://app?vid=43e71fcf-94ee-458d-8ba2-1096d2116419"},"vehicle_type_id":"4","last_reported":1723838933,"current_range_meters":11200,"station_id":"ce4bgs12rcd13ifvqcag","pricing_plan_id":"cebpf4jnsgd1na2vs0mg"},{"bike_id":"757638db-9fa7-4e5d-baf8-b481e6e0edab","system_id":"levelo_inurba_marseille","lat":43.30607,"lon":5.37224,"is_reserved":false,"is_disabled":false,"rental_uris":{"android":"levelo://app?vid=757638db-9fa7-4e5d-baf8-b481e6e0edab","ios":"levelo://app?vid=757638db-9fa7-4e5d-baf8-b481e6e0edab"},"vehicle_type_id":"4","last_reported":1723838933,"current_range_meters":16800,"station_id":"ce4bgqh2rcd13ifvqc4g","pricing_plan_id":"cebpf4jnsgd1na2vs0mg"},{"bike_id":"7831af41-8df8-4281-aca5-b6fe580beeb3","system_id":"levelo_inurba_marseille","lat":43.311131,"lon":5.377651,"is_reserved":false,"is_disabled":false,"rental_uris":{"android":"levelo://app?vid=7831af41-8df8-4281-aca5-b6fe580beeb3","ios":"levelo://app?vid=7831af41-8df8-4281-aca5-b6fe580beeb3"},"vehicle_type_id":"4","last_reported":1723838933,"current_range_meters":0,"station_id":"ce4bgt92rcd13ifvqcg0","pricing_plan_id":"cebpf4jnsgd1na2vs0mg"},{"bike_id":"509c80dd-c82f-4616-837b-091010abe442","system_id":"levelo_inurba_marseille","lat":43.311131,"lon":5.377651,"is_reserved":false,"is_disabled":false,"rental_uris":{"android":"levelo://app?vid=509c80dd-c82f-4616-837b-091010abe442","ios":"levelo://app?vid=509c80dd-c82f-4616-837b-091010abe442"},"vehicle_type_id":"4","last_reported":1723838933,"current_range_meters":14400,"station_id":"ce4bgt92rcd13ifvqcg0","pricing_plan_id":"cebpf4jnsgd1na2vs0mg"},{"bike_id":"4e0a9fb4-a6d7-4ab2-bfa9-a13bdc9caecc","system_id":"levelo_inurba_marseille","lat":43.311125,"lon":5.377624,"is_reserved":false,"is_disabled":false,"rental_uris":{"android":"levelo://app?vid=4e0a9fb4-a6d7-4ab2-bfa9-a13bdc9caecc","ios":"levelo://app?vid=4e0a9fb4-a6d7-4ab2-bfa9-a13bdc9caecc"},"vehicle_type_id":"4","last_reported":1723838933,"current_range_meters":18400,"station_id":"ce4bgt92rcd13ifvqcg0","pricing_plan_id":"cebpf4jnsgd1na2vs0mg"},{"bike_id":"04ddbc95-9816-4fd9-ad72-d5c0f64be72c","system_id":"levelo_inurba_marseille","lat":43.307945,"lon":5.376487,"is_reserved":false,"is_disabled":false,"rental_uris":{"android":"levelo://app?vid=04ddbc95-9816-4fd9-ad72-d5c0f64be72c","ios":"levelo://app?vid=04ddbc95-9816-4fd9-ad72-d5c0f64be72c"},"vehicle_type_id":"4","last_reported":1723838933,"current_range_meters":8000,"station_id":"ce4bgv92rcd13ifvqcq0","pricing_plan_id":"cebpf4jnsgd1na2vs0mg"},{"bike_id":"d1404a6b-bf96-4136-9873-651073804dea","system_id":"levelo_inurba_marseille","lat":43.307945,"lon":5.376487,"is_reserved":false,"is_disabled":false,"rental_uris":{"android":"levelo://app?vid=d1404a6b-bf96-4136-9873-651073804dea","ios":"levelo://app?vid=d1404a6b-bf96-4136-9873-651073804dea"},"vehicle_type_id":"4","last_reported":1723838933,"current_range_meters":23600,"station_id":"ce4bgv92rcd13ifvqcq0","pricing_plan_id":"cebpf4jnsgd1na2vs0mg"},{"bike_id":"6f3b0fff-03c6-4bf2-bf94-008f2d7ba3a4","system_id":"levelo_inurba_marseille","lat":43.3137,"lon":5.3792,"is_reserved":false,"is_disabled":false,"rental_uris":{"android":"levelo://app?vid=6f3b0fff-03c6-4bf2-bf94-008f2d7ba3a4","ios":"levelo://app?vid=6f3b0fff-03c6-4bf2-bf94-008f2d7ba3a4"},"vehicle_type_id":"4","last_reported":1723838933,"current_range_meters":5600,"station_id":"","pricing_plan_id":"cebpf4jnsgd1na2vs0mg"},{"bike_id":"b6424ec7-9895-4ad3-b32f-ed37c54a7cb6","system_id":"levelo_inurba_marseille","lat":43.30304,"lon":5.368987,"is_reserved":false,"is_disabled":false,"rental_uris":{"android":"levelo://app?vid=b6424ec7-9895-4ad3-b32f-ed37c54a7cb6","ios":"levelo://app?vid=b6424ec7-9895-4ad3-b32f-ed37c54a7cb6"},"vehicle_type_id":"4","last_reported":1723838933,"current_range_meters":27600,"station_id":"ce4bgqh2rcd13ifvqc5g","pricing_plan_id":"cebpf4jnsgd1na2vs0mg"},{"bike_id":"c9df3aa1-87be-498c-8b3f-e2cc98039ed5","system_id":"levelo_inurba_marseille","lat":43.315289,"lon":5.380349,"is_reserved":false,"is_disabled":false,"rental_uris":{"android":"levelo://app?vid=c9df3aa1-87be-498c-8b3f-e2cc98039ed5","ios":"levelo://app?vid=c9df3aa1-87be-498c-8b3f-e2cc98039ed5"},"vehicle_type_id":"4","last_reported":1723838933,"current_range_meters":12000,"station_id":"ce4bhsp2rcd13ifvqi50","pricing_plan_id":"cebpf4jnsgd1na2vs0mg"},{"bike_id":"6525aa52-816a-4c8e-ad78-f32505ccdfba","system_id":"levelo_inurba_marseille","lat":43.31017,"lon":5.380753,"is_reserved":false,"is_disabled":false,"rental_uris":{"android":"levelo://app?vid=6525aa52-816a-4c8e-ad78-f32505ccdfba","ios":"levelo://app?vid=6525aa52-816a-4c8e-ad78-f32505ccdfba"},"vehicle_type_id":"4","last_reported":1723838933,"current_range_meters":7200,"station_id":"","pricing_plan_id":"cebpf4jnsgd1na2vs0mg"},{"bike_id":"f8ea1951-fc3b-444b-a028-c1253a0743aa","system_id":"levelo_inurba_marseille","lat":43.308012,"lon":5.381511,"is_reserved":false,"is_disabled":false,"rental_uris":{"android":"levelo://app?vid=f8ea1951-fc3b-444b-a028-c1253a0743aa","ios":"levelo://app?vid=f8ea1951-fc3b-444b-a028-c1253a0743aa"},"vehicle_type_id":"4","last_reported":1723838933,"current_range_meters":19600,"station_id":"ce4bgt12rcd13ifvqce0","pricing_plan_id":"cebpf4jnsgd1na2vs0mg"},{"bike_id":"dc46a061-5054-4ee1-815c-c30ea40fe35b","system_id":"levelo_inurba_marseille","lat":43.324771,"lon":5.36557,"is_reserved":false,"is_disabled":false,"rental_uris":{"android":"levelo://app?vid=dc46a061-5054-4ee1-815c-c30ea40fe35b","ios":"levelo://app?vid=dc46a061-5054-4ee1-815c-c30ea40fe35b"},"vehicle_type_id":"4","last_reported":1723838933,"current_range_meters":15200,"station_id":"ce4bhs12rcd13ifvqhvg","pricing_plan_id":"cebpf4jnsgd1na2vs0mg"},{"bike_id":"aa6801bb-4107-4b02-b07f-6f41c728a11e","system_id":"levelo_inurba_marseille","lat":43.32493,"lon":5.36612,"is_reserved":false,"is_disabled":false,"rental_uris":{"android":"levelo://app?vid=aa6801bb-4107-4b02-b07f-6f41c728a11e","ios":"levelo://app?vid=aa6801bb-4107-4b02-b07f-6f41c728a11e"},"vehicle_type_id":"4","last_reported":1723838933,"current_range_meters":0,"station_id":"","pricing_plan_id":"cebpf4jnsgd1na2vs0mg"},{"bike_id":"7ac3f2a9-baf2-4078-bdb7-183b625c56ae","system_id":"levelo_inurba_marseille","lat":43.324771,"lon":5.36557,"is_reserved":false,"is_disabled":false,"rental_uris":{"android":"levelo://app?vid=7ac3f2a9-baf2-4078-bdb7-183b625c56ae","ios":"levelo://app?vid=7ac3f2a9-baf2-4078-bdb7-183b625c56ae"},"vehicle_type_id":"4","last_reported":1723838933,"current_range_meters":31200,"station_id":"ce4bhs12rcd13ifvqhvg","pricing_plan_id":"cebpf4jnsgd1na2vs0mg"},{"bike_id":"6734f8e6-4ae3-4622-b5d0-ea52dbea81bf","system_id":"levelo_inurba_marseille","lat":43.310804,"lon":5.38359,"is_reserved":false,"is_disabled":false,"rental_uris":{"android":"levelo://app?vid=6734f8e6-4ae3-4622-b5d0-ea52dbea81bf","ios":"levelo://app?vid=6734f8e6-4ae3-4622-b5d0-ea52dbea81bf"},"vehicle_type_id":"4","last_reported":1723838933,"current_range_meters":4400,"station_id":"ce4bgv92rcd13ifvqcr0","pricing_plan_id":"cebpf4jnsgd1na2vs0mg"},{"bike_id":"b58f9e05-4241-410c-b71f-a3e9b4a94863","system_id":"levelo_inurba_marseille","lat":43.3028,"lon":5.37699,"is_reserved":false,"is_disabled":false,"rental_uris":{"android":"levelo://app?vid=b58f9e05-4241-410c-b71f-a3e9b4a94863","ios":"levelo://app?vid=b58f9e05-4241-410c-b71f-a3e9b4a94863"},"vehicle_type_id":"4","last_reported":1723838933,"current_range_meters":0,"station_id":"ce4bguh2rcd13ifvqcj0","pricing_plan_id":"cebpf4jnsgd1na2vs0mg"},{"bike_id":"5f044617-27d8-4c12-8909-c193aa356463","system_id":"levelo_inurba_marseille","lat":43.30281,"lon":5.37706,"is_reserved":false,"is_disabled":false,"rental_uris":{"android":"levelo://app?vid=5f044617-27d8-4c12-8909-c193aa356463","ios":"levelo://app?vid=5f044617-27d8-4c12-8909-c193aa356463"},"vehicle_type_id":"4","last_reported":1723838933,"current_range_meters":9600,"station_id":"ce4bguh2rcd13ifvqcj0","pricing_plan_id":"cebpf4jnsgd1na2vs0mg"},{"bike_id":"456a0459-e7c0-4689-82c9-b5c35dea6184","system_id":"levelo_inurba_marseille","lat":43.30145,"lon":5.3742,"is_reserved":false,"is_disabled":false,"rental_uris":{"android":"levelo://app?vid=456a0459-e7c0-4689-82c9-b5c35dea6184","ios":"levelo://app?vid=456a0459-e7c0-4689-82c9-b5c35dea6184"},"vehicle_type_id":"4","last_reported":1723838933,"current_range_meters":0,"station_id":"ce4bgs92rcd13ifvqcc0","pricing_plan_id":"cebpf4jnsgd1na2vs0mg"},{"bike_id":"7dcb974f-5452-4c2c-84d5-c2741dd810df","system_id":"levelo_inurba_marseille","lat":43.301429,"lon":5.37413,"is_reserved":false,"is_disabled":false,"rental_uris":{"android":"levelo://app?vid=7dcb974f-5452-4c2c-84d5-c2741dd810df","ios":"levelo://app?vid=7dcb974f-5452-4c2c-84d5-c2741dd810df"},"vehicle_type_id":"4","last_reported":1723838933,"current_range_meters":28400,"station_id":"ce4bgs92rcd13ifvqcc0","pricing_plan_id":"cebpf4jnsgd1na2vs0mg"},{"bike_id":"3002f280-7517-4418-82ef-061406a0cac0","system_id":"levelo_inurba_marseille","lat":43.325242,"lon":5.369292,"is_reserved":false,"is_disabled":false,"rental_uris":{"android":"levelo://app?vid=3002f280-7517-4418-82ef-061406a0cac0","ios":"levelo://app?vid=3002f280-7517-4418-82ef-061406a0cac0"},"vehicle_type_id":"4","last_reported":1723838933,"current_range_meters":6000,"station_id":"","pricing_plan_id":"cebpf4jnsgd1na2vs0mg"},{"bike_id":"157511e4-4ba0-497a-aeb9-4308d190a3ff","system_id":"levelo_inurba_marseille","lat":43.319935,"lon":5.381699,"is_reserved":false,"is_disabled":false,"rental_uris":{"android":"levelo://app?vid=157511e4-4ba0-497a-aeb9-4308d190a3ff","ios":"levelo://app?vid=157511e4-4ba0-497a-aeb9-4308d190a3ff"},"vehicle_type_id":"4","last_reported":1723838933,"current_range_meters":22800,"station_id":"ce4bhr12rcd13ifvqhpg","pricing_plan_id":"cebpf4jnsgd1na2vs0mg"},{"bike_id":"bafdb77d-f904-40c5-bf7b-0c3658709c85","system_id":"levelo_inurba_marseille","lat":43.30304,"lon":5.368987,"is_reserved":false,"is_disabled":false,"rental_uris":{"android":"levelo://app?vid=bafdb77d-f904-40c5-bf7b-0c3658709c85","ios":"levelo://app?vid=bafdb77d-f904-40c5-bf7b-0c3658709c85"},"vehicle_type_id":"4","last_reported":1723838933,"current_range_meters":8000,"station_id":"ce4bgqh2rcd13ifvqc5g","pricing_plan_id":"cebpf4jnsgd1na2vs0mg"},{"bike_id":"ce02ec92-1446-4adf-a543-f97cf98b6137","system_id":"levelo_inurba_marseille","lat":43.30572,"lon":5.38202,"is_reserved":false,"is_disabled":false,"rental_uris":{"android":"levelo://app?vid=ce02ec92-1446-4adf-a543-f97cf98b6137","ios":"levelo://app?vid=ce02ec92-1446-4adf-a543-f97cf98b6137"},"vehicle_type_id":"4","last_reported":1723838933,"current_range_meters":25600,"station_id":"","pricing_plan_id":"cebpf4jnsgd1na2vs0mg"},{"bike_id":"b7c45ebb-d856-4fad-a21c-c750bd03ce8c","system_id":"levelo_inurba_marseille","lat":43.313571,"lon":5.384829,"is_reserved":false,"is_disabled":false,"rental_uris":{"android":"levelo://app?vid=b7c45ebb-d856-4fad-a21c-c750bd03ce8c","ios":"levelo://app?vid=b7c45ebb-d856-4fad-a21c-c750bd03ce8c"},"vehicle_type_id":"4","last_reported":1723838933,"current_range_meters":20800,"station_id":"ce4bgt92rcd13ifvqcf0","pricing_plan_id":"cebpf4jnsgd1na2vs0mg"},{"bike_id":"b897c941-ca4d-48a5-8f7f-2d91075cc8d0","system_id":"levelo_inurba_marseille","lat":43.313571,"lon":5.384829,"is_reserved":false,"is_disabled":false,"rental_uris":{"android":"levelo://app?vid=b897c941-ca4d-48a5-8f7f-2d91075cc8d0","ios":"levelo://app?vid=b897c941-ca4d-48a5-8f7f-2d91075cc8d0"},"vehicle_type_id":"4","last_reported":1723838933,"current_range_meters":26000,"station_id":"ce4bgt92rcd13ifvqcf0","pricing_plan_id":"cebpf4jnsgd1na2vs0mg"},{"bike_id":"b2c74d5c-d8ab-4d2e-87ad-14df6c4e270e","system_id":"levelo_inurba_marseille","lat":43.313571,"lon":5.384829,"is_reserved":false,"is_disabled":false,"rental_uris":{"android":"levelo://app?vid=b2c74d5c-d8ab-4d2e-87ad-14df6c4e270e","ios":"levelo://app?vid=b2c74d5c-d8ab-4d2e-87ad-14df6c4e270e"},"vehicle_type_id":"4","last_reported":1723838933,"current_range_meters":6400,"station_id":"ce4bgt92rcd13ifvqcf0","pricing_plan_id":"cebpf4jnsgd1na2vs0mg"},{"bike_id":"96604b5f-5383-4891-906d-550c49ec1174","system_id":"levelo_inurba_marseille","lat":43.313571,"lon":5.384829,"is_reserved":false,"is_disabled":false,"rental_uris":{"android":"levelo://app?vid=96604b5f-5383-4891-906d-550c49ec1174","ios":"levelo://app?vid=96604b5f-5383-4891-906d-550c49ec1174"},"vehicle_type_id":"4","last_reported":1723838933,"current_range_meters":17600,"station_id":"ce4bgt92rcd13ifvqcf0","pricing_plan_id":"cebpf4jnsgd1na2vs0mg"},{"bike_id":"df5d36e1-673d-4073-ad41-8d4fefe0422f","system_id":"levelo_inurba_marseille","lat":43.313571,"lon":5.384829,"is_reserved":false,"is_disabled":false,"rental_uris":{"android":"levelo://app?vid=df5d36e1-673d-4073-ad41-8d4fefe0422f","ios":"levelo://app?vid=df5d36e1-673d-4073-ad41-8d4fefe0422f"},"vehicle_type_id":"4","last_reported":1723838933,"current_range_meters":800,"station_id":"ce4bgt92rcd13ifvqcf0","pricing_plan_id":"cebpf4jnsgd1na2vs0mg"},{"bike_id":"bdbe2cdd-3f50-49ae-9bcc-1b84a2ca5621","system_id":"levelo_inurba_marseille","lat":43.313571,"lon":5.384829,"is_reserved":false,"is_disabled":false,"rental_uris":{"android":"levelo://app?vid=bdbe2cdd-3f50-49ae-9bcc-1b84a2ca5621","ios":"levelo://app?vid=bdbe2cdd-3f50-49ae-9bcc-1b84a2ca5621"},"vehicle_type_id":"4","last_reported":1723838933,"current_range_meters":30800,"station_id":"ce4bgt92rcd13ifvqcf0","pricing_plan_id":"cebpf4jnsgd1na2vs0mg"},{"bike_id":"64ca8cf9-3327-43e9-8805-47af5a211079","system_id":"levelo_inurba_marseille","lat":43.313571,"lon":5.384829,"is_reserved":false,"is_disabled":false,"rental_uris":{"android":"levelo://app?vid=64ca8cf9-3327-43e9-8805-47af5a211079","ios":"levelo://app?vid=64ca8cf9-3327-43e9-8805-47af5a211079"},"vehicle_type_id":"4","last_reported":1723838933,"current_range_meters":29600,"station_id":"ce4bgt92rcd13ifvqcf0","pricing_plan_id":"cebpf4jnsgd1na2vs0mg"},{"bike_id":"ac86a8bb-e1ec-42b9-a195-6a850ed5a72b","system_id":"levelo_inurba_marseille","lat":43.3136,"lon":5.38495,"is_reserved":false,"is_disabled":false,"rental_uris":{"android":"levelo://app?vid=ac86a8bb-e1ec-42b9-a195-6a850ed5a72b","ios":"levelo://app?vid=ac86a8bb-e1ec-42b9-a195-6a850ed5a72b"},"vehicle_type_id":"4","last_reported":1723838933,"current_range_meters":10400,"station_id":"ce4bgt92rcd13ifvqcf0","pricing_plan_id":"cebpf4jnsgd1na2vs0mg"},{"bike_id":"01aaec81-19d0-4ac2-9aaa-f3db70537489","system_id":"levelo_inurba_marseille","lat":43.313571,"lon":5.384829,"is_reserved":false,"is_disabled":false,"rental_uris":{"android":"levelo://app?vid=01aaec81-19d0-4ac2-9aaa-f3db70537489","ios":"levelo://app?vid=01aaec81-19d0-4ac2-9aaa-f3db70537489"},"vehicle_type_id":"4","last_reported":1723838933,"current_range_meters":5200,"station_id":"ce4bgt92rcd13ifvqcf0","pricing_plan_id":"cebpf4jnsgd1na2vs0mg"},{"bike_id":"5763d0db-760b-4410-8ab7-64a1cb5b6b10","system_id":"levelo_inurba_marseille","lat":43.313571,"lon":5.384829,"is_reserved":false,"is_disabled":false,"rental_uris":{"android":"levelo://app?vid=5763d0db-760b-4410-8ab7-64a1cb5b6b10","ios":"levelo://app?vid=5763d0db-760b-4410-8ab7-64a1cb5b6b10"},"vehicle_type_id":"4","last_reported":1723838933,"current_range_meters":14000,"station_id":"ce4bgt92rcd13ifvqcf0","pricing_plan_id":"cebpf4jnsgd1na2vs0mg"},{"bike_id":"ff6f8393-29f1-4b70-b0cb-8aaeee77c46c","system_id":"levelo_inurba_marseille","lat":43.313571,"lon":5.384829,"is_reserved":false,"is_disabled":false,"rental_uris":{"android":"levelo://app?vid=ff6f8393-29f1-4b70-b0cb-8aaeee77c46c","ios":"levelo://app?vid=ff6f8393-29f1-4b70-b0cb-8aaeee77c46c"},"vehicle_type_id":"4","last_reported":1723838933,"current_range_meters":21200,"station_id":"ce4bgt92rcd13ifvqcf0","pricing_plan_id":"cebpf4jnsgd1na2vs0mg"},{"bike_id":"7a1f0f43-fd64-42f6-9b54-1198684d8de9","system_id":"levelo_inurba_marseille","lat":43.313571,"lon":5.384829,"is_reserved":false,"is_disabled":false,"rental_uris":{"android":"levelo://app?vid=7a1f0f43-fd64-42f6-9b54-1198684d8de9","ios":"levelo://app?vid=7a1f0f43-fd64-42f6-9b54-1198684d8de9"},"vehicle_type_id":"4","last_reported":1723838933,"current_range_meters":20400,"station_id":"ce4bgt92rcd13ifvqcf0","pricing_plan_id":"cebpf4jnsgd1na2vs0mg"},{"bike_id":"11c7cd4d-2916-4e3c-a784-2452e3da3925","system_id":"levelo_inurba_marseille","lat":43.313571,"lon":5.384829,"is_reserved":false,"is_disabled":false,"rental_uris":{"android":"levelo://app?vid=11c7cd4d-2916-4e3c-a784-2452e3da3925","ios":"levelo://app?vid=11c7cd4d-2916-4e3c-a784-2452e3da3925"},"vehicle_type_id":"4","last_reported":1723838933,"current_range_meters":20400,"station_id":"ce4bgt92rcd13ifvqcf0","pricing_plan_id":"cebpf4jnsgd1na2vs0mg"},{"bike_id":"5fb6bcf3-f982-4009-8a60-748801d3b2aa","system_id":"levelo_inurba_marseille","lat":43.313571,"lon":5.384829,"is_reserved":false,"is_disabled":false,"rental_uris":{"android":"levelo://app?vid=5fb6bcf3-f982-4009-8a60-748801d3b2aa","ios":"levelo://app?vid=5fb6bcf3-f982-4009-8a60-748801d3b2aa"},"vehicle_type_id":"4","last_reported":1723838933,"current_range_meters":6800,"station_id":"ce4bgt92rcd13ifvqcf0","pricing_plan_id":"cebpf4jnsgd1na2vs0mg"},{"bike_id":"82d3f2c1-e549-4d38-859b-d7bd7ea29f0e","system_id":"levelo_inurba_marseille","lat":43.29986,"lon":5.37183,"is_reserved":false,"is_disabled":false,"rental_uris":{"android":"levelo://app?vid=82d3f2c1-e549-4d38-859b-d7bd7ea29f0e","ios":"levelo://app?vid=82d3f2c1-e549-4d38-859b-d7bd7ea29f0e"},"vehicle_type_id":"4","last_reported":1723838933,"current_range_meters":0,"station_id":"ce4bgr92rcd13ifvqc7g","pricing_plan_id":"cebpf4jnsgd1na2vs0mg"},{"bike_id":"b96d954c-45c2-4391-8785-096e48d585ad","system_id":"levelo_inurba_marseille","lat":43.299222,"lon":5.365554,"is_reserved":false,"is_disabled":false,"rental_uris":{"android":"levelo://app?vid=b96d954c-45c2-4391-8785-096e48d585ad","ios":"levelo://app?vid=b96d954c-45c2-4391-8785-096e48d585ad"},"vehicle_type_id":"4","last_reported":1723838933,"current_range_meters":24000,"station_id":"ce4bgm92rcd13ifvqbr0","pricing_plan_id":"cebpf4jnsgd1na2vs0mg"},{"bike_id":"eb84feeb-0076-408f-91ee-6fb2bbe09c83","system_id":"levelo_inurba_marseille","lat":43.299724,"lon":5.371829,"is_reserved":false,"is_disabled":false,"rental_uris":{"android":"levelo://app?vid=eb84feeb-0076-408f-91ee-6fb2bbe09c83","ios":"levelo://app?vid=eb84feeb-0076-408f-91ee-6fb2bbe09c83"},"vehicle_type_id":"4","last_reported":1723838933,"current_range_meters":8400,"station_id":"ce4bgr92rcd13ifvqc7g","pricing_plan_id":"cebpf4jnsgd1na2vs0mg"},{"bike_id":"c50cd421-e834-452a-9f21-7dad2c1850e1","system_id":"levelo_inurba_marseille","lat":43.299222,"lon":5.365554,"is_reserved":false,"is_disabled":false,"rental_uris":{"android":"levelo://app?vid=c50cd421-e834-452a-9f21-7dad2c1850e1","ios":"levelo://app?vid=c50cd421-e834-452a-9f21-7dad2c1850e1"},"vehicle_type_id":"4","last_reported":1723838933,"current_range_meters":20400,"station_id":"ce4bgm92rcd13ifvqbr0","pricing_plan_id":"cebpf4jnsgd1na2vs0mg"},{"bike_id":"5dbb8807-9404-465a-ba1d-56d90c38a5f3","system_id":"levelo_inurba_marseille","lat":43.298433,"lon":5.362774,"is_reserved":false,"is_disabled":false,"rental_uris":{"android":"levelo://app?vid=5dbb8807-9404-465a-ba1d-56d90c38a5f3","ios":"levelo://app?vid=5dbb8807-9404-465a-ba1d-56d90c38a5f3"},"vehicle_type_id":"4","last_reported":1723838933,"current_range_meters":0,"station_id":"ce4bgpp2rcd13ifvqc3g","pricing_plan_id":"cebpf4jnsgd1na2vs0mg"},{"bike_id":"b56de46d-a507-4925-ad1e-9ac0d777809a","system_id":"levelo_inurba_marseille","lat":43.298433,"lon":5.362774,"is_reserved":false,"is_disabled":false,"rental_uris":{"android":"levelo://app?vid=b56de46d-a507-4925-ad1e-9ac0d777809a","ios":"levelo://app?vid=b56de46d-a507-4925-ad1e-9ac0d777809a"},"vehicle_type_id":"4","last_reported":1723838933,"current_range_meters":24800,"station_id":"ce4bgpp2rcd13ifvqc3g","pricing_plan_id":"cebpf4jnsgd1na2vs0mg"},{"bike_id":"b6229f8a-03c8-4891-af16-145ae2fd427c","system_id":"levelo_inurba_marseille","lat":43.298433,"lon":5.362774,"is_reserved":false,"is_disabled":false,"rental_uris":{"android":"levelo://app?vid=b6229f8a-03c8-4891-af16-145ae2fd427c","ios":"levelo://app?vid=b6229f8a-03c8-4891-af16-145ae2fd427c"},"vehicle_type_id":"4","last_reported":1723838933,"current_range_meters":16400,"station_id":"ce4bgpp2rcd13ifvqc3g","pricing_plan_id":"cebpf4jnsgd1na2vs0mg"},{"bike_id":"024e5c10-beda-41b4-b24b-63fb55365699","system_id":"levelo_inurba_marseille","lat":43.305364,"lon":5.384119,"is_reserved":false,"is_disabled":false,"rental_uris":{"android":"levelo://app?vid=024e5c10-beda-41b4-b24b-63fb55365699","ios":"levelo://app?vid=024e5c10-beda-41b4-b24b-63fb55365699"},"vehicle_type_id":"4","last_reported":1723838933,"current_range_meters":30800,"station_id":"ce4bgg92rcd13ifvqb30","pricing_plan_id":"cebpf4jnsgd1na2vs0mg"},{"bike_id":"36612aed-a530-4d11-8a43-bbdb39ac19a2","system_id":"levelo_inurba_marseille","lat":43.30527,"lon":5.38433,"is_reserved":false,"is_disabled":false,"rental_uris":{"android":"levelo://app?vid=36612aed-a530-4d11-8a43-bbdb39ac19a2","ios":"levelo://app?vid=36612aed-a530-4d11-8a43-bbdb39ac19a2"},"vehicle_type_id":"4","last_reported":1723838933,"current_range_meters":31200,"station_id":"ce4bgg92rcd13ifvqb30","pricing_plan_id":"cebpf4jnsgd1na2vs0mg"},{"bike_id":"77653e44-f875-46e4-be2c-39e37a18883b","system_id":"levelo_inurba_marseille","lat":43.299243,"lon":5.37481,"is_reserved":false,"is_disabled":false,"rental_uris":{"android":"levelo://app?vid=77653e44-f875-46e4-be2c-39e37a18883b","ios":"levelo://app?vid=77653e44-f875-46e4-be2c-39e37a18883b"},"vehicle_type_id":"4","last_reported":1723838933,"current_range_meters":30400,"station_id":"ce4bgjh2rcd13ifvqbg0","pricing_plan_id":"cebpf4jnsgd1na2vs0mg"},{"bike_id":"7946adbf-550f-44ae-85ac-c3a853e93863","system_id":"levelo_inurba_marseille","lat":43.305364,"lon":5.384119,"is_reserved":false,"is_disabled":false,"rental_uris":{"android":"levelo://app?vid=7946adbf-550f-44ae-85ac-c3a853e93863","ios":"levelo://app?vid=7946adbf-550f-44ae-85ac-c3a853e93863"},"vehicle_type_id":"4","last_reported":1723838933,"current_range_meters":16400,"station_id":"ce4bgg92rcd13ifvqb30","pricing_plan_id":"cebpf4jnsgd1na2vs0mg"},{"bike_id":"64859635-a59d-428b-ad72-56aaf53145f7","system_id":"levelo_inurba_marseille","lat":43.311722,"lon":5.387247,"is_reserved":false,"is_disabled":false,"rental_uris":{"android":"levelo://app?vid=64859635-a59d-428b-ad72-56aaf53145f7","ios":"levelo://app?vid=64859635-a59d-428b-ad72-56aaf53145f7"},"vehicle_type_id":"4","last_reported":1723838933,"current_range_meters":16800,"station_id":"ce4bgv12rcd13ifvqcp0","pricing_plan_id":"cebpf4jnsgd1na2vs0mg"},{"bike_id":"d1c4aff5-1bab-4b60-a37b-259396aad31d","system_id":"levelo_inurba_marseille","lat":43.311722,"lon":5.387247,"is_reserved":false,"is_disabled":false,"rental_uris":{"android":"levelo://app?vid=d1c4aff5-1bab-4b60-a37b-259396aad31d","ios":"levelo://app?vid=d1c4aff5-1bab-4b60-a37b-259396aad31d"},"vehicle_type_id":"4","last_reported":1723838933,"current_range_meters":3600,"station_id":"ce4bgv12rcd13ifvqcp0","pricing_plan_id":"cebpf4jnsgd1na2vs0mg"},{"bike_id":"bb7eb28c-2c60-42f7-9ba7-22b317b164eb","system_id":"levelo_inurba_marseille","lat":43.311722,"lon":5.387247,"is_reserved":false,"is_disabled":false,"rental_uris":{"android":"levelo://app?vid=bb7eb28c-2c60-42f7-9ba7-22b317b164eb","ios":"levelo://app?vid=bb7eb28c-2c60-42f7-9ba7-22b317b164eb"},"vehicle_type_id":"4","last_reported":1723838933,"current_range_meters":27200,"station_id":"ce4bgv12rcd13ifvqcp0","pricing_plan_id":"cebpf4jnsgd1na2vs0mg"},{"bike_id":"99b7ed41-e5df-4ea6-bffd-71506adfcf65","system_id":"levelo_inurba_marseille","lat":43.311722,"lon":5.387247,"is_reserved":false,"is_disabled":false,"rental_uris":{"android":"levelo://app?vid=99b7ed41-e5df-4ea6-bffd-71506adfcf65","ios":"levelo://app?vid=99b7ed41-e5df-4ea6-bffd-71506adfcf65"},"vehicle_type_id":"4","last_reported":1723838933,"current_range_meters":8000,"station_id":"ce4bgv12rcd13ifvqcp0","pricing_plan_id":"cebpf4jnsgd1na2vs0mg"},{"bike_id":"c69b0468-29f0-4b03-92a9-86767380a728","system_id":"levelo_inurba_marseille","lat":43.311722,"lon":5.387247,"is_reserved":false,"is_disabled":false,"rental_uris":{"android":"levelo://app?vid=c69b0468-29f0-4b03-92a9-86767380a728","ios":"levelo://app?vid=c69b0468-29f0-4b03-92a9-86767380a728"},"vehicle_type_id":"4","last_reported":1723838933,"current_range_meters":400,"station_id":"ce4bgv12rcd13ifvqcp0","pricing_plan_id":"cebpf4jnsgd1na2vs0mg"},{"bike_id":"d13322be-731c-4af8-8867-d4168ae772b5","system_id":"levelo_inurba_marseille","lat":43.311722,"lon":5.387247,"is_reserved":false,"is_disabled":false,"rental_uris":{"android":"levelo://app?vid=d13322be-731c-4af8-8867-d4168ae772b5","ios":"levelo://app?vid=d13322be-731c-4af8-8867-d4168ae772b5"},"vehicle_type_id":"4","last_reported":1723838933,"current_range_meters":17200,"station_id":"ce4bgv12rcd13ifvqcp0","pricing_plan_id":"cebpf4jnsgd1na2vs0mg"},{"bike_id":"4b66b5f6-3e3e-47fd-b3db-af1dc4a62f99","system_id":"levelo_inurba_marseille","lat":43.311722,"lon":5.387247,"is_reserved":false,"is_disabled":false,"rental_uris":{"android":"levelo://app?vid=4b66b5f6-3e3e-47fd-b3db-af1dc4a62f99","ios":"levelo://app?vid=4b66b5f6-3e3e-47fd-b3db-af1dc4a62f99"},"vehicle_type_id":"4","last_reported":1723838933,"current_range_meters":14800,"station_id":"ce4bgv12rcd13ifvqcp0","pricing_plan_id":"cebpf4jnsgd1na2vs0mg"},{"bike_id":"f4bb82aa-3d7e-4385-85c7-5b03e7cceb50","system_id":"levelo_inurba_marseille","lat":43.31212,"lon":5.38772,"is_reserved":false,"is_disabled":false,"rental_uris":{"android":"levelo://app?vid=f4bb82aa-3d7e-4385-85c7-5b03e7cceb50","ios":"levelo://app?vid=f4bb82aa-3d7e-4385-85c7-5b03e7cceb50"},"vehicle_type_id":"4","last_reported":1723838933,"current_range_meters":10000,"station_id":"","pricing_plan_id":"cebpf4jnsgd1na2vs0mg"},{"bike_id":"fc6e6383-3cfb-424f-b08d-48d459fcbaf5","system_id":"levelo_inurba_marseille","lat":43.29871,"lon":5.37608,"is_reserved":false,"is_disabled":false,"rental_uris":{"android":"levelo://app?vid=fc6e6383-3cfb-424f-b08d-48d459fcbaf5","ios":"levelo://app?vid=fc6e6383-3cfb-424f-b08d-48d459fcbaf5"},"vehicle_type_id":"4","last_reported":1723838933,"current_range_meters":18400,"station_id":"","pricing_plan_id":"cebpf4jnsgd1na2vs0mg"},{"bike_id":"7537df8d-f0db-4bd1-8e98-0b61b068fe7f","system_id":"levelo_inurba_marseille","lat":43.29632,"lon":5.36218,"is_reserved":false,"is_disabled":false,"rental_uris":{"android":"levelo://app?vid=7537df8d-f0db-4bd1-8e98-0b61b068fe7f","ios":"levelo://app?vid=7537df8d-f0db-4bd1-8e98-0b61b068fe7f"},"vehicle_type_id":"4","last_reported":1723838933,"current_range_meters":12400,"station_id":"","pricing_plan_id":"cebpf4jnsgd1na2vs0mg"},{"bike_id":"7907cea5-275d-481b-9888-ab832b7112d3","system_id":"levelo_inurba_marseille","lat":43.296935,"lon":5.376544,"is_reserved":false,"is_disabled":false,"rental_uris":{"android":"levelo://app?vid=7907cea5-275d-481b-9888-ab832b7112d3","ios":"levelo://app?vid=7907cea5-275d-481b-9888-ab832b7112d3"},"vehicle_type_id":"4","last_reported":1723838933,"current_range_meters":2400,"station_id":"ce4bgkh2rcd13ifvqbl0","pricing_plan_id":"cebpf4jnsgd1na2vs0mg"},{"bike_id":"1b8df6a3-e5f5-4696-82a9-fe205511cd8e","system_id":"levelo_inurba_marseille","lat":43.299028,"lon":5.381509,"is_reserved":false,"is_disabled":false,"rental_uris":{"android":"levelo://app?vid=1b8df6a3-e5f5-4696-82a9-fe205511cd8e","ios":"levelo://app?vid=1b8df6a3-e5f5-4696-82a9-fe205511cd8e"},"vehicle_type_id":"4","last_reported":1723838933,"current_range_meters":10400,"station_id":"ce4bgj12rcd13ifvqbc0","pricing_plan_id":"cebpf4jnsgd1na2vs0mg"},{"bike_id":"30202f3e-7bc9-43b7-9369-223ed0fc81af","system_id":"levelo_inurba_marseille","lat":43.30952,"lon":5.39018,"is_reserved":false,"is_disabled":false,"rental_uris":{"android":"levelo://app?vid=30202f3e-7bc9-43b7-9369-223ed0fc81af","ios":"levelo://app?vid=30202f3e-7bc9-43b7-9369-223ed0fc81af"},"vehicle_type_id":"4","last_reported":1723838933,"current_range_meters":10000,"station_id":"ce4bgup2rcd13ifvqco0","pricing_plan_id":"cebpf4jnsgd1na2vs0mg"},{"bike_id":"bac68111-d459-470e-a8b2-9d4e2f85ff86","system_id":"levelo_inurba_marseille","lat":43.299028,"lon":5.381509,"is_reserved":false,"is_disabled":false,"rental_uris":{"android":"levelo://app?vid=bac68111-d459-470e-a8b2-9d4e2f85ff86","ios":"levelo://app?vid=bac68111-d459-470e-a8b2-9d4e2f85ff86"},"vehicle_type_id":"4","last_reported":1723838933,"current_range_meters":27200,"station_id":"ce4bgj12rcd13ifvqbc0","pricing_plan_id":"cebpf4jnsgd1na2vs0mg"},{"bike_id":"c7450306-26d8-42b7-81a2-6a2e58e716ed","system_id":"levelo_inurba_marseille","lat":43.309589,"lon":5.390258,"is_reserved":false,"is_disabled":false,"rental_uris":{"android":"levelo://app?vid=c7450306-26d8-42b7-81a2-6a2e58e716ed","ios":"levelo://app?vid=c7450306-26d8-42b7-81a2-6a2e58e716ed"},"vehicle_type_id":"4","last_reported":1723838933,"current_range_meters":7600,"station_id":"ce4bgup2rcd13ifvqco0","pricing_plan_id":"cebpf4jnsgd1na2vs0mg"},{"bike_id":"7a266996-8fd5-4225-beb5-dc591054aa0b","system_id":"levelo_inurba_marseille","lat":43.30955,"lon":5.39024,"is_reserved":false,"is_disabled":false,"rental_uris":{"android":"levelo://app?vid=7a266996-8fd5-4225-beb5-dc591054aa0b","ios":"levelo://app?vid=7a266996-8fd5-4225-beb5-dc591054aa0b"},"vehicle_type_id":"4","last_reported":1723838933,"current_range_meters":2400,"station_id":"","pricing_plan_id":"cebpf4jnsgd1na2vs0mg"},{"bike_id":"bba22d03-1313-4739-95f6-6a8be540bc66","system_id":"levelo_inurba_marseille","lat":43.30953,"lon":5.39024,"is_reserved":false,"is_disabled":false,"rental_uris":{"android":"levelo://app?vid=bba22d03-1313-4739-95f6-6a8be540bc66","ios":"levelo://app?vid=bba22d03-1313-4739-95f6-6a8be540bc66"},"vehicle_type_id":"4","last_reported":1723838933,"current_range_meters":24800,"station_id":"ce4bgup2rcd13ifvqco0","pricing_plan_id":"cebpf4jnsgd1na2vs0mg"},{"bike_id":"63c513b1-ccc4-4b30-8f55-3d49a727b709","system_id":"levelo_inurba_marseille","lat":43.309484,"lon":5.390232,"is_reserved":false,"is_disabled":false,"rental_uris":{"android":"levelo://app?vid=63c513b1-ccc4-4b30-8f55-3d49a727b709","ios":"levelo://app?vid=63c513b1-ccc4-4b30-8f55-3d49a727b709"},"vehicle_type_id":"4","last_reported":1723838933,"current_range_meters":31200,"station_id":"ce4bgup2rcd13ifvqco0","pricing_plan_id":"cebpf4jnsgd1na2vs0mg"},{"bike_id":"93ed026b-030c-45e6-8823-513af1676276","system_id":"levelo_inurba_marseille","lat":43.309541,"lon":5.390261,"is_reserved":false,"is_disabled":false,"rental_uris":{"android":"levelo://app?vid=93ed026b-030c-45e6-8823-513af1676276","ios":"levelo://app?vid=93ed026b-030c-45e6-8823-513af1676276"},"vehicle_type_id":"4","last_reported":1723838933,"current_range_meters":28800,"station_id":"ce4bgup2rcd13ifvqco0","pricing_plan_id":"cebpf4jnsgd1na2vs0mg"},{"bike_id":"d49da0e7-1563-47d6-873e-fb78c5f828b3","system_id":"levelo_inurba_marseille","lat":43.30949,"lon":5.39025,"is_reserved":false,"is_disabled":false,"rental_uris":{"android":"levelo://app?vid=d49da0e7-1563-47d6-873e-fb78c5f828b3","ios":"levelo://app?vid=d49da0e7-1563-47d6-873e-fb78c5f828b3"},"vehicle_type_id":"4","last_reported":1723838933,"current_range_meters":29200,"station_id":"ce4bgup2rcd13ifvqco0","pricing_plan_id":"cebpf4jnsgd1na2vs0mg"},{"bike_id":"2edae5da-54ac-4111-8e42-7ea1439a1655","system_id":"levelo_inurba_marseille","lat":43.309537,"lon":5.390267,"is_reserved":false,"is_disabled":false,"rental_uris":{"android":"levelo://app?vid=2edae5da-54ac-4111-8e42-7ea1439a1655","ios":"levelo://app?vid=2edae5da-54ac-4111-8e42-7ea1439a1655"},"vehicle_type_id":"4","last_reported":1723838933,"current_range_meters":6000,"station_id":"","pricing_plan_id":"cebpf4jnsgd1na2vs0mg"},{"bike_id":"ef9e8bf0-16cd-48cd-a0a2-237eddd9d079","system_id":"levelo_inurba_marseille","lat":43.30951,"lon":5.39026,"is_reserved":false,"is_disabled":false,"rental_uris":{"android":"levelo://app?vid=ef9e8bf0-16cd-48cd-a0a2-237eddd9d079","ios":"levelo://app?vid=ef9e8bf0-16cd-48cd-a0a2-237eddd9d079"},"vehicle_type_id":"4","last_reported":1723838933,"current_range_meters":7200,"station_id":"ce4bgup2rcd13ifvqco0","pricing_plan_id":"cebpf4jnsgd1na2vs0mg"},{"bike_id":"6aa6b632-e40d-468f-94ab-05bfc5cda22b","system_id":"levelo_inurba_marseille","lat":43.30956,"lon":5.39028,"is_reserved":false,"is_disabled":false,"rental_uris":{"android":"levelo://app?vid=6aa6b632-e40d-468f-94ab-05bfc5cda22b","ios":"levelo://app?vid=6aa6b632-e40d-468f-94ab-05bfc5cda22b"},"vehicle_type_id":"4","last_reported":1723838933,"current_range_meters":0,"station_id":"ce4bgup2rcd13ifvqco0","pricing_plan_id":"cebpf4jnsgd1na2vs0mg"},{"bike_id":"14649fe9-001b-44e6-8aa2-4570071b1c57","system_id":"levelo_inurba_marseille","lat":43.30957,"lon":5.39029,"is_reserved":false,"is_disabled":false,"rental_uris":{"android":"levelo://app?vid=14649fe9-001b-44e6-8aa2-4570071b1c57","ios":"levelo://app?vid=14649fe9-001b-44e6-8aa2-4570071b1c57"},"vehicle_type_id":"4","last_reported":1723838933,"current_range_meters":19600,"station_id":"ce4bgup2rcd13ifvqco0","pricing_plan_id":"cebpf4jnsgd1na2vs0mg"},{"bike_id":"f20803d9-b8d9-42c2-a25a-c82b7d19e7f2","system_id":"levelo_inurba_marseille","lat":43.30954,"lon":5.39029,"is_reserved":false,"is_disabled":false,"rental_uris":{"android":"levelo://app?vid=f20803d9-b8d9-42c2-a25a-c82b7d19e7f2","ios":"levelo://app?vid=f20803d9-b8d9-42c2-a25a-c82b7d19e7f2"},"vehicle_type_id":"4","last_reported":1723838933,"current_range_meters":4000,"station_id":"ce4bgup2rcd13ifvqco0","pricing_plan_id":"cebpf4jnsgd1na2vs0mg"},{"bike_id":"9c8e21f5-eaaa-4077-8b0d-4e6ee31991bd","system_id":"levelo_inurba_marseille","lat":43.309533,"lon":5.39029,"is_reserved":false,"is_disabled":false,"rental_uris":{"android":"levelo://app?vid=9c8e21f5-eaaa-4077-8b0d-4e6ee31991bd","ios":"levelo://app?vid=9c8e21f5-eaaa-4077-8b0d-4e6ee31991bd"},"vehicle_type_id":"4","last_reported":1723838933,"current_range_meters":10400,"station_id":"ce4bgup2rcd13ifvqco0","pricing_plan_id":"cebpf4jnsgd1na2vs0mg"},{"bike_id":"fd731905-4452-434a-8199-dd45611e6590","system_id":"levelo_inurba_marseille","lat":43.299028,"lon":5.381509,"is_reserved":false,"is_disabled":false,"rental_uris":{"android":"levelo://app?vid=fd731905-4452-434a-8199-dd45611e6590","ios":"levelo://app?vid=fd731905-4452-434a-8199-dd45611e6590"},"vehicle_type_id":"4","last_reported":1723838933,"current_range_meters":27200,"station_id":"ce4bgj12rcd13ifvqbc0","pricing_plan_id":"cebpf4jnsgd1na2vs0mg"},{"bike_id":"7e076281-ee66-4165-ab7b-25c02ac27e1d","system_id":"levelo_inurba_marseille","lat":43.30953,"lon":5.3903,"is_reserved":false,"is_disabled":false,"rental_uris":{"android":"levelo://app?vid=7e076281-ee66-4165-ab7b-25c02ac27e1d","ios":"levelo://app?vid=7e076281-ee66-4165-ab7b-25c02ac27e1d"},"vehicle_type_id":"4","last_reported":1723838933,"current_range_meters":9600,"station_id":"ce4bgup2rcd13ifvqco0","pricing_plan_id":"cebpf4jnsgd1na2vs0mg"},{"bike_id":"04fc03fc-e315-4fed-a01f-6c6e356511f4","system_id":"levelo_inurba_marseille","lat":43.30955,"lon":5.39031,"is_reserved":false,"is_disabled":false,"rental_uris":{"android":"levelo://app?vid=04fc03fc-e315-4fed-a01f-6c6e356511f4","ios":"levelo://app?vid=04fc03fc-e315-4fed-a01f-6c6e356511f4"},"vehicle_type_id":"4","last_reported":1723838933,"current_range_meters":15200,"station_id":"ce4bgup2rcd13ifvqco0","pricing_plan_id":"cebpf4jnsgd1na2vs0mg"},{"bike_id":"fefe9e5c-a364-43b4-adb8-5351a27d51da","system_id":"levelo_inurba_marseille","lat":43.30953,"lon":5.39031,"is_reserved":false,"is_disabled":false,"rental_uris":{"android":"levelo://app?vid=fefe9e5c-a364-43b4-adb8-5351a27d51da","ios":"levelo://app?vid=fefe9e5c-a364-43b4-adb8-5351a27d51da"},"vehicle_type_id":"4","last_reported":1723838933,"current_range_meters":20000,"station_id":"ce4bgup2rcd13ifvqco0","pricing_plan_id":"cebpf4jnsgd1na2vs0mg"},{"bike_id":"93e8b8cb-d1cb-4018-b1b2-ed5e9e32e4bb","system_id":"levelo_inurba_marseille","lat":43.30953,"lon":5.39031,"is_reserved":false,"is_disabled":false,"rental_uris":{"android":"levelo://app?vid=93e8b8cb-d1cb-4018-b1b2-ed5e9e32e4bb","ios":"levelo://app?vid=93e8b8cb-d1cb-4018-b1b2-ed5e9e32e4bb"},"vehicle_type_id":"4","last_reported":1723838933,"current_range_meters":10000,"station_id":"ce4bgup2rcd13ifvqco0","pricing_plan_id":"cebpf4jnsgd1na2vs0mg"},{"bike_id":"42ad48c3-5a51-49fc-b416-9b28d3d18433","system_id":"levelo_inurba_marseille","lat":43.309524,"lon":5.39031,"is_reserved":false,"is_disabled":false,"rental_uris":{"android":"levelo://app?vid=42ad48c3-5a51-49fc-b416-9b28d3d18433","ios":"levelo://app?vid=42ad48c3-5a51-49fc-b416-9b28d3d18433"},"vehicle_type_id":"4","last_reported":1723838933,"current_range_meters":8400,"station_id":"ce4bgup2rcd13ifvqco0","pricing_plan_id":"cebpf4jnsgd1na2vs0mg"},{"bike_id":"2ba3f437-a542-4b1c-9347-a05561bf018f","system_id":"levelo_inurba_marseille","lat":43.30953,"lon":5.39032,"is_reserved":false,"is_disabled":false,"rental_uris":{"android":"levelo://app?vid=2ba3f437-a542-4b1c-9347-a05561bf018f","ios":"levelo://app?vid=2ba3f437-a542-4b1c-9347-a05561bf018f"},"vehicle_type_id":"4","last_reported":1723838933,"current_range_meters":31200,"station_id":"ce4bgup2rcd13ifvqco0","pricing_plan_id":"cebpf4jnsgd1na2vs0mg"},{"bike_id":"89d3e461-f645-47f0-9c40-30909c124ae7","system_id":"levelo_inurba_marseille","lat":43.299028,"lon":5.381509,"is_reserved":false,"is_disabled":false,"rental_uris":{"android":"levelo://app?vid=89d3e461-f645-47f0-9c40-30909c124ae7","ios":"levelo://app?vid=89d3e461-f645-47f0-9c40-30909c124ae7"},"vehicle_type_id":"4","last_reported":1723838933,"current_range_meters":5600,"station_id":"ce4bgj12rcd13ifvqbc0","pricing_plan_id":"cebpf4jnsgd1na2vs0mg"},{"bike_id":"e2938117-8870-40ad-99f5-951f583244cc","system_id":"levelo_inurba_marseille","lat":43.30947,"lon":5.39031,"is_reserved":false,"is_disabled":false,"rental_uris":{"android":"levelo://app?vid=e2938117-8870-40ad-99f5-951f583244cc","ios":"levelo://app?vid=e2938117-8870-40ad-99f5-951f583244cc"},"vehicle_type_id":"4","last_reported":1723838933,"current_range_meters":26400,"station_id":"ce4bgup2rcd13ifvqco0","pricing_plan_id":"cebpf4jnsgd1na2vs0mg"},{"bike_id":"1c2a3d8c-bf65-47dd-8616-92085778f815","system_id":"levelo_inurba_marseille","lat":43.30947,"lon":5.39031,"is_reserved":false,"is_disabled":false,"rental_uris":{"android":"levelo://app?vid=1c2a3d8c-bf65-47dd-8616-92085778f815","ios":"levelo://app?vid=1c2a3d8c-bf65-47dd-8616-92085778f815"},"vehicle_type_id":"4","last_reported":1723838933,"current_range_meters":20400,"station_id":"ce4bh2h2rcd13ifvqdh0","pricing_plan_id":"cebpf4jnsgd1na2vs0mg"},{"bike_id":"293e07c6-bed0-4819-bb0d-ab5b0e4dc802","system_id":"levelo_inurba_marseille","lat":43.30948,"lon":5.39032,"is_reserved":false,"is_disabled":false,"rental_uris":{"android":"levelo://app?vid=293e07c6-bed0-4819-bb0d-ab5b0e4dc802","ios":"levelo://app?vid=293e07c6-bed0-4819-bb0d-ab5b0e4dc802"},"vehicle_type_id":"4","last_reported":1723838933,"current_range_meters":18000,"station_id":"ce4bgup2rcd13ifvqco0","pricing_plan_id":"cebpf4jnsgd1na2vs0mg"},{"bike_id":"cba6f0bf-7b52-4a75-8c74-d781d8f1cea6","system_id":"levelo_inurba_marseille","lat":43.30949,"lon":5.39033,"is_reserved":false,"is_disabled":false,"rental_uris":{"android":"levelo://app?vid=cba6f0bf-7b52-4a75-8c74-d781d8f1cea6","ios":"levelo://app?vid=cba6f0bf-7b52-4a75-8c74-d781d8f1cea6"},"vehicle_type_id":"4","last_reported":1723838933,"current_range_meters":31200,"station_id":"ce4bgup2rcd13ifvqco0","pricing_plan_id":"cebpf4jnsgd1na2vs0mg"},{"bike_id":"458567bc-0260-46e8-ad5f-dd0a6f8a2b1e","system_id":"levelo_inurba_marseille","lat":43.309589,"lon":5.390258,"is_reserved":false,"is_disabled":false,"rental_uris":{"android":"levelo://app?vid=458567bc-0260-46e8-ad5f-dd0a6f8a2b1e","ios":"levelo://app?vid=458567bc-0260-46e8-ad5f-dd0a6f8a2b1e"},"vehicle_type_id":"4","last_reported":1723838933,"current_range_meters":16400,"station_id":"ce4bgup2rcd13ifvqco0","pricing_plan_id":"cebpf4jnsgd1na2vs0mg"},{"bike_id":"5625f5d6-faae-4655-855d-78ece61c6a0e","system_id":"levelo_inurba_marseille","lat":43.30948,"lon":5.39033,"is_reserved":false,"is_disabled":false,"rental_uris":{"android":"levelo://app?vid=5625f5d6-faae-4655-855d-78ece61c6a0e","ios":"levelo://app?vid=5625f5d6-faae-4655-855d-78ece61c6a0e"},"vehicle_type_id":"4","last_reported":1723838933,"current_range_meters":17600,"station_id":"ce4bgup2rcd13ifvqco0","pricing_plan_id":"cebpf4jnsgd1na2vs0mg"},{"bike_id":"9aa2d2dd-57d6-41c3-8e31-9ef3dc5e2c9c","system_id":"levelo_inurba_marseille","lat":43.30948,"lon":5.39034,"is_reserved":false,"is_disabled":false,"rental_uris":{"android":"levelo://app?vid=9aa2d2dd-57d6-41c3-8e31-9ef3dc5e2c9c","ios":"levelo://app?vid=9aa2d2dd-57d6-41c3-8e31-9ef3dc5e2c9c"},"vehicle_type_id":"4","last_reported":1723838933,"current_range_meters":31200,"station_id":"ce4bgup2rcd13ifvqco0","pricing_plan_id":"cebpf4jnsgd1na2vs0mg"},{"bike_id":"c20e6adf-10e3-4b5d-8a43-9b98c7ac6d6e","system_id":"levelo_inurba_marseille","lat":43.30948,"lon":5.39034,"is_reserved":false,"is_disabled":false,"rental_uris":{"android":"levelo://app?vid=c20e6adf-10e3-4b5d-8a43-9b98c7ac6d6e","ios":"levelo://app?vid=c20e6adf-10e3-4b5d-8a43-9b98c7ac6d6e"},"vehicle_type_id":"4","last_reported":1723838933,"current_range_meters":27200,"station_id":"ce4bgup2rcd13ifvqco0","pricing_plan_id":"cebpf4jnsgd1na2vs0mg"},{"bike_id":"4eb6f90c-ce00-40b6-adf0-56487d0eb823","system_id":"levelo_inurba_marseille","lat":43.30953,"lon":5.390357,"is_reserved":false,"is_disabled":false,"rental_uris":{"android":"levelo://app?vid=4eb6f90c-ce00-40b6-adf0-56487d0eb823","ios":"levelo://app?vid=4eb6f90c-ce00-40b6-adf0-56487d0eb823"},"vehicle_type_id":"4","last_reported":1723838933,"current_range_meters":31200,"station_id":"ce4bgup2rcd13ifvqco0","pricing_plan_id":"cebpf4jnsgd1na2vs0mg"},{"bike_id":"9fbd890b-975e-45fb-816f-56e2953e9c18","system_id":"levelo_inurba_marseille","lat":43.309589,"lon":5.390258,"is_reserved":false,"is_disabled":false,"rental_uris":{"android":"levelo://app?vid=9fbd890b-975e-45fb-816f-56e2953e9c18","ios":"levelo://app?vid=9fbd890b-975e-45fb-816f-56e2953e9c18"},"vehicle_type_id":"4","last_reported":1723838933,"current_range_meters":10800,"station_id":"ce4bgup2rcd13ifvqco0","pricing_plan_id":"cebpf4jnsgd1na2vs0mg"},{"bike_id":"88f168e5-3e6f-4d96-8e2c-a5de8ab9b768","system_id":"levelo_inurba_marseille","lat":43.30953,"lon":5.39036,"is_reserved":false,"is_disabled":false,"rental_uris":{"android":"levelo://app?vid=88f168e5-3e6f-4d96-8e2c-a5de8ab9b768","ios":"levelo://app?vid=88f168e5-3e6f-4d96-8e2c-a5de8ab9b768"},"vehicle_type_id":"4","last_reported":1723838933,"current_range_meters":4000,"station_id":"ce4bgup2rcd13ifvqco0","pricing_plan_id":"cebpf4jnsgd1na2vs0mg"},{"bike_id":"1c24f73e-1f44-4fcd-8360-ad3334cac8e2","system_id":"levelo_inurba_marseille","lat":43.30954,"lon":5.39037,"is_reserved":false,"is_disabled":false,"rental_uris":{"android":"levelo://app?vid=1c24f73e-1f44-4fcd-8360-ad3334cac8e2","ios":"levelo://app?vid=1c24f73e-1f44-4fcd-8360-ad3334cac8e2"},"vehicle_type_id":"4","last_reported":1723838933,"current_range_meters":14800,"station_id":"ce4bgup2rcd13ifvqco0","pricing_plan_id":"cebpf4jnsgd1na2vs0mg"},{"bike_id":"27c13c30-bf4d-4891-a0c6-172801232e47","system_id":"levelo_inurba_marseille","lat":43.30957,"lon":5.39038,"is_reserved":false,"is_disabled":false,"rental_uris":{"android":"levelo://app?vid=27c13c30-bf4d-4891-a0c6-172801232e47","ios":"levelo://app?vid=27c13c30-bf4d-4891-a0c6-172801232e47"},"vehicle_type_id":"4","last_reported":1723838933,"current_range_meters":20800,"station_id":"ce4bgup2rcd13ifvqco0","pricing_plan_id":"cebpf4jnsgd1na2vs0mg"},{"bike_id":"f0e05af7-5cb0-435d-8879-7263da7e75ce","system_id":"levelo_inurba_marseille","lat":43.30953,"lon":5.39037,"is_reserved":false,"is_disabled":false,"rental_uris":{"android":"levelo://app?vid=f0e05af7-5cb0-435d-8879-7263da7e75ce","ios":"levelo://app?vid=f0e05af7-5cb0-435d-8879-7263da7e75ce"},"vehicle_type_id":"4","last_reported":1723838933,"current_range_meters":6800,"station_id":"ce4bgup2rcd13ifvqco0","pricing_plan_id":"cebpf4jnsgd1na2vs0mg"},{"bike_id":"af827add-9713-4f73-9b83-eb7fba32754f","system_id":"levelo_inurba_marseille","lat":43.309589,"lon":5.390258,"is_reserved":false,"is_disabled":false,"rental_uris":{"android":"levelo://app?vid=af827add-9713-4f73-9b83-eb7fba32754f","ios":"levelo://app?vid=af827add-9713-4f73-9b83-eb7fba32754f"},"vehicle_type_id":"4","last_reported":1723838933,"current_range_meters":24000,"station_id":"ce4bgup2rcd13ifvqco0","pricing_plan_id":"cebpf4jnsgd1na2vs0mg"},{"bike_id":"704d985f-3aa9-4287-a4d6-6d2e69a4f58a","system_id":"levelo_inurba_marseille","lat":43.3095,"lon":5.39037,"is_reserved":false,"is_disabled":false,"rental_uris":{"android":"levelo://app?vid=704d985f-3aa9-4287-a4d6-6d2e69a4f58a","ios":"levelo://app?vid=704d985f-3aa9-4287-a4d6-6d2e69a4f58a"},"vehicle_type_id":"4","last_reported":1723838933,"current_range_meters":10800,"station_id":"ce4bgup2rcd13ifvqco0","pricing_plan_id":"cebpf4jnsgd1na2vs0mg"},{"bike_id":"8390dec6-4b88-44c7-be39-500c1c7f48eb","system_id":"levelo_inurba_marseille","lat":43.30951,"lon":5.39038,"is_reserved":false,"is_disabled":false,"rental_uris":{"android":"levelo://app?vid=8390dec6-4b88-44c7-be39-500c1c7f48eb","ios":"levelo://app?vid=8390dec6-4b88-44c7-be39-500c1c7f48eb"},"vehicle_type_id":"4","last_reported":1723838933,"current_range_meters":3200,"station_id":"ce4bgup2rcd13ifvqco0","pricing_plan_id":"cebpf4jnsgd1na2vs0mg"},{"bike_id":"3b71dcbb-1dd5-4ad7-9cc5-6b0f4a96a4dd","system_id":"levelo_inurba_marseille","lat":43.309508,"lon":5.390382,"is_reserved":false,"is_disabled":false,"rental_uris":{"android":"levelo://app?vid=3b71dcbb-1dd5-4ad7-9cc5-6b0f4a96a4dd","ios":"levelo://app?vid=3b71dcbb-1dd5-4ad7-9cc5-6b0f4a96a4dd"},"vehicle_type_id":"4","last_reported":1723838933,"current_range_meters":31200,"station_id":"ce4bgup2rcd13ifvqco0","pricing_plan_id":"cebpf4jnsgd1na2vs0mg"},{"bike_id":"efd4d22b-8970-4ce9-ae22-f66d894b8192","system_id":"levelo_inurba_marseille","lat":43.30949,"lon":5.39039,"is_reserved":false,"is_disabled":false,"rental_uris":{"android":"levelo://app?vid=efd4d22b-8970-4ce9-ae22-f66d894b8192","ios":"levelo://app?vid=efd4d22b-8970-4ce9-ae22-f66d894b8192"},"vehicle_type_id":"4","last_reported":1723838933,"current_range_meters":27600,"station_id":"ce4bgup2rcd13ifvqco0","pricing_plan_id":"cebpf4jnsgd1na2vs0mg"},{"bike_id":"2073c45a-e362-480c-aebc-3d779ac1e6db","system_id":"levelo_inurba_marseille","lat":43.30953,"lon":5.39041,"is_reserved":false,"is_disabled":false,"rental_uris":{"android":"levelo://app?vid=2073c45a-e362-480c-aebc-3d779ac1e6db","ios":"levelo://app?vid=2073c45a-e362-480c-aebc-3d779ac1e6db"},"vehicle_type_id":"4","last_reported":1723838933,"current_range_meters":13600,"station_id":"ce4bgup2rcd13ifvqco0","pricing_plan_id":"cebpf4jnsgd1na2vs0mg"},{"bike_id":"90cf136a-7e54-48c6-9652-79cbeebb4bf5","system_id":"levelo_inurba_marseille","lat":43.30951,"lon":5.39041,"is_reserved":false,"is_disabled":false,"rental_uris":{"android":"levelo://app?vid=90cf136a-7e54-48c6-9652-79cbeebb4bf5","ios":"levelo://app?vid=90cf136a-7e54-48c6-9652-79cbeebb4bf5"},"vehicle_type_id":"4","last_reported":1723838933,"current_range_meters":25200,"station_id":"ce4bgup2rcd13ifvqco0","pricing_plan_id":"cebpf4jnsgd1na2vs0mg"},{"bike_id":"48afedf9-c4d8-4942-84ba-35bf4b71394b","system_id":"levelo_inurba_marseille","lat":43.30946,"lon":5.390407,"is_reserved":false,"is_disabled":false,"rental_uris":{"android":"levelo://app?vid=48afedf9-c4d8-4942-84ba-35bf4b71394b","ios":"levelo://app?vid=48afedf9-c4d8-4942-84ba-35bf4b71394b"},"vehicle_type_id":"4","last_reported":1723838933,"current_range_meters":8800,"station_id":"ce4bgup2rcd13ifvqco0","pricing_plan_id":"cebpf4jnsgd1na2vs0mg"},{"bike_id":"0c316ba4-b841-4087-b9f1-68bc6bf82c5c","system_id":"levelo_inurba_marseille","lat":43.30946,"lon":5.39042,"is_reserved":false,"is_disabled":false,"rental_uris":{"android":"levelo://app?vid=0c316ba4-b841-4087-b9f1-68bc6bf82c5c","ios":"levelo://app?vid=0c316ba4-b841-4087-b9f1-68bc6bf82c5c"},"vehicle_type_id":"4","last_reported":1723838933,"current_range_meters":30400,"station_id":"ce4bgup2rcd13ifvqco0","pricing_plan_id":"cebpf4jnsgd1na2vs0mg"},{"bike_id":"e3d609cf-e59e-4b97-a00a-e9fe2c4423c2","system_id":"levelo_inurba_marseille","lat":43.30952,"lon":5.39044,"is_reserved":false,"is_disabled":false,"rental_uris":{"android":"levelo://app?vid=e3d609cf-e59e-4b97-a00a-e9fe2c4423c2","ios":"levelo://app?vid=e3d609cf-e59e-4b97-a00a-e9fe2c4423c2"},"vehicle_type_id":"4","last_reported":1723838933,"current_range_meters":19600,"station_id":"ce4bgup2rcd13ifvqco0","pricing_plan_id":"cebpf4jnsgd1na2vs0mg"},{"bike_id":"1b500d5b-f46e-409e-bc8b-86cb25060923","system_id":"levelo_inurba_marseille","lat":43.30951,"lon":5.39044,"is_reserved":false,"is_disabled":false,"rental_uris":{"android":"levelo://app?vid=1b500d5b-f46e-409e-bc8b-86cb25060923","ios":"levelo://app?vid=1b500d5b-f46e-409e-bc8b-86cb25060923"},"vehicle_type_id":"4","last_reported":1723838933,"current_range_meters":25200,"station_id":"ce4bgup2rcd13ifvqco0","pricing_plan_id":"cebpf4jnsgd1na2vs0mg"},{"bike_id":"a6e63cc9-8f44-41cb-90d9-409cedc90823","system_id":"levelo_inurba_marseille","lat":43.30947,"lon":5.39043,"is_reserved":false,"is_disabled":false,"rental_uris":{"android":"levelo://app?vid=a6e63cc9-8f44-41cb-90d9-409cedc90823","ios":"levelo://app?vid=a6e63cc9-8f44-41cb-90d9-409cedc90823"},"vehicle_type_id":"4","last_reported":1723838933,"current_range_meters":7200,"station_id":"ce4bgup2rcd13ifvqco0","pricing_plan_id":"cebpf4jnsgd1na2vs0mg"},{"bike_id":"6539f01d-b46d-4db6-9802-9a60e1c3e121","system_id":"levelo_inurba_marseille","lat":43.3095,"lon":5.39044,"is_reserved":false,"is_disabled":false,"rental_uris":{"android":"levelo://app?vid=6539f01d-b46d-4db6-9802-9a60e1c3e121","ios":"levelo://app?vid=6539f01d-b46d-4db6-9802-9a60e1c3e121"},"vehicle_type_id":"4","last_reported":1723838933,"current_range_meters":12800,"station_id":"ce4bgup2rcd13ifvqco0","pricing_plan_id":"cebpf4jnsgd1na2vs0mg"},{"bike_id":"c9ed0f12-5b32-43ea-b81c-9a6184d5d8d0","system_id":"levelo_inurba_marseille","lat":43.30944,"lon":5.39043,"is_reserved":false,"is_disabled":false,"rental_uris":{"android":"levelo://app?vid=c9ed0f12-5b32-43ea-b81c-9a6184d5d8d0","ios":"levelo://app?vid=c9ed0f12-5b32-43ea-b81c-9a6184d5d8d0"},"vehicle_type_id":"4","last_reported":1723838933,"current_range_meters":11200,"station_id":"ce4bgup2rcd13ifvqco0","pricing_plan_id":"cebpf4jnsgd1na2vs0mg"},{"bike_id":"e7966b35-2297-4a42-be40-4f6c0792c235","system_id":"levelo_inurba_marseille","lat":43.30946,"lon":5.39044,"is_reserved":false,"is_disabled":false,"rental_uris":{"android":"levelo://app?vid=e7966b35-2297-4a42-be40-4f6c0792c235","ios":"levelo://app?vid=e7966b35-2297-4a42-be40-4f6c0792c235"},"vehicle_type_id":"4","last_reported":1723838933,"current_range_meters":4400,"station_id":"ce4bgup2rcd13ifvqco0","pricing_plan_id":"cebpf4jnsgd1na2vs0mg"},{"bike_id":"db0f0ec3-e9cf-4b97-b805-e1aa8d60a613","system_id":"levelo_inurba_marseille","lat":43.30948,"lon":5.39045,"is_reserved":false,"is_disabled":false,"rental_uris":{"android":"levelo://app?vid=db0f0ec3-e9cf-4b97-b805-e1aa8d60a613","ios":"levelo://app?vid=db0f0ec3-e9cf-4b97-b805-e1aa8d60a613"},"vehicle_type_id":"4","last_reported":1723838933,"current_range_meters":30400,"station_id":"ce4bgup2rcd13ifvqco0","pricing_plan_id":"cebpf4jnsgd1na2vs0mg"},{"bike_id":"968e86a0-9216-432f-9f09-66e25c0ef52e","system_id":"levelo_inurba_marseille","lat":43.30944,"lon":5.39044,"is_reserved":false,"is_disabled":false,"rental_uris":{"android":"levelo://app?vid=968e86a0-9216-432f-9f09-66e25c0ef52e","ios":"levelo://app?vid=968e86a0-9216-432f-9f09-66e25c0ef52e"},"vehicle_type_id":"4","last_reported":1723838933,"current_range_meters":12400,"station_id":"ce4bgup2rcd13ifvqco0","pricing_plan_id":"cebpf4jnsgd1na2vs0mg"},{"bike_id":"50f7a106-fb7e-4b22-80fb-4aa4878d20eb","system_id":"levelo_inurba_marseille","lat":43.30953,"lon":5.39047,"is_reserved":false,"is_disabled":false,"rental_uris":{"android":"levelo://app?vid=50f7a106-fb7e-4b22-80fb-4aa4878d20eb","ios":"levelo://app?vid=50f7a106-fb7e-4b22-80fb-4aa4878d20eb"},"vehicle_type_id":"4","last_reported":1723838933,"current_range_meters":18400,"station_id":"ce4bgup2rcd13ifvqco0","pricing_plan_id":"cebpf4jnsgd1na2vs0mg"},{"bike_id":"26c3ba4b-1bf7-4d49-9337-d3866a7b31d8","system_id":"levelo_inurba_marseille","lat":43.309453,"lon":5.390453,"is_reserved":false,"is_disabled":false,"rental_uris":{"android":"levelo://app?vid=26c3ba4b-1bf7-4d49-9337-d3866a7b31d8","ios":"levelo://app?vid=26c3ba4b-1bf7-4d49-9337-d3866a7b31d8"},"vehicle_type_id":"4","last_reported":1723838933,"current_range_meters":31200,"station_id":"ce4bgup2rcd13ifvqco0","pricing_plan_id":"cebpf4jnsgd1na2vs0mg"},{"bike_id":"a6a72077-43d6-4af7-a8a7-f893ef85ab87","system_id":"levelo_inurba_marseille","lat":43.30947,"lon":5.39046,"is_reserved":false,"is_disabled":false,"rental_uris":{"android":"levelo://app?vid=a6a72077-43d6-4af7-a8a7-f893ef85ab87","ios":"levelo://app?vid=a6a72077-43d6-4af7-a8a7-f893ef85ab87"},"vehicle_type_id":"4","last_reported":1723838933,"current_range_meters":8000,"station_id":"ce4bgup2rcd13ifvqco0","pricing_plan_id":"cebpf4jnsgd1na2vs0mg"},{"bike_id":"0505f463-0770-4585-a2a3-3d666168cb6d","system_id":"levelo_inurba_marseille","lat":43.30939,"lon":5.39044,"is_reserved":false,"is_disabled":false,"rental_uris":{"android":"levelo://app?vid=0505f463-0770-4585-a2a3-3d666168cb6d","ios":"levelo://app?vid=0505f463-0770-4585-a2a3-3d666168cb6d"},"vehicle_type_id":"4","last_reported":1723838933,"current_range_meters":6400,"station_id":"ce4bgup2rcd13ifvqco0","pricing_plan_id":"cebpf4jnsgd1na2vs0mg"},{"bike_id":"3f876144-2c5b-4468-83d1-86b11b3a2fb5","system_id":"levelo_inurba_marseille","lat":43.30952,"lon":5.39048,"is_reserved":false,"is_disabled":false,"rental_uris":{"android":"levelo://app?vid=3f876144-2c5b-4468-83d1-86b11b3a2fb5","ios":"levelo://app?vid=3f876144-2c5b-4468-83d1-86b11b3a2fb5"},"vehicle_type_id":"4","last_reported":1723838933,"current_range_meters":24400,"station_id":"ce4bgup2rcd13ifvqco0","pricing_plan_id":"cebpf4jnsgd1na2vs0mg"},{"bike_id":"5e8c3b11-1935-43b1-8215-176ec55e05f2","system_id":"levelo_inurba_marseille","lat":43.30946,"lon":5.39047,"is_reserved":false,"is_disabled":false,"rental_uris":{"android":"levelo://app?vid=5e8c3b11-1935-43b1-8215-176ec55e05f2","ios":"levelo://app?vid=5e8c3b11-1935-43b1-8215-176ec55e05f2"},"vehicle_type_id":"4","last_reported":1723838933,"current_range_meters":18400,"station_id":"ce4bgup2rcd13ifvqco0","pricing_plan_id":"cebpf4jnsgd1na2vs0mg"},{"bike_id":"bd4d30a6-fe92-4227-a1f5-8e54e67c2e42","system_id":"levelo_inurba_marseille","lat":43.309503,"lon":5.390485,"is_reserved":false,"is_disabled":false,"rental_uris":{"android":"levelo://app?vid=bd4d30a6-fe92-4227-a1f5-8e54e67c2e42","ios":"levelo://app?vid=bd4d30a6-fe92-4227-a1f5-8e54e67c2e42"},"vehicle_type_id":"4","last_reported":1723838933,"current_range_meters":10800,"station_id":"ce4bgup2rcd13ifvqco0","pricing_plan_id":"cebpf4jnsgd1na2vs0mg"},{"bike_id":"6ede9333-46eb-4917-aa03-dd88302a4a6b","system_id":"levelo_inurba_marseille","lat":43.30957,"lon":5.39051,"is_reserved":false,"is_disabled":false,"rental_uris":{"android":"levelo://app?vid=6ede9333-46eb-4917-aa03-dd88302a4a6b","ios":"levelo://app?vid=6ede9333-46eb-4917-aa03-dd88302a4a6b"},"vehicle_type_id":"4","last_reported":1723838933,"current_range_meters":11600,"station_id":"ce4bgup2rcd13ifvqco0","pricing_plan_id":"cebpf4jnsgd1na2vs0mg"},{"bike_id":"a1618b8e-5d3f-4cbb-a0f1-469a41eef48a","system_id":"levelo_inurba_marseille","lat":43.30943,"lon":5.39048,"is_reserved":false,"is_disabled":false,"rental_uris":{"android":"levelo://app?vid=a1618b8e-5d3f-4cbb-a0f1-469a41eef48a","ios":"levelo://app?vid=a1618b8e-5d3f-4cbb-a0f1-469a41eef48a"},"vehicle_type_id":"4","last_reported":1723838933,"current_range_meters":16000,"station_id":"ce4bgup2rcd13ifvqco0","pricing_plan_id":"cebpf4jnsgd1na2vs0mg"},{"bike_id":"98eee1c8-deef-440e-a657-efe1c19d009c","system_id":"levelo_inurba_marseille","lat":43.30948,"lon":5.39052,"is_reserved":false,"is_disabled":false,"rental_uris":{"android":"levelo://app?vid=98eee1c8-deef-440e-a657-efe1c19d009c","ios":"levelo://app?vid=98eee1c8-deef-440e-a657-efe1c19d009c"},"vehicle_type_id":"4","last_reported":1723838933,"current_range_meters":2800,"station_id":"ce4bgup2rcd13ifvqco0","pricing_plan_id":"cebpf4jnsgd1na2vs0mg"},{"bike_id":"7d25b1be-02ee-483e-84cc-152659258e27","system_id":"levelo_inurba_marseille","lat":43.30947,"lon":5.39052,"is_reserved":false,"is_disabled":false,"rental_uris":{"android":"levelo://app?vid=7d25b1be-02ee-483e-84cc-152659258e27","ios":"levelo://app?vid=7d25b1be-02ee-483e-84cc-152659258e27"},"vehicle_type_id":"4","last_reported":1723838933,"current_range_meters":6400,"station_id":"ce4bgup2rcd13ifvqco0","pricing_plan_id":"cebpf4jnsgd1na2vs0mg"},{"bike_id":"64331153-86f3-4033-b847-42aa4de274f3","system_id":"levelo_inurba_marseille","lat":43.30953,"lon":5.39055,"is_reserved":false,"is_disabled":false,"rental_uris":{"android":"levelo://app?vid=64331153-86f3-4033-b847-42aa4de274f3","ios":"levelo://app?vid=64331153-86f3-4033-b847-42aa4de274f3"},"vehicle_type_id":"4","last_reported":1723838933,"current_range_meters":31200,"station_id":"ce4bgup2rcd13ifvqco0","pricing_plan_id":"cebpf4jnsgd1na2vs0mg"},{"bike_id":"05081c8d-be86-4c7e-88a8-7a0041b8464a","system_id":"levelo_inurba_marseille","lat":43.317557,"lon":5.390173,"is_reserved":false,"is_disabled":false,"rental_uris":{"android":"levelo://app?vid=05081c8d-be86-4c7e-88a8-7a0041b8464a","ios":"levelo://app?vid=05081c8d-be86-4c7e-88a8-7a0041b8464a"},"vehicle_type_id":"4","last_reported":1723838933,"current_range_meters":13600,"station_id":"ce4bhqp2rcd13ifvqhng","pricing_plan_id":"cebpf4jnsgd1na2vs0mg"},{"bike_id":"ba8590cc-b989-4930-b2b3-26ddee4b023f","system_id":"levelo_inurba_marseille","lat":43.317557,"lon":5.390173,"is_reserved":false,"is_disabled":false,"rental_uris":{"android":"levelo://app?vid=ba8590cc-b989-4930-b2b3-26ddee4b023f","ios":"levelo://app?vid=ba8590cc-b989-4930-b2b3-26ddee4b023f"},"vehicle_type_id":"4","last_reported":1723838933,"current_range_meters":26800,"station_id":"ce4bhqp2rcd13ifvqhng","pricing_plan_id":"cebpf4jnsgd1na2vs0mg"},{"bike_id":"864dbf84-46a8-4a39-9e14-a484ee7bed9e","system_id":"levelo_inurba_marseille","lat":43.29747,"lon":5.37937,"is_reserved":false,"is_disabled":false,"rental_uris":{"android":"levelo://app?vid=864dbf84-46a8-4a39-9e14-a484ee7bed9e","ios":"levelo://app?vid=864dbf84-46a8-4a39-9e14-a484ee7bed9e"},"vehicle_type_id":"4","last_reported":1723838933,"current_range_meters":9200,"station_id":"","pricing_plan_id":"cebpf4jnsgd1na2vs0mg"},{"bike_id":"e1264d4e-a5d0-40dd-aa25-2bb99ee46054","system_id":"levelo_inurba_marseille","lat":43.29798,"lon":5.38083,"is_reserved":false,"is_disabled":false,"rental_uris":{"android":"levelo://app?vid=e1264d4e-a5d0-40dd-aa25-2bb99ee46054","ios":"levelo://app?vid=e1264d4e-a5d0-40dd-aa25-2bb99ee46054"},"vehicle_type_id":"4","last_reported":1723838933,"current_range_meters":6400,"station_id":"ce4bgip2rcd13ifvqbb0","pricing_plan_id":"cebpf4jnsgd1na2vs0mg"},{"bike_id":"aa4274ba-9b1d-404a-85b9-45748fb6b313","system_id":"levelo_inurba_marseille","lat":43.29804,"lon":5.38095,"is_reserved":false,"is_disabled":false,"rental_uris":{"android":"levelo://app?vid=aa4274ba-9b1d-404a-85b9-45748fb6b313","ios":"levelo://app?vid=aa4274ba-9b1d-404a-85b9-45748fb6b313"},"vehicle_type_id":"4","last_reported":1723838933,"current_range_meters":19200,"station_id":"ce4bgip2rcd13ifvqbb0","pricing_plan_id":"cebpf4jnsgd1na2vs0mg"},{"bike_id":"8a9330b1-2554-4982-bc18-5c8e2c67f665","system_id":"levelo_inurba_marseille","lat":43.29798,"lon":5.38089,"is_reserved":false,"is_disabled":false,"rental_uris":{"android":"levelo://app?vid=8a9330b1-2554-4982-bc18-5c8e2c67f665","ios":"levelo://app?vid=8a9330b1-2554-4982-bc18-5c8e2c67f665"},"vehicle_type_id":"4","last_reported":1723838933,"current_range_meters":2000,"station_id":"ce4bgip2rcd13ifvqbb0","pricing_plan_id":"cebpf4jnsgd1na2vs0mg"},{"bike_id":"1e5919ab-55da-4217-aa5c-fe48c99ee9e9","system_id":"levelo_inurba_marseille","lat":43.29797,"lon":5.38102,"is_reserved":false,"is_disabled":false,"rental_uris":{"android":"levelo://app?vid=1e5919ab-55da-4217-aa5c-fe48c99ee9e9","ios":"levelo://app?vid=1e5919ab-55da-4217-aa5c-fe48c99ee9e9"},"vehicle_type_id":"4","last_reported":1723838933,"current_range_meters":11600,"station_id":"ce4bgip2rcd13ifvqbb0","pricing_plan_id":"cebpf4jnsgd1na2vs0mg"},{"bike_id":"4bd054b3-8a07-4483-b28d-5edb7afe74e5","system_id":"levelo_inurba_marseille","lat":43.295797,"lon":5.37523,"is_reserved":false,"is_disabled":false,"rental_uris":{"android":"levelo://app?vid=4bd054b3-8a07-4483-b28d-5edb7afe74e5","ios":"levelo://app?vid=4bd054b3-8a07-4483-b28d-5edb7afe74e5"},"vehicle_type_id":"4","last_reported":1723838933,"current_range_meters":6400,"station_id":"ce4bgh92rcd13ifvqb50","pricing_plan_id":"cebpf4jnsgd1na2vs0mg"},{"bike_id":"10e156b8-d323-4872-93b7-d9608cd5bca4","system_id":"levelo_inurba_marseille","lat":43.29795,"lon":5.381,"is_reserved":false,"is_disabled":false,"rental_uris":{"android":"levelo://app?vid=10e156b8-d323-4872-93b7-d9608cd5bca4","ios":"levelo://app?vid=10e156b8-d323-4872-93b7-d9608cd5bca4"},"vehicle_type_id":"4","last_reported":1723838933,"current_range_meters":16400,"station_id":"ce4bgip2rcd13ifvqbb0","pricing_plan_id":"cebpf4jnsgd1na2vs0mg"},{"bike_id":"2e1b9a51-63ba-4c7b-92f1-bb2e9226bd95","system_id":"levelo_inurba_marseille","lat":43.304274,"lon":5.388873,"is_reserved":false,"is_disabled":false,"rental_uris":{"android":"levelo://app?vid=2e1b9a51-63ba-4c7b-92f1-bb2e9226bd95","ios":"levelo://app?vid=2e1b9a51-63ba-4c7b-92f1-bb2e9226bd95"},"vehicle_type_id":"4","last_reported":1723838933,"current_range_meters":26000,"station_id":"ce4bgk12rcd13ifvqbi0","pricing_plan_id":"cebpf4jnsgd1na2vs0mg"},{"bike_id":"2e87aa8e-2059-41ba-a7a3-12ccc5434755","system_id":"levelo_inurba_marseille","lat":43.298037,"lon":5.381066,"is_reserved":false,"is_disabled":false,"rental_uris":{"android":"levelo://app?vid=2e87aa8e-2059-41ba-a7a3-12ccc5434755","ios":"levelo://app?vid=2e87aa8e-2059-41ba-a7a3-12ccc5434755"},"vehicle_type_id":"4","last_reported":1723838933,"current_range_meters":17600,"station_id":"ce4bgip2rcd13ifvqbb0","pricing_plan_id":"cebpf4jnsgd1na2vs0mg"},{"bike_id":"15d0b6e4-ba46-434a-9888-8990958d4f88","system_id":"levelo_inurba_marseille","lat":43.29631,"lon":5.37707,"is_reserved":false,"is_disabled":false,"rental_uris":{"android":"levelo://app?vid=15d0b6e4-ba46-434a-9888-8990958d4f88","ios":"levelo://app?vid=15d0b6e4-ba46-434a-9888-8990958d4f88"},"vehicle_type_id":"4","last_reported":1723838933,"current_range_meters":25200,"station_id":"ce4bgi92rcd13ifvqb90","pricing_plan_id":"cebpf4jnsgd1na2vs0mg"},{"bike_id":"3041a793-7646-4044-af9a-8e305bb4911e","system_id":"levelo_inurba_marseille","lat":43.29788,"lon":5.38092,"is_reserved":false,"is_disabled":false,"rental_uris":{"android":"levelo://app?vid=3041a793-7646-4044-af9a-8e305bb4911e","ios":"levelo://app?vid=3041a793-7646-4044-af9a-8e305bb4911e"},"vehicle_type_id":"4","last_reported":1723838933,"current_range_meters":11600,"station_id":"ce4bgip2rcd13ifvqbb0","pricing_plan_id":"cebpf4jnsgd1na2vs0mg"},{"bike_id":"220bb873-fc0c-429d-bb06-83ecbc6db352","system_id":"levelo_inurba_marseille","lat":43.2957,"lon":5.37516,"is_reserved":false,"is_disabled":false,"rental_uris":{"android":"levelo://app?vid=220bb873-fc0c-429d-bb06-83ecbc6db352","ios":"levelo://app?vid=220bb873-fc0c-429d-bb06-83ecbc6db352"},"vehicle_type_id":"4","last_reported":1723838933,"current_range_meters":7200,"station_id":"ce4bgh92rcd13ifvqb50","pricing_plan_id":"cebpf4jnsgd1na2vs0mg"},{"bike_id":"fff605e3-552a-4d2b-82cd-aebcd46d6023","system_id":"levelo_inurba_marseille","lat":43.30429,"lon":5.38887,"is_reserved":false,"is_disabled":false,"rental_uris":{"android":"levelo://app?vid=fff605e3-552a-4d2b-82cd-aebcd46d6023","ios":"levelo://app?vid=fff605e3-552a-4d2b-82cd-aebcd46d6023"},"vehicle_type_id":"4","last_reported":1723838933,"current_range_meters":7600,"station_id":"ce4bgk12rcd13ifvqbi0","pricing_plan_id":"cebpf4jnsgd1na2vs0mg"},{"bike_id":"f409c270-7a3f-4db6-8fbf-2b42e20020af","system_id":"levelo_inurba_marseille","lat":43.304274,"lon":5.388873,"is_reserved":false,"is_disabled":false,"rental_uris":{"android":"levelo://app?vid=f409c270-7a3f-4db6-8fbf-2b42e20020af","ios":"levelo://app?vid=f409c270-7a3f-4db6-8fbf-2b42e20020af"},"vehicle_type_id":"4","last_reported":1723838933,"current_range_meters":6400,"station_id":"ce4bgk12rcd13ifvqbi0","pricing_plan_id":"cebpf4jnsgd1na2vs0mg"},{"bike_id":"11d4c2cf-ae32-4125-8f17-29675a550af8","system_id":"levelo_inurba_marseille","lat":43.304278,"lon":5.388868,"is_reserved":false,"is_disabled":false,"rental_uris":{"android":"levelo://app?vid=11d4c2cf-ae32-4125-8f17-29675a550af8","ios":"levelo://app?vid=11d4c2cf-ae32-4125-8f17-29675a550af8"},"vehicle_type_id":"4","last_reported":1723838933,"current_range_meters":4800,"station_id":"ce4bgk12rcd13ifvqbi0","pricing_plan_id":"cebpf4jnsgd1na2vs0mg"},{"bike_id":"150634e7-43c2-47d9-a8a4-b814b944d3fc","system_id":"levelo_inurba_marseille","lat":43.29567,"lon":5.37513,"is_reserved":false,"is_disabled":false,"rental_uris":{"android":"levelo://app?vid=150634e7-43c2-47d9-a8a4-b814b944d3fc","ios":"levelo://app?vid=150634e7-43c2-47d9-a8a4-b814b944d3fc"},"vehicle_type_id":"4","last_reported":1723838933,"current_range_meters":18000,"station_id":"ce4bgh92rcd13ifvqb50","pricing_plan_id":"cebpf4jnsgd1na2vs0mg"},{"bike_id":"f40fd7ce-1217-4bd1-87b0-dbdef57038e5","system_id":"levelo_inurba_marseille","lat":43.29627,"lon":5.3772,"is_reserved":false,"is_disabled":false,"rental_uris":{"android":"levelo://app?vid=f40fd7ce-1217-4bd1-87b0-dbdef57038e5","ios":"levelo://app?vid=f40fd7ce-1217-4bd1-87b0-dbdef57038e5"},"vehicle_type_id":"4","last_reported":1723838933,"current_range_meters":9200,"station_id":"ce4bgi92rcd13ifvqb90","pricing_plan_id":"cebpf4jnsgd1na2vs0mg"},{"bike_id":"79f5ebf0-4483-4726-8be0-c284a070bbac","system_id":"levelo_inurba_marseille","lat":43.296277,"lon":5.377108,"is_reserved":false,"is_disabled":false,"rental_uris":{"android":"levelo://app?vid=79f5ebf0-4483-4726-8be0-c284a070bbac","ios":"levelo://app?vid=79f5ebf0-4483-4726-8be0-c284a070bbac"},"vehicle_type_id":"4","last_reported":1723838933,"current_range_meters":15200,"station_id":"ce4bgi92rcd13ifvqb90","pricing_plan_id":"cebpf4jnsgd1na2vs0mg"},{"bike_id":"030c57df-3329-4358-a330-b05636df9f33","system_id":"levelo_inurba_marseille","lat":43.296263,"lon":5.377094,"is_reserved":false,"is_disabled":false,"rental_uris":{"android":"levelo://app?vid=030c57df-3329-4358-a330-b05636df9f33","ios":"levelo://app?vid=030c57df-3329-4358-a330-b05636df9f33"},"vehicle_type_id":"4","last_reported":1723838933,"current_range_meters":31200,"station_id":"ce4bgi92rcd13ifvqb90","pricing_plan_id":"cebpf4jnsgd1na2vs0mg"},{"bike_id":"70791688-8865-44f8-afea-061e956b5695","system_id":"levelo_inurba_marseille","lat":43.296277,"lon":5.377108,"is_reserved":false,"is_disabled":false,"rental_uris":{"android":"levelo://app?vid=70791688-8865-44f8-afea-061e956b5695","ios":"levelo://app?vid=70791688-8865-44f8-afea-061e956b5695"},"vehicle_type_id":"4","last_reported":1723838933,"current_range_meters":30800,"station_id":"ce4bgi92rcd13ifvqb90","pricing_plan_id":"cebpf4jnsgd1na2vs0mg"},{"bike_id":"d72dbe32-565b-48a8-a32b-2b05c3b785eb","system_id":"levelo_inurba_marseille","lat":43.296277,"lon":5.377108,"is_reserved":false,"is_disabled":false,"rental_uris":{"android":"levelo://app?vid=d72dbe32-565b-48a8-a32b-2b05c3b785eb","ios":"levelo://app?vid=d72dbe32-565b-48a8-a32b-2b05c3b785eb"},"vehicle_type_id":"4","last_reported":1723838933,"current_range_meters":28800,"station_id":"ce4bgi92rcd13ifvqb90","pricing_plan_id":"cebpf4jnsgd1na2vs0mg"},{"bike_id":"a91a90db-6c3f-4e6a-986b-41b7117c761c","system_id":"levelo_inurba_marseille","lat":43.296277,"lon":5.377108,"is_reserved":false,"is_disabled":false,"rental_uris":{"android":"levelo://app?vid=a91a90db-6c3f-4e6a-986b-41b7117c761c","ios":"levelo://app?vid=a91a90db-6c3f-4e6a-986b-41b7117c761c"},"vehicle_type_id":"4","last_reported":1723838933,"current_range_meters":29600,"station_id":"ce4bgi92rcd13ifvqb90","pricing_plan_id":"cebpf4jnsgd1na2vs0mg"},{"bike_id":"94961bf2-d80a-47d0-b8d0-6656a221cd93","system_id":"levelo_inurba_marseille","lat":43.296263,"lon":5.377094,"is_reserved":false,"is_disabled":false,"rental_uris":{"android":"levelo://app?vid=94961bf2-d80a-47d0-b8d0-6656a221cd93","ios":"levelo://app?vid=94961bf2-d80a-47d0-b8d0-6656a221cd93"},"vehicle_type_id":"4","last_reported":1723838933,"current_range_meters":22400,"station_id":"ce4bgi92rcd13ifvqb90","pricing_plan_id":"cebpf4jnsgd1na2vs0mg"},{"bike_id":"aedf593d-e0f8-4f3f-b793-28bc71ebd45d","system_id":"levelo_inurba_marseille","lat":43.296277,"lon":5.377108,"is_reserved":false,"is_disabled":false,"rental_uris":{"android":"levelo://app?vid=aedf593d-e0f8-4f3f-b793-28bc71ebd45d","ios":"levelo://app?vid=aedf593d-e0f8-4f3f-b793-28bc71ebd45d"},"vehicle_type_id":"4","last_reported":1723838933,"current_range_meters":17600,"station_id":"ce4bgi92rcd13ifvqb90","pricing_plan_id":"cebpf4jnsgd1na2vs0mg"},{"bike_id":"ce4c165d-9c58-450b-bc1f-e49014988174","system_id":"levelo_inurba_marseille","lat":43.29615,"lon":5.37721,"is_reserved":false,"is_disabled":false,"rental_uris":{"android":"levelo://app?vid=ce4c165d-9c58-450b-bc1f-e49014988174","ios":"levelo://app?vid=ce4c165d-9c58-450b-bc1f-e49014988174"},"vehicle_type_id":"4","last_reported":1723838933,"current_range_meters":20400,"station_id":"ce4bgi92rcd13ifvqb90","pricing_plan_id":"cebpf4jnsgd1na2vs0mg"},{"bike_id":"e72e6c64-7211-4557-9127-5d61a32256eb","system_id":"levelo_inurba_marseille","lat":43.296263,"lon":5.377094,"is_reserved":false,"is_disabled":false,"rental_uris":{"android":"levelo://app?vid=e72e6c64-7211-4557-9127-5d61a32256eb","ios":"levelo://app?vid=e72e6c64-7211-4557-9127-5d61a32256eb"},"vehicle_type_id":"4","last_reported":1723838933,"current_range_meters":31200,"station_id":"ce4bgi92rcd13ifvqb90","pricing_plan_id":"cebpf4jnsgd1na2vs0mg"},{"bike_id":"6b3b4639-126e-428a-a68d-c46eaf351efa","system_id":"levelo_inurba_marseille","lat":43.296263,"lon":5.377094,"is_reserved":false,"is_disabled":false,"rental_uris":{"android":"levelo://app?vid=6b3b4639-126e-428a-a68d-c46eaf351efa","ios":"levelo://app?vid=6b3b4639-126e-428a-a68d-c46eaf351efa"},"vehicle_type_id":"4","last_reported":1723838933,"current_range_meters":28800,"station_id":"ce4bgi92rcd13ifvqb90","pricing_plan_id":"cebpf4jnsgd1na2vs0mg"},{"bike_id":"8bfb659c-3bf2-4553-a656-06f7d78f44fa","system_id":"levelo_inurba_marseille","lat":43.296047,"lon":5.376981,"is_reserved":false,"is_disabled":false,"rental_uris":{"android":"levelo://app?vid=8bfb659c-3bf2-4553-a656-06f7d78f44fa","ios":"levelo://app?vid=8bfb659c-3bf2-4553-a656-06f7d78f44fa"},"vehicle_type_id":"4","last_reported":1723838933,"current_range_meters":16000,"station_id":"ce4bgi92rcd13ifvqb90","pricing_plan_id":"cebpf4jnsgd1na2vs0mg"},{"bike_id":"59cc7e71-3626-44ef-8daf-2f5215ab7a59","system_id":"levelo_inurba_marseille","lat":43.29607,"lon":5.37723,"is_reserved":false,"is_disabled":false,"rental_uris":{"android":"levelo://app?vid=59cc7e71-3626-44ef-8daf-2f5215ab7a59","ios":"levelo://app?vid=59cc7e71-3626-44ef-8daf-2f5215ab7a59"},"vehicle_type_id":"4","last_reported":1723838933,"current_range_meters":16400,"station_id":"ce4bgi92rcd13ifvqb90","pricing_plan_id":"cebpf4jnsgd1na2vs0mg"},{"bike_id":"552c1be7-dc18-4ba4-b6b8-26b50f302952","system_id":"levelo_inurba_marseille","lat":43.29599,"lon":5.37719,"is_reserved":false,"is_disabled":false,"rental_uris":{"android":"levelo://app?vid=552c1be7-dc18-4ba4-b6b8-26b50f302952","ios":"levelo://app?vid=552c1be7-dc18-4ba4-b6b8-26b50f302952"},"vehicle_type_id":"4","last_reported":1723838933,"current_range_meters":29600,"station_id":"ce4bgi92rcd13ifvqb90","pricing_plan_id":"cebpf4jnsgd1na2vs0mg"},{"bike_id":"d3a371e6-cfef-4001-a691-67c672553a22","system_id":"levelo_inurba_marseille","lat":43.295279,"lon":5.375048,"is_reserved":false,"is_disabled":false,"rental_uris":{"android":"levelo://app?vid=d3a371e6-cfef-4001-a691-67c672553a22","ios":"levelo://app?vid=d3a371e6-cfef-4001-a691-67c672553a22"},"vehicle_type_id":"4","last_reported":1723838933,"current_range_meters":10400,"station_id":"ce4bgkp2rcd13ifvqbmg","pricing_plan_id":"cebpf4jnsgd1na2vs0mg"},{"bike_id":"e795d4c0-0fc0-4412-ac79-24da5e4adadd","system_id":"levelo_inurba_marseille","lat":43.299724,"lon":5.384848,"is_reserved":false,"is_disabled":false,"rental_uris":{"android":"levelo://app?vid=e795d4c0-0fc0-4412-ac79-24da5e4adadd","ios":"levelo://app?vid=e795d4c0-0fc0-4412-ac79-24da5e4adadd"},"vehicle_type_id":"4","last_reported":1723838933,"current_range_meters":31200,"station_id":"ce4bgj92rcd13ifvqbd0","pricing_plan_id":"cebpf4jnsgd1na2vs0mg"},{"bike_id":"1a4336fb-a5a9-4f60-9d15-c0c69ea1efe7","system_id":"levelo_inurba_marseille","lat":43.299717,"lon":5.384845,"is_reserved":false,"is_disabled":false,"rental_uris":{"android":"levelo://app?vid=1a4336fb-a5a9-4f60-9d15-c0c69ea1efe7","ios":"levelo://app?vid=1a4336fb-a5a9-4f60-9d15-c0c69ea1efe7"},"vehicle_type_id":"4","last_reported":1723838933,"current_range_meters":31200,"station_id":"ce4bgj92rcd13ifvqbd0","pricing_plan_id":"cebpf4jnsgd1na2vs0mg"},{"bike_id":"c8d12b4a-70d1-4c8a-868c-07313102c692","system_id":"levelo_inurba_marseille","lat":43.301396,"lon":5.387812,"is_reserved":false,"is_disabled":false,"rental_uris":{"android":"levelo://app?vid=c8d12b4a-70d1-4c8a-868c-07313102c692","ios":"levelo://app?vid=c8d12b4a-70d1-4c8a-868c-07313102c692"},"vehicle_type_id":"4","last_reported":1723838933,"current_range_meters":0,"station_id":"ce4bghh2rcd13ifvqb60","pricing_plan_id":"cebpf4jnsgd1na2vs0mg"},{"bike_id":"49d70083-b016-448c-9b0a-621c4c4ad279","system_id":"levelo_inurba_marseille","lat":43.301396,"lon":5.387812,"is_reserved":false,"is_disabled":false,"rental_uris":{"android":"levelo://app?vid=49d70083-b016-448c-9b0a-621c4c4ad279","ios":"levelo://app?vid=49d70083-b016-448c-9b0a-621c4c4ad279"},"vehicle_type_id":"4","last_reported":1723838933,"current_range_meters":10800,"station_id":"ce4bghh2rcd13ifvqb60","pricing_plan_id":"cebpf4jnsgd1na2vs0mg"},{"bike_id":"22da9886-1341-4ec5-9fa3-246d60a05327","system_id":"levelo_inurba_marseille","lat":43.2936,"lon":5.37203,"is_reserved":false,"is_disabled":false,"rental_uris":{"android":"levelo://app?vid=22da9886-1341-4ec5-9fa3-246d60a05327","ios":"levelo://app?vid=22da9886-1341-4ec5-9fa3-246d60a05327"},"vehicle_type_id":"4","last_reported":1723838933,"current_range_meters":5600,"station_id":"","pricing_plan_id":"cebpf4jnsgd1na2vs0mg"},{"bike_id":"715f7702-4734-486b-a633-0d6f6d023948","system_id":"levelo_inurba_marseille","lat":43.29602,"lon":5.381084,"is_reserved":false,"is_disabled":false,"rental_uris":{"android":"levelo://app?vid=715f7702-4734-486b-a633-0d6f6d023948","ios":"levelo://app?vid=715f7702-4734-486b-a633-0d6f6d023948"},"vehicle_type_id":"4","last_reported":1723838933,"current_range_meters":29600,"station_id":"ce4bgl12rcd13ifvqbo0","pricing_plan_id":"cebpf4jnsgd1na2vs0mg"},{"bike_id":"6afb67c3-26b7-4eac-97bc-da0c0c8292d3","system_id":"levelo_inurba_marseille","lat":43.29602,"lon":5.381084,"is_reserved":false,"is_disabled":false,"rental_uris":{"android":"levelo://app?vid=6afb67c3-26b7-4eac-97bc-da0c0c8292d3","ios":"levelo://app?vid=6afb67c3-26b7-4eac-97bc-da0c0c8292d3"},"vehicle_type_id":"4","last_reported":1723838933,"current_range_meters":20400,"station_id":"ce4bgl12rcd13ifvqbo0","pricing_plan_id":"cebpf4jnsgd1na2vs0mg"},{"bike_id":"7c81c0f5-1de0-460a-a33f-cb65c4cda453","system_id":"levelo_inurba_marseille","lat":43.29601,"lon":5.381084,"is_reserved":false,"is_disabled":false,"rental_uris":{"android":"levelo://app?vid=7c81c0f5-1de0-460a-a33f-cb65c4cda453","ios":"levelo://app?vid=7c81c0f5-1de0-460a-a33f-cb65c4cda453"},"vehicle_type_id":"4","last_reported":1723838933,"current_range_meters":10000,"station_id":"ce4bgl12rcd13ifvqbo0","pricing_plan_id":"cebpf4jnsgd1na2vs0mg"},{"bike_id":"f45aa7a3-68d0-4c87-9b06-b3be963514af","system_id":"levelo_inurba_marseille","lat":43.29599,"lon":5.38103,"is_reserved":false,"is_disabled":false,"rental_uris":{"android":"levelo://app?vid=f45aa7a3-68d0-4c87-9b06-b3be963514af","ios":"levelo://app?vid=f45aa7a3-68d0-4c87-9b06-b3be963514af"},"vehicle_type_id":"4","last_reported":1723838933,"current_range_meters":10000,"station_id":"ce4bgl12rcd13ifvqbo0","pricing_plan_id":"cebpf4jnsgd1na2vs0mg"},{"bike_id":"c04a82c8-7066-4c54-b6ef-4a9896ca8fe0","system_id":"levelo_inurba_marseille","lat":43.29602,"lon":5.381084,"is_reserved":false,"is_disabled":false,"rental_uris":{"android":"levelo://app?vid=c04a82c8-7066-4c54-b6ef-4a9896ca8fe0","ios":"levelo://app?vid=c04a82c8-7066-4c54-b6ef-4a9896ca8fe0"},"vehicle_type_id":"4","last_reported":1723838933,"current_range_meters":15600,"station_id":"ce4bgl12rcd13ifvqbo0","pricing_plan_id":"cebpf4jnsgd1na2vs0mg"},{"bike_id":"8ccccdb1-32b8-4972-9979-256d37667a56","system_id":"levelo_inurba_marseille","lat":43.32385,"lon":5.3892,"is_reserved":false,"is_disabled":false,"rental_uris":{"android":"levelo://app?vid=8ccccdb1-32b8-4972-9979-256d37667a56","ios":"levelo://app?vid=8ccccdb1-32b8-4972-9979-256d37667a56"},"vehicle_type_id":"4","last_reported":1723838933,"current_range_meters":14000,"station_id":"ce4bhqp2rcd13ifvqhog","pricing_plan_id":"cebpf4jnsgd1na2vs0mg"},{"bike_id":"0b0c3475-9af9-4566-ad69-0f3bf3ccaa0b","system_id":"levelo_inurba_marseille","lat":43.29602,"lon":5.381084,"is_reserved":false,"is_disabled":false,"rental_uris":{"android":"levelo://app?vid=0b0c3475-9af9-4566-ad69-0f3bf3ccaa0b","ios":"levelo://app?vid=0b0c3475-9af9-4566-ad69-0f3bf3ccaa0b"},"vehicle_type_id":"4","last_reported":1723838933,"current_range_meters":28400,"station_id":"ce4bgl12rcd13ifvqbo0","pricing_plan_id":"cebpf4jnsgd1na2vs0mg"},{"bike_id":"b3c6e91e-ac38-4509-aea8-446b111674c9","system_id":"levelo_inurba_marseille","lat":43.29602,"lon":5.381084,"is_reserved":false,"is_disabled":false,"rental_uris":{"android":"levelo://app?vid=b3c6e91e-ac38-4509-aea8-446b111674c9","ios":"levelo://app?vid=b3c6e91e-ac38-4509-aea8-446b111674c9"},"vehicle_type_id":"4","last_reported":1723838933,"current_range_meters":30400,"station_id":"ce4bgl12rcd13ifvqbo0","pricing_plan_id":"cebpf4jnsgd1na2vs0mg"},{"bike_id":"b820cec9-ff92-4eba-940e-c12d878eb4e9","system_id":"levelo_inurba_marseille","lat":43.32388,"lon":5.38922,"is_reserved":false,"is_disabled":false,"rental_uris":{"android":"levelo://app?vid=b820cec9-ff92-4eba-940e-c12d878eb4e9","ios":"levelo://app?vid=b820cec9-ff92-4eba-940e-c12d878eb4e9"},"vehicle_type_id":"4","last_reported":1723838933,"current_range_meters":2400,"station_id":"ce4bhqp2rcd13ifvqhog","pricing_plan_id":"cebpf4jnsgd1na2vs0mg"},{"bike_id":"ca2a5df8-a96a-40d9-a00d-29260488d7b6","system_id":"levelo_inurba_marseille","lat":43.29602,"lon":5.381084,"is_reserved":false,"is_disabled":false,"rental_uris":{"android":"levelo://app?vid=ca2a5df8-a96a-40d9-a00d-29260488d7b6","ios":"levelo://app?vid=ca2a5df8-a96a-40d9-a00d-29260488d7b6"},"vehicle_type_id":"4","last_reported":1723838933,"current_range_meters":24000,"station_id":"ce4bgl12rcd13ifvqbo0","pricing_plan_id":"cebpf4jnsgd1na2vs0mg"},{"bike_id":"4c280185-47cd-488a-8246-04cc1b677379","system_id":"levelo_inurba_marseille","lat":43.29601,"lon":5.381084,"is_reserved":false,"is_disabled":false,"rental_uris":{"android":"levelo://app?vid=4c280185-47cd-488a-8246-04cc1b677379","ios":"levelo://app?vid=4c280185-47cd-488a-8246-04cc1b677379"},"vehicle_type_id":"4","last_reported":1723838933,"current_range_meters":27600,"station_id":"ce4bgl12rcd13ifvqbo0","pricing_plan_id":"cebpf4jnsgd1na2vs0mg"},{"bike_id":"8b8e0fb0-e41b-4a76-9a57-907455453cad","system_id":"levelo_inurba_marseille","lat":43.29602,"lon":5.381084,"is_reserved":false,"is_disabled":false,"rental_uris":{"android":"levelo://app?vid=8b8e0fb0-e41b-4a76-9a57-907455453cad","ios":"levelo://app?vid=8b8e0fb0-e41b-4a76-9a57-907455453cad"},"vehicle_type_id":"4","last_reported":1723838933,"current_range_meters":31200,"station_id":"ce4bgl12rcd13ifvqbo0","pricing_plan_id":"cebpf4jnsgd1na2vs0mg"},{"bike_id":"bc4aad92-6dfe-431e-96d7-64e8339c93d4","system_id":"levelo_inurba_marseille","lat":43.292749,"lon":5.368402,"is_reserved":false,"is_disabled":false,"rental_uris":{"android":"levelo://app?vid=bc4aad92-6dfe-431e-96d7-64e8339c93d4","ios":"levelo://app?vid=bc4aad92-6dfe-431e-96d7-64e8339c93d4"},"vehicle_type_id":"4","last_reported":1723838933,"current_range_meters":30000,"station_id":"ce4bhbp2rcd13ifvqesg","pricing_plan_id":"cebpf4jnsgd1na2vs0mg"},{"bike_id":"27f8d6ae-3bd9-4349-b469-b739cde28692","system_id":"levelo_inurba_marseille","lat":43.2928,"lon":5.36847,"is_reserved":false,"is_disabled":false,"rental_uris":{"android":"levelo://app?vid=27f8d6ae-3bd9-4349-b469-b739cde28692","ios":"levelo://app?vid=27f8d6ae-3bd9-4349-b469-b739cde28692"},"vehicle_type_id":"4","last_reported":1723838933,"current_range_meters":19600,"station_id":"ce4bhbp2rcd13ifvqesg","pricing_plan_id":"cebpf4jnsgd1na2vs0mg"},{"bike_id":"17b9bc88-68f7-4fbb-80dc-3a89d2034699","system_id":"levelo_inurba_marseille","lat":43.29308,"lon":5.37178,"is_reserved":false,"is_disabled":false,"rental_uris":{"android":"levelo://app?vid=17b9bc88-68f7-4fbb-80dc-3a89d2034699","ios":"levelo://app?vid=17b9bc88-68f7-4fbb-80dc-3a89d2034699"},"vehicle_type_id":"4","last_reported":1723838933,"current_range_meters":30800,"station_id":"ce4bgh92rcd13ifvqb40","pricing_plan_id":"cebpf4jnsgd1na2vs0mg"},{"bike_id":"01976a52-1a4c-4d06-b2d9-e319708d62a2","system_id":"levelo_inurba_marseille","lat":43.292749,"lon":5.368402,"is_reserved":false,"is_disabled":false,"rental_uris":{"android":"levelo://app?vid=01976a52-1a4c-4d06-b2d9-e319708d62a2","ios":"levelo://app?vid=01976a52-1a4c-4d06-b2d9-e319708d62a2"},"vehicle_type_id":"4","last_reported":1723838933,"current_range_meters":11600,"station_id":"ce4bhbp2rcd13ifvqesg","pricing_plan_id":"cebpf4jnsgd1na2vs0mg"},{"bike_id":"a1689264-d7a0-448c-b0e4-c4bcc2947e4d","system_id":"levelo_inurba_marseille","lat":43.292749,"lon":5.368402,"is_reserved":false,"is_disabled":false,"rental_uris":{"android":"levelo://app?vid=a1689264-d7a0-448c-b0e4-c4bcc2947e4d","ios":"levelo://app?vid=a1689264-d7a0-448c-b0e4-c4bcc2947e4d"},"vehicle_type_id":"4","last_reported":1723838933,"current_range_meters":31200,"station_id":"ce4bhbp2rcd13ifvqesg","pricing_plan_id":"cebpf4jnsgd1na2vs0mg"},{"bike_id":"31124c49-2ed4-4d37-bad8-80c59ea47348","system_id":"levelo_inurba_marseille","lat":43.292749,"lon":5.368402,"is_reserved":false,"is_disabled":false,"rental_uris":{"android":"levelo://app?vid=31124c49-2ed4-4d37-bad8-80c59ea47348","ios":"levelo://app?vid=31124c49-2ed4-4d37-bad8-80c59ea47348"},"vehicle_type_id":"4","last_reported":1723838933,"current_range_meters":13200,"station_id":"ce4bhbp2rcd13ifvqesg","pricing_plan_id":"cebpf4jnsgd1na2vs0mg"},{"bike_id":"b4e3cc3c-16c5-4711-bba7-9f421b2a67f4","system_id":"levelo_inurba_marseille","lat":43.293259,"lon":5.371586,"is_reserved":false,"is_disabled":false,"rental_uris":{"android":"levelo://app?vid=b4e3cc3c-16c5-4711-bba7-9f421b2a67f4","ios":"levelo://app?vid=b4e3cc3c-16c5-4711-bba7-9f421b2a67f4"},"vehicle_type_id":"4","last_reported":1723838933,"current_range_meters":15600,"station_id":"ce4bgh92rcd13ifvqb40","pricing_plan_id":"cebpf4jnsgd1na2vs0mg"},{"bike_id":"01565be9-e629-4a4e-9b00-f309d6a3a4d8","system_id":"levelo_inurba_marseille","lat":43.293259,"lon":5.371586,"is_reserved":false,"is_disabled":false,"rental_uris":{"android":"levelo://app?vid=01565be9-e629-4a4e-9b00-f309d6a3a4d8","ios":"levelo://app?vid=01565be9-e629-4a4e-9b00-f309d6a3a4d8"},"vehicle_type_id":"4","last_reported":1723838933,"current_range_meters":800,"station_id":"ce4bgh92rcd13ifvqb40","pricing_plan_id":"cebpf4jnsgd1na2vs0mg"},{"bike_id":"101d09d1-789d-47ca-b405-c7622c3400b2","system_id":"levelo_inurba_marseille","lat":43.293259,"lon":5.371586,"is_reserved":false,"is_disabled":false,"rental_uris":{"android":"levelo://app?vid=101d09d1-789d-47ca-b405-c7622c3400b2","ios":"levelo://app?vid=101d09d1-789d-47ca-b405-c7622c3400b2"},"vehicle_type_id":"4","last_reported":1723838933,"current_range_meters":11600,"station_id":"ce4bgh92rcd13ifvqb40","pricing_plan_id":"cebpf4jnsgd1na2vs0mg"},{"bike_id":"a7dd538a-6efd-41fd-8186-c80e63c43f9c","system_id":"levelo_inurba_marseille","lat":43.292749,"lon":5.368402,"is_reserved":false,"is_disabled":false,"rental_uris":{"android":"levelo://app?vid=a7dd538a-6efd-41fd-8186-c80e63c43f9c","ios":"levelo://app?vid=a7dd538a-6efd-41fd-8186-c80e63c43f9c"},"vehicle_type_id":"4","last_reported":1723838933,"current_range_meters":30800,"station_id":"ce4bhbp2rcd13ifvqesg","pricing_plan_id":"cebpf4jnsgd1na2vs0mg"},{"bike_id":"f38fa803-c2e9-4b17-ad96-bf95f011eb03","system_id":"levelo_inurba_marseille","lat":43.29233,"lon":5.36474,"is_reserved":false,"is_disabled":false,"rental_uris":{"android":"levelo://app?vid=f38fa803-c2e9-4b17-ad96-bf95f011eb03","ios":"levelo://app?vid=f38fa803-c2e9-4b17-ad96-bf95f011eb03"},"vehicle_type_id":"4","last_reported":1723838933,"current_range_meters":10800,"station_id":"","pricing_plan_id":"cebpf4jnsgd1na2vs0mg"},{"bike_id":"4900bc7a-7ce2-4f37-8f0b-64bd6c297de2","system_id":"levelo_inurba_marseille","lat":43.29297,"lon":5.374545,"is_reserved":false,"is_disabled":false,"rental_uris":{"android":"levelo://app?vid=4900bc7a-7ce2-4f37-8f0b-64bd6c297de2","ios":"levelo://app?vid=4900bc7a-7ce2-4f37-8f0b-64bd6c297de2"},"vehicle_type_id":"4","last_reported":1723838933,"current_range_meters":0,"station_id":"ce4bgi12rcd13ifvqb70","pricing_plan_id":"cebpf4jnsgd1na2vs0mg"},{"bike_id":"c1d454c4-bd2d-4ded-acc8-643a7ed2759f","system_id":"levelo_inurba_marseille","lat":43.293009,"lon":5.374584,"is_reserved":false,"is_disabled":false,"rental_uris":{"android":"levelo://app?vid=c1d454c4-bd2d-4ded-acc8-643a7ed2759f","ios":"levelo://app?vid=c1d454c4-bd2d-4ded-acc8-643a7ed2759f"},"vehicle_type_id":"4","last_reported":1723838933,"current_range_meters":0,"station_id":"ce4bgi12rcd13ifvqb70","pricing_plan_id":"cebpf4jnsgd1na2vs0mg"},{"bike_id":"cfc8cfce-3441-4604-ac0a-15da2a2a62a8","system_id":"levelo_inurba_marseille","lat":43.293009,"lon":5.374584,"is_reserved":false,"is_disabled":false,"rental_uris":{"android":"levelo://app?vid=cfc8cfce-3441-4604-ac0a-15da2a2a62a8","ios":"levelo://app?vid=cfc8cfce-3441-4604-ac0a-15da2a2a62a8"},"vehicle_type_id":"4","last_reported":1723838933,"current_range_meters":28000,"station_id":"ce4bgi12rcd13ifvqb70","pricing_plan_id":"cebpf4jnsgd1na2vs0mg"},{"bike_id":"65d7b381-f800-4667-bc05-8d3ce1a75e84","system_id":"levelo_inurba_marseille","lat":43.2936,"lon":5.37835,"is_reserved":false,"is_disabled":false,"rental_uris":{"android":"levelo://app?vid=65d7b381-f800-4667-bc05-8d3ce1a75e84","ios":"levelo://app?vid=65d7b381-f800-4667-bc05-8d3ce1a75e84"},"vehicle_type_id":"4","last_reported":1723838933,"current_range_meters":31200,"station_id":"ce4bgjh2rcd13ifvqbf0","pricing_plan_id":"cebpf4jnsgd1na2vs0mg"},{"bike_id":"bda15aa4-65f0-47ff-b604-ab0c9598d083","system_id":"levelo_inurba_marseille","lat":43.29376,"lon":5.37858,"is_reserved":false,"is_disabled":false,"rental_uris":{"android":"levelo://app?vid=bda15aa4-65f0-47ff-b604-ab0c9598d083","ios":"levelo://app?vid=bda15aa4-65f0-47ff-b604-ab0c9598d083"},"vehicle_type_id":"4","last_reported":1723838933,"current_range_meters":0,"station_id":"ce4bgjh2rcd13ifvqbf0","pricing_plan_id":"cebpf4jnsgd1na2vs0mg"},{"bike_id":"5a609353-57a7-4244-b25d-b28188ecc703","system_id":"levelo_inurba_marseille","lat":43.29375,"lon":5.37857,"is_reserved":false,"is_disabled":false,"rental_uris":{"android":"levelo://app?vid=5a609353-57a7-4244-b25d-b28188ecc703","ios":"levelo://app?vid=5a609353-57a7-4244-b25d-b28188ecc703"},"vehicle_type_id":"4","last_reported":1723838933,"current_range_meters":11200,"station_id":"ce4bgjh2rcd13ifvqbf0","pricing_plan_id":"cebpf4jnsgd1na2vs0mg"},{"bike_id":"2a9972b6-f183-4d22-8830-20375b58cf0a","system_id":"levelo_inurba_marseille","lat":43.302992,"lon":5.392136,"is_reserved":false,"is_disabled":false,"rental_uris":{"android":"levelo://app?vid=2a9972b6-f183-4d22-8830-20375b58cf0a","ios":"levelo://app?vid=2a9972b6-f183-4d22-8830-20375b58cf0a"},"vehicle_type_id":"4","last_reported":1723838933,"current_range_meters":10800,"station_id":"ce4bgkh2rcd13ifvqbk0","pricing_plan_id":"cebpf4jnsgd1na2vs0mg"},{"bike_id":"1c8667ac-b6f3-4788-9f69-ce5b4ba511cc","system_id":"levelo_inurba_marseille","lat":43.3065,"lon":5.39423,"is_reserved":false,"is_disabled":false,"rental_uris":{"android":"levelo://app?vid=1c8667ac-b6f3-4788-9f69-ce5b4ba511cc","ios":"levelo://app?vid=1c8667ac-b6f3-4788-9f69-ce5b4ba511cc"},"vehicle_type_id":"4","last_reported":1723838933,"current_range_meters":1200,"station_id":"","pricing_plan_id":"cebpf4jnsgd1na2vs0mg"},{"bike_id":"6d040cda-c9b6-4884-94ac-5e1e6177b211","system_id":"levelo_inurba_marseille","lat":43.2936,"lon":5.37835,"is_reserved":false,"is_disabled":false,"rental_uris":{"android":"levelo://app?vid=6d040cda-c9b6-4884-94ac-5e1e6177b211","ios":"levelo://app?vid=6d040cda-c9b6-4884-94ac-5e1e6177b211"},"vehicle_type_id":"4","last_reported":1723838933,"current_range_meters":28000,"station_id":"ce4bgjh2rcd13ifvqbf0","pricing_plan_id":"cebpf4jnsgd1na2vs0mg"},{"bike_id":"4b168796-2821-4dea-bec2-377be3da5b0d","system_id":"levelo_inurba_marseille","lat":43.296778,"lon":5.385517,"is_reserved":false,"is_disabled":false,"rental_uris":{"android":"levelo://app?vid=4b168796-2821-4dea-bec2-377be3da5b0d","ios":"levelo://app?vid=4b168796-2821-4dea-bec2-377be3da5b0d"},"vehicle_type_id":"4","last_reported":1723838933,"current_range_meters":30000,"station_id":"","pricing_plan_id":"cebpf4jnsgd1na2vs0mg"},{"bike_id":"b85f87d2-951e-4909-8a24-ccff86802d74","system_id":"levelo_inurba_marseille","lat":43.292311,"lon":5.360731,"is_reserved":false,"is_disabled":false,"rental_uris":{"android":"levelo://app?vid=b85f87d2-951e-4909-8a24-ccff86802d74","ios":"levelo://app?vid=b85f87d2-951e-4909-8a24-ccff86802d74"},"vehicle_type_id":"4","last_reported":1723838933,"current_range_meters":30800,"station_id":"ce4bhbh2rcd13ifvqeqg","pricing_plan_id":"cebpf4jnsgd1na2vs0mg"},{"bike_id":"3219fe98-bdc0-4308-b782-31075059b072","system_id":"levelo_inurba_marseille","lat":43.292183,"lon":5.360488,"is_reserved":false,"is_disabled":false,"rental_uris":{"android":"levelo://app?vid=3219fe98-bdc0-4308-b782-31075059b072","ios":"levelo://app?vid=3219fe98-bdc0-4308-b782-31075059b072"},"vehicle_type_id":"4","last_reported":1723838933,"current_range_meters":31200,"station_id":"ce4bhbh2rcd13ifvqeqg","pricing_plan_id":"cebpf4jnsgd1na2vs0mg"},{"bike_id":"117c27b0-eff9-40e0-ba3e-8b736b9f6eea","system_id":"levelo_inurba_marseille","lat":43.298764,"lon":5.388973,"is_reserved":false,"is_disabled":false,"rental_uris":{"android":"levelo://app?vid=117c27b0-eff9-40e0-ba3e-8b736b9f6eea","ios":"levelo://app?vid=117c27b0-eff9-40e0-ba3e-8b736b9f6eea"},"vehicle_type_id":"4","last_reported":1723838933,"current_range_meters":28000,"station_id":"ce4bh392rcd13ifvqdl0","pricing_plan_id":"cebpf4jnsgd1na2vs0mg"},{"bike_id":"0f7b6b61-7b40-401a-b3bb-0ca515ca2482","system_id":"levelo_inurba_marseille","lat":43.291671,"lon":5.371575,"is_reserved":false,"is_disabled":false,"rental_uris":{"android":"levelo://app?vid=0f7b6b61-7b40-401a-b3bb-0ca515ca2482","ios":"levelo://app?vid=0f7b6b61-7b40-401a-b3bb-0ca515ca2482"},"vehicle_type_id":"4","last_reported":1723838933,"current_range_meters":12800,"station_id":"ce4bha92rcd13ifvqeh0","pricing_plan_id":"cebpf4jnsgd1na2vs0mg"},{"bike_id":"098d7b02-51d2-4b98-b826-5420f20d6a08","system_id":"levelo_inurba_marseille","lat":43.298764,"lon":5.388973,"is_reserved":false,"is_disabled":false,"rental_uris":{"android":"levelo://app?vid=098d7b02-51d2-4b98-b826-5420f20d6a08","ios":"levelo://app?vid=098d7b02-51d2-4b98-b826-5420f20d6a08"},"vehicle_type_id":"4","last_reported":1723838933,"current_range_meters":14400,"station_id":"ce4bh392rcd13ifvqdl0","pricing_plan_id":"cebpf4jnsgd1na2vs0mg"},{"bike_id":"47fad203-924c-406b-b652-ab401c05290b","system_id":"levelo_inurba_marseille","lat":43.298764,"lon":5.388973,"is_reserved":false,"is_disabled":false,"rental_uris":{"android":"levelo://app?vid=47fad203-924c-406b-b652-ab401c05290b","ios":"levelo://app?vid=47fad203-924c-406b-b652-ab401c05290b"},"vehicle_type_id":"4","last_reported":1723838933,"current_range_meters":6000,"station_id":"ce4bh392rcd13ifvqdl0","pricing_plan_id":"cebpf4jnsgd1na2vs0mg"},{"bike_id":"0ec8afdf-1d47-4ef2-a9d7-001743d6a754","system_id":"levelo_inurba_marseille","lat":43.291675,"lon":5.371583,"is_reserved":false,"is_disabled":false,"rental_uris":{"android":"levelo://app?vid=0ec8afdf-1d47-4ef2-a9d7-001743d6a754","ios":"levelo://app?vid=0ec8afdf-1d47-4ef2-a9d7-001743d6a754"},"vehicle_type_id":"4","last_reported":1723838933,"current_range_meters":2400,"station_id":"ce4bha92rcd13ifvqeh0","pricing_plan_id":"cebpf4jnsgd1na2vs0mg"},{"bike_id":"b978f97e-c502-43f5-8ee9-5153a861a4de","system_id":"levelo_inurba_marseille","lat":43.291675,"lon":5.371583,"is_reserved":false,"is_disabled":false,"rental_uris":{"android":"levelo://app?vid=b978f97e-c502-43f5-8ee9-5153a861a4de","ios":"levelo://app?vid=b978f97e-c502-43f5-8ee9-5153a861a4de"},"vehicle_type_id":"4","last_reported":1723838933,"current_range_meters":5600,"station_id":"ce4bha92rcd13ifvqeh0","pricing_plan_id":"cebpf4jnsgd1na2vs0mg"},{"bike_id":"8d853d40-8fd9-4af9-b695-23305da43ae2","system_id":"levelo_inurba_marseille","lat":43.291675,"lon":5.371583,"is_reserved":false,"is_disabled":false,"rental_uris":{"android":"levelo://app?vid=8d853d40-8fd9-4af9-b695-23305da43ae2","ios":"levelo://app?vid=8d853d40-8fd9-4af9-b695-23305da43ae2"},"vehicle_type_id":"4","last_reported":1723838933,"current_range_meters":12000,"station_id":"ce4bha92rcd13ifvqeh0","pricing_plan_id":"cebpf4jnsgd1na2vs0mg"},{"bike_id":"010c1249-09f6-4c7e-9318-3925cbaff368","system_id":"levelo_inurba_marseille","lat":43.308852,"lon":5.396374,"is_reserved":false,"is_disabled":false,"rental_uris":{"android":"levelo://app?vid=010c1249-09f6-4c7e-9318-3925cbaff368","ios":"levelo://app?vid=010c1249-09f6-4c7e-9318-3925cbaff368"},"vehicle_type_id":"4","last_reported":1723838933,"current_range_meters":31200,"station_id":"ce4bh012rcd13ifvqcv0","pricing_plan_id":"cebpf4jnsgd1na2vs0mg"},{"bike_id":"6446c2cc-526a-4505-887c-708025e16e3e","system_id":"levelo_inurba_marseille","lat":43.309038,"lon":5.396546,"is_reserved":false,"is_disabled":false,"rental_uris":{"android":"levelo://app?vid=6446c2cc-526a-4505-887c-708025e16e3e","ios":"levelo://app?vid=6446c2cc-526a-4505-887c-708025e16e3e"},"vehicle_type_id":"4","last_reported":1723838933,"current_range_meters":12400,"station_id":"ce4bh012rcd13ifvqcv0","pricing_plan_id":"cebpf4jnsgd1na2vs0mg"},{"bike_id":"014423fc-6c1d-45c9-a6b3-eee3b758fc32","system_id":"levelo_inurba_marseille","lat":43.313291,"lon":5.396838,"is_reserved":false,"is_disabled":false,"rental_uris":{"android":"levelo://app?vid=014423fc-6c1d-45c9-a6b3-eee3b758fc32","ios":"levelo://app?vid=014423fc-6c1d-45c9-a6b3-eee3b758fc32"},"vehicle_type_id":"4","last_reported":1723838933,"current_range_meters":1200,"station_id":"ce4bgvp2rcd13ifvqcu0","pricing_plan_id":"cebpf4jnsgd1na2vs0mg"},{"bike_id":"bc193107-7d70-4d95-913a-61e780472f05","system_id":"levelo_inurba_marseille","lat":43.313291,"lon":5.396838,"is_reserved":false,"is_disabled":false,"rental_uris":{"android":"levelo://app?vid=bc193107-7d70-4d95-913a-61e780472f05","ios":"levelo://app?vid=bc193107-7d70-4d95-913a-61e780472f05"},"vehicle_type_id":"4","last_reported":1723838933,"current_range_meters":28000,"station_id":"ce4bgvp2rcd13ifvqcu0","pricing_plan_id":"cebpf4jnsgd1na2vs0mg"},{"bike_id":"acc8a859-2499-4565-949c-abff69495328","system_id":"levelo_inurba_marseille","lat":43.313291,"lon":5.396838,"is_reserved":false,"is_disabled":false,"rental_uris":{"android":"levelo://app?vid=acc8a859-2499-4565-949c-abff69495328","ios":"levelo://app?vid=acc8a859-2499-4565-949c-abff69495328"},"vehicle_type_id":"4","last_reported":1723838933,"current_range_meters":30000,"station_id":"ce4bgvp2rcd13ifvqcu0","pricing_plan_id":"cebpf4jnsgd1na2vs0mg"},