{"last_updated":1768324692,"ttl":60,"version":"2.2","data":{"bikes":[{"bike_id":"ea74e469-c0c4-4e3c-822e-e03736fd59e8","system_id":"levelo_inurba_marseille","lat":43.292,"lon":5.35807,"is_reserved":false,"is_disabled":false,"rental_uris":{"android":"levelo://app?vid=ea74e469-c0c4-4e3c-822e-e03736fd59e8","ios":"levelo://app?vid=ea74e469-c0c4-4e3c-822e-e03736fd59e8"},"vehicle_type_id":"4","last_reported":1768324693,"current_range_meters":2800,"station_id":"ce4bhb12rcd13ifvqel0","pricing_plan_id":"cebpf4jnsgd1na2vs0mg"},{"bike_id":"8c7c9205-f6b0-41ca-9e68-58ed9eb10a0e","system_id":"levelo_inurba_marseille","lat":43.24471,"lon":5.42516,"is_reserved":false,"is_disabled":false,"rental_uris":{"android":"levelo://app?vid=8c7c9205-f6b0-41ca-9e68-58ed9eb10a0e","ios":"levelo://app?vid=8c7c9205-f6b0-41ca-9e68-58ed9eb10a0e"},"vehicle_type_id":"4","last_reported":1768324693,"current_range_meters":2800,"station_id":"st_d4a3vfp97mjs738cd8kg","pricing_plan_id":"cebpf4jnsgd1na2vs0mg"},{"bike_id":"16c0a840-73e1-4ae0-9a77-5a3261744e51","system_id":"levelo_inurba_marseille","lat":43.26958,"lon":5.40269,"is_reserved":false,"is_disabled":false,"rental_uris":{"android":"levelo://app?vid=16c0a840-73e1-4ae0-9a77-5a3261744e51","ios":"levelo://app?vid=16c0a840-73e1-4ae0-9a77-5a3261744e51"},"vehicle_type_id":"4","last_reported":1768324693,"current_range_meters":2800,"station_id":"cjm6bp8fraef2m0cb0m0","pricing_plan_id":"cebpf4jnsgd1na2vs0mg"},{"bike_id":"dff7db18-73dd-4989-9ace-a47206b332b2","system_id":"levelo_inurba_marseille","lat":43.305479,"lon":5.366986,"is_reserved":false,"is_disabled":false,"rental_uris":{"android":"levelo://app?vid=dff7db18-73dd-4989-9ace-a47206b332b2","ios":"levelo://app?vid=dff7db18-73dd-4989-9ace-a47206b332b2"},"vehicle_type_id":"4","last_reported":1768324693,"current_range_meters":2800,"station_id":"ce4bgrp2rcd13ifvqc9g","pricing_plan_id":"cebpf4jnsgd1na2vs0mg"},{"bike_id":"64d5976f-8dcc-4221-b8a1-159649fd0eb6","system_id":"levelo_inurba_marseille","lat":43.23956,"lon":5.3664,"is_reserved":false,"is_disabled":false,"rental_uris":{"android":"levelo://app?vid=64d5976f-8dcc-4221-b8a1-159649fd0eb6","ios":"levelo://app?vid=64d5976f-8dcc-4221-b8a1-159649fd0eb6"},"vehicle_type_id":"4","last_reported":1768324693,"current_range_meters":2800,"station_id":"ce4bhi12rcd13ifvqfp0","pricing_plan_id":"cebpf4jnsgd1na2vs0mg"},{"bike_id":"42aa7fb1-aef2-41d6-82dd-b1dab13eac2b","system_id":"levelo_inurba_marseille","lat":43.303184,"lon":5.404346,"is_reserved":false,"is_disabled":false,"rental_uris":{"android":"levelo://app?vid=42aa7fb1-aef2-41d6-82dd-b1dab13eac2b","ios":"levelo://app?vid=42aa7fb1-aef2-41d6-82dd-b1dab13eac2b"},"vehicle_type_id":"4","last_reported":1768324693,"current_range_meters":2800,"station_id":"ce4bh012rcd13ifvqd10","pricing_plan_id":"cebpf4jnsgd1na2vs0mg"},{"bike_id":"abef1457-2c7f-4b2b-98cd-bb4b5da694eb","system_id":"levelo_inurba_marseille","lat":43.31763,"lon":5.39027,"is_reserved":false,"is_disabled":false,"rental_uris":{"android":"levelo://app?vid=abef1457-2c7f-4b2b-98cd-bb4b5da694eb","ios":"levelo://app?vid=abef1457-2c7f-4b2b-98cd-bb4b5da694eb"},"vehicle_type_id":"4","last_reported":1768324693,"current_range_meters":2800,"station_id":"ce4bhqp2rcd13ifvqhng","pricing_plan_id":"cebpf4jnsgd1na2vs0mg"},{"bike_id":"fb9f796c-fb12-45e2-b876-3e3a9fa6352d","system_id":"levelo_inurba_marseille","lat":43.27995,"lon":5.41669,"is_reserved":false,"is_disabled":false,"rental_uris":{"android":"levelo://app?vid=fb9f796c-fb12-45e2-b876-3e3a9fa6352d","ios":"levelo://app?vid=fb9f796c-fb12-45e2-b876-3e3a9fa6352d"},"vehicle_type_id":"4","last_reported":1768324693,"current_range_meters":2800,"station_id":"ce4bho12rcd13ifvqh1g","pricing_plan_id":"cebpf4jnsgd1na2vs0mg"},{"bike_id":"08e0291f-e401-49f1-9b53-f82780a7b393","system_id":"levelo_inurba_marseille","lat":43.28339,"lon":5.38105,"is_reserved":false,"is_disabled":false,"rental_uris":{"android":"levelo://app?vid=08e0291f-e401-49f1-9b53-f82780a7b393","ios":"levelo://app?vid=08e0291f-e401-49f1-9b53-f82780a7b393"},"vehicle_type_id":"4","last_reported":1768324693,"current_range_meters":2800,"station_id":"ce4bh412rcd13ifvqdr0","pricing_plan_id":"cebpf4jnsgd1na2vs0mg"},{"bike_id":"3e6e857e-44a4-43cb-b7bd-1bdbecc8bb0c","system_id":"levelo_inurba_marseille","lat":43.3017,"lon":5.37114,"is_reserved":false,"is_disabled":false,"rental_uris":{"android":"levelo://app?vid=3e6e857e-44a4-43cb-b7bd-1bdbecc8bb0c","ios":"levelo://app?vid=3e6e857e-44a4-43cb-b7bd-1bdbecc8bb0c"},"vehicle_type_id":"4","last_reported":1768324693,"current_range_meters":3200,"station_id":"","pricing_plan_id":"cebpf4jnsgd1na2vs0mg"},{"bike_id":"e64de5c8-c429-4d9e-853a-793e735e5e70","system_id":"levelo_inurba_marseille","lat":43.29971,"lon":5.41327,"is_reserved":false,"is_disabled":false,"rental_uris":{"android":"levelo://app?vid=e64de5c8-c429-4d9e-853a-793e735e5e70","ios":"levelo://app?vid=e64de5c8-c429-4d9e-853a-793e735e5e70"},"vehicle_type_id":"4","last_reported":1768324693,"current_range_meters":3200,"station_id":"ce4bhp12rcd13ifvqh9g","pricing_plan_id":"cebpf4jnsgd1na2vs0mg"},{"bike_id":"ca512b58-0143-4308-b521-6de6ada4b55b","system_id":"levelo_inurba_marseille","lat":43.30561,"lon":5.365546,"is_reserved":false,"is_disabled":false,"rental_uris":{"android":"levelo://app?vid=ca512b58-0143-4308-b521-6de6ada4b55b","ios":"levelo://app?vid=ca512b58-0143-4308-b521-6de6ada4b55b"},"vehicle_type_id":"4","last_reported":1768324693,"current_range_meters":3200,"station_id":"ce4bgs12rcd13ifvqcag","pricing_plan_id":"cebpf4jnsgd1na2vs0mg"},{"bike_id":"57011a74-0c32-42bc-9899-fdfd84c9d05c","system_id":"levelo_inurba_marseille","lat":43.2481,"lon":5.3746,"is_reserved":false,"is_disabled":false,"rental_uris":{"android":"levelo://app?vid=57011a74-0c32-42bc-9899-fdfd84c9d05c","ios":"levelo://app?vid=57011a74-0c32-42bc-9899-fdfd84c9d05c"},"vehicle_type_id":"4","last_reported":1768324693,"current_range_meters":3200,"station_id":"ce4bhgh2rcd13ifvqfb0","pricing_plan_id":"cebpf4jnsgd1na2vs0mg"},{"bike_id":"8da79344-4a94-4a75-9ed3-85feb88e649a","system_id":"levelo_inurba_marseille","lat":43.30548,"lon":5.36559,"is_reserved":false,"is_disabled":false,"rental_uris":{"android":"levelo://app?vid=8da79344-4a94-4a75-9ed3-85feb88e649a","ios":"levelo://app?vid=8da79344-4a94-4a75-9ed3-85feb88e649a"},"vehicle_type_id":"4","last_reported":1768324693,"current_range_meters":3200,"station_id":"ce4bgs12rcd13ifvqcag","pricing_plan_id":"cebpf4jnsgd1na2vs0mg"},{"bike_id":"017368ae-a8ef-4ad6-bc9a-d16935d6312f","system_id":"levelo_inurba_marseille","lat":43.2353,"lon":5.35948,"is_reserved":false,"is_disabled":false,"rental_uris":{"android":"levelo://app?vid=017368ae-a8ef-4ad6-bc9a-d16935d6312f","ios":"levelo://app?vid=017368ae-a8ef-4ad6-bc9a-d16935d6312f"},"vehicle_type_id":"4","last_reported":1768324693,"current_range_meters":3200,"station_id":"","pricing_plan_id":"cebpf4jnsgd1na2vs0mg"},{"bike_id":"232ad3be-6df5-405a-a3b4-07ee6a984dfb","system_id":"levelo_inurba_marseille","lat":43.329007,"lon":5.389512,"is_reserved":false,"is_disabled":false,"rental_uris":{"android":"levelo://app?vid=232ad3be-6df5-405a-a3b4-07ee6a984dfb","ios":"levelo://app?vid=232ad3be-6df5-405a-a3b4-07ee6a984dfb"},"vehicle_type_id":"4","last_reported":1768324693,"current_range_meters":3200,"station_id":"","pricing_plan_id":"cebpf4jnsgd1na2vs0mg"},{"bike_id":"4470ee29-c1d9-4cd5-b86f-e144152a5653","system_id":"levelo_inurba_marseille","lat":43.2821,"lon":5.40373,"is_reserved":false,"is_disabled":false,"rental_uris":{"android":"levelo://app?vid=4470ee29-c1d9-4cd5-b86f-e144152a5653","ios":"levelo://app?vid=4470ee29-c1d9-4cd5-b86f-e144152a5653"},"vehicle_type_id":"4","last_reported":1768324693,"current_range_meters":3200,"station_id":"","pricing_plan_id":"cebpf4jnsgd1na2vs0mg"},{"bike_id":"3ae0c06d-a2ab-49c7-b39f-1a85ce1aa14c","system_id":"levelo_inurba_marseille","lat":43.28857,"lon":5.42514,"is_reserved":false,"is_disabled":false,"rental_uris":{"android":"levelo://app?vid=3ae0c06d-a2ab-49c7-b39f-1a85ce1aa14c","ios":"levelo://app?vid=3ae0c06d-a2ab-49c7-b39f-1a85ce1aa14c"},"vehicle_type_id":"4","last_reported":1768324693,"current_range_meters":3200,"station_id":"st_d3b462108ojc7389ooeg","pricing_plan_id":"cebpf4jnsgd1na2vs0mg"},{"bike_id":"19cf4836-8dc0-4d4b-a30b-cc7133de4342","system_id":"levelo_inurba_marseille","lat":43.26064,"lon":5.3939,"is_reserved":false,"is_disabled":false,"rental_uris":{"android":"levelo://app?vid=19cf4836-8dc0-4d4b-a30b-cc7133de4342","ios":"levelo://app?vid=19cf4836-8dc0-4d4b-a30b-cc7133de4342"},"vehicle_type_id":"4","last_reported":1768324693,"current_range_meters":3200,"station_id":"ce4bhh92rcd13ifvqfj0","pricing_plan_id":"cebpf4jnsgd1na2vs0mg"},{"bike_id":"ac44f60b-fca5-4f47-962f-c0f2dcb19314","system_id":"levelo_inurba_marseille","lat":43.26508,"lon":5.39541,"is_reserved":false,"is_disabled":false,"rental_uris":{"android":"levelo://app?vid=ac44f60b-fca5-4f47-962f-c0f2dcb19314","ios":"levelo://app?vid=ac44f60b-fca5-4f47-962f-c0f2dcb19314"},"vehicle_type_id":"4","last_reported":1768324693,"current_range_meters":3200,"station_id":"ce4bhi12rcd13ifvqfq0","pricing_plan_id":"cebpf4jnsgd1na2vs0mg"},{"bike_id":"6fd5ea2a-b784-4e61-aa72-a29b439cc63f","system_id":"levelo_inurba_marseille","lat":43.25335,"lon":5.42181,"is_reserved":false,"is_disabled":false,"rental_uris":{"android":"levelo://app?vid=6fd5ea2a-b784-4e61-aa72-a29b439cc63f","ios":"levelo://app?vid=6fd5ea2a-b784-4e61-aa72-a29b439cc63f"},"vehicle_type_id":"4","last_reported":1768324693,"current_range_meters":3200,"station_id":"st_d2m65c5bi1j21697t3ng","pricing_plan_id":"cebpf4jnsgd1na2vs0mg"},{"bike_id":"57f44e60-8154-4fa5-ae07-99b975dbea41","system_id":"levelo_inurba_marseille","lat":43.29537,"lon":5.39028,"is_reserved":false,"is_disabled":false,"rental_uris":{"android":"levelo://app?vid=57f44e60-8154-4fa5-ae07-99b975dbea41","ios":"levelo://app?vid=57f44e60-8154-4fa5-ae07-99b975dbea41"},"vehicle_type_id":"4","last_reported":1768324693,"current_range_meters":3600,"station_id":"ce4bh3p2rcd13ifvqdp0","pricing_plan_id":"cebpf4jnsgd1na2vs0mg"},{"bike_id":"4ccf5df6-38fa-46c4-ae58-5671706983df","system_id":"levelo_inurba_marseille","lat":43.32345,"lon":5.36745,"is_reserved":false,"is_disabled":false,"rental_uris":{"android":"levelo://app?vid=4ccf5df6-38fa-46c4-ae58-5671706983df","ios":"levelo://app?vid=4ccf5df6-38fa-46c4-ae58-5671706983df"},"vehicle_type_id":"4","last_reported":1768324693,"current_range_meters":3600,"station_id":"ce4bhsh2rcd13ifvqi2g","pricing_plan_id":"cebpf4jnsgd1na2vs0mg"},{"bike_id":"82b87168-267f-432c-a609-70f7b40ac901","system_id":"levelo_inurba_marseille","lat":43.27945,"lon":5.41031,"is_reserved":false,"is_disabled":false,"rental_uris":{"android":"levelo://app?vid=82b87168-267f-432c-a609-70f7b40ac901","ios":"levelo://app?vid=82b87168-267f-432c-a609-70f7b40ac901"},"vehicle_type_id":"4","last_reported":1768324693,"current_range_meters":3600,"station_id":"","pricing_plan_id":"cebpf4jnsgd1na2vs0mg"},{"bike_id":"93beefeb-bae2-44e6-b1e7-4e0bc7c2456a","system_id":"levelo_inurba_marseille","lat":43.27619,"lon":5.36106,"is_reserved":false,"is_disabled":false,"rental_uris":{"android":"levelo://app?vid=93beefeb-bae2-44e6-b1e7-4e0bc7c2456a","ios":"levelo://app?vid=93beefeb-bae2-44e6-b1e7-4e0bc7c2456a"},"vehicle_type_id":"4","last_reported":1768324693,"current_range_meters":3600,"station_id":"ce4bgj92rcd13ifvqbe0","pricing_plan_id":"cebpf4jnsgd1na2vs0mg"},{"bike_id":"2dad8955-6910-4131-8def-de70399b7eb8","system_id":"levelo_inurba_marseille","lat":43.29969,"lon":5.37342,"is_reserved":false,"is_disabled":false,"rental_uris":{"android":"levelo://app?vid=2dad8955-6910-4131-8def-de70399b7eb8","ios":"levelo://app?vid=2dad8955-6910-4131-8def-de70399b7eb8"},"vehicle_type_id":"4","last_reported":1768324693,"current_range_meters":3600,"station_id":"","pricing_plan_id":"cebpf4jnsgd1na2vs0mg"},{"bike_id":"24fc37fd-357c-4a91-9e14-c0484892cf8d","system_id":"levelo_inurba_marseille","lat":43.29858,"lon":5.40916,"is_reserved":false,"is_disabled":false,"rental_uris":{"android":"levelo://app?vid=24fc37fd-357c-4a91-9e14-c0484892cf8d","ios":"levelo://app?vid=24fc37fd-357c-4a91-9e14-c0484892cf8d"},"vehicle_type_id":"4","last_reported":1768324693,"current_range_meters":3600,"station_id":"","pricing_plan_id":"cebpf4jnsgd1na2vs0mg"},{"bike_id":"a95f51b4-f0ea-4753-9f15-e2c2ed48d66b","system_id":"levelo_inurba_marseille","lat":43.28552,"lon":5.44078,"is_reserved":false,"is_disabled":false,"rental_uris":{"android":"levelo://app?vid=a95f51b4-f0ea-4753-9f15-e2c2ed48d66b","ios":"levelo://app?vid=a95f51b4-f0ea-4753-9f15-e2c2ed48d66b"},"vehicle_type_id":"4","last_reported":1768324693,"current_range_meters":3600,"station_id":"st_d3j3df2ikq2c7380ej80","pricing_plan_id":"cebpf4jnsgd1na2vs0mg"},{"bike_id":"3c14d489-121d-4a54-8874-efc1f24711c4","system_id":"levelo_inurba_marseille","lat":43.280907,"lon":5.368881,"is_reserved":false,"is_disabled":false,"rental_uris":{"android":"levelo://app?vid=3c14d489-121d-4a54-8874-efc1f24711c4","ios":"levelo://app?vid=3c14d489-121d-4a54-8874-efc1f24711c4"},"vehicle_type_id":"4","last_reported":1768324693,"current_range_meters":3600,"station_id":"ce4bha12rcd13ifvqef0","pricing_plan_id":"cebpf4jnsgd1na2vs0mg"},{"bike_id":"e63df9e0-af8f-4554-a6e1-61250e5af1c1","system_id":"levelo_inurba_marseille","lat":43.23186,"lon":5.3998,"is_reserved":false,"is_disabled":false,"rental_uris":{"android":"levelo://app?vid=e63df9e0-af8f-4554-a6e1-61250e5af1c1","ios":"levelo://app?vid=e63df9e0-af8f-4554-a6e1-61250e5af1c1"},"vehicle_type_id":"4","last_reported":1768324693,"current_range_meters":3600,"station_id":"ce4bhn12rcd13ifvqgqg","pricing_plan_id":"cebpf4jnsgd1na2vs0mg"},{"bike_id":"6f5c86d7-8c36-4ead-b1d2-3d3a9e1b6c34","system_id":"levelo_inurba_marseille","lat":43.301302,"lon":5.398763,"is_reserved":false,"is_disabled":false,"rental_uris":{"android":"levelo://app?vid=6f5c86d7-8c36-4ead-b1d2-3d3a9e1b6c34","ios":"levelo://app?vid=6f5c86d7-8c36-4ead-b1d2-3d3a9e1b6c34"},"vehicle_type_id":"4","last_reported":1768324693,"current_range_meters":3600,"station_id":"ce4bh0h2rcd13ifvqd40","pricing_plan_id":"cebpf4jnsgd1na2vs0mg"},{"bike_id":"871d14d1-7347-45ba-9313-38e2bb286809","system_id":"levelo_inurba_marseille","lat":43.26191,"lon":5.37451,"is_reserved":false,"is_disabled":false,"rental_uris":{"android":"levelo://app?vid=871d14d1-7347-45ba-9313-38e2bb286809","ios":"levelo://app?vid=871d14d1-7347-45ba-9313-38e2bb286809"},"vehicle_type_id":"4","last_reported":1768324693,"current_range_meters":3600,"station_id":"ce4bhgp2rcd13ifvqfc0","pricing_plan_id":"cebpf4jnsgd1na2vs0mg"},{"bike_id":"3230873c-fc31-45b7-9508-aee7786321e1","system_id":"levelo_inurba_marseille","lat":43.32694,"lon":5.39555,"is_reserved":false,"is_disabled":false,"rental_uris":{"android":"levelo://app?vid=3230873c-fc31-45b7-9508-aee7786321e1","ios":"levelo://app?vid=3230873c-fc31-45b7-9508-aee7786321e1"},"vehicle_type_id":"4","last_reported":1768324693,"current_range_meters":3600,"station_id":"","pricing_plan_id":"cebpf4jnsgd1na2vs0mg"},{"bike_id":"7ec151be-34e4-4456-9017-2d1fd4c02f90","system_id":"levelo_inurba_marseille","lat":43.26563,"lon":5.39004,"is_reserved":false,"is_disabled":false,"rental_uris":{"android":"levelo://app?vid=7ec151be-34e4-4456-9017-2d1fd4c02f90","ios":"levelo://app?vid=7ec151be-34e4-4456-9017-2d1fd4c02f90"},"vehicle_type_id":"4","last_reported":1768324693,"current_range_meters":3600,"station_id":"ce4bhe12rcd13ifvqf30","pricing_plan_id":"cebpf4jnsgd1na2vs0mg"},{"bike_id":"78b5fcef-eb69-4bb9-b995-d031358bd549","system_id":"levelo_inurba_marseille","lat":43.31511,"lon":5.41401,"is_reserved":false,"is_disabled":false,"rental_uris":{"android":"levelo://app?vid=78b5fcef-eb69-4bb9-b995-d031358bd549","ios":"levelo://app?vid=78b5fcef-eb69-4bb9-b995-d031358bd549"},"vehicle_type_id":"4","last_reported":1768324693,"current_range_meters":3600,"station_id":"","pricing_plan_id":"cebpf4jnsgd1na2vs0mg"},{"bike_id":"311bb4ac-69d9-4d37-a659-59f24aa88d68","system_id":"levelo_inurba_marseille","lat":43.294981,"lon":5.387388,"is_reserved":false,"is_disabled":false,"rental_uris":{"android":"levelo://app?vid=311bb4ac-69d9-4d37-a659-59f24aa88d68","ios":"levelo://app?vid=311bb4ac-69d9-4d37-a659-59f24aa88d68"},"vehicle_type_id":"4","last_reported":1768324693,"current_range_meters":4000,"station_id":"ce4bh3p2rcd13ifvqdp0","pricing_plan_id":"cebpf4jnsgd1na2vs0mg"},{"bike_id":"04ec84f1-706e-4524-95a4-7d82b4caa1ab","system_id":"levelo_inurba_marseille","lat":43.29494,"lon":5.43309,"is_reserved":false,"is_disabled":false,"rental_uris":{"android":"levelo://app?vid=04ec84f1-706e-4524-95a4-7d82b4caa1ab","ios":"levelo://app?vid=04ec84f1-706e-4524-95a4-7d82b4caa1ab"},"vehicle_type_id":"4","last_reported":1768324693,"current_range_meters":4000,"station_id":"st_d3j5ugp08ojc73fj9d10","pricing_plan_id":"cebpf4jnsgd1na2vs0mg"},{"bike_id":"91f830b5-135b-4e75-8a53-49de6ef86e8b","system_id":"levelo_inurba_marseille","lat":43.309352,"lon":5.39026,"is_reserved":false,"is_disabled":false,"rental_uris":{"android":"levelo://app?vid=91f830b5-135b-4e75-8a53-49de6ef86e8b","ios":"levelo://app?vid=91f830b5-135b-4e75-8a53-49de6ef86e8b"},"vehicle_type_id":"4","last_reported":1768324693,"current_range_meters":4000,"station_id":"","pricing_plan_id":"cebpf4jnsgd1na2vs0mg"},{"bike_id":"0ca727f1-22a9-4d29-b4b0-403b274e760f","system_id":"levelo_inurba_marseille","lat":43.2954,"lon":5.3854,"is_reserved":false,"is_disabled":false,"rental_uris":{"android":"levelo://app?vid=0ca727f1-22a9-4d29-b4b0-403b274e760f","ios":"levelo://app?vid=0ca727f1-22a9-4d29-b4b0-403b274e760f"},"vehicle_type_id":"4","last_reported":1768324693,"current_range_meters":4000,"station_id":"ce4bgih2rcd13ifvqba0","pricing_plan_id":"cebpf4jnsgd1na2vs0mg"},{"bike_id":"90374415-cbc3-4952-a2cb-bda17d2a3e8f","system_id":"levelo_inurba_marseille","lat":43.31329,"lon":5.38424,"is_reserved":false,"is_disabled":false,"rental_uris":{"android":"levelo://app?vid=90374415-cbc3-4952-a2cb-bda17d2a3e8f","ios":"levelo://app?vid=90374415-cbc3-4952-a2cb-bda17d2a3e8f"},"vehicle_type_id":"4","last_reported":1768324693,"current_range_meters":4000,"station_id":"","pricing_plan_id":"cebpf4jnsgd1na2vs0mg"},{"bike_id":"533cb83c-e8dd-42bc-9375-30430a43b393","system_id":"levelo_inurba_marseille","lat":43.255133,"lon":5.376519,"is_reserved":false,"is_disabled":false,"rental_uris":{"android":"levelo://app?vid=533cb83c-e8dd-42bc-9375-30430a43b393","ios":"levelo://app?vid=533cb83c-e8dd-42bc-9375-30430a43b393"},"vehicle_type_id":"4","last_reported":1768324693,"current_range_meters":4000,"station_id":"ce4bhh12rcd13ifvqff0","pricing_plan_id":"cebpf4jnsgd1na2vs0mg"},{"bike_id":"829b4dfc-f5b2-4ad0-a42d-896237842994","system_id":"levelo_inurba_marseille","lat":43.28483,"lon":5.48396,"is_reserved":false,"is_disabled":false,"rental_uris":{"android":"levelo://app?vid=829b4dfc-f5b2-4ad0-a42d-896237842994","ios":"levelo://app?vid=829b4dfc-f5b2-4ad0-a42d-896237842994"},"vehicle_type_id":"4","last_reported":1768324693,"current_range_meters":4000,"station_id":"","pricing_plan_id":"cebpf4jnsgd1na2vs0mg"},{"bike_id":"b3365a79-4e93-4ced-801f-9c3754c77da0","system_id":"levelo_inurba_marseille","lat":43.24406,"lon":5.37076,"is_reserved":false,"is_disabled":false,"rental_uris":{"android":"levelo://app?vid=b3365a79-4e93-4ced-801f-9c3754c77da0","ios":"levelo://app?vid=b3365a79-4e93-4ced-801f-9c3754c77da0"},"vehicle_type_id":"4","last_reported":1768324693,"current_range_meters":4000,"station_id":"ce4bhhh2rcd13ifvqfk0","pricing_plan_id":"cebpf4jnsgd1na2vs0mg"},{"bike_id":"e49eaf50-631d-4b12-872a-cbc86a9317d1","system_id":"levelo_inurba_marseille","lat":43.31328,"lon":5.39686,"is_reserved":false,"is_disabled":false,"rental_uris":{"android":"levelo://app?vid=e49eaf50-631d-4b12-872a-cbc86a9317d1","ios":"levelo://app?vid=e49eaf50-631d-4b12-872a-cbc86a9317d1"},"vehicle_type_id":"4","last_reported":1768324693,"current_range_meters":4000,"station_id":"ce4bgvp2rcd13ifvqcu0","pricing_plan_id":"cebpf4jnsgd1na2vs0mg"},{"bike_id":"5cd0348c-c053-42c0-b52c-0fd30637dd40","system_id":"levelo_inurba_marseille","lat":43.29898,"lon":5.37797,"is_reserved":false,"is_disabled":false,"rental_uris":{"android":"levelo://app?vid=5cd0348c-c053-42c0-b52c-0fd30637dd40","ios":"levelo://app?vid=5cd0348c-c053-42c0-b52c-0fd30637dd40"},"vehicle_type_id":"4","last_reported":1768324693,"current_range_meters":4000,"station_id":"","pricing_plan_id":"cebpf4jnsgd1na2vs0mg"},{"bike_id":"d4303ae3-b545-4cab-b8be-e17096953c04","system_id":"levelo_inurba_marseille","lat":43.30143,"lon":5.3741,"is_reserved":false,"is_disabled":false,"rental_uris":{"android":"levelo://app?vid=d4303ae3-b545-4cab-b8be-e17096953c04","ios":"levelo://app?vid=d4303ae3-b545-4cab-b8be-e17096953c04"},"vehicle_type_id":"4","last_reported":1768324693,"current_range_meters":4000,"station_id":"ce4bgs92rcd13ifvqcc0","pricing_plan_id":"cebpf4jnsgd1na2vs0mg"},{"bike_id":"c09699c4-36dc-4c20-b8d2-b0787f1c0dba","system_id":"levelo_inurba_marseille","lat":43.30642,"lon":5.40078,"is_reserved":false,"is_disabled":false,"rental_uris":{"android":"levelo://app?vid=c09699c4-36dc-4c20-b8d2-b0787f1c0dba","ios":"levelo://app?vid=c09699c4-36dc-4c20-b8d2-b0787f1c0dba"},"vehicle_type_id":"4","last_reported":1768324693,"current_range_meters":4000,"station_id":"ce4bh112rcd13ifvqda0","pricing_plan_id":"cebpf4jnsgd1na2vs0mg"},{"bike_id":"50d6cb25-e8c5-49dd-88b4-e56e19cdc111","system_id":"levelo_inurba_marseille","lat":43.29047,"lon":5.37065,"is_reserved":false,"is_disabled":false,"rental_uris":{"android":"levelo://app?vid=50d6cb25-e8c5-49dd-88b4-e56e19cdc111","ios":"levelo://app?vid=50d6cb25-e8c5-49dd-88b4-e56e19cdc111"},"vehicle_type_id":"4","last_reported":1768324693,"current_range_meters":4000,"station_id":"","pricing_plan_id":"cebpf4jnsgd1na2vs0mg"},{"bike_id":"6f6626df-123f-4763-b93f-1ea4c5d5f32e","system_id":"levelo_inurba_marseille","lat":43.24067,"lon":5.37731,"is_reserved":false,"is_disabled":true,"rental_uris":{"android":"levelo://app?vid=6f6626df-123f-4763-b93f-1ea4c5d5f32e","ios":"levelo://app?vid=6f6626df-123f-4763-b93f-1ea4c5d5f32e"},"vehicle_type_id":"4","last_reported":1768324693,"current_range_meters":4000,"station_id":"ce4bhnp2rcd13ifvqgvg","pricing_plan_id":"cebpf4jnsgd1na2vs0mg"},{"bike_id":"01945cdd-0088-40c1-b968-9fbb65d75a3a","system_id":"levelo_inurba_marseille","lat":43.32119,"lon":5.36767,"is_reserved":false,"is_disabled":false,"rental_uris":{"android":"levelo://app?vid=01945cdd-0088-40c1-b968-9fbb65d75a3a","ios":"levelo://app?vid=01945cdd-0088-40c1-b968-9fbb65d75a3a"},"vehicle_type_id":"4","last_reported":1768324693,"current_range_meters":4000,"station_id":"ce4bhrh2rcd13ifvqhug","pricing_plan_id":"cebpf4jnsgd1na2vs0mg"},{"bike_id":"053203c3-b50f-44b4-9df5-2a6af082b9e9","system_id":"levelo_inurba_marseille","lat":43.246357,"lon":5.431471,"is_reserved":false,"is_disabled":false,"rental_uris":{"android":"levelo://app?vid=053203c3-b50f-44b4-9df5-2a6af082b9e9","ios":"levelo://app?vid=053203c3-b50f-44b4-9df5-2a6af082b9e9"},"vehicle_type_id":"4","last_reported":1768324693,"current_range_meters":4000,"station_id":"st_d2m6c4gdas8pm72e190g","pricing_plan_id":"cebpf4jnsgd1na2vs0mg"},{"bike_id":"46152bd7-5aa6-477a-9fcc-6a3940f95a27","system_id":"levelo_inurba_marseille","lat":43.26228,"lon":5.40475,"is_reserved":false,"is_disabled":false,"rental_uris":{"android":"levelo://app?vid=46152bd7-5aa6-477a-9fcc-6a3940f95a27","ios":"levelo://app?vid=46152bd7-5aa6-477a-9fcc-6a3940f95a27"},"vehicle_type_id":"4","last_reported":1768324693,"current_range_meters":4000,"station_id":"ce4bhmh2rcd13ifvqgmg","pricing_plan_id":"cebpf4jnsgd1na2vs0mg"},{"bike_id":"01a7ee90-aa38-4595-9821-dc1953f186ec","system_id":"levelo_inurba_marseille","lat":43.31088,"lon":5.38301,"is_reserved":false,"is_disabled":false,"rental_uris":{"android":"levelo://app?vid=01a7ee90-aa38-4595-9821-dc1953f186ec","ios":"levelo://app?vid=01a7ee90-aa38-4595-9821-dc1953f186ec"},"vehicle_type_id":"4","last_reported":1768324693,"current_range_meters":4000,"station_id":"ce4bgv92rcd13ifvqcr0","pricing_plan_id":"cebpf4jnsgd1na2vs0mg"},{"bike_id":"e550fc9a-3d68-4b17-9669-6894900f7416","system_id":"levelo_inurba_marseille","lat":43.30653,"lon":5.40508,"is_reserved":false,"is_disabled":false,"rental_uris":{"android":"levelo://app?vid=e550fc9a-3d68-4b17-9669-6894900f7416","ios":"levelo://app?vid=e550fc9a-3d68-4b17-9669-6894900f7416"},"vehicle_type_id":"4","last_reported":1768324693,"current_range_meters":4000,"station_id":"ce4bh112rcd13ifvqda0","pricing_plan_id":"cebpf4jnsgd1na2vs0mg"},{"bike_id":"fcc631d1-df94-4f25-9fad-22f1bede125e","system_id":"levelo_inurba_marseille","lat":43.28544,"lon":5.44109,"is_reserved":false,"is_disabled":false,"rental_uris":{"android":"levelo://app?vid=fcc631d1-df94-4f25-9fad-22f1bede125e","ios":"levelo://app?vid=fcc631d1-df94-4f25-9fad-22f1bede125e"},"vehicle_type_id":"4","last_reported":1768324693,"current_range_meters":4000,"station_id":"st_d3j3df2ikq2c7380ej80","pricing_plan_id":"cebpf4jnsgd1na2vs0mg"},{"bike_id":"93420a80-8e35-472b-9a22-41b99ae8b801","system_id":"levelo_inurba_marseille","lat":43.2417,"lon":5.36399,"is_reserved":false,"is_disabled":false,"rental_uris":{"android":"levelo://app?vid=93420a80-8e35-472b-9a22-41b99ae8b801","ios":"levelo://app?vid=93420a80-8e35-472b-9a22-41b99ae8b801"},"vehicle_type_id":"4","last_reported":1768324693,"current_range_meters":4400,"station_id":"cpo36qri1sfpv3e86is0","pricing_plan_id":"cebpf4jnsgd1na2vs0mg"},{"bike_id":"348a7616-c475-4feb-93b6-e7e3eba9b2e9","system_id":"levelo_inurba_marseille","lat":43.24989,"lon":5.38929,"is_reserved":false,"is_disabled":false,"rental_uris":{"android":"levelo://app?vid=348a7616-c475-4feb-93b6-e7e3eba9b2e9","ios":"levelo://app?vid=348a7616-c475-4feb-93b6-e7e3eba9b2e9"},"vehicle_type_id":"4","last_reported":1768324693,"current_range_meters":4400,"station_id":"ce4bhgp2rcd13ifvqfd0","pricing_plan_id":"cebpf4jnsgd1na2vs0mg"},{"bike_id":"1811cc17-769f-4560-9b01-149178416ddb","system_id":"levelo_inurba_marseille","lat":43.29583,"lon":5.39968,"is_reserved":false,"is_disabled":false,"rental_uris":{"android":"levelo://app?vid=1811cc17-769f-4560-9b01-149178416ddb","ios":"levelo://app?vid=1811cc17-769f-4560-9b01-149178416ddb"},"vehicle_type_id":"4","last_reported":1768324693,"current_range_meters":4400,"station_id":"ce4bh312rcd13ifvqdj0","pricing_plan_id":"cebpf4jnsgd1na2vs0mg"},{"bike_id":"4abcb135-c51e-4157-8613-45802047af77","system_id":"levelo_inurba_marseille","lat":43.28151,"lon":5.42652,"is_reserved":false,"is_disabled":false,"rental_uris":{"android":"levelo://app?vid=4abcb135-c51e-4157-8613-45802047af77","ios":"levelo://app?vid=4abcb135-c51e-4157-8613-45802047af77"},"vehicle_type_id":"4","last_reported":1768324693,"current_range_meters":4400,"station_id":"ce4bhnh2rcd13ifvqgug","pricing_plan_id":"cebpf4jnsgd1na2vs0mg"},{"bike_id":"1621444e-17e7-4c3c-bee0-067ccd01ec41","system_id":"levelo_inurba_marseille","lat":43.281605,"lon":5.426486,"is_reserved":false,"is_disabled":false,"rental_uris":{"android":"levelo://app?vid=1621444e-17e7-4c3c-bee0-067ccd01ec41","ios":"levelo://app?vid=1621444e-17e7-4c3c-bee0-067ccd01ec41"},"vehicle_type_id":"4","last_reported":1768324693,"current_range_meters":4400,"station_id":"","pricing_plan_id":"cebpf4jnsgd1na2vs0mg"},{"bike_id":"f150262c-5b1e-40fe-b0c1-126256a2bf3e","system_id":"levelo_inurba_marseille","lat":43.29539,"lon":5.38558,"is_reserved":false,"is_disabled":false,"rental_uris":{"android":"levelo://app?vid=f150262c-5b1e-40fe-b0c1-126256a2bf3e","ios":"levelo://app?vid=f150262c-5b1e-40fe-b0c1-126256a2bf3e"},"vehicle_type_id":"4","last_reported":1768324693,"current_range_meters":4400,"station_id":"ce4bgih2rcd13ifvqba0","pricing_plan_id":"cebpf4jnsgd1na2vs0mg"},{"bike_id":"d926f6df-bb6d-4c22-9c30-1d92a2769c5e","system_id":"levelo_inurba_marseille","lat":43.22931,"lon":5.35378,"is_reserved":false,"is_disabled":false,"rental_uris":{"android":"levelo://app?vid=d926f6df-bb6d-4c22-9c30-1d92a2769c5e","ios":"levelo://app?vid=d926f6df-bb6d-4c22-9c30-1d92a2769c5e"},"vehicle_type_id":"4","last_reported":1768324693,"current_range_meters":4400,"station_id":"cpo3532slgdg3j2ikp40","pricing_plan_id":"cebpf4jnsgd1na2vs0mg"},{"bike_id":"a17d62d1-97c6-43d7-b58e-3d79a72fd6cd","system_id":"levelo_inurba_marseille","lat":43.30538,"lon":5.36535,"is_reserved":false,"is_disabled":false,"rental_uris":{"android":"levelo://app?vid=a17d62d1-97c6-43d7-b58e-3d79a72fd6cd","ios":"levelo://app?vid=a17d62d1-97c6-43d7-b58e-3d79a72fd6cd"},"vehicle_type_id":"4","last_reported":1768324693,"current_range_meters":4400,"station_id":"ce4bgs12rcd13ifvqcag","pricing_plan_id":"cebpf4jnsgd1na2vs0mg"},{"bike_id":"77648d21-2eba-4733-a182-ee140dc2d61a","system_id":"levelo_inurba_marseille","lat":43.2319,"lon":5.35533,"is_reserved":false,"is_disabled":false,"rental_uris":{"android":"levelo://app?vid=77648d21-2eba-4733-a182-ee140dc2d61a","ios":"levelo://app?vid=77648d21-2eba-4733-a182-ee140dc2d61a"},"vehicle_type_id":"4","last_reported":1768324693,"current_range_meters":4400,"station_id":"ce4bhu92rcd13ifvqi70","pricing_plan_id":"cebpf4jnsgd1na2vs0mg"},{"bike_id":"cd122465-4bd8-4111-a501-746f52ad2f74","system_id":"levelo_inurba_marseille","lat":43.255086,"lon":5.376533,"is_reserved":false,"is_disabled":false,"rental_uris":{"android":"levelo://app?vid=cd122465-4bd8-4111-a501-746f52ad2f74","ios":"levelo://app?vid=cd122465-4bd8-4111-a501-746f52ad2f74"},"vehicle_type_id":"4","last_reported":1768324693,"current_range_meters":4400,"station_id":"ce4bhh12rcd13ifvqff0","pricing_plan_id":"cebpf4jnsgd1na2vs0mg"},{"bike_id":"e9848d02-ee47-4efe-b937-bcd50f309e46","system_id":"levelo_inurba_marseille","lat":43.281566,"lon":5.426511,"is_reserved":false,"is_disabled":false,"rental_uris":{"android":"levelo://app?vid=e9848d02-ee47-4efe-b937-bcd50f309e46","ios":"levelo://app?vid=e9848d02-ee47-4efe-b937-bcd50f309e46"},"vehicle_type_id":"4","last_reported":1768324693,"current_range_meters":4400,"station_id":"ce4bhnh2rcd13ifvqgug","pricing_plan_id":"cebpf4jnsgd1na2vs0mg"},{"bike_id":"e5104f30-0e90-4f22-8c18-b760d2036175","system_id":"levelo_inurba_marseille","lat":43.28399,"lon":5.37515,"is_reserved":false,"is_disabled":false,"rental_uris":{"android":"levelo://app?vid=e5104f30-0e90-4f22-8c18-b760d2036175","ios":"levelo://app?vid=e5104f30-0e90-4f22-8c18-b760d2036175"},"vehicle_type_id":"4","last_reported":1768324693,"current_range_meters":4800,"station_id":"ce4bh412rcd13ifvqds0","pricing_plan_id":"cebpf4jnsgd1na2vs0mg"},{"bike_id":"5ad52785-0823-41c2-87b5-2779a76f0e53","system_id":"levelo_inurba_marseille","lat":43.24613,"lon":5.38385,"is_reserved":false,"is_disabled":false,"rental_uris":{"android":"levelo://app?vid=5ad52785-0823-41c2-87b5-2779a76f0e53","ios":"levelo://app?vid=5ad52785-0823-41c2-87b5-2779a76f0e53"},"vehicle_type_id":"4","last_reported":1768324693,"current_range_meters":4800,"station_id":"","pricing_plan_id":"cebpf4jnsgd1na2vs0mg"},{"bike_id":"f34ce2e5-33b6-4187-bd26-bd7acd5eae89","system_id":"levelo_inurba_marseille","lat":43.26557,"lon":5.37268,"is_reserved":false,"is_disabled":false,"rental_uris":{"android":"levelo://app?vid=f34ce2e5-33b6-4187-bd26-bd7acd5eae89","ios":"levelo://app?vid=f34ce2e5-33b6-4187-bd26-bd7acd5eae89"},"vehicle_type_id":"4","last_reported":1768324693,"current_range_meters":4800,"station_id":"ce4bhg12rcd13ifvqf70","pricing_plan_id":"cebpf4jnsgd1na2vs0mg"},{"bike_id":"0e8bf274-4e41-43de-a66e-ca34f84c602e","system_id":"levelo_inurba_marseille","lat":43.23963,"lon":5.36623,"is_reserved":false,"is_disabled":false,"rental_uris":{"android":"levelo://app?vid=0e8bf274-4e41-43de-a66e-ca34f84c602e","ios":"levelo://app?vid=0e8bf274-4e41-43de-a66e-ca34f84c602e"},"vehicle_type_id":"4","last_reported":1768324693,"current_range_meters":4800,"station_id":"ce4bhi12rcd13ifvqfp0","pricing_plan_id":"cebpf4jnsgd1na2vs0mg"},{"bike_id":"c99e908e-7a32-4d1f-800f-603e38b74fa5","system_id":"levelo_inurba_marseille","lat":43.241593,"lon":5.364043,"is_reserved":false,"is_disabled":false,"rental_uris":{"android":"levelo://app?vid=c99e908e-7a32-4d1f-800f-603e38b74fa5","ios":"levelo://app?vid=c99e908e-7a32-4d1f-800f-603e38b74fa5"},"vehicle_type_id":"4","last_reported":1768324693,"current_range_meters":4800,"station_id":"cpo36qri1sfpv3e86is0","pricing_plan_id":"cebpf4jnsgd1na2vs0mg"},{"bike_id":"5b8302cb-d6a5-4483-b477-0ec5d1c212e3","system_id":"levelo_inurba_marseille","lat":43.25572,"lon":5.38244,"is_reserved":false,"is_disabled":false,"rental_uris":{"android":"levelo://app?vid=5b8302cb-d6a5-4483-b477-0ec5d1c212e3","ios":"levelo://app?vid=5b8302cb-d6a5-4483-b477-0ec5d1c212e3"},"vehicle_type_id":"4","last_reported":1768324693,"current_range_meters":4800,"station_id":"ce4bhih2rcd13ifvqfs0","pricing_plan_id":"cebpf4jnsgd1na2vs0mg"},{"bike_id":"16896211-ae0f-42c9-986d-e536bc0a46ac","system_id":"levelo_inurba_marseille","lat":43.31342,"lon":5.36725,"is_reserved":false,"is_disabled":false,"rental_uris":{"android":"levelo://app?vid=16896211-ae0f-42c9-986d-e536bc0a46ac","ios":"levelo://app?vid=16896211-ae0f-42c9-986d-e536bc0a46ac"},"vehicle_type_id":"4","last_reported":1768324693,"current_range_meters":4800,"station_id":"ce4bgr92rcd13ifvqc6g","pricing_plan_id":"cebpf4jnsgd1na2vs0mg"},{"bike_id":"4763dffb-4781-44e6-a6eb-0462db44ff27","system_id":"levelo_inurba_marseille","lat":43.31056,"lon":5.37174,"is_reserved":false,"is_disabled":false,"rental_uris":{"android":"levelo://app?vid=4763dffb-4781-44e6-a6eb-0462db44ff27","ios":"levelo://app?vid=4763dffb-4781-44e6-a6eb-0462db44ff27"},"vehicle_type_id":"4","last_reported":1768324693,"current_range_meters":4800,"station_id":"st_d4kl2rp97mjs73e7tdfg","pricing_plan_id":"cebpf4jnsgd1na2vs0mg"},{"bike_id":"d4f3bd37-a943-479b-98c1-66fc15a01b59","system_id":"levelo_inurba_marseille","lat":43.32369,"lon":5.36793,"is_reserved":false,"is_disabled":false,"rental_uris":{"android":"levelo://app?vid=d4f3bd37-a943-479b-98c1-66fc15a01b59","ios":"levelo://app?vid=d4f3bd37-a943-479b-98c1-66fc15a01b59"},"vehicle_type_id":"4","last_reported":1768324693,"current_range_meters":4800,"station_id":"ce4bhsh2rcd13ifvqi2g","pricing_plan_id":"cebpf4jnsgd1na2vs0mg"},{"bike_id":"066c6ede-2e00-4b82-b8c4-c24bdc063f22","system_id":"levelo_inurba_marseille","lat":43.23842,"lon":5.36647,"is_reserved":false,"is_disabled":false,"rental_uris":{"android":"levelo://app?vid=066c6ede-2e00-4b82-b8c4-c24bdc063f22","ios":"levelo://app?vid=066c6ede-2e00-4b82-b8c4-c24bdc063f22"},"vehicle_type_id":"4","last_reported":1768324693,"current_range_meters":4800,"station_id":"","pricing_plan_id":"cebpf4jnsgd1na2vs0mg"},{"bike_id":"7bc27fbd-9099-4675-a798-392ca7e832f4","system_id":"levelo_inurba_marseille","lat":43.308,"lon":5.38164,"is_reserved":false,"is_disabled":false,"rental_uris":{"android":"levelo://app?vid=7bc27fbd-9099-4675-a798-392ca7e832f4","ios":"levelo://app?vid=7bc27fbd-9099-4675-a798-392ca7e832f4"},"vehicle_type_id":"4","last_reported":1768324693,"current_range_meters":4800,"station_id":"ce4bgt12rcd13ifvqce0","pricing_plan_id":"cebpf4jnsgd1na2vs0mg"},{"bike_id":"79b7d26a-b25b-4eba-9216-03c39302c739","system_id":"levelo_inurba_marseille","lat":43.269406,"lon":5.402518,"is_reserved":false,"is_disabled":false,"rental_uris":{"android":"levelo://app?vid=79b7d26a-b25b-4eba-9216-03c39302c739","ios":"levelo://app?vid=79b7d26a-b25b-4eba-9216-03c39302c739"},"vehicle_type_id":"4","last_reported":1768324693,"current_range_meters":4800,"station_id":"cjm6bp8fraef2m0cb0m0","pricing_plan_id":"cebpf4jnsgd1na2vs0mg"},{"bike_id":"051f8930-eb11-43f4-816b-0c5c3315e6a4","system_id":"levelo_inurba_marseille","lat":43.26509,"lon":5.39549,"is_reserved":false,"is_disabled":false,"rental_uris":{"android":"levelo://app?vid=051f8930-eb11-43f4-816b-0c5c3315e6a4","ios":"levelo://app?vid=051f8930-eb11-43f4-816b-0c5c3315e6a4"},"vehicle_type_id":"4","last_reported":1768324693,"current_range_meters":4800,"station_id":"ce4bhi12rcd13ifvqfq0","pricing_plan_id":"cebpf4jnsgd1na2vs0mg"},{"bike_id":"679badb2-9a2f-43f1-a335-b73e2a05fc3e","system_id":"levelo_inurba_marseille","lat":43.25575,"lon":5.38226,"is_reserved":false,"is_disabled":false,"rental_uris":{"android":"levelo://app?vid=679badb2-9a2f-43f1-a335-b73e2a05fc3e","ios":"levelo://app?vid=679badb2-9a2f-43f1-a335-b73e2a05fc3e"},"vehicle_type_id":"4","last_reported":1768324693,"current_range_meters":4800,"station_id":"ce4bhih2rcd13ifvqfs0","pricing_plan_id":"cebpf4jnsgd1na2vs0mg"},{"bike_id":"9e3f8b43-110a-4683-808c-c8bd643c9f41","system_id":"levelo_inurba_marseille","lat":43.24157,"lon":5.36393,"is_reserved":false,"is_disabled":false,"rental_uris":{"android":"levelo://app?vid=9e3f8b43-110a-4683-808c-c8bd643c9f41","ios":"levelo://app?vid=9e3f8b43-110a-4683-808c-c8bd643c9f41"},"vehicle_type_id":"4","last_reported":1768324693,"current_range_meters":4800,"station_id":"cpo36qri1sfpv3e86is0","pricing_plan_id":"cebpf4jnsgd1na2vs0mg"},{"bike_id":"affed72c-cd8c-45cc-a144-46145cf4b5be","system_id":"levelo_inurba_marseille","lat":43.2257,"lon":5.41633,"is_reserved":false,"is_disabled":false,"rental_uris":{"android":"levelo://app?vid=affed72c-cd8c-45cc-a144-46145cf4b5be","ios":"levelo://app?vid=affed72c-cd8c-45cc-a144-46145cf4b5be"},"vehicle_type_id":"4","last_reported":1768324693,"current_range_meters":4800,"station_id":"st_d2o4gvlbi1j2169b742g","pricing_plan_id":"cebpf4jnsgd1na2vs0mg"},{"bike_id":"a4ff31bc-1fd3-4aa5-9541-e604d1f4555c","system_id":"levelo_inurba_marseille","lat":43.3013,"lon":5.39882,"is_reserved":false,"is_disabled":false,"rental_uris":{"android":"levelo://app?vid=a4ff31bc-1fd3-4aa5-9541-e604d1f4555c","ios":"levelo://app?vid=a4ff31bc-1fd3-4aa5-9541-e604d1f4555c"},"vehicle_type_id":"4","last_reported":1768324693,"current_range_meters":5600,"station_id":"ce4bh0h2rcd13ifvqd40","pricing_plan_id":"cebpf4jnsgd1na2vs0mg"},{"bike_id":"173e874a-bef3-47f8-8f65-3e423bb125d3","system_id":"levelo_inurba_marseille","lat":43.25911,"lon":5.40894,"is_reserved":false,"is_disabled":false,"rental_uris":{"android":"levelo://app?vid=173e874a-bef3-47f8-8f65-3e423bb125d3","ios":"levelo://app?vid=173e874a-bef3-47f8-8f65-3e423bb125d3"},"vehicle_type_id":"4","last_reported":1768324693,"current_range_meters":5600,"station_id":"ce4bhm92rcd13ifvqglg","pricing_plan_id":"cebpf4jnsgd1na2vs0mg"},{"bike_id":"957cb636-bc48-4b50-840f-bd4f72ba1cbd","system_id":"levelo_inurba_marseille","lat":43.305648,"lon":5.36529,"is_reserved":false,"is_disabled":false,"rental_uris":{"android":"levelo://app?vid=957cb636-bc48-4b50-840f-bd4f72ba1cbd","ios":"levelo://app?vid=957cb636-bc48-4b50-840f-bd4f72ba1cbd"},"vehicle_type_id":"4","last_reported":1768324693,"current_range_meters":5600,"station_id":"ce4bgs12rcd13ifvqcag","pricing_plan_id":"cebpf4jnsgd1na2vs0mg"},{"bike_id":"5f559d1c-e9b8-4811-89ed-fd4590972019","system_id":"levelo_inurba_marseille","lat":43.28825,"lon":5.3584,"is_reserved":false,"is_disabled":false,"rental_uris":{"android":"levelo://app?vid=5f559d1c-e9b8-4811-89ed-fd4590972019","ios":"levelo://app?vid=5f559d1c-e9b8-4811-89ed-fd4590972019"},"vehicle_type_id":"4","last_reported":1768324693,"current_range_meters":5600,"station_id":"ce4bhb12rcd13ifvqem0","pricing_plan_id":"cebpf4jnsgd1na2vs0mg"},{"bike_id":"a0ffd216-f3e6-4a47-8965-98b2dc3c3d76","system_id":"levelo_inurba_marseille","lat":43.24467,"lon":5.42535,"is_reserved":false,"is_disabled":false,"rental_uris":{"android":"levelo://app?vid=a0ffd216-f3e6-4a47-8965-98b2dc3c3d76","ios":"levelo://app?vid=a0ffd216-f3e6-4a47-8965-98b2dc3c3d76"},"vehicle_type_id":"4","last_reported":1768324693,"current_range_meters":5600,"station_id":"st_d4a3vfp97mjs738cd8kg","pricing_plan_id":"cebpf4jnsgd1na2vs0mg"},{"bike_id":"4dddb632-defc-42f3-a2b3-cd2a35fb3c66","system_id":"levelo_inurba_marseille","lat":43.24805,"lon":5.37472,"is_reserved":false,"is_disabled":false,"rental_uris":{"android":"levelo://app?vid=4dddb632-defc-42f3-a2b3-cd2a35fb3c66","ios":"levelo://app?vid=4dddb632-defc-42f3-a2b3-cd2a35fb3c66"},"vehicle_type_id":"4","last_reported":1768324693,"current_range_meters":5600,"station_id":"ce4bhgh2rcd13ifvqfb0","pricing_plan_id":"cebpf4jnsgd1na2vs0mg"},{"bike_id":"45eb2387-a0c2-48ad-925b-0251d018d148","system_id":"levelo_inurba_marseille","lat":43.24663,"lon":5.38156,"is_reserved":false,"is_disabled":false,"rental_uris":{"android":"levelo://app?vid=45eb2387-a0c2-48ad-925b-0251d018d148","ios":"levelo://app?vid=45eb2387-a0c2-48ad-925b-0251d018d148"},"vehicle_type_id":"4","last_reported":1768324693,"current_range_meters":5600,"station_id":"ce4bhih2rcd13ifvqfr0","pricing_plan_id":"cebpf4jnsgd1na2vs0mg"},{"bike_id":"3c91a548-2cc3-4705-ab80-5230129be485","system_id":"levelo_inurba_marseille","lat":43.29831,"lon":5.37655,"is_reserved":false,"is_disabled":false,"rental_uris":{"android":"levelo://app?vid=3c91a548-2cc3-4705-ab80-5230129be485","ios":"levelo://app?vid=3c91a548-2cc3-4705-ab80-5230129be485"},"vehicle_type_id":"4","last_reported":1768324693,"current_range_meters":5600,"station_id":"","pricing_plan_id":"cebpf4jnsgd1na2vs0mg"},{"bike_id":"dd19e9c1-5960-4ffe-b7cb-e6afcd8da926","system_id":"levelo_inurba_marseille","lat":43.30162,"lon":5.3742,"is_reserved":false,"is_disabled":false,"rental_uris":{"android":"levelo://app?vid=dd19e9c1-5960-4ffe-b7cb-e6afcd8da926","ios":"levelo://app?vid=dd19e9c1-5960-4ffe-b7cb-e6afcd8da926"},"vehicle_type_id":"4","last_reported":1768324693,"current_range_meters":5600,"station_id":"ce4bgs92rcd13ifvqcc0","pricing_plan_id":"cebpf4jnsgd1na2vs0mg"},{"bike_id":"4c171aec-60f9-4710-8657-317b51a39b9e","system_id":"levelo_inurba_marseille","lat":43.32344,"lon":5.36723,"is_reserved":false,"is_disabled":false,"rental_uris":{"android":"levelo://app?vid=4c171aec-60f9-4710-8657-317b51a39b9e","ios":"levelo://app?vid=4c171aec-60f9-4710-8657-317b51a39b9e"},"vehicle_type_id":"4","last_reported":1768324693,"current_range_meters":5600,"station_id":"ce4bhsh2rcd13ifvqi2g","pricing_plan_id":"cebpf4jnsgd1na2vs0mg"},{"bike_id":"46176179-a00d-401c-94b5-1c9d9288d47b","system_id":"levelo_inurba_marseille","lat":43.27367,"lon":5.36246,"is_reserved":false,"is_disabled":false,"rental_uris":{"android":"levelo://app?vid=46176179-a00d-401c-94b5-1c9d9288d47b","ios":"levelo://app?vid=46176179-a00d-401c-94b5-1c9d9288d47b"},"vehicle_type_id":"4","last_reported":1768324693,"current_range_meters":5600,"station_id":"ce4bhbh2rcd13ifvqeo0","pricing_plan_id":"cebpf4jnsgd1na2vs0mg"},{"bike_id":"614a562d-2005-4cf7-9f04-119c8ed3d172","system_id":"levelo_inurba_marseille","lat":43.293142,"lon":5.372301,"is_reserved":false,"is_disabled":false,"rental_uris":{"android":"levelo://app?vid=614a562d-2005-4cf7-9f04-119c8ed3d172","ios":"levelo://app?vid=614a562d-2005-4cf7-9f04-119c8ed3d172"},"vehicle_type_id":"4","last_reported":1768324693,"current_range_meters":6000,"station_id":"ce4bgh92rcd13ifvqb40","pricing_plan_id":"cebpf4jnsgd1na2vs0mg"},{"bike_id":"e3ce15b4-d8dd-483e-a036-d22dd6a8af02","system_id":"levelo_inurba_marseille","lat":43.31702,"lon":5.40476,"is_reserved":false,"is_disabled":false,"rental_uris":{"android":"levelo://app?vid=e3ce15b4-d8dd-483e-a036-d22dd6a8af02","ios":"levelo://app?vid=e3ce15b4-d8dd-483e-a036-d22dd6a8af02"},"vehicle_type_id":"4","last_reported":1768324693,"current_range_meters":6000,"station_id":"ce4bh012rcd13ifvqd00","pricing_plan_id":"cebpf4jnsgd1na2vs0mg"},{"bike_id":"ba7654d7-92e8-4e9b-a5b9-8f820e72ab5d","system_id":"levelo_inurba_marseille","lat":43.32335,"lon":5.36751,"is_reserved":false,"is_disabled":false,"rental_uris":{"android":"levelo://app?vid=ba7654d7-92e8-4e9b-a5b9-8f820e72ab5d","ios":"levelo://app?vid=ba7654d7-92e8-4e9b-a5b9-8f820e72ab5d"},"vehicle_type_id":"4","last_reported":1768324693,"current_range_meters":6000,"station_id":"ce4bhsh2rcd13ifvqi2g","pricing_plan_id":"cebpf4jnsgd1na2vs0mg"},{"bike_id":"91dbe188-56c8-4fce-a414-d6e43ed9eb6b","system_id":"levelo_inurba_marseille","lat":43.26694,"lon":5.39943,"is_reserved":false,"is_disabled":false,"rental_uris":{"android":"levelo://app?vid=91dbe188-56c8-4fce-a414-d6e43ed9eb6b","ios":"levelo://app?vid=91dbe188-56c8-4fce-a414-d6e43ed9eb6b"},"vehicle_type_id":"4","last_reported":1768324693,"current_range_meters":6000,"station_id":"","pricing_plan_id":"cebpf4jnsgd1na2vs0mg"},{"bike_id":"d188b663-5b1d-4ddb-9fd7-7919a3b342f9","system_id":"levelo_inurba_marseille","lat":43.24807,"lon":5.37455,"is_reserved":false,"is_disabled":false,"rental_uris":{"android":"levelo://app?vid=d188b663-5b1d-4ddb-9fd7-7919a3b342f9","ios":"levelo://app?vid=d188b663-5b1d-4ddb-9fd7-7919a3b342f9"},"vehicle_type_id":"4","last_reported":1768324693,"current_range_meters":6000,"station_id":"ce4bhgh2rcd13ifvqfb0","pricing_plan_id":"cebpf4jnsgd1na2vs0mg"},{"bike_id":"68f52087-7183-44b5-bd6a-c62a53c07856","system_id":"levelo_inurba_marseille","lat":43.30596,"lon":5.39367,"is_reserved":false,"is_disabled":false,"rental_uris":{"android":"levelo://app?vid=68f52087-7183-44b5-bd6a-c62a53c07856","ios":"levelo://app?vid=68f52087-7183-44b5-bd6a-c62a53c07856"},"vehicle_type_id":"4","last_reported":1768324693,"current_range_meters":6000,"station_id":"ce4bh0p2rcd13ifvqd80","pricing_plan_id":"cebpf4jnsgd1na2vs0mg"},{"bike_id":"fcaf08a5-cc42-4f50-8376-7465bb192e73","system_id":"levelo_inurba_marseille","lat":43.2558,"lon":5.38231,"is_reserved":false,"is_disabled":false,"rental_uris":{"android":"levelo://app?vid=fcaf08a5-cc42-4f50-8376-7465bb192e73","ios":"levelo://app?vid=fcaf08a5-cc42-4f50-8376-7465bb192e73"},"vehicle_type_id":"4","last_reported":1768324693,"current_range_meters":6000,"station_id":"ce4bhih2rcd13ifvqfs0","pricing_plan_id":"cebpf4jnsgd1na2vs0mg"},{"bike_id":"479d04b3-091e-4637-ab2f-f901b6f36a36","system_id":"levelo_inurba_marseille","lat":43.24164,"lon":5.36396,"is_reserved":false,"is_disabled":false,"rental_uris":{"android":"levelo://app?vid=479d04b3-091e-4637-ab2f-f901b6f36a36","ios":"levelo://app?vid=479d04b3-091e-4637-ab2f-f901b6f36a36"},"vehicle_type_id":"4","last_reported":1768324693,"current_range_meters":6000,"station_id":"cpo36qri1sfpv3e86is0","pricing_plan_id":"cebpf4jnsgd1na2vs0mg"},{"bike_id":"abcd74ad-91b3-4bfb-baff-2442ed322096","system_id":"levelo_inurba_marseille","lat":43.315151,"lon":5.380328,"is_reserved":false,"is_disabled":false,"rental_uris":{"android":"levelo://app?vid=abcd74ad-91b3-4bfb-baff-2442ed322096","ios":"levelo://app?vid=abcd74ad-91b3-4bfb-baff-2442ed322096"},"vehicle_type_id":"4","last_reported":1768324693,"current_range_meters":6000,"station_id":"ce4bghh2rcd13ifvqb60","pricing_plan_id":"cebpf4jnsgd1na2vs0mg"},{"bike_id":"5af3242c-9133-4734-9374-77f1f4f62acf","system_id":"levelo_inurba_marseille","lat":43.24168,"lon":5.36394,"is_reserved":false,"is_disabled":false,"rental_uris":{"android":"levelo://app?vid=5af3242c-9133-4734-9374-77f1f4f62acf","ios":"levelo://app?vid=5af3242c-9133-4734-9374-77f1f4f62acf"},"vehicle_type_id":"4","last_reported":1768324693,"current_range_meters":6000,"station_id":"cpo36qri1sfpv3e86is0","pricing_plan_id":"cebpf4jnsgd1na2vs0mg"},{"bike_id":"dedc092e-5a64-44c2-8d92-91df13a8a88e","system_id":"levelo_inurba_marseille","lat":43.27817,"lon":5.40691,"is_reserved":false,"is_disabled":false,"rental_uris":{"android":"levelo://app?vid=dedc092e-5a64-44c2-8d92-91df13a8a88e","ios":"levelo://app?vid=dedc092e-5a64-44c2-8d92-91df13a8a88e"},"vehicle_type_id":"4","last_reported":1768324693,"current_range_meters":6000,"station_id":"ce4bhnh2rcd13ifvqgtg","pricing_plan_id":"cebpf4jnsgd1na2vs0mg"},{"bike_id":"f5d19579-dfd3-4245-9a3c-40f0995461f4","system_id":"levelo_inurba_marseille","lat":43.32351,"lon":5.36745,"is_reserved":false,"is_disabled":false,"rental_uris":{"android":"levelo://app?vid=f5d19579-dfd3-4245-9a3c-40f0995461f4","ios":"levelo://app?vid=f5d19579-dfd3-4245-9a3c-40f0995461f4"},"vehicle_type_id":"4","last_reported":1768324693,"current_range_meters":6000,"station_id":"ce4bhsh2rcd13ifvqi2g","pricing_plan_id":"cebpf4jnsgd1na2vs0mg"},{"bike_id":"237139e5-7cf5-40f4-8479-c845f3ba6a43","system_id":"levelo_inurba_marseille","lat":43.29447,"lon":5.38679,"is_reserved":false,"is_disabled":false,"rental_uris":{"android":"levelo://app?vid=237139e5-7cf5-40f4-8479-c845f3ba6a43","ios":"levelo://app?vid=237139e5-7cf5-40f4-8479-c845f3ba6a43"},"vehicle_type_id":"4","last_reported":1768324693,"current_range_meters":6000,"station_id":"","pricing_plan_id":"cebpf4jnsgd1na2vs0mg"},{"bike_id":"fe494ec5-1707-4075-a207-f74162cc93ea","system_id":"levelo_inurba_marseille","lat":43.25339,"lon":5.42174,"is_reserved":false,"is_disabled":false,"rental_uris":{"android":"levelo://app?vid=fe494ec5-1707-4075-a207-f74162cc93ea","ios":"levelo://app?vid=fe494ec5-1707-4075-a207-f74162cc93ea"},"vehicle_type_id":"4","last_reported":1768324693,"current_range_meters":6000,"station_id":"st_d2m65c5bi1j21697t3ng","pricing_plan_id":"cebpf4jnsgd1na2vs0mg"},{"bike_id":"f7edb647-926c-4dfc-a318-e14c8ce272fc","system_id":"levelo_inurba_marseille","lat":43.30559,"lon":5.365,"is_reserved":false,"is_disabled":false,"rental_uris":{"android":"levelo://app?vid=f7edb647-926c-4dfc-a318-e14c8ce272fc","ios":"levelo://app?vid=f7edb647-926c-4dfc-a318-e14c8ce272fc"},"vehicle_type_id":"4","last_reported":1768324693,"current_range_meters":6000,"station_id":"ce4bgs12rcd13ifvqcag","pricing_plan_id":"cebpf4jnsgd1na2vs0mg"},{"bike_id":"b0591438-4f8b-458b-95d3-396e832bb098","system_id":"levelo_inurba_marseille","lat":43.2255,"lon":5.41627,"is_reserved":false,"is_disabled":false,"rental_uris":{"android":"levelo://app?vid=b0591438-4f8b-458b-95d3-396e832bb098","ios":"levelo://app?vid=b0591438-4f8b-458b-95d3-396e832bb098"},"vehicle_type_id":"4","last_reported":1768324693,"current_range_meters":6000,"station_id":"st_d2o4gvlbi1j2169b742g","pricing_plan_id":"cebpf4jnsgd1na2vs0mg"},{"bike_id":"4c68eacc-2d63-41f4-bcd0-18cc9a25ae57","system_id":"levelo_inurba_marseille","lat":43.241701,"lon":5.363947,"is_reserved":false,"is_disabled":false,"rental_uris":{"android":"levelo://app?vid=4c68eacc-2d63-41f4-bcd0-18cc9a25ae57","ios":"levelo://app?vid=4c68eacc-2d63-41f4-bcd0-18cc9a25ae57"},"vehicle_type_id":"4","last_reported":1768324693,"current_range_meters":6000,"station_id":"cpo36qri1sfpv3e86is0","pricing_plan_id":"cebpf4jnsgd1na2vs0mg"},{"bike_id":"a7f7a77e-cd7c-4ae9-b9ec-f6bd59fb2f7c","system_id":"levelo_inurba_marseille","lat":43.29037,"lon":5.37571,"is_reserved":false,"is_disabled":false,"rental_uris":{"android":"levelo://app?vid=a7f7a77e-cd7c-4ae9-b9ec-f6bd59fb2f7c","ios":"levelo://app?vid=a7f7a77e-cd7c-4ae9-b9ec-f6bd59fb2f7c"},"vehicle_type_id":"4","last_reported":1768324693,"current_range_meters":6000,"station_id":"ce4bh692rcd13ifvqe90","pricing_plan_id":"cebpf4jnsgd1na2vs0mg"},{"bike_id":"67ce58c3-2eee-4cf7-bff3-083796327154","system_id":"levelo_inurba_marseille","lat":43.33604,"lon":5.41031,"is_reserved":false,"is_disabled":false,"rental_uris":{"android":"levelo://app?vid=67ce58c3-2eee-4cf7-bff3-083796327154","ios":"levelo://app?vid=67ce58c3-2eee-4cf7-bff3-083796327154"},"vehicle_type_id":"4","last_reported":1768324693,"current_range_meters":6000,"station_id":"ce4bhqh2rcd13ifvqhmg","pricing_plan_id":"cebpf4jnsgd1na2vs0mg"},{"bike_id":"a2d976b2-4930-45bf-896b-10cb61922490","system_id":"levelo_inurba_marseille","lat":43.23191,"lon":5.35566,"is_reserved":false,"is_disabled":false,"rental_uris":{"android":"levelo://app?vid=a2d976b2-4930-45bf-896b-10cb61922490","ios":"levelo://app?vid=a2d976b2-4930-45bf-896b-10cb61922490"},"vehicle_type_id":"4","last_reported":1768324693,"current_range_meters":6000,"station_id":"ce4bhu92rcd13ifvqi70","pricing_plan_id":"cebpf4jnsgd1na2vs0mg"},{"bike_id":"e81eb905-09b1-4753-bb4f-8434dc51b91d","system_id":"levelo_inurba_marseille","lat":43.269348,"lon":5.402569,"is_reserved":false,"is_disabled":false,"rental_uris":{"android":"levelo://app?vid=e81eb905-09b1-4753-bb4f-8434dc51b91d","ios":"levelo://app?vid=e81eb905-09b1-4753-bb4f-8434dc51b91d"},"vehicle_type_id":"4","last_reported":1768324693,"current_range_meters":6400,"station_id":"cjm6bp8fraef2m0cb0m0","pricing_plan_id":"cebpf4jnsgd1na2vs0mg"},{"bike_id":"e2178e60-43ce-428a-92df-da6b04879e3a","system_id":"levelo_inurba_marseille","lat":43.299612,"lon":5.384737,"is_reserved":false,"is_disabled":false,"rental_uris":{"android":"levelo://app?vid=e2178e60-43ce-428a-92df-da6b04879e3a","ios":"levelo://app?vid=e2178e60-43ce-428a-92df-da6b04879e3a"},"vehicle_type_id":"4","last_reported":1768324693,"current_range_meters":6400,"station_id":"","pricing_plan_id":"cebpf4jnsgd1na2vs0mg"},{"bike_id":"9af6439d-78fa-4b0d-a1a0-dc05ff49244a","system_id":"levelo_inurba_marseille","lat":43.23782,"lon":5.36657,"is_reserved":false,"is_disabled":false,"rental_uris":{"android":"levelo://app?vid=9af6439d-78fa-4b0d-a1a0-dc05ff49244a","ios":"levelo://app?vid=9af6439d-78fa-4b0d-a1a0-dc05ff49244a"},"vehicle_type_id":"4","last_reported":1768324693,"current_range_meters":6400,"station_id":"st_d3nk18o9ro0c73en2l3g","pricing_plan_id":"cebpf4jnsgd1na2vs0mg"},{"bike_id":"3db0fcf7-9abc-4be1-b3b7-ce569865437a","system_id":"levelo_inurba_marseille","lat":43.2496,"lon":5.40492,"is_reserved":false,"is_disabled":false,"rental_uris":{"android":"levelo://app?vid=3db0fcf7-9abc-4be1-b3b7-ce569865437a","ios":"levelo://app?vid=3db0fcf7-9abc-4be1-b3b7-ce569865437a"},"vehicle_type_id":"4","last_reported":1768324693,"current_range_meters":6400,"station_id":"st_d2ngiaodas8pm72gd1h0","pricing_plan_id":"cebpf4jnsgd1na2vs0mg"},{"bike_id":"ec3f45dc-a78f-4371-a7aa-03ee60108896","system_id":"levelo_inurba_marseille","lat":43.27196,"lon":5.39159,"is_reserved":false,"is_disabled":false,"rental_uris":{"android":"levelo://app?vid=ec3f45dc-a78f-4371-a7aa-03ee60108896","ios":"levelo://app?vid=ec3f45dc-a78f-4371-a7aa-03ee60108896"},"vehicle_type_id":"4","last_reported":1768324693,"current_range_meters":6400,"station_id":"ce4bhhp2rcd13ifvqfm0","pricing_plan_id":"cebpf4jnsgd1na2vs0mg"},{"bike_id":"36406dc4-d4db-42ea-9e54-90825aaf3b0b","system_id":"levelo_inurba_marseille","lat":43.25337,"lon":5.42178,"is_reserved":false,"is_disabled":false,"rental_uris":{"android":"levelo://app?vid=36406dc4-d4db-42ea-9e54-90825aaf3b0b","ios":"levelo://app?vid=36406dc4-d4db-42ea-9e54-90825aaf3b0b"},"vehicle_type_id":"4","last_reported":1768324693,"current_range_meters":6400,"station_id":"st_d2m65c5bi1j21697t3ng","pricing_plan_id":"cebpf4jnsgd1na2vs0mg"},{"bike_id":"262534e7-f751-4555-b0ed-ca7354ca34d5","system_id":"levelo_inurba_marseille","lat":43.289509,"lon":5.363926,"is_reserved":false,"is_disabled":false,"rental_uris":{"android":"levelo://app?vid=262534e7-f751-4555-b0ed-ca7354ca34d5","ios":"levelo://app?vid=262534e7-f751-4555-b0ed-ca7354ca34d5"},"vehicle_type_id":"4","last_reported":1768324693,"current_range_meters":6400,"station_id":"ce4bhc92rcd13ifvqetg","pricing_plan_id":"cebpf4jnsgd1na2vs0mg"},{"bike_id":"435db267-3d15-44f5-8420-37d50b585844","system_id":"levelo_inurba_marseille","lat":43.29723,"lon":5.37263,"is_reserved":false,"is_disabled":false,"rental_uris":{"android":"levelo://app?vid=435db267-3d15-44f5-8420-37d50b585844","ios":"levelo://app?vid=435db267-3d15-44f5-8420-37d50b585844"},"vehicle_type_id":"4","last_reported":1768324693,"current_range_meters":6400,"station_id":"","pricing_plan_id":"cebpf4jnsgd1na2vs0mg"},{"bike_id":"6f340d65-8a96-4245-a37f-c84a4e9a1d07","system_id":"levelo_inurba_marseille","lat":43.32344,"lon":5.3671,"is_reserved":false,"is_disabled":false,"rental_uris":{"android":"levelo://app?vid=6f340d65-8a96-4245-a37f-c84a4e9a1d07","ios":"levelo://app?vid=6f340d65-8a96-4245-a37f-c84a4e9a1d07"},"vehicle_type_id":"4","last_reported":1768324693,"current_range_meters":6400,"station_id":"ce4bhsh2rcd13ifvqi2g","pricing_plan_id":"cebpf4jnsgd1na2vs0mg"},{"bike_id":"4027d1cb-ad1c-45a8-bf1d-57fe43f8c304","system_id":"levelo_inurba_marseille","lat":43.289812,"lon":5.390483,"is_reserved":false,"is_disabled":false,"rental_uris":{"android":"levelo://app?vid=4027d1cb-ad1c-45a8-bf1d-57fe43f8c304","ios":"levelo://app?vid=4027d1cb-ad1c-45a8-bf1d-57fe43f8c304"},"vehicle_type_id":"4","last_reported":1768324693,"current_range_meters":6400,"station_id":"","pricing_plan_id":"cebpf4jnsgd1na2vs0mg"},{"bike_id":"d97e0ede-3940-40ea-9e91-339dcd403227","system_id":"levelo_inurba_marseille","lat":43.25722,"lon":5.4111,"is_reserved":false,"is_disabled":false,"rental_uris":{"android":"levelo://app?vid=d97e0ede-3940-40ea-9e91-339dcd403227","ios":"levelo://app?vid=d97e0ede-3940-40ea-9e91-339dcd403227"},"vehicle_type_id":"4","last_reported":1768324693,"current_range_meters":6400,"station_id":"ce4bhkp2rcd13ifvqgd0","pricing_plan_id":"cebpf4jnsgd1na2vs0mg"},{"bike_id":"0ad42b42-3a47-4f8a-920d-913c67c5dea6","system_id":"levelo_inurba_marseille","lat":43.29799,"lon":5.38092,"is_reserved":false,"is_disabled":false,"rental_uris":{"android":"levelo://app?vid=0ad42b42-3a47-4f8a-920d-913c67c5dea6","ios":"levelo://app?vid=0ad42b42-3a47-4f8a-920d-913c67c5dea6"},"vehicle_type_id":"4","last_reported":1768324693,"current_range_meters":6400,"station_id":"ce4bgip2rcd13ifvqbb0","pricing_plan_id":"cebpf4jnsgd1na2vs0mg"},{"bike_id":"35849305-954b-4864-bd14-c9f086ede345","system_id":"levelo_inurba_marseille","lat":43.282683,"lon":5.350497,"is_reserved":false,"is_disabled":false,"rental_uris":{"android":"levelo://app?vid=35849305-954b-4864-bd14-c9f086ede345","ios":"levelo://app?vid=35849305-954b-4864-bd14-c9f086ede345"},"vehicle_type_id":"4","last_reported":1768324693,"current_range_meters":6400,"station_id":"ce4bhbp2rcd13ifvqerg","pricing_plan_id":"cebpf4jnsgd1na2vs0mg"},{"bike_id":"d2555695-7aa5-4bb5-9dac-815c0d8b9f76","system_id":"levelo_inurba_marseille","lat":43.29947,"lon":5.36549,"is_reserved":false,"is_disabled":false,"rental_uris":{"android":"levelo://app?vid=d2555695-7aa5-4bb5-9dac-815c0d8b9f76","ios":"levelo://app?vid=d2555695-7aa5-4bb5-9dac-815c0d8b9f76"},"vehicle_type_id":"4","last_reported":1768324693,"current_range_meters":6400,"station_id":"ce4bgm92rcd13ifvqbr0","pricing_plan_id":"cebpf4jnsgd1na2vs0mg"},{"bike_id":"5a943cbe-960a-4f36-91c6-5108be013982","system_id":"levelo_inurba_marseille","lat":43.30102,"lon":5.39076,"is_reserved":false,"is_disabled":false,"rental_uris":{"android":"levelo://app?vid=5a943cbe-960a-4f36-91c6-5108be013982","ios":"levelo://app?vid=5a943cbe-960a-4f36-91c6-5108be013982"},"vehicle_type_id":"4","last_reported":1768324693,"current_range_meters":6400,"station_id":"ce4bh192rcd13ifvqdb0","pricing_plan_id":"cebpf4jnsgd1na2vs0mg"},{"bike_id":"50ba04d8-0a7f-4926-8575-377b958d3bb1","system_id":"levelo_inurba_marseille","lat":43.29037,"lon":5.38663,"is_reserved":false,"is_disabled":false,"rental_uris":{"android":"levelo://app?vid=50ba04d8-0a7f-4926-8575-377b958d3bb1","ios":"levelo://app?vid=50ba04d8-0a7f-4926-8575-377b958d3bb1"},"vehicle_type_id":"4","last_reported":1768324693,"current_range_meters":6400,"station_id":"ce4bh4p2rcd13ifvqe0g","pricing_plan_id":"cebpf4jnsgd1na2vs0mg"},{"bike_id":"bee2231a-aedd-4f8a-ae11-883f123d575e","system_id":"levelo_inurba_marseille","lat":43.31221,"lon":5.38168,"is_reserved":false,"is_disabled":false,"rental_uris":{"android":"levelo://app?vid=bee2231a-aedd-4f8a-ae11-883f123d575e","ios":"levelo://app?vid=bee2231a-aedd-4f8a-ae11-883f123d575e"},"vehicle_type_id":"4","last_reported":1768324693,"current_range_meters":6400,"station_id":"","pricing_plan_id":"cebpf4jnsgd1na2vs0mg"},{"bike_id":"9ca4fe2d-6c7f-404e-b1e1-a8b034ca68e6","system_id":"levelo_inurba_marseille","lat":43.26086,"lon":5.39337,"is_reserved":false,"is_disabled":false,"rental_uris":{"android":"levelo://app?vid=9ca4fe2d-6c7f-404e-b1e1-a8b034ca68e6","ios":"levelo://app?vid=9ca4fe2d-6c7f-404e-b1e1-a8b034ca68e6"},"vehicle_type_id":"4","last_reported":1768324693,"current_range_meters":6800,"station_id":"","pricing_plan_id":"cebpf4jnsgd1na2vs0mg"},{"bike_id":"34809879-5c78-46b9-8640-8f0f333de3ff","system_id":"levelo_inurba_marseille","lat":43.23192,"lon":5.39984,"is_reserved":false,"is_disabled":false,"rental_uris":{"android":"levelo://app?vid=34809879-5c78-46b9-8640-8f0f333de3ff","ios":"levelo://app?vid=34809879-5c78-46b9-8640-8f0f333de3ff"},"vehicle_type_id":"4","last_reported":1768324693,"current_range_meters":6800,"station_id":"ce4bhn12rcd13ifvqgqg","pricing_plan_id":"cebpf4jnsgd1na2vs0mg"},{"bike_id":"35361d4e-38f0-417d-a5fe-17895b791255","system_id":"levelo_inurba_marseille","lat":43.28003,"lon":5.40013,"is_reserved":false,"is_disabled":false,"rental_uris":{"android":"levelo://app?vid=35361d4e-38f0-417d-a5fe-17895b791255","ios":"levelo://app?vid=35361d4e-38f0-417d-a5fe-17895b791255"},"vehicle_type_id":"4","last_reported":1768324693,"current_range_meters":6800,"station_id":"ce4bho92rcd13ifvqh4g","pricing_plan_id":"cebpf4jnsgd1na2vs0mg"},{"bike_id":"cafe9508-7db5-496a-a0cd-bcd349231be5","system_id":"levelo_inurba_marseille","lat":43.255127,"lon":5.376565,"is_reserved":false,"is_disabled":false,"rental_uris":{"android":"levelo://app?vid=cafe9508-7db5-496a-a0cd-bcd349231be5","ios":"levelo://app?vid=cafe9508-7db5-496a-a0cd-bcd349231be5"},"vehicle_type_id":"4","last_reported":1768324693,"current_range_meters":6800,"station_id":"ce4bhh12rcd13ifvqff0","pricing_plan_id":"cebpf4jnsgd1na2vs0mg"},{"bike_id":"6688a629-7822-4dde-a1b1-aa24df94d1e6","system_id":"levelo_inurba_marseille","lat":43.31358,"lon":5.36699,"is_reserved":false,"is_disabled":true,"rental_uris":{"android":"levelo://app?vid=6688a629-7822-4dde-a1b1-aa24df94d1e6","ios":"levelo://app?vid=6688a629-7822-4dde-a1b1-aa24df94d1e6"},"vehicle_type_id":"4","last_reported":1768324693,"current_range_meters":6800,"station_id":"ce4bgr92rcd13ifvqc6g","pricing_plan_id":"cebpf4jnsgd1na2vs0mg"},{"bike_id":"cb7af7b5-a138-4db4-a330-74ad640aa6ec","system_id":"levelo_inurba_marseille","lat":43.27814,"lon":5.40706,"is_reserved":false,"is_disabled":false,"rental_uris":{"android":"levelo://app?vid=cb7af7b5-a138-4db4-a330-74ad640aa6ec","ios":"levelo://app?vid=cb7af7b5-a138-4db4-a330-74ad640aa6ec"},"vehicle_type_id":"4","last_reported":1768324693,"current_range_meters":6800,"station_id":"ce4bhnh2rcd13ifvqgtg","pricing_plan_id":"cebpf4jnsgd1na2vs0mg"},{"bike_id":"5c5e9bb7-bb73-4db6-a458-5ba3293a46da","system_id":"levelo_inurba_marseille","lat":43.31358,"lon":5.36731,"is_reserved":false,"is_disabled":false,"rental_uris":{"android":"levelo://app?vid=5c5e9bb7-bb73-4db6-a458-5ba3293a46da","ios":"levelo://app?vid=5c5e9bb7-bb73-4db6-a458-5ba3293a46da"},"vehicle_type_id":"4","last_reported":1768324693,"current_range_meters":6800,"station_id":"ce4bgr92rcd13ifvqc6g","pricing_plan_id":"cebpf4jnsgd1na2vs0mg"},{"bike_id":"5288709e-7bab-420c-ba8b-418afff6b8a4","system_id":"levelo_inurba_marseille","lat":43.30285,"lon":5.372713,"is_reserved":false,"is_disabled":false,"rental_uris":{"android":"levelo://app?vid=5288709e-7bab-420c-ba8b-418afff6b8a4","ios":"levelo://app?vid=5288709e-7bab-420c-ba8b-418afff6b8a4"},"vehicle_type_id":"4","last_reported":1768324693,"current_range_meters":6800,"station_id":"","pricing_plan_id":"cebpf4jnsgd1na2vs0mg"},{"bike_id":"69987fb0-9d36-4b3a-8334-fc5121bd0232","system_id":"levelo_inurba_marseille","lat":43.24399,"lon":5.37059,"is_reserved":false,"is_disabled":false,"rental_uris":{"android":"levelo://app?vid=69987fb0-9d36-4b3a-8334-fc5121bd0232","ios":"levelo://app?vid=69987fb0-9d36-4b3a-8334-fc5121bd0232"},"vehicle_type_id":"4","last_reported":1768324693,"current_range_meters":6800,"station_id":"ce4bhhh2rcd13ifvqfk0","pricing_plan_id":"cebpf4jnsgd1na2vs0mg"},{"bike_id":"1f93f595-e601-4fc1-8ef1-644d261550d1","system_id":"levelo_inurba_marseille","lat":43.28447,"lon":5.3921,"is_reserved":false,"is_disabled":false,"rental_uris":{"android":"levelo://app?vid=1f93f595-e601-4fc1-8ef1-644d261550d1","ios":"levelo://app?vid=1f93f595-e601-4fc1-8ef1-644d261550d1"},"vehicle_type_id":"4","last_reported":1768324693,"current_range_meters":6800,"station_id":"ce4bhoh2rcd13ifvqh5g","pricing_plan_id":"cebpf4jnsgd1na2vs0mg"},{"bike_id":"f44e7fc0-57ad-4c5c-87c8-d57ce9d37a8a","system_id":"levelo_inurba_marseille","lat":43.2619,"lon":5.37464,"is_reserved":false,"is_disabled":false,"rental_uris":{"android":"levelo://app?vid=f44e7fc0-57ad-4c5c-87c8-d57ce9d37a8a","ios":"levelo://app?vid=f44e7fc0-57ad-4c5c-87c8-d57ce9d37a8a"},"vehicle_type_id":"4","last_reported":1768324693,"current_range_meters":6800,"station_id":"ce4bhgp2rcd13ifvqfc0","pricing_plan_id":"cebpf4jnsgd1na2vs0mg"},{"bike_id":"b5120791-10c6-4c67-8290-90ce21b0cd69","system_id":"levelo_inurba_marseille","lat":43.28001,"lon":5.40027,"is_reserved":false,"is_disabled":false,"rental_uris":{"android":"levelo://app?vid=b5120791-10c6-4c67-8290-90ce21b0cd69","ios":"levelo://app?vid=b5120791-10c6-4c67-8290-90ce21b0cd69"},"vehicle_type_id":"4","last_reported":1768324693,"current_range_meters":6800,"station_id":"ce4bho92rcd13ifvqh4g","pricing_plan_id":"cebpf4jnsgd1na2vs0mg"},{"bike_id":"0c4529d2-9a4f-4a24-adad-ec9494efd665","system_id":"levelo_inurba_marseille","lat":43.29774,"lon":5.42772,"is_reserved":false,"is_disabled":false,"rental_uris":{"android":"levelo://app?vid=0c4529d2-9a4f-4a24-adad-ec9494efd665","ios":"levelo://app?vid=0c4529d2-9a4f-4a24-adad-ec9494efd665"},"vehicle_type_id":"4","last_reported":1768324693,"current_range_meters":7200,"station_id":"st_d3md5207bmas73dh9klg","pricing_plan_id":"cebpf4jnsgd1na2vs0mg"},{"bike_id":"a8ecfe7d-195f-47f3-8f55-54974257ce75","system_id":"levelo_inurba_marseille","lat":43.26563,"lon":5.40315,"is_reserved":false,"is_disabled":false,"rental_uris":{"android":"levelo://app?vid=a8ecfe7d-195f-47f3-8f55-54974257ce75","ios":"levelo://app?vid=a8ecfe7d-195f-47f3-8f55-54974257ce75"},"vehicle_type_id":"4","last_reported":1768324693,"current_range_meters":7200,"station_id":"ce4bhmp2rcd13ifvqgng","pricing_plan_id":"cebpf4jnsgd1na2vs0mg"},{"bike_id":"55babbbe-89a8-4f92-96cf-6569fc3f4c24","system_id":"levelo_inurba_marseille","lat":43.24387,"lon":5.37068,"is_reserved":false,"is_disabled":false,"rental_uris":{"android":"levelo://app?vid=55babbbe-89a8-4f92-96cf-6569fc3f4c24","ios":"levelo://app?vid=55babbbe-89a8-4f92-96cf-6569fc3f4c24"},"vehicle_type_id":"4","last_reported":1768324693,"current_range_meters":7200,"station_id":"ce4bhhh2rcd13ifvqfk0","pricing_plan_id":"cebpf4jnsgd1na2vs0mg"},{"bike_id":"dc941693-f968-4335-a586-0547afadf857","system_id":"levelo_inurba_marseille","lat":43.25519,"lon":5.37638,"is_reserved":false,"is_disabled":false,"rental_uris":{"android":"levelo://app?vid=dc941693-f968-4335-a586-0547afadf857","ios":"levelo://app?vid=dc941693-f968-4335-a586-0547afadf857"},"vehicle_type_id":"4","last_reported":1768324693,"current_range_meters":7200,"station_id":"ce4bhh12rcd13ifvqff0","pricing_plan_id":"cebpf4jnsgd1na2vs0mg"},{"bike_id":"a9ceab4f-7363-474c-a0e0-4e83cf033539","system_id":"levelo_inurba_marseille","lat":43.28956,"lon":5.3662,"is_reserved":false,"is_disabled":false,"rental_uris":{"android":"levelo://app?vid=a9ceab4f-7363-474c-a0e0-4e83cf033539","ios":"levelo://app?vid=a9ceab4f-7363-474c-a0e0-4e83cf033539"},"vehicle_type_id":"4","last_reported":1768324693,"current_range_meters":7200,"station_id":"ce4bhap2rcd13ifvqek0","pricing_plan_id":"cebpf4jnsgd1na2vs0mg"},{"bike_id":"7aebede3-29e7-422e-9949-e6406848b636","system_id":"levelo_inurba_marseille","lat":43.25108,"lon":5.40313,"is_reserved":false,"is_disabled":false,"rental_uris":{"android":"levelo://app?vid=7aebede3-29e7-422e-9949-e6406848b636","ios":"levelo://app?vid=7aebede3-29e7-422e-9949-e6406848b636"},"vehicle_type_id":"4","last_reported":1768324693,"current_range_meters":7200,"station_id":"ce4bhlh2rcd13ifvqgig","pricing_plan_id":"cebpf4jnsgd1na2vs0mg"},{"bike_id":"1801c6f9-0c65-4e78-bbf2-c91fed55b8f3","system_id":"levelo_inurba_marseille","lat":43.26212,"lon":5.37445,"is_reserved":false,"is_disabled":false,"rental_uris":{"android":"levelo://app?vid=1801c6f9-0c65-4e78-bbf2-c91fed55b8f3","ios":"levelo://app?vid=1801c6f9-0c65-4e78-bbf2-c91fed55b8f3"},"vehicle_type_id":"4","last_reported":1768324693,"current_range_meters":7200,"station_id":"ce4bhgp2rcd13ifvqfc0","pricing_plan_id":"cebpf4jnsgd1na2vs0mg"},{"bike_id":"ffcf206e-2a6e-4fc2-8998-7e22064b3e4e","system_id":"levelo_inurba_marseille","lat":43.295294,"lon":5.385488,"is_reserved":false,"is_disabled":false,"rental_uris":{"android":"levelo://app?vid=ffcf206e-2a6e-4fc2-8998-7e22064b3e4e","ios":"levelo://app?vid=ffcf206e-2a6e-4fc2-8998-7e22064b3e4e"},"vehicle_type_id":"4","last_reported":1768324693,"current_range_meters":7200,"station_id":"ce4bgih2rcd13ifvqba0","pricing_plan_id":"cebpf4jnsgd1na2vs0mg"},{"bike_id":"941e813b-e02b-40b3-ae8f-a703ceabdb30","system_id":"levelo_inurba_marseille","lat":43.2736,"lon":5.39108,"is_reserved":false,"is_disabled":false,"rental_uris":{"android":"levelo://app?vid=941e813b-e02b-40b3-ae8f-a703ceabdb30","ios":"levelo://app?vid=941e813b-e02b-40b3-ae8f-a703ceabdb30"},"vehicle_type_id":"4","last_reported":1768324693,"current_range_meters":7200,"station_id":"","pricing_plan_id":"cebpf4jnsgd1na2vs0mg"},{"bike_id":"674485da-6375-4a1e-850b-d935815daaad","system_id":"levelo_inurba_marseille","lat":43.23781,"lon":5.3663,"is_reserved":false,"is_disabled":false,"rental_uris":{"android":"levelo://app?vid=674485da-6375-4a1e-850b-d935815daaad","ios":"levelo://app?vid=674485da-6375-4a1e-850b-d935815daaad"},"vehicle_type_id":"4","last_reported":1768324693,"current_range_meters":7200,"station_id":"st_d3nk18o9ro0c73en2l3g","pricing_plan_id":"cebpf4jnsgd1na2vs0mg"},{"bike_id":"ea9769ab-39d8-4325-b701-f75eef547046","system_id":"levelo_inurba_marseille","lat":43.22539,"lon":5.34823,"is_reserved":false,"is_disabled":false,"rental_uris":{"android":"levelo://app?vid=ea9769ab-39d8-4325-b701-f75eef547046","ios":"levelo://app?vid=ea9769ab-39d8-4325-b701-f75eef547046"},"vehicle_type_id":"4","last_reported":1768324693,"current_range_meters":7200,"station_id":"st_cvj5dfep6f1abm77gieg","pricing_plan_id":"cebpf4jnsgd1na2vs0mg"},{"bike_id":"af70d5d8-cc8e-41b6-9eb9-8713fe60ffd1","system_id":"levelo_inurba_marseille","lat":43.24999,"lon":5.38936,"is_reserved":false,"is_disabled":false,"rental_uris":{"android":"levelo://app?vid=af70d5d8-cc8e-41b6-9eb9-8713fe60ffd1","ios":"levelo://app?vid=af70d5d8-cc8e-41b6-9eb9-8713fe60ffd1"},"vehicle_type_id":"4","last_reported":1768324693,"current_range_meters":7200,"station_id":"ce4bhgp2rcd13ifvqfd0","pricing_plan_id":"cebpf4jnsgd1na2vs0mg"},{"bike_id":"a7cfbd20-f164-49e6-9f87-847432bce4ed","system_id":"levelo_inurba_marseille","lat":43.30148,"lon":5.37404,"is_reserved":false,"is_disabled":false,"rental_uris":{"android":"levelo://app?vid=a7cfbd20-f164-49e6-9f87-847432bce4ed","ios":"levelo://app?vid=a7cfbd20-f164-49e6-9f87-847432bce4ed"},"vehicle_type_id":"4","last_reported":1768324693,"current_range_meters":7200,"station_id":"ce4bgs92rcd13ifvqcc0","pricing_plan_id":"cebpf4jnsgd1na2vs0mg"},{"bike_id":"b945bd28-a3b4-4961-a0bf-743fe57cc1a5","system_id":"levelo_inurba_marseille","lat":43.29904,"lon":5.43667,"is_reserved":false,"is_disabled":false,"rental_uris":{"android":"levelo://app?vid=b945bd28-a3b4-4961-a0bf-743fe57cc1a5","ios":"levelo://app?vid=b945bd28-a3b4-4961-a0bf-743fe57cc1a5"},"vehicle_type_id":"4","last_reported":1768324693,"current_range_meters":7200,"station_id":"ce4bhpp2rcd13ifvqhfg","pricing_plan_id":"cebpf4jnsgd1na2vs0mg"},{"bike_id":"b41f9551-ae47-4da7-a60d-f3352e00b4ad","system_id":"levelo_inurba_marseille","lat":43.284761,"lon":5.483928,"is_reserved":false,"is_disabled":false,"rental_uris":{"android":"levelo://app?vid=b41f9551-ae47-4da7-a60d-f3352e00b4ad","ios":"levelo://app?vid=b41f9551-ae47-4da7-a60d-f3352e00b4ad"},"vehicle_type_id":"4","last_reported":1768324693,"current_range_meters":7200,"station_id":"","pricing_plan_id":"cebpf4jnsgd1na2vs0mg"},{"bike_id":"0b7fcce3-5957-4ba3-a942-4767ab10e88d","system_id":"levelo_inurba_marseille","lat":43.30129,"lon":5.39878,"is_reserved":false,"is_disabled":false,"rental_uris":{"android":"levelo://app?vid=0b7fcce3-5957-4ba3-a942-4767ab10e88d","ios":"levelo://app?vid=0b7fcce3-5957-4ba3-a942-4767ab10e88d"},"vehicle_type_id":"4","last_reported":1768324693,"current_range_meters":7200,"station_id":"ce4bh0h2rcd13ifvqd40","pricing_plan_id":"cebpf4jnsgd1na2vs0mg"},{"bike_id":"19acb0d9-5641-4610-b2b2-7ba868c5f563","system_id":"levelo_inurba_marseille","lat":43.23958,"lon":5.36625,"is_reserved":false,"is_disabled":false,"rental_uris":{"android":"levelo://app?vid=19acb0d9-5641-4610-b2b2-7ba868c5f563","ios":"levelo://app?vid=19acb0d9-5641-4610-b2b2-7ba868c5f563"},"vehicle_type_id":"4","last_reported":1768324693,"current_range_meters":7200,"station_id":"ce4bhi12rcd13ifvqfp0","pricing_plan_id":"cebpf4jnsgd1na2vs0mg"},{"bike_id":"edcf3188-4a6b-46e2-aa32-dc6a17ca3c7d","system_id":"levelo_inurba_marseille","lat":43.25583,"lon":5.38231,"is_reserved":false,"is_disabled":false,"rental_uris":{"android":"levelo://app?vid=edcf3188-4a6b-46e2-aa32-dc6a17ca3c7d","ios":"levelo://app?vid=edcf3188-4a6b-46e2-aa32-dc6a17ca3c7d"},"vehicle_type_id":"4","last_reported":1768324693,"current_range_meters":7200,"station_id":"ce4bhih2rcd13ifvqfs0","pricing_plan_id":"cebpf4jnsgd1na2vs0mg"},{"bike_id":"a6264499-99d7-4bff-a8d4-07bf735aaf88","system_id":"levelo_inurba_marseille","lat":43.27923,"lon":5.39571,"is_reserved":false,"is_disabled":false,"rental_uris":{"android":"levelo://app?vid=a6264499-99d7-4bff-a8d4-07bf735aaf88","ios":"levelo://app?vid=a6264499-99d7-4bff-a8d4-07bf735aaf88"},"vehicle_type_id":"4","last_reported":1768324693,"current_range_meters":7200,"station_id":"ce4bhf92rcd13ifvqf40","pricing_plan_id":"cebpf4jnsgd1na2vs0mg"},{"bike_id":"37f478a4-02ba-45f2-a4d6-fdcdc6b39bc8","system_id":"levelo_inurba_marseille","lat":43.2886,"lon":5.42615,"is_reserved":false,"is_disabled":false,"rental_uris":{"android":"levelo://app?vid=37f478a4-02ba-45f2-a4d6-fdcdc6b39bc8","ios":"levelo://app?vid=37f478a4-02ba-45f2-a4d6-fdcdc6b39bc8"},"vehicle_type_id":"4","last_reported":1768324693,"current_range_meters":7200,"station_id":"","pricing_plan_id":"cebpf4jnsgd1na2vs0mg"},{"bike_id":"39becb68-37d2-4fe5-af83-65d5813b987b","system_id":"levelo_inurba_marseille","lat":43.32527,"lon":5.36875,"is_reserved":false,"is_disabled":false,"rental_uris":{"android":"levelo://app?vid=39becb68-37d2-4fe5-af83-65d5813b987b","ios":"levelo://app?vid=39becb68-37d2-4fe5-af83-65d5813b987b"},"vehicle_type_id":"4","last_reported":1768324693,"current_range_meters":7200,"station_id":"","pricing_plan_id":"cebpf4jnsgd1na2vs0mg"},{"bike_id":"cfe81093-69a9-492e-9820-bd1d48eb57ea","system_id":"levelo_inurba_marseille","lat":43.2621,"lon":5.37444,"is_reserved":false,"is_disabled":false,"rental_uris":{"android":"levelo://app?vid=cfe81093-69a9-492e-9820-bd1d48eb57ea","ios":"levelo://app?vid=cfe81093-69a9-492e-9820-bd1d48eb57ea"},"vehicle_type_id":"4","last_reported":1768324693,"current_range_meters":7200,"station_id":"ce4bhgp2rcd13ifvqfc0","pricing_plan_id":"cebpf4jnsgd1na2vs0mg"},{"bike_id":"99eb6c51-7f0f-4137-8b85-23f4caea2333","system_id":"levelo_inurba_marseille","lat":43.298973,"lon":5.396685,"is_reserved":false,"is_disabled":false,"rental_uris":{"android":"levelo://app?vid=99eb6c51-7f0f-4137-8b85-23f4caea2333","ios":"levelo://app?vid=99eb6c51-7f0f-4137-8b85-23f4caea2333"},"vehicle_type_id":"4","last_reported":1768324693,"current_range_meters":7200,"station_id":"","pricing_plan_id":"cebpf4jnsgd1na2vs0mg"},{"bike_id":"3655a9f7-901b-4885-8038-e7046951f14d","system_id":"levelo_inurba_marseille","lat":43.29761,"lon":5.42769,"is_reserved":false,"is_disabled":false,"rental_uris":{"android":"levelo://app?vid=3655a9f7-901b-4885-8038-e7046951f14d","ios":"levelo://app?vid=3655a9f7-901b-4885-8038-e7046951f14d"},"vehicle_type_id":"4","last_reported":1768324693,"current_range_meters":7200,"station_id":"st_d3md5207bmas73dh9klg","pricing_plan_id":"cebpf4jnsgd1na2vs0mg"},{"bike_id":"09b85b49-091d-45aa-aff7-eaf6c561ab9c","system_id":"levelo_inurba_marseille","lat":43.26189,"lon":5.37453,"is_reserved":false,"is_disabled":false,"rental_uris":{"android":"levelo://app?vid=09b85b49-091d-45aa-aff7-eaf6c561ab9c","ios":"levelo://app?vid=09b85b49-091d-45aa-aff7-eaf6c561ab9c"},"vehicle_type_id":"4","last_reported":1768324693,"current_range_meters":7200,"station_id":"ce4bhgp2rcd13ifvqfc0","pricing_plan_id":"cebpf4jnsgd1na2vs0mg"},{"bike_id":"d12a5c37-df8a-440d-b99b-49d121d9a484","system_id":"levelo_inurba_marseille","lat":43.22932,"lon":5.35384,"is_reserved":false,"is_disabled":false,"rental_uris":{"android":"levelo://app?vid=d12a5c37-df8a-440d-b99b-49d121d9a484","ios":"levelo://app?vid=d12a5c37-df8a-440d-b99b-49d121d9a484"},"vehicle_type_id":"4","last_reported":1768324693,"current_range_meters":7200,"station_id":"cpo3532slgdg3j2ikp40","pricing_plan_id":"cebpf4jnsgd1na2vs0mg"},{"bike_id":"7aaa5463-7c58-4e08-89ff-e62dd5259471","system_id":"levelo_inurba_marseille","lat":43.24805,"lon":5.37456,"is_reserved":false,"is_disabled":false,"rental_uris":{"android":"levelo://app?vid=7aaa5463-7c58-4e08-89ff-e62dd5259471","ios":"levelo://app?vid=7aaa5463-7c58-4e08-89ff-e62dd5259471"},"vehicle_type_id":"4","last_reported":1768324693,"current_range_meters":8000,"station_id":"ce4bhgh2rcd13ifvqfb0","pricing_plan_id":"cebpf4jnsgd1na2vs0mg"},{"bike_id":"5315611b-d4a4-46fb-b2f0-72ffa8b2395e","system_id":"levelo_inurba_marseille","lat":43.24179,"lon":5.39726,"is_reserved":false,"is_disabled":false,"rental_uris":{"android":"levelo://app?vid=5315611b-d4a4-46fb-b2f0-72ffa8b2395e","ios":"levelo://app?vid=5315611b-d4a4-46fb-b2f0-72ffa8b2395e"},"vehicle_type_id":"4","last_reported":1768324693,"current_range_meters":8000,"station_id":"ce4bhn12rcd13ifvqgpg","pricing_plan_id":"cebpf4jnsgd1na2vs0mg"},{"bike_id":"23f90f90-4766-44cf-a3ad-ecda2307978a","system_id":"levelo_inurba_marseille","lat":43.26072,"lon":5.39393,"is_reserved":false,"is_disabled":false,"rental_uris":{"android":"levelo://app?vid=23f90f90-4766-44cf-a3ad-ecda2307978a","ios":"levelo://app?vid=23f90f90-4766-44cf-a3ad-ecda2307978a"},"vehicle_type_id":"4","last_reported":1768324693,"current_range_meters":8000,"station_id":"ce4bhh92rcd13ifvqfj0","pricing_plan_id":"cebpf4jnsgd1na2vs0mg"},{"bike_id":"03ff8d42-84cb-40f4-a4fb-d8fa574268df","system_id":"levelo_inurba_marseille","lat":43.26805,"lon":5.40261,"is_reserved":false,"is_disabled":false,"rental_uris":{"android":"levelo://app?vid=03ff8d42-84cb-40f4-a4fb-d8fa574268df","ios":"levelo://app?vid=03ff8d42-84cb-40f4-a4fb-d8fa574268df"},"vehicle_type_id":"4","last_reported":1768324693,"current_range_meters":8000,"station_id":"ce501612rcd8frsf0b60","pricing_plan_id":"cebpf4jnsgd1na2vs0mg"},{"bike_id":"8a689e49-1449-46e9-9d9f-6cee66305474","system_id":"levelo_inurba_marseille","lat":43.29275,"lon":5.4091,"is_reserved":false,"is_disabled":true,"rental_uris":{"android":"levelo://app?vid=8a689e49-1449-46e9-9d9f-6cee66305474","ios":"levelo://app?vid=8a689e49-1449-46e9-9d9f-6cee66305474"},"vehicle_type_id":"4","last_reported":1768324693,"current_range_meters":8000,"station_id":"ce4bh192rcd13ifvqdc0","pricing_plan_id":"cebpf4jnsgd1na2vs0mg"},{"bike_id":"0b0bd9e8-0e91-4cd7-8087-c13549508128","system_id":"levelo_inurba_marseille","lat":43.28536,"lon":5.44085,"is_reserved":false,"is_disabled":false,"rental_uris":{"android":"levelo://app?vid=0b0bd9e8-0e91-4cd7-8087-c13549508128","ios":"levelo://app?vid=0b0bd9e8-0e91-4cd7-8087-c13549508128"},"vehicle_type_id":"4","last_reported":1768324693,"current_range_meters":8000,"station_id":"st_d3j3df2ikq2c7380ej80","pricing_plan_id":"cebpf4jnsgd1na2vs0mg"},{"bike_id":"9c27121a-722d-4643-8f07-02e037634eda","system_id":"levelo_inurba_marseille","lat":43.28428,"lon":5.35001,"is_reserved":false,"is_disabled":false,"rental_uris":{"android":"levelo://app?vid=9c27121a-722d-4643-8f07-02e037634eda","ios":"levelo://app?vid=9c27121a-722d-4643-8f07-02e037634eda"},"vehicle_type_id":"4","last_reported":1768324693,"current_range_meters":8000,"station_id":"ce4bhbh2rcd13ifvqepg","pricing_plan_id":"cebpf4jnsgd1na2vs0mg"},{"bike_id":"17fd6d3f-e3c6-4847-a767-3d25934d370e","system_id":"levelo_inurba_marseille","lat":43.29378,"lon":5.37849,"is_reserved":false,"is_disabled":false,"rental_uris":{"android":"levelo://app?vid=17fd6d3f-e3c6-4847-a767-3d25934d370e","ios":"levelo://app?vid=17fd6d3f-e3c6-4847-a767-3d25934d370e"},"vehicle_type_id":"4","last_reported":1768324693,"current_range_meters":8000,"station_id":"ce4bgjh2rcd13ifvqbf0","pricing_plan_id":"cebpf4jnsgd1na2vs0mg"},{"bike_id":"7565d9e4-5737-444e-a6cb-70b726a9685a","system_id":"levelo_inurba_marseille","lat":43.243986,"lon":5.370747,"is_reserved":false,"is_disabled":false,"rental_uris":{"android":"levelo://app?vid=7565d9e4-5737-444e-a6cb-70b726a9685a","ios":"levelo://app?vid=7565d9e4-5737-444e-a6cb-70b726a9685a"},"vehicle_type_id":"4","last_reported":1768324693,"current_range_meters":8000,"station_id":"ce4bhhh2rcd13ifvqfk0","pricing_plan_id":"cebpf4jnsgd1na2vs0mg"},{"bike_id":"01fa2d93-cbca-4338-8069-c4700bb1fa70","system_id":"levelo_inurba_marseille","lat":43.26956,"lon":5.3863,"is_reserved":false,"is_disabled":false,"rental_uris":{"android":"levelo://app?vid=01fa2d93-cbca-4338-8069-c4700bb1fa70","ios":"levelo://app?vid=01fa2d93-cbca-4338-8069-c4700bb1fa70"},"vehicle_type_id":"4","last_reported":1768324693,"current_range_meters":8000,"station_id":"ce4bhh92rcd13ifvqfh0","pricing_plan_id":"cebpf4jnsgd1na2vs0mg"},{"bike_id":"47d96b8b-14c3-457a-a882-a3b41481dc99","system_id":"levelo_inurba_marseille","lat":43.280762,"lon":5.39663,"is_reserved":false,"is_disabled":false,"rental_uris":{"android":"levelo://app?vid=47d96b8b-14c3-457a-a882-a3b41481dc99","ios":"levelo://app?vid=47d96b8b-14c3-457a-a882-a3b41481dc99"},"vehicle_type_id":"4","last_reported":1768324693,"current_range_meters":8000,"station_id":"ce4bho12rcd13ifvqh2g","pricing_plan_id":"cebpf4jnsgd1na2vs0mg"},{"bike_id":"956f2f43-0da9-4646-be7d-418ca296dc4d","system_id":"levelo_inurba_marseille","lat":43.29764,"lon":5.42791,"is_reserved":false,"is_disabled":false,"rental_uris":{"android":"levelo://app?vid=956f2f43-0da9-4646-be7d-418ca296dc4d","ios":"levelo://app?vid=956f2f43-0da9-4646-be7d-418ca296dc4d"},"vehicle_type_id":"4","last_reported":1768324693,"current_range_meters":8000,"station_id":"st_d3md5207bmas73dh9klg","pricing_plan_id":"cebpf4jnsgd1na2vs0mg"},{"bike_id":"5d21c596-50a9-4a98-8678-377ed372531b","system_id":"levelo_inurba_marseille","lat":43.23808,"lon":5.36626,"is_reserved":false,"is_disabled":false,"rental_uris":{"android":"levelo://app?vid=5d21c596-50a9-4a98-8678-377ed372531b","ios":"levelo://app?vid=5d21c596-50a9-4a98-8678-377ed372531b"},"vehicle_type_id":"4","last_reported":1768324693,"current_range_meters":8000,"station_id":"st_d3nk18o9ro0c73en2l3g","pricing_plan_id":"cebpf4jnsgd1na2vs0mg"},{"bike_id":"dce34ae9-6b54-4567-9cc3-a453de46352f","system_id":"levelo_inurba_marseille","lat":43.23793,"lon":5.36612,"is_reserved":false,"is_disabled":false,"rental_uris":{"android":"levelo://app?vid=dce34ae9-6b54-4567-9cc3-a453de46352f","ios":"levelo://app?vid=dce34ae9-6b54-4567-9cc3-a453de46352f"},"vehicle_type_id":"4","last_reported":1768324693,"current_range_meters":8000,"station_id":"st_d3nk18o9ro0c73en2l3g","pricing_plan_id":"cebpf4jnsgd1na2vs0mg"},{"bike_id":"ec6556c0-8771-44be-b1ce-12b0d62b8bfb","system_id":"levelo_inurba_marseille","lat":43.32895,"lon":5.39159,"is_reserved":false,"is_disabled":false,"rental_uris":{"android":"levelo://app?vid=ec6556c0-8771-44be-b1ce-12b0d62b8bfb","ios":"levelo://app?vid=ec6556c0-8771-44be-b1ce-12b0d62b8bfb"},"vehicle_type_id":"4","last_reported":1768324693,"current_range_meters":8000,"station_id":"","pricing_plan_id":"cebpf4jnsgd1na2vs0mg"},{"bike_id":"b523c110-d25e-4af1-b7ea-2ae80dfe757b","system_id":"levelo_inurba_marseille","lat":43.23843,"lon":5.36538,"is_reserved":false,"is_disabled":false,"rental_uris":{"android":"levelo://app?vid=b523c110-d25e-4af1-b7ea-2ae80dfe757b","ios":"levelo://app?vid=b523c110-d25e-4af1-b7ea-2ae80dfe757b"},"vehicle_type_id":"4","last_reported":1768324693,"current_range_meters":8400,"station_id":"st_d3nk18o9ro0c73en2l3g","pricing_plan_id":"cebpf4jnsgd1na2vs0mg"},{"bike_id":"18e7aed4-7cab-4e5f-b147-5c98f8a1e192","system_id":"levelo_inurba_marseille","lat":43.32358,"lon":5.36735,"is_reserved":false,"is_disabled":false,"rental_uris":{"android":"levelo://app?vid=18e7aed4-7cab-4e5f-b147-5c98f8a1e192","ios":"levelo://app?vid=18e7aed4-7cab-4e5f-b147-5c98f8a1e192"},"vehicle_type_id":"4","last_reported":1768324693,"current_range_meters":8400,"station_id":"ce4bhsh2rcd13ifvqi2g","pricing_plan_id":"cebpf4jnsgd1na2vs0mg"},{"bike_id":"2e763289-bf48-411c-8599-a527ac5e0c79","system_id":"levelo_inurba_marseille","lat":43.323046,"lon":5.389226,"is_reserved":false,"is_disabled":false,"rental_uris":{"android":"levelo://app?vid=2e763289-bf48-411c-8599-a527ac5e0c79","ios":"levelo://app?vid=2e763289-bf48-411c-8599-a527ac5e0c79"},"vehicle_type_id":"4","last_reported":1768324693,"current_range_meters":8400,"station_id":"ce4bhqp2rcd13ifvqhog","pricing_plan_id":"cebpf4jnsgd1na2vs0mg"},{"bike_id":"4da4b9b5-8e34-4a21-a7eb-76e6a1792527","system_id":"levelo_inurba_marseille","lat":43.28255,"lon":5.43004,"is_reserved":false,"is_disabled":false,"rental_uris":{"android":"levelo://app?vid=4da4b9b5-8e34-4a21-a7eb-76e6a1792527","ios":"levelo://app?vid=4da4b9b5-8e34-4a21-a7eb-76e6a1792527"},"vehicle_type_id":"4","last_reported":1768324693,"current_range_meters":8400,"station_id":"","pricing_plan_id":"cebpf4jnsgd1na2vs0mg"},{"bike_id":"6423c531-f71d-4187-8a3b-ef4662748a30","system_id":"levelo_inurba_marseille","lat":43.29713,"lon":5.36616,"is_reserved":false,"is_disabled":false,"rental_uris":{"android":"levelo://app?vid=6423c531-f71d-4187-8a3b-ef4662748a30","ios":"levelo://app?vid=6423c531-f71d-4187-8a3b-ef4662748a30"},"vehicle_type_id":"4","last_reported":1768324693,"current_range_meters":8400,"station_id":"ce4bgn12rcd13ifvqbt0","pricing_plan_id":"cebpf4jnsgd1na2vs0mg"},{"bike_id":"92cdc27f-4766-48a4-a329-ea7a52a05a32","system_id":"levelo_inurba_marseille","lat":43.2696,"lon":5.40234,"is_reserved":false,"is_disabled":false,"rental_uris":{"android":"levelo://app?vid=92cdc27f-4766-48a4-a329-ea7a52a05a32","ios":"levelo://app?vid=92cdc27f-4766-48a4-a329-ea7a52a05a32"},"vehicle_type_id":"4","last_reported":1768324693,"current_range_meters":8400,"station_id":"cjm6bp8fraef2m0cb0m0","pricing_plan_id":"cebpf4jnsgd1na2vs0mg"},{"bike_id":"e4ceba95-9874-4924-9fa5-96771066b0ef","system_id":"levelo_inurba_marseille","lat":43.239614,"lon":5.366245,"is_reserved":false,"is_disabled":false,"rental_uris":{"android":"levelo://app?vid=e4ceba95-9874-4924-9fa5-96771066b0ef","ios":"levelo://app?vid=e4ceba95-9874-4924-9fa5-96771066b0ef"},"vehicle_type_id":"4","last_reported":1768324693,"current_range_meters":8400,"station_id":"ce4bhi12rcd13ifvqfp0","pricing_plan_id":"cebpf4jnsgd1na2vs0mg"},{"bike_id":"29489b72-f277-47d9-bce4-2b20125d1ed9","system_id":"levelo_inurba_marseille","lat":43.31703,"lon":5.43711,"is_reserved":false,"is_disabled":false,"rental_uris":{"android":"levelo://app?vid=29489b72-f277-47d9-bce4-2b20125d1ed9","ios":"levelo://app?vid=29489b72-f277-47d9-bce4-2b20125d1ed9"},"vehicle_type_id":"4","last_reported":1768324693,"current_range_meters":8400,"station_id":"ce4bhp92rcd13ifvqhcg","pricing_plan_id":"cebpf4jnsgd1na2vs0mg"},{"bike_id":"7a179764-8474-4adf-94fd-785e858f560b","system_id":"levelo_inurba_marseille","lat":43.27314,"lon":5.39084,"is_reserved":false,"is_disabled":false,"rental_uris":{"android":"levelo://app?vid=7a179764-8474-4adf-94fd-785e858f560b","ios":"levelo://app?vid=7a179764-8474-4adf-94fd-785e858f560b"},"vehicle_type_id":"4","last_reported":1768324693,"current_range_meters":8400,"station_id":"ce4bhgp2rcd13ifvqfe0","pricing_plan_id":"cebpf4jnsgd1na2vs0mg"},{"bike_id":"38eda3a7-a945-4055-9f6b-03bf395075e8","system_id":"levelo_inurba_marseille","lat":43.25117,"lon":5.4032,"is_reserved":false,"is_disabled":false,"rental_uris":{"android":"levelo://app?vid=38eda3a7-a945-4055-9f6b-03bf395075e8","ios":"levelo://app?vid=38eda3a7-a945-4055-9f6b-03bf395075e8"},"vehicle_type_id":"4","last_reported":1768324693,"current_range_meters":8400,"station_id":"ce4bhlh2rcd13ifvqgig","pricing_plan_id":"cebpf4jnsgd1na2vs0mg"},{"bike_id":"8dadc1c1-7c68-45f4-8127-3e10f1d82948","system_id":"levelo_inurba_marseille","lat":43.28489,"lon":5.38435,"is_reserved":false,"is_disabled":false,"rental_uris":{"android":"levelo://app?vid=8dadc1c1-7c68-45f4-8127-3e10f1d82948","ios":"levelo://app?vid=8dadc1c1-7c68-45f4-8127-3e10f1d82948"},"vehicle_type_id":"4","last_reported":1768324693,"current_range_meters":8400,"station_id":"ce4bh512rcd13ifvqe3g","pricing_plan_id":"cebpf4jnsgd1na2vs0mg"},{"bike_id":"c8c44e8d-f3e0-45b1-904b-d220b73b482f","system_id":"levelo_inurba_marseille","lat":43.2844,"lon":5.37519,"is_reserved":false,"is_disabled":false,"rental_uris":{"android":"levelo://app?vid=c8c44e8d-f3e0-45b1-904b-d220b73b482f","ios":"levelo://app?vid=c8c44e8d-f3e0-45b1-904b-d220b73b482f"},"vehicle_type_id":"4","last_reported":1768324693,"current_range_meters":8400,"station_id":"ce4bh412rcd13ifvqds0","pricing_plan_id":"cebpf4jnsgd1na2vs0mg"},{"bike_id":"a31c8f9e-9708-4ea2-9e5d-05e3441bc85f","system_id":"levelo_inurba_marseille","lat":43.284829,"lon":5.483835,"is_reserved":false,"is_disabled":false,"rental_uris":{"android":"levelo://app?vid=a31c8f9e-9708-4ea2-9e5d-05e3441bc85f","ios":"levelo://app?vid=a31c8f9e-9708-4ea2-9e5d-05e3441bc85f"},"vehicle_type_id":"4","last_reported":1768324693,"current_range_meters":8400,"station_id":"","pricing_plan_id":"cebpf4jnsgd1na2vs0mg"},{"bike_id":"5f3f7816-15b2-42e6-8301-73c7c01ce517","system_id":"levelo_inurba_marseille","lat":43.28417,"lon":5.37498,"is_reserved":false,"is_disabled":false,"rental_uris":{"android":"levelo://app?vid=5f3f7816-15b2-42e6-8301-73c7c01ce517","ios":"levelo://app?vid=5f3f7816-15b2-42e6-8301-73c7c01ce517"},"vehicle_type_id":"4","last_reported":1768324693,"current_range_meters":8400,"station_id":"ce4bh412rcd13ifvqds0","pricing_plan_id":"cebpf4jnsgd1na2vs0mg"},{"bike_id":"cc5f5fa0-4632-4158-a3e5-0ad343ecf704","system_id":"levelo_inurba_marseille","lat":43.2694,"lon":5.38922,"is_reserved":false,"is_disabled":false,"rental_uris":{"android":"levelo://app?vid=cc5f5fa0-4632-4158-a3e5-0ad343ecf704","ios":"levelo://app?vid=cc5f5fa0-4632-4158-a3e5-0ad343ecf704"},"vehicle_type_id":"4","last_reported":1768324693,"current_range_meters":8800,"station_id":"ce4bhhh2rcd13ifvqfl0","pricing_plan_id":"cebpf4jnsgd1na2vs0mg"},{"bike_id":"2f594713-2b96-465c-b77e-4a8c28b336d2","system_id":"levelo_inurba_marseille","lat":43.27331,"lon":5.3907,"is_reserved":false,"is_disabled":false,"rental_uris":{"android":"levelo://app?vid=2f594713-2b96-465c-b77e-4a8c28b336d2","ios":"levelo://app?vid=2f594713-2b96-465c-b77e-4a8c28b336d2"},"vehicle_type_id":"4","last_reported":1768324693,"current_range_meters":8800,"station_id":"ce4bhgp2rcd13ifvqfe0","pricing_plan_id":"cebpf4jnsgd1na2vs0mg"},{"bike_id":"43738401-0000-4ed6-a69e-b6ebffac4bdb","system_id":"levelo_inurba_marseille","lat":43.25113,"lon":5.40316,"is_reserved":false,"is_disabled":false,"rental_uris":{"android":"levelo://app?vid=43738401-0000-4ed6-a69e-b6ebffac4bdb","ios":"levelo://app?vid=43738401-0000-4ed6-a69e-b6ebffac4bdb"},"vehicle_type_id":"4","last_reported":1768324693,"current_range_meters":8800,"station_id":"ce4bhlh2rcd13ifvqgig","pricing_plan_id":"cebpf4jnsgd1na2vs0mg"},{"bike_id":"cff36d3a-a2a6-4fcb-ac92-f47e8ea4afef","system_id":"levelo_inurba_marseille","lat":43.288618,"lon":5.425152,"is_reserved":false,"is_disabled":false,"rental_uris":{"android":"levelo://app?vid=cff36d3a-a2a6-4fcb-ac92-f47e8ea4afef","ios":"levelo://app?vid=cff36d3a-a2a6-4fcb-ac92-f47e8ea4afef"},"vehicle_type_id":"4","last_reported":1768324693,"current_range_meters":8800,"station_id":"st_d3b462108ojc7389ooeg","pricing_plan_id":"cebpf4jnsgd1na2vs0mg"},{"bike_id":"e495eb23-96b0-4afa-a6fd-13a04b5007b0","system_id":"levelo_inurba_marseille","lat":43.290675,"lon":5.371763,"is_reserved":false,"is_disabled":false,"rental_uris":{"android":"levelo://app?vid=e495eb23-96b0-4afa-a6fd-13a04b5007b0","ios":"levelo://app?vid=e495eb23-96b0-4afa-a6fd-13a04b5007b0"},"vehicle_type_id":"4","last_reported":1768324693,"current_range_meters":8800,"station_id":"ce4bh5p2rcd13ifvqe4g","pricing_plan_id":"cebpf4jnsgd1na2vs0mg"},{"bike_id":"dd82bb59-7829-4c53-a4f7-95c2c13f9278","system_id":"levelo_inurba_marseille","lat":43.29951,"lon":5.37513,"is_reserved":false,"is_disabled":false,"rental_uris":{"android":"levelo://app?vid=dd82bb59-7829-4c53-a4f7-95c2c13f9278","ios":"levelo://app?vid=dd82bb59-7829-4c53-a4f7-95c2c13f9278"},"vehicle_type_id":"4","last_reported":1768324693,"current_range_meters":8800,"station_id":"ce4bgjh2rcd13ifvqbg0","pricing_plan_id":"cebpf4jnsgd1na2vs0mg"},{"bike_id":"e4a6d26c-5f63-4fdd-8541-f6e62b53ccd0","system_id":"levelo_inurba_marseille","lat":43.28883,"lon":5.42507,"is_reserved":false,"is_disabled":false,"rental_uris":{"android":"levelo://app?vid=e4a6d26c-5f63-4fdd-8541-f6e62b53ccd0","ios":"levelo://app?vid=e4a6d26c-5f63-4fdd-8541-f6e62b53ccd0"},"vehicle_type_id":"4","last_reported":1768324693,"current_range_meters":8800,"station_id":"st_d3b462108ojc7389ooeg","pricing_plan_id":"cebpf4jnsgd1na2vs0mg"},{"bike_id":"f49d0ce0-6e6e-47a1-947f-3b3cc7ef6c5b","system_id":"levelo_inurba_marseille","lat":43.30643,"lon":5.40083,"is_reserved":false,"is_disabled":false,"rental_uris":{"android":"levelo://app?vid=f49d0ce0-6e6e-47a1-947f-3b3cc7ef6c5b","ios":"levelo://app?vid=f49d0ce0-6e6e-47a1-947f-3b3cc7ef6c5b"},"vehicle_type_id":"4","last_reported":1768324693,"current_range_meters":8800,"station_id":"ce4bh112rcd13ifvqda0","pricing_plan_id":"cebpf4jnsgd1na2vs0mg"},{"bike_id":"9600ee7f-c134-429a-9b6a-b4eda8311a3e","system_id":"levelo_inurba_marseille","lat":43.24686,"lon":5.38176,"is_reserved":false,"is_disabled":true,"rental_uris":{"android":"levelo://app?vid=9600ee7f-c134-429a-9b6a-b4eda8311a3e","ios":"levelo://app?vid=9600ee7f-c134-429a-9b6a-b4eda8311a3e"},"vehicle_type_id":"4","last_reported":1768324693,"current_range_meters":8800,"station_id":"ce4bhih2rcd13ifvqfr0","pricing_plan_id":"cebpf4jnsgd1na2vs0mg"},{"bike_id":"5d753472-8af1-40a8-b93c-6901afeb049e","system_id":"levelo_inurba_marseille","lat":43.23746,"lon":5.3664,"is_reserved":false,"is_disabled":false,"rental_uris":{"android":"levelo://app?vid=5d753472-8af1-40a8-b93c-6901afeb049e","ios":"levelo://app?vid=5d753472-8af1-40a8-b93c-6901afeb049e"},"vehicle_type_id":"4","last_reported":1768324693,"current_range_meters":8800,"station_id":"st_d3nk18o9ro0c73en2l3g","pricing_plan_id":"cebpf4jnsgd1na2vs0mg"},{"bike_id":"7cb71b2a-cdcb-4df1-8b45-14f0946816db","system_id":"levelo_inurba_marseille","lat":43.29543,"lon":5.38544,"is_reserved":false,"is_disabled":false,"rental_uris":{"android":"levelo://app?vid=7cb71b2a-cdcb-4df1-8b45-14f0946816db","ios":"levelo://app?vid=7cb71b2a-cdcb-4df1-8b45-14f0946816db"},"vehicle_type_id":"4","last_reported":1768324693,"current_range_meters":8800,"station_id":"ce4bgih2rcd13ifvqba0","pricing_plan_id":"cebpf4jnsgd1na2vs0mg"},{"bike_id":"6653bd4a-133c-440f-b021-71b1db76cdc6","system_id":"levelo_inurba_marseille","lat":43.29787,"lon":5.39345,"is_reserved":false,"is_disabled":false,"rental_uris":{"android":"levelo://app?vid=6653bd4a-133c-440f-b021-71b1db76cdc6","ios":"levelo://app?vid=6653bd4a-133c-440f-b021-71b1db76cdc6"},"vehicle_type_id":"4","last_reported":1768324693,"current_range_meters":8800,"station_id":"chh1huq6cuj3fo74tm60","pricing_plan_id":"cebpf4jnsgd1na2vs0mg"},{"bike_id":"b4cd75b4-a1c3-475b-8113-d2eeee83c135","system_id":"levelo_inurba_marseille","lat":43.31323,"lon":5.3969,"is_reserved":false,"is_disabled":false,"rental_uris":{"android":"levelo://app?vid=b4cd75b4-a1c3-475b-8113-d2eeee83c135","ios":"levelo://app?vid=b4cd75b4-a1c3-475b-8113-d2eeee83c135"},"vehicle_type_id":"4","last_reported":1768324693,"current_range_meters":8800,"station_id":"ce4bgvp2rcd13ifvqcu0","pricing_plan_id":"cebpf4jnsgd1na2vs0mg"},{"bike_id":"54a665b1-efb8-4a74-a5c5-3658aaf489a2","system_id":"levelo_inurba_marseille","lat":43.28479,"lon":5.4839,"is_reserved":false,"is_disabled":false,"rental_uris":{"android":"levelo://app?vid=54a665b1-efb8-4a74-a5c5-3658aaf489a2","ios":"levelo://app?vid=54a665b1-efb8-4a74-a5c5-3658aaf489a2"},"vehicle_type_id":"4","last_reported":1768324693,"current_range_meters":8800,"station_id":"","pricing_plan_id":"cebpf4jnsgd1na2vs0mg"},{"bike_id":"1a3905a6-c265-4e57-845a-e219ffc5a2ea","system_id":"levelo_inurba_marseille","lat":43.26566,"lon":5.39011,"is_reserved":false,"is_disabled":false,"rental_uris":{"android":"levelo://app?vid=1a3905a6-c265-4e57-845a-e219ffc5a2ea","ios":"levelo://app?vid=1a3905a6-c265-4e57-845a-e219ffc5a2ea"},"vehicle_type_id":"4","last_reported":1768324693,"current_range_meters":8800,"station_id":"ce4bhe12rcd13ifvqf30","pricing_plan_id":"cebpf4jnsgd1na2vs0mg"},{"bike_id":"6f82e636-1cf8-4d17-966b-f1fdd1089a3d","system_id":"levelo_inurba_marseille","lat":43.30272,"lon":5.37266,"is_reserved":false,"is_disabled":false,"rental_uris":{"android":"levelo://app?vid=6f82e636-1cf8-4d17-966b-f1fdd1089a3d","ios":"levelo://app?vid=6f82e636-1cf8-4d17-966b-f1fdd1089a3d"},"vehicle_type_id":"4","last_reported":1768324693,"current_range_meters":8800,"station_id":"","pricing_plan_id":"cebpf4jnsgd1na2vs0mg"},{"bike_id":"53e022ad-e5c5-4539-8c53-cc2b0aa06d27","system_id":"levelo_inurba_marseille","lat":43.28327,"lon":5.38846,"is_reserved":false,"is_disabled":true,"rental_uris":{"android":"levelo://app?vid=53e022ad-e5c5-4539-8c53-cc2b0aa06d27","ios":"levelo://app?vid=53e022ad-e5c5-4539-8c53-cc2b0aa06d27"},"vehicle_type_id":"4","last_reported":1768324693,"current_range_meters":8800,"station_id":"ce4bh492rcd13ifvqdvg","pricing_plan_id":"cebpf4jnsgd1na2vs0mg"},{"bike_id":"de4fdcf9-092b-41a0-8dfa-c29b327d00ab","system_id":"levelo_inurba_marseille","lat":43.3128,"lon":5.36893,"is_reserved":false,"is_disabled":false,"rental_uris":{"android":"levelo://app?vid=de4fdcf9-092b-41a0-8dfa-c29b327d00ab","ios":"levelo://app?vid=de4fdcf9-092b-41a0-8dfa-c29b327d00ab"},"vehicle_type_id":"4","last_reported":1768324693,"current_range_meters":9200,"station_id":"","pricing_plan_id":"cebpf4jnsgd1na2vs0mg"},{"bike_id":"724de8c9-2883-4455-a458-126b64737fa0","system_id":"levelo_inurba_marseille","lat":43.285314,"lon":5.441038,"is_reserved":false,"is_disabled":false,"rental_uris":{"android":"levelo://app?vid=724de8c9-2883-4455-a458-126b64737fa0","ios":"levelo://app?vid=724de8c9-2883-4455-a458-126b64737fa0"},"vehicle_type_id":"4","last_reported":1768324693,"current_range_meters":9200,"station_id":"st_d3j3df2ikq2c7380ej80","pricing_plan_id":"cebpf4jnsgd1na2vs0mg"},{"bike_id":"d8b52035-9107-4203-ba3b-8ab85229defc","system_id":"levelo_inurba_marseille","lat":43.25885,"lon":5.39923,"is_reserved":false,"is_disabled":true,"rental_uris":{"android":"levelo://app?vid=d8b52035-9107-4203-ba3b-8ab85229defc","ios":"levelo://app?vid=d8b52035-9107-4203-ba3b-8ab85229defc"},"vehicle_type_id":"4","last_reported":1768324693,"current_range_meters":9200,"station_id":"ce4bhl92rcd13ifvqghg","pricing_plan_id":"cebpf4jnsgd1na2vs0mg"},{"bike_id":"1bf9cf6d-e072-4431-a82d-5627096c1643","system_id":"levelo_inurba_marseille","lat":43.29565,"lon":5.36762,"is_reserved":false,"is_disabled":false,"rental_uris":{"android":"levelo://app?vid=1bf9cf6d-e072-4431-a82d-5627096c1643","ios":"levelo://app?vid=1bf9cf6d-e072-4431-a82d-5627096c1643"},"vehicle_type_id":"4","last_reported":1768324693,"current_range_meters":9200,"station_id":"ce4bgph2rcd13ifvqc2g","pricing_plan_id":"cebpf4jnsgd1na2vs0mg"},{"bike_id":"dccf6443-2690-4508-8f9a-a0435732725f","system_id":"levelo_inurba_marseille","lat":43.25449,"lon":5.37681,"is_reserved":false,"is_disabled":false,"rental_uris":{"android":"levelo://app?vid=dccf6443-2690-4508-8f9a-a0435732725f","ios":"levelo://app?vid=dccf6443-2690-4508-8f9a-a0435732725f"},"vehicle_type_id":"4","last_reported":1768324693,"current_range_meters":9200,"station_id":"","pricing_plan_id":"cebpf4jnsgd1na2vs0mg"},{"bike_id":"766e3265-b3b9-4935-ab1f-ab84a9501b70","system_id":"levelo_inurba_marseille","lat":43.29742,"lon":5.37692,"is_reserved":false,"is_disabled":false,"rental_uris":{"android":"levelo://app?vid=766e3265-b3b9-4935-ab1f-ab84a9501b70","ios":"levelo://app?vid=766e3265-b3b9-4935-ab1f-ab84a9501b70"},"vehicle_type_id":"4","last_reported":1768324693,"current_range_meters":9200,"station_id":"ce4bgkh2rcd13ifvqbl0","pricing_plan_id":"cebpf4jnsgd1na2vs0mg"},