{"last_updated":1724170168,"ttl":30,"version":"2.2","data":{"bikes":[{"bike_id":"6700a8bd-f0be-4bd9-9a3f-c29d66516553","system_id":"levelo_inurba_marseille","lat":43.313452,"lon":5.367045,"is_reserved":false,"is_disabled":false,"rental_uris":{"android":"levelo://app?vid=6700a8bd-f0be-4bd9-9a3f-c29d66516553","ios":"levelo://app?vid=6700a8bd-f0be-4bd9-9a3f-c29d66516553"},"vehicle_type_id":"4","last_reported":1724170168,"current_range_meters":0,"station_id":"ce4bgr92rcd13ifvqc6g","pricing_plan_id":"cebpf4jnsgd1na2vs0mg"},{"bike_id":"d77da58d-219e-413e-8616-81e8620eeef0","system_id":"levelo_inurba_marseille","lat":43.312239,"lon":5.368562,"is_reserved":false,"is_disabled":false,"rental_uris":{"android":"levelo://app?vid=d77da58d-219e-413e-8616-81e8620eeef0","ios":"levelo://app?vid=d77da58d-219e-413e-8616-81e8620eeef0"},"vehicle_type_id":"4","last_reported":1724170168,"current_range_meters":1200,"station_id":"ce4bgl92rcd13ifvqbq0","pricing_plan_id":"cebpf4jnsgd1na2vs0mg"},{"bike_id":"b3865314-6ed5-4292-b07c-574ca3234e9b","system_id":"levelo_inurba_marseille","lat":43.309076,"lon":5.368465,"is_reserved":false,"is_disabled":false,"rental_uris":{"android":"levelo://app?vid=b3865314-6ed5-4292-b07c-574ca3234e9b","ios":"levelo://app?vid=b3865314-6ed5-4292-b07c-574ca3234e9b"},"vehicle_type_id":"4","last_reported":1724170168,"current_range_meters":16000,"station_id":"ce4bgn92rcd13ifvqbvg","pricing_plan_id":"cebpf4jnsgd1na2vs0mg"},{"bike_id":"fdffc3fb-1d57-431f-a9a7-fb503b2aa80f","system_id":"levelo_inurba_marseille","lat":43.314811,"lon":5.373103,"is_reserved":false,"is_disabled":false,"rental_uris":{"android":"levelo://app?vid=fdffc3fb-1d57-431f-a9a7-fb503b2aa80f","ios":"levelo://app?vid=fdffc3fb-1d57-431f-a9a7-fb503b2aa80f"},"vehicle_type_id":"4","last_reported":1724170168,"current_range_meters":0,"station_id":"ce4bgt12rcd13ifvqcd0","pricing_plan_id":"cebpf4jnsgd1na2vs0mg"},{"bike_id":"5e6d1c49-9ab1-42a8-809c-8970461cfd08","system_id":"levelo_inurba_marseille","lat":43.3054,"lon":5.36709,"is_reserved":false,"is_disabled":false,"rental_uris":{"android":"levelo://app?vid=5e6d1c49-9ab1-42a8-809c-8970461cfd08","ios":"levelo://app?vid=5e6d1c49-9ab1-42a8-809c-8970461cfd08"},"vehicle_type_id":"4","last_reported":1724170168,"current_range_meters":0,"station_id":"ce4bgrp2rcd13ifvqc9g","pricing_plan_id":"cebpf4jnsgd1na2vs0mg"},{"bike_id":"213fe5e4-1cba-45b6-bbc7-a69285eea5c6","system_id":"levelo_inurba_marseille","lat":43.3054,"lon":5.36715,"is_reserved":false,"is_disabled":false,"rental_uris":{"android":"levelo://app?vid=213fe5e4-1cba-45b6-bbc7-a69285eea5c6","ios":"levelo://app?vid=213fe5e4-1cba-45b6-bbc7-a69285eea5c6"},"vehicle_type_id":"4","last_reported":1724170168,"current_range_meters":22400,"station_id":"ce4bgrp2rcd13ifvqc9g","pricing_plan_id":"cebpf4jnsgd1na2vs0mg"},{"bike_id":"37d6b62b-7138-468d-99ab-8b4233b91176","system_id":"levelo_inurba_marseille","lat":43.30511,"lon":5.36646,"is_reserved":false,"is_disabled":false,"rental_uris":{"android":"levelo://app?vid=37d6b62b-7138-468d-99ab-8b4233b91176","ios":"levelo://app?vid=37d6b62b-7138-468d-99ab-8b4233b91176"},"vehicle_type_id":"4","last_reported":1724170168,"current_range_meters":30000,"station_id":"","pricing_plan_id":"cebpf4jnsgd1na2vs0mg"},{"bike_id":"d8f912b6-46d8-495c-91e9-7c04de52d50a","system_id":"levelo_inurba_marseille","lat":43.306005,"lon":5.37217,"is_reserved":false,"is_disabled":false,"rental_uris":{"android":"levelo://app?vid=d8f912b6-46d8-495c-91e9-7c04de52d50a","ios":"levelo://app?vid=d8f912b6-46d8-495c-91e9-7c04de52d50a"},"vehicle_type_id":"4","last_reported":1724170168,"current_range_meters":0,"station_id":"ce4bgqh2rcd13ifvqc4g","pricing_plan_id":"cebpf4jnsgd1na2vs0mg"},{"bike_id":"ad500d14-b8ea-4b18-aacb-47bdb4f587b7","system_id":"levelo_inurba_marseille","lat":43.31131,"lon":5.377638,"is_reserved":false,"is_disabled":false,"rental_uris":{"android":"levelo://app?vid=ad500d14-b8ea-4b18-aacb-47bdb4f587b7","ios":"levelo://app?vid=ad500d14-b8ea-4b18-aacb-47bdb4f587b7"},"vehicle_type_id":"4","last_reported":1724170168,"current_range_meters":8400,"station_id":"ce4bgt92rcd13ifvqcg0","pricing_plan_id":"cebpf4jnsgd1na2vs0mg"},{"bike_id":"effe4d34-2455-470b-ae42-251b2e8151ff","system_id":"levelo_inurba_marseille","lat":43.311131,"lon":5.377651,"is_reserved":false,"is_disabled":false,"rental_uris":{"android":"levelo://app?vid=effe4d34-2455-470b-ae42-251b2e8151ff","ios":"levelo://app?vid=effe4d34-2455-470b-ae42-251b2e8151ff"},"vehicle_type_id":"4","last_reported":1724170168,"current_range_meters":3200,"station_id":"ce4bgt92rcd13ifvqcg0","pricing_plan_id":"cebpf4jnsgd1na2vs0mg"},{"bike_id":"8394995a-e43a-4f17-b9b3-7e2a1759dd91","system_id":"levelo_inurba_marseille","lat":43.311131,"lon":5.377651,"is_reserved":false,"is_disabled":false,"rental_uris":{"android":"levelo://app?vid=8394995a-e43a-4f17-b9b3-7e2a1759dd91","ios":"levelo://app?vid=8394995a-e43a-4f17-b9b3-7e2a1759dd91"},"vehicle_type_id":"4","last_reported":1724170168,"current_range_meters":19200,"station_id":"ce4bgt92rcd13ifvqcg0","pricing_plan_id":"cebpf4jnsgd1na2vs0mg"},{"bike_id":"c4d8f0f4-0717-4a07-ba35-95e0e4b1f4ff","system_id":"levelo_inurba_marseille","lat":43.311057,"lon":5.37774,"is_reserved":false,"is_disabled":false,"rental_uris":{"android":"levelo://app?vid=c4d8f0f4-0717-4a07-ba35-95e0e4b1f4ff","ios":"levelo://app?vid=c4d8f0f4-0717-4a07-ba35-95e0e4b1f4ff"},"vehicle_type_id":"4","last_reported":1724170168,"current_range_meters":20400,"station_id":"ce4bgt92rcd13ifvqcg0","pricing_plan_id":"cebpf4jnsgd1na2vs0mg"},{"bike_id":"de55a4a5-24ef-4508-ab66-ae1795b7a5b7","system_id":"levelo_inurba_marseille","lat":43.303046,"lon":5.368981,"is_reserved":false,"is_disabled":false,"rental_uris":{"android":"levelo://app?vid=de55a4a5-24ef-4508-ab66-ae1795b7a5b7","ios":"levelo://app?vid=de55a4a5-24ef-4508-ab66-ae1795b7a5b7"},"vehicle_type_id":"4","last_reported":1724170168,"current_range_meters":13600,"station_id":"ce4bgqh2rcd13ifvqc5g","pricing_plan_id":"cebpf4jnsgd1na2vs0mg"},{"bike_id":"4670714f-d6f4-483e-af3d-267b69ea93b4","system_id":"levelo_inurba_marseille","lat":43.3019,"lon":5.36617,"is_reserved":false,"is_disabled":false,"rental_uris":{"android":"levelo://app?vid=4670714f-d6f4-483e-af3d-267b69ea93b4","ios":"levelo://app?vid=4670714f-d6f4-483e-af3d-267b69ea93b4"},"vehicle_type_id":"4","last_reported":1724170168,"current_range_meters":29600,"station_id":"ce4bgrh2rcd13ifvqc8g","pricing_plan_id":"cebpf4jnsgd1na2vs0mg"},{"bike_id":"f80a6e3b-0312-4625-b69a-a3f3baab20e6","system_id":"levelo_inurba_marseille","lat":43.304606,"lon":5.379026,"is_reserved":false,"is_disabled":false,"rental_uris":{"android":"levelo://app?vid=f80a6e3b-0312-4625-b69a-a3f3baab20e6","ios":"levelo://app?vid=f80a6e3b-0312-4625-b69a-a3f3baab20e6"},"vehicle_type_id":"4","last_reported":1724170168,"current_range_meters":0,"station_id":"ce4bgup2rcd13ifvqcn0","pricing_plan_id":"cebpf4jnsgd1na2vs0mg"},{"bike_id":"dee6bab1-fe9e-4fed-9479-36bd02304a33","system_id":"levelo_inurba_marseille","lat":43.304606,"lon":5.379026,"is_reserved":false,"is_disabled":false,"rental_uris":{"android":"levelo://app?vid=dee6bab1-fe9e-4fed-9479-36bd02304a33","ios":"levelo://app?vid=dee6bab1-fe9e-4fed-9479-36bd02304a33"},"vehicle_type_id":"4","last_reported":1724170168,"current_range_meters":1600,"station_id":"ce4bgup2rcd13ifvqcn0","pricing_plan_id":"cebpf4jnsgd1na2vs0mg"},{"bike_id":"dc18ef80-7b17-4500-950b-a5b475701f80","system_id":"levelo_inurba_marseille","lat":43.324771,"lon":5.36557,"is_reserved":false,"is_disabled":false,"rental_uris":{"android":"levelo://app?vid=dc18ef80-7b17-4500-950b-a5b475701f80","ios":"levelo://app?vid=dc18ef80-7b17-4500-950b-a5b475701f80"},"vehicle_type_id":"4","last_reported":1724170168,"current_range_meters":7600,"station_id":"ce4bhs12rcd13ifvqhvg","pricing_plan_id":"cebpf4jnsgd1na2vs0mg"},{"bike_id":"b3111b06-7f3f-409f-bfb9-10649cb2137b","system_id":"levelo_inurba_marseille","lat":43.324771,"lon":5.36557,"is_reserved":false,"is_disabled":false,"rental_uris":{"android":"levelo://app?vid=b3111b06-7f3f-409f-bfb9-10649cb2137b","ios":"levelo://app?vid=b3111b06-7f3f-409f-bfb9-10649cb2137b"},"vehicle_type_id":"4","last_reported":1724170168,"current_range_meters":31200,"station_id":"ce4bhs12rcd13ifvqhvg","pricing_plan_id":"cebpf4jnsgd1na2vs0mg"},{"bike_id":"278b0b8d-f4d5-4d54-bea8-763ba57487ff","system_id":"levelo_inurba_marseille","lat":43.302784,"lon":5.377158,"is_reserved":false,"is_disabled":false,"rental_uris":{"android":"levelo://app?vid=278b0b8d-f4d5-4d54-bea8-763ba57487ff","ios":"levelo://app?vid=278b0b8d-f4d5-4d54-bea8-763ba57487ff"},"vehicle_type_id":"4","last_reported":1724170168,"current_range_meters":0,"station_id":"ce4bguh2rcd13ifvqcj0","pricing_plan_id":"cebpf4jnsgd1na2vs0mg"},{"bike_id":"33a82c7b-d5cc-48c9-bbca-63341565519c","system_id":"levelo_inurba_marseille","lat":43.30143,"lon":5.37413,"is_reserved":false,"is_disabled":false,"rental_uris":{"android":"levelo://app?vid=33a82c7b-d5cc-48c9-bbca-63341565519c","ios":"levelo://app?vid=33a82c7b-d5cc-48c9-bbca-63341565519c"},"vehicle_type_id":"4","last_reported":1724170168,"current_range_meters":28000,"station_id":"ce4bgs92rcd13ifvqcc0","pricing_plan_id":"cebpf4jnsgd1na2vs0mg"},{"bike_id":"527fecbf-b234-4581-b587-3866a41f4d93","system_id":"levelo_inurba_marseille","lat":43.30143,"lon":5.37413,"is_reserved":false,"is_disabled":false,"rental_uris":{"android":"levelo://app?vid=527fecbf-b234-4581-b587-3866a41f4d93","ios":"levelo://app?vid=527fecbf-b234-4581-b587-3866a41f4d93"},"vehicle_type_id":"4","last_reported":1724170168,"current_range_meters":5200,"station_id":"ce4bgs92rcd13ifvqcc0","pricing_plan_id":"cebpf4jnsgd1na2vs0mg"},{"bike_id":"03a742fa-1190-4c07-b6e9-54425bd42d48","system_id":"levelo_inurba_marseille","lat":43.30533,"lon":5.38098,"is_reserved":false,"is_disabled":false,"rental_uris":{"android":"levelo://app?vid=03a742fa-1190-4c07-b6e9-54425bd42d48","ios":"levelo://app?vid=03a742fa-1190-4c07-b6e9-54425bd42d48"},"vehicle_type_id":"4","last_reported":1724170168,"current_range_meters":26800,"station_id":"","pricing_plan_id":"cebpf4jnsgd1na2vs0mg"},{"bike_id":"1718a1da-1837-4d31-b530-5fc51e882be8","system_id":"levelo_inurba_marseille","lat":43.319935,"lon":5.381699,"is_reserved":false,"is_disabled":false,"rental_uris":{"android":"levelo://app?vid=1718a1da-1837-4d31-b530-5fc51e882be8","ios":"levelo://app?vid=1718a1da-1837-4d31-b530-5fc51e882be8"},"vehicle_type_id":"4","last_reported":1724170168,"current_range_meters":1200,"station_id":"ce4bhr12rcd13ifvqhpg","pricing_plan_id":"cebpf4jnsgd1na2vs0mg"},{"bike_id":"d165f899-d5c3-405b-b48c-ad0c59646f33","system_id":"levelo_inurba_marseille","lat":43.313571,"lon":5.384829,"is_reserved":false,"is_disabled":false,"rental_uris":{"android":"levelo://app?vid=d165f899-d5c3-405b-b48c-ad0c59646f33","ios":"levelo://app?vid=d165f899-d5c3-405b-b48c-ad0c59646f33"},"vehicle_type_id":"4","last_reported":1724170168,"current_range_meters":1600,"station_id":"ce4bgt92rcd13ifvqcf0","pricing_plan_id":"cebpf4jnsgd1na2vs0mg"},{"bike_id":"96e271da-109d-47fb-b400-abf3d5c5b1f6","system_id":"levelo_inurba_marseille","lat":43.29948,"lon":5.36538,"is_reserved":false,"is_disabled":false,"rental_uris":{"android":"levelo://app?vid=96e271da-109d-47fb-b400-abf3d5c5b1f6","ios":"levelo://app?vid=96e271da-109d-47fb-b400-abf3d5c5b1f6"},"vehicle_type_id":"4","last_reported":1724170168,"current_range_meters":0,"station_id":"ce4bgm92rcd13ifvqbr0","pricing_plan_id":"cebpf4jnsgd1na2vs0mg"},{"bike_id":"03934bb8-0741-46ad-86dc-2168bf6807c9","system_id":"levelo_inurba_marseille","lat":43.299724,"lon":5.371829,"is_reserved":false,"is_disabled":false,"rental_uris":{"android":"levelo://app?vid=03934bb8-0741-46ad-86dc-2168bf6807c9","ios":"levelo://app?vid=03934bb8-0741-46ad-86dc-2168bf6807c9"},"vehicle_type_id":"4","last_reported":1724170168,"current_range_meters":400,"station_id":"ce4bgr92rcd13ifvqc7g","pricing_plan_id":"cebpf4jnsgd1na2vs0mg"},{"bike_id":"80ad6dbc-e75a-4d65-9548-83b8144ee1af","system_id":"levelo_inurba_marseille","lat":43.298433,"lon":5.362774,"is_reserved":false,"is_disabled":false,"rental_uris":{"android":"levelo://app?vid=80ad6dbc-e75a-4d65-9548-83b8144ee1af","ios":"levelo://app?vid=80ad6dbc-e75a-4d65-9548-83b8144ee1af"},"vehicle_type_id":"4","last_reported":1724170168,"current_range_meters":19200,"station_id":"ce4bgpp2rcd13ifvqc3g","pricing_plan_id":"cebpf4jnsgd1na2vs0mg"},{"bike_id":"482a7d53-4c96-47c5-8e32-f00bf7e4179c","system_id":"levelo_inurba_marseille","lat":43.298433,"lon":5.362774,"is_reserved":false,"is_disabled":false,"rental_uris":{"android":"levelo://app?vid=482a7d53-4c96-47c5-8e32-f00bf7e4179c","ios":"levelo://app?vid=482a7d53-4c96-47c5-8e32-f00bf7e4179c"},"vehicle_type_id":"4","last_reported":1724170168,"current_range_meters":20400,"station_id":"ce4bgpp2rcd13ifvqc3g","pricing_plan_id":"cebpf4jnsgd1na2vs0mg"},{"bike_id":"6cb372ac-c02a-4761-95f9-893eb71c6f4e","system_id":"levelo_inurba_marseille","lat":43.29853,"lon":5.3629,"is_reserved":false,"is_disabled":false,"rental_uris":{"android":"levelo://app?vid=6cb372ac-c02a-4761-95f9-893eb71c6f4e","ios":"levelo://app?vid=6cb372ac-c02a-4761-95f9-893eb71c6f4e"},"vehicle_type_id":"4","last_reported":1724170168,"current_range_meters":0,"station_id":"ce4bgpp2rcd13ifvqc3g","pricing_plan_id":"cebpf4jnsgd1na2vs0mg"},{"bike_id":"4d0f94e6-1005-4fcb-b7fa-10a6f46d3d0b","system_id":"levelo_inurba_marseille","lat":43.298433,"lon":5.362774,"is_reserved":false,"is_disabled":false,"rental_uris":{"android":"levelo://app?vid=4d0f94e6-1005-4fcb-b7fa-10a6f46d3d0b","ios":"levelo://app?vid=4d0f94e6-1005-4fcb-b7fa-10a6f46d3d0b"},"vehicle_type_id":"4","last_reported":1724170168,"current_range_meters":8800,"station_id":"ce4bgpp2rcd13ifvqc3g","pricing_plan_id":"cebpf4jnsgd1na2vs0mg"},{"bike_id":"04fa6419-f7ca-400e-b5d8-1568b056dd13","system_id":"levelo_inurba_marseille","lat":43.305364,"lon":5.384119,"is_reserved":false,"is_disabled":false,"rental_uris":{"android":"levelo://app?vid=04fa6419-f7ca-400e-b5d8-1568b056dd13","ios":"levelo://app?vid=04fa6419-f7ca-400e-b5d8-1568b056dd13"},"vehicle_type_id":"4","last_reported":1724170168,"current_range_meters":0,"station_id":"ce4bgg92rcd13ifvqb30","pricing_plan_id":"cebpf4jnsgd1na2vs0mg"},{"bike_id":"72ee5bcc-c564-4def-a85b-42a7c2e5d2fc","system_id":"levelo_inurba_marseille","lat":43.29919,"lon":5.37459,"is_reserved":false,"is_disabled":false,"rental_uris":{"android":"levelo://app?vid=72ee5bcc-c564-4def-a85b-42a7c2e5d2fc","ios":"levelo://app?vid=72ee5bcc-c564-4def-a85b-42a7c2e5d2fc"},"vehicle_type_id":"4","last_reported":1724170168,"current_range_meters":8800,"station_id":"ce4bgjh2rcd13ifvqbg0","pricing_plan_id":"cebpf4jnsgd1na2vs0mg"},{"bike_id":"966e9368-4f46-45f7-862e-2a1526b532b1","system_id":"levelo_inurba_marseille","lat":43.311722,"lon":5.387247,"is_reserved":false,"is_disabled":false,"rental_uris":{"android":"levelo://app?vid=966e9368-4f46-45f7-862e-2a1526b532b1","ios":"levelo://app?vid=966e9368-4f46-45f7-862e-2a1526b532b1"},"vehicle_type_id":"4","last_reported":1724170168,"current_range_meters":14000,"station_id":"ce4bgv12rcd13ifvqcp0","pricing_plan_id":"cebpf4jnsgd1na2vs0mg"},{"bike_id":"b1d915a2-457c-45fb-8e8e-61315b15c39e","system_id":"levelo_inurba_marseille","lat":43.311722,"lon":5.387247,"is_reserved":false,"is_disabled":false,"rental_uris":{"android":"levelo://app?vid=b1d915a2-457c-45fb-8e8e-61315b15c39e","ios":"levelo://app?vid=b1d915a2-457c-45fb-8e8e-61315b15c39e"},"vehicle_type_id":"4","last_reported":1724170168,"current_range_meters":19200,"station_id":"ce4bgv12rcd13ifvqcp0","pricing_plan_id":"cebpf4jnsgd1na2vs0mg"},{"bike_id":"490cdb5c-7b14-42e4-b584-e7e5020b5373","system_id":"levelo_inurba_marseille","lat":43.297774,"lon":5.370875,"is_reserved":false,"is_disabled":false,"rental_uris":{"android":"levelo://app?vid=490cdb5c-7b14-42e4-b584-e7e5020b5373","ios":"levelo://app?vid=490cdb5c-7b14-42e4-b584-e7e5020b5373"},"vehicle_type_id":"4","last_reported":1724170168,"current_range_meters":28000,"station_id":"ce4bgop2rcd13ifvqc1g","pricing_plan_id":"cebpf4jnsgd1na2vs0mg"},{"bike_id":"26b52fe4-cfd5-4608-a773-6388c4cdc8e7","system_id":"levelo_inurba_marseille","lat":43.297794,"lon":5.370888,"is_reserved":false,"is_disabled":false,"rental_uris":{"android":"levelo://app?vid=26b52fe4-cfd5-4608-a773-6388c4cdc8e7","ios":"levelo://app?vid=26b52fe4-cfd5-4608-a773-6388c4cdc8e7"},"vehicle_type_id":"4","last_reported":1724170168,"current_range_meters":0,"station_id":"ce4bgop2rcd13ifvqc1g","pricing_plan_id":"cebpf4jnsgd1na2vs0mg"},{"bike_id":"f5756eed-ea1c-4ab7-b4f2-8ac9473fed35","system_id":"levelo_inurba_marseille","lat":43.32293,"lon":5.38272,"is_reserved":false,"is_disabled":false,"rental_uris":{"android":"levelo://app?vid=f5756eed-ea1c-4ab7-b4f2-8ac9473fed35","ios":"levelo://app?vid=f5756eed-ea1c-4ab7-b4f2-8ac9473fed35"},"vehicle_type_id":"4","last_reported":1724170168,"current_range_meters":22400,"station_id":"ce4bhr12rcd13ifvqhqg","pricing_plan_id":"cebpf4jnsgd1na2vs0mg"},{"bike_id":"e2c18947-b9de-4855-865a-3d682a13fa59","system_id":"levelo_inurba_marseille","lat":43.297163,"lon":5.365866,"is_reserved":false,"is_disabled":false,"rental_uris":{"android":"levelo://app?vid=e2c18947-b9de-4855-865a-3d682a13fa59","ios":"levelo://app?vid=e2c18947-b9de-4855-865a-3d682a13fa59"},"vehicle_type_id":"4","last_reported":1724170168,"current_range_meters":19600,"station_id":"ce4bgn12rcd13ifvqbt0","pricing_plan_id":"cebpf4jnsgd1na2vs0mg"},{"bike_id":"9b180e65-5468-487b-976f-e7bcd1f97248","system_id":"levelo_inurba_marseille","lat":43.297163,"lon":5.365866,"is_reserved":false,"is_disabled":false,"rental_uris":{"android":"levelo://app?vid=9b180e65-5468-487b-976f-e7bcd1f97248","ios":"levelo://app?vid=9b180e65-5468-487b-976f-e7bcd1f97248"},"vehicle_type_id":"4","last_reported":1724170168,"current_range_meters":13600,"station_id":"ce4bgn12rcd13ifvqbt0","pricing_plan_id":"cebpf4jnsgd1na2vs0mg"},{"bike_id":"cf8dbc58-9caf-40f4-8e70-a69bfd3ed96d","system_id":"levelo_inurba_marseille","lat":43.297163,"lon":5.365866,"is_reserved":false,"is_disabled":false,"rental_uris":{"android":"levelo://app?vid=cf8dbc58-9caf-40f4-8e70-a69bfd3ed96d","ios":"levelo://app?vid=cf8dbc58-9caf-40f4-8e70-a69bfd3ed96d"},"vehicle_type_id":"4","last_reported":1724170168,"current_range_meters":17600,"station_id":"ce4bgn12rcd13ifvqbt0","pricing_plan_id":"cebpf4jnsgd1na2vs0mg"},{"bike_id":"c9124b89-4808-44e1-b09b-44eb5f889bfc","system_id":"levelo_inurba_marseille","lat":43.297433,"lon":5.372283,"is_reserved":false,"is_disabled":false,"rental_uris":{"android":"levelo://app?vid=c9124b89-4808-44e1-b09b-44eb5f889bfc","ios":"levelo://app?vid=c9124b89-4808-44e1-b09b-44eb5f889bfc"},"vehicle_type_id":"4","last_reported":1724170168,"current_range_meters":3600,"station_id":"","pricing_plan_id":"cebpf4jnsgd1na2vs0mg"},{"bike_id":"c4995323-13df-4ee2-94a5-ed025fa9cda7","system_id":"levelo_inurba_marseille","lat":43.30217,"lon":5.38325,"is_reserved":false,"is_disabled":false,"rental_uris":{"android":"levelo://app?vid=c4995323-13df-4ee2-94a5-ed025fa9cda7","ios":"levelo://app?vid=c4995323-13df-4ee2-94a5-ed025fa9cda7"},"vehicle_type_id":"4","last_reported":1724170168,"current_range_meters":18800,"station_id":"","pricing_plan_id":"cebpf4jnsgd1na2vs0mg"},{"bike_id":"173c87e2-330e-4e49-92a9-1f77ef590222","system_id":"levelo_inurba_marseille","lat":43.29672,"lon":5.36435,"is_reserved":false,"is_disabled":false,"rental_uris":{"android":"levelo://app?vid=173c87e2-330e-4e49-92a9-1f77ef590222","ios":"levelo://app?vid=173c87e2-330e-4e49-92a9-1f77ef590222"},"vehicle_type_id":"4","last_reported":1724170168,"current_range_meters":26800,"station_id":"","pricing_plan_id":"cebpf4jnsgd1na2vs0mg"},{"bike_id":"9597cf23-d3e9-4e35-8e69-3d675c186a85","system_id":"levelo_inurba_marseille","lat":43.2968,"lon":5.37291,"is_reserved":false,"is_disabled":false,"rental_uris":{"android":"levelo://app?vid=9597cf23-d3e9-4e35-8e69-3d675c186a85","ios":"levelo://app?vid=9597cf23-d3e9-4e35-8e69-3d675c186a85"},"vehicle_type_id":"4","last_reported":1724170168,"current_range_meters":0,"station_id":"ce4bgk12rcd13ifvqbj0","pricing_plan_id":"cebpf4jnsgd1na2vs0mg"},{"bike_id":"ac501019-ea8e-4325-bb4a-6398eacf6818","system_id":"levelo_inurba_marseille","lat":43.298949,"lon":5.38022,"is_reserved":false,"is_disabled":false,"rental_uris":{"android":"levelo://app?vid=ac501019-ea8e-4325-bb4a-6398eacf6818","ios":"levelo://app?vid=ac501019-ea8e-4325-bb4a-6398eacf6818"},"vehicle_type_id":"4","last_reported":1724170168,"current_range_meters":30400,"station_id":"","pricing_plan_id":"cebpf4jnsgd1na2vs0mg"},{"bike_id":"ef39565f-8747-4597-854a-0d73dc3746f8","system_id":"levelo_inurba_marseille","lat":43.29573,"lon":5.367355,"is_reserved":false,"is_disabled":false,"rental_uris":{"android":"levelo://app?vid=ef39565f-8747-4597-854a-0d73dc3746f8","ios":"levelo://app?vid=ef39565f-8747-4597-854a-0d73dc3746f8"},"vehicle_type_id":"4","last_reported":1724170168,"current_range_meters":3600,"station_id":"ce4bgph2rcd13ifvqc2g","pricing_plan_id":"cebpf4jnsgd1na2vs0mg"},{"bike_id":"01573a9c-e8fe-4094-8820-476ab12de20d","system_id":"levelo_inurba_marseille","lat":43.296131,"lon":5.370791,"is_reserved":false,"is_disabled":false,"rental_uris":{"android":"levelo://app?vid=01573a9c-e8fe-4094-8820-476ab12de20d","ios":"levelo://app?vid=01573a9c-e8fe-4094-8820-476ab12de20d"},"vehicle_type_id":"4","last_reported":1724170168,"current_range_meters":12800,"station_id":"ce4bgnh2rcd13ifvqc0g","pricing_plan_id":"cebpf4jnsgd1na2vs0mg"},{"bike_id":"62847c7c-7d63-4766-99db-94105e6a9eb4","system_id":"levelo_inurba_marseille","lat":43.29618,"lon":5.37151,"is_reserved":false,"is_disabled":false,"rental_uris":{"android":"levelo://app?vid=62847c7c-7d63-4766-99db-94105e6a9eb4","ios":"levelo://app?vid=62847c7c-7d63-4766-99db-94105e6a9eb4"},"vehicle_type_id":"4","last_reported":1724170168,"current_range_meters":0,"station_id":"ce4bgnh2rcd13ifvqc0g","pricing_plan_id":"cebpf4jnsgd1na2vs0mg"},{"bike_id":"d516c281-ce66-4066-ba81-8fd2065ddfbc","system_id":"levelo_inurba_marseille","lat":43.29573,"lon":5.367355,"is_reserved":false,"is_disabled":false,"rental_uris":{"android":"levelo://app?vid=d516c281-ce66-4066-ba81-8fd2065ddfbc","ios":"levelo://app?vid=d516c281-ce66-4066-ba81-8fd2065ddfbc"},"vehicle_type_id":"4","last_reported":1724170168,"current_range_meters":24800,"station_id":"ce4bgph2rcd13ifvqc2g","pricing_plan_id":"cebpf4jnsgd1na2vs0mg"},{"bike_id":"6a2b4e96-0e9d-4d40-93f9-3d4cb87aad0e","system_id":"levelo_inurba_marseille","lat":43.29583,"lon":5.36747,"is_reserved":false,"is_disabled":false,"rental_uris":{"android":"levelo://app?vid=6a2b4e96-0e9d-4d40-93f9-3d4cb87aad0e","ios":"levelo://app?vid=6a2b4e96-0e9d-4d40-93f9-3d4cb87aad0e"},"vehicle_type_id":"4","last_reported":1724170168,"current_range_meters":14400,"station_id":"ce4bgph2rcd13ifvqc2g","pricing_plan_id":"cebpf4jnsgd1na2vs0mg"},{"bike_id":"311fbd4b-22e5-44e9-b361-29bf17103a2b","system_id":"levelo_inurba_marseille","lat":43.29573,"lon":5.367355,"is_reserved":false,"is_disabled":false,"rental_uris":{"android":"levelo://app?vid=311fbd4b-22e5-44e9-b361-29bf17103a2b","ios":"levelo://app?vid=311fbd4b-22e5-44e9-b361-29bf17103a2b"},"vehicle_type_id":"4","last_reported":1724170168,"current_range_meters":23200,"station_id":"ce4bgph2rcd13ifvqc2g","pricing_plan_id":"cebpf4jnsgd1na2vs0mg"},{"bike_id":"61c285e1-f254-4ee3-acf0-8b9d47569bfe","system_id":"levelo_inurba_marseille","lat":43.309589,"lon":5.390258,"is_reserved":false,"is_disabled":false,"rental_uris":{"android":"levelo://app?vid=61c285e1-f254-4ee3-acf0-8b9d47569bfe","ios":"levelo://app?vid=61c285e1-f254-4ee3-acf0-8b9d47569bfe"},"vehicle_type_id":"4","last_reported":1724170168,"current_range_meters":16800,"station_id":"ce4bgup2rcd13ifvqco0","pricing_plan_id":"cebpf4jnsgd1na2vs0mg"},{"bike_id":"cf73bdce-8075-4da0-878a-e2b07a563936","system_id":"levelo_inurba_marseille","lat":43.299028,"lon":5.381509,"is_reserved":false,"is_disabled":false,"rental_uris":{"android":"levelo://app?vid=cf73bdce-8075-4da0-878a-e2b07a563936","ios":"levelo://app?vid=cf73bdce-8075-4da0-878a-e2b07a563936"},"vehicle_type_id":"4","last_reported":1724170168,"current_range_meters":5200,"station_id":"ce4bgj12rcd13ifvqbc0","pricing_plan_id":"cebpf4jnsgd1na2vs0mg"},{"bike_id":"35198553-a9ff-4e8e-993f-93bbe7f49cf4","system_id":"levelo_inurba_marseille","lat":43.304274,"lon":5.388873,"is_reserved":false,"is_disabled":false,"rental_uris":{"android":"levelo://app?vid=35198553-a9ff-4e8e-993f-93bbe7f49cf4","ios":"levelo://app?vid=35198553-a9ff-4e8e-993f-93bbe7f49cf4"},"vehicle_type_id":"4","last_reported":1724170168,"current_range_meters":4000,"station_id":"ce4bgk12rcd13ifvqbi0","pricing_plan_id":"cebpf4jnsgd1na2vs0mg"},{"bike_id":"b96d7adc-f10c-4297-a33f-079bdd22e9b6","system_id":"levelo_inurba_marseille","lat":43.30417,"lon":5.38884,"is_reserved":false,"is_disabled":false,"rental_uris":{"android":"levelo://app?vid=b96d7adc-f10c-4297-a33f-079bdd22e9b6","ios":"levelo://app?vid=b96d7adc-f10c-4297-a33f-079bdd22e9b6"},"vehicle_type_id":"4","last_reported":1724170168,"current_range_meters":0,"station_id":"ce4bgk12rcd13ifvqbi0","pricing_plan_id":"cebpf4jnsgd1na2vs0mg"},{"bike_id":"1eb96054-6073-4906-8fb4-cd0a32c44963","system_id":"levelo_inurba_marseille","lat":43.296277,"lon":5.377108,"is_reserved":false,"is_disabled":false,"rental_uris":{"android":"levelo://app?vid=1eb96054-6073-4906-8fb4-cd0a32c44963","ios":"levelo://app?vid=1eb96054-6073-4906-8fb4-cd0a32c44963"},"vehicle_type_id":"4","last_reported":1724170168,"current_range_meters":31200,"station_id":"ce4bgi92rcd13ifvqb90","pricing_plan_id":"cebpf4jnsgd1na2vs0mg"},{"bike_id":"6442d898-9e9f-4fab-9465-ead47807c048","system_id":"levelo_inurba_marseille","lat":43.295748,"lon":5.37522,"is_reserved":false,"is_disabled":false,"rental_uris":{"android":"levelo://app?vid=6442d898-9e9f-4fab-9465-ead47807c048","ios":"levelo://app?vid=6442d898-9e9f-4fab-9465-ead47807c048"},"vehicle_type_id":"4","last_reported":1724170168,"current_range_meters":0,"station_id":"ce4bgh92rcd13ifvqb50","pricing_plan_id":"cebpf4jnsgd1na2vs0mg"},{"bike_id":"2a8e5471-21f1-4836-a135-e61a91505ec7","system_id":"levelo_inurba_marseille","lat":43.29615,"lon":5.37731,"is_reserved":false,"is_disabled":false,"rental_uris":{"android":"levelo://app?vid=2a8e5471-21f1-4836-a135-e61a91505ec7","ios":"levelo://app?vid=2a8e5471-21f1-4836-a135-e61a91505ec7"},"vehicle_type_id":"4","last_reported":1724170168,"current_range_meters":0,"station_id":"ce4bgi92rcd13ifvqb90","pricing_plan_id":"cebpf4jnsgd1na2vs0mg"},{"bike_id":"11118a6c-1b72-4dfb-b471-0e12e027b56c","system_id":"levelo_inurba_marseille","lat":43.297557,"lon":5.380867,"is_reserved":false,"is_disabled":false,"rental_uris":{"android":"levelo://app?vid=11118a6c-1b72-4dfb-b471-0e12e027b56c","ios":"levelo://app?vid=11118a6c-1b72-4dfb-b471-0e12e027b56c"},"vehicle_type_id":"4","last_reported":1724170168,"current_range_meters":4800,"station_id":"","pricing_plan_id":"cebpf4jnsgd1na2vs0mg"},{"bike_id":"9447ae30-2493-4b36-bb2e-7f1c7c89f563","system_id":"levelo_inurba_marseille","lat":43.299717,"lon":5.384845,"is_reserved":false,"is_disabled":false,"rental_uris":{"android":"levelo://app?vid=9447ae30-2493-4b36-bb2e-7f1c7c89f563","ios":"levelo://app?vid=9447ae30-2493-4b36-bb2e-7f1c7c89f563"},"vehicle_type_id":"4","last_reported":1724170168,"current_range_meters":19200,"station_id":"ce4bgj92rcd13ifvqbd0","pricing_plan_id":"cebpf4jnsgd1na2vs0mg"},{"bike_id":"8b3b0db8-ffe3-4fb3-a19c-17cc3d5504f4","system_id":"levelo_inurba_marseille","lat":43.299717,"lon":5.384845,"is_reserved":false,"is_disabled":false,"rental_uris":{"android":"levelo://app?vid=8b3b0db8-ffe3-4fb3-a19c-17cc3d5504f4","ios":"levelo://app?vid=8b3b0db8-ffe3-4fb3-a19c-17cc3d5504f4"},"vehicle_type_id":"4","last_reported":1724170168,"current_range_meters":0,"station_id":"ce4bgj92rcd13ifvqbd0","pricing_plan_id":"cebpf4jnsgd1na2vs0mg"},{"bike_id":"6c2ac718-40c6-4f47-a155-84a11d7656d2","system_id":"levelo_inurba_marseille","lat":43.30137,"lon":5.38771,"is_reserved":false,"is_disabled":false,"rental_uris":{"android":"levelo://app?vid=6c2ac718-40c6-4f47-a155-84a11d7656d2","ios":"levelo://app?vid=6c2ac718-40c6-4f47-a155-84a11d7656d2"},"vehicle_type_id":"4","last_reported":1724170168,"current_range_meters":28800,"station_id":"ce4bghh2rcd13ifvqb60","pricing_plan_id":"cebpf4jnsgd1na2vs0mg"},{"bike_id":"7d00275e-6661-4e69-b00f-0fa5ca76531b","system_id":"levelo_inurba_marseille","lat":43.290094,"lon":5.381264,"is_reserved":false,"is_disabled":false,"rental_uris":{"android":"levelo://app?vid=7d00275e-6661-4e69-b00f-0fa5ca76531b","ios":"levelo://app?vid=7d00275e-6661-4e69-b00f-0fa5ca76531b"},"vehicle_type_id":"4","last_reported":1724170168,"current_range_meters":0,"station_id":"ce4bh4p2rcd13ifvqe1g","pricing_plan_id":"cebpf4jnsgd1na2vs0mg"},{"bike_id":"261ff197-e741-4f84-995e-744a32e4a393","system_id":"levelo_inurba_marseille","lat":43.29591,"lon":5.38095,"is_reserved":false,"is_disabled":false,"rental_uris":{"android":"levelo://app?vid=261ff197-e741-4f84-995e-744a32e4a393","ios":"levelo://app?vid=261ff197-e741-4f84-995e-744a32e4a393"},"vehicle_type_id":"4","last_reported":1724170168,"current_range_meters":29200,"station_id":"ce4bgl12rcd13ifvqbo0","pricing_plan_id":"cebpf4jnsgd1na2vs0mg"},{"bike_id":"d9406e47-faaa-4588-a57b-2e3c0e16080d","system_id":"levelo_inurba_marseille","lat":43.29592,"lon":5.38098,"is_reserved":false,"is_disabled":false,"rental_uris":{"android":"levelo://app?vid=d9406e47-faaa-4588-a57b-2e3c0e16080d","ios":"levelo://app?vid=d9406e47-faaa-4588-a57b-2e3c0e16080d"},"vehicle_type_id":"4","last_reported":1724170168,"current_range_meters":28000,"station_id":"ce4bgl12rcd13ifvqbo0","pricing_plan_id":"cebpf4jnsgd1na2vs0mg"},{"bike_id":"3b0a6d0f-a295-454b-8e75-6fd88f1450af","system_id":"levelo_inurba_marseille","lat":43.29602,"lon":5.381084,"is_reserved":false,"is_disabled":false,"rental_uris":{"android":"levelo://app?vid=3b0a6d0f-a295-454b-8e75-6fd88f1450af","ios":"levelo://app?vid=3b0a6d0f-a295-454b-8e75-6fd88f1450af"},"vehicle_type_id":"4","last_reported":1724170168,"current_range_meters":19600,"station_id":"ce4bgl12rcd13ifvqbo0","pricing_plan_id":"cebpf4jnsgd1na2vs0mg"},{"bike_id":"6c6781fa-3a4e-4306-83c3-9e3fc0efce37","system_id":"levelo_inurba_marseille","lat":43.29326,"lon":5.37154,"is_reserved":false,"is_disabled":false,"rental_uris":{"android":"levelo://app?vid=6c6781fa-3a4e-4306-83c3-9e3fc0efce37","ios":"levelo://app?vid=6c6781fa-3a4e-4306-83c3-9e3fc0efce37"},"vehicle_type_id":"4","last_reported":1724170168,"current_range_meters":0,"station_id":"ce4bgh92rcd13ifvqb40","pricing_plan_id":"cebpf4jnsgd1na2vs0mg"},{"bike_id":"18762925-13ff-4162-a207-d1c954d4599d","system_id":"levelo_inurba_marseille","lat":43.29308,"lon":5.37176,"is_reserved":false,"is_disabled":false,"rental_uris":{"android":"levelo://app?vid=18762925-13ff-4162-a207-d1c954d4599d","ios":"levelo://app?vid=18762925-13ff-4162-a207-d1c954d4599d"},"vehicle_type_id":"4","last_reported":1724170168,"current_range_meters":23200,"station_id":"","pricing_plan_id":"cebpf4jnsgd1na2vs0mg"},{"bike_id":"14995582-3e11-481b-8d10-3a617d2c82d5","system_id":"levelo_inurba_marseille","lat":43.292749,"lon":5.368402,"is_reserved":false,"is_disabled":false,"rental_uris":{"android":"levelo://app?vid=14995582-3e11-481b-8d10-3a617d2c82d5","ios":"levelo://app?vid=14995582-3e11-481b-8d10-3a617d2c82d5"},"vehicle_type_id":"4","last_reported":1724170168,"current_range_meters":0,"station_id":"ce4bhbp2rcd13ifvqesg","pricing_plan_id":"cebpf4jnsgd1na2vs0mg"},{"bike_id":"a0e47772-8630-4ca7-a4c1-81696bd1c808","system_id":"levelo_inurba_marseille","lat":43.292749,"lon":5.368402,"is_reserved":false,"is_disabled":false,"rental_uris":{"android":"levelo://app?vid=a0e47772-8630-4ca7-a4c1-81696bd1c808","ios":"levelo://app?vid=a0e47772-8630-4ca7-a4c1-81696bd1c808"},"vehicle_type_id":"4","last_reported":1724170168,"current_range_meters":8000,"station_id":"ce4bhbp2rcd13ifvqesg","pricing_plan_id":"cebpf4jnsgd1na2vs0mg"},{"bike_id":"45af4544-f8ca-4833-bb34-e24a2832a84d","system_id":"levelo_inurba_marseille","lat":43.292749,"lon":5.368402,"is_reserved":false,"is_disabled":false,"rental_uris":{"android":"levelo://app?vid=45af4544-f8ca-4833-bb34-e24a2832a84d","ios":"levelo://app?vid=45af4544-f8ca-4833-bb34-e24a2832a84d"},"vehicle_type_id":"4","last_reported":1724170168,"current_range_meters":0,"station_id":"ce4bhbp2rcd13ifvqesg","pricing_plan_id":"cebpf4jnsgd1na2vs0mg"},{"bike_id":"8828d8af-7130-4fc2-8474-e22ecf70a723","system_id":"levelo_inurba_marseille","lat":43.29236,"lon":5.36635,"is_reserved":false,"is_disabled":false,"rental_uris":{"android":"levelo://app?vid=8828d8af-7130-4fc2-8474-e22ecf70a723","ios":"levelo://app?vid=8828d8af-7130-4fc2-8474-e22ecf70a723"},"vehicle_type_id":"4","last_reported":1724170168,"current_range_meters":17600,"station_id":"ce4bha92rcd13ifvqeh0","pricing_plan_id":"cebpf4jnsgd1na2vs0mg"},{"bike_id":"873a56d9-19d5-428b-8599-b4a59b39d4a8","system_id":"levelo_inurba_marseille","lat":43.305994,"lon":5.393687,"is_reserved":false,"is_disabled":false,"rental_uris":{"android":"levelo://app?vid=873a56d9-19d5-428b-8599-b4a59b39d4a8","ios":"levelo://app?vid=873a56d9-19d5-428b-8599-b4a59b39d4a8"},"vehicle_type_id":"4","last_reported":1724170168,"current_range_meters":30000,"station_id":"ce4bh0p2rcd13ifvqd80","pricing_plan_id":"cebpf4jnsgd1na2vs0mg"},{"bike_id":"e1e06653-16ea-482d-80e5-cf086d93b774","system_id":"levelo_inurba_marseille","lat":43.29303,"lon":5.37449,"is_reserved":false,"is_disabled":false,"rental_uris":{"android":"levelo://app?vid=e1e06653-16ea-482d-80e5-cf086d93b774","ios":"levelo://app?vid=e1e06653-16ea-482d-80e5-cf086d93b774"},"vehicle_type_id":"4","last_reported":1724170168,"current_range_meters":0,"station_id":"ce4bgi12rcd13ifvqb70","pricing_plan_id":"cebpf4jnsgd1na2vs0mg"},{"bike_id":"76896e1d-2533-482c-972d-b601ca2ebcfd","system_id":"levelo_inurba_marseille","lat":43.29304,"lon":5.37457,"is_reserved":false,"is_disabled":false,"rental_uris":{"android":"levelo://app?vid=76896e1d-2533-482c-972d-b601ca2ebcfd","ios":"levelo://app?vid=76896e1d-2533-482c-972d-b601ca2ebcfd"},"vehicle_type_id":"4","last_reported":1724170168,"current_range_meters":0,"station_id":"ce4bgi12rcd13ifvqb70","pricing_plan_id":"cebpf4jnsgd1na2vs0mg"},{"bike_id":"fdd3e1d6-613c-420c-a82b-823671120e4b","system_id":"levelo_inurba_marseille","lat":43.29302,"lon":5.374535,"is_reserved":false,"is_disabled":false,"rental_uris":{"android":"levelo://app?vid=fdd3e1d6-613c-420c-a82b-823671120e4b","ios":"levelo://app?vid=fdd3e1d6-613c-420c-a82b-823671120e4b"},"vehicle_type_id":"4","last_reported":1724170168,"current_range_meters":16000,"station_id":"ce4bgi12rcd13ifvqb70","pricing_plan_id":"cebpf4jnsgd1na2vs0mg"},{"bike_id":"7bef6181-c22a-4911-b512-f1a0febc77e4","system_id":"levelo_inurba_marseille","lat":43.293009,"lon":5.374584,"is_reserved":false,"is_disabled":false,"rental_uris":{"android":"levelo://app?vid=7bef6181-c22a-4911-b512-f1a0febc77e4","ios":"levelo://app?vid=7bef6181-c22a-4911-b512-f1a0febc77e4"},"vehicle_type_id":"4","last_reported":1724170168,"current_range_meters":0,"station_id":"ce4bgi12rcd13ifvqb70","pricing_plan_id":"cebpf4jnsgd1na2vs0mg"},{"bike_id":"4faac643-4e05-45b8-b076-cda30f0b5344","system_id":"levelo_inurba_marseille","lat":43.29295,"lon":5.37458,"is_reserved":false,"is_disabled":false,"rental_uris":{"android":"levelo://app?vid=4faac643-4e05-45b8-b076-cda30f0b5344","ios":"levelo://app?vid=4faac643-4e05-45b8-b076-cda30f0b5344"},"vehicle_type_id":"4","last_reported":1724170168,"current_range_meters":0,"station_id":"ce4bgi12rcd13ifvqb70","pricing_plan_id":"cebpf4jnsgd1na2vs0mg"},{"bike_id":"a68ce310-6e7a-4100-9e3d-bea5454d8472","system_id":"levelo_inurba_marseille","lat":43.305994,"lon":5.393687,"is_reserved":false,"is_disabled":false,"rental_uris":{"android":"levelo://app?vid=a68ce310-6e7a-4100-9e3d-bea5454d8472","ios":"levelo://app?vid=a68ce310-6e7a-4100-9e3d-bea5454d8472"},"vehicle_type_id":"4","last_reported":1724170168,"current_range_meters":4000,"station_id":"ce4bh0p2rcd13ifvqd80","pricing_plan_id":"cebpf4jnsgd1na2vs0mg"},{"bike_id":"387378f1-4597-42c9-a546-e4e2848516b2","system_id":"levelo_inurba_marseille","lat":43.305994,"lon":5.393687,"is_reserved":false,"is_disabled":false,"rental_uris":{"android":"levelo://app?vid=387378f1-4597-42c9-a546-e4e2848516b2","ios":"levelo://app?vid=387378f1-4597-42c9-a546-e4e2848516b2"},"vehicle_type_id":"4","last_reported":1724170168,"current_range_meters":11600,"station_id":"ce4bh0p2rcd13ifvqd80","pricing_plan_id":"cebpf4jnsgd1na2vs0mg"},{"bike_id":"9e2ce6af-4e3d-44c8-84de-5bb9f9995bb8","system_id":"levelo_inurba_marseille","lat":43.300967,"lon":5.390757,"is_reserved":false,"is_disabled":false,"rental_uris":{"android":"levelo://app?vid=9e2ce6af-4e3d-44c8-84de-5bb9f9995bb8","ios":"levelo://app?vid=9e2ce6af-4e3d-44c8-84de-5bb9f9995bb8"},"vehicle_type_id":"4","last_reported":1724170168,"current_range_meters":0,"station_id":"ce4bh192rcd13ifvqdb0","pricing_plan_id":"cebpf4jnsgd1na2vs0mg"},{"bike_id":"67af4f5a-cc99-4a58-9728-8106061bb2d0","system_id":"levelo_inurba_marseille","lat":43.30085,"lon":5.390856,"is_reserved":false,"is_disabled":false,"rental_uris":{"android":"levelo://app?vid=67af4f5a-cc99-4a58-9728-8106061bb2d0","ios":"levelo://app?vid=67af4f5a-cc99-4a58-9728-8106061bb2d0"},"vehicle_type_id":"4","last_reported":1724170168,"current_range_meters":0,"station_id":"ce4bh192rcd13ifvqdb0","pricing_plan_id":"cebpf4jnsgd1na2vs0mg"},{"bike_id":"1e19d1d4-ccb8-437d-a822-00432cb39dea","system_id":"levelo_inurba_marseille","lat":43.30085,"lon":5.390856,"is_reserved":false,"is_disabled":false,"rental_uris":{"android":"levelo://app?vid=1e19d1d4-ccb8-437d-a822-00432cb39dea","ios":"levelo://app?vid=1e19d1d4-ccb8-437d-a822-00432cb39dea"},"vehicle_type_id":"4","last_reported":1724170168,"current_range_meters":0,"station_id":"ce4bh192rcd13ifvqdb0","pricing_plan_id":"cebpf4jnsgd1na2vs0mg"},{"bike_id":"f52139e8-f160-405a-a111-528c3635bdca","system_id":"levelo_inurba_marseille","lat":43.292311,"lon":5.360731,"is_reserved":false,"is_disabled":false,"rental_uris":{"android":"levelo://app?vid=f52139e8-f160-405a-a111-528c3635bdca","ios":"levelo://app?vid=f52139e8-f160-405a-a111-528c3635bdca"},"vehicle_type_id":"4","last_reported":1724170168,"current_range_meters":31600,"station_id":"ce4bhbh2rcd13ifvqeqg","pricing_plan_id":"cebpf4jnsgd1na2vs0mg"},{"bike_id":"226e6584-f64b-4def-9cc1-a8a9064cdc8f","system_id":"levelo_inurba_marseille","lat":43.292311,"lon":5.360731,"is_reserved":false,"is_disabled":false,"rental_uris":{"android":"levelo://app?vid=226e6584-f64b-4def-9cc1-a8a9064cdc8f","ios":"levelo://app?vid=226e6584-f64b-4def-9cc1-a8a9064cdc8f"},"vehicle_type_id":"4","last_reported":1724170168,"current_range_meters":26800,"station_id":"ce4bhbh2rcd13ifvqeqg","pricing_plan_id":"cebpf4jnsgd1na2vs0mg"},{"bike_id":"595bc2aa-2bca-416f-854b-63d2df82cdee","system_id":"levelo_inurba_marseille","lat":43.29223,"lon":5.36052,"is_reserved":false,"is_disabled":false,"rental_uris":{"android":"levelo://app?vid=595bc2aa-2bca-416f-854b-63d2df82cdee","ios":"levelo://app?vid=595bc2aa-2bca-416f-854b-63d2df82cdee"},"vehicle_type_id":"4","last_reported":1724170168,"current_range_meters":29200,"station_id":"ce4bhbh2rcd13ifvqeqg","pricing_plan_id":"cebpf4jnsgd1na2vs0mg"},{"bike_id":"921e1ab7-1bbe-4f3d-a92a-173ebe9ea6f5","system_id":"levelo_inurba_marseille","lat":43.292311,"lon":5.360731,"is_reserved":false,"is_disabled":false,"rental_uris":{"android":"levelo://app?vid=921e1ab7-1bbe-4f3d-a92a-173ebe9ea6f5","ios":"levelo://app?vid=921e1ab7-1bbe-4f3d-a92a-173ebe9ea6f5"},"vehicle_type_id":"4","last_reported":1724170168,"current_range_meters":28800,"station_id":"ce4bhbh2rcd13ifvqeqg","pricing_plan_id":"cebpf4jnsgd1na2vs0mg"},{"bike_id":"c76b0a81-4076-487c-83cc-edb13596d29a","system_id":"levelo_inurba_marseille","lat":43.292311,"lon":5.360731,"is_reserved":false,"is_disabled":false,"rental_uris":{"android":"levelo://app?vid=c76b0a81-4076-487c-83cc-edb13596d29a","ios":"levelo://app?vid=c76b0a81-4076-487c-83cc-edb13596d29a"},"vehicle_type_id":"4","last_reported":1724170168,"current_range_meters":4400,"station_id":"ce4bhbh2rcd13ifvqeqg","pricing_plan_id":"cebpf4jnsgd1na2vs0mg"},{"bike_id":"78f249d6-c906-475d-8e32-2c299a20e082","system_id":"levelo_inurba_marseille","lat":43.292311,"lon":5.360731,"is_reserved":false,"is_disabled":false,"rental_uris":{"android":"levelo://app?vid=78f249d6-c906-475d-8e32-2c299a20e082","ios":"levelo://app?vid=78f249d6-c906-475d-8e32-2c299a20e082"},"vehicle_type_id":"4","last_reported":1724170168,"current_range_meters":27200,"station_id":"ce4bhbh2rcd13ifvqeqg","pricing_plan_id":"cebpf4jnsgd1na2vs0mg"},{"bike_id":"97e025a6-dbb7-4a13-9255-9882f6fb59ee","system_id":"levelo_inurba_marseille","lat":43.292311,"lon":5.360731,"is_reserved":false,"is_disabled":false,"rental_uris":{"android":"levelo://app?vid=97e025a6-dbb7-4a13-9255-9882f6fb59ee","ios":"levelo://app?vid=97e025a6-dbb7-4a13-9255-9882f6fb59ee"},"vehicle_type_id":"4","last_reported":1724170168,"current_range_meters":31200,"station_id":"ce4bhbh2rcd13ifvqeqg","pricing_plan_id":"cebpf4jnsgd1na2vs0mg"},{"bike_id":"18159d30-6e6f-44ac-bd54-3a7dff721633","system_id":"levelo_inurba_marseille","lat":43.292311,"lon":5.360731,"is_reserved":false,"is_disabled":false,"rental_uris":{"android":"levelo://app?vid=18159d30-6e6f-44ac-bd54-3a7dff721633","ios":"levelo://app?vid=18159d30-6e6f-44ac-bd54-3a7dff721633"},"vehicle_type_id":"4","last_reported":1724170168,"current_range_meters":24400,"station_id":"ce4bhbh2rcd13ifvqeqg","pricing_plan_id":"cebpf4jnsgd1na2vs0mg"},{"bike_id":"4cb99009-2b74-49bc-86cb-5667a6343890","system_id":"levelo_inurba_marseille","lat":43.30085,"lon":5.390856,"is_reserved":false,"is_disabled":false,"rental_uris":{"android":"levelo://app?vid=4cb99009-2b74-49bc-86cb-5667a6343890","ios":"levelo://app?vid=4cb99009-2b74-49bc-86cb-5667a6343890"},"vehicle_type_id":"4","last_reported":1724170168,"current_range_meters":4000,"station_id":"ce4bh192rcd13ifvqdb0","pricing_plan_id":"cebpf4jnsgd1na2vs0mg"},{"bike_id":"f7d5c580-02ba-42a7-aabd-e6e06c398498","system_id":"levelo_inurba_marseille","lat":43.31374,"lon":5.39597,"is_reserved":false,"is_disabled":false,"rental_uris":{"android":"levelo://app?vid=f7d5c580-02ba-42a7-aabd-e6e06c398498","ios":"levelo://app?vid=f7d5c580-02ba-42a7-aabd-e6e06c398498"},"vehicle_type_id":"4","last_reported":1724170168,"current_range_meters":19200,"station_id":"","pricing_plan_id":"cebpf4jnsgd1na2vs0mg"},{"bike_id":"784953bd-3494-422e-9faf-96a00c6b9fc6","system_id":"levelo_inurba_marseille","lat":43.298764,"lon":5.388973,"is_reserved":false,"is_disabled":false,"rental_uris":{"android":"levelo://app?vid=784953bd-3494-422e-9faf-96a00c6b9fc6","ios":"levelo://app?vid=784953bd-3494-422e-9faf-96a00c6b9fc6"},"vehicle_type_id":"4","last_reported":1724170168,"current_range_meters":400,"station_id":"ce4bh392rcd13ifvqdl0","pricing_plan_id":"cebpf4jnsgd1na2vs0mg"},{"bike_id":"38384ece-1b68-4caf-a040-9bd59e84dfaf","system_id":"levelo_inurba_marseille","lat":43.29529,"lon":5.385581,"is_reserved":false,"is_disabled":false,"rental_uris":{"android":"levelo://app?vid=38384ece-1b68-4caf-a040-9bd59e84dfaf","ios":"levelo://app?vid=38384ece-1b68-4caf-a040-9bd59e84dfaf"},"vehicle_type_id":"4","last_reported":1724170168,"current_range_meters":9600,"station_id":"ce4bgih2rcd13ifvqba0","pricing_plan_id":"cebpf4jnsgd1na2vs0mg"},{"bike_id":"b55f5e4f-e70e-4574-a9ff-d2508dbe9619","system_id":"levelo_inurba_marseille","lat":43.292005,"lon":5.357875,"is_reserved":false,"is_disabled":false,"rental_uris":{"android":"levelo://app?vid=b55f5e4f-e70e-4574-a9ff-d2508dbe9619","ios":"levelo://app?vid=b55f5e4f-e70e-4574-a9ff-d2508dbe9619"},"vehicle_type_id":"4","last_reported":1724170168,"current_range_meters":0,"station_id":"ce4bhb12rcd13ifvqel0","pricing_plan_id":"cebpf4jnsgd1na2vs0mg"},{"bike_id":"821c250d-3002-4d33-86b8-3dba8776a861","system_id":"levelo_inurba_marseille","lat":43.292005,"lon":5.357875,"is_reserved":false,"is_disabled":false,"rental_uris":{"android":"levelo://app?vid=821c250d-3002-4d33-86b8-3dba8776a861","ios":"levelo://app?vid=821c250d-3002-4d33-86b8-3dba8776a861"},"vehicle_type_id":"4","last_reported":1724170168,"current_range_meters":26800,"station_id":"ce4bhb12rcd13ifvqel0","pricing_plan_id":"cebpf4jnsgd1na2vs0mg"},{"bike_id":"984a386f-15f7-4c9f-b0d8-df034be5337a","system_id":"levelo_inurba_marseille","lat":43.313291,"lon":5.396838,"is_reserved":false,"is_disabled":false,"rental_uris":{"android":"levelo://app?vid=984a386f-15f7-4c9f-b0d8-df034be5337a","ios":"levelo://app?vid=984a386f-15f7-4c9f-b0d8-df034be5337a"},"vehicle_type_id":"4","last_reported":1724170168,"current_range_meters":2800,"station_id":"ce4bgvp2rcd13ifvqcu0","pricing_plan_id":"cebpf4jnsgd1na2vs0mg"},{"bike_id":"12c50584-a5a7-4294-ab67-e936472bb94c","system_id":"levelo_inurba_marseille","lat":43.313291,"lon":5.396838,"is_reserved":false,"is_disabled":false,"rental_uris":{"android":"levelo://app?vid=12c50584-a5a7-4294-ab67-e936472bb94c","ios":"levelo://app?vid=12c50584-a5a7-4294-ab67-e936472bb94c"},"vehicle_type_id":"4","last_reported":1724170168,"current_range_meters":19600,"station_id":"ce4bgvp2rcd13ifvqcu0","pricing_plan_id":"cebpf4jnsgd1na2vs0mg"},{"bike_id":"78fa4172-ccf0-4ec9-9c02-ef30a71e5ae3","system_id":"levelo_inurba_marseille","lat":43.290779,"lon":5.371482,"is_reserved":false,"is_disabled":false,"rental_uris":{"android":"levelo://app?vid=78fa4172-ccf0-4ec9-9c02-ef30a71e5ae3","ios":"levelo://app?vid=78fa4172-ccf0-4ec9-9c02-ef30a71e5ae3"},"vehicle_type_id":"4","last_reported":1724170168,"current_range_meters":1200,"station_id":"ce4bh5p2rcd13ifvqe4g","pricing_plan_id":"cebpf4jnsgd1na2vs0mg"},{"bike_id":"946b4b10-be37-4950-b141-f3eb4cd30f4e","system_id":"levelo_inurba_marseille","lat":43.290779,"lon":5.371482,"is_reserved":false,"is_disabled":false,"rental_uris":{"android":"levelo://app?vid=946b4b10-be37-4950-b141-f3eb4cd30f4e","ios":"levelo://app?vid=946b4b10-be37-4950-b141-f3eb4cd30f4e"},"vehicle_type_id":"4","last_reported":1724170168,"current_range_meters":18800,"station_id":"ce4bh5p2rcd13ifvqe4g","pricing_plan_id":"cebpf4jnsgd1na2vs0mg"},{"bike_id":"64e2a5bc-3ddf-4806-9e99-e546c5826afc","system_id":"levelo_inurba_marseille","lat":43.290779,"lon":5.371482,"is_reserved":false,"is_disabled":false,"rental_uris":{"android":"levelo://app?vid=64e2a5bc-3ddf-4806-9e99-e546c5826afc","ios":"levelo://app?vid=64e2a5bc-3ddf-4806-9e99-e546c5826afc"},"vehicle_type_id":"4","last_reported":1724170168,"current_range_meters":0,"station_id":"ce4bh5p2rcd13ifvqe4g","pricing_plan_id":"cebpf4jnsgd1na2vs0mg"},{"bike_id":"7c05dabf-81a3-440e-84ce-86aa4e266c4e","system_id":"levelo_inurba_marseille","lat":43.28856,"lon":5.358371,"is_reserved":false,"is_disabled":false,"rental_uris":{"android":"levelo://app?vid=7c05dabf-81a3-440e-84ce-86aa4e266c4e","ios":"levelo://app?vid=7c05dabf-81a3-440e-84ce-86aa4e266c4e"},"vehicle_type_id":"4","last_reported":1724170168,"current_range_meters":16800,"station_id":"ce4bhb12rcd13ifvqem0","pricing_plan_id":"cebpf4jnsgd1na2vs0mg"},{"bike_id":"5d1ae7a4-71fd-4e17-886c-327f5bee7861","system_id":"levelo_inurba_marseille","lat":43.290624,"lon":5.359245,"is_reserved":false,"is_disabled":false,"rental_uris":{"android":"levelo://app?vid=5d1ae7a4-71fd-4e17-886c-327f5bee7861","ios":"levelo://app?vid=5d1ae7a4-71fd-4e17-886c-327f5bee7861"},"vehicle_type_id":"4","last_reported":1724170168,"current_range_meters":11600,"station_id":"ce4bha92rcd13ifvqeg0","pricing_plan_id":"cebpf4jnsgd1na2vs0mg"},{"bike_id":"785c1638-1c90-4191-8fc6-ad23fc2a82f2","system_id":"levelo_inurba_marseille","lat":43.290624,"lon":5.359245,"is_reserved":false,"is_disabled":false,"rental_uris":{"android":"levelo://app?vid=785c1638-1c90-4191-8fc6-ad23fc2a82f2","ios":"levelo://app?vid=785c1638-1c90-4191-8fc6-ad23fc2a82f2"},"vehicle_type_id":"4","last_reported":1724170168,"current_range_meters":1600,"station_id":"ce4bha92rcd13ifvqeg0","pricing_plan_id":"cebpf4jnsgd1na2vs0mg"},{"bike_id":"37828bbf-6cc3-4456-9d2e-aae39e77321d","system_id":"levelo_inurba_marseille","lat":43.290631,"lon":5.359244,"is_reserved":false,"is_disabled":false,"rental_uris":{"android":"levelo://app?vid=37828bbf-6cc3-4456-9d2e-aae39e77321d","ios":"levelo://app?vid=37828bbf-6cc3-4456-9d2e-aae39e77321d"},"vehicle_type_id":"4","last_reported":1724170168,"current_range_meters":21600,"station_id":"ce4bha92rcd13ifvqeg0","pricing_plan_id":"cebpf4jnsgd1na2vs0mg"},{"bike_id":"2f4aecce-e873-4876-980e-bc701a35bfd1","system_id":"levelo_inurba_marseille","lat":43.29425,"lon":5.38614,"is_reserved":false,"is_disabled":false,"rental_uris":{"android":"levelo://app?vid=2f4aecce-e873-4876-980e-bc701a35bfd1","ios":"levelo://app?vid=2f4aecce-e873-4876-980e-bc701a35bfd1"},"vehicle_type_id":"4","last_reported":1724170168,"current_range_meters":0,"station_id":"ce4bh2h2rcd13ifvqdh0","pricing_plan_id":"cebpf4jnsgd1na2vs0mg"},{"bike_id":"5af0a8be-494c-4f0c-9f24-f14955bebb7f","system_id":"levelo_inurba_marseille","lat":43.294153,"lon":5.386305,"is_reserved":false,"is_disabled":false,"rental_uris":{"android":"levelo://app?vid=5af0a8be-494c-4f0c-9f24-f14955bebb7f","ios":"levelo://app?vid=5af0a8be-494c-4f0c-9f24-f14955bebb7f"},"vehicle_type_id":"4","last_reported":1724170168,"current_range_meters":0,"station_id":"ce4bh2h2rcd13ifvqdh0","pricing_plan_id":"cebpf4jnsgd1na2vs0mg"},{"bike_id":"e9aa80fe-ef34-430b-9cd3-3f6528c5a397","system_id":"levelo_inurba_marseille","lat":43.294162,"lon":5.386292,"is_reserved":false,"is_disabled":false,"rental_uris":{"android":"levelo://app?vid=e9aa80fe-ef34-430b-9cd3-3f6528c5a397","ios":"levelo://app?vid=e9aa80fe-ef34-430b-9cd3-3f6528c5a397"},"vehicle_type_id":"4","last_reported":1724170168,"current_range_meters":4000,"station_id":"ce4bh2h2rcd13ifvqdh0","pricing_plan_id":"cebpf4jnsgd1na2vs0mg"},{"bike_id":"98ad970f-d5aa-4eea-aa1e-14bee4e74d59","system_id":"levelo_inurba_marseille","lat":43.289184,"lon":5.366408,"is_reserved":false,"is_disabled":false,"rental_uris":{"android":"levelo://app?vid=98ad970f-d5aa-4eea-aa1e-14bee4e74d59","ios":"levelo://app?vid=98ad970f-d5aa-4eea-aa1e-14bee4e74d59"},"vehicle_type_id":"4","last_reported":1724170168,"current_range_meters":1600,"station_id":"ce4bhap2rcd13ifvqek0","pricing_plan_id":"cebpf4jnsgd1na2vs0mg"},{"bike_id":"9b10ad9c-495c-4652-b8f0-50687bb61fb9","system_id":"levelo_inurba_marseille","lat":43.289184,"lon":5.366408,"is_reserved":false,"is_disabled":false,"rental_uris":{"android":"levelo://app?vid=9b10ad9c-495c-4652-b8f0-50687bb61fb9","ios":"levelo://app?vid=9b10ad9c-495c-4652-b8f0-50687bb61fb9"},"vehicle_type_id":"4","last_reported":1724170168,"current_range_meters":1200,"station_id":"ce4bhap2rcd13ifvqek0","pricing_plan_id":"cebpf4jnsgd1na2vs0mg"},{"bike_id":"bc203ff7-9bae-49f3-a821-1c0866d625bb","system_id":"levelo_inurba_marseille","lat":43.289468,"lon":5.363719,"is_reserved":false,"is_disabled":false,"rental_uris":{"android":"levelo://app?vid=bc203ff7-9bae-49f3-a821-1c0866d625bb","ios":"levelo://app?vid=bc203ff7-9bae-49f3-a821-1c0866d625bb"},"vehicle_type_id":"4","last_reported":1724170168,"current_range_meters":0,"station_id":"ce4bhc92rcd13ifvqetg","pricing_plan_id":"cebpf4jnsgd1na2vs0mg"},{"bike_id":"5352b110-d231-4105-af31-0171ceacd0d7","system_id":"levelo_inurba_marseille","lat":43.28929,"lon":5.36396,"is_reserved":false,"is_disabled":false,"rental_uris":{"android":"levelo://app?vid=5352b110-d231-4105-af31-0171ceacd0d7","ios":"levelo://app?vid=5352b110-d231-4105-af31-0171ceacd0d7"},"vehicle_type_id":"4","last_reported":1724170168,"current_range_meters":0,"station_id":"ce4bhc92rcd13ifvqetg","pricing_plan_id":"cebpf4jnsgd1na2vs0mg"},{"bike_id":"a82f18d7-d02e-4eb2-9d26-55678f5d87ef","system_id":"levelo_inurba_marseille","lat":43.304296,"lon":5.397513,"is_reserved":false,"is_disabled":false,"rental_uris":{"android":"levelo://app?vid=a82f18d7-d02e-4eb2-9d26-55678f5d87ef","ios":"levelo://app?vid=a82f18d7-d02e-4eb2-9d26-55678f5d87ef"},"vehicle_type_id":"4","last_reported":1724170168,"current_range_meters":24800,"station_id":"ce4bh092rcd13ifvqd20","pricing_plan_id":"cebpf4jnsgd1na2vs0mg"},{"bike_id":"cc705465-470f-48cb-9c52-a008fbb271ef","system_id":"levelo_inurba_marseille","lat":43.29263,"lon":5.38442,"is_reserved":false,"is_disabled":false,"rental_uris":{"android":"levelo://app?vid=cc705465-470f-48cb-9c52-a008fbb271ef","ios":"levelo://app?vid=cc705465-470f-48cb-9c52-a008fbb271ef"},"vehicle_type_id":"4","last_reported":1724170168,"current_range_meters":400,"station_id":"ce4bh692rcd13ifvqea0","pricing_plan_id":"cebpf4jnsgd1na2vs0mg"},{"bike_id":"c12cd750-b8ae-4f1b-b5d7-b77925e20c8b","system_id":"levelo_inurba_marseille","lat":43.290104,"lon":5.356111,"is_reserved":false,"is_disabled":false,"rental_uris":{"android":"levelo://app?vid=c12cd750-b8ae-4f1b-b5d7-b77925e20c8b","ios":"levelo://app?vid=c12cd750-b8ae-4f1b-b5d7-b77925e20c8b"},"vehicle_type_id":"4","last_reported":1724170168,"current_range_meters":26400,"station_id":"ce4bhb92rcd13ifvqen0","pricing_plan_id":"cebpf4jnsgd1na2vs0mg"},{"bike_id":"d2ea0eb7-fdc9-4331-9e5e-d2a4ab8591fa","system_id":"levelo_inurba_marseille","lat":43.290104,"lon":5.356111,"is_reserved":false,"is_disabled":false,"rental_uris":{"android":"levelo://app?vid=d2ea0eb7-fdc9-4331-9e5e-d2a4ab8591fa","ios":"levelo://app?vid=d2ea0eb7-fdc9-4331-9e5e-d2a4ab8591fa"},"vehicle_type_id":"4","last_reported":1724170168,"current_range_meters":12000,"station_id":"ce4bhb92rcd13ifvqen0","pricing_plan_id":"cebpf4jnsgd1na2vs0mg"},{"bike_id":"94c8019c-2f1d-4912-9de7-a84bd8c87712","system_id":"levelo_inurba_marseille","lat":43.29011,"lon":5.35613,"is_reserved":false,"is_disabled":false,"rental_uris":{"android":"levelo://app?vid=94c8019c-2f1d-4912-9de7-a84bd8c87712","ios":"levelo://app?vid=94c8019c-2f1d-4912-9de7-a84bd8c87712"},"vehicle_type_id":"4","last_reported":1724170168,"current_range_meters":31200,"station_id":"ce4bhb92rcd13ifvqen0","pricing_plan_id":"cebpf4jnsgd1na2vs0mg"},{"bike_id":"cff3f475-06c8-47ee-9dea-ee0667a0beb2","system_id":"levelo_inurba_marseille","lat":43.29012,"lon":5.35607,"is_reserved":false,"is_disabled":false,"rental_uris":{"android":"levelo://app?vid=cff3f475-06c8-47ee-9dea-ee0667a0beb2","ios":"levelo://app?vid=cff3f475-06c8-47ee-9dea-ee0667a0beb2"},"vehicle_type_id":"4","last_reported":1724170168,"current_range_meters":2000,"station_id":"ce4bhb92rcd13ifvqen0","pricing_plan_id":"cebpf4jnsgd1na2vs0mg"},{"bike_id":"ed685382-6d6c-483a-aedb-da9eba8bc846","system_id":"levelo_inurba_marseille","lat":43.290104,"lon":5.356111,"is_reserved":false,"is_disabled":false,"rental_uris":{"android":"levelo://app?vid=ed685382-6d6c-483a-aedb-da9eba8bc846","ios":"levelo://app?vid=ed685382-6d6c-483a-aedb-da9eba8bc846"},"vehicle_type_id":"4","last_reported":1724170168,"current_range_meters":4800,"station_id":"ce4bhb92rcd13ifvqen0","pricing_plan_id":"cebpf4jnsgd1na2vs0mg"},{"bike_id":"d8344b96-a823-4858-8098-d0a1ed2399e4","system_id":"levelo_inurba_marseille","lat":43.290103,"lon":5.356114,"is_reserved":false,"is_disabled":false,"rental_uris":{"android":"levelo://app?vid=d8344b96-a823-4858-8098-d0a1ed2399e4","ios":"levelo://app?vid=d8344b96-a823-4858-8098-d0a1ed2399e4"},"vehicle_type_id":"4","last_reported":1724170168,"current_range_meters":29600,"station_id":"ce4bhb92rcd13ifvqen0","pricing_plan_id":"cebpf4jnsgd1na2vs0mg"},{"bike_id":"a4b1c2d8-8b00-49eb-a50f-bb43422b83eb","system_id":"levelo_inurba_marseille","lat":43.290104,"lon":5.356111,"is_reserved":false,"is_disabled":false,"rental_uris":{"android":"levelo://app?vid=a4b1c2d8-8b00-49eb-a50f-bb43422b83eb","ios":"levelo://app?vid=a4b1c2d8-8b00-49eb-a50f-bb43422b83eb"},"vehicle_type_id":"4","last_reported":1724170168,"current_range_meters":24800,"station_id":"ce4bhb92rcd13ifvqen0","pricing_plan_id":"cebpf4jnsgd1na2vs0mg"},{"bike_id":"db523c07-4df7-4c70-8609-87836d310583","system_id":"levelo_inurba_marseille","lat":43.290104,"lon":5.356111,"is_reserved":false,"is_disabled":false,"rental_uris":{"android":"levelo://app?vid=db523c07-4df7-4c70-8609-87836d310583","ios":"levelo://app?vid=db523c07-4df7-4c70-8609-87836d310583"},"vehicle_type_id":"4","last_reported":1724170168,"current_range_meters":10400,"station_id":"ce4bhb92rcd13ifvqen0","pricing_plan_id":"cebpf4jnsgd1na2vs0mg"},{"bike_id":"f1179e3c-1b36-4575-a7a6-deaaa66b2896","system_id":"levelo_inurba_marseille","lat":43.290104,"lon":5.356111,"is_reserved":false,"is_disabled":false,"rental_uris":{"android":"levelo://app?vid=f1179e3c-1b36-4575-a7a6-deaaa66b2896","ios":"levelo://app?vid=f1179e3c-1b36-4575-a7a6-deaaa66b2896"},"vehicle_type_id":"4","last_reported":1724170168,"current_range_meters":27200,"station_id":"ce4bhb92rcd13ifvqen0","pricing_plan_id":"cebpf4jnsgd1na2vs0mg"},{"bike_id":"7da336a7-aa12-4e20-a460-8c0aaf7ca125","system_id":"levelo_inurba_marseille","lat":43.290104,"lon":5.356111,"is_reserved":false,"is_disabled":false,"rental_uris":{"android":"levelo://app?vid=7da336a7-aa12-4e20-a460-8c0aaf7ca125","ios":"levelo://app?vid=7da336a7-aa12-4e20-a460-8c0aaf7ca125"},"vehicle_type_id":"4","last_reported":1724170168,"current_range_meters":1600,"station_id":"ce4bhb92rcd13ifvqen0","pricing_plan_id":"cebpf4jnsgd1na2vs0mg"},{"bike_id":"db86af3d-4035-4e72-a1ab-cb6efc733127","system_id":"levelo_inurba_marseille","lat":43.290104,"lon":5.356111,"is_reserved":false,"is_disabled":false,"rental_uris":{"android":"levelo://app?vid=db86af3d-4035-4e72-a1ab-cb6efc733127","ios":"levelo://app?vid=db86af3d-4035-4e72-a1ab-cb6efc733127"},"vehicle_type_id":"4","last_reported":1724170168,"current_range_meters":4800,"station_id":"ce4bhb92rcd13ifvqen0","pricing_plan_id":"cebpf4jnsgd1na2vs0mg"},{"bike_id":"cfc6cdd3-fe74-443d-bb77-a57ca85ddcc3","system_id":"levelo_inurba_marseille","lat":43.29009,"lon":5.35612,"is_reserved":false,"is_disabled":false,"rental_uris":{"android":"levelo://app?vid=cfc6cdd3-fe74-443d-bb77-a57ca85ddcc3","ios":"levelo://app?vid=cfc6cdd3-fe74-443d-bb77-a57ca85ddcc3"},"vehicle_type_id":"4","last_reported":1724170168,"current_range_meters":26400,"station_id":"ce4bhb92rcd13ifvqen0","pricing_plan_id":"cebpf4jnsgd1na2vs0mg"},{"bike_id":"aea5aad1-a9c1-4d27-8445-11fdb19d7bae","system_id":"levelo_inurba_marseille","lat":43.290104,"lon":5.356111,"is_reserved":false,"is_disabled":false,"rental_uris":{"android":"levelo://app?vid=aea5aad1-a9c1-4d27-8445-11fdb19d7bae","ios":"levelo://app?vid=aea5aad1-a9c1-4d27-8445-11fdb19d7bae"},"vehicle_type_id":"4","last_reported":1724170168,"current_range_meters":6800,"station_id":"ce4bhb92rcd13ifvqen0","pricing_plan_id":"cebpf4jnsgd1na2vs0mg"},{"bike_id":"1ddc63c6-c8fb-4318-b864-0420349c95ff","system_id":"levelo_inurba_marseille","lat":43.290103,"lon":5.356114,"is_reserved":false,"is_disabled":false,"rental_uris":{"android":"levelo://app?vid=1ddc63c6-c8fb-4318-b864-0420349c95ff","ios":"levelo://app?vid=1ddc63c6-c8fb-4318-b864-0420349c95ff"},"vehicle_type_id":"4","last_reported":1724170168,"current_range_meters":15600,"station_id":"ce4bhb92rcd13ifvqen0","pricing_plan_id":"cebpf4jnsgd1na2vs0mg"},{"bike_id":"aa13f590-152c-4524-9f63-28b47d00a0b2","system_id":"levelo_inurba_marseille","lat":43.290104,"lon":5.356111,"is_reserved":false,"is_disabled":false,"rental_uris":{"android":"levelo://app?vid=aa13f590-152c-4524-9f63-28b47d00a0b2","ios":"levelo://app?vid=aa13f590-152c-4524-9f63-28b47d00a0b2"},"vehicle_type_id":"4","last_reported":1724170168,"current_range_meters":18400,"station_id":"ce4bhb92rcd13ifvqen0","pricing_plan_id":"cebpf4jnsgd1na2vs0mg"},{"bike_id":"8a4d6798-476d-429a-a02c-baad821d1a95","system_id":"levelo_inurba_marseille","lat":43.290103,"lon":5.356114,"is_reserved":false,"is_disabled":false,"rental_uris":{"android":"levelo://app?vid=8a4d6798-476d-429a-a02c-baad821d1a95","ios":"levelo://app?vid=8a4d6798-476d-429a-a02c-baad821d1a95"},"vehicle_type_id":"4","last_reported":1724170168,"current_range_meters":27200,"station_id":"ce4bhb92rcd13ifvqen0","pricing_plan_id":"cebpf4jnsgd1na2vs0mg"},{"bike_id":"61245fbb-88a9-4920-929e-634dfe038952","system_id":"levelo_inurba_marseille","lat":43.290104,"lon":5.356111,"is_reserved":false,"is_disabled":false,"rental_uris":{"android":"levelo://app?vid=61245fbb-88a9-4920-929e-634dfe038952","ios":"levelo://app?vid=61245fbb-88a9-4920-929e-634dfe038952"},"vehicle_type_id":"4","last_reported":1724170168,"current_range_meters":21200,"station_id":"ce4bhb92rcd13ifvqen0","pricing_plan_id":"cebpf4jnsgd1na2vs0mg"},{"bike_id":"6295c748-b08e-42f6-8d50-ae7b2f662aee","system_id":"levelo_inurba_marseille","lat":43.290104,"lon":5.356111,"is_reserved":false,"is_disabled":false,"rental_uris":{"android":"levelo://app?vid=6295c748-b08e-42f6-8d50-ae7b2f662aee","ios":"levelo://app?vid=6295c748-b08e-42f6-8d50-ae7b2f662aee"},"vehicle_type_id":"4","last_reported":1724170168,"current_range_meters":5200,"station_id":"ce4bhb92rcd13ifvqen0","pricing_plan_id":"cebpf4jnsgd1na2vs0mg"},{"bike_id":"6524f638-8123-4914-a752-751f0811a87d","system_id":"levelo_inurba_marseille","lat":43.29006,"lon":5.35617,"is_reserved":false,"is_disabled":false,"rental_uris":{"android":"levelo://app?vid=6524f638-8123-4914-a752-751f0811a87d","ios":"levelo://app?vid=6524f638-8123-4914-a752-751f0811a87d"},"vehicle_type_id":"4","last_reported":1724170168,"current_range_meters":5200,"station_id":"ce4bhb92rcd13ifvqen0","pricing_plan_id":"cebpf4jnsgd1na2vs0mg"},{"bike_id":"0307666e-dea7-4bf5-a949-3a3fed25fe5d","system_id":"levelo_inurba_marseille","lat":43.290104,"lon":5.356111,"is_reserved":false,"is_disabled":false,"rental_uris":{"android":"levelo://app?vid=0307666e-dea7-4bf5-a949-3a3fed25fe5d","ios":"levelo://app?vid=0307666e-dea7-4bf5-a949-3a3fed25fe5d"},"vehicle_type_id":"4","last_reported":1724170168,"current_range_meters":28400,"station_id":"ce4bhb92rcd13ifvqen0","pricing_plan_id":"cebpf4jnsgd1na2vs0mg"},{"bike_id":"bef7662b-f3ba-4733-9364-bcfcfc9df7ff","system_id":"levelo_inurba_marseille","lat":43.290104,"lon":5.356111,"is_reserved":false,"is_disabled":false,"rental_uris":{"android":"levelo://app?vid=bef7662b-f3ba-4733-9364-bcfcfc9df7ff","ios":"levelo://app?vid=bef7662b-f3ba-4733-9364-bcfcfc9df7ff"},"vehicle_type_id":"4","last_reported":1724170168,"current_range_meters":0,"station_id":"ce4bhb92rcd13ifvqen0","pricing_plan_id":"cebpf4jnsgd1na2vs0mg"},{"bike_id":"c095248d-4745-46d3-aafc-752b97f4df60","system_id":"levelo_inurba_marseille","lat":43.29007,"lon":5.35612,"is_reserved":false,"is_disabled":false,"rental_uris":{"android":"levelo://app?vid=c095248d-4745-46d3-aafc-752b97f4df60","ios":"levelo://app?vid=c095248d-4745-46d3-aafc-752b97f4df60"},"vehicle_type_id":"4","last_reported":1724170168,"current_range_meters":8000,"station_id":"ce4bhb92rcd13ifvqen0","pricing_plan_id":"cebpf4jnsgd1na2vs0mg"},{"bike_id":"91e7e2cb-5649-430e-aeac-849f1be42ddc","system_id":"levelo_inurba_marseille","lat":43.290104,"lon":5.356111,"is_reserved":false,"is_disabled":false,"rental_uris":{"android":"levelo://app?vid=91e7e2cb-5649-430e-aeac-849f1be42ddc","ios":"levelo://app?vid=91e7e2cb-5649-430e-aeac-849f1be42ddc"},"vehicle_type_id":"4","last_reported":1724170168,"current_range_meters":31600,"station_id":"ce4bhb92rcd13ifvqen0","pricing_plan_id":"cebpf4jnsgd1na2vs0mg"},{"bike_id":"f656febb-b75f-4973-8cd3-f98ccdff0cb6","system_id":"levelo_inurba_marseille","lat":43.29007,"lon":5.3561,"is_reserved":false,"is_disabled":false,"rental_uris":{"android":"levelo://app?vid=f656febb-b75f-4973-8cd3-f98ccdff0cb6","ios":"levelo://app?vid=f656febb-b75f-4973-8cd3-f98ccdff0cb6"},"vehicle_type_id":"4","last_reported":1724170168,"current_range_meters":15200,"station_id":"ce4bhb92rcd13ifvqen0","pricing_plan_id":"cebpf4jnsgd1na2vs0mg"},{"bike_id":"60eee27e-4b37-4e0f-8ce9-b7cf76adb0b3","system_id":"levelo_inurba_marseille","lat":43.290104,"lon":5.356111,"is_reserved":false,"is_disabled":false,"rental_uris":{"android":"levelo://app?vid=60eee27e-4b37-4e0f-8ce9-b7cf76adb0b3","ios":"levelo://app?vid=60eee27e-4b37-4e0f-8ce9-b7cf76adb0b3"},"vehicle_type_id":"4","last_reported":1724170168,"current_range_meters":19200,"station_id":"ce4bhb92rcd13ifvqen0","pricing_plan_id":"cebpf4jnsgd1na2vs0mg"},{"bike_id":"d59e4904-6ffd-4dfc-aa39-d41b3ba6c263","system_id":"levelo_inurba_marseille","lat":43.290104,"lon":5.356111,"is_reserved":false,"is_disabled":false,"rental_uris":{"android":"levelo://app?vid=d59e4904-6ffd-4dfc-aa39-d41b3ba6c263","ios":"levelo://app?vid=d59e4904-6ffd-4dfc-aa39-d41b3ba6c263"},"vehicle_type_id":"4","last_reported":1724170168,"current_range_meters":24000,"station_id":"ce4bhb92rcd13ifvqen0","pricing_plan_id":"cebpf4jnsgd1na2vs0mg"},{"bike_id":"ebf2ad67-4f88-4baa-b22d-c5d292d43a9b","system_id":"levelo_inurba_marseille","lat":43.29004,"lon":5.35612,"is_reserved":false,"is_disabled":false,"rental_uris":{"android":"levelo://app?vid=ebf2ad67-4f88-4baa-b22d-c5d292d43a9b","ios":"levelo://app?vid=ebf2ad67-4f88-4baa-b22d-c5d292d43a9b"},"vehicle_type_id":"4","last_reported":1724170168,"current_range_meters":5600,"station_id":"ce4bhb92rcd13ifvqen0","pricing_plan_id":"cebpf4jnsgd1na2vs0mg"},{"bike_id":"b307e01c-8481-433a-8c5f-94810304af14","system_id":"levelo_inurba_marseille","lat":43.29004,"lon":5.35608,"is_reserved":false,"is_disabled":false,"rental_uris":{"android":"levelo://app?vid=b307e01c-8481-433a-8c5f-94810304af14","ios":"levelo://app?vid=b307e01c-8481-433a-8c5f-94810304af14"},"vehicle_type_id":"4","last_reported":1724170168,"current_range_meters":9600,"station_id":"ce4bhb92rcd13ifvqen0","pricing_plan_id":"cebpf4jnsgd1na2vs0mg"},{"bike_id":"efd8425b-1aa6-4177-bda7-3b0d0eacac54","system_id":"levelo_inurba_marseille","lat":43.290104,"lon":5.356111,"is_reserved":false,"is_disabled":false,"rental_uris":{"android":"levelo://app?vid=efd8425b-1aa6-4177-bda7-3b0d0eacac54","ios":"levelo://app?vid=efd8425b-1aa6-4177-bda7-3b0d0eacac54"},"vehicle_type_id":"4","last_reported":1724170168,"current_range_meters":16000,"station_id":"ce4bhb92rcd13ifvqen0","pricing_plan_id":"cebpf4jnsgd1na2vs0mg"},{"bike_id":"70bb40a3-8673-4103-98cb-5e14703d298c","system_id":"levelo_inurba_marseille","lat":43.29003,"lon":5.35609,"is_reserved":false,"is_disabled":false,"rental_uris":{"android":"levelo://app?vid=70bb40a3-8673-4103-98cb-5e14703d298c","ios":"levelo://app?vid=70bb40a3-8673-4103-98cb-5e14703d298c"},"vehicle_type_id":"4","last_reported":1724170168,"current_range_meters":20000,"station_id":"ce4bhb92rcd13ifvqen0","pricing_plan_id":"cebpf4jnsgd1na2vs0mg"},{"bike_id":"b7b37acb-4774-4ce0-a93f-d4a07049bf0c","system_id":"levelo_inurba_marseille","lat":43.290104,"lon":5.356111,"is_reserved":false,"is_disabled":false,"rental_uris":{"android":"levelo://app?vid=b7b37acb-4774-4ce0-a93f-d4a07049bf0c","ios":"levelo://app?vid=b7b37acb-4774-4ce0-a93f-d4a07049bf0c"},"vehicle_type_id":"4","last_reported":1724170168,"current_range_meters":10000,"station_id":"ce4bhb92rcd13ifvqen0","pricing_plan_id":"cebpf4jnsgd1na2vs0mg"},{"bike_id":"68d58c70-102e-437c-bee2-0f8ac64dde42","system_id":"levelo_inurba_marseille","lat":43.290995,"lon":5.381361,"is_reserved":false,"is_disabled":false,"rental_uris":{"android":"levelo://app?vid=68d58c70-102e-437c-bee2-0f8ac64dde42","ios":"levelo://app?vid=68d58c70-102e-437c-bee2-0f8ac64dde42"},"vehicle_type_id":"4","last_reported":1724170168,"current_range_meters":400,"station_id":"ce4bh512rcd13ifvqe2g","pricing_plan_id":"cebpf4jnsgd1na2vs0mg"},{"bike_id":"f8357f1c-a764-416d-b38f-87a9e48f7edd","system_id":"levelo_inurba_marseille","lat":43.297815,"lon":5.393548,"is_reserved":false,"is_disabled":false,"rental_uris":{"android":"levelo://app?vid=f8357f1c-a764-416d-b38f-87a9e48f7edd","ios":"levelo://app?vid=f8357f1c-a764-416d-b38f-87a9e48f7edd"},"vehicle_type_id":"4","last_reported":1724170168,"current_range_meters":24800,"station_id":"chh1huq6cuj3fo74tm60","pricing_plan_id":"cebpf4jnsgd1na2vs0mg"},{"bike_id":"6a976016-ae0f-4aad-ba01-aa2a92e44e52","system_id":"levelo_inurba_marseille","lat":43.297807,"lon":5.393533,"is_reserved":false,"is_disabled":false,"rental_uris":{"android":"levelo://app?vid=6a976016-ae0f-4aad-ba01-aa2a92e44e52","ios":"levelo://app?vid=6a976016-ae0f-4aad-ba01-aa2a92e44e52"},"vehicle_type_id":"4","last_reported":1724170168,"current_range_meters":3200,"station_id":"chh1huq6cuj3fo74tm60","pricing_plan_id":"cebpf4jnsgd1na2vs0mg"},{"bike_id":"2657741d-a877-4162-b6b9-e0b8d18734ea","system_id":"levelo_inurba_marseille","lat":43.297815,"lon":5.393548,"is_reserved":false,"is_disabled":false,"rental_uris":{"android":"levelo://app?vid=2657741d-a877-4162-b6b9-e0b8d18734ea","ios":"levelo://app?vid=2657741d-a877-4162-b6b9-e0b8d18734ea"},"vehicle_type_id":"4","last_reported":1724170168,"current_range_meters":5200,"station_id":"chh1huq6cuj3fo74tm60","pricing_plan_id":"cebpf4jnsgd1na2vs0mg"},{"bike_id":"545b0497-6615-4976-baec-1f9047401c3b","system_id":"levelo_inurba_marseille","lat":43.295169,"lon":5.390426,"is_reserved":false,"is_disabled":false,"rental_uris":{"android":"levelo://app?vid=545b0497-6615-4976-baec-1f9047401c3b","ios":"levelo://app?vid=545b0497-6615-4976-baec-1f9047401c3b"},"vehicle_type_id":"4","last_reported":1724170168,"current_range_meters":14800,"station_id":"ce4bh3p2rcd13ifvqdp0","pricing_plan_id":"cebpf4jnsgd1na2vs0mg"},{"bike_id":"a889940c-4aeb-4e5e-badf-ee8e9219fed5","system_id":"levelo_inurba_marseille","lat":43.29518,"lon":5.39033,"is_reserved":false,"is_disabled":false,"rental_uris":{"android":"levelo://app?vid=a889940c-4aeb-4e5e-badf-ee8e9219fed5","ios":"levelo://app?vid=a889940c-4aeb-4e5e-badf-ee8e9219fed5"},"vehicle_type_id":"4","last_reported":1724170168,"current_range_meters":8800,"station_id":"ce4bh3p2rcd13ifvqdp0","pricing_plan_id":"cebpf4jnsgd1na2vs0mg"},{"bike_id":"f8c881df-3d60-4edd-acff-87f8049ea2fb","system_id":"levelo_inurba_marseille","lat":43.33027,"lon":5.39044,"is_reserved":false,"is_disabled":false,"rental_uris":{"android":"levelo://app?vid=f8c881df-3d60-4edd-acff-87f8049ea2fb","ios":"levelo://app?vid=f8c881df-3d60-4edd-acff-87f8049ea2fb"},"vehicle_type_id":"4","last_reported":1724170168,"current_range_meters":1200,"station_id":"ce4bhr92rcd13ifvqhrg","pricing_plan_id":"cebpf4jnsgd1na2vs0mg"},{"bike_id":"8da389bf-76ba-43e1-b122-6876dbc85796","system_id":"levelo_inurba_marseille","lat":43.330442,"lon":5.389148,"is_reserved":false,"is_disabled":false,"rental_uris":{"android":"levelo://app?vid=8da389bf-76ba-43e1-b122-6876dbc85796","ios":"levelo://app?vid=8da389bf-76ba-43e1-b122-6876dbc85796"},"vehicle_type_id":"4","last_reported":1724170168,"current_range_meters":800,"station_id":"ce4bhr92rcd13ifvqhrg","pricing_plan_id":"cebpf4jnsgd1na2vs0mg"},{"bike_id":"9be44133-2e87-477e-a2d3-a164d4a5485a","system_id":"levelo_inurba_marseille","lat":43.3107,"lon":5.40101,"is_reserved":false,"is_disabled":false,"rental_uris":{"android":"levelo://app?vid=9be44133-2e87-477e-a2d3-a164d4a5485a","ios":"levelo://app?vid=9be44133-2e87-477e-a2d3-a164d4a5485a"},"vehicle_type_id":"4","last_reported":1724170168,"current_range_meters":26000,"station_id":"","pricing_plan_id":"cebpf4jnsgd1na2vs0mg"},{"bike_id":"a114823d-e392-449b-b125-fca1ce8c2be3","system_id":"levelo_inurba_marseille","lat":43.288573,"lon":5.358506,"is_reserved":false,"is_disabled":false,"rental_uris":{"android":"levelo://app?vid=a114823d-e392-449b-b125-fca1ce8c2be3","ios":"levelo://app?vid=a114823d-e392-449b-b125-fca1ce8c2be3"},"vehicle_type_id":"4","last_reported":1724170168,"current_range_meters":31200,"station_id":"ce4bhb12rcd13ifvqem0","pricing_plan_id":"cebpf4jnsgd1na2vs0mg"},{"bike_id":"d5c9d12a-eac9-4c3b-9d95-ea4ff1f0d883","system_id":"levelo_inurba_marseille","lat":43.288564,"lon":5.358542,"is_reserved":false,"is_disabled":false,"rental_uris":{"android":"levelo://app?vid=d5c9d12a-eac9-4c3b-9d95-ea4ff1f0d883","ios":"levelo://app?vid=d5c9d12a-eac9-4c3b-9d95-ea4ff1f0d883"},"vehicle_type_id":"4","last_reported":1724170168,"current_range_meters":14400,"station_id":"ce4bhb12rcd13ifvqem0","pricing_plan_id":"cebpf4jnsgd1na2vs0mg"},{"bike_id":"5d26f04f-3881-41f8-8212-a1d8ba381884","system_id":"levelo_inurba_marseille","lat":43.28856,"lon":5.358371,"is_reserved":false,"is_disabled":false,"rental_uris":{"android":"levelo://app?vid=5d26f04f-3881-41f8-8212-a1d8ba381884","ios":"levelo://app?vid=5d26f04f-3881-41f8-8212-a1d8ba381884"},"vehicle_type_id":"4","last_reported":1724170168,"current_range_meters":29600,"station_id":"ce4bhb12rcd13ifvqem0","pricing_plan_id":"cebpf4jnsgd1na2vs0mg"},{"bike_id":"354843ec-0a09-48c3-a5d1-4b4a5e0b695f","system_id":"levelo_inurba_marseille","lat":43.28856,"lon":5.358371,"is_reserved":false,"is_disabled":false,"rental_uris":{"android":"levelo://app?vid=354843ec-0a09-48c3-a5d1-4b4a5e0b695f","ios":"levelo://app?vid=354843ec-0a09-48c3-a5d1-4b4a5e0b695f"},"vehicle_type_id":"4","last_reported":1724170168,"current_range_meters":31200,"station_id":"ce4bhb12rcd13ifvqem0","pricing_plan_id":"cebpf4jnsgd1na2vs0mg"},{"bike_id":"6997ad94-f4a5-4fe3-a530-ef07264869fa","system_id":"levelo_inurba_marseille","lat":43.2885,"lon":5.35866,"is_reserved":false,"is_disabled":false,"rental_uris":{"android":"levelo://app?vid=6997ad94-f4a5-4fe3-a530-ef07264869fa","ios":"levelo://app?vid=6997ad94-f4a5-4fe3-a530-ef07264869fa"},"vehicle_type_id":"4","last_reported":1724170168,"current_range_meters":400,"station_id":"ce4bhb12rcd13ifvqem0","pricing_plan_id":"cebpf4jnsgd1na2vs0mg"},{"bike_id":"526c7533-3d34-48d5-a822-a3bdfbbd1cf2","system_id":"levelo_inurba_marseille","lat":43.28851,"lon":5.358556,"is_reserved":false,"is_disabled":false,"rental_uris":{"android":"levelo://app?vid=526c7533-3d34-48d5-a822-a3bdfbbd1cf2","ios":"levelo://app?vid=526c7533-3d34-48d5-a822-a3bdfbbd1cf2"},"vehicle_type_id":"4","last_reported":1724170168,"current_range_meters":13200,"station_id":"ce4bhb12rcd13ifvqem0","pricing_plan_id":"cebpf4jnsgd1na2vs0mg"},{"bike_id":"e259f6a1-438d-4bbf-bb63-12fc0c976c46","system_id":"levelo_inurba_marseille","lat":43.2885,"lon":5.35857,"is_reserved":false,"is_disabled":false,"rental_uris":{"android":"levelo://app?vid=e259f6a1-438d-4bbf-bb63-12fc0c976c46","ios":"levelo://app?vid=e259f6a1-438d-4bbf-bb63-12fc0c976c46"},"vehicle_type_id":"4","last_reported":1724170168,"current_range_meters":16800,"station_id":"ce4bhb12rcd13ifvqem0","pricing_plan_id":"cebpf4jnsgd1na2vs0mg"},{"bike_id":"85488a84-9aa2-463e-ad7b-774d926562f0","system_id":"levelo_inurba_marseille","lat":43.28856,"lon":5.358371,"is_reserved":false,"is_disabled":false,"rental_uris":{"android":"levelo://app?vid=85488a84-9aa2-463e-ad7b-774d926562f0","ios":"levelo://app?vid=85488a84-9aa2-463e-ad7b-774d926562f0"},"vehicle_type_id":"4","last_reported":1724170168,"current_range_meters":11600,"station_id":"ce4bhb12rcd13ifvqem0","pricing_plan_id":"cebpf4jnsgd1na2vs0mg"},{"bike_id":"105f8198-22f3-42e5-baec-e881f80c76d7","system_id":"levelo_inurba_marseille","lat":43.28856,"lon":5.358371,"is_reserved":false,"is_disabled":false,"rental_uris":{"android":"levelo://app?vid=105f8198-22f3-42e5-baec-e881f80c76d7","ios":"levelo://app?vid=105f8198-22f3-42e5-baec-e881f80c76d7"},"vehicle_type_id":"4","last_reported":1724170168,"current_range_meters":4000,"station_id":"ce4bhb12rcd13ifvqem0","pricing_plan_id":"cebpf4jnsgd1na2vs0mg"},{"bike_id":"8acfe494-3f89-4787-be18-810800cbc1fe","system_id":"levelo_inurba_marseille","lat":43.28856,"lon":5.358371,"is_reserved":false,"is_disabled":false,"rental_uris":{"android":"levelo://app?vid=8acfe494-3f89-4787-be18-810800cbc1fe","ios":"levelo://app?vid=8acfe494-3f89-4787-be18-810800cbc1fe"},"vehicle_type_id":"4","last_reported":1724170168,"current_range_meters":8000,"station_id":"ce4bhb12rcd13ifvqem0","pricing_plan_id":"cebpf4jnsgd1na2vs0mg"},{"bike_id":"a28fa02a-7e7a-49b3-a8f0-eabff517a560","system_id":"levelo_inurba_marseille","lat":43.28845,"lon":5.358477,"is_reserved":false,"is_disabled":false,"rental_uris":{"android":"levelo://app?vid=a28fa02a-7e7a-49b3-a8f0-eabff517a560","ios":"levelo://app?vid=a28fa02a-7e7a-49b3-a8f0-eabff517a560"},"vehicle_type_id":"4","last_reported":1724170168,"current_range_meters":0,"station_id":"ce4bhb12rcd13ifvqem0","pricing_plan_id":"cebpf4jnsgd1na2vs0mg"},{"bike_id":"7c8dd1cd-388b-4b2a-bedc-8c6e98b7f0ff","system_id":"levelo_inurba_marseille","lat":43.28856,"lon":5.358371,"is_reserved":false,"is_disabled":false,"rental_uris":{"android":"levelo://app?vid=7c8dd1cd-388b-4b2a-bedc-8c6e98b7f0ff","ios":"levelo://app?vid=7c8dd1cd-388b-4b2a-bedc-8c6e98b7f0ff"},"vehicle_type_id":"4","last_reported":1724170168,"current_range_meters":11200,"station_id":"ce4bhb12rcd13ifvqem0","pricing_plan_id":"cebpf4jnsgd1na2vs0mg"},{"bike_id":"52e27a5b-d277-4f24-bb90-0f144eb193ec","system_id":"levelo_inurba_marseille","lat":43.312609,"lon":5.401662,"is_reserved":false,"is_disabled":false,"rental_uris":{"android":"levelo://app?vid=52e27a5b-d277-4f24-bb90-0f144eb193ec","ios":"levelo://app?vid=52e27a5b-d277-4f24-bb90-0f144eb193ec"},"vehicle_type_id":"4","last_reported":1724170168,"current_range_meters":24400,"station_id":"ce4bh092rcd13ifvqd30","pricing_plan_id":"cebpf4jnsgd1na2vs0mg"},{"bike_id":"9c458164-51ba-4896-bcd9-0fc7c92cf6af","system_id":"levelo_inurba_marseille","lat":43.309371,"lon":5.401449,"is_reserved":false,"is_disabled":false,"rental_uris":{"android":"levelo://app?vid=9c458164-51ba-4896-bcd9-0fc7c92cf6af","ios":"levelo://app?vid=9c458164-51ba-4896-bcd9-0fc7c92cf6af"},"vehicle_type_id":"4","last_reported":1724170168,"current_range_meters":400,"station_id":"ce4bgvp2rcd13ifvqct0","pricing_plan_id":"cebpf4jnsgd1na2vs0mg"},{"bike_id":"ebf6f7d8-2f8a-40e0-8e76-14d51cf81590","system_id":"levelo_inurba_marseille","lat":43.309371,"lon":5.401449,"is_reserved":false,"is_disabled":false,"rental_uris":{"android":"levelo://app?vid=ebf6f7d8-2f8a-40e0-8e76-14d51cf81590","ios":"levelo://app?vid=ebf6f7d8-2f8a-40e0-8e76-14d51cf81590"},"vehicle_type_id":"4","last_reported":1724170168,"current_range_meters":31600,"station_id":"ce4bgvp2rcd13ifvqct0","pricing_plan_id":"cebpf4jnsgd1na2vs0mg"},{"bike_id":"1088c7e1-d1f8-438d-9799-bdc3c8141baf","system_id":"levelo_inurba_marseille","lat":43.30642,"lon":5.401031,"is_reserved":false,"is_disabled":false,"rental_uris":{"android":"levelo://app?vid=1088c7e1-d1f8-438d-9799-bdc3c8141baf","ios":"levelo://app?vid=1088c7e1-d1f8-438d-9799-bdc3c8141baf"},"vehicle_type_id":"4","last_reported":1724170168,"current_range_meters":31600,"station_id":"ce4bh112rcd13ifvqda0","pricing_plan_id":"cebpf4jnsgd1na2vs0mg"},{"bike_id":"d155878d-53e0-4b59-8df8-fe540d5d24f1","system_id":"levelo_inurba_marseille","lat":43.309371,"lon":5.401449,"is_reserved":false,"is_disabled":false,"rental_uris":{"android":"levelo://app?vid=d155878d-53e0-4b59-8df8-fe540d5d24f1","ios":"levelo://app?vid=d155878d-53e0-4b59-8df8-fe540d5d24f1"},"vehicle_type_id":"4","last_reported":1724170168,"current_range_meters":31200,"station_id":"ce4bgvp2rcd13ifvqct0","pricing_plan_id":"cebpf4jnsgd1na2vs0mg"},{"bike_id":"283d9723-00b0-4f27-b19a-17d81a752f5b","system_id":"levelo_inurba_marseille","lat":43.306412,"lon":5.401035,"is_reserved":false,"is_disabled":false,"rental_uris":{"android":"levelo://app?vid=283d9723-00b0-4f27-b19a-17d81a752f5b","ios":"levelo://app?vid=283d9723-00b0-4f27-b19a-17d81a752f5b"},"vehicle_type_id":"4","last_reported":1724170168,"current_range_meters":26000,"station_id":"ce4bh112rcd13ifvqda0","pricing_plan_id":"cebpf4jnsgd1na2vs0mg"},{"bike_id":"25b7a0c3-f7cd-4d78-acf2-86a2bd6b479e","system_id":"levelo_inurba_marseille","lat":43.30642,"lon":5.401031,"is_reserved":false,"is_disabled":false,"rental_uris":{"android":"levelo://app?vid=25b7a0c3-f7cd-4d78-acf2-86a2bd6b479e","ios":"levelo://app?vid=25b7a0c3-f7cd-4d78-acf2-86a2bd6b479e"},"vehicle_type_id":"4","last_reported":1724170168,"current_range_meters":400,"station_id":"ce4bh112rcd13ifvqda0","pricing_plan_id":"cebpf4jnsgd1na2vs0mg"},{"bike_id":"31041bb0-cb1e-4b6b-837f-6563933a7d19","system_id":"levelo_inurba_marseille","lat":43.306412,"lon":5.401035,"is_reserved":false,"is_disabled":false,"rental_uris":{"android":"levelo://app?vid=31041bb0-cb1e-4b6b-837f-6563933a7d19","ios":"levelo://app?vid=31041bb0-cb1e-4b6b-837f-6563933a7d19"},"vehicle_type_id":"4","last_reported":1724170168,"current_range_meters":31200,"station_id":"ce4bh112rcd13ifvqda0","pricing_plan_id":"cebpf4jnsgd1na2vs0mg"},{"bike_id":"40279b95-4511-472e-ad99-70f51ae44c7c","system_id":"levelo_inurba_marseille","lat":43.306412,"lon":5.401035,"is_reserved":false,"is_disabled":false,"rental_uris":{"android":"levelo://app?vid=40279b95-4511-472e-ad99-70f51ae44c7c","ios":"levelo://app?vid=40279b95-4511-472e-ad99-70f51ae44c7c"},"vehicle_type_id":"4","last_reported":1724170168,"current_range_meters":30800,"station_id":"ce4bh112rcd13ifvqda0","pricing_plan_id":"cebpf4jnsgd1na2vs0mg"},{"bike_id":"c1855a5d-ab80-47ca-862a-6823097ca489","system_id":"levelo_inurba_marseille","lat":43.30642,"lon":5.401031,"is_reserved":false,"is_disabled":false,"rental_uris":{"android":"levelo://app?vid=c1855a5d-ab80-47ca-862a-6823097ca489","ios":"levelo://app?vid=c1855a5d-ab80-47ca-862a-6823097ca489"},"vehicle_type_id":"4","last_reported":1724170168,"current_range_meters":7600,"station_id":"ce4bh112rcd13ifvqda0","pricing_plan_id":"cebpf4jnsgd1na2vs0mg"},{"bike_id":"cc7cb667-cbd5-4311-bc0f-32685f7555f2","system_id":"levelo_inurba_marseille","lat":43.30139,"lon":5.39867,"is_reserved":false,"is_disabled":false,"rental_uris":{"android":"levelo://app?vid=cc7cb667-cbd5-4311-bc0f-32685f7555f2","ios":"levelo://app?vid=cc7cb667-cbd5-4311-bc0f-32685f7555f2"},"vehicle_type_id":"4","last_reported":1724170168,"current_range_meters":24000,"station_id":"ce4bh0h2rcd13ifvqd40","pricing_plan_id":"cebpf4jnsgd1na2vs0mg"},{"bike_id":"e6f7814e-e172-4e29-9d19-ad60045143f2","system_id":"levelo_inurba_marseille","lat":43.30117,"lon":5.39866,"is_reserved":false,"is_disabled":false,"rental_uris":{"android":"levelo://app?vid=e6f7814e-e172-4e29-9d19-ad60045143f2","ios":"levelo://app?vid=e6f7814e-e172-4e29-9d19-ad60045143f2"},"vehicle_type_id":"4","last_reported":1724170168,"current_range_meters":0,"station_id":"ce4bh0h2rcd13ifvqd40","pricing_plan_id":"cebpf4jnsgd1na2vs0mg"},{"bike_id":"f46d551b-b24c-4054-9b3e-da8db2db6d62","system_id":"levelo_inurba_marseille","lat":43.30138,"lon":5.39884,"is_reserved":false,"is_disabled":false,"rental_uris":{"android":"levelo://app?vid=f46d551b-b24c-4054-9b3e-da8db2db6d62","ios":"levelo://app?vid=f46d551b-b24c-4054-9b3e-da8db2db6d62"},"vehicle_type_id":"4","last_reported":1724170168,"current_range_meters":0,"station_id":"ce4bh0h2rcd13ifvqd40","pricing_plan_id":"cebpf4jnsgd1na2vs0mg"},{"bike_id":"68d8a003-1827-4b73-9e60-18ec5a2fd9a2","system_id":"levelo_inurba_marseille","lat":43.286593,"lon":5.363346,"is_reserved":false,"is_disabled":false,"rental_uris":{"android":"levelo://app?vid=68d8a003-1827-4b73-9e60-18ec5a2fd9a2","ios":"levelo://app?vid=68d8a003-1827-4b73-9e60-18ec5a2fd9a2"},"vehicle_type_id":"4","last_reported":1724170168,"current_range_meters":6400,"station_id":"ce4bhah2rcd13ifvqej0","pricing_plan_id":"cebpf4jnsgd1na2vs0mg"},{"bike_id":"46122eaa-4ffe-46a2-8d6c-451acea04649","system_id":"levelo_inurba_marseille","lat":43.286591,"lon":5.363346,"is_reserved":false,"is_disabled":false,"rental_uris":{"android":"levelo://app?vid=46122eaa-4ffe-46a2-8d6c-451acea04649","ios":"levelo://app?vid=46122eaa-4ffe-46a2-8d6c-451acea04649"},"vehicle_type_id":"4","last_reported":1724170168,"current_range_meters":19200,"station_id":"ce4bhah2rcd13ifvqej0","pricing_plan_id":"cebpf4jnsgd1na2vs0mg"},{"bike_id":"9b743d92-b208-46cf-a21e-d8fd4f2721e8","system_id":"levelo_inurba_marseille","lat":43.286591,"lon":5.363346,"is_reserved":false,"is_disabled":false,"rental_uris":{"android":"levelo://app?vid=9b743d92-b208-46cf-a21e-d8fd4f2721e8","ios":"levelo://app?vid=9b743d92-b208-46cf-a21e-d8fd4f2721e8"},"vehicle_type_id":"4","last_reported":1724170168,"current_range_meters":28800,"station_id":"ce4bhah2rcd13ifvqej0","pricing_plan_id":"cebpf4jnsgd1na2vs0mg"},{"bike_id":"5382b952-2b7f-4975-b399-c78ba8f0f1cf","system_id":"levelo_inurba_marseille","lat":43.286961,"lon":5.373785,"is_reserved":false,"is_disabled":false,"rental_uris":{"android":"levelo://app?vid=5382b952-2b7f-4975-b399-c78ba8f0f1cf","ios":"levelo://app?vid=5382b952-2b7f-4975-b399-c78ba8f0f1cf"},"vehicle_type_id":"4","last_reported":1724170168,"current_range_meters":11600,"station_id":"ce4bh3p2rcd13ifvqdq0","pricing_plan_id":"cebpf4jnsgd1na2vs0mg"},{"bike_id":"71500a77-34cc-44cb-ae66-fecd763ae545","system_id":"levelo_inurba_marseille","lat":43.2988,"lon":5.39748,"is_reserved":false,"is_disabled":false,"rental_uris":{"android":"levelo://app?vid=71500a77-34cc-44cb-ae66-fecd763ae545","ios":"levelo://app?vid=71500a77-34cc-44cb-ae66-fecd763ae545"},"vehicle_type_id":"4","last_reported":1724170168,"current_range_meters":22800,"station_id":"ce4bh0h2rcd13ifvqd50","pricing_plan_id":"cebpf4jnsgd1na2vs0mg"},{"bike_id":"aee4a544-3658-4761-a04c-3098273c9c4d","system_id":"levelo_inurba_marseille","lat":43.286591,"lon":5.363346,"is_reserved":false,"is_disabled":false,"rental_uris":{"android":"levelo://app?vid=aee4a544-3658-4761-a04c-3098273c9c4d","ios":"levelo://app?vid=aee4a544-3658-4761-a04c-3098273c9c4d"},"vehicle_type_id":"4","last_reported":1724170168,"current_range_meters":19600,"station_id":"ce4bhah2rcd13ifvqej0","pricing_plan_id":"cebpf4jnsgd1na2vs0mg"},{"bike_id":"871697f3-eaea-4408-9bfe-dc7805a05292","system_id":"levelo_inurba_marseille","lat":43.302759,"lon":5.400793,"is_reserved":false,"is_disabled":false,"rental_uris":{"android":"levelo://app?vid=871697f3-eaea-4408-9bfe-dc7805a05292","ios":"levelo://app?vid=871697f3-eaea-4408-9bfe-dc7805a05292"},"vehicle_type_id":"4","last_reported":1724170168,"current_range_meters":11200,"station_id":"ce4bgvh2rcd13ifvqcs0","pricing_plan_id":"cebpf4jnsgd1na2vs0mg"},{"bike_id":"3d81fcd2-1532-4e42-a5c0-ca0a130e2ab5","system_id":"levelo_inurba_marseille","lat":43.29032,"lon":5.38639,"is_reserved":false,"is_disabled":false,"rental_uris":{"android":"levelo://app?vid=3d81fcd2-1532-4e42-a5c0-ca0a130e2ab5","ios":"levelo://app?vid=3d81fcd2-1532-4e42-a5c0-ca0a130e2ab5"},"vehicle_type_id":"4","last_reported":1724170168,"current_range_meters":0,"station_id":"ce4bh4p2rcd13ifvqe0g","pricing_plan_id":"cebpf4jnsgd1na2vs0mg"},{"bike_id":"5556f2bc-c7b7-45a1-9956-ce68b9e5afea","system_id":"levelo_inurba_marseille","lat":43.289307,"lon":5.38406,"is_reserved":false,"is_disabled":false,"rental_uris":{"android":"levelo://app?vid=5556f2bc-c7b7-45a1-9956-ce68b9e5afea","ios":"levelo://app?vid=5556f2bc-c7b7-45a1-9956-ce68b9e5afea"},"vehicle_type_id":"4","last_reported":1724170168,"current_range_meters":32000,"station_id":"ce4bh612rcd13ifvqe6g","pricing_plan_id":"cebpf4jnsgd1na2vs0mg"},{"bike_id":"094b02af-1b30-4e9a-8df5-1d631cc5f5e7","system_id":"levelo_inurba_marseille","lat":43.289307,"lon":5.38406,"is_reserved":false,"is_disabled":false,"rental_uris":{"android":"levelo://app?vid=094b02af-1b30-4e9a-8df5-1d631cc5f5e7","ios":"levelo://app?vid=094b02af-1b30-4e9a-8df5-1d631cc5f5e7"},"vehicle_type_id":"4","last_reported":1724170168,"current_range_meters":0,"station_id":"ce4bh612rcd13ifvqe6g","pricing_plan_id":"cebpf4jnsgd1na2vs0mg"},{"bike_id":"1f4d6e2e-11f4-4ee1-8980-5fcc3a0aff61","system_id":"levelo_inurba_marseille","lat":43.302759,"lon":5.400793,"is_reserved":false,"is_disabled":false,"rental_uris":{"android":"levelo://app?vid=1f4d6e2e-11f4-4ee1-8980-5fcc3a0aff61","ios":"levelo://app?vid=1f4d6e2e-11f4-4ee1-8980-5fcc3a0aff61"},"vehicle_type_id":"4","last_reported":1724170168,"current_range_meters":12400,"station_id":"ce4bgvh2rcd13ifvqcs0","pricing_plan_id":"cebpf4jnsgd1na2vs0mg"},{"bike_id":"ca8f0196-03f9-42a2-8be5-0d06ecdc6a9c","system_id":"levelo_inurba_marseille","lat":43.290336,"lon":5.386425,"is_reserved":false,"is_disabled":false,"rental_uris":{"android":"levelo://app?vid=ca8f0196-03f9-42a2-8be5-0d06ecdc6a9c","ios":"levelo://app?vid=ca8f0196-03f9-42a2-8be5-0d06ecdc6a9c"},"vehicle_type_id":"4","last_reported":1724170168,"current_range_meters":11200,"station_id":"ce4bh4p2rcd13ifvqe0g","pricing_plan_id":"cebpf4jnsgd1na2vs0mg"},{"bike_id":"5d265e8e-a678-4f8b-8ea4-6cac6b02619b","system_id":"levelo_inurba_marseille","lat":43.30259,"lon":5.40079,"is_reserved":false,"is_disabled":false,"rental_uris":{"android":"levelo://app?vid=5d265e8e-a678-4f8b-8ea4-6cac6b02619b","ios":"levelo://app?vid=5d265e8e-a678-4f8b-8ea4-6cac6b02619b"},"vehicle_type_id":"4","last_reported":1724170168,"current_range_meters":1600,"station_id":"ce4bgvh2rcd13ifvqcs0","pricing_plan_id":"cebpf4jnsgd1na2vs0mg"},{"bike_id":"bdc7067b-4a38-4ee4-bce9-774919d2ed71","system_id":"levelo_inurba_marseille","lat":43.302759,"lon":5.400793,"is_reserved":false,"is_disabled":false,"rental_uris":{"android":"levelo://app?vid=bdc7067b-4a38-4ee4-bce9-774919d2ed71","ios":"levelo://app?vid=bdc7067b-4a38-4ee4-bce9-774919d2ed71"},"vehicle_type_id":"4","last_reported":1724170168,"current_range_meters":17200,"station_id":"ce4bgvh2rcd13ifvqcs0","pricing_plan_id":"cebpf4jnsgd1na2vs0mg"},{"bike_id":"c37af799-01b2-4363-8731-741d6bce8611","system_id":"levelo_inurba_marseille","lat":43.302759,"lon":5.400793,"is_reserved":false,"is_disabled":false,"rental_uris":{"android":"levelo://app?vid=c37af799-01b2-4363-8731-741d6bce8611","ios":"levelo://app?vid=c37af799-01b2-4363-8731-741d6bce8611"},"vehicle_type_id":"4","last_reported":1724170168,"current_range_meters":19600,"station_id":"ce4bgvh2rcd13ifvqcs0","pricing_plan_id":"cebpf4jnsgd1na2vs0mg"},{"bike_id":"61669ed1-3309-4a73-8bd7-89e0c44e3bc3","system_id":"levelo_inurba_marseille","lat":43.286039,"lon":5.370679,"is_reserved":false,"is_disabled":false,"rental_uris":{"android":"levelo://app?vid=61669ed1-3309-4a73-8bd7-89e0c44e3bc3","ios":"levelo://app?vid=61669ed1-3309-4a73-8bd7-89e0c44e3bc3"},"vehicle_type_id":"4","last_reported":1724170168,"current_range_meters":10800,"station_id":"ce4bht12rcd13ifvqi60","pricing_plan_id":"cebpf4jnsgd1na2vs0mg"},{"bike_id":"069b59de-2901-4fd1-9b4c-3b085fea4511","system_id":"levelo_inurba_marseille","lat":43.28714,"lon":5.37946,"is_reserved":false,"is_disabled":false,"rental_uris":{"android":"levelo://app?vid=069b59de-2901-4fd1-9b4c-3b085fea4511","ios":"levelo://app?vid=069b59de-2901-4fd1-9b4c-3b085fea4511"},"vehicle_type_id":"4","last_reported":1724170168,"current_range_meters":0,"station_id":"ce4bh9p2rcd13ifvqec0","pricing_plan_id":"cebpf4jnsgd1na2vs0mg"},{"bike_id":"a3a26737-f8f3-4bbc-973e-cb1af02d2ced","system_id":"levelo_inurba_marseille","lat":43.287633,"lon":5.3524,"is_reserved":false,"is_disabled":false,"rental_uris":{"android":"levelo://app?vid=a3a26737-f8f3-4bbc-973e-cb1af02d2ced","ios":"levelo://app?vid=a3a26737-f8f3-4bbc-973e-cb1af02d2ced"},"vehicle_type_id":"4","last_reported":1724170168,"current_range_meters":11200,"station_id":"ce4bhch2rcd13ifvqeug","pricing_plan_id":"cebpf4jnsgd1na2vs0mg"},{"bike_id":"6f6e5f49-439a-4675-b5d9-303f93bc22d9","system_id":"levelo_inurba_marseille","lat":43.284538,"lon":5.358657,"is_reserved":false,"is_disabled":false,"rental_uris":{"android":"levelo://app?vid=6f6e5f49-439a-4675-b5d9-303f93bc22d9","ios":"levelo://app?vid=6f6e5f49-439a-4675-b5d9-303f93bc22d9"},"vehicle_type_id":"4","last_reported":1724170168,"current_range_meters":14400,"station_id":"ce4bhah2rcd13ifvqei0","pricing_plan_id":"cebpf4jnsgd1na2vs0mg"},{"bike_id":"316be32b-5e37-4661-9318-1183c964b2a1","system_id":"levelo_inurba_marseille","lat":43.284538,"lon":5.358657,"is_reserved":false,"is_disabled":false,"rental_uris":{"android":"levelo://app?vid=316be32b-5e37-4661-9318-1183c964b2a1","ios":"levelo://app?vid=316be32b-5e37-4661-9318-1183c964b2a1"},"vehicle_type_id":"4","last_reported":1724170168,"current_range_meters":6400,"station_id":"ce4bhah2rcd13ifvqei0","pricing_plan_id":"cebpf4jnsgd1na2vs0mg"},{"bike_id":"fa793840-9187-453e-a9b7-fde5dbfa7fb1","system_id":"levelo_inurba_marseille","lat":43.284538,"lon":5.358657,"is_reserved":false,"is_disabled":false,"rental_uris":{"android":"levelo://app?vid=fa793840-9187-453e-a9b7-fde5dbfa7fb1","ios":"levelo://app?vid=fa793840-9187-453e-a9b7-fde5dbfa7fb1"},"vehicle_type_id":"4","last_reported":1724170168,"current_range_meters":8400,"station_id":"ce4bhah2rcd13ifvqei0","pricing_plan_id":"cebpf4jnsgd1na2vs0mg"},{"bike_id":"62c091d3-3566-4cbf-aabe-66bb01081634","system_id":"levelo_inurba_marseille","lat":43.284538,"lon":5.358657,"is_reserved":false,"is_disabled":false,"rental_uris":{"android":"levelo://app?vid=62c091d3-3566-4cbf-aabe-66bb01081634","ios":"levelo://app?vid=62c091d3-3566-4cbf-aabe-66bb01081634"},"vehicle_type_id":"4","last_reported":1724170168,"current_range_meters":32000,"station_id":"ce4bhah2rcd13ifvqei0","pricing_plan_id":"cebpf4jnsgd1na2vs0mg"},{"bike_id":"ae563510-0d49-485f-9b22-4a1bd299a145","system_id":"levelo_inurba_marseille","lat":43.28463,"lon":5.35899,"is_reserved":false,"is_disabled":false,"rental_uris":{"android":"levelo://app?vid=ae563510-0d49-485f-9b22-4a1bd299a145","ios":"levelo://app?vid=ae563510-0d49-485f-9b22-4a1bd299a145"},"vehicle_type_id":"4","last_reported":1724170168,"current_range_meters":7600,"station_id":"ce4bhah2rcd13ifvqei0","pricing_plan_id":"cebpf4jnsgd1na2vs0mg"},{"bike_id":"caab4cb2-d8c8-4c07-aca9-d95696352600","system_id":"levelo_inurba_marseille","lat":43.28464,"lon":5.3589,"is_reserved":false,"is_disabled":false,"rental_uris":{"android":"levelo://app?vid=caab4cb2-d8c8-4c07-aca9-d95696352600","ios":"levelo://app?vid=caab4cb2-d8c8-4c07-aca9-d95696352600"},"vehicle_type_id":"4","last_reported":1724170168,"current_range_meters":13200,"station_id":"ce4bhah2rcd13ifvqei0","pricing_plan_id":"cebpf4jnsgd1na2vs0mg"},{"bike_id":"d8c7266a-8d8c-4442-9477-f48aaa4d34c7","system_id":"levelo_inurba_marseille","lat":43.284538,"lon":5.358657,"is_reserved":false,"is_disabled":false,"rental_uris":{"android":"levelo://app?vid=d8c7266a-8d8c-4442-9477-f48aaa4d34c7","ios":"levelo://app?vid=d8c7266a-8d8c-4442-9477-f48aaa4d34c7"},"vehicle_type_id":"4","last_reported":1724170168,"current_range_meters":32000,"station_id":"ce4bhah2rcd13ifvqei0","pricing_plan_id":"cebpf4jnsgd1na2vs0mg"},{"bike_id":"e8bf6cd2-78f7-44bc-951d-3a8b9fd425cd","system_id":"levelo_inurba_marseille","lat":43.28463,"lon":5.35892,"is_reserved":false,"is_disabled":false,"rental_uris":{"android":"levelo://app?vid=e8bf6cd2-78f7-44bc-951d-3a8b9fd425cd","ios":"levelo://app?vid=e8bf6cd2-78f7-44bc-951d-3a8b9fd425cd"},"vehicle_type_id":"4","last_reported":1724170168,"current_range_meters":20400,"station_id":"ce4bhah2rcd13ifvqei0","pricing_plan_id":"cebpf4jnsgd1na2vs0mg"},{"bike_id":"3ad3a711-5bf4-4f20-b8fa-b5861da8e2b1","system_id":"levelo_inurba_marseille","lat":43.284538,"lon":5.358657,"is_reserved":false,"is_disabled":false,"rental_uris":{"android":"levelo://app?vid=3ad3a711-5bf4-4f20-b8fa-b5861da8e2b1","ios":"levelo://app?vid=3ad3a711-5bf4-4f20-b8fa-b5861da8e2b1"},"vehicle_type_id":"4","last_reported":1724170168,"current_range_meters":32000,"station_id":"ce4bhah2rcd13ifvqei0","pricing_plan_id":"cebpf4jnsgd1na2vs0mg"},{"bike_id":"9979117d-2214-40cc-b1e7-763a4962e0b1","system_id":"levelo_inurba_marseille","lat":43.284538,"lon":5.358657,"is_reserved":false,"is_disabled":false,"rental_uris":{"android":"levelo://app?vid=9979117d-2214-40cc-b1e7-763a4962e0b1","ios":"levelo://app?vid=9979117d-2214-40cc-b1e7-763a4962e0b1"},"vehicle_type_id":"4","last_reported":1724170168,"current_range_meters":7200,"station_id":"ce4bhah2rcd13ifvqei0","pricing_plan_id":"cebpf4jnsgd1na2vs0mg"},{"bike_id":"9edf8423-474b-4b63-8d03-308d824afabc","system_id":"levelo_inurba_marseille","lat":43.284534,"lon":5.358662,"is_reserved":false,"is_disabled":false,"rental_uris":{"android":"levelo://app?vid=9edf8423-474b-4b63-8d03-308d824afabc","ios":"levelo://app?vid=9edf8423-474b-4b63-8d03-308d824afabc"},"vehicle_type_id":"4","last_reported":1724170168,"current_range_meters":2800,"station_id":"ce4bhah2rcd13ifvqei0","pricing_plan_id":"cebpf4jnsgd1na2vs0mg"},{"bike_id":"5ab1d494-e69f-47b7-b23c-a01ceea1af14","system_id":"levelo_inurba_marseille","lat":43.284534,"lon":5.358662,"is_reserved":false,"is_disabled":false,"rental_uris":{"android":"levelo://app?vid=5ab1d494-e69f-47b7-b23c-a01ceea1af14","ios":"levelo://app?vid=5ab1d494-e69f-47b7-b23c-a01ceea1af14"},"vehicle_type_id":"4","last_reported":1724170168,"current_range_meters":3200,"station_id":"ce4bhah2rcd13ifvqei0","pricing_plan_id":"cebpf4jnsgd1na2vs0mg"},{"bike_id":"9dd4a0b2-cf05-497a-8a20-1762de6539ca","system_id":"levelo_inurba_marseille","lat":43.284538,"lon":5.358657,"is_reserved":false,"is_disabled":false,"rental_uris":{"android":"levelo://app?vid=9dd4a0b2-cf05-497a-8a20-1762de6539ca","ios":"levelo://app?vid=9dd4a0b2-cf05-497a-8a20-1762de6539ca"},"vehicle_type_id":"4","last_reported":1724170168,"current_range_meters":10400,"station_id":"ce4bhah2rcd13ifvqei0","pricing_plan_id":"cebpf4jnsgd1na2vs0mg"},{"bike_id":"2f7cecb0-35f2-48bf-891b-62659d203dcb","system_id":"levelo_inurba_marseille","lat":43.284534,"lon":5.358662,"is_reserved":false,"is_disabled":false,"rental_uris":{"android":"levelo://app?vid=2f7cecb0-35f2-48bf-891b-62659d203dcb","ios":"levelo://app?vid=2f7cecb0-35f2-48bf-891b-62659d203dcb"},"vehicle_type_id":"4","last_reported":1724170168,"current_range_meters":10000,"station_id":"ce4bhah2rcd13ifvqei0","pricing_plan_id":"cebpf4jnsgd1na2vs0mg"},{"bike_id":"5fb5f71c-368a-45fc-93ac-6a169c822067","system_id":"levelo_inurba_marseille","lat":43.284538,"lon":5.358657,"is_reserved":false,"is_disabled":false,"rental_uris":{"android":"levelo://app?vid=5fb5f71c-368a-45fc-93ac-6a169c822067","ios":"levelo://app?vid=5fb5f71c-368a-45fc-93ac-6a169c822067"},"vehicle_type_id":"4","last_reported":1724170168,"current_range_meters":16000,"station_id":"ce4bhah2rcd13ifvqei0","pricing_plan_id":"cebpf4jnsgd1na2vs0mg"},{"bike_id":"648cbb91-d34d-47a5-91cd-5d908c8822f3","system_id":"levelo_inurba_marseille","lat":43.284577,"lon":5.35894,"is_reserved":false,"is_disabled":false,"rental_uris":{"android":"levelo://app?vid=648cbb91-d34d-47a5-91cd-5d908c8822f3","ios":"levelo://app?vid=648cbb91-d34d-47a5-91cd-5d908c8822f3"},"vehicle_type_id":"4","last_reported":1724170168,"current_range_meters":17600,"station_id":"ce4bhah2rcd13ifvqei0","pricing_plan_id":"cebpf4jnsgd1na2vs0mg"},{"bike_id":"8cb3c9f8-52b4-4877-8e25-84e3ce6fe7e2","system_id":"levelo_inurba_marseille","lat":43.284534,"lon":5.358662,"is_reserved":false,"is_disabled":false,"rental_uris":{"android":"levelo://app?vid=8cb3c9f8-52b4-4877-8e25-84e3ce6fe7e2","ios":"levelo://app?vid=8cb3c9f8-52b4-4877-8e25-84e3ce6fe7e2"},"vehicle_type_id":"4","last_reported":1724170168,"current_range_meters":26800,"station_id":"ce4bhah2rcd13ifvqei0","pricing_plan_id":"cebpf4jnsgd1na2vs0mg"},{"bike_id":"e11c0b17-b543-4a8a-9507-c693b77453ec","system_id":"levelo_inurba_marseille","lat":43.284534,"lon":5.358662,"is_reserved":false,"is_disabled":false,"rental_uris":{"android":"levelo://app?vid=e11c0b17-b543-4a8a-9507-c693b77453ec","ios":"levelo://app?vid=e11c0b17-b543-4a8a-9507-c693b77453ec"},"vehicle_type_id":"4","last_reported":1724170168,"current_range_meters":15600,"station_id":"ce4bhah2rcd13ifvqei0","pricing_plan_id":"cebpf4jnsgd1na2vs0mg"},{"bike_id":"f2aae672-942a-447b-9852-b7ffb7862667","system_id":"levelo_inurba_marseille","lat":43.284575,"lon":5.358874,"is_reserved":false,"is_disabled":false,"rental_uris":{"android":"levelo://app?vid=f2aae672-942a-447b-9852-b7ffb7862667","ios":"levelo://app?vid=f2aae672-942a-447b-9852-b7ffb7862667"},"vehicle_type_id":"4","last_reported":1724170168,"current_range_meters":9200,"station_id":"ce4bhah2rcd13ifvqei0","pricing_plan_id":"cebpf4jnsgd1na2vs0mg"},{"bike_id":"0f219309-92e1-4715-8294-861246db4dfb","system_id":"levelo_inurba_marseille","lat":43.28456,"lon":5.35893,"is_reserved":false,"is_disabled":false,"rental_uris":{"android":"levelo://app?vid=0f219309-92e1-4715-8294-861246db4dfb","ios":"levelo://app?vid=0f219309-92e1-4715-8294-861246db4dfb"},"vehicle_type_id":"4","last_reported":1724170168,"current_range_meters":30800,"station_id":"ce4bhah2rcd13ifvqei0","pricing_plan_id":"cebpf4jnsgd1na2vs0mg"},{"bike_id":"8f65e754-9d20-4f1b-97f8-06a637f3d202","system_id":"levelo_inurba_marseille","lat":43.284538,"lon":5.358657,"is_reserved":false,"is_disabled":false,"rental_uris":{"android":"levelo://app?vid=8f65e754-9d20-4f1b-97f8-06a637f3d202","ios":"levelo://app?vid=8f65e754-9d20-4f1b-97f8-06a637f3d202"},