{"last_updated":1744481514,"ttl":60,"version":"2.2","data":{"bikes":[{"bike_id":"c5828d88-9472-4746-bff6-e0a5b6572af0","system_id":"levelo_inurba_marseille","lat":43.32369,"lon":5.38903,"is_reserved":false,"is_disabled":false,"rental_uris":{"android":"levelo://app?vid=c5828d88-9472-4746-bff6-e0a5b6572af0","ios":"levelo://app?vid=c5828d88-9472-4746-bff6-e0a5b6572af0"},"vehicle_type_id":"4","last_reported":1744481514,"current_range_meters":2800,"station_id":"ce4bhqp2rcd13ifvqhog","pricing_plan_id":"cebpf4jnsgd1na2vs0mg"},{"bike_id":"feb5e198-5a85-4af6-bc8a-56db2fcfb55e","system_id":"levelo_inurba_marseille","lat":43.29284,"lon":5.36845,"is_reserved":false,"is_disabled":false,"rental_uris":{"android":"levelo://app?vid=feb5e198-5a85-4af6-bc8a-56db2fcfb55e","ios":"levelo://app?vid=feb5e198-5a85-4af6-bc8a-56db2fcfb55e"},"vehicle_type_id":"4","last_reported":1744481514,"current_range_meters":2800,"station_id":"ce4bhbp2rcd13ifvqesg","pricing_plan_id":"cebpf4jnsgd1na2vs0mg"},{"bike_id":"1b4724e3-3c19-44f1-8bc8-b418373895ba","system_id":"levelo_inurba_marseille","lat":43.26229,"lon":5.40455,"is_reserved":false,"is_disabled":false,"rental_uris":{"android":"levelo://app?vid=1b4724e3-3c19-44f1-8bc8-b418373895ba","ios":"levelo://app?vid=1b4724e3-3c19-44f1-8bc8-b418373895ba"},"vehicle_type_id":"4","last_reported":1744481514,"current_range_meters":2800,"station_id":"ce4bhmh2rcd13ifvqgmg","pricing_plan_id":"cebpf4jnsgd1na2vs0mg"},{"bike_id":"763f16f7-a628-4207-a874-9da6a0299631","system_id":"levelo_inurba_marseille","lat":43.28482,"lon":5.3856,"is_reserved":false,"is_disabled":false,"rental_uris":{"android":"levelo://app?vid=763f16f7-a628-4207-a874-9da6a0299631","ios":"levelo://app?vid=763f16f7-a628-4207-a874-9da6a0299631"},"vehicle_type_id":"4","last_reported":1744481514,"current_range_meters":2800,"station_id":"ce4bh8p2rcd13ifvqeb0","pricing_plan_id":"cebpf4jnsgd1na2vs0mg"},{"bike_id":"c8fbdc90-2601-46b1-98bf-ac88d9071b48","system_id":"levelo_inurba_marseille","lat":43.31494,"lon":5.37306,"is_reserved":false,"is_disabled":false,"rental_uris":{"android":"levelo://app?vid=c8fbdc90-2601-46b1-98bf-ac88d9071b48","ios":"levelo://app?vid=c8fbdc90-2601-46b1-98bf-ac88d9071b48"},"vehicle_type_id":"4","last_reported":1744481514,"current_range_meters":2800,"station_id":"ce4bgt12rcd13ifvqcd0","pricing_plan_id":"cebpf4jnsgd1na2vs0mg"},{"bike_id":"626625bd-1510-44db-8316-1915a1298df2","system_id":"levelo_inurba_marseille","lat":43.27381,"lon":5.36268,"is_reserved":false,"is_disabled":false,"rental_uris":{"android":"levelo://app?vid=626625bd-1510-44db-8316-1915a1298df2","ios":"levelo://app?vid=626625bd-1510-44db-8316-1915a1298df2"},"vehicle_type_id":"4","last_reported":1744481514,"current_range_meters":2800,"station_id":"ce4bhbh2rcd13ifvqeo0","pricing_plan_id":"cebpf4jnsgd1na2vs0mg"},{"bike_id":"4ce01030-0d23-4067-b4f7-990ae0d9ae18","system_id":"levelo_inurba_marseille","lat":43.25501,"lon":5.37651,"is_reserved":false,"is_disabled":false,"rental_uris":{"android":"levelo://app?vid=4ce01030-0d23-4067-b4f7-990ae0d9ae18","ios":"levelo://app?vid=4ce01030-0d23-4067-b4f7-990ae0d9ae18"},"vehicle_type_id":"4","last_reported":1744481514,"current_range_meters":2800,"station_id":"ce4bhh12rcd13ifvqff0","pricing_plan_id":"cebpf4jnsgd1na2vs0mg"},{"bike_id":"b81181f9-36a3-48b4-9912-e6bf37b01e53","system_id":"levelo_inurba_marseille","lat":43.27388,"lon":5.36252,"is_reserved":false,"is_disabled":true,"rental_uris":{"android":"levelo://app?vid=b81181f9-36a3-48b4-9912-e6bf37b01e53","ios":"levelo://app?vid=b81181f9-36a3-48b4-9912-e6bf37b01e53"},"vehicle_type_id":"4","last_reported":1744481514,"current_range_meters":2800,"station_id":"ce4bhbh2rcd13ifvqeo0","pricing_plan_id":"cebpf4jnsgd1na2vs0mg"},{"bike_id":"c135b55a-2910-4734-bae3-1746bd650f2d","system_id":"levelo_inurba_marseille","lat":43.26945,"lon":5.38638,"is_reserved":false,"is_disabled":false,"rental_uris":{"android":"levelo://app?vid=c135b55a-2910-4734-bae3-1746bd650f2d","ios":"levelo://app?vid=c135b55a-2910-4734-bae3-1746bd650f2d"},"vehicle_type_id":"4","last_reported":1744481514,"current_range_meters":3200,"station_id":"ce4bhh92rcd13ifvqfh0","pricing_plan_id":"cebpf4jnsgd1na2vs0mg"},{"bike_id":"d539eef2-1580-4dd2-a6fb-754165d08993","system_id":"levelo_inurba_marseille","lat":43.30379,"lon":5.4249,"is_reserved":false,"is_disabled":false,"rental_uris":{"android":"levelo://app?vid=d539eef2-1580-4dd2-a6fb-754165d08993","ios":"levelo://app?vid=d539eef2-1580-4dd2-a6fb-754165d08993"},"vehicle_type_id":"4","last_reported":1744481514,"current_range_meters":3200,"station_id":"ce4bhoh2rcd13ifvqh6g","pricing_plan_id":"cebpf4jnsgd1na2vs0mg"},{"bike_id":"984bb2aa-d82a-4281-90f1-1529bbc61000","system_id":"levelo_inurba_marseille","lat":43.29918,"lon":5.39314,"is_reserved":false,"is_disabled":false,"rental_uris":{"android":"levelo://app?vid=984bb2aa-d82a-4281-90f1-1529bbc61000","ios":"levelo://app?vid=984bb2aa-d82a-4281-90f1-1529bbc61000"},"vehicle_type_id":"4","last_reported":1744481514,"current_range_meters":3200,"station_id":"","pricing_plan_id":"cebpf4jnsgd1na2vs0mg"},{"bike_id":"3f571648-75e5-4b0e-ad86-90c0c11b6e59","system_id":"levelo_inurba_marseille","lat":43.31482,"lon":5.37308,"is_reserved":false,"is_disabled":false,"rental_uris":{"android":"levelo://app?vid=3f571648-75e5-4b0e-ad86-90c0c11b6e59","ios":"levelo://app?vid=3f571648-75e5-4b0e-ad86-90c0c11b6e59"},"vehicle_type_id":"4","last_reported":1744481514,"current_range_meters":3200,"station_id":"ce4bgt12rcd13ifvqcd0","pricing_plan_id":"cebpf4jnsgd1na2vs0mg"},{"bike_id":"a9f344a9-b5c4-4c6f-adc4-6177f6c8159a","system_id":"levelo_inurba_marseille","lat":43.32821,"lon":5.3977,"is_reserved":false,"is_disabled":false,"rental_uris":{"android":"levelo://app?vid=a9f344a9-b5c4-4c6f-adc4-6177f6c8159a","ios":"levelo://app?vid=a9f344a9-b5c4-4c6f-adc4-6177f6c8159a"},"vehicle_type_id":"4","last_reported":1744481514,"current_range_meters":3200,"station_id":"","pricing_plan_id":"cebpf4jnsgd1na2vs0mg"},{"bike_id":"eab6cbfa-cb8e-47d7-b0d6-226ab7facec7","system_id":"levelo_inurba_marseille","lat":43.31713,"lon":5.42416,"is_reserved":false,"is_disabled":true,"rental_uris":{"android":"levelo://app?vid=eab6cbfa-cb8e-47d7-b0d6-226ab7facec7","ios":"levelo://app?vid=eab6cbfa-cb8e-47d7-b0d6-226ab7facec7"},"vehicle_type_id":"4","last_reported":1744481514,"current_range_meters":3200,"station_id":"ce4bhp92rcd13ifvqhbg","pricing_plan_id":"cebpf4jnsgd1na2vs0mg"},{"bike_id":"cff84e2f-10fa-43a5-a58c-b59b73623ece","system_id":"levelo_inurba_marseille","lat":43.29784,"lon":5.37108,"is_reserved":false,"is_disabled":false,"rental_uris":{"android":"levelo://app?vid=cff84e2f-10fa-43a5-a58c-b59b73623ece","ios":"levelo://app?vid=cff84e2f-10fa-43a5-a58c-b59b73623ece"},"vehicle_type_id":"4","last_reported":1744481514,"current_range_meters":3600,"station_id":"ce4bgop2rcd13ifvqc1g","pricing_plan_id":"cebpf4jnsgd1na2vs0mg"},{"bike_id":"57bcfad0-f9e5-4d53-8cf3-f3dc91249cb9","system_id":"levelo_inurba_marseille","lat":43.28416,"lon":5.37531,"is_reserved":false,"is_disabled":false,"rental_uris":{"android":"levelo://app?vid=57bcfad0-f9e5-4d53-8cf3-f3dc91249cb9","ios":"levelo://app?vid=57bcfad0-f9e5-4d53-8cf3-f3dc91249cb9"},"vehicle_type_id":"4","last_reported":1744481514,"current_range_meters":3600,"station_id":"ce4bh412rcd13ifvqds0","pricing_plan_id":"cebpf4jnsgd1na2vs0mg"},{"bike_id":"1633a85e-0c75-4017-af25-944d5db551e5","system_id":"levelo_inurba_marseille","lat":43.290222,"lon":5.381369,"is_reserved":false,"is_disabled":false,"rental_uris":{"android":"levelo://app?vid=1633a85e-0c75-4017-af25-944d5db551e5","ios":"levelo://app?vid=1633a85e-0c75-4017-af25-944d5db551e5"},"vehicle_type_id":"4","last_reported":1744481514,"current_range_meters":3600,"station_id":"ce4bh4p2rcd13ifvqe1g","pricing_plan_id":"cebpf4jnsgd1na2vs0mg"},{"bike_id":"ca252a36-7f6f-43f4-a94d-dc2db8df21b1","system_id":"levelo_inurba_marseille","lat":43.2694,"lon":5.40263,"is_reserved":false,"is_disabled":false,"rental_uris":{"android":"levelo://app?vid=ca252a36-7f6f-43f4-a94d-dc2db8df21b1","ios":"levelo://app?vid=ca252a36-7f6f-43f4-a94d-dc2db8df21b1"},"vehicle_type_id":"4","last_reported":1744481514,"current_range_meters":3600,"station_id":"cjm6bp8fraef2m0cb0m0","pricing_plan_id":"cebpf4jnsgd1na2vs0mg"},{"bike_id":"84ad0899-1c0f-4dc2-acc1-83f6875ccd0e","system_id":"levelo_inurba_marseille","lat":43.32049,"lon":5.4155,"is_reserved":false,"is_disabled":false,"rental_uris":{"android":"levelo://app?vid=84ad0899-1c0f-4dc2-acc1-83f6875ccd0e","ios":"levelo://app?vid=84ad0899-1c0f-4dc2-acc1-83f6875ccd0e"},"vehicle_type_id":"4","last_reported":1744481514,"current_range_meters":3600,"station_id":"ce4bhq92rcd13ifvqhkg","pricing_plan_id":"cebpf4jnsgd1na2vs0mg"},{"bike_id":"021ea162-ee7a-4e88-9da9-b81698cd31b0","system_id":"levelo_inurba_marseille","lat":43.246603,"lon":5.381694,"is_reserved":false,"is_disabled":false,"rental_uris":{"android":"levelo://app?vid=021ea162-ee7a-4e88-9da9-b81698cd31b0","ios":"levelo://app?vid=021ea162-ee7a-4e88-9da9-b81698cd31b0"},"vehicle_type_id":"4","last_reported":1744481514,"current_range_meters":3600,"station_id":"ce4bhi12rcd13ifvqfp0","pricing_plan_id":"cebpf4jnsgd1na2vs0mg"},{"bike_id":"73039691-3bf5-41de-b513-f306b0a6b692","system_id":"levelo_inurba_marseille","lat":43.24177,"lon":5.39739,"is_reserved":false,"is_disabled":false,"rental_uris":{"android":"levelo://app?vid=73039691-3bf5-41de-b513-f306b0a6b692","ios":"levelo://app?vid=73039691-3bf5-41de-b513-f306b0a6b692"},"vehicle_type_id":"4","last_reported":1744481514,"current_range_meters":3600,"station_id":"ce4bhn12rcd13ifvqgpg","pricing_plan_id":"cebpf4jnsgd1na2vs0mg"},{"bike_id":"26d13aea-26e4-4b2c-8cd3-550434babcc9","system_id":"levelo_inurba_marseille","lat":43.27843,"lon":5.39205,"is_reserved":false,"is_disabled":false,"rental_uris":{"android":"levelo://app?vid=26d13aea-26e4-4b2c-8cd3-550434babcc9","ios":"levelo://app?vid=26d13aea-26e4-4b2c-8cd3-550434babcc9"},"vehicle_type_id":"4","last_reported":1744481514,"current_range_meters":3600,"station_id":"ce4bhjp2rcd13ifvqga0","pricing_plan_id":"cebpf4jnsgd1na2vs0mg"},{"bike_id":"d7f9e116-c5b6-4b81-b124-ce6019a2d1cb","system_id":"levelo_inurba_marseille","lat":43.21766,"lon":5.34639,"is_reserved":false,"is_disabled":true,"rental_uris":{"android":"levelo://app?vid=d7f9e116-c5b6-4b81-b124-ce6019a2d1cb","ios":"levelo://app?vid=d7f9e116-c5b6-4b81-b124-ce6019a2d1cb"},"vehicle_type_id":"4","last_reported":1744481514,"current_range_meters":3600,"station_id":"st_cvj6r9ubvosntc0bgbag","pricing_plan_id":"cebpf4jnsgd1na2vs0mg"},{"bike_id":"450d137a-9a1b-419f-ae3b-f58a9c4a8b44","system_id":"levelo_inurba_marseille","lat":43.295763,"lon":5.367347,"is_reserved":false,"is_disabled":false,"rental_uris":{"android":"levelo://app?vid=450d137a-9a1b-419f-ae3b-f58a9c4a8b44","ios":"levelo://app?vid=450d137a-9a1b-419f-ae3b-f58a9c4a8b44"},"vehicle_type_id":"4","last_reported":1744481514,"current_range_meters":3600,"station_id":"ce4bho12rcd13ifvqh2g","pricing_plan_id":"cebpf4jnsgd1na2vs0mg"},{"bike_id":"bfee7c49-1539-49e1-aaeb-665ee06a2b74","system_id":"levelo_inurba_marseille","lat":43.25829,"lon":5.39436,"is_reserved":false,"is_disabled":false,"rental_uris":{"android":"levelo://app?vid=bfee7c49-1539-49e1-aaeb-665ee06a2b74","ios":"levelo://app?vid=bfee7c49-1539-49e1-aaeb-665ee06a2b74"},"vehicle_type_id":"4","last_reported":1744481514,"current_range_meters":3600,"station_id":"ce4bhip2rcd13ifvqft0","pricing_plan_id":"cebpf4jnsgd1na2vs0mg"},{"bike_id":"29878a1b-8674-4e69-8aaa-c8dc6e7061cd","system_id":"levelo_inurba_marseille","lat":43.254913,"lon":5.376431,"is_reserved":false,"is_disabled":false,"rental_uris":{"android":"levelo://app?vid=29878a1b-8674-4e69-8aaa-c8dc6e7061cd","ios":"levelo://app?vid=29878a1b-8674-4e69-8aaa-c8dc6e7061cd"},"vehicle_type_id":"4","last_reported":1744481514,"current_range_meters":3600,"station_id":"ce4bhh12rcd13ifvqff0","pricing_plan_id":"cebpf4jnsgd1na2vs0mg"},{"bike_id":"a56bd3d3-9e3c-4e6b-8d25-9c2db1a406c0","system_id":"levelo_inurba_marseille","lat":43.31169,"lon":5.38722,"is_reserved":false,"is_disabled":false,"rental_uris":{"android":"levelo://app?vid=a56bd3d3-9e3c-4e6b-8d25-9c2db1a406c0","ios":"levelo://app?vid=a56bd3d3-9e3c-4e6b-8d25-9c2db1a406c0"},"vehicle_type_id":"4","last_reported":1744481514,"current_range_meters":4000,"station_id":"ce4bgv12rcd13ifvqcp0","pricing_plan_id":"cebpf4jnsgd1na2vs0mg"},{"bike_id":"ae958ae8-c98f-4e2d-8835-51870ecfae6f","system_id":"levelo_inurba_marseille","lat":43.33004,"lon":5.39524,"is_reserved":false,"is_disabled":false,"rental_uris":{"android":"levelo://app?vid=ae958ae8-c98f-4e2d-8835-51870ecfae6f","ios":"levelo://app?vid=ae958ae8-c98f-4e2d-8835-51870ecfae6f"},"vehicle_type_id":"4","last_reported":1744481514,"current_range_meters":4000,"station_id":"","pricing_plan_id":"cebpf4jnsgd1na2vs0mg"},{"bike_id":"f123e5ff-fa6a-4e60-96da-046fd0a39c11","system_id":"levelo_inurba_marseille","lat":43.3128,"lon":5.40168,"is_reserved":false,"is_disabled":false,"rental_uris":{"android":"levelo://app?vid=f123e5ff-fa6a-4e60-96da-046fd0a39c11","ios":"levelo://app?vid=f123e5ff-fa6a-4e60-96da-046fd0a39c11"},"vehicle_type_id":"4","last_reported":1744481514,"current_range_meters":4400,"station_id":"ce4bh092rcd13ifvqd30","pricing_plan_id":"cebpf4jnsgd1na2vs0mg"},{"bike_id":"a04360df-e238-40cf-a135-663bda9221fe","system_id":"levelo_inurba_marseille","lat":43.31175,"lon":5.38721,"is_reserved":false,"is_disabled":false,"rental_uris":{"android":"levelo://app?vid=a04360df-e238-40cf-a135-663bda9221fe","ios":"levelo://app?vid=a04360df-e238-40cf-a135-663bda9221fe"},"vehicle_type_id":"4","last_reported":1744481514,"current_range_meters":4400,"station_id":"ce4bgv12rcd13ifvqcp0","pricing_plan_id":"cebpf4jnsgd1na2vs0mg"},{"bike_id":"827007fb-2edd-4555-8c8f-43b18f0b72a6","system_id":"levelo_inurba_marseille","lat":43.26789,"lon":5.39417,"is_reserved":false,"is_disabled":false,"rental_uris":{"android":"levelo://app?vid=827007fb-2edd-4555-8c8f-43b18f0b72a6","ios":"levelo://app?vid=827007fb-2edd-4555-8c8f-43b18f0b72a6"},"vehicle_type_id":"4","last_reported":1744481514,"current_range_meters":4400,"station_id":"ce4bhh12rcd13ifvqfg0","pricing_plan_id":"cebpf4jnsgd1na2vs0mg"},{"bike_id":"40268676-5676-4960-82f5-27f271ee13bb","system_id":"levelo_inurba_marseille","lat":43.28698,"lon":5.37936,"is_reserved":false,"is_disabled":false,"rental_uris":{"android":"levelo://app?vid=40268676-5676-4960-82f5-27f271ee13bb","ios":"levelo://app?vid=40268676-5676-4960-82f5-27f271ee13bb"},"vehicle_type_id":"4","last_reported":1744481514,"current_range_meters":4400,"station_id":"ce4bh9p2rcd13ifvqec0","pricing_plan_id":"cebpf4jnsgd1na2vs0mg"},{"bike_id":"a2417265-aaaf-4846-a7cc-2faf5068e2d6","system_id":"levelo_inurba_marseille","lat":43.28153,"lon":5.42665,"is_reserved":false,"is_disabled":false,"rental_uris":{"android":"levelo://app?vid=a2417265-aaaf-4846-a7cc-2faf5068e2d6","ios":"levelo://app?vid=a2417265-aaaf-4846-a7cc-2faf5068e2d6"},"vehicle_type_id":"4","last_reported":1744481514,"current_range_meters":4400,"station_id":"ce4bhnh2rcd13ifvqgug","pricing_plan_id":"cebpf4jnsgd1na2vs0mg"},{"bike_id":"0bcdbe79-5f75-40fe-8969-f72cfd585e09","system_id":"levelo_inurba_marseille","lat":43.30924,"lon":5.40145,"is_reserved":false,"is_disabled":false,"rental_uris":{"android":"levelo://app?vid=0bcdbe79-5f75-40fe-8969-f72cfd585e09","ios":"levelo://app?vid=0bcdbe79-5f75-40fe-8969-f72cfd585e09"},"vehicle_type_id":"4","last_reported":1744481514,"current_range_meters":4800,"station_id":"ce4bgvp2rcd13ifvqct0","pricing_plan_id":"cebpf4jnsgd1na2vs0mg"},{"bike_id":"b09e5047-166d-4b34-a2dc-f02d2dc52b01","system_id":"levelo_inurba_marseille","lat":43.28933,"lon":5.38407,"is_reserved":false,"is_disabled":false,"rental_uris":{"android":"levelo://app?vid=b09e5047-166d-4b34-a2dc-f02d2dc52b01","ios":"levelo://app?vid=b09e5047-166d-4b34-a2dc-f02d2dc52b01"},"vehicle_type_id":"4","last_reported":1744481514,"current_range_meters":4800,"station_id":"ce4bh612rcd13ifvqe6g","pricing_plan_id":"cebpf4jnsgd1na2vs0mg"},{"bike_id":"2de83229-4342-4b80-af89-ad24add8743a","system_id":"levelo_inurba_marseille","lat":43.26926,"lon":5.40276,"is_reserved":false,"is_disabled":false,"rental_uris":{"android":"levelo://app?vid=2de83229-4342-4b80-af89-ad24add8743a","ios":"levelo://app?vid=2de83229-4342-4b80-af89-ad24add8743a"},"vehicle_type_id":"4","last_reported":1744481514,"current_range_meters":4800,"station_id":"cjm6bp8fraef2m0cb0m0","pricing_plan_id":"cebpf4jnsgd1na2vs0mg"},{"bike_id":"61572ef5-c6be-4bb5-ac47-bafbeefc5031","system_id":"levelo_inurba_marseille","lat":43.28612,"lon":5.35105,"is_reserved":false,"is_disabled":false,"rental_uris":{"android":"levelo://app?vid=61572ef5-c6be-4bb5-ac47-bafbeefc5031","ios":"levelo://app?vid=61572ef5-c6be-4bb5-ac47-bafbeefc5031"},"vehicle_type_id":"4","last_reported":1744481514,"current_range_meters":4800,"station_id":"ce4bhch2rcd13ifvqeug","pricing_plan_id":"cebpf4jnsgd1na2vs0mg"},{"bike_id":"e0db3071-60d8-4301-a731-54f6b059b072","system_id":"levelo_inurba_marseille","lat":43.33598,"lon":5.40998,"is_reserved":false,"is_disabled":false,"rental_uris":{"android":"levelo://app?vid=e0db3071-60d8-4301-a731-54f6b059b072","ios":"levelo://app?vid=e0db3071-60d8-4301-a731-54f6b059b072"},"vehicle_type_id":"4","last_reported":1744481514,"current_range_meters":4800,"station_id":"ce4bhqh2rcd13ifvqhmg","pricing_plan_id":"cebpf4jnsgd1na2vs0mg"},{"bike_id":"aec25663-ab39-426b-97ef-12c1d18d51b0","system_id":"levelo_inurba_marseille","lat":43.29261,"lon":5.38452,"is_reserved":false,"is_disabled":false,"rental_uris":{"android":"levelo://app?vid=aec25663-ab39-426b-97ef-12c1d18d51b0","ios":"levelo://app?vid=aec25663-ab39-426b-97ef-12c1d18d51b0"},"vehicle_type_id":"4","last_reported":1744481514,"current_range_meters":4800,"station_id":"ce4bh692rcd13ifvqea0","pricing_plan_id":"cebpf4jnsgd1na2vs0mg"},{"bike_id":"f287dd82-c174-4435-89f0-205d62f2e9a6","system_id":"levelo_inurba_marseille","lat":43.26941,"lon":5.38656,"is_reserved":false,"is_disabled":false,"rental_uris":{"android":"levelo://app?vid=f287dd82-c174-4435-89f0-205d62f2e9a6","ios":"levelo://app?vid=f287dd82-c174-4435-89f0-205d62f2e9a6"},"vehicle_type_id":"4","last_reported":1744481514,"current_range_meters":5600,"station_id":"ce4bhh92rcd13ifvqfh0","pricing_plan_id":"cebpf4jnsgd1na2vs0mg"},{"bike_id":"563295a5-240b-4ac9-a003-8b199d09933f","system_id":"levelo_inurba_marseille","lat":43.25819,"lon":5.39434,"is_reserved":false,"is_disabled":false,"rental_uris":{"android":"levelo://app?vid=563295a5-240b-4ac9-a003-8b199d09933f","ios":"levelo://app?vid=563295a5-240b-4ac9-a003-8b199d09933f"},"vehicle_type_id":"4","last_reported":1744481514,"current_range_meters":5600,"station_id":"ce4bhip2rcd13ifvqft0","pricing_plan_id":"cebpf4jnsgd1na2vs0mg"},{"bike_id":"1620f5c4-a1ee-41ed-8dd0-def69688a41d","system_id":"levelo_inurba_marseille","lat":43.26801,"lon":5.39404,"is_reserved":false,"is_disabled":true,"rental_uris":{"android":"levelo://app?vid=1620f5c4-a1ee-41ed-8dd0-def69688a41d","ios":"levelo://app?vid=1620f5c4-a1ee-41ed-8dd0-def69688a41d"},"vehicle_type_id":"4","last_reported":1744481514,"current_range_meters":5600,"station_id":"ce4bhh12rcd13ifvqfg0","pricing_plan_id":"cebpf4jnsgd1na2vs0mg"},{"bike_id":"a5a0ff80-b6e7-4a7a-a531-b5ed2357c29d","system_id":"levelo_inurba_marseille","lat":43.270319,"lon":5.402229,"is_reserved":false,"is_disabled":false,"rental_uris":{"android":"levelo://app?vid=a5a0ff80-b6e7-4a7a-a531-b5ed2357c29d","ios":"levelo://app?vid=a5a0ff80-b6e7-4a7a-a531-b5ed2357c29d"},"vehicle_type_id":"4","last_reported":1744481514,"current_range_meters":4800,"station_id":"ce4bhkp2rcd13ifvqgd0","pricing_plan_id":"cebpf4jnsgd1na2vs0mg"},{"bike_id":"def05908-9ee6-4801-973b-8ea906f76d24","system_id":"levelo_inurba_marseille","lat":43.25108,"lon":5.40326,"is_reserved":false,"is_disabled":false,"rental_uris":{"android":"levelo://app?vid=def05908-9ee6-4801-973b-8ea906f76d24","ios":"levelo://app?vid=def05908-9ee6-4801-973b-8ea906f76d24"},"vehicle_type_id":"4","last_reported":1744481514,"current_range_meters":5600,"station_id":"ce4bhlh2rcd13ifvqgig","pricing_plan_id":"cebpf4jnsgd1na2vs0mg"},{"bike_id":"d668c6db-6ae1-47e7-bcc0-e49aa975db24","system_id":"levelo_inurba_marseille","lat":43.30604,"lon":5.3723,"is_reserved":false,"is_disabled":false,"rental_uris":{"android":"levelo://app?vid=d668c6db-6ae1-47e7-bcc0-e49aa975db24","ios":"levelo://app?vid=d668c6db-6ae1-47e7-bcc0-e49aa975db24"},"vehicle_type_id":"4","last_reported":1744481514,"current_range_meters":6000,"station_id":"ce4bgqh2rcd13ifvqc4g","pricing_plan_id":"cebpf4jnsgd1na2vs0mg"},{"bike_id":"4d2a507c-960a-4c1c-8153-6e694288bb98","system_id":"levelo_inurba_marseille","lat":43.30154,"lon":5.38798,"is_reserved":false,"is_disabled":false,"rental_uris":{"android":"levelo://app?vid=4d2a507c-960a-4c1c-8153-6e694288bb98","ios":"levelo://app?vid=4d2a507c-960a-4c1c-8153-6e694288bb98"},"vehicle_type_id":"4","last_reported":1744481514,"current_range_meters":6000,"station_id":"ce4bhr92rcd13ifvqhrg","pricing_plan_id":"cebpf4jnsgd1na2vs0mg"},{"bike_id":"9b5358bb-e793-48df-9bdb-d3f6c1d0c314","system_id":"levelo_inurba_marseille","lat":43.269423,"lon":5.38645,"is_reserved":false,"is_disabled":false,"rental_uris":{"android":"levelo://app?vid=9b5358bb-e793-48df-9bdb-d3f6c1d0c314","ios":"levelo://app?vid=9b5358bb-e793-48df-9bdb-d3f6c1d0c314"},"vehicle_type_id":"4","last_reported":1744481514,"current_range_meters":6000,"station_id":"ce4bhh92rcd13ifvqfh0","pricing_plan_id":"cebpf4jnsgd1na2vs0mg"},{"bike_id":"3ac73e63-1619-4c1b-a7d0-7311424e94ef","system_id":"levelo_inurba_marseille","lat":43.29009,"lon":5.37634,"is_reserved":false,"is_disabled":false,"rental_uris":{"android":"levelo://app?vid=3ac73e63-1619-4c1b-a7d0-7311424e94ef","ios":"levelo://app?vid=3ac73e63-1619-4c1b-a7d0-7311424e94ef"},"vehicle_type_id":"4","last_reported":1744481514,"current_range_meters":6400,"station_id":"","pricing_plan_id":"cebpf4jnsgd1na2vs0mg"},{"bike_id":"bba1f541-3be3-406d-971d-17b9af1065b1","system_id":"levelo_inurba_marseille","lat":43.29714,"lon":5.37701,"is_reserved":false,"is_disabled":false,"rental_uris":{"android":"levelo://app?vid=bba1f541-3be3-406d-971d-17b9af1065b1","ios":"levelo://app?vid=bba1f541-3be3-406d-971d-17b9af1065b1"},"vehicle_type_id":"4","last_reported":1744481514,"current_range_meters":6400,"station_id":"ce4bgkh2rcd13ifvqbl0","pricing_plan_id":"cebpf4jnsgd1na2vs0mg"},{"bike_id":"0c7be884-ff29-491f-856f-b307cb3f7eb6","system_id":"levelo_inurba_marseille","lat":43.29162,"lon":5.37155,"is_reserved":false,"is_disabled":false,"rental_uris":{"android":"levelo://app?vid=0c7be884-ff29-491f-856f-b307cb3f7eb6","ios":"levelo://app?vid=0c7be884-ff29-491f-856f-b307cb3f7eb6"},"vehicle_type_id":"4","last_reported":1744481514,"current_range_meters":6400,"station_id":"ce4bha92rcd13ifvqeh0","pricing_plan_id":"cebpf4jnsgd1na2vs0mg"},{"bike_id":"cebbd981-f7b5-48f9-8c75-461253630de7","system_id":"levelo_inurba_marseille","lat":43.31463,"lon":5.37285,"is_reserved":false,"is_disabled":false,"rental_uris":{"android":"levelo://app?vid=cebbd981-f7b5-48f9-8c75-461253630de7","ios":"levelo://app?vid=cebbd981-f7b5-48f9-8c75-461253630de7"},"vehicle_type_id":"4","last_reported":1744481514,"current_range_meters":6400,"station_id":"ce4bgt12rcd13ifvqcd0","pricing_plan_id":"cebpf4jnsgd1na2vs0mg"},{"bike_id":"94455896-0f19-4fae-bd72-9879f01fcd6e","system_id":"levelo_inurba_marseille","lat":43.29561,"lon":5.42287,"is_reserved":false,"is_disabled":true,"rental_uris":{"android":"levelo://app?vid=94455896-0f19-4fae-bd72-9879f01fcd6e","ios":"levelo://app?vid=94455896-0f19-4fae-bd72-9879f01fcd6e"},"vehicle_type_id":"4","last_reported":1744481514,"current_range_meters":6400,"station_id":"ce4bhph2rcd13ifvqhdg","pricing_plan_id":"cebpf4jnsgd1na2vs0mg"},{"bike_id":"d95599ae-a4ab-42cb-a1ff-8bfe4d183114","system_id":"levelo_inurba_marseille","lat":43.28948,"lon":5.36412,"is_reserved":false,"is_disabled":false,"rental_uris":{"android":"levelo://app?vid=d95599ae-a4ab-42cb-a1ff-8bfe4d183114","ios":"levelo://app?vid=d95599ae-a4ab-42cb-a1ff-8bfe4d183114"},"vehicle_type_id":"4","last_reported":1744481514,"current_range_meters":6800,"station_id":"ce4bhc92rcd13ifvqetg","pricing_plan_id":"cebpf4jnsgd1na2vs0mg"},{"bike_id":"1f5f4be4-e91e-4917-b4d0-b50c216392dc","system_id":"levelo_inurba_marseille","lat":43.29966,"lon":5.38499,"is_reserved":false,"is_disabled":false,"rental_uris":{"android":"levelo://app?vid=1f5f4be4-e91e-4917-b4d0-b50c216392dc","ios":"levelo://app?vid=1f5f4be4-e91e-4917-b4d0-b50c216392dc"},"vehicle_type_id":"4","last_reported":1744481514,"current_range_meters":6800,"station_id":"ce4bgj92rcd13ifvqbd0","pricing_plan_id":"cebpf4jnsgd1na2vs0mg"},{"bike_id":"94a2d289-6a01-4914-95dd-c0bbac3ace54","system_id":"levelo_inurba_marseille","lat":43.295594,"lon":5.422806,"is_reserved":false,"is_disabled":false,"rental_uris":{"android":"levelo://app?vid=94a2d289-6a01-4914-95dd-c0bbac3ace54","ios":"levelo://app?vid=94a2d289-6a01-4914-95dd-c0bbac3ace54"},"vehicle_type_id":"4","last_reported":1744481514,"current_range_meters":6800,"station_id":"ce4bhph2rcd13ifvqhdg","pricing_plan_id":"cebpf4jnsgd1na2vs0mg"},{"bike_id":"5f7d9220-b860-42b8-9115-fb36c3eedf4b","system_id":"levelo_inurba_marseille","lat":43.29525,"lon":5.38546,"is_reserved":false,"is_disabled":false,"rental_uris":{"android":"levelo://app?vid=5f7d9220-b860-42b8-9115-fb36c3eedf4b","ios":"levelo://app?vid=5f7d9220-b860-42b8-9115-fb36c3eedf4b"},"vehicle_type_id":"4","last_reported":1744481514,"current_range_meters":6800,"station_id":"ce4bgih2rcd13ifvqba0","pricing_plan_id":"cebpf4jnsgd1na2vs0mg"},{"bike_id":"c0767652-21bd-441a-93d1-924408b5484e","system_id":"levelo_inurba_marseille","lat":43.317547,"lon":5.390181,"is_reserved":false,"is_disabled":false,"rental_uris":{"android":"levelo://app?vid=c0767652-21bd-441a-93d1-924408b5484e","ios":"levelo://app?vid=c0767652-21bd-441a-93d1-924408b5484e"},"vehicle_type_id":"4","last_reported":1744481514,"current_range_meters":6800,"station_id":"ce4bgi12rcd13ifvqb70","pricing_plan_id":"cebpf4jnsgd1na2vs0mg"},{"bike_id":"77d41379-cc95-4645-adbc-3bb1398b6949","system_id":"levelo_inurba_marseille","lat":43.23188,"lon":5.35548,"is_reserved":false,"is_disabled":false,"rental_uris":{"android":"levelo://app?vid=77d41379-cc95-4645-adbc-3bb1398b6949","ios":"levelo://app?vid=77d41379-cc95-4645-adbc-3bb1398b6949"},"vehicle_type_id":"4","last_reported":1744481514,"current_range_meters":6800,"station_id":"ce4bhu92rcd13ifvqi70","pricing_plan_id":"cebpf4jnsgd1na2vs0mg"},{"bike_id":"7dc6f05c-f257-4d62-b71b-a2b97753d797","system_id":"levelo_inurba_marseille","lat":43.30554,"lon":5.38449,"is_reserved":false,"is_disabled":true,"rental_uris":{"android":"levelo://app?vid=7dc6f05c-f257-4d62-b71b-a2b97753d797","ios":"levelo://app?vid=7dc6f05c-f257-4d62-b71b-a2b97753d797"},"vehicle_type_id":"4","last_reported":1744481514,"current_range_meters":6800,"station_id":"ce4bgg92rcd13ifvqb30","pricing_plan_id":"cebpf4jnsgd1na2vs0mg"},{"bike_id":"3f08cc69-711e-4264-b923-68891203ffa4","system_id":"levelo_inurba_marseille","lat":43.32285,"lon":5.38243,"is_reserved":false,"is_disabled":false,"rental_uris":{"android":"levelo://app?vid=3f08cc69-711e-4264-b923-68891203ffa4","ios":"levelo://app?vid=3f08cc69-711e-4264-b923-68891203ffa4"},"vehicle_type_id":"4","last_reported":1744481514,"current_range_meters":6800,"station_id":"ce4bhr12rcd13ifvqhqg","pricing_plan_id":"cebpf4jnsgd1na2vs0mg"},{"bike_id":"e5f16e14-a60e-4fee-bc7e-c4cf9835dec0","system_id":"levelo_inurba_marseille","lat":43.28928,"lon":5.38411,"is_reserved":false,"is_disabled":false,"rental_uris":{"android":"levelo://app?vid=e5f16e14-a60e-4fee-bc7e-c4cf9835dec0","ios":"levelo://app?vid=e5f16e14-a60e-4fee-bc7e-c4cf9835dec0"},"vehicle_type_id":"4","last_reported":1744481514,"current_range_meters":6800,"station_id":"ce4bh612rcd13ifvqe6g","pricing_plan_id":"cebpf4jnsgd1na2vs0mg"},{"bike_id":"b6a95b50-4690-447d-884b-6d62694baaf3","system_id":"levelo_inurba_marseille","lat":43.25581,"lon":5.38228,"is_reserved":false,"is_disabled":false,"rental_uris":{"android":"levelo://app?vid=b6a95b50-4690-447d-884b-6d62694baaf3","ios":"levelo://app?vid=b6a95b50-4690-447d-884b-6d62694baaf3"},"vehicle_type_id":"4","last_reported":1744481514,"current_range_meters":6800,"station_id":"ce4bhih2rcd13ifvqfs0","pricing_plan_id":"cebpf4jnsgd1na2vs0mg"},{"bike_id":"0ba87b9e-8a73-4205-be3d-819b93078b34","system_id":"levelo_inurba_marseille","lat":43.30453,"lon":5.3791,"is_reserved":false,"is_disabled":false,"rental_uris":{"android":"levelo://app?vid=0ba87b9e-8a73-4205-be3d-819b93078b34","ios":"levelo://app?vid=0ba87b9e-8a73-4205-be3d-819b93078b34"},"vehicle_type_id":"4","last_reported":1744481514,"current_range_meters":6800,"station_id":"ce4bgup2rcd13ifvqcn0","pricing_plan_id":"cebpf4jnsgd1na2vs0mg"},{"bike_id":"9dc5a035-0084-4ffe-bfff-5d2ea6c1dccb","system_id":"levelo_inurba_marseille","lat":43.29571,"lon":5.37499,"is_reserved":false,"is_disabled":true,"rental_uris":{"android":"levelo://app?vid=9dc5a035-0084-4ffe-bfff-5d2ea6c1dccb","ios":"levelo://app?vid=9dc5a035-0084-4ffe-bfff-5d2ea6c1dccb"},"vehicle_type_id":"4","last_reported":1744481514,"current_range_meters":6800,"station_id":"ce4bgh92rcd13ifvqb50","pricing_plan_id":"cebpf4jnsgd1na2vs0mg"},{"bike_id":"5cdd24e5-2d44-4b8e-a6b6-62f4dbb7291d","system_id":"levelo_inurba_marseille","lat":43.28475,"lon":5.38423,"is_reserved":false,"is_disabled":false,"rental_uris":{"android":"levelo://app?vid=5cdd24e5-2d44-4b8e-a6b6-62f4dbb7291d","ios":"levelo://app?vid=5cdd24e5-2d44-4b8e-a6b6-62f4dbb7291d"},"vehicle_type_id":"4","last_reported":1744481514,"current_range_meters":7200,"station_id":"ce4bh512rcd13ifvqe3g","pricing_plan_id":"cebpf4jnsgd1na2vs0mg"},{"bike_id":"288caf7e-3e47-4a3a-a794-cac6675ae9a5","system_id":"levelo_inurba_marseille","lat":43.29888,"lon":5.38901,"is_reserved":false,"is_disabled":false,"rental_uris":{"android":"levelo://app?vid=288caf7e-3e47-4a3a-a794-cac6675ae9a5","ios":"levelo://app?vid=288caf7e-3e47-4a3a-a794-cac6675ae9a5"},"vehicle_type_id":"4","last_reported":1744481514,"current_range_meters":7200,"station_id":"ce4bh392rcd13ifvqdl0","pricing_plan_id":"cebpf4jnsgd1na2vs0mg"},{"bike_id":"cc83a7aa-57a1-4769-9137-8531613b4691","system_id":"levelo_inurba_marseille","lat":43.31287,"lon":5.37291,"is_reserved":false,"is_disabled":false,"rental_uris":{"android":"levelo://app?vid=cc83a7aa-57a1-4769-9137-8531613b4691","ios":"levelo://app?vid=cc83a7aa-57a1-4769-9137-8531613b4691"},"vehicle_type_id":"4","last_reported":1744481514,"current_range_meters":7200,"station_id":"","pricing_plan_id":"cebpf4jnsgd1na2vs0mg"},{"bike_id":"61087c9c-58a2-45af-89fa-c020f9313355","system_id":"levelo_inurba_marseille","lat":43.21795,"lon":5.34627,"is_reserved":false,"is_disabled":true,"rental_uris":{"android":"levelo://app?vid=61087c9c-58a2-45af-89fa-c020f9313355","ios":"levelo://app?vid=61087c9c-58a2-45af-89fa-c020f9313355"},"vehicle_type_id":"4","last_reported":1744481514,"current_range_meters":7200,"station_id":"","pricing_plan_id":"cebpf4jnsgd1na2vs0mg"},{"bike_id":"e4380e13-6ea1-432c-b547-badeba89c1b3","system_id":"levelo_inurba_marseille","lat":43.28855,"lon":5.39326,"is_reserved":false,"is_disabled":true,"rental_uris":{"android":"levelo://app?vid=e4380e13-6ea1-432c-b547-badeba89c1b3","ios":"levelo://app?vid=e4380e13-6ea1-432c-b547-badeba89c1b3"},"vehicle_type_id":"4","last_reported":1744481514,"current_range_meters":7200,"station_id":"ce4bh2p2rcd13ifvqdi0","pricing_plan_id":"cebpf4jnsgd1na2vs0mg"},{"bike_id":"200c0f0f-31ff-42d1-b2b6-6050ad6f6a28","system_id":"levelo_inurba_marseille","lat":43.29621,"lon":5.37175,"is_reserved":false,"is_disabled":false,"rental_uris":{"android":"levelo://app?vid=200c0f0f-31ff-42d1-b2b6-6050ad6f6a28","ios":"levelo://app?vid=200c0f0f-31ff-42d1-b2b6-6050ad6f6a28"},"vehicle_type_id":"4","last_reported":1744481514,"current_range_meters":7200,"station_id":"ce4bgnh2rcd13ifvqc0g","pricing_plan_id":"cebpf4jnsgd1na2vs0mg"},{"bike_id":"41a317d8-d83d-463f-bec3-384b63b2ebc2","system_id":"levelo_inurba_marseille","lat":43.29289,"lon":5.37154,"is_reserved":false,"is_disabled":false,"rental_uris":{"android":"levelo://app?vid=41a317d8-d83d-463f-bec3-384b63b2ebc2","ios":"levelo://app?vid=41a317d8-d83d-463f-bec3-384b63b2ebc2"},"vehicle_type_id":"4","last_reported":1744481514,"current_range_meters":7200,"station_id":"ce4bgh92rcd13ifvqb40","pricing_plan_id":"cebpf4jnsgd1na2vs0mg"},{"bike_id":"dd821bf8-e911-4894-b1e1-7c14e3f31ccb","system_id":"levelo_inurba_marseille","lat":43.269579,"lon":5.386298,"is_reserved":false,"is_disabled":false,"rental_uris":{"android":"levelo://app?vid=dd821bf8-e911-4894-b1e1-7c14e3f31ccb","ios":"levelo://app?vid=dd821bf8-e911-4894-b1e1-7c14e3f31ccb"},"vehicle_type_id":"4","last_reported":1744481514,"current_range_meters":7200,"station_id":"ce4bhh92rcd13ifvqfh0","pricing_plan_id":"cebpf4jnsgd1na2vs0mg"},{"bike_id":"435b3ac5-150f-4c7c-9e90-0ec4538ba30b","system_id":"levelo_inurba_marseille","lat":43.28709,"lon":5.39974,"is_reserved":false,"is_disabled":false,"rental_uris":{"android":"levelo://app?vid=435b3ac5-150f-4c7c-9e90-0ec4538ba30b","ios":"levelo://app?vid=435b3ac5-150f-4c7c-9e90-0ec4538ba30b"},"vehicle_type_id":"4","last_reported":1744481514,"current_range_meters":7200,"station_id":"ce4bho92rcd13ifvqh3g","pricing_plan_id":"cebpf4jnsgd1na2vs0mg"},{"bike_id":"5dfd5130-5399-4905-a704-134951585135","system_id":"levelo_inurba_marseille","lat":43.30129,"lon":5.39867,"is_reserved":false,"is_disabled":false,"rental_uris":{"android":"levelo://app?vid=5dfd5130-5399-4905-a704-134951585135","ios":"levelo://app?vid=5dfd5130-5399-4905-a704-134951585135"},"vehicle_type_id":"4","last_reported":1744481514,"current_range_meters":8000,"station_id":"ce4bh0h2rcd13ifvqd40","pricing_plan_id":"cebpf4jnsgd1na2vs0mg"},{"bike_id":"e3dd12a5-b4d4-4eab-91d0-1ab29fdfe10d","system_id":"levelo_inurba_marseille","lat":43.30137,"lon":5.38798,"is_reserved":false,"is_disabled":false,"rental_uris":{"android":"levelo://app?vid=e3dd12a5-b4d4-4eab-91d0-1ab29fdfe10d","ios":"levelo://app?vid=e3dd12a5-b4d4-4eab-91d0-1ab29fdfe10d"},"vehicle_type_id":"4","last_reported":1744481514,"current_range_meters":8000,"station_id":"ce4bghh2rcd13ifvqb60","pricing_plan_id":"cebpf4jnsgd1na2vs0mg"},{"bike_id":"ce64b13c-040b-4613-bf30-7c49ff50a44b","system_id":"levelo_inurba_marseille","lat":43.29562,"lon":5.42294,"is_reserved":false,"is_disabled":false,"rental_uris":{"android":"levelo://app?vid=ce64b13c-040b-4613-bf30-7c49ff50a44b","ios":"levelo://app?vid=ce64b13c-040b-4613-bf30-7c49ff50a44b"},"vehicle_type_id":"4","last_reported":1744481514,"current_range_meters":8000,"station_id":"ce4bhph2rcd13ifvqhdg","pricing_plan_id":"cebpf4jnsgd1na2vs0mg"},{"bike_id":"462427a0-a20d-4345-a156-ca37815358e0","system_id":"levelo_inurba_marseille","lat":43.25719,"lon":5.4112,"is_reserved":false,"is_disabled":false,"rental_uris":{"android":"levelo://app?vid=462427a0-a20d-4345-a156-ca37815358e0","ios":"levelo://app?vid=462427a0-a20d-4345-a156-ca37815358e0"},"vehicle_type_id":"4","last_reported":1744481514,"current_range_meters":8000,"station_id":"ce4bhkp2rcd13ifvqgd0","pricing_plan_id":"cebpf4jnsgd1na2vs0mg"},{"bike_id":"f1e00540-c2d1-4f3b-ba05-711232888e6e","system_id":"levelo_inurba_marseille","lat":43.217469,"lon":5.346069,"is_reserved":false,"is_disabled":true,"rental_uris":{"android":"levelo://app?vid=f1e00540-c2d1-4f3b-ba05-711232888e6e","ios":"levelo://app?vid=f1e00540-c2d1-4f3b-ba05-711232888e6e"},"vehicle_type_id":"4","last_reported":1744481514,"current_range_meters":8000,"station_id":"st_cvj6r9ubvosntc0bgbag","pricing_plan_id":"cebpf4jnsgd1na2vs0mg"},{"bike_id":"4c56221a-0f46-4530-955a-7184a07c8a88","system_id":"levelo_inurba_marseille","lat":43.23228,"lon":5.35573,"is_reserved":false,"is_disabled":true,"rental_uris":{"android":"levelo://app?vid=4c56221a-0f46-4530-955a-7184a07c8a88","ios":"levelo://app?vid=4c56221a-0f46-4530-955a-7184a07c8a88"},"vehicle_type_id":"4","last_reported":1744481514,"current_range_meters":8000,"station_id":"ce4bhu92rcd13ifvqi70","pricing_plan_id":"cebpf4jnsgd1na2vs0mg"},{"bike_id":"915e778a-0d97-4d5b-8d88-32345f69035a","system_id":"levelo_inurba_marseille","lat":43.28704,"lon":5.37407,"is_reserved":false,"is_disabled":false,"rental_uris":{"android":"levelo://app?vid=915e778a-0d97-4d5b-8d88-32345f69035a","ios":"levelo://app?vid=915e778a-0d97-4d5b-8d88-32345f69035a"},"vehicle_type_id":"4","last_reported":1744481514,"current_range_meters":8000,"station_id":"ce4bh3p2rcd13ifvqdq0","pricing_plan_id":"cebpf4jnsgd1na2vs0mg"},{"bike_id":"1ec705a4-cf30-4ddd-858e-a45c31dcc144","system_id":"levelo_inurba_marseille","lat":43.29277,"lon":5.38449,"is_reserved":false,"is_disabled":false,"rental_uris":{"android":"levelo://app?vid=1ec705a4-cf30-4ddd-858e-a45c31dcc144","ios":"levelo://app?vid=1ec705a4-cf30-4ddd-858e-a45c31dcc144"},"vehicle_type_id":"4","last_reported":1744481514,"current_range_meters":8000,"station_id":"ce4bh692rcd13ifvqea0","pricing_plan_id":"cebpf4jnsgd1na2vs0mg"},{"bike_id":"5763ee71-4e67-46bc-b3c9-44f5e5899e97","system_id":"levelo_inurba_marseille","lat":43.323697,"lon":5.38889,"is_reserved":false,"is_disabled":false,"rental_uris":{"android":"levelo://app?vid=5763ee71-4e67-46bc-b3c9-44f5e5899e97","ios":"levelo://app?vid=5763ee71-4e67-46bc-b3c9-44f5e5899e97"},"vehicle_type_id":"4","last_reported":1744481514,"current_range_meters":8000,"station_id":"ce4bhqp2rcd13ifvqhog","pricing_plan_id":"cebpf4jnsgd1na2vs0mg"},{"bike_id":"ea1bf99a-35fa-40be-9db6-380965364514","system_id":"levelo_inurba_marseille","lat":43.30135,"lon":5.38789,"is_reserved":false,"is_disabled":false,"rental_uris":{"android":"levelo://app?vid=ea1bf99a-35fa-40be-9db6-380965364514","ios":"levelo://app?vid=ea1bf99a-35fa-40be-9db6-380965364514"},"vehicle_type_id":"4","last_reported":1744481514,"current_range_meters":8400,"station_id":"ce4bghh2rcd13ifvqb60","pricing_plan_id":"cebpf4jnsgd1na2vs0mg"},{"bike_id":"5f441c5c-a237-441e-982c-ca037385d624","system_id":"levelo_inurba_marseille","lat":43.25122,"lon":5.40322,"is_reserved":false,"is_disabled":false,"rental_uris":{"android":"levelo://app?vid=5f441c5c-a237-441e-982c-ca037385d624","ios":"levelo://app?vid=5f441c5c-a237-441e-982c-ca037385d624"},"vehicle_type_id":"4","last_reported":1744481514,"current_range_meters":8400,"station_id":"ce4bhlh2rcd13ifvqgig","pricing_plan_id":"cebpf4jnsgd1na2vs0mg"},{"bike_id":"e524e199-d573-4d65-acc8-4e08ac3eebbe","system_id":"levelo_inurba_marseille","lat":43.27929,"lon":5.39587,"is_reserved":false,"is_disabled":false,"rental_uris":{"android":"levelo://app?vid=e524e199-d573-4d65-acc8-4e08ac3eebbe","ios":"levelo://app?vid=e524e199-d573-4d65-acc8-4e08ac3eebbe"},"vehicle_type_id":"4","last_reported":1744481514,"current_range_meters":8400,"station_id":"ce4bhf92rcd13ifvqf40","pricing_plan_id":"cebpf4jnsgd1na2vs0mg"},{"bike_id":"c76962ef-7b24-43ff-a363-1a42ca77e197","system_id":"levelo_inurba_marseille","lat":43.30591,"lon":5.37237,"is_reserved":false,"is_disabled":false,"rental_uris":{"android":"levelo://app?vid=c76962ef-7b24-43ff-a363-1a42ca77e197","ios":"levelo://app?vid=c76962ef-7b24-43ff-a363-1a42ca77e197"},"vehicle_type_id":"4","last_reported":1744481514,"current_range_meters":8400,"station_id":"ce4bgqh2rcd13ifvqc4g","pricing_plan_id":"cebpf4jnsgd1na2vs0mg"},{"bike_id":"abba3ca0-954e-43cd-862f-12f4b32aacf0","system_id":"levelo_inurba_marseille","lat":43.28566,"lon":5.395045,"is_reserved":false,"is_disabled":false,"rental_uris":{"android":"levelo://app?vid=abba3ca0-954e-43cd-862f-12f4b32aacf0","ios":"levelo://app?vid=abba3ca0-954e-43cd-862f-12f4b32aacf0"},"vehicle_type_id":"4","last_reported":1744481514,"current_range_meters":8400,"station_id":"ce4bh292rcd13ifvqdg0","pricing_plan_id":"cebpf4jnsgd1na2vs0mg"},{"bike_id":"3674fddc-7c78-44df-baf0-2322a539900e","system_id":"levelo_inurba_marseille","lat":43.29772,"lon":5.37103,"is_reserved":false,"is_disabled":false,"rental_uris":{"android":"levelo://app?vid=3674fddc-7c78-44df-baf0-2322a539900e","ios":"levelo://app?vid=3674fddc-7c78-44df-baf0-2322a539900e"},"vehicle_type_id":"4","last_reported":1744481514,"current_range_meters":8400,"station_id":"ce4bgop2rcd13ifvqc1g","pricing_plan_id":"cebpf4jnsgd1na2vs0mg"},{"bike_id":"1f1f8be0-e945-4aed-9f46-45e8f8b4f699","system_id":"levelo_inurba_marseille","lat":43.30119,"lon":5.39859,"is_reserved":false,"is_disabled":false,"rental_uris":{"android":"levelo://app?vid=1f1f8be0-e945-4aed-9f46-45e8f8b4f699","ios":"levelo://app?vid=1f1f8be0-e945-4aed-9f46-45e8f8b4f699"},"vehicle_type_id":"4","last_reported":1744481514,"current_range_meters":8400,"station_id":"ce4bh0h2rcd13ifvqd40","pricing_plan_id":"cebpf4jnsgd1na2vs0mg"},{"bike_id":"373e940a-92d8-4175-8099-d332b5c30bc9","system_id":"levelo_inurba_marseille","lat":43.31749,"lon":5.38993,"is_reserved":false,"is_disabled":false,"rental_uris":{"android":"levelo://app?vid=373e940a-92d8-4175-8099-d332b5c30bc9","ios":"levelo://app?vid=373e940a-92d8-4175-8099-d332b5c30bc9"},"vehicle_type_id":"4","last_reported":1744481514,"current_range_meters":8400,"station_id":"ce4bhqp2rcd13ifvqhng","pricing_plan_id":"cebpf4jnsgd1na2vs0mg"},{"bike_id":"3890aa41-58cc-476c-8eac-9df5c375edb9","system_id":"levelo_inurba_marseille","lat":43.28351,"lon":5.38107,"is_reserved":false,"is_disabled":false,"rental_uris":{"android":"levelo://app?vid=3890aa41-58cc-476c-8eac-9df5c375edb9","ios":"levelo://app?vid=3890aa41-58cc-476c-8eac-9df5c375edb9"},"vehicle_type_id":"4","last_reported":1744481514,"current_range_meters":8400,"station_id":"ce4bh412rcd13ifvqdr0","pricing_plan_id":"cebpf4jnsgd1na2vs0mg"},{"bike_id":"72adaa87-94dc-4774-aca0-5147bc57bd16","system_id":"levelo_inurba_marseille","lat":43.26018,"lon":5.41747,"is_reserved":false,"is_disabled":false,"rental_uris":{"android":"levelo://app?vid=72adaa87-94dc-4774-aca0-5147bc57bd16","ios":"levelo://app?vid=72adaa87-94dc-4774-aca0-5147bc57bd16"},"vehicle_type_id":"4","last_reported":1744481514,"current_range_meters":8400,"station_id":"","pricing_plan_id":"cebpf4jnsgd1na2vs0mg"},{"bike_id":"8c58f2fa-99e1-41f8-bf90-9c1648b679b1","system_id":"levelo_inurba_marseille","lat":43.27302,"lon":5.41454,"is_reserved":false,"is_disabled":false,"rental_uris":{"android":"levelo://app?vid=8c58f2fa-99e1-41f8-bf90-9c1648b679b1","ios":"levelo://app?vid=8c58f2fa-99e1-41f8-bf90-9c1648b679b1"},"vehicle_type_id":"4","last_reported":1744481514,"current_range_meters":8400,"station_id":"","pricing_plan_id":"cebpf4jnsgd1na2vs0mg"},{"bike_id":"37864421-51e4-4d5e-801c-7ac32e01e722","system_id":"levelo_inurba_marseille","lat":43.3129,"lon":5.37862,"is_reserved":false,"is_disabled":false,"rental_uris":{"android":"levelo://app?vid=37864421-51e4-4d5e-801c-7ac32e01e722","ios":"levelo://app?vid=37864421-51e4-4d5e-801c-7ac32e01e722"},"vehicle_type_id":"4","last_reported":1744481514,"current_range_meters":8400,"station_id":"","pricing_plan_id":"cebpf4jnsgd1na2vs0mg"},{"bike_id":"a7898cd8-38c9-4d05-9a5e-aab3523839db","system_id":"levelo_inurba_marseille","lat":43.31276,"lon":5.40175,"is_reserved":false,"is_disabled":false,"rental_uris":{"android":"levelo://app?vid=a7898cd8-38c9-4d05-9a5e-aab3523839db","ios":"levelo://app?vid=a7898cd8-38c9-4d05-9a5e-aab3523839db"},"vehicle_type_id":"4","last_reported":1744481514,"current_range_meters":8400,"station_id":"ce4bh092rcd13ifvqd30","pricing_plan_id":"cebpf4jnsgd1na2vs0mg"},{"bike_id":"3ba11aa6-bd3f-4e3d-84f2-d047f8269d30","system_id":"levelo_inurba_marseille","lat":43.24538,"lon":5.39536,"is_reserved":false,"is_disabled":false,"rental_uris":{"android":"levelo://app?vid=3ba11aa6-bd3f-4e3d-84f2-d047f8269d30","ios":"levelo://app?vid=3ba11aa6-bd3f-4e3d-84f2-d047f8269d30"},"vehicle_type_id":"4","last_reported":1744481514,"current_range_meters":8800,"station_id":"ce4bhlp2rcd13ifvqgjg","pricing_plan_id":"cebpf4jnsgd1na2vs0mg"},{"bike_id":"dc83c2eb-5a57-4b15-b007-4f64bb0228d3","system_id":"levelo_inurba_marseille","lat":43.30105,"lon":5.39084,"is_reserved":false,"is_disabled":false,"rental_uris":{"android":"levelo://app?vid=dc83c2eb-5a57-4b15-b007-4f64bb0228d3","ios":"levelo://app?vid=dc83c2eb-5a57-4b15-b007-4f64bb0228d3"},"vehicle_type_id":"4","last_reported":1744481514,"current_range_meters":8800,"station_id":"ce4bh192rcd13ifvqdb0","pricing_plan_id":"cebpf4jnsgd1na2vs0mg"},{"bike_id":"4231eaa5-17b9-46dd-8836-501dec9b77d3","system_id":"levelo_inurba_marseille","lat":43.32294,"lon":5.38259,"is_reserved":false,"is_disabled":false,"rental_uris":{"android":"levelo://app?vid=4231eaa5-17b9-46dd-8836-501dec9b77d3","ios":"levelo://app?vid=4231eaa5-17b9-46dd-8836-501dec9b77d3"},"vehicle_type_id":"4","last_reported":1744481514,"current_range_meters":8800,"station_id":"ce4bhr12rcd13ifvqhqg","pricing_plan_id":"cebpf4jnsgd1na2vs0mg"},{"bike_id":"4c893399-b4ed-40ed-a49f-713da320f269","system_id":"levelo_inurba_marseille","lat":43.29861,"lon":5.37841,"is_reserved":false,"is_disabled":false,"rental_uris":{"android":"levelo://app?vid=4c893399-b4ed-40ed-a49f-713da320f269","ios":"levelo://app?vid=4c893399-b4ed-40ed-a49f-713da320f269"},"vehicle_type_id":"4","last_reported":1744481514,"current_range_meters":8800,"station_id":"","pricing_plan_id":"cebpf4jnsgd1na2vs0mg"},{"bike_id":"38c0a90c-3b44-4d21-a39b-fd16d4c0a4a7","system_id":"levelo_inurba_marseille","lat":43.27489,"lon":5.42454,"is_reserved":false,"is_disabled":false,"rental_uris":{"android":"levelo://app?vid=38c0a90c-3b44-4d21-a39b-fd16d4c0a4a7","ios":"levelo://app?vid=38c0a90c-3b44-4d21-a39b-fd16d4c0a4a7"},"vehicle_type_id":"4","last_reported":1744481514,"current_range_meters":8800,"station_id":"ce4bhn92rcd13ifvqgrg","pricing_plan_id":"cebpf4jnsgd1na2vs0mg"},{"bike_id":"9cba8f23-c988-4669-8adb-7c35f3224e5b","system_id":"levelo_inurba_marseille","lat":43.30472,"lon":5.37904,"is_reserved":false,"is_disabled":false,"rental_uris":{"android":"levelo://app?vid=9cba8f23-c988-4669-8adb-7c35f3224e5b","ios":"levelo://app?vid=9cba8f23-c988-4669-8adb-7c35f3224e5b"},"vehicle_type_id":"4","last_reported":1744481514,"current_range_meters":8800,"station_id":"ce4bgup2rcd13ifvqcn0","pricing_plan_id":"cebpf4jnsgd1na2vs0mg"},{"bike_id":"c775f68c-5a38-4d00-b0a1-5e0fa022f0bf","system_id":"levelo_inurba_marseille","lat":43.28727,"lon":5.375345,"is_reserved":false,"is_disabled":false,"rental_uris":{"android":"levelo://app?vid=c775f68c-5a38-4d00-b0a1-5e0fa022f0bf","ios":"levelo://app?vid=c775f68c-5a38-4d00-b0a1-5e0fa022f0bf"},"vehicle_type_id":"4","last_reported":1744481514,"current_range_meters":8800,"station_id":"ce4bh3p2rcd13ifvqdq0","pricing_plan_id":"cebpf4jnsgd1na2vs0mg"},{"bike_id":"800d5909-daea-44ff-a7cd-18c4fe90c5ad","system_id":"levelo_inurba_marseille","lat":43.29935,"lon":5.36555,"is_reserved":false,"is_disabled":false,"rental_uris":{"android":"levelo://app?vid=800d5909-daea-44ff-a7cd-18c4fe90c5ad","ios":"levelo://app?vid=800d5909-daea-44ff-a7cd-18c4fe90c5ad"},"vehicle_type_id":"4","last_reported":1744481514,"current_range_meters":8800,"station_id":"ce4bgm92rcd13ifvqbr0","pricing_plan_id":"cebpf4jnsgd1na2vs0mg"},{"bike_id":"4859ab8c-53da-40e9-999d-6a52c9435af5","system_id":"levelo_inurba_marseille","lat":43.27557,"lon":5.38436,"is_reserved":false,"is_disabled":false,"rental_uris":{"android":"levelo://app?vid=4859ab8c-53da-40e9-999d-6a52c9435af5","ios":"levelo://app?vid=4859ab8c-53da-40e9-999d-6a52c9435af5"},"vehicle_type_id":"4","last_reported":1744481514,"current_range_meters":8800,"station_id":"ce4bhh92rcd13ifvqfi0","pricing_plan_id":"cebpf4jnsgd1na2vs0mg"},{"bike_id":"2d1324c7-8045-4ce3-a679-d3f9f3fdb1fc","system_id":"levelo_inurba_marseille","lat":43.25572,"lon":5.38242,"is_reserved":false,"is_disabled":false,"rental_uris":{"android":"levelo://app?vid=2d1324c7-8045-4ce3-a679-d3f9f3fdb1fc","ios":"levelo://app?vid=2d1324c7-8045-4ce3-a679-d3f9f3fdb1fc"},"vehicle_type_id":"4","last_reported":1744481514,"current_range_meters":8800,"station_id":"ce4bhih2rcd13ifvqfs0","pricing_plan_id":"cebpf4jnsgd1na2vs0mg"},{"bike_id":"89272aa2-4b5a-4888-90e9-3fdf3e272a38","system_id":"levelo_inurba_marseille","lat":43.32002,"lon":5.38151,"is_reserved":false,"is_disabled":false,"rental_uris":{"android":"levelo://app?vid=89272aa2-4b5a-4888-90e9-3fdf3e272a38","ios":"levelo://app?vid=89272aa2-4b5a-4888-90e9-3fdf3e272a38"},"vehicle_type_id":"4","last_reported":1744481514,"current_range_meters":9200,"station_id":"ce4bhr12rcd13ifvqhpg","pricing_plan_id":"cebpf4jnsgd1na2vs0mg"},{"bike_id":"92f3db2b-1928-438c-a167-68e36a57ff80","system_id":"levelo_inurba_marseille","lat":43.27928,"lon":5.3959,"is_reserved":false,"is_disabled":false,"rental_uris":{"android":"levelo://app?vid=92f3db2b-1928-438c-a167-68e36a57ff80","ios":"levelo://app?vid=92f3db2b-1928-438c-a167-68e36a57ff80"},"vehicle_type_id":"4","last_reported":1744481514,"current_range_meters":9200,"station_id":"ce4bhf92rcd13ifvqf40","pricing_plan_id":"cebpf4jnsgd1na2vs0mg"},{"bike_id":"4cedd733-2587-4eb1-87b3-3ab69e1574bc","system_id":"levelo_inurba_marseille","lat":43.28984,"lon":5.36617,"is_reserved":false,"is_disabled":false,"rental_uris":{"android":"levelo://app?vid=4cedd733-2587-4eb1-87b3-3ab69e1574bc","ios":"levelo://app?vid=4cedd733-2587-4eb1-87b3-3ab69e1574bc"},"vehicle_type_id":"4","last_reported":1744481514,"current_range_meters":9200,"station_id":"","pricing_plan_id":"cebpf4jnsgd1na2vs0mg"},{"bike_id":"6fd4e702-9143-4228-9158-14c44cfbb834","system_id":"levelo_inurba_marseille","lat":43.25858,"lon":5.39904,"is_reserved":false,"is_disabled":false,"rental_uris":{"android":"levelo://app?vid=6fd4e702-9143-4228-9158-14c44cfbb834","ios":"levelo://app?vid=6fd4e702-9143-4228-9158-14c44cfbb834"},"vehicle_type_id":"4","last_reported":1744481514,"current_range_meters":9200,"station_id":"ce4bhl92rcd13ifvqghg","pricing_plan_id":"cebpf4jnsgd1na2vs0mg"},{"bike_id":"3f52aecb-e49c-4288-b392-efddf1d650f2","system_id":"levelo_inurba_marseille","lat":43.312775,"lon":5.401692,"is_reserved":false,"is_disabled":false,"rental_uris":{"android":"levelo://app?vid=3f52aecb-e49c-4288-b392-efddf1d650f2","ios":"levelo://app?vid=3f52aecb-e49c-4288-b392-efddf1d650f2"},"vehicle_type_id":"4","last_reported":1744481514,"current_range_meters":9200,"station_id":"ce4bh092rcd13ifvqd30","pricing_plan_id":"cebpf4jnsgd1na2vs0mg"},{"bike_id":"f6822e7a-80b8-42ed-bacf-3b1f927ee756","system_id":"levelo_inurba_marseille","lat":43.284104,"lon":5.375,"is_reserved":false,"is_disabled":false,"rental_uris":{"android":"levelo://app?vid=f6822e7a-80b8-42ed-bacf-3b1f927ee756","ios":"levelo://app?vid=f6822e7a-80b8-42ed-bacf-3b1f927ee756"},"vehicle_type_id":"4","last_reported":1744481514,"current_range_meters":9200,"station_id":"ce4bh412rcd13ifvqds0","pricing_plan_id":"cebpf4jnsgd1na2vs0mg"},{"bike_id":"8207ea29-fd0c-4c7e-a5fa-88a3cf6888d1","system_id":"levelo_inurba_marseille","lat":43.2418,"lon":5.39738,"is_reserved":false,"is_disabled":false,"rental_uris":{"android":"levelo://app?vid=8207ea29-fd0c-4c7e-a5fa-88a3cf6888d1","ios":"levelo://app?vid=8207ea29-fd0c-4c7e-a5fa-88a3cf6888d1"},"vehicle_type_id":"4","last_reported":1744481514,"current_range_meters":9600,"station_id":"ce4bhn12rcd13ifvqgpg","pricing_plan_id":"cebpf4jnsgd1na2vs0mg"},{"bike_id":"c013d600-5e08-48f0-830e-8c965978436b","system_id":"levelo_inurba_marseille","lat":43.30446,"lon":5.38907,"is_reserved":false,"is_disabled":true,"rental_uris":{"android":"levelo://app?vid=c013d600-5e08-48f0-830e-8c965978436b","ios":"levelo://app?vid=c013d600-5e08-48f0-830e-8c965978436b"},"vehicle_type_id":"4","last_reported":1744481514,"current_range_meters":9600,"station_id":"ce4bgk12rcd13ifvqbi0","pricing_plan_id":"cebpf4jnsgd1na2vs0mg"},{"bike_id":"4a0973b0-92a0-41e8-9b0d-a99e944bafe0","system_id":"levelo_inurba_marseille","lat":43.3451,"lon":5.41313,"is_reserved":false,"is_disabled":false,"rental_uris":{"android":"levelo://app?vid=4a0973b0-92a0-41e8-9b0d-a99e944bafe0","ios":"levelo://app?vid=4a0973b0-92a0-41e8-9b0d-a99e944bafe0"},"vehicle_type_id":"4","last_reported":1744481514,"current_range_meters":9600,"station_id":"","pricing_plan_id":"cebpf4jnsgd1na2vs0mg"},{"bike_id":"804411a3-7215-4d85-a9a3-352800c1b603","system_id":"levelo_inurba_marseille","lat":43.29021,"lon":5.38131,"is_reserved":false,"is_disabled":false,"rental_uris":{"android":"levelo://app?vid=804411a3-7215-4d85-a9a3-352800c1b603","ios":"levelo://app?vid=804411a3-7215-4d85-a9a3-352800c1b603"},"vehicle_type_id":"4","last_reported":1744481514,"current_range_meters":9600,"station_id":"ce4bh4p2rcd13ifvqe1g","pricing_plan_id":"cebpf4jnsgd1na2vs0mg"},{"bike_id":"88802da1-90f2-4aff-90a1-c3598e933096","system_id":"levelo_inurba_marseille","lat":43.30341,"lon":5.39311,"is_reserved":false,"is_disabled":false,"rental_uris":{"android":"levelo://app?vid=88802da1-90f2-4aff-90a1-c3598e933096","ios":"levelo://app?vid=88802da1-90f2-4aff-90a1-c3598e933096"},"vehicle_type_id":"4","last_reported":1744481514,"current_range_meters":9600,"station_id":"","pricing_plan_id":"cebpf4jnsgd1na2vs0mg"},{"bike_id":"0ed988f6-dce5-459d-b7dc-871ddb694726","system_id":"levelo_inurba_marseille","lat":43.2797,"lon":5.38737,"is_reserved":false,"is_disabled":false,"rental_uris":{"android":"levelo://app?vid=0ed988f6-dce5-459d-b7dc-871ddb694726","ios":"levelo://app?vid=0ed988f6-dce5-459d-b7dc-871ddb694726"},"vehicle_type_id":"4","last_reported":1744481514,"current_range_meters":10000,"station_id":"ce4bhg12rcd13ifvqf80","pricing_plan_id":"cebpf4jnsgd1na2vs0mg"},{"bike_id":"fba14dc4-f065-46f4-a67b-b47ee9a5123b","system_id":"levelo_inurba_marseille","lat":43.29292,"lon":5.37191,"is_reserved":false,"is_disabled":true,"rental_uris":{"android":"levelo://app?vid=fba14dc4-f065-46f4-a67b-b47ee9a5123b","ios":"levelo://app?vid=fba14dc4-f065-46f4-a67b-b47ee9a5123b"},"vehicle_type_id":"4","last_reported":1744481514,"current_range_meters":10000,"station_id":"ce4bgh92rcd13ifvqb40","pricing_plan_id":"cebpf4jnsgd1na2vs0mg"},{"bike_id":"d53356ed-34e7-4ce0-8d94-e073954cdd85","system_id":"levelo_inurba_marseille","lat":43.2706,"lon":5.40261,"is_reserved":false,"is_disabled":true,"rental_uris":{"android":"levelo://app?vid=d53356ed-34e7-4ce0-8d94-e073954cdd85","ios":"levelo://app?vid=d53356ed-34e7-4ce0-8d94-e073954cdd85"},"vehicle_type_id":"4","last_reported":1744481514,"current_range_meters":10000,"station_id":"ce4bhk92rcd13ifvqgc0","pricing_plan_id":"cebpf4jnsgd1na2vs0mg"},{"bike_id":"650298bd-ccaa-44db-aa23-4ad782879558","system_id":"levelo_inurba_marseille","lat":43.32294,"lon":5.38269,"is_reserved":false,"is_disabled":false,"rental_uris":{"android":"levelo://app?vid=650298bd-ccaa-44db-aa23-4ad782879558","ios":"levelo://app?vid=650298bd-ccaa-44db-aa23-4ad782879558"},"vehicle_type_id":"4","last_reported":1744481514,"current_range_meters":10000,"station_id":"ce4bhr12rcd13ifvqhqg","pricing_plan_id":"cebpf4jnsgd1na2vs0mg"},{"bike_id":"ef291804-1477-432e-b153-82ea15725418","system_id":"levelo_inurba_marseille","lat":43.33742,"lon":5.37454,"is_reserved":false,"is_disabled":false,"rental_uris":{"android":"levelo://app?vid=ef291804-1477-432e-b153-82ea15725418","ios":"levelo://app?vid=ef291804-1477-432e-b153-82ea15725418"},"vehicle_type_id":"4","last_reported":1744481514,"current_range_meters":10000,"station_id":"","pricing_plan_id":"cebpf4jnsgd1na2vs0mg"},{"bike_id":"4a4f9a09-23e4-4fa8-ba79-2ce1ece4ae54","system_id":"levelo_inurba_marseille","lat":43.26952,"lon":5.403,"is_reserved":false,"is_disabled":false,"rental_uris":{"android":"levelo://app?vid=4a4f9a09-23e4-4fa8-ba79-2ce1ece4ae54","ios":"levelo://app?vid=4a4f9a09-23e4-4fa8-ba79-2ce1ece4ae54"},"vehicle_type_id":"4","last_reported":1744481514,"current_range_meters":10000,"station_id":"cjm6bp8fraef2m0cb0m0","pricing_plan_id":"cebpf4jnsgd1na2vs0mg"},{"bike_id":"a6ddee11-e1be-4252-9994-d84950956289","system_id":"levelo_inurba_marseille","lat":43.26921,"lon":5.40257,"is_reserved":false,"is_disabled":false,"rental_uris":{"android":"levelo://app?vid=a6ddee11-e1be-4252-9994-d84950956289","ios":"levelo://app?vid=a6ddee11-e1be-4252-9994-d84950956289"},"vehicle_type_id":"4","last_reported":1744481514,"current_range_meters":10000,"station_id":"cjm6bp8fraef2m0cb0m0","pricing_plan_id":"cebpf4jnsgd1na2vs0mg"},{"bike_id":"a7bd35d8-431e-403a-8602-fbbeb8d04c19","system_id":"levelo_inurba_marseille","lat":43.29312,"lon":5.37171,"is_reserved":false,"is_disabled":false,"rental_uris":{"android":"levelo://app?vid=a7bd35d8-431e-403a-8602-fbbeb8d04c19","ios":"levelo://app?vid=a7bd35d8-431e-403a-8602-fbbeb8d04c19"},"vehicle_type_id":"4","last_reported":1744481514,"current_range_meters":10800,"station_id":"ce4bgh92rcd13ifvqb40","pricing_plan_id":"cebpf4jnsgd1na2vs0mg"},{"bike_id":"f7d1eee0-1715-419d-beac-1b98ec9e62ed","system_id":"levelo_inurba_marseille","lat":43.30952,"lon":5.39046,"is_reserved":false,"is_disabled":true,"rental_uris":{"android":"levelo://app?vid=f7d1eee0-1715-419d-beac-1b98ec9e62ed","ios":"levelo://app?vid=f7d1eee0-1715-419d-beac-1b98ec9e62ed"},"vehicle_type_id":"4","last_reported":1744481514,"current_range_meters":10800,"station_id":"ce4bgup2rcd13ifvqco0","pricing_plan_id":"cebpf4jnsgd1na2vs0mg"},{"bike_id":"846b727b-f8e9-46d3-b1d2-cc38ab3e2941","system_id":"levelo_inurba_marseille","lat":43.29319,"lon":5.37187,"is_reserved":false,"is_disabled":false,"rental_uris":{"android":"levelo://app?vid=846b727b-f8e9-46d3-b1d2-cc38ab3e2941","ios":"levelo://app?vid=846b727b-f8e9-46d3-b1d2-cc38ab3e2941"},"vehicle_type_id":"4","last_reported":1744481514,"current_range_meters":10800,"station_id":"ce4bgh92rcd13ifvqb40","pricing_plan_id":"cebpf4jnsgd1na2vs0mg"},{"bike_id":"7156311e-1170-40fc-adc5-9f81a1b945a5","system_id":"levelo_inurba_marseille","lat":43.2898,"lon":5.37846,"is_reserved":false,"is_disabled":false,"rental_uris":{"android":"levelo://app?vid=7156311e-1170-40fc-adc5-9f81a1b945a5","ios":"levelo://app?vid=7156311e-1170-40fc-adc5-9f81a1b945a5"},"vehicle_type_id":"4","last_reported":1744481514,"current_range_meters":10800,"station_id":"ce4bh9p2rcd13ifvqed0","pricing_plan_id":"cebpf4jnsgd1na2vs0mg"},{"bike_id":"86e3fd62-ce53-4f21-93c1-2fb7456de3cf","system_id":"levelo_inurba_marseille","lat":43.23078,"lon":5.35534,"is_reserved":false,"is_disabled":false,"rental_uris":{"android":"levelo://app?vid=86e3fd62-ce53-4f21-93c1-2fb7456de3cf","ios":"levelo://app?vid=86e3fd62-ce53-4f21-93c1-2fb7456de3cf"},"vehicle_type_id":"4","last_reported":1744481514,"current_range_meters":10800,"station_id":"cpo3342slgdg3j2ifvpg","pricing_plan_id":"cebpf4jnsgd1na2vs0mg"},{"bike_id":"a2a6fafc-9ee1-4ac9-b16d-fa1f378e78d0","system_id":"levelo_inurba_marseille","lat":43.29516,"lon":5.37452,"is_reserved":false,"is_disabled":true,"rental_uris":{"android":"levelo://app?vid=a2a6fafc-9ee1-4ac9-b16d-fa1f378e78d0","ios":"levelo://app?vid=a2a6fafc-9ee1-4ac9-b16d-fa1f378e78d0"},"vehicle_type_id":"4","last_reported":1744481514,"current_range_meters":10800,"station_id":"ce4bgkp2rcd13ifvqbmg","pricing_plan_id":"cebpf4jnsgd1na2vs0mg"},{"bike_id":"45cbc983-40f4-4632-8778-c9e06f79e922","system_id":"levelo_inurba_marseille","lat":43.31169,"lon":5.38716,"is_reserved":false,"is_disabled":false,"rental_uris":{"android":"levelo://app?vid=45cbc983-40f4-4632-8778-c9e06f79e922","ios":"levelo://app?vid=45cbc983-40f4-4632-8778-c9e06f79e922"},"vehicle_type_id":"4","last_reported":1744481514,"current_range_meters":10800,"station_id":"ce4bgv12rcd13ifvqcp0","pricing_plan_id":"cebpf4jnsgd1na2vs0mg"},{"bike_id":"0e7bf4ae-5aed-4055-a1f8-96debbb9847e","system_id":"levelo_inurba_marseille","lat":43.24166,"lon":5.36399,"is_reserved":false,"is_disabled":false,"rental_uris":{"android":"levelo://app?vid=0e7bf4ae-5aed-4055-a1f8-96debbb9847e","ios":"levelo://app?vid=0e7bf4ae-5aed-4055-a1f8-96debbb9847e"},"vehicle_type_id":"4","last_reported":1744481514,"current_range_meters":10800,"station_id":"cpo36qri1sfpv3e86is0","pricing_plan_id":"cebpf4jnsgd1na2vs0mg"},{"bike_id":"8609ec5b-db31-4682-89f6-95794d251c5e","system_id":"levelo_inurba_marseille","lat":43.23161,"lon":5.43718,"is_reserved":false,"is_disabled":false,"rental_uris":{"android":"levelo://app?vid=8609ec5b-db31-4682-89f6-95794d251c5e","ios":"levelo://app?vid=8609ec5b-db31-4682-89f6-95794d251c5e"},"vehicle_type_id":"4","last_reported":1744481514,"current_range_meters":10800,"station_id":"ce4bhmp2rcd13ifvqgog","pricing_plan_id":"cebpf4jnsgd1na2vs0mg"},{"bike_id":"ad43b887-0d51-4c6f-8ca6-b16d6b975313","system_id":"levelo_inurba_marseille","lat":43.29633,"lon":5.406,"is_reserved":false,"is_disabled":false,"rental_uris":{"android":"levelo://app?vid=ad43b887-0d51-4c6f-8ca6-b16d6b975313","ios":"levelo://app?vid=ad43b887-0d51-4c6f-8ca6-b16d6b975313"},"vehicle_type_id":"4","last_reported":1744481514,"current_range_meters":11200,"station_id":"ce4bh0h2rcd13ifvqd60","pricing_plan_id":"cebpf4jnsgd1na2vs0mg"},{"bike_id":"4cdbdbdc-50a1-4b33-9f2d-6dfbe06acdda","system_id":"levelo_inurba_marseille","lat":43.32366,"lon":5.38886,"is_reserved":false,"is_disabled":false,"rental_uris":{"android":"levelo://app?vid=4cdbdbdc-50a1-4b33-9f2d-6dfbe06acdda","ios":"levelo://app?vid=4cdbdbdc-50a1-4b33-9f2d-6dfbe06acdda"},"vehicle_type_id":"4","last_reported":1744481514,"current_range_meters":11200,"station_id":"ce4bhqp2rcd13ifvqhog","pricing_plan_id":"cebpf4jnsgd1na2vs0mg"},{"bike_id":"88508b03-97cd-47a3-bf4c-6a7898567269","system_id":"levelo_inurba_marseille","lat":43.3116,"lon":5.38723,"is_reserved":false,"is_disabled":false,"rental_uris":{"android":"levelo://app?vid=88508b03-97cd-47a3-bf4c-6a7898567269","ios":"levelo://app?vid=88508b03-97cd-47a3-bf4c-6a7898567269"},"vehicle_type_id":"4","last_reported":1744481514,"current_range_meters":11200,"station_id":"ce4bgv12rcd13ifvqcp0","pricing_plan_id":"cebpf4jnsgd1na2vs0mg"},{"bike_id":"3ded66bb-4375-4d64-8f67-bf51d92a75f1","system_id":"levelo_inurba_marseille","lat":43.33607,"lon":5.41038,"is_reserved":false,"is_disabled":false,"rental_uris":{"android":"levelo://app?vid=3ded66bb-4375-4d64-8f67-bf51d92a75f1","ios":"levelo://app?vid=3ded66bb-4375-4d64-8f67-bf51d92a75f1"},"vehicle_type_id":"4","last_reported":1744481514,"current_range_meters":10800,"station_id":"ce4bhqh2rcd13ifvqhmg","pricing_plan_id":"cebpf4jnsgd1na2vs0mg"},{"bike_id":"5b77a833-8185-45c2-9fe3-07eb40df54ca","system_id":"levelo_inurba_marseille","lat":43.33995,"lon":5.38057,"is_reserved":false,"is_disabled":false,"rental_uris":{"android":"levelo://app?vid=5b77a833-8185-45c2-9fe3-07eb40df54ca","ios":"levelo://app?vid=5b77a833-8185-45c2-9fe3-07eb40df54ca"},"vehicle_type_id":"4","last_reported":1744481514,"current_range_meters":11200,"station_id":"","pricing_plan_id":"cebpf4jnsgd1na2vs0mg"},{"bike_id":"c5ec025d-55b2-4999-afe0-5eb738366a57","system_id":"levelo_inurba_marseille","lat":43.28039,"lon":5.36949,"is_reserved":false,"is_disabled":false,"rental_uris":{"android":"levelo://app?vid=c5ec025d-55b2-4999-afe0-5eb738366a57","ios":"levelo://app?vid=c5ec025d-55b2-4999-afe0-5eb738366a57"},"vehicle_type_id":"4","last_reported":1744481514,"current_range_meters":11600,"station_id":"ce4bha12rcd13ifvqef0","pricing_plan_id":"cebpf4jnsgd1na2vs0mg"},{"bike_id":"1f90db5e-ecd4-4ef8-a36e-f9b3bb72e191","system_id":"levelo_inurba_marseille","lat":43.2551,"lon":5.37674,"is_reserved":false,"is_disabled":false,"rental_uris":{"android":"levelo://app?vid=1f90db5e-ecd4-4ef8-a36e-f9b3bb72e191","ios":"levelo://app?vid=1f90db5e-ecd4-4ef8-a36e-f9b3bb72e191"},"vehicle_type_id":"4","last_reported":1744481514,"current_range_meters":11600,"station_id":"ce4bhh12rcd13ifvqff0","pricing_plan_id":"cebpf4jnsgd1na2vs0mg"},{"bike_id":"d8f603cd-3b83-4148-bab8-3a185ad2a59f","system_id":"levelo_inurba_marseille","lat":43.32416,"lon":5.3913,"is_reserved":false,"is_disabled":false,"rental_uris":{"android":"levelo://app?vid=d8f603cd-3b83-4148-bab8-3a185ad2a59f","ios":"levelo://app?vid=d8f603cd-3b83-4148-bab8-3a185ad2a59f"},"vehicle_type_id":"4","last_reported":1744481514,"current_range_meters":11600,"station_id":"","pricing_plan_id":"cebpf4jnsgd1na2vs0mg"},{"bike_id":"4ac15233-0b55-49d0-af61-4cab496dd69a","system_id":"levelo_inurba_marseille","lat":43.28154,"lon":5.4265,"is_reserved":false,"is_disabled":false,"rental_uris":{"android":"levelo://app?vid=4ac15233-0b55-49d0-af61-4cab496dd69a","ios":"levelo://app?vid=4ac15233-0b55-49d0-af61-4cab496dd69a"},"vehicle_type_id":"4","last_reported":1744481514,"current_range_meters":11600,"station_id":"ce4bhnh2rcd13ifvqgug","pricing_plan_id":"cebpf4jnsgd1na2vs0mg"},{"bike_id":"be14e298-4887-4b9b-b8ea-8000c22b9e50","system_id":"levelo_inurba_marseille","lat":43.28939,"lon":5.36396,"is_reserved":false,"is_disabled":false,"rental_uris":{"android":"levelo://app?vid=be14e298-4887-4b9b-b8ea-8000c22b9e50","ios":"levelo://app?vid=be14e298-4887-4b9b-b8ea-8000c22b9e50"},"vehicle_type_id":"4","last_reported":1744481514,"current_range_meters":11600,"station_id":"ce4bhc92rcd13ifvqetg","pricing_plan_id":"cebpf4jnsgd1na2vs0mg"},{"bike_id":"2ffdb41b-0a63-41a9-8fa8-3ff51fa4b914","system_id":"levelo_inurba_marseille","lat":43.29268,"lon":5.38436,"is_reserved":false,"is_disabled":false,"rental_uris":{"android":"levelo://app?vid=2ffdb41b-0a63-41a9-8fa8-3ff51fa4b914","ios":"levelo://app?vid=2ffdb41b-0a63-41a9-8fa8-3ff51fa4b914"},"vehicle_type_id":"4","last_reported":1744481514,"current_range_meters":11600,"station_id":"ce4bh692rcd13ifvqea0","pricing_plan_id":"cebpf4jnsgd1na2vs0mg"},{"bike_id":"7099207c-d611-4ece-bbc8-f929595d3b77","system_id":"levelo_inurba_marseille","lat":43.29264,"lon":5.36844,"is_reserved":false,"is_disabled":false,"rental_uris":{"android":"levelo://app?vid=7099207c-d611-4ece-bbc8-f929595d3b77","ios":"levelo://app?vid=7099207c-d611-4ece-bbc8-f929595d3b77"},"vehicle_type_id":"4","last_reported":1744481514,"current_range_meters":11600,"station_id":"ce4bhbp2rcd13ifvqesg","pricing_plan_id":"cebpf4jnsgd1na2vs0mg"},{"bike_id":"6e2ac28e-dfb7-46b8-8016-b7ae92b2a4f0","system_id":"levelo_inurba_marseille","lat":43.28003,"lon":5.40016,"is_reserved":false,"is_disabled":false,"rental_uris":{"android":"levelo://app?vid=6e2ac28e-dfb7-46b8-8016-b7ae92b2a4f0","ios":"levelo://app?vid=6e2ac28e-dfb7-46b8-8016-b7ae92b2a4f0"},"vehicle_type_id":"4","last_reported":1744481514,"current_range_meters":11600,"station_id":"ce4bho92rcd13ifvqh4g","pricing_plan_id":"cebpf4jnsgd1na2vs0mg"},{"bike_id":"2798d981-cb8a-44c3-85ee-bb650b1e94e8","system_id":"levelo_inurba_marseille","lat":43.26948,"lon":5.38653,"is_reserved":false,"is_disabled":false,"rental_uris":{"android":"levelo://app?vid=2798d981-cb8a-44c3-85ee-bb650b1e94e8","ios":"levelo://app?vid=2798d981-cb8a-44c3-85ee-bb650b1e94e8"},"vehicle_type_id":"4","last_reported":1744481514,"current_range_meters":11600,"station_id":"ce4bhh92rcd13ifvqfh0","pricing_plan_id":"cebpf4jnsgd1na2vs0mg"},{"bike_id":"eb578252-5439-4851-a5f9-751638bdaef7","system_id":"levelo_inurba_marseille","lat":43.29035,"lon":5.37557,"is_reserved":false,"is_disabled":true,"rental_uris":{"android":"levelo://app?vid=eb578252-5439-4851-a5f9-751638bdaef7","ios":"levelo://app?vid=eb578252-5439-4851-a5f9-751638bdaef7"},"vehicle_type_id":"4","last_reported":1744481514,"current_range_meters":11600,"station_id":"ce4bh692rcd13ifvqe90","pricing_plan_id":"cebpf4jnsgd1na2vs0mg"},{"bike_id":"3d10078f-94a5-4e0b-9e01-c7d5c4fa3573","system_id":"levelo_inurba_marseille","lat":43.31489,"lon":5.37309,"is_reserved":false,"is_disabled":false,"rental_uris":{"android":"levelo://app?vid=3d10078f-94a5-4e0b-9e01-c7d5c4fa3573","ios":"levelo://app?vid=3d10078f-94a5-4e0b-9e01-c7d5c4fa3573"},"vehicle_type_id":"4","last_reported":1744481514,"current_range_meters":11600,"station_id":"ce4bgt12rcd13ifvqcd0","pricing_plan_id":"cebpf4jnsgd1na2vs0mg"},{"bike_id":"454d0caf-1b00-42f7-b90b-ce6ca76b98c7","system_id":"levelo_inurba_marseille","lat":43.31714,"lon":5.42402,"is_reserved":false,"is_disabled":false,"rental_uris":{"android":"levelo://app?vid=454d0caf-1b00-42f7-b90b-ce6ca76b98c7","ios":"levelo://app?vid=454d0caf-1b00-42f7-b90b-ce6ca76b98c7"},"vehicle_type_id":"4","last_reported":1744481514,"current_range_meters":11600,"station_id":"ce4bhp92rcd13ifvqhbg","pricing_plan_id":"cebpf4jnsgd1na2vs0mg"},{"bike_id":"16f487c8-9e8f-438f-907f-c188a6d0ebb7","system_id":"levelo_inurba_marseille","lat":43.29014,"lon":5.38138,"is_reserved":false,"is_disabled":false,"rental_uris":{"android":"levelo://app?vid=16f487c8-9e8f-438f-907f-c188a6d0ebb7","ios":"levelo://app?vid=16f487c8-9e8f-438f-907f-c188a6d0ebb7"},"vehicle_type_id":"4","last_reported":1744481514,"current_range_meters":12000,"station_id":"ce4bh4p2rcd13ifvqe1g","pricing_plan_id":"cebpf4jnsgd1na2vs0mg"},{"bike_id":"e946bdaa-35db-4927-9a94-3a47faeac70a","system_id":"levelo_inurba_marseille","lat":43.30275,"lon":5.40064,"is_reserved":false,"is_disabled":false,"rental_uris":{"android":"levelo://app?vid=e946bdaa-35db-4927-9a94-3a47faeac70a","ios":"levelo://app?vid=e946bdaa-35db-4927-9a94-3a47faeac70a"},"vehicle_type_id":"4","last_reported":1744481514,"current_range_meters":12000,"station_id":"ce4bgvh2rcd13ifvqcs0","pricing_plan_id":"cebpf4jnsgd1na2vs0mg"},{"bike_id":"2ae5c809-c5d6-480f-b9b1-6456636a5c12","system_id":"levelo_inurba_marseille","lat":43.2942,"lon":5.38621,"is_reserved":false,"is_disabled":false,"rental_uris":{"android":"levelo://app?vid=2ae5c809-c5d6-480f-b9b1-6456636a5c12","ios":"levelo://app?vid=2ae5c809-c5d6-480f-b9b1-6456636a5c12"},"vehicle_type_id":"4","last_reported":1744481514,"current_range_meters":12000,"station_id":"ce4bh2h2rcd13ifvqdh0","pricing_plan_id":"cebpf4jnsgd1na2vs0mg"},{"bike_id":"e4dabf72-02d8-4a71-ad54-95837eb03b98","system_id":"levelo_inurba_marseille","lat":43.29434,"lon":5.397468,"is_reserved":false,"is_disabled":false,"rental_uris":{"android":"levelo://app?vid=e4dabf72-02d8-4a71-ad54-95837eb03b98","ios":"levelo://app?vid=e4dabf72-02d8-4a71-ad54-95837eb03b98"},"vehicle_type_id":"4","last_reported":1744481514,"current_range_meters":12000,"station_id":"ce4bgph2rcd13ifvqc2g","pricing_plan_id":"cebpf4jnsgd1na2vs0mg"},{"bike_id":"493cde9e-7859-4c26-a2e6-f744ee5d8553","system_id":"levelo_inurba_marseille","lat":43.31616,"lon":5.36155,"is_reserved":false,"is_disabled":false,"rental_uris":{"android":"levelo://app?vid=493cde9e-7859-4c26-a2e6-f744ee5d8553","ios":"levelo://app?vid=493cde9e-7859-4c26-a2e6-f744ee5d8553"},"vehicle_type_id":"4","last_reported":1744481514,"current_range_meters":12000,"station_id":"","pricing_plan_id":"cebpf4jnsgd1na2vs0mg"},{"bike_id":"6f654880-2354-42d1-b816-1f1bfa045df5","system_id":"levelo_inurba_marseille","lat":43.31489,"lon":5.37306,"is_reserved":false,"is_disabled":false,"rental_uris":{"android":"levelo://app?vid=6f654880-2354-42d1-b816-1f1bfa045df5","ios":"levelo://app?vid=6f654880-2354-42d1-b816-1f1bfa045df5"},"vehicle_type_id":"4","last_reported":1744481514,"current_range_meters":12000,"station_id":"ce4bgt12rcd13ifvqcd0","pricing_plan_id":"cebpf4jnsgd1na2vs0mg"},{"bike_id":"b16846a1-a40a-44cf-baa4-f3d0a9d3fbdd","system_id":"levelo_inurba_marseille","lat":43.25811,"lon":5.39444,"is_reserved":false,"is_disabled":false,"rental_uris":{"android":"levelo://app?vid=b16846a1-a40a-44cf-baa4-f3d0a9d3fbdd","ios":"levelo://app?vid=b16846a1-a40a-44cf-baa4-f3d0a9d3fbdd"},"vehicle_type_id":"4","last_reported":1744481514,"current_range_meters":12000,"station_id":"ce4bhip2rcd13ifvqft0","pricing_plan_id":"cebpf4jnsgd1na2vs0mg"},{"bike_id":"8504cadd-dfe4-4186-94fe-fef9547528ee","system_id":"levelo_inurba_marseille","lat":43.29269,"lon":5.38432,"is_reserved":false,"is_disabled":false,"rental_uris":{"android":"levelo://app?vid=8504cadd-dfe4-4186-94fe-fef9547528ee","ios":"levelo://app?vid=8504cadd-dfe4-4186-94fe-fef9547528ee"},"vehicle_type_id":"4","last_reported":1744481514,"current_range_meters":12000,"station_id":"ce4bh692rcd13ifvqea0","pricing_plan_id":"cebpf4jnsgd1na2vs0mg"},{"bike_id":"8b18e4a9-ab3c-4067-b52e-f99cd49b1560","system_id":"levelo_inurba_marseille","lat":43.2511,"lon":5.40325,"is_reserved":false,"is_disabled":false,"rental_uris":{"android":"levelo://app?vid=8b18e4a9-ab3c-4067-b52e-f99cd49b1560","ios":"levelo://app?vid=8b18e4a9-ab3c-4067-b52e-f99cd49b1560"},"vehicle_type_id":"4","last_reported":1744481514,"current_range_meters":12400,"station_id":"ce4bhlh2rcd13ifvqgig","pricing_plan_id":"cebpf4jnsgd1na2vs0mg"},{"bike_id":"ed5b29c1-ac71-487d-a872-61f54e944542","system_id":"levelo_inurba_marseille","lat":43.29297,"lon":5.3747,"is_reserved":false,"is_disabled":false,"rental_uris":{"android":"levelo://app?vid=ed5b29c1-ac71-487d-a872-61f54e944542","ios":"levelo://app?vid=ed5b29c1-ac71-487d-a872-61f54e944542"},"vehicle_type_id":"4","last_reported":1744481514,"current_range_meters":12400,"station_id":"ce4bgi12rcd13ifvqb70","pricing_plan_id":"cebpf4jnsgd1na2vs0mg"},{"bike_id":"2f5bc015-0a98-4a0d-a50f-f7181e1d6abe","system_id":"levelo_inurba_marseille","lat":43.23435,"lon":5.41267,"is_reserved":false,"is_disabled":false,"rental_uris":{"android":"levelo://app?vid=2f5bc015-0a98-4a0d-a50f-f7181e1d6abe","ios":"levelo://app?vid=2f5bc015-0a98-4a0d-a50f-f7181e1d6abe"},"vehicle_type_id":"4","last_reported":1744481514,"current_range_meters":12400,"station_id":"","pricing_plan_id":"cebpf4jnsgd1na2vs0mg"},{"bike_id":"75ec46b0-a0ea-4643-8196-498d40bc7e52","system_id":"levelo_inurba_marseille","lat":43.337444,"lon":5.374475,"is_reserved":false,"is_disabled":false,"rental_uris":{"android":"levelo://app?vid=75ec46b0-a0ea-4643-8196-498d40bc7e52","ios":"levelo://app?vid=75ec46b0-a0ea-4643-8196-498d40bc7e52"},"vehicle_type_id":"4","last_reported":1744481514,"current_range_meters":12400,"station_id":"","pricing_plan_id":"cebpf4jnsgd1na2vs0mg"},{"bike_id":"d9ad75df-f46a-476f-be5a-fd35f16b5130","system_id":"levelo_inurba_marseille","lat":43.30653,"lon":5.40089,"is_reserved":false,"is_disabled":false,"rental_uris":{"android":"levelo://app?vid=d9ad75df-f46a-476f-be5a-fd35f16b5130","ios":"levelo://app?vid=d9ad75df-f46a-476f-be5a-fd35f16b5130"},"vehicle_type_id":"4","last_reported":1744481514,"current_range_meters":12400,"station_id":"ce4bh112rcd13ifvqda0","pricing_plan_id":"cebpf4jnsgd1na2vs0mg"},{"bike_id":"197bf562-0f01-4f7e-8bf1-790b6e7cd9a3","system_id":"levelo_inurba_marseille","lat":43.23176,"lon":5.35523,"is_reserved":false,"is_disabled":false,"rental_uris":{"android":"levelo://app?vid=197bf562-0f01-4f7e-8bf1-790b6e7cd9a3","ios":"levelo://app?vid=197bf562-0f01-4f7e-8bf1-790b6e7cd9a3"},"vehicle_type_id":"4","last_reported":1744481514,"current_range_meters":12400,"station_id":"ce4bhu92rcd13ifvqi70","pricing_plan_id":"cebpf4jnsgd1na2vs0mg"},{"bike_id":"cd02e34d-255b-40b8-99fb-f44f17955dfd","system_id":"levelo_inurba_marseille","lat":43.24798,"lon":5.37465,"is_reserved":false,"is_disabled":false,"rental_uris":{"android":"levelo://app?vid=cd02e34d-255b-40b8-99fb-f44f17955dfd","ios":"levelo://app?vid=cd02e34d-255b-40b8-99fb-f44f17955dfd"},"vehicle_type_id":"4","last_reported":1744481514,"current_range_meters":12400,"station_id":"ce4bhgh2rcd13ifvqfb0","pricing_plan_id":"cebpf4jnsgd1na2vs0mg"},{"bike_id":"61bc6256-8380-4638-bd27-1e2c56ecc87d","system_id":"levelo_inurba_marseille","lat":43.297152,"lon":5.376653,"is_reserved":false,"is_disabled":false,"rental_uris":{"android":"levelo://app?vid=61bc6256-8380-4638-bd27-1e2c56ecc87d","ios":"levelo://app?vid=61bc6256-8380-4638-bd27-1e2c56ecc87d"},"vehicle_type_id":"4","last_reported":1744481514,"current_range_meters":12400,"station_id":"ce4bgkh2rcd13ifvqbl0","pricing_plan_id":"cebpf4jnsgd1na2vs0mg"},{"bike_id":"39414272-ec6e-464c-954f-f14cd9910356","system_id":"levelo_inurba_marseille","lat":43.26197,"lon":5.37932,"is_reserved":false,"is_disabled":false,"rental_uris":{"android":"levelo://app?vid=39414272-ec6e-464c-954f-f14cd9910356","ios":"levelo://app?vid=39414272-ec6e-464c-954f-f14cd9910356"},"vehicle_type_id":"4","last_reported":1744481514,"current_range_meters":12800,"station_id":"ce4bhjp2rcd13ifvqg90","pricing_plan_id":"cebpf4jnsgd1na2vs0mg"},{"bike_id":"f7843f46-58aa-4cf6-a1d0-1b94b16f71c2","system_id":"levelo_inurba_marseille","lat":43.298491,"lon":5.396715,"is_reserved":false,"is_disabled":false,"rental_uris":{"android":"levelo://app?vid=f7843f46-58aa-4cf6-a1d0-1b94b16f71c2","ios":"levelo://app?vid=f7843f46-58aa-4cf6-a1d0-1b94b16f71c2"},"vehicle_type_id":"4","last_reported":1744481514,"current_range_meters":12800,"station_id":"","pricing_plan_id":"cebpf4jnsgd1na2vs0mg"},{"bike_id":"68470ddf-9c39-47ac-b4ce-3d9ffcea29cf","system_id":"levelo_inurba_marseille","lat":43.29972,"lon":5.38491,"is_reserved":false,"is_disabled":false,"rental_uris":{"android":"levelo://app?vid=68470ddf-9c39-47ac-b4ce-3d9ffcea29cf","ios":"levelo://app?vid=68470ddf-9c39-47ac-b4ce-3d9ffcea29cf"},"vehicle_type_id":"4","last_reported":1744481514,"current_range_meters":12800,"station_id":"ce4bgj92rcd13ifvqbd0","pricing_plan_id":"cebpf4jnsgd1na2vs0mg"},{"bike_id":"b959a73b-dad7-42bf-9b04-e4d8f2c7221a","system_id":"levelo_inurba_marseille","lat":43.28074,"lon":5.39622,"is_reserved":false,"is_disabled":false,"rental_uris":{"android":"levelo://app?vid=b959a73b-dad7-42bf-9b04-e4d8f2c7221a","ios":"levelo://app?vid=b959a73b-dad7-42bf-9b04-e4d8f2c7221a"},"vehicle_type_id":"4","last_reported":1744481514,"current_range_meters":12800,"station_id":"ce4bho12rcd13ifvqh2g","pricing_plan_id":"cebpf4jnsgd1na2vs0mg"},{"bike_id":"c5252d3d-36a6-41c1-8681-b73b8b6dfeba","system_id":"levelo_inurba_marseille","lat":43.31885,"lon":5.40745,"is_reserved":false,"is_disabled":false,"rental_uris":{"android":"levelo://app?vid=c5252d3d-36a6-41c1-8681-b73b8b6dfeba","ios":"levelo://app?vid=c5252d3d-36a6-41c1-8681-b73b8b6dfeba"},"vehicle_type_id":"4","last_reported":1744481514,"current_range_meters":12800,"station_id":"ce4bhq12rcd13ifvqhig","pricing_plan_id":"cebpf4jnsgd1na2vs0mg"},{"bike_id":"6c79e334-afd5-453b-ada0-a720f76358d3","system_id":"levelo_inurba_marseille","lat":43.28159,"lon":5.42647,"is_reserved":false,"is_disabled":false,"rental_uris":{"android":"levelo://app?vid=6c79e334-afd5-453b-ada0-a720f76358d3","ios":"levelo://app?vid=6c79e334-afd5-453b-ada0-a720f76358d3"},"vehicle_type_id":"4","last_reported":1744481514,"current_range_meters":12800,"station_id":"ce4bhnh2rcd13ifvqgug","pricing_plan_id":"cebpf4jnsgd1na2vs0mg"},{"bike_id":"7edbf2d8-ebdc-4d74-9645-08c4752fc1f6","system_id":"levelo_inurba_marseille","lat":43.28939,"lon":5.36639,"is_reserved":false,"is_disabled":false,"rental_uris":{"android":"levelo://app?vid=7edbf2d8-ebdc-4d74-9645-08c4752fc1f6","ios":"levelo://app?vid=7edbf2d8-ebdc-4d74-9645-08c4752fc1f6"},"vehicle_type_id":"4","last_reported":1744481514,"current_range_meters":13600,"station_id":"ce4bhap2rcd13ifvqek0","pricing_plan_id":"cebpf4jnsgd1na2vs0mg"},{"bike_id":"ba82ef9e-8bc4-4833-b51e-6d750656b191","system_id":"levelo_inurba_marseille","lat":43.29977,"lon":5.37176,"is_reserved":false,"is_disabled":false,"rental_uris":{"android":"levelo://app?vid=ba82ef9e-8bc4-4833-b51e-6d750656b191","ios":"levelo://app?vid=ba82ef9e-8bc4-4833-b51e-6d750656b191"},"vehicle_type_id":"4","last_reported":1744481514,"current_range_meters":13600,"station_id":"ce4bgr92rcd13ifvqc7g","pricing_plan_id":"cebpf4jnsgd1na2vs0mg"},{"bike_id":"f8b41576-eb35-4295-b495-e4603a021a04","system_id":"levelo_inurba_marseille","lat":43.26943,"lon":5.40263,"is_reserved":false,"is_disabled":false,"rental_uris":{"android":"levelo://app?vid=f8b41576-eb35-4295-b495-e4603a021a04","ios":"levelo://app?vid=f8b41576-eb35-4295-b495-e4603a021a04"},"vehicle_type_id":"4","last_reported":1744481514,"current_range_meters":13600,"station_id":"cjm6bp8fraef2m0cb0m0","pricing_plan_id":"cebpf4jnsgd1na2vs0mg"},{"bike_id":"d6fb1c4b-b389-48be-af3b-f1592a267670","system_id":"levelo_inurba_marseille","lat":43.30295,"lon":5.39205,"is_reserved":false,"is_disabled":false,"rental_uris":{"android":"levelo://app?vid=d6fb1c4b-b389-48be-af3b-f1592a267670","ios":"levelo://app?vid=d6fb1c4b-b389-48be-af3b-f1592a267670"},"vehicle_type_id":"4","last_reported":1744481514,"current_range_meters":13600,"station_id":"ce4bgkh2rcd13ifvqbk0","pricing_plan_id":"cebpf4jnsgd1na2vs0mg"},{"bike_id":"44154594-0283-4703-a223-868c22dea17c","system_id":"levelo_inurba_marseille","lat":43.28132,"lon":5.426329,"is_reserved":false,"is_disabled":false,"rental_uris":{"android":"levelo://app?vid=44154594-0283-4703-a223-868c22dea17c","ios":"levelo://app?vid=44154594-0283-4703-a223-868c22dea17c"},"vehicle_type_id":"4","last_reported":1744481514,"current_range_meters":13600,"station_id":"ce4bhnh2rcd13ifvqgug","pricing_plan_id":"cebpf4jnsgd1na2vs0mg"},{"bike_id":"72c6aab6-3a44-430e-a84d-843d2a93e616","system_id":"levelo_inurba_marseille","lat":43.21228,"lon":5.35093,"is_reserved":false,"is_disabled":true,"rental_uris":{"android":"levelo://app?vid=72c6aab6-3a44-430e-a84d-843d2a93e616","ios":"levelo://app?vid=72c6aab6-3a44-430e-a84d-843d2a93e616"},"vehicle_type_id":"4","last_reported":1744481514,"current_range_meters":14000,"station_id":"","pricing_plan_id":"cebpf4jnsgd1na2vs0mg"},{"bike_id":"c5de9f04-a68c-4314-9995-789e3d717983","system_id":"levelo_inurba_marseille","lat":43.24398,"lon":5.37075,"is_reserved":false,"is_disabled":true,"rental_uris":{"android":"levelo://app?vid=c5de9f04-a68c-4314-9995-789e3d717983","ios":"levelo://app?vid=c5de9f04-a68c-4314-9995-789e3d717983"},"vehicle_type_id":"4","last_reported":1744481514,"current_range_meters":14000,"station_id":"ce4bhhh2rcd13ifvqfk0","pricing_plan_id":"cebpf4jnsgd1na2vs0mg"},{"bike_id":"7fcde371-d25e-4ece-a5ce-7303f09f0152","system_id":"levelo_inurba_marseille","lat":43.24798,"lon":5.37449,"is_reserved":false,"is_disabled":false,"rental_uris":{"android":"levelo://app?vid=7fcde371-d25e-4ece-a5ce-7303f09f0152","ios":"levelo://app?vid=7fcde371-d25e-4ece-a5ce-7303f09f0152"},"vehicle_type_id":"4","last_reported":1744481514,"current_range_meters":14000,"station_id":"ce4bhgh2rcd13ifvqfb0","pricing_plan_id":"cebpf4jnsgd1na2vs0mg"},{"bike_id":"22735657-f957-47d1-aba1-7c4756644661","system_id":"levelo_inurba_marseille","lat":43.281527,"lon":5.426492,"is_reserved":false,"is_disabled":false,"rental_uris":{"android":"levelo://app?vid=22735657-f957-47d1-aba1-7c4756644661","ios":"levelo://app?vid=22735657-f957-47d1-aba1-7c4756644661"},"vehicle_type_id":"4","last_reported":1744481514,"current_range_meters":14000,"station_id":"ce4bhnh2rcd13ifvqgug","pricing_plan_id":"cebpf4jnsgd1na2vs0mg"},{"bike_id":"a5c42498-573d-4bf6-b5a6-e6a6d09523fd","system_id":"levelo_inurba_marseille","lat":43.29267,"lon":5.38447,"is_reserved":false,"is_disabled":false,"rental_uris":{"android":"levelo://app?vid=a5c42498-573d-4bf6-b5a6-e6a6d09523fd","ios":"levelo://app?vid=a5c42498-573d-4bf6-b5a6-e6a6d09523fd"},"vehicle_type_id":"4","last_reported":1744481514,"current_range_meters":14000,"station_id":"ce4bh692rcd13ifvqea0","pricing_plan_id":"cebpf4jnsgd1na2vs0mg"},{"bike_id":"f81c2cc7-7177-41f0-bdc7-60bc53b8c36a","system_id":"levelo_inurba_marseille","lat":43.29783,"lon":5.39366,"is_reserved":false,"is_disabled":false,"rental_uris":{"android":"levelo://app?vid=f81c2cc7-7177-41f0-bdc7-60bc53b8c36a","ios":"levelo://app?vid=f81c2cc7-7177-41f0-bdc7-60bc53b8c36a"},"vehicle_type_id":"4","last_reported":1744481514,"current_range_meters":14000,"station_id":"chh1huq6cuj3fo74tm60","pricing_plan_id":"cebpf4jnsgd1na2vs0mg"},{"bike_id":"8043ed93-c0e0-4b20-a22a-1ce703744524","system_id":"levelo_inurba_marseille","lat":43.28967,"lon":5.366363,"is_reserved":false,"is_disabled":true,"rental_uris":{"android":"levelo://app?vid=8043ed93-c0e0-4b20-a22a-1ce703744524","ios":"levelo://app?vid=8043ed93-c0e0-4b20-a22a-1ce703744524"},"vehicle_type_id":"4","last_reported":1744481514,"current_range_meters":14000,"station_id":"","pricing_plan_id":"cebpf4jnsgd1na2vs0mg"},{"bike_id":"4809d9ee-737f-42d9-a336-66de5aa2f174","system_id":"levelo_inurba_marseille","lat":43.30607,"lon":5.37231,"is_reserved":false,"is_disabled":false,"rental_uris":{"android":"levelo://app?vid=4809d9ee-737f-42d9-a336-66de5aa2f174","ios":"levelo://app?vid=4809d9ee-737f-42d9-a336-66de5aa2f174"},"vehicle_type_id":"4","last_reported":1744481514,"current_range_meters":14400,"station_id":"ce4bgqh2rcd13ifvqc4g","pricing_plan_id":"cebpf4jnsgd1na2vs0mg"},{"bike_id":"d51a8c93-4a62-49ae-82cb-4bd383d80bde","system_id":"levelo_inurba_marseille","lat":43.28194,"lon":5.42657,"is_reserved":false,"is_disabled":false,"rental_uris":{"android":"levelo://app?vid=d51a8c93-4a62-49ae-82cb-4bd383d80bde","ios":"levelo://app?vid=d51a8c93-4a62-49ae-82cb-4bd383d80bde"},"vehicle_type_id":"4","last_reported":1744481514,"current_range_meters":14400,"station_id":"ce4bhnh2rcd13ifvqgug","pricing_plan_id":"cebpf4jnsgd1na2vs0mg"},{"bike_id":"25641039-7c10-4cce-a770-7c9b3394ef5a","system_id":"levelo_inurba_marseille","lat":43.28705,"lon":5.3999,"is_reserved":false,"is_disabled":false,"rental_uris":{"android":"levelo://app?vid=25641039-7c10-4cce-a770-7c9b3394ef5a","ios":"levelo://app?vid=25641039-7c10-4cce-a770-7c9b3394ef5a"},"vehicle_type_id":"4","last_reported":1744481514,"current_range_meters":14400,"station_id":"ce4bho92rcd13ifvqh3g","pricing_plan_id":"cebpf4jnsgd1na2vs0mg"},{"bike_id":"f9a6ff83-9a72-4423-ad48-fc6e48fccf0d","system_id":"levelo_inurba_marseille","lat":43.22498,"lon":5.34793,"is_reserved":false,"is_disabled":false,"rental_uris":{"android":"levelo://app?vid=f9a6ff83-9a72-4423-ad48-fc6e48fccf0d","ios":"levelo://app?vid=f9a6ff83-9a72-4423-ad48-fc6e48fccf0d"},"vehicle_type_id":"4","last_reported":1744481514,"current_range_meters":14800,"station_id":"ce4bgkp2rcd13ifvqbmg","pricing_plan_id":"cebpf4jnsgd1na2vs0mg"},{"bike_id":"fc40b940-e5be-4350-8b9e-456f0da1c0ca","system_id":"levelo_inurba_marseille","lat":43.29944,"lon":5.36554,"is_reserved":false,"is_disabled":false,"rental_uris":{"android":"levelo://app?vid=fc40b940-e5be-4350-8b9e-456f0da1c0ca","ios":"levelo://app?vid=fc40b940-e5be-4350-8b9e-456f0da1c0ca"},"vehicle_type_id":"4","last_reported":1744481514,"current_range_meters":14800,"station_id":"ce4bgm92rcd13ifvqbr0","pricing_plan_id":"cebpf4jnsgd1na2vs0mg"},{"bike_id":"2df78903-fffc-4291-9c15-86bbc305c54f","system_id":"levelo_inurba_marseille","lat":43.29899,"lon":5.3814,"is_reserved":false,"is_disabled":false,"rental_uris":{"android":"levelo://app?vid=2df78903-fffc-4291-9c15-86bbc305c54f","ios":"levelo://app?vid=2df78903-fffc-4291-9c15-86bbc305c54f"},"vehicle_type_id":"4","last_reported":1744481514,"current_range_meters":14800,"station_id":"ce4bgj12rcd13ifvqbc0","pricing_plan_id":"cebpf4jnsgd1na2vs0mg"},{"bike_id":"89358153-58de-4038-a130-dcc52d01fed6","system_id":"levelo_inurba_marseille","lat":43.29781,"lon":5.381312,"is_reserved":false,"is_disabled":false,"rental_uris":{"android":"levelo://app?vid=89358153-58de-4038-a130-dcc52d01fed6","ios":"levelo://app?vid=89358153-58de-4038-a130-dcc52d01fed6"},"vehicle_type_id":"4","last_reported":1744481514,"current_range_meters":14800,"station_id":"ce4bgvp2rcd13ifvqct0","pricing_plan_id":"cebpf4jnsgd1na2vs0mg"},{"bike_id":"82d38bd3-c046-4f55-aec8-4eb686f05e29","system_id":"levelo_inurba_marseille","lat":43.22979,"lon":5.35411,"is_reserved":false,"is_disabled":true,"rental_uris":{"android":"levelo://app?vid=82d38bd3-c046-4f55-aec8-4eb686f05e29","ios":"levelo://app?vid=82d38bd3-c046-4f55-aec8-4eb686f05e29"},"vehicle_type_id":"4","last_reported":1744481514,"current_range_meters":14800,"station_id":"cpo3532slgdg3j2ikp40","pricing_plan_id":"cebpf4jnsgd1na2vs0mg"},{"bike_id":"05aec8b0-cb6f-4a11-abc6-62f45e219770","system_id":"levelo_inurba_marseille","lat":43.25503,"lon":5.37673,"is_reserved":false,"is_disabled":false,"rental_uris":{"android":"levelo://app?vid=05aec8b0-cb6f-4a11-abc6-62f45e219770","ios":"levelo://app?vid=05aec8b0-cb6f-4a11-abc6-62f45e219770"},"vehicle_type_id":"4","last_reported":1744481514,"current_range_meters":14800,"station_id":"ce4bhh12rcd13ifvqff0","pricing_plan_id":"cebpf4jnsgd1na2vs0mg"},{"bike_id":"ec8b6828-b1a0-4cfb-9bff-4271f2e098ae","system_id":"levelo_inurba_marseille","lat":43.29981,"lon":5.3849,"is_reserved":false,"is_disabled":false,"rental_uris":{"android":"levelo://app?vid=ec8b6828-b1a0-4cfb-9bff-4271f2e098ae","ios":"levelo://app?vid=ec8b6828-b1a0-4cfb-9bff-4271f2e098ae"},"vehicle_type_id":"4","last_reported":1744481514,"current_range_meters":14800,"station_id":"ce4bgj92rcd13ifvqbd0","pricing_plan_id":"cebpf4jnsgd1na2vs0mg"},{"bike_id":"efd328ca-f8bf-4550-bd94-c2fd75978f3c","system_id":"levelo_inurba_marseille","lat":43.33041,"lon":5.38093,"is_reserved":false,"is_disabled":false,"rental_uris":{"android":"levelo://app?vid=efd328ca-f8bf-4550-bd94-c2fd75978f3c","ios":"levelo://app?vid=efd328ca-f8bf-4550-bd94-c2fd75978f3c"},"vehicle_type_id":"4","last_reported":1744481514,"current_range_meters":14800,"station_id":"","pricing_plan_id":"cebpf4jnsgd1na2vs0mg"},{"bike_id":"cd10fe48-9cb9-4e01-99d7-ce8f55ba94f8","system_id":"levelo_inurba_marseille","lat":43.3054,"lon":5.38448,"is_reserved":false,"is_disabled":false,"rental_uris":{"android":"levelo://app?vid=cd10fe48-9cb9-4e01-99d7-ce8f55ba94f8","ios":"levelo://app?vid=cd10fe48-9cb9-4e01-99d7-ce8f55ba94f8"},"vehicle_type_id":"4","last_reported":1744481514,"current_range_meters":15200,"station_id":"ce4bgg92rcd13ifvqb30","pricing_plan_id":"cebpf4jnsgd1na2vs0mg"},{"bike_id":"db9cdcec-b5ee-409b-adf3-2fb9b83088c4","system_id":"levelo_inurba_marseille","lat":43.30998,"lon":5.374,"is_reserved":false,"is_disabled":false,"rental_uris":{"android":"levelo://app?vid=db9cdcec-b5ee-409b-adf3-2fb9b83088c4","ios":"levelo://app?vid=db9cdcec-b5ee-409b-adf3-2fb9b83088c4"},"vehicle_type_id":"4","last_reported":1744481514,"current_range_meters":15200,"station_id":"","pricing_plan_id":"cebpf4jnsgd1na2vs0mg"},{"bike_id":"05f73f0f-8b98-49a5-ba8c-b3bfbc3a10a8","system_id":"levelo_inurba_marseille","lat":43.27996,"lon":5.40013,"is_reserved":false,"is_disabled":false,"rental_uris":{"android":"levelo://app?vid=05f73f0f-8b98-49a5-ba8c-b3bfbc3a10a8","ios":"levelo://app?vid=05f73f0f-8b98-49a5-ba8c-b3bfbc3a10a8"},"vehicle_type_id":"4","last_reported":1744481514,"current_range_meters":15200,"station_id":"ce4bho92rcd13ifvqh4g","pricing_plan_id":"cebpf4jnsgd1na2vs0mg"},{"bike_id":"00773181-4a35-4a74-bfcf-256dbe1e5af5","system_id":"levelo_inurba_marseille","lat":43.30441,"lon":5.39744,"is_reserved":false,"is_disabled":false,"rental_uris":{"android":"levelo://app?vid=00773181-4a35-4a74-bfcf-256dbe1e5af5","ios":"levelo://app?vid=00773181-4a35-4a74-bfcf-256dbe1e5af5"},"vehicle_type_id":"4","last_reported":1744481514,"current_range_meters":15200,"station_id":"ce4bh092rcd13ifvqd20","pricing_plan_id":"cebpf4jnsgd1na2vs0mg"},{"bike_id":"a3bf51d9-08b7-458c-9b6d-ef5680cc95d6","system_id":"levelo_inurba_marseille","lat":43.21781,"lon":5.34618,"is_reserved":false,"is_disabled":true,"rental_uris":{"android":"levelo://app?vid=a3bf51d9-08b7-458c-9b6d-ef5680cc95d6","ios":"levelo://app?vid=a3bf51d9-08b7-458c-9b6d-ef5680cc95d6"},"vehicle_type_id":"4","last_reported":1744481514,"current_range_meters":15200,"station_id":"cpo36qri1sfpv3e86is0","pricing_plan_id":"cebpf4jnsgd1na2vs0mg"},{"bike_id":"f1f59039-b5fe-4e21-98bf-a17c0be7a428","system_id":"levelo_inurba_marseille","lat":43.31268,"lon":5.40171,"is_reserved":false,"is_disabled":false,"rental_uris":{"android":"levelo://app?vid=f1f59039-b5fe-4e21-98bf-a17c0be7a428","ios":"levelo://app?vid=f1f59039-b5fe-4e21-98bf-a17c0be7a428"},"vehicle_type_id":"4","last_reported":1744481514,"current_range_meters":15200,"station_id":"ce4bh092rcd13ifvqd30","pricing_plan_id":"cebpf4jnsgd1na2vs0mg"},{"bike_id":"4bbe6e48-9bfa-4dec-aab0-5597477f7da1","system_id":"levelo_inurba_marseille","lat":43.32412,"lon":5.39141,"is_reserved":false,"is_disabled":false,"rental_uris":{"android":"levelo://app?vid=4bbe6e48-9bfa-4dec-aab0-5597477f7da1","ios":"levelo://app?vid=4bbe6e48-9bfa-4dec-aab0-5597477f7da1"},"vehicle_type_id":"4","last_reported":1744481514,"current_range_meters":15200,"station_id":"","pricing_plan_id":"cebpf4jnsgd1na2vs0mg"},{"bike_id":"3e6b25d8-28f5-449f-b162-99fd1204c274","system_id":"levelo_inurba_marseille","lat":43.23234,"lon":5.35588,"is_reserved":false,"is_disabled":false,"rental_uris":{"android":"levelo://app?vid=3e6b25d8-28f5-449f-b162-99fd1204c274","ios":"levelo://app?vid=3e6b25d8-28f5-449f-b162-99fd1204c274"},"vehicle_type_id":"4","last_reported":1744481514,"current_range_meters":16000,"station_id":"ce4bhu92rcd13ifvqi70","pricing_plan_id":"cebpf4jnsgd1na2vs0mg"},{"bike_id":"f217903b-ab33-4ff9-8b78-ffb80588c0a1","system_id":"levelo_inurba_marseille","lat":43.28076,"lon":5.39664,"is_reserved":false,"is_disabled":false,"rental_uris":{"android":"levelo://app?vid=f217903b-ab33-4ff9-8b78-ffb80588c0a1","ios":"levelo://app?vid=f217903b-ab33-4ff9-8b78-ffb80588c0a1"},"vehicle_type_id":"4","last_reported":1744481514,"current_range_meters":16000,"station_id":"ce4bho12rcd13ifvqh2g","pricing_plan_id":"cebpf4jnsgd1na2vs0mg"},{"bike_id":"020e9999-d552-48d0-ae5f-b725af0dbea2","system_id":"levelo_inurba_marseille","lat":43.29926,"lon":5.4381,"is_reserved":false,"is_disabled":false,"rental_uris":{"android":"levelo://app?vid=020e9999-d552-48d0-ae5f-b725af0dbea2","ios":"levelo://app?vid=020e9999-d552-48d0-ae5f-b725af0dbea2"},"vehicle_type_id":"4","last_reported":1744481514,"current_range_meters":16000,"station_id":"","pricing_plan_id":"cebpf4jnsgd1na2vs0mg"},{"bike_id":"bd383b3b-c57a-4a5b-9bb2-a76349a0e612","system_id":"levelo_inurba_marseille","lat":43.31178,"lon":5.38722,"is_reserved":false,"is_disabled":false,"rental_uris":{"android":"levelo://app?vid=bd383b3b-c57a-4a5b-9bb2-a76349a0e612","ios":"levelo://app?vid=bd383b3b-c57a-4a5b-9bb2-a76349a0e612"},"vehicle_type_id":"4","last_reported":1744481514,"current_range_meters":16000,"station_id":"ce4bgv12rcd13ifvqcp0","pricing_plan_id":"cebpf4jnsgd1na2vs0mg"},{"bike_id":"31e6a625-f498-4082-84c6-5b6655228dc3","system_id":"levelo_inurba_marseille","lat":43.2791,"lon":5.39591,"is_reserved":false,"is_disabled":false,"rental_uris":{"android":"levelo://app?vid=31e6a625-f498-4082-84c6-5b6655228dc3","ios":"levelo://app?vid=31e6a625-f498-4082-84c6-5b6655228dc3"},"vehicle_type_id":"4","last_reported":1744481514,"current_range_meters":16000,"station_id":"ce4bhf92rcd13ifvqf40","pricing_plan_id":"cebpf4jnsgd1na2vs0mg"},{"bike_id":"0eceb99a-0069-41ae-adf2-70785bb6a0d7","system_id":"levelo_inurba_marseille","lat":43.26555,"lon":5.37297,"is_reserved":false,"is_disabled":false,"rental_uris":{"android":"levelo://app?vid=0eceb99a-0069-41ae-adf2-70785bb6a0d7","ios":"levelo://app?vid=0eceb99a-0069-41ae-adf2-70785bb6a0d7"},"vehicle_type_id":"4","last_reported":1744481514,"current_range_meters":16000,"station_id":"ce4bhg12rcd13ifvqf70","pricing_plan_id":"cebpf4jnsgd1na2vs0mg"},{"bike_id":"73bbc97d-2b39-4276-bc22-fd7aa78f429c","system_id":"levelo_inurba_marseille","lat":43.29897,"lon":5.43674,"is_reserved":false,"is_disabled":false,"rental_uris":{"android":"levelo://app?vid=73bbc97d-2b39-4276-bc22-fd7aa78f429c","ios":"levelo://app?vid=73bbc97d-2b39-4276-bc22-fd7aa78f429c"},"vehicle_type_id":"4","last_reported":1744481514,"current_range_meters":16000,"station_id":"ce4bhpp2rcd13ifvqhfg","pricing_plan_id":"cebpf4jnsgd1na2vs0mg"},{"bike_id":"d31239fe-66af-42f0-9586-6db1cb21187d","system_id":"levelo_inurba_marseille","lat":43.271758,"lon":5.409908,"is_reserved":false,"is_disabled":false,"rental_uris":{"android":"levelo://app?vid=d31239fe-66af-42f0-9586-6db1cb21187d","ios":"levelo://app?vid=d31239fe-66af-42f0-9586-6db1cb21187d"},"vehicle_type_id":"4","last_reported":1744481514,"current_range_meters":16000,"station_id":"ce4bhl12rcd13ifvqgf0","pricing_plan_id":"cebpf4jnsgd1na2vs0mg"},{"bike_id":"b55dd5e7-54b2-4035-b945-7b626dd7afc7","system_id":"levelo_inurba_marseille","lat":43.27571,"lon":5.40978,"is_reserved":false,"is_disabled":false,"rental_uris":{"android":"levelo://app?vid=b55dd5e7-54b2-4035-b945-7b626dd7afc7","ios":"levelo://app?vid=b55dd5e7-54b2-4035-b945-7b626dd7afc7"},"vehicle_type_id":"4","last_reported":1744481514,"current_range_meters":16400,"station_id":"","pricing_plan_id":"cebpf4jnsgd1na2vs0mg"},{"bike_id":"982bb1bc-457f-43d7-ae21-85035c856353","system_id":"levelo_inurba_marseille","lat":43.22492,"lon":5.34785,"is_reserved":false,"is_disabled":false,"rental_uris":{"android":"levelo://app?vid=982bb1bc-457f-43d7-ae21-85035c856353","ios":"levelo://app?vid=982bb1bc-457f-43d7-ae21-85035c856353"},"vehicle_type_id":"4","last_reported":1744481514,"current_range_meters":16400,"station_id":"st_cvj5dfep6f1abm77gieg","pricing_plan_id":"cebpf4jnsgd1na2vs0mg"},{"bike_id":"d8b9884b-4022-4710-9f87-50e0dbfd421d","system_id":"levelo_inurba_marseille","lat":43.24165,"lon":5.36401,"is_reserved":false,"is_disabled":false,"rental_uris":{"android":"levelo://app?vid=d8b9884b-4022-4710-9f87-50e0dbfd421d","ios":"levelo://app?vid=d8b9884b-4022-4710-9f87-50e0dbfd421d"},"vehicle_type_id":"4","last_reported":1744481514,"current_range_meters":16400,"station_id":"cpo36qri1sfpv3e86is0","pricing_plan_id":"cebpf4jnsgd1na2vs0mg"},{"bike_id":"5591936e-ca63-41c7-89f3-9c9493c86f89","system_id":"levelo_inurba_marseille","lat":43.24183,"lon":5.36394,"is_reserved":false,"is_disabled":false,"rental_uris":{"android":"levelo://app?vid=5591936e-ca63-41c7-89f3-9c9493c86f89","ios":"levelo://app?vid=5591936e-ca63-41c7-89f3-9c9493c86f89"},"vehicle_type_id":"4","last_reported":1744481514,"current_range_meters":16400,"station_id":"cpo36qri1sfpv3e86is0","pricing_plan_id":"cebpf4jnsgd1na2vs0mg"},{"bike_id":"75f7890e-eb67-424e-a32e-7066a70a9353","system_id":"levelo_inurba_marseille","lat":43.25086,"lon":5.39515,"is_reserved":false,"is_disabled":false,"rental_uris":{"android":"levelo://app?vid=75f7890e-eb67-424e-a32e-7066a70a9353","ios":"levelo://app?vid=75f7890e-eb67-424e-a32e-7066a70a9353"},"vehicle_type_id":"4","last_reported":1744481514,"current_range_meters":16400,"station_id":"ce4bhm12rcd13ifvqgkg","pricing_plan_id":"cebpf4jnsgd1na2vs0mg"},{"bike_id":"dcac08e6-6833-4011-ac11-7c11fa74fe6b","system_id":"levelo_inurba_marseille","lat":43.29706,"lon":5.37703,"is_reserved":false,"is_disabled":false,"rental_uris":{"android":"levelo://app?vid=dcac08e6-6833-4011-ac11-7c11fa74fe6b","ios":"levelo://app?vid=dcac08e6-6833-4011-ac11-7c11fa74fe6b"},"vehicle_type_id":"4","last_reported":1744481514,"current_range_meters":16800,"station_id":"ce4bgkh2rcd13ifvqbl0","pricing_plan_id":"cebpf4jnsgd1na2vs0mg"},{"bike_id":"f44be64b-6eee-4b45-a654-c0b4597bf03b","system_id":"levelo_inurba_marseille","lat":43.29302,"lon":5.37184,"is_reserved":false,"is_disabled":false,"rental_uris":{"android":"levelo://app?vid=f44be64b-6eee-4b45-a654-c0b4597bf03b","ios":"levelo://app?vid=f44be64b-6eee-4b45-a654-c0b4597bf03b"},"vehicle_type_id":"4","last_reported":1744481514,"current_range_meters":16800,"station_id":"ce4bgh92rcd13ifvqb40","pricing_plan_id":"cebpf4jnsgd1na2vs0mg"},{"bike_id":"37b59c3b-7a42-4750-8879-a6c1ced806c6","system_id":"levelo_inurba_marseille","lat":43.30948,"lon":5.39038,"is_reserved":false,"is_disabled":false,"rental_uris":{"android":"levelo://app?vid=37b59c3b-7a42-4750-8879-a6c1ced806c6","ios":"levelo://app?vid=37b59c3b-7a42-4750-8879-a6c1ced806c6"},"vehicle_type_id":"4","last_reported":1744481514,"current_range_meters":16800,"station_id":"ce4bgup2rcd13ifvqco0","pricing_plan_id":"cebpf4jnsgd1na2vs0mg"},{"bike_id":"430abd17-c3a8-4db3-ba8b-e29995b1da2b","system_id":"levelo_inurba_marseille","lat":43.29879,"lon":5.38898,"is_reserved":false,"is_disabled":false,"rental_uris":{"android":"levelo://app?vid=430abd17-c3a8-4db3-ba8b-e29995b1da2b","ios":"levelo://app?vid=430abd17-c3a8-4db3-ba8b-e29995b1da2b"},"vehicle_type_id":"4","last_reported":1744481514,"current_range_meters":16800,"station_id":"ce4bh392rcd13ifvqdl0","pricing_plan_id":"cebpf4jnsgd1na2vs0mg"},{"bike_id":"2fc88268-9338-4674-a8f4-36dfb8363ca0","system_id":"levelo_inurba_marseille","lat":43.21217,"lon":5.35103,"is_reserved":false,"is_disabled":true,"rental_uris":{"android":"levelo://app?vid=2fc88268-9338-4674-a8f4-36dfb8363ca0","ios":"levelo://app?vid=2fc88268-9338-4674-a8f4-36dfb8363ca0"},"vehicle_type_id":"4","last_reported":1744481514,"current_range_meters":16800,"station_id":"st_cvj6sg6p6f1abm77japg","pricing_plan_id":"cebpf4jnsgd1na2vs0mg"},{"bike_id":"ea3e768e-1755-4094-bc4d-6a71da124ce1","system_id":"levelo_inurba_marseille","lat":43.30214,"lon":5.39461,"is_reserved":false,"is_disabled":false,"rental_uris":{"android":"levelo://app?vid=ea3e768e-1755-4094-bc4d-6a71da124ce1","ios":"levelo://app?vid=ea3e768e-1755-4094-bc4d-6a71da124ce1"},"vehicle_type_id":"4","last_reported":1744481514,"current_range_meters":16800,"station_id":"ce4bh0p2rcd13ifvqd70","pricing_plan_id":"cebpf4jnsgd1na2vs0mg"},