{"last_updated":1732540822,"ttl":60,"version":"2.2","data":{"bikes":[{"bike_id":"b2e74cc8-a2bf-4290-a8c7-0eca44fa6b27","system_id":"levelo_inurba_marseille","lat":43.29261,"lon":5.38451,"is_reserved":false,"is_disabled":false,"rental_uris":{"android":"levelo://app?vid=b2e74cc8-a2bf-4290-a8c7-0eca44fa6b27","ios":"levelo://app?vid=b2e74cc8-a2bf-4290-a8c7-0eca44fa6b27"},"vehicle_type_id":"4","last_reported":1732540822,"current_range_meters":31200,"station_id":"ce4bh692rcd13ifvqea0","pricing_plan_id":"cebpf4jnsgd1na2vs0mg"},{"bike_id":"28d88fa4-3af7-4b3d-8041-0e91653920e6","system_id":"levelo_inurba_marseille","lat":43.32469,"lon":5.41966,"is_reserved":false,"is_disabled":false,"rental_uris":{"android":"levelo://app?vid=28d88fa4-3af7-4b3d-8041-0e91653920e6","ios":"levelo://app?vid=28d88fa4-3af7-4b3d-8041-0e91653920e6"},"vehicle_type_id":"4","last_reported":1732540822,"current_range_meters":23200,"station_id":"","pricing_plan_id":"cebpf4jnsgd1na2vs0mg"},{"bike_id":"ce7ec125-e5e1-4f1c-9ffa-2776a8995d05","system_id":"levelo_inurba_marseille","lat":43.2707,"lon":5.42279,"is_reserved":false,"is_disabled":true,"rental_uris":{"android":"levelo://app?vid=ce7ec125-e5e1-4f1c-9ffa-2776a8995d05","ios":"levelo://app?vid=ce7ec125-e5e1-4f1c-9ffa-2776a8995d05"},"vehicle_type_id":"4","last_reported":1732540822,"current_range_meters":0,"station_id":"ce4bhk92rcd13ifvqgb0","pricing_plan_id":"cebpf4jnsgd1na2vs0mg"},{"bike_id":"d04a64e3-4506-4f88-bc03-3626f3cf4256","system_id":"levelo_inurba_marseille","lat":43.28933,"lon":5.36642,"is_reserved":false,"is_disabled":false,"rental_uris":{"android":"levelo://app?vid=d04a64e3-4506-4f88-bc03-3626f3cf4256","ios":"levelo://app?vid=d04a64e3-4506-4f88-bc03-3626f3cf4256"},"vehicle_type_id":"4","last_reported":1732540822,"current_range_meters":10000,"station_id":"ce4bhap2rcd13ifvqek0","pricing_plan_id":"cebpf4jnsgd1na2vs0mg"},{"bike_id":"dad9e197-4927-4fd9-8cfb-d1c31e46b32c","system_id":"levelo_inurba_marseille","lat":43.25941,"lon":5.40903,"is_reserved":false,"is_disabled":false,"rental_uris":{"android":"levelo://app?vid=dad9e197-4927-4fd9-8cfb-d1c31e46b32c","ios":"levelo://app?vid=dad9e197-4927-4fd9-8cfb-d1c31e46b32c"},"vehicle_type_id":"4","last_reported":1732540822,"current_range_meters":22800,"station_id":"ce4bhm92rcd13ifvqglg","pricing_plan_id":"cebpf4jnsgd1na2vs0mg"},{"bike_id":"56c1edd5-c3de-4466-b792-39e4ae5dffc6","system_id":"levelo_inurba_marseille","lat":43.30802,"lon":5.38156,"is_reserved":false,"is_disabled":false,"rental_uris":{"android":"levelo://app?vid=56c1edd5-c3de-4466-b792-39e4ae5dffc6","ios":"levelo://app?vid=56c1edd5-c3de-4466-b792-39e4ae5dffc6"},"vehicle_type_id":"4","last_reported":1732540822,"current_range_meters":13600,"station_id":"ce4bgt12rcd13ifvqce0","pricing_plan_id":"cebpf4jnsgd1na2vs0mg"},{"bike_id":"22e0baad-633e-463e-91b2-39096c105117","system_id":"levelo_inurba_marseille","lat":43.28568,"lon":5.39499,"is_reserved":false,"is_disabled":true,"rental_uris":{"android":"levelo://app?vid=22e0baad-633e-463e-91b2-39096c105117","ios":"levelo://app?vid=22e0baad-633e-463e-91b2-39096c105117"},"vehicle_type_id":"4","last_reported":1732540822,"current_range_meters":38800,"station_id":"ce4bh292rcd13ifvqdg0","pricing_plan_id":"cebpf4jnsgd1na2vs0mg"},{"bike_id":"cbbc468e-1827-42d6-92e1-0be22c5a8ddd","system_id":"levelo_inurba_marseille","lat":43.29291,"lon":5.37461,"is_reserved":false,"is_disabled":false,"rental_uris":{"android":"levelo://app?vid=cbbc468e-1827-42d6-92e1-0be22c5a8ddd","ios":"levelo://app?vid=cbbc468e-1827-42d6-92e1-0be22c5a8ddd"},"vehicle_type_id":"4","last_reported":1732540822,"current_range_meters":25200,"station_id":"ce4bgi12rcd13ifvqb70","pricing_plan_id":"cebpf4jnsgd1na2vs0mg"},{"bike_id":"b321a489-0b5d-4df3-be9c-10997b313f60","system_id":"levelo_inurba_marseille","lat":43.28344,"lon":5.38114,"is_reserved":false,"is_disabled":false,"rental_uris":{"android":"levelo://app?vid=b321a489-0b5d-4df3-be9c-10997b313f60","ios":"levelo://app?vid=b321a489-0b5d-4df3-be9c-10997b313f60"},"vehicle_type_id":"4","last_reported":1732540822,"current_range_meters":27200,"station_id":"ce4bh412rcd13ifvqdr0","pricing_plan_id":"cebpf4jnsgd1na2vs0mg"},{"bike_id":"f749b923-0d74-4a19-b3d0-d641c49d98e9","system_id":"levelo_inurba_marseille","lat":43.29617,"lon":5.37722,"is_reserved":false,"is_disabled":false,"rental_uris":{"android":"levelo://app?vid=f749b923-0d74-4a19-b3d0-d641c49d98e9","ios":"levelo://app?vid=f749b923-0d74-4a19-b3d0-d641c49d98e9"},"vehicle_type_id":"4","last_reported":1732540822,"current_range_meters":28400,"station_id":"ce4bgi92rcd13ifvqb90","pricing_plan_id":"cebpf4jnsgd1na2vs0mg"},{"bike_id":"94527a76-0bb1-4146-9d66-5a02656d021d","system_id":"levelo_inurba_marseille","lat":43.28156,"lon":5.42644,"is_reserved":false,"is_disabled":false,"rental_uris":{"android":"levelo://app?vid=94527a76-0bb1-4146-9d66-5a02656d021d","ios":"levelo://app?vid=94527a76-0bb1-4146-9d66-5a02656d021d"},"vehicle_type_id":"4","last_reported":1732540822,"current_range_meters":10800,"station_id":"ce4bhnh2rcd13ifvqgug","pricing_plan_id":"cebpf4jnsgd1na2vs0mg"},{"bike_id":"94b05f50-3248-4c2e-bc8c-06f23f2b16eb","system_id":"levelo_inurba_marseille","lat":43.31355,"lon":5.36702,"is_reserved":false,"is_disabled":false,"rental_uris":{"android":"levelo://app?vid=94b05f50-3248-4c2e-bc8c-06f23f2b16eb","ios":"levelo://app?vid=94b05f50-3248-4c2e-bc8c-06f23f2b16eb"},"vehicle_type_id":"4","last_reported":1732540822,"current_range_meters":38800,"station_id":"ce4bgr92rcd13ifvqc6g","pricing_plan_id":"cebpf4jnsgd1na2vs0mg"},{"bike_id":"b89d35ab-5cdc-41cc-a264-c22819d20250","system_id":"levelo_inurba_marseille","lat":43.32539,"lon":5.41441,"is_reserved":false,"is_disabled":false,"rental_uris":{"android":"levelo://app?vid=b89d35ab-5cdc-41cc-a264-c22819d20250","ios":"levelo://app?vid=b89d35ab-5cdc-41cc-a264-c22819d20250"},"vehicle_type_id":"4","last_reported":1732540822,"current_range_meters":38800,"station_id":"ce4bhq12rcd13ifvqhhg","pricing_plan_id":"cebpf4jnsgd1na2vs0mg"},{"bike_id":"38c8da38-5d94-4091-8e02-5de273b8fd72","system_id":"levelo_inurba_marseille","lat":43.30423,"lon":5.3975,"is_reserved":false,"is_disabled":false,"rental_uris":{"android":"levelo://app?vid=38c8da38-5d94-4091-8e02-5de273b8fd72","ios":"levelo://app?vid=38c8da38-5d94-4091-8e02-5de273b8fd72"},"vehicle_type_id":"4","last_reported":1732540822,"current_range_meters":29600,"station_id":"ce4bh092rcd13ifvqd20","pricing_plan_id":"cebpf4jnsgd1na2vs0mg"},{"bike_id":"664bac7a-5b45-4a12-b317-fc998d64cc14","system_id":"levelo_inurba_marseille","lat":43.30258,"lon":5.40081,"is_reserved":false,"is_disabled":false,"rental_uris":{"android":"levelo://app?vid=664bac7a-5b45-4a12-b317-fc998d64cc14","ios":"levelo://app?vid=664bac7a-5b45-4a12-b317-fc998d64cc14"},"vehicle_type_id":"4","last_reported":1732540822,"current_range_meters":19200,"station_id":"ce4bgvh2rcd13ifvqcs0","pricing_plan_id":"cebpf4jnsgd1na2vs0mg"},{"bike_id":"1d480d76-bb73-4781-930a-16c68fdce680","system_id":"levelo_inurba_marseille","lat":43.25576,"lon":5.38233,"is_reserved":false,"is_disabled":false,"rental_uris":{"android":"levelo://app?vid=1d480d76-bb73-4781-930a-16c68fdce680","ios":"levelo://app?vid=1d480d76-bb73-4781-930a-16c68fdce680"},"vehicle_type_id":"4","last_reported":1732540822,"current_range_meters":28000,"station_id":"ce4bhih2rcd13ifvqfs0","pricing_plan_id":"cebpf4jnsgd1na2vs0mg"},{"bike_id":"d5f4879c-4dae-42ac-a7d5-9a65246905af","system_id":"levelo_inurba_marseille","lat":43.25868,"lon":5.39907,"is_reserved":false,"is_disabled":false,"rental_uris":{"android":"levelo://app?vid=d5f4879c-4dae-42ac-a7d5-9a65246905af","ios":"levelo://app?vid=d5f4879c-4dae-42ac-a7d5-9a65246905af"},"vehicle_type_id":"4","last_reported":1732540822,"current_range_meters":24000,"station_id":"ce4bhl92rcd13ifvqghg","pricing_plan_id":"cebpf4jnsgd1na2vs0mg"},{"bike_id":"adc08610-d3a3-460a-9217-98bda7f16d04","system_id":"levelo_inurba_marseille","lat":43.29936,"lon":5.36549,"is_reserved":false,"is_disabled":false,"rental_uris":{"android":"levelo://app?vid=adc08610-d3a3-460a-9217-98bda7f16d04","ios":"levelo://app?vid=adc08610-d3a3-460a-9217-98bda7f16d04"},"vehicle_type_id":"4","last_reported":1732540822,"current_range_meters":24800,"station_id":"ce4bgm92rcd13ifvqbr0","pricing_plan_id":"cebpf4jnsgd1na2vs0mg"},{"bike_id":"30585094-ecfe-43ac-ae36-000c4a5ab426","system_id":"levelo_inurba_marseille","lat":43.30957,"lon":5.39053,"is_reserved":false,"is_disabled":true,"rental_uris":{"android":"levelo://app?vid=30585094-ecfe-43ac-ae36-000c4a5ab426","ios":"levelo://app?vid=30585094-ecfe-43ac-ae36-000c4a5ab426"},"vehicle_type_id":"4","last_reported":1732540822,"current_range_meters":16800,"station_id":"ce4bgup2rcd13ifvqco0","pricing_plan_id":"cebpf4jnsgd1na2vs0mg"},{"bike_id":"79d97415-f46c-407d-beb7-c907029e0feb","system_id":"levelo_inurba_marseille","lat":43.25102,"lon":5.40325,"is_reserved":false,"is_disabled":false,"rental_uris":{"android":"levelo://app?vid=79d97415-f46c-407d-beb7-c907029e0feb","ios":"levelo://app?vid=79d97415-f46c-407d-beb7-c907029e0feb"},"vehicle_type_id":"4","last_reported":1732540822,"current_range_meters":39200,"station_id":"ce4bhlh2rcd13ifvqgig","pricing_plan_id":"cebpf4jnsgd1na2vs0mg"},{"bike_id":"39b11e64-2962-470f-8250-90fe18d4a5f4","system_id":"levelo_inurba_marseille","lat":43.24721,"lon":5.39299,"is_reserved":false,"is_disabled":true,"rental_uris":{"android":"levelo://app?vid=39b11e64-2962-470f-8250-90fe18d4a5f4","ios":"levelo://app?vid=39b11e64-2962-470f-8250-90fe18d4a5f4"},"vehicle_type_id":"4","last_reported":1732540822,"current_range_meters":0,"station_id":"","pricing_plan_id":"cebpf4jnsgd1na2vs0mg"},{"bike_id":"96bdc386-972d-4abf-bdbc-fce33197b4f3","system_id":"levelo_inurba_marseille","lat":43.26682,"lon":5.38263,"is_reserved":false,"is_disabled":false,"rental_uris":{"android":"levelo://app?vid=96bdc386-972d-4abf-bdbc-fce33197b4f3","ios":"levelo://app?vid=96bdc386-972d-4abf-bdbc-fce33197b4f3"},"vehicle_type_id":"4","last_reported":1732540822,"current_range_meters":34800,"station_id":"ce4bhg92rcd13ifvqf90","pricing_plan_id":"cebpf4jnsgd1na2vs0mg"},{"bike_id":"48c65e97-1516-4538-82d5-5272854a7544","system_id":"levelo_inurba_marseille","lat":43.324798,"lon":5.365686,"is_reserved":false,"is_disabled":false,"rental_uris":{"android":"levelo://app?vid=48c65e97-1516-4538-82d5-5272854a7544","ios":"levelo://app?vid=48c65e97-1516-4538-82d5-5272854a7544"},"vehicle_type_id":"4","last_reported":1732540822,"current_range_meters":38000,"station_id":"ce4bhs12rcd13ifvqhvg","pricing_plan_id":"cebpf4jnsgd1na2vs0mg"},{"bike_id":"3ade58a9-2491-481a-86c5-e1c95f66dde0","system_id":"levelo_inurba_marseille","lat":43.24074,"lon":5.37762,"is_reserved":false,"is_disabled":true,"rental_uris":{"android":"levelo://app?vid=3ade58a9-2491-481a-86c5-e1c95f66dde0","ios":"levelo://app?vid=3ade58a9-2491-481a-86c5-e1c95f66dde0"},"vehicle_type_id":"4","last_reported":1732540822,"current_range_meters":25600,"station_id":"ce4bhnp2rcd13ifvqgvg","pricing_plan_id":"cebpf4jnsgd1na2vs0mg"},{"bike_id":"e210e30a-ad04-4562-ac2e-52e3c8943e0e","system_id":"levelo_inurba_marseille","lat":43.24388,"lon":5.37056,"is_reserved":false,"is_disabled":false,"rental_uris":{"android":"levelo://app?vid=e210e30a-ad04-4562-ac2e-52e3c8943e0e","ios":"levelo://app?vid=e210e30a-ad04-4562-ac2e-52e3c8943e0e"},"vehicle_type_id":"4","last_reported":1732540822,"current_range_meters":28800,"station_id":"ce4bhhh2rcd13ifvqfk0","pricing_plan_id":"cebpf4jnsgd1na2vs0mg"},{"bike_id":"1dc48c55-1fe9-4286-ae92-825c2ed7ad05","system_id":"levelo_inurba_marseille","lat":43.29594,"lon":5.38099,"is_reserved":false,"is_disabled":false,"rental_uris":{"android":"levelo://app?vid=1dc48c55-1fe9-4286-ae92-825c2ed7ad05","ios":"levelo://app?vid=1dc48c55-1fe9-4286-ae92-825c2ed7ad05"},"vehicle_type_id":"4","last_reported":1732540822,"current_range_meters":25600,"station_id":"ce4bgl12rcd13ifvqbo0","pricing_plan_id":"cebpf4jnsgd1na2vs0mg"},{"bike_id":"9c9d48fb-d109-47b1-86d8-c2eb469b4acc","system_id":"levelo_inurba_marseille","lat":43.25118,"lon":5.40317,"is_reserved":false,"is_disabled":false,"rental_uris":{"android":"levelo://app?vid=9c9d48fb-d109-47b1-86d8-c2eb469b4acc","ios":"levelo://app?vid=9c9d48fb-d109-47b1-86d8-c2eb469b4acc"},"vehicle_type_id":"4","last_reported":1732540822,"current_range_meters":9600,"station_id":"ce4bhlh2rcd13ifvqgig","pricing_plan_id":"cebpf4jnsgd1na2vs0mg"},{"bike_id":"e55d71d0-970e-4e17-ba14-4482cf574a53","system_id":"levelo_inurba_marseille","lat":43.33202,"lon":5.40371,"is_reserved":false,"is_disabled":false,"rental_uris":{"android":"levelo://app?vid=e55d71d0-970e-4e17-ba14-4482cf574a53","ios":"levelo://app?vid=e55d71d0-970e-4e17-ba14-4482cf574a53"},"vehicle_type_id":"4","last_reported":1732540822,"current_range_meters":33200,"station_id":"","pricing_plan_id":"cebpf4jnsgd1na2vs0mg"},{"bike_id":"39772c2f-fe87-4f2b-a94f-704958df3c08","system_id":"levelo_inurba_marseille","lat":43.23146,"lon":5.43723,"is_reserved":false,"is_disabled":false,"rental_uris":{"android":"levelo://app?vid=39772c2f-fe87-4f2b-a94f-704958df3c08","ios":"levelo://app?vid=39772c2f-fe87-4f2b-a94f-704958df3c08"},"vehicle_type_id":"4","last_reported":1732540822,"current_range_meters":38800,"station_id":"ce4bhmp2rcd13ifvqgog","pricing_plan_id":"cebpf4jnsgd1na2vs0mg"},{"bike_id":"ac900afd-aaf6-4f27-b735-71f2f8575bce","system_id":"levelo_inurba_marseille","lat":43.29287,"lon":5.37184,"is_reserved":false,"is_disabled":false,"rental_uris":{"android":"levelo://app?vid=ac900afd-aaf6-4f27-b735-71f2f8575bce","ios":"levelo://app?vid=ac900afd-aaf6-4f27-b735-71f2f8575bce"},"vehicle_type_id":"4","last_reported":1732540822,"current_range_meters":37600,"station_id":"ce4bgh92rcd13ifvqb40","pricing_plan_id":"cebpf4jnsgd1na2vs0mg"},{"bike_id":"f42dcf9b-16ab-40c7-9a17-1509929eb3ba","system_id":"levelo_inurba_marseille","lat":43.30427,"lon":5.38836,"is_reserved":false,"is_disabled":false,"rental_uris":{"android":"levelo://app?vid=f42dcf9b-16ab-40c7-9a17-1509929eb3ba","ios":"levelo://app?vid=f42dcf9b-16ab-40c7-9a17-1509929eb3ba"},"vehicle_type_id":"4","last_reported":1732540822,"current_range_meters":6800,"station_id":"ce4bgk12rcd13ifvqbi0","pricing_plan_id":"cebpf4jnsgd1na2vs0mg"},{"bike_id":"26ec1a22-5020-45e4-ab45-512c7f67d5dd","system_id":"levelo_inurba_marseille","lat":43.32054,"lon":5.41544,"is_reserved":false,"is_disabled":true,"rental_uris":{"android":"levelo://app?vid=26ec1a22-5020-45e4-ab45-512c7f67d5dd","ios":"levelo://app?vid=26ec1a22-5020-45e4-ab45-512c7f67d5dd"},"vehicle_type_id":"4","last_reported":1732540822,"current_range_meters":36400,"station_id":"ce4bhq92rcd13ifvqhkg","pricing_plan_id":"cebpf4jnsgd1na2vs0mg"},{"bike_id":"b896b3fa-f4ac-48e1-ac68-7c857049e2a8","system_id":"levelo_inurba_marseille","lat":43.26925,"lon":5.38916,"is_reserved":false,"is_disabled":false,"rental_uris":{"android":"levelo://app?vid=b896b3fa-f4ac-48e1-ac68-7c857049e2a8","ios":"levelo://app?vid=b896b3fa-f4ac-48e1-ac68-7c857049e2a8"},"vehicle_type_id":"4","last_reported":1732540822,"current_range_meters":14000,"station_id":"ce4bhhh2rcd13ifvqfl0","pricing_plan_id":"cebpf4jnsgd1na2vs0mg"},{"bike_id":"1daf88ed-52d0-49f0-9530-529b07a45643","system_id":"levelo_inurba_marseille","lat":43.29966,"lon":5.41323,"is_reserved":false,"is_disabled":false,"rental_uris":{"android":"levelo://app?vid=1daf88ed-52d0-49f0-9530-529b07a45643","ios":"levelo://app?vid=1daf88ed-52d0-49f0-9530-529b07a45643"},"vehicle_type_id":"4","last_reported":1732540822,"current_range_meters":29600,"station_id":"ce4bhp12rcd13ifvqh9g","pricing_plan_id":"cebpf4jnsgd1na2vs0mg"},{"bike_id":"ac3e3ce9-6821-47c5-92da-55498be4bacb","system_id":"levelo_inurba_marseille","lat":43.30462,"lon":5.37907,"is_reserved":false,"is_disabled":false,"rental_uris":{"android":"levelo://app?vid=ac3e3ce9-6821-47c5-92da-55498be4bacb","ios":"levelo://app?vid=ac3e3ce9-6821-47c5-92da-55498be4bacb"},"vehicle_type_id":"4","last_reported":1732540822,"current_range_meters":21600,"station_id":"ce4bgup2rcd13ifvqcn0","pricing_plan_id":"cebpf4jnsgd1na2vs0mg"},{"bike_id":"025fb27c-4b94-4477-ba0e-4c2b49d7e280","system_id":"levelo_inurba_marseille","lat":43.2695,"lon":5.38646,"is_reserved":false,"is_disabled":false,"rental_uris":{"android":"levelo://app?vid=025fb27c-4b94-4477-ba0e-4c2b49d7e280","ios":"levelo://app?vid=025fb27c-4b94-4477-ba0e-4c2b49d7e280"},"vehicle_type_id":"4","last_reported":1732540822,"current_range_meters":36400,"station_id":"ce4bhh92rcd13ifvqfh0","pricing_plan_id":"cebpf4jnsgd1na2vs0mg"},{"bike_id":"0746b5f0-2d59-4bef-91bd-e79861b0f67a","system_id":"levelo_inurba_marseille","lat":43.26677,"lon":5.3827,"is_reserved":false,"is_disabled":false,"rental_uris":{"android":"levelo://app?vid=0746b5f0-2d59-4bef-91bd-e79861b0f67a","ios":"levelo://app?vid=0746b5f0-2d59-4bef-91bd-e79861b0f67a"},"vehicle_type_id":"4","last_reported":1732540822,"current_range_meters":10800,"station_id":"ce4bhg92rcd13ifvqf90","pricing_plan_id":"cebpf4jnsgd1na2vs0mg"},{"bike_id":"04da06a4-426a-4eff-a654-4b477ce2de11","system_id":"levelo_inurba_marseille","lat":43.337444,"lon":5.374475,"is_reserved":false,"is_disabled":false,"rental_uris":{"android":"levelo://app?vid=04da06a4-426a-4eff-a654-4b477ce2de11","ios":"levelo://app?vid=04da06a4-426a-4eff-a654-4b477ce2de11"},"vehicle_type_id":"4","last_reported":1732540822,"current_range_meters":38800,"station_id":"","pricing_plan_id":"cebpf4jnsgd1na2vs0mg"},{"bike_id":"1e126baa-22b4-4cf7-a05e-1c0611873009","system_id":"levelo_inurba_marseille","lat":43.311192,"lon":5.377708,"is_reserved":false,"is_disabled":true,"rental_uris":{"android":"levelo://app?vid=1e126baa-22b4-4cf7-a05e-1c0611873009","ios":"levelo://app?vid=1e126baa-22b4-4cf7-a05e-1c0611873009"},"vehicle_type_id":"4","last_reported":1732540822,"current_range_meters":0,"station_id":"","pricing_plan_id":"cebpf4jnsgd1na2vs0mg"},{"bike_id":"3b404c14-fc81-4079-a572-3e63d11bae1e","system_id":"levelo_inurba_marseille","lat":43.30461,"lon":5.37905,"is_reserved":false,"is_disabled":false,"rental_uris":{"android":"levelo://app?vid=3b404c14-fc81-4079-a572-3e63d11bae1e","ios":"levelo://app?vid=3b404c14-fc81-4079-a572-3e63d11bae1e"},"vehicle_type_id":"4","last_reported":1732540822,"current_range_meters":24800,"station_id":"ce4bgup2rcd13ifvqcn0","pricing_plan_id":"cebpf4jnsgd1na2vs0mg"},{"bike_id":"5fd30806-da51-442b-8144-9a2d599e3a02","system_id":"levelo_inurba_marseille","lat":43.30804,"lon":5.38151,"is_reserved":false,"is_disabled":false,"rental_uris":{"android":"levelo://app?vid=5fd30806-da51-442b-8144-9a2d599e3a02","ios":"levelo://app?vid=5fd30806-da51-442b-8144-9a2d599e3a02"},"vehicle_type_id":"4","last_reported":1732540822,"current_range_meters":28000,"station_id":"ce4bgt12rcd13ifvqce0","pricing_plan_id":"cebpf4jnsgd1na2vs0mg"},{"bike_id":"030fb72b-6ff7-4649-8c5f-9f2bebbb17dc","system_id":"levelo_inurba_marseille","lat":43.26677,"lon":5.38278,"is_reserved":false,"is_disabled":false,"rental_uris":{"android":"levelo://app?vid=030fb72b-6ff7-4649-8c5f-9f2bebbb17dc","ios":"levelo://app?vid=030fb72b-6ff7-4649-8c5f-9f2bebbb17dc"},"vehicle_type_id":"4","last_reported":1732540822,"current_range_meters":28000,"station_id":"ce4bhg92rcd13ifvqf90","pricing_plan_id":"cebpf4jnsgd1na2vs0mg"},{"bike_id":"2516526c-dced-4bda-b648-a037d8984aaa","system_id":"levelo_inurba_marseille","lat":43.32543,"lon":5.41439,"is_reserved":false,"is_disabled":false,"rental_uris":{"android":"levelo://app?vid=2516526c-dced-4bda-b648-a037d8984aaa","ios":"levelo://app?vid=2516526c-dced-4bda-b648-a037d8984aaa"},"vehicle_type_id":"4","last_reported":1732540822,"current_range_meters":13600,"station_id":"ce4bhq12rcd13ifvqhhg","pricing_plan_id":"cebpf4jnsgd1na2vs0mg"},{"bike_id":"a7567b60-63c9-4df8-92da-cbd9bdbe7520","system_id":"levelo_inurba_marseille","lat":43.29103,"lon":5.38134,"is_reserved":false,"is_disabled":false,"rental_uris":{"android":"levelo://app?vid=a7567b60-63c9-4df8-92da-cbd9bdbe7520","ios":"levelo://app?vid=a7567b60-63c9-4df8-92da-cbd9bdbe7520"},"vehicle_type_id":"4","last_reported":1732540822,"current_range_meters":24400,"station_id":"ce4bh512rcd13ifvqe2g","pricing_plan_id":"cebpf4jnsgd1na2vs0mg"},{"bike_id":"c1c8df13-b0b1-42d1-a218-ca991fdd4fb1","system_id":"levelo_inurba_marseille","lat":43.29302,"lon":5.37451,"is_reserved":false,"is_disabled":false,"rental_uris":{"android":"levelo://app?vid=c1c8df13-b0b1-42d1-a218-ca991fdd4fb1","ios":"levelo://app?vid=c1c8df13-b0b1-42d1-a218-ca991fdd4fb1"},"vehicle_type_id":"4","last_reported":1732540822,"current_range_meters":38800,"station_id":"ce4bgi12rcd13ifvqb70","pricing_plan_id":"cebpf4jnsgd1na2vs0mg"},{"bike_id":"658730a3-87a0-4897-afa8-e9a8ae699819","system_id":"levelo_inurba_marseille","lat":43.31223,"lon":5.36875,"is_reserved":false,"is_disabled":false,"rental_uris":{"android":"levelo://app?vid=658730a3-87a0-4897-afa8-e9a8ae699819","ios":"levelo://app?vid=658730a3-87a0-4897-afa8-e9a8ae699819"},"vehicle_type_id":"4","last_reported":1732540822,"current_range_meters":32000,"station_id":"ce4bgl92rcd13ifvqbq0","pricing_plan_id":"cebpf4jnsgd1na2vs0mg"},{"bike_id":"431e0a3a-2484-4d4a-8235-03f12f9c4592","system_id":"levelo_inurba_marseille","lat":43.30425,"lon":5.39748,"is_reserved":false,"is_disabled":false,"rental_uris":{"android":"levelo://app?vid=431e0a3a-2484-4d4a-8235-03f12f9c4592","ios":"levelo://app?vid=431e0a3a-2484-4d4a-8235-03f12f9c4592"},"vehicle_type_id":"4","last_reported":1732540822,"current_range_meters":38800,"station_id":"ce4bh092rcd13ifvqd20","pricing_plan_id":"cebpf4jnsgd1na2vs0mg"},{"bike_id":"53dfa244-74a2-4ae3-a3e2-c3900f572a57","system_id":"levelo_inurba_marseille","lat":43.24171,"lon":5.36396,"is_reserved":false,"is_disabled":false,"rental_uris":{"android":"levelo://app?vid=53dfa244-74a2-4ae3-a3e2-c3900f572a57","ios":"levelo://app?vid=53dfa244-74a2-4ae3-a3e2-c3900f572a57"},"vehicle_type_id":"4","last_reported":1732540822,"current_range_meters":8400,"station_id":"cpo36qri1sfpv3e86is0","pricing_plan_id":"cebpf4jnsgd1na2vs0mg"},{"bike_id":"56041f5b-c588-4084-a6e5-2c1d4424e8d2","system_id":"levelo_inurba_marseille","lat":43.25929,"lon":5.40895,"is_reserved":false,"is_disabled":true,"rental_uris":{"android":"levelo://app?vid=56041f5b-c588-4084-a6e5-2c1d4424e8d2","ios":"levelo://app?vid=56041f5b-c588-4084-a6e5-2c1d4424e8d2"},"vehicle_type_id":"4","last_reported":1732540822,"current_range_meters":0,"station_id":"ce4bhm92rcd13ifvqglg","pricing_plan_id":"cebpf4jnsgd1na2vs0mg"},{"bike_id":"c01413e4-6898-45ee-be35-ef8f0832c3bc","system_id":"levelo_inurba_marseille","lat":43.32361,"lon":5.38889,"is_reserved":false,"is_disabled":true,"rental_uris":{"android":"levelo://app?vid=c01413e4-6898-45ee-be35-ef8f0832c3bc","ios":"levelo://app?vid=c01413e4-6898-45ee-be35-ef8f0832c3bc"},"vehicle_type_id":"4","last_reported":1732540822,"current_range_meters":27600,"station_id":"ce4bhqp2rcd13ifvqhog","pricing_plan_id":"cebpf4jnsgd1na2vs0mg"},{"bike_id":"a73de2a2-c889-4d6a-8a7c-845bdbb682a8","system_id":"levelo_inurba_marseille","lat":43.2953,"lon":5.39043,"is_reserved":false,"is_disabled":false,"rental_uris":{"android":"levelo://app?vid=a73de2a2-c889-4d6a-8a7c-845bdbb682a8","ios":"levelo://app?vid=a73de2a2-c889-4d6a-8a7c-845bdbb682a8"},"vehicle_type_id":"4","last_reported":1732540822,"current_range_meters":33600,"station_id":"ce4bh3p2rcd13ifvqdp0","pricing_plan_id":"cebpf4jnsgd1na2vs0mg"},{"bike_id":"820f12a0-cf28-488c-8a74-3f1b9d2e4db5","system_id":"levelo_inurba_marseille","lat":43.23058,"lon":5.35491,"is_reserved":false,"is_disabled":false,"rental_uris":{"android":"levelo://app?vid=820f12a0-cf28-488c-8a74-3f1b9d2e4db5","ios":"levelo://app?vid=820f12a0-cf28-488c-8a74-3f1b9d2e4db5"},"vehicle_type_id":"4","last_reported":1732540822,"current_range_meters":28000,"station_id":"cpo3342slgdg3j2ifvpg","pricing_plan_id":"cebpf4jnsgd1na2vs0mg"},{"bike_id":"10b91bd7-d012-41bd-af7f-8b87aa2c8de9","system_id":"levelo_inurba_marseille","lat":43.29682,"lon":5.37296,"is_reserved":false,"is_disabled":false,"rental_uris":{"android":"levelo://app?vid=10b91bd7-d012-41bd-af7f-8b87aa2c8de9","ios":"levelo://app?vid=10b91bd7-d012-41bd-af7f-8b87aa2c8de9"},"vehicle_type_id":"4","last_reported":1732540822,"current_range_meters":15200,"station_id":"ce4bgk12rcd13ifvqbj0","pricing_plan_id":"cebpf4jnsgd1na2vs0mg"},{"bike_id":"9465545f-af87-4599-bf7e-091832e32b7b","system_id":"levelo_inurba_marseille","lat":43.29537,"lon":5.38547,"is_reserved":false,"is_disabled":true,"rental_uris":{"android":"levelo://app?vid=9465545f-af87-4599-bf7e-091832e32b7b","ios":"levelo://app?vid=9465545f-af87-4599-bf7e-091832e32b7b"},"vehicle_type_id":"4","last_reported":1732540822,"current_range_meters":24800,"station_id":"ce4bgih2rcd13ifvqba0","pricing_plan_id":"cebpf4jnsgd1na2vs0mg"},{"bike_id":"250d97f1-5ebb-4c6a-879d-09be31765fdd","system_id":"levelo_inurba_marseille","lat":43.26568,"lon":5.39004,"is_reserved":false,"is_disabled":false,"rental_uris":{"android":"levelo://app?vid=250d97f1-5ebb-4c6a-879d-09be31765fdd","ios":"levelo://app?vid=250d97f1-5ebb-4c6a-879d-09be31765fdd"},"vehicle_type_id":"4","last_reported":1732540822,"current_range_meters":27200,"station_id":"ce4bhe12rcd13ifvqf30","pricing_plan_id":"cebpf4jnsgd1na2vs0mg"},{"bike_id":"49a2b1b6-eabe-437d-b3ce-b7e580d0985e","system_id":"levelo_inurba_marseille","lat":43.26491,"lon":5.39554,"is_reserved":false,"is_disabled":true,"rental_uris":{"android":"levelo://app?vid=49a2b1b6-eabe-437d-b3ce-b7e580d0985e","ios":"levelo://app?vid=49a2b1b6-eabe-437d-b3ce-b7e580d0985e"},"vehicle_type_id":"4","last_reported":1732540822,"current_range_meters":14800,"station_id":"ce4bhi12rcd13ifvqfq0","pricing_plan_id":"cebpf4jnsgd1na2vs0mg"},{"bike_id":"40cfd9d7-e32d-46e7-9583-673a5ca6d2ed","system_id":"levelo_inurba_marseille","lat":43.26683,"lon":5.38264,"is_reserved":false,"is_disabled":false,"rental_uris":{"android":"levelo://app?vid=40cfd9d7-e32d-46e7-9583-673a5ca6d2ed","ios":"levelo://app?vid=40cfd9d7-e32d-46e7-9583-673a5ca6d2ed"},"vehicle_type_id":"4","last_reported":1732540822,"current_range_meters":38400,"station_id":"ce4bhg92rcd13ifvqf90","pricing_plan_id":"cebpf4jnsgd1na2vs0mg"},{"bike_id":"015d9608-e3d2-43da-9f42-0f13bede6986","system_id":"levelo_inurba_marseille","lat":43.25113,"lon":5.40326,"is_reserved":false,"is_disabled":false,"rental_uris":{"android":"levelo://app?vid=015d9608-e3d2-43da-9f42-0f13bede6986","ios":"levelo://app?vid=015d9608-e3d2-43da-9f42-0f13bede6986"},"vehicle_type_id":"4","last_reported":1732540822,"current_range_meters":24400,"station_id":"ce4bhlh2rcd13ifvqgig","pricing_plan_id":"cebpf4jnsgd1na2vs0mg"},{"bike_id":"5801c667-512d-4247-aa39-f5ab7cce089f","system_id":"levelo_inurba_marseille","lat":43.3249,"lon":5.36567,"is_reserved":false,"is_disabled":false,"rental_uris":{"android":"levelo://app?vid=5801c667-512d-4247-aa39-f5ab7cce089f","ios":"levelo://app?vid=5801c667-512d-4247-aa39-f5ab7cce089f"},"vehicle_type_id":"4","last_reported":1732540822,"current_range_meters":14800,"station_id":"ce4bhs12rcd13ifvqhvg","pricing_plan_id":"cebpf4jnsgd1na2vs0mg"},{"bike_id":"835b00c2-64c0-4cbe-82bb-c78dd70919e3","system_id":"levelo_inurba_marseille","lat":43.27956,"lon":5.40801,"is_reserved":false,"is_disabled":false,"rental_uris":{"android":"levelo://app?vid=835b00c2-64c0-4cbe-82bb-c78dd70919e3","ios":"levelo://app?vid=835b00c2-64c0-4cbe-82bb-c78dd70919e3"},"vehicle_type_id":"4","last_reported":1732540822,"current_range_meters":7200,"station_id":"","pricing_plan_id":"cebpf4jnsgd1na2vs0mg"},{"bike_id":"016f9828-4c2a-42b9-8b5c-3de38cb71fca","system_id":"levelo_inurba_marseille","lat":43.337444,"lon":5.374475,"is_reserved":false,"is_disabled":false,"rental_uris":{"android":"levelo://app?vid=016f9828-4c2a-42b9-8b5c-3de38cb71fca","ios":"levelo://app?vid=016f9828-4c2a-42b9-8b5c-3de38cb71fca"},"vehicle_type_id":"4","last_reported":1732540822,"current_range_meters":35600,"station_id":"","pricing_plan_id":"cebpf4jnsgd1na2vs0mg"},{"bike_id":"6a60b348-ab45-46f8-a591-1f87aa604ebb","system_id":"levelo_inurba_marseille","lat":43.24657,"lon":5.38163,"is_reserved":false,"is_disabled":false,"rental_uris":{"android":"levelo://app?vid=6a60b348-ab45-46f8-a591-1f87aa604ebb","ios":"levelo://app?vid=6a60b348-ab45-46f8-a591-1f87aa604ebb"},"vehicle_type_id":"4","last_reported":1732540822,"current_range_meters":36000,"station_id":"ce4bhih2rcd13ifvqfr0","pricing_plan_id":"cebpf4jnsgd1na2vs0mg"},{"bike_id":"cdea59b3-474c-435a-97c9-7a97db92633d","system_id":"levelo_inurba_marseille","lat":43.30806,"lon":5.43526,"is_reserved":false,"is_disabled":false,"rental_uris":{"android":"levelo://app?vid=cdea59b3-474c-435a-97c9-7a97db92633d","ios":"levelo://app?vid=cdea59b3-474c-435a-97c9-7a97db92633d"},"vehicle_type_id":"4","last_reported":1732540822,"current_range_meters":37600,"station_id":"ce4bhph2rcd13ifvqheg","pricing_plan_id":"cebpf4jnsgd1na2vs0mg"},{"bike_id":"ea84055d-01cb-4e5e-9879-add3bc59baf7","system_id":"levelo_inurba_marseille","lat":43.32485,"lon":5.36576,"is_reserved":false,"is_disabled":false,"rental_uris":{"android":"levelo://app?vid=ea84055d-01cb-4e5e-9879-add3bc59baf7","ios":"levelo://app?vid=ea84055d-01cb-4e5e-9879-add3bc59baf7"},"vehicle_type_id":"4","last_reported":1732540822,"current_range_meters":8000,"station_id":"ce4bhs12rcd13ifvqhvg","pricing_plan_id":"cebpf4jnsgd1na2vs0mg"},{"bike_id":"8f2aa4c1-472e-48b8-b9a7-e83545c95d08","system_id":"levelo_inurba_marseille","lat":43.30541,"lon":5.36549,"is_reserved":false,"is_disabled":false,"rental_uris":{"android":"levelo://app?vid=8f2aa4c1-472e-48b8-b9a7-e83545c95d08","ios":"levelo://app?vid=8f2aa4c1-472e-48b8-b9a7-e83545c95d08"},"vehicle_type_id":"4","last_reported":1732540822,"current_range_meters":33200,"station_id":"ce4bgs12rcd13ifvqcag","pricing_plan_id":"cebpf4jnsgd1na2vs0mg"},{"bike_id":"91fed54e-6e58-48ea-9a9e-dd7195369506","system_id":"levelo_inurba_marseille","lat":43.29055,"lon":5.35919,"is_reserved":false,"is_disabled":false,"rental_uris":{"android":"levelo://app?vid=91fed54e-6e58-48ea-9a9e-dd7195369506","ios":"levelo://app?vid=91fed54e-6e58-48ea-9a9e-dd7195369506"},"vehicle_type_id":"4","last_reported":1732540822,"current_range_meters":25200,"station_id":"ce4bha92rcd13ifvqeg0","pricing_plan_id":"cebpf4jnsgd1na2vs0mg"},{"bike_id":"ca8f0402-6749-4ba3-a4af-37a70f840e6c","system_id":"levelo_inurba_marseille","lat":43.29264,"lon":5.40926,"is_reserved":false,"is_disabled":false,"rental_uris":{"android":"levelo://app?vid=ca8f0402-6749-4ba3-a4af-37a70f840e6c","ios":"levelo://app?vid=ca8f0402-6749-4ba3-a4af-37a70f840e6c"},"vehicle_type_id":"4","last_reported":1732540822,"current_range_meters":19200,"station_id":"ce4bh192rcd13ifvqdc0","pricing_plan_id":"cebpf4jnsgd1na2vs0mg"},{"bike_id":"8a727cfd-728d-49db-be26-70b5966c4469","system_id":"levelo_inurba_marseille","lat":43.29435,"lon":5.39753,"is_reserved":false,"is_disabled":false,"rental_uris":{"android":"levelo://app?vid=8a727cfd-728d-49db-be26-70b5966c4469","ios":"levelo://app?vid=8a727cfd-728d-49db-be26-70b5966c4469"},"vehicle_type_id":"4","last_reported":1732540822,"current_range_meters":34000,"station_id":"ce4bh3h2rcd13ifvqdo0","pricing_plan_id":"cebpf4jnsgd1na2vs0mg"},{"bike_id":"5f3e1e95-68a4-4eb2-9aa4-2ef515dacd34","system_id":"levelo_inurba_marseille","lat":43.31238,"lon":5.36871,"is_reserved":false,"is_disabled":true,"rental_uris":{"android":"levelo://app?vid=5f3e1e95-68a4-4eb2-9aa4-2ef515dacd34","ios":"levelo://app?vid=5f3e1e95-68a4-4eb2-9aa4-2ef515dacd34"},"vehicle_type_id":"4","last_reported":1732540822,"current_range_meters":0,"station_id":"ce4bgl92rcd13ifvqbq0","pricing_plan_id":"cebpf4jnsgd1na2vs0mg"},{"bike_id":"60fcd96b-340a-4541-b2c4-033fa7f7053e","system_id":"levelo_inurba_marseille","lat":43.29005,"lon":5.35616,"is_reserved":false,"is_disabled":false,"rental_uris":{"android":"levelo://app?vid=60fcd96b-340a-4541-b2c4-033fa7f7053e","ios":"levelo://app?vid=60fcd96b-340a-4541-b2c4-033fa7f7053e"},"vehicle_type_id":"4","last_reported":1732540822,"current_range_meters":22800,"station_id":"ce4bhb92rcd13ifvqen0","pricing_plan_id":"cebpf4jnsgd1na2vs0mg"},{"bike_id":"4de3e56f-e04e-4bec-848a-c1de0f32804b","system_id":"levelo_inurba_marseille","lat":43.27496,"lon":5.42452,"is_reserved":false,"is_disabled":false,"rental_uris":{"android":"levelo://app?vid=4de3e56f-e04e-4bec-848a-c1de0f32804b","ios":"levelo://app?vid=4de3e56f-e04e-4bec-848a-c1de0f32804b"},"vehicle_type_id":"4","last_reported":1732540822,"current_range_meters":16800,"station_id":"ce4bhn92rcd13ifvqgrg","pricing_plan_id":"cebpf4jnsgd1na2vs0mg"},{"bike_id":"0310db2e-b87f-4da2-b589-c581152a595c","system_id":"levelo_inurba_marseille","lat":43.30546,"lon":5.36557,"is_reserved":false,"is_disabled":false,"rental_uris":{"android":"levelo://app?vid=0310db2e-b87f-4da2-b589-c581152a595c","ios":"levelo://app?vid=0310db2e-b87f-4da2-b589-c581152a595c"},"vehicle_type_id":"4","last_reported":1732540822,"current_range_meters":36000,"station_id":"ce4bgs12rcd13ifvqcag","pricing_plan_id":"cebpf4jnsgd1na2vs0mg"},{"bike_id":"31d77af9-b2e3-42f4-b9be-40536570a291","system_id":"levelo_inurba_marseille","lat":43.32487,"lon":5.36575,"is_reserved":false,"is_disabled":false,"rental_uris":{"android":"levelo://app?vid=31d77af9-b2e3-42f4-b9be-40536570a291","ios":"levelo://app?vid=31d77af9-b2e3-42f4-b9be-40536570a291"},"vehicle_type_id":"4","last_reported":1732540822,"current_range_meters":38800,"station_id":"ce4bhs12rcd13ifvqhvg","pricing_plan_id":"cebpf4jnsgd1na2vs0mg"},{"bike_id":"95f66b9a-0374-4daa-b79d-a8a2bc87af0c","system_id":"levelo_inurba_marseille","lat":43.26684,"lon":5.38271,"is_reserved":false,"is_disabled":false,"rental_uris":{"android":"levelo://app?vid=95f66b9a-0374-4daa-b79d-a8a2bc87af0c","ios":"levelo://app?vid=95f66b9a-0374-4daa-b79d-a8a2bc87af0c"},"vehicle_type_id":"4","last_reported":1732540822,"current_range_meters":25200,"station_id":"ce4bhg92rcd13ifvqf90","pricing_plan_id":"cebpf4jnsgd1na2vs0mg"},{"bike_id":"4cf68192-498e-49a8-b866-19367c604fb3","system_id":"levelo_inurba_marseille","lat":43.295777,"lon":5.399643,"is_reserved":false,"is_disabled":true,"rental_uris":{"android":"levelo://app?vid=4cf68192-498e-49a8-b866-19367c604fb3","ios":"levelo://app?vid=4cf68192-498e-49a8-b866-19367c604fb3"},"vehicle_type_id":"4","last_reported":1732540822,"current_range_meters":30000,"station_id":"ce4bh312rcd13ifvqdj0","pricing_plan_id":"cebpf4jnsgd1na2vs0mg"},{"bike_id":"a81622bc-3235-49b5-a143-3b48c443e337","system_id":"levelo_inurba_marseille","lat":43.30121,"lon":5.37597,"is_reserved":false,"is_disabled":false,"rental_uris":{"android":"levelo://app?vid=a81622bc-3235-49b5-a143-3b48c443e337","ios":"levelo://app?vid=a81622bc-3235-49b5-a143-3b48c443e337"},"vehicle_type_id":"4","last_reported":1732540822,"current_range_meters":32000,"station_id":"ce4bho92rcd13ifvqh3g","pricing_plan_id":"cebpf4jnsgd1na2vs0mg"},{"bike_id":"418efd86-ac1c-4cef-8d6c-7be6ad639cc1","system_id":"levelo_inurba_marseille","lat":43.2996,"lon":5.38497,"is_reserved":false,"is_disabled":false,"rental_uris":{"android":"levelo://app?vid=418efd86-ac1c-4cef-8d6c-7be6ad639cc1","ios":"levelo://app?vid=418efd86-ac1c-4cef-8d6c-7be6ad639cc1"},"vehicle_type_id":"4","last_reported":1732540822,"current_range_meters":35600,"station_id":"ce4bgj92rcd13ifvqbd0","pricing_plan_id":"cebpf4jnsgd1na2vs0mg"},{"bike_id":"fab1b5c2-43a5-4024-ab32-1d78c9203630","system_id":"levelo_inurba_marseille","lat":43.286438,"lon":5.399449,"is_reserved":false,"is_disabled":false,"rental_uris":{"android":"levelo://app?vid=fab1b5c2-43a5-4024-ab32-1d78c9203630","ios":"levelo://app?vid=fab1b5c2-43a5-4024-ab32-1d78c9203630"},"vehicle_type_id":"4","last_reported":1732540822,"current_range_meters":6800,"station_id":"ce4bho92rcd13ifvqh3g","pricing_plan_id":"cebpf4jnsgd1na2vs0mg"},{"bike_id":"cb3e2ea1-6aaa-4c79-8af8-4aff457edba8","system_id":"levelo_inurba_marseille","lat":43.23147,"lon":5.4372,"is_reserved":false,"is_disabled":false,"rental_uris":{"android":"levelo://app?vid=cb3e2ea1-6aaa-4c79-8af8-4aff457edba8","ios":"levelo://app?vid=cb3e2ea1-6aaa-4c79-8af8-4aff457edba8"},"vehicle_type_id":"4","last_reported":1732540822,"current_range_meters":27600,"station_id":"ce4bhmp2rcd13ifvqgog","pricing_plan_id":"cebpf4jnsgd1na2vs0mg"},{"bike_id":"2c384b1f-5039-4f0e-8f92-cb5cf4facffb","system_id":"levelo_inurba_marseille","lat":43.29803,"lon":5.3811,"is_reserved":false,"is_disabled":false,"rental_uris":{"android":"levelo://app?vid=2c384b1f-5039-4f0e-8f92-cb5cf4facffb","ios":"levelo://app?vid=2c384b1f-5039-4f0e-8f92-cb5cf4facffb"},"vehicle_type_id":"4","last_reported":1732540822,"current_range_meters":38800,"station_id":"ce4bgip2rcd13ifvqbb0","pricing_plan_id":"cebpf4jnsgd1na2vs0mg"},{"bike_id":"54f158e7-1fe0-4c86-b21f-09513cf7a0b8","system_id":"levelo_inurba_marseille","lat":43.25494,"lon":5.37654,"is_reserved":false,"is_disabled":false,"rental_uris":{"android":"levelo://app?vid=54f158e7-1fe0-4c86-b21f-09513cf7a0b8","ios":"levelo://app?vid=54f158e7-1fe0-4c86-b21f-09513cf7a0b8"},"vehicle_type_id":"4","last_reported":1732540822,"current_range_meters":25600,"station_id":"ce4bhh12rcd13ifvqff0","pricing_plan_id":"cebpf4jnsgd1na2vs0mg"},{"bike_id":"ba9ca061-531b-44d9-af62-3edc28860cec","system_id":"levelo_inurba_marseille","lat":43.32534,"lon":5.41444,"is_reserved":false,"is_disabled":true,"rental_uris":{"android":"levelo://app?vid=ba9ca061-531b-44d9-af62-3edc28860cec","ios":"levelo://app?vid=ba9ca061-531b-44d9-af62-3edc28860cec"},"vehicle_type_id":"4","last_reported":1732540822,"current_range_meters":29600,"station_id":"ce4bhq12rcd13ifvqhhg","pricing_plan_id":"cebpf4jnsgd1na2vs0mg"},{"bike_id":"93fe94db-033b-4622-98b4-d49f1d9109a6","system_id":"levelo_inurba_marseille","lat":43.29842,"lon":5.36259,"is_reserved":false,"is_disabled":false,"rental_uris":{"android":"levelo://app?vid=93fe94db-033b-4622-98b4-d49f1d9109a6","ios":"levelo://app?vid=93fe94db-033b-4622-98b4-d49f1d9109a6"},"vehicle_type_id":"4","last_reported":1732540822,"current_range_meters":36000,"station_id":"ce4bgpp2rcd13ifvqc3g","pricing_plan_id":"cebpf4jnsgd1na2vs0mg"},{"bike_id":"00741319-8635-43ce-a1f4-ee7bcf739bb3","system_id":"levelo_inurba_marseille","lat":43.34143,"lon":5.40907,"is_reserved":false,"is_disabled":false,"rental_uris":{"android":"levelo://app?vid=00741319-8635-43ce-a1f4-ee7bcf739bb3","ios":"levelo://app?vid=00741319-8635-43ce-a1f4-ee7bcf739bb3"},"vehicle_type_id":"4","last_reported":1732540822,"current_range_meters":36800,"station_id":"ce4bhqh2rcd13ifvqhlg","pricing_plan_id":"cebpf4jnsgd1na2vs0mg"},{"bike_id":"aa717be1-dcce-416b-90e1-180e376a1e41","system_id":"levelo_inurba_marseille","lat":43.337444,"lon":5.374475,"is_reserved":false,"is_disabled":false,"rental_uris":{"android":"levelo://app?vid=aa717be1-dcce-416b-90e1-180e376a1e41","ios":"levelo://app?vid=aa717be1-dcce-416b-90e1-180e376a1e41"},"vehicle_type_id":"4","last_reported":1732540822,"current_range_meters":38000,"station_id":"","pricing_plan_id":"cebpf4jnsgd1na2vs0mg"},{"bike_id":"010675b9-621e-43ad-8db7-6d8375a2b95b","system_id":"levelo_inurba_marseille","lat":43.30237,"lon":5.37424,"is_reserved":false,"is_disabled":true,"rental_uris":{"android":"levelo://app?vid=010675b9-621e-43ad-8db7-6d8375a2b95b","ios":"levelo://app?vid=010675b9-621e-43ad-8db7-6d8375a2b95b"},"vehicle_type_id":"4","last_reported":1732540822,"current_range_meters":20800,"station_id":"","pricing_plan_id":"cebpf4jnsgd1na2vs0mg"},{"bike_id":"294eeb79-af1b-495a-909f-216801ae6b41","system_id":"levelo_inurba_marseille","lat":43.33742,"lon":5.37461,"is_reserved":false,"is_disabled":false,"rental_uris":{"android":"levelo://app?vid=294eeb79-af1b-495a-909f-216801ae6b41","ios":"levelo://app?vid=294eeb79-af1b-495a-909f-216801ae6b41"},"vehicle_type_id":"4","last_reported":1732540822,"current_range_meters":14400,"station_id":"","pricing_plan_id":"cebpf4jnsgd1na2vs0mg"},{"bike_id":"ed92592a-32cf-420f-a16e-b1e7ec9d7eb9","system_id":"levelo_inurba_marseille","lat":43.29094,"lon":5.38141,"is_reserved":false,"is_disabled":false,"rental_uris":{"android":"levelo://app?vid=ed92592a-32cf-420f-a16e-b1e7ec9d7eb9","ios":"levelo://app?vid=ed92592a-32cf-420f-a16e-b1e7ec9d7eb9"},"vehicle_type_id":"4","last_reported":1732540822,"current_range_meters":38800,"station_id":"ce4bh512rcd13ifvqe2g","pricing_plan_id":"cebpf4jnsgd1na2vs0mg"},{"bike_id":"8f68ee7f-7b44-4be2-9029-ea434c443553","system_id":"levelo_inurba_marseille","lat":43.24662,"lon":5.38162,"is_reserved":false,"is_disabled":false,"rental_uris":{"android":"levelo://app?vid=8f68ee7f-7b44-4be2-9029-ea434c443553","ios":"levelo://app?vid=8f68ee7f-7b44-4be2-9029-ea434c443553"},"vehicle_type_id":"4","last_reported":1732540822,"current_range_meters":11200,"station_id":"ce4bhih2rcd13ifvqfr0","pricing_plan_id":"cebpf4jnsgd1na2vs0mg"},{"bike_id":"757e0405-92a8-4568-920e-e5c1129e791f","system_id":"levelo_inurba_marseille","lat":43.24393,"lon":5.37049,"is_reserved":false,"is_disabled":false,"rental_uris":{"android":"levelo://app?vid=757e0405-92a8-4568-920e-e5c1129e791f","ios":"levelo://app?vid=757e0405-92a8-4568-920e-e5c1129e791f"},"vehicle_type_id":"4","last_reported":1732540822,"current_range_meters":11200,"station_id":"ce4bhhh2rcd13ifvqfk0","pricing_plan_id":"cebpf4jnsgd1na2vs0mg"},{"bike_id":"27bcf6b7-112f-4e28-97ba-1ee8cb170b58","system_id":"levelo_inurba_marseille","lat":43.26566,"lon":5.38994,"is_reserved":false,"is_disabled":false,"rental_uris":{"android":"levelo://app?vid=27bcf6b7-112f-4e28-97ba-1ee8cb170b58","ios":"levelo://app?vid=27bcf6b7-112f-4e28-97ba-1ee8cb170b58"},"vehicle_type_id":"4","last_reported":1732540822,"current_range_meters":16000,"station_id":"ce4bhe12rcd13ifvqf30","pricing_plan_id":"cebpf4jnsgd1na2vs0mg"},{"bike_id":"c2d79a08-3d81-480f-80c4-d9075dcd8711","system_id":"levelo_inurba_marseille","lat":43.2655,"lon":5.37294,"is_reserved":false,"is_disabled":true,"rental_uris":{"android":"levelo://app?vid=c2d79a08-3d81-480f-80c4-d9075dcd8711","ios":"levelo://app?vid=c2d79a08-3d81-480f-80c4-d9075dcd8711"},"vehicle_type_id":"4","last_reported":1732540822,"current_range_meters":32800,"station_id":"ce4bhg12rcd13ifvqf70","pricing_plan_id":"cebpf4jnsgd1na2vs0mg"},{"bike_id":"b5e7da2c-8287-4c32-a55a-661d0fd18730","system_id":"levelo_inurba_marseille","lat":43.30197,"lon":5.36611,"is_reserved":false,"is_disabled":true,"rental_uris":{"android":"levelo://app?vid=b5e7da2c-8287-4c32-a55a-661d0fd18730","ios":"levelo://app?vid=b5e7da2c-8287-4c32-a55a-661d0fd18730"},"vehicle_type_id":"4","last_reported":1732540822,"current_range_meters":22800,"station_id":"ce4bgrh2rcd13ifvqc8g","pricing_plan_id":"cebpf4jnsgd1na2vs0mg"},{"bike_id":"777b7fed-d395-4c97-b504-dee7c3479d4f","system_id":"levelo_inurba_marseille","lat":43.29836,"lon":5.3785,"is_reserved":false,"is_disabled":true,"rental_uris":{"android":"levelo://app?vid=777b7fed-d395-4c97-b504-dee7c3479d4f","ios":"levelo://app?vid=777b7fed-d395-4c97-b504-dee7c3479d4f"},"vehicle_type_id":"4","last_reported":1732540822,"current_range_meters":0,"station_id":"","pricing_plan_id":"cebpf4jnsgd1na2vs0mg"},{"bike_id":"18ccd7ff-fdf9-4559-bd76-d98ec8562baf","system_id":"levelo_inurba_marseille","lat":43.31881,"lon":5.40735,"is_reserved":false,"is_disabled":false,"rental_uris":{"android":"levelo://app?vid=18ccd7ff-fdf9-4559-bd76-d98ec8562baf","ios":"levelo://app?vid=18ccd7ff-fdf9-4559-bd76-d98ec8562baf"},"vehicle_type_id":"4","last_reported":1732540822,"current_range_meters":10000,"station_id":"ce4bhq12rcd13ifvqhig","pricing_plan_id":"cebpf4jnsgd1na2vs0mg"},{"bike_id":"cd78312a-142a-42d0-92e1-dbc654bf8bb4","system_id":"levelo_inurba_marseille","lat":43.24183,"lon":5.39717,"is_reserved":false,"is_disabled":true,"rental_uris":{"android":"levelo://app?vid=cd78312a-142a-42d0-92e1-dbc654bf8bb4","ios":"levelo://app?vid=cd78312a-142a-42d0-92e1-dbc654bf8bb4"},"vehicle_type_id":"4","last_reported":1732540822,"current_range_meters":4400,"station_id":"ce4bhn12rcd13ifvqgpg","pricing_plan_id":"cebpf4jnsgd1na2vs0mg"},{"bike_id":"01ba9a8f-8204-4d08-822e-cbcda7876993","system_id":"levelo_inurba_marseille","lat":43.26201,"lon":5.3793,"is_reserved":false,"is_disabled":false,"rental_uris":{"android":"levelo://app?vid=01ba9a8f-8204-4d08-822e-cbcda7876993","ios":"levelo://app?vid=01ba9a8f-8204-4d08-822e-cbcda7876993"},"vehicle_type_id":"4","last_reported":1732540822,"current_range_meters":18800,"station_id":"ce4bhjp2rcd13ifvqg90","pricing_plan_id":"cebpf4jnsgd1na2vs0mg"},{"bike_id":"d922b735-d82b-4e62-aaae-247cfa2ce37a","system_id":"levelo_inurba_marseille","lat":43.25104,"lon":5.40324,"is_reserved":false,"is_disabled":false,"rental_uris":{"android":"levelo://app?vid=d922b735-d82b-4e62-aaae-247cfa2ce37a","ios":"levelo://app?vid=d922b735-d82b-4e62-aaae-247cfa2ce37a"},"vehicle_type_id":"4","last_reported":1732540822,"current_range_meters":16400,"station_id":"ce4bhlh2rcd13ifvqgig","pricing_plan_id":"cebpf4jnsgd1na2vs0mg"},{"bike_id":"c465ff20-457e-48cd-9bfe-e391ed388a31","system_id":"levelo_inurba_marseille","lat":43.24659,"lon":5.38164,"is_reserved":false,"is_disabled":false,"rental_uris":{"android":"levelo://app?vid=c465ff20-457e-48cd-9bfe-e391ed388a31","ios":"levelo://app?vid=c465ff20-457e-48cd-9bfe-e391ed388a31"},"vehicle_type_id":"4","last_reported":1732540822,"current_range_meters":21600,"station_id":"ce4bhih2rcd13ifvqfr0","pricing_plan_id":"cebpf4jnsgd1na2vs0mg"},{"bike_id":"935038d0-e307-49e5-ab69-c010784c0474","system_id":"levelo_inurba_marseille","lat":43.259194,"lon":5.409058,"is_reserved":false,"is_disabled":false,"rental_uris":{"android":"levelo://app?vid=935038d0-e307-49e5-ab69-c010784c0474","ios":"levelo://app?vid=935038d0-e307-49e5-ab69-c010784c0474"},"vehicle_type_id":"4","last_reported":1732540822,"current_range_meters":16800,"station_id":"ce4bhm92rcd13ifvqglg","pricing_plan_id":"cebpf4jnsgd1na2vs0mg"},{"bike_id":"43f6da94-5cf1-446e-9b8d-b4c4e86bf027","system_id":"levelo_inurba_marseille","lat":43.28812,"lon":5.35265,"is_reserved":false,"is_disabled":true,"rental_uris":{"android":"levelo://app?vid=43f6da94-5cf1-446e-9b8d-b4c4e86bf027","ios":"levelo://app?vid=43f6da94-5cf1-446e-9b8d-b4c4e86bf027"},"vehicle_type_id":"4","last_reported":1732540822,"current_range_meters":1600,"station_id":"","pricing_plan_id":"cebpf4jnsgd1na2vs0mg"},{"bike_id":"dd5ab154-647e-4dfa-88f1-0f781c7552f5","system_id":"levelo_inurba_marseille","lat":43.25576,"lon":5.3824,"is_reserved":false,"is_disabled":false,"rental_uris":{"android":"levelo://app?vid=dd5ab154-647e-4dfa-88f1-0f781c7552f5","ios":"levelo://app?vid=dd5ab154-647e-4dfa-88f1-0f781c7552f5"},"vehicle_type_id":"4","last_reported":1732540822,"current_range_meters":22000,"station_id":"ce4bhih2rcd13ifvqfs0","pricing_plan_id":"cebpf4jnsgd1na2vs0mg"},{"bike_id":"f90b5ae0-d91c-4007-bac3-1bc86ce63375","system_id":"levelo_inurba_marseille","lat":43.25817,"lon":5.39438,"is_reserved":false,"is_disabled":true,"rental_uris":{"android":"levelo://app?vid=f90b5ae0-d91c-4007-bac3-1bc86ce63375","ios":"levelo://app?vid=f90b5ae0-d91c-4007-bac3-1bc86ce63375"},"vehicle_type_id":"4","last_reported":1732540822,"current_range_meters":0,"station_id":"ce4bhip2rcd13ifvqft0","pricing_plan_id":"cebpf4jnsgd1na2vs0mg"},{"bike_id":"994195f6-b5da-4158-a5b5-8b38baad32b0","system_id":"levelo_inurba_marseille","lat":43.33724,"lon":5.39187,"is_reserved":false,"is_disabled":false,"rental_uris":{"android":"levelo://app?vid=994195f6-b5da-4158-a5b5-8b38baad32b0","ios":"levelo://app?vid=994195f6-b5da-4158-a5b5-8b38baad32b0"},"vehicle_type_id":"4","last_reported":1732540822,"current_range_meters":23200,"station_id":"ce4bhr92rcd13ifvqhsg","pricing_plan_id":"cebpf4jnsgd1na2vs0mg"},{"bike_id":"ef3aaa44-c741-4ab7-baa1-9530e3896307","system_id":"levelo_inurba_marseille","lat":43.30599,"lon":5.39358,"is_reserved":false,"is_disabled":false,"rental_uris":{"android":"levelo://app?vid=ef3aaa44-c741-4ab7-baa1-9530e3896307","ios":"levelo://app?vid=ef3aaa44-c741-4ab7-baa1-9530e3896307"},"vehicle_type_id":"4","last_reported":1732540822,"current_range_meters":29600,"station_id":"ce4bh0p2rcd13ifvqd80","pricing_plan_id":"cebpf4jnsgd1na2vs0mg"},{"bike_id":"d4e97efb-5c0c-4918-b54b-b306c997d94c","system_id":"levelo_inurba_marseille","lat":43.34141,"lon":5.409,"is_reserved":false,"is_disabled":false,"rental_uris":{"android":"levelo://app?vid=d4e97efb-5c0c-4918-b54b-b306c997d94c","ios":"levelo://app?vid=d4e97efb-5c0c-4918-b54b-b306c997d94c"},"vehicle_type_id":"4","last_reported":1732540822,"current_range_meters":38800,"station_id":"ce4bhqh2rcd13ifvqhlg","pricing_plan_id":"cebpf4jnsgd1na2vs0mg"},{"bike_id":"24fc129a-3a98-4f25-9554-234fc3a2dc8d","system_id":"levelo_inurba_marseille","lat":43.30416,"lon":5.41282,"is_reserved":false,"is_disabled":true,"rental_uris":{"android":"levelo://app?vid=24fc129a-3a98-4f25-9554-234fc3a2dc8d","ios":"levelo://app?vid=24fc129a-3a98-4f25-9554-234fc3a2dc8d"},"vehicle_type_id":"4","last_reported":1732540822,"current_range_meters":25200,"station_id":"ce4bhop2rcd13ifvqh8g","pricing_plan_id":"cebpf4jnsgd1na2vs0mg"},{"bike_id":"f9bb7fe1-5ca1-47b2-944e-eb055f53c14e","system_id":"levelo_inurba_marseille","lat":43.30556,"lon":5.38383,"is_reserved":false,"is_disabled":true,"rental_uris":{"android":"levelo://app?vid=f9bb7fe1-5ca1-47b2-944e-eb055f53c14e","ios":"levelo://app?vid=f9bb7fe1-5ca1-47b2-944e-eb055f53c14e"},"vehicle_type_id":"4","last_reported":1732540822,"current_range_meters":19200,"station_id":"ce4bgg92rcd13ifvqb30","pricing_plan_id":"cebpf4jnsgd1na2vs0mg"},{"bike_id":"98fa8ad4-045c-4870-be31-0ed03e096976","system_id":"levelo_inurba_marseille","lat":43.23148,"lon":5.43723,"is_reserved":false,"is_disabled":false,"rental_uris":{"android":"levelo://app?vid=98fa8ad4-045c-4870-be31-0ed03e096976","ios":"levelo://app?vid=98fa8ad4-045c-4870-be31-0ed03e096976"},"vehicle_type_id":"4","last_reported":1732540822,"current_range_meters":32800,"station_id":"ce4bhmp2rcd13ifvqgog","pricing_plan_id":"cebpf4jnsgd1na2vs0mg"},{"bike_id":"5d9127b2-409a-4e00-b212-9b69c1248067","system_id":"levelo_inurba_marseille","lat":43.26208,"lon":5.37928,"is_reserved":false,"is_disabled":false,"rental_uris":{"android":"levelo://app?vid=5d9127b2-409a-4e00-b212-9b69c1248067","ios":"levelo://app?vid=5d9127b2-409a-4e00-b212-9b69c1248067"},"vehicle_type_id":"4","last_reported":1732540822,"current_range_meters":38000,"station_id":"ce4bhjp2rcd13ifvqg90","pricing_plan_id":"cebpf4jnsgd1na2vs0mg"},{"bike_id":"ab62cdd5-3314-41c0-8cc9-b8644da6c7ff","system_id":"levelo_inurba_marseille","lat":43.25582,"lon":5.38231,"is_reserved":false,"is_disabled":false,"rental_uris":{"android":"levelo://app?vid=ab62cdd5-3314-41c0-8cc9-b8644da6c7ff","ios":"levelo://app?vid=ab62cdd5-3314-41c0-8cc9-b8644da6c7ff"},"vehicle_type_id":"4","last_reported":1732540822,"current_range_meters":24000,"station_id":"ce4bhih2rcd13ifvqfs0","pricing_plan_id":"cebpf4jnsgd1na2vs0mg"},{"bike_id":"3127e641-24de-41d4-a4d3-dad3d243e08e","system_id":"levelo_inurba_marseille","lat":43.28125,"lon":5.37847,"is_reserved":false,"is_disabled":false,"rental_uris":{"android":"levelo://app?vid=3127e641-24de-41d4-a4d3-dad3d243e08e","ios":"levelo://app?vid=3127e641-24de-41d4-a4d3-dad3d243e08e"},"vehicle_type_id":"4","last_reported":1732540822,"current_range_meters":34000,"station_id":"ce4bha12rcd13ifvqee0","pricing_plan_id":"cebpf4jnsgd1na2vs0mg"},{"bike_id":"ce5799fd-fcbe-47f1-bc0a-166e9e57910b","system_id":"levelo_inurba_marseille","lat":43.25824,"lon":5.39438,"is_reserved":false,"is_disabled":false,"rental_uris":{"android":"levelo://app?vid=ce5799fd-fcbe-47f1-bc0a-166e9e57910b","ios":"levelo://app?vid=ce5799fd-fcbe-47f1-bc0a-166e9e57910b"},"vehicle_type_id":"4","last_reported":1732540822,"current_range_meters":18800,"station_id":"ce4bhip2rcd13ifvqft0","pricing_plan_id":"cebpf4jnsgd1na2vs0mg"},{"bike_id":"d8031f18-f805-4d9c-8a3a-31e0b8336e25","system_id":"levelo_inurba_marseille","lat":43.25119,"lon":5.40325,"is_reserved":false,"is_disabled":true,"rental_uris":{"android":"levelo://app?vid=d8031f18-f805-4d9c-8a3a-31e0b8336e25","ios":"levelo://app?vid=d8031f18-f805-4d9c-8a3a-31e0b8336e25"},"vehicle_type_id":"4","last_reported":1732540822,"current_range_meters":0,"station_id":"ce4bhlh2rcd13ifvqgig","pricing_plan_id":"cebpf4jnsgd1na2vs0mg"},{"bike_id":"62bcad95-d3e2-434c-81f4-127757d19c4c","system_id":"levelo_inurba_marseille","lat":43.29211,"lon":5.39605,"is_reserved":false,"is_disabled":true,"rental_uris":{"android":"levelo://app?vid=62bcad95-d3e2-434c-81f4-127757d19c4c","ios":"levelo://app?vid=62bcad95-d3e2-434c-81f4-127757d19c4c"},"vehicle_type_id":"4","last_reported":1732540822,"current_range_meters":0,"station_id":"","pricing_plan_id":"cebpf4jnsgd1na2vs0mg"},{"bike_id":"f586fe43-4d5d-4534-9e50-209fda2ca425","system_id":"levelo_inurba_marseille","lat":43.26487,"lon":5.39555,"is_reserved":false,"is_disabled":false,"rental_uris":{"android":"levelo://app?vid=f586fe43-4d5d-4534-9e50-209fda2ca425","ios":"levelo://app?vid=f586fe43-4d5d-4534-9e50-209fda2ca425"},"vehicle_type_id":"4","last_reported":1732540822,"current_range_meters":38800,"station_id":"ce4bhi12rcd13ifvqfq0","pricing_plan_id":"cebpf4jnsgd1na2vs0mg"},{"bike_id":"0dd8044f-a47d-4459-9a8f-dd9005a8762e","system_id":"levelo_inurba_marseille","lat":43.30427,"lon":5.39753,"is_reserved":false,"is_disabled":false,"rental_uris":{"android":"levelo://app?vid=0dd8044f-a47d-4459-9a8f-dd9005a8762e","ios":"levelo://app?vid=0dd8044f-a47d-4459-9a8f-dd9005a8762e"},"vehicle_type_id":"4","last_reported":1732540822,"current_range_meters":22000,"station_id":"ce4bh092rcd13ifvqd20","pricing_plan_id":"cebpf4jnsgd1na2vs0mg"},{"bike_id":"faddc5bf-9308-4490-a929-f5be12fd1597","system_id":"levelo_inurba_marseille","lat":43.25595,"lon":5.38239,"is_reserved":false,"is_disabled":false,"rental_uris":{"android":"levelo://app?vid=faddc5bf-9308-4490-a929-f5be12fd1597","ios":"levelo://app?vid=faddc5bf-9308-4490-a929-f5be12fd1597"},"vehicle_type_id":"4","last_reported":1732540822,"current_range_meters":38000,"station_id":"ce4bhih2rcd13ifvqfs0","pricing_plan_id":"cebpf4jnsgd1na2vs0mg"},{"bike_id":"bb61ca7a-a883-44cb-932e-f13fb14714da","system_id":"levelo_inurba_marseille","lat":43.29791,"lon":5.38082,"is_reserved":false,"is_disabled":false,"rental_uris":{"android":"levelo://app?vid=bb61ca7a-a883-44cb-932e-f13fb14714da","ios":"levelo://app?vid=bb61ca7a-a883-44cb-932e-f13fb14714da"},"vehicle_type_id":"4","last_reported":1732540822,"current_range_meters":38800,"station_id":"ce4bgip2rcd13ifvqbb0","pricing_plan_id":"cebpf4jnsgd1na2vs0mg"},{"bike_id":"36296f5c-0176-4be0-97c8-7930cda9c369","system_id":"levelo_inurba_marseille","lat":43.32109,"lon":5.36771,"is_reserved":false,"is_disabled":false,"rental_uris":{"android":"levelo://app?vid=36296f5c-0176-4be0-97c8-7930cda9c369","ios":"levelo://app?vid=36296f5c-0176-4be0-97c8-7930cda9c369"},"vehicle_type_id":"4","last_reported":1732540822,"current_range_meters":27200,"station_id":"ce4bhrh2rcd13ifvqhug","pricing_plan_id":"cebpf4jnsgd1na2vs0mg"},{"bike_id":"b9f550e6-10c3-40ac-9b1d-624567266dd8","system_id":"levelo_inurba_marseille","lat":43.32475,"lon":5.36568,"is_reserved":false,"is_disabled":false,"rental_uris":{"android":"levelo://app?vid=b9f550e6-10c3-40ac-9b1d-624567266dd8","ios":"levelo://app?vid=b9f550e6-10c3-40ac-9b1d-624567266dd8"},"vehicle_type_id":"4","last_reported":1732540822,"current_range_meters":25600,"station_id":"ce4bhs12rcd13ifvqhvg","pricing_plan_id":"cebpf4jnsgd1na2vs0mg"},{"bike_id":"3749f547-26de-49f3-8704-9a5a504b68f5","system_id":"levelo_inurba_marseille","lat":43.25581,"lon":5.38244,"is_reserved":false,"is_disabled":false,"rental_uris":{"android":"levelo://app?vid=3749f547-26de-49f3-8704-9a5a504b68f5","ios":"levelo://app?vid=3749f547-26de-49f3-8704-9a5a504b68f5"},"vehicle_type_id":"4","last_reported":1732540822,"current_range_meters":29600,"station_id":"ce4bhih2rcd13ifvqfs0","pricing_plan_id":"cebpf4jnsgd1na2vs0mg"},{"bike_id":"066d4edd-075b-4437-803d-c7740565a1af","system_id":"levelo_inurba_marseille","lat":43.29296,"lon":5.37459,"is_reserved":false,"is_disabled":false,"rental_uris":{"android":"levelo://app?vid=066d4edd-075b-4437-803d-c7740565a1af","ios":"levelo://app?vid=066d4edd-075b-4437-803d-c7740565a1af"},"vehicle_type_id":"4","last_reported":1732540822,"current_range_meters":28400,"station_id":"ce4bgi12rcd13ifvqb70","pricing_plan_id":"cebpf4jnsgd1na2vs0mg"},{"bike_id":"19def076-00f6-4d20-86ed-d7fa22e19df3","system_id":"levelo_inurba_marseille","lat":43.24074,"lon":5.37759,"is_reserved":false,"is_disabled":false,"rental_uris":{"android":"levelo://app?vid=19def076-00f6-4d20-86ed-d7fa22e19df3","ios":"levelo://app?vid=19def076-00f6-4d20-86ed-d7fa22e19df3"},"vehicle_type_id":"4","last_reported":1732540822,"current_range_meters":18800,"station_id":"ce4bhnp2rcd13ifvqgvg","pricing_plan_id":"cebpf4jnsgd1na2vs0mg"},{"bike_id":"1ebc2642-599e-41e5-89df-308a45bbfcfb","system_id":"levelo_inurba_marseille","lat":43.32109,"lon":5.36773,"is_reserved":false,"is_disabled":false,"rental_uris":{"android":"levelo://app?vid=1ebc2642-599e-41e5-89df-308a45bbfcfb","ios":"levelo://app?vid=1ebc2642-599e-41e5-89df-308a45bbfcfb"},"vehicle_type_id":"4","last_reported":1732540822,"current_range_meters":20400,"station_id":"ce4bhrh2rcd13ifvqhug","pricing_plan_id":"cebpf4jnsgd1na2vs0mg"},{"bike_id":"b86f2eef-7673-4a5d-878a-c0ee9eda3feb","system_id":"levelo_inurba_marseille","lat":43.30556,"lon":5.36538,"is_reserved":false,"is_disabled":false,"rental_uris":{"android":"levelo://app?vid=b86f2eef-7673-4a5d-878a-c0ee9eda3feb","ios":"levelo://app?vid=b86f2eef-7673-4a5d-878a-c0ee9eda3feb"},"vehicle_type_id":"4","last_reported":1732540822,"current_range_meters":22800,"station_id":"ce4bgs12rcd13ifvqcag","pricing_plan_id":"cebpf4jnsgd1na2vs0mg"},{"bike_id":"52d88450-c2e6-484e-9ff3-fbbc6ad2e36c","system_id":"levelo_inurba_marseille","lat":43.26677,"lon":5.38272,"is_reserved":false,"is_disabled":false,"rental_uris":{"android":"levelo://app?vid=52d88450-c2e6-484e-9ff3-fbbc6ad2e36c","ios":"levelo://app?vid=52d88450-c2e6-484e-9ff3-fbbc6ad2e36c"},"vehicle_type_id":"4","last_reported":1732540822,"current_range_meters":14400,"station_id":"ce4bhg92rcd13ifvqf90","pricing_plan_id":"cebpf4jnsgd1na2vs0mg"},{"bike_id":"8ac8ae6d-42b3-4068-a992-537653320638","system_id":"levelo_inurba_marseille","lat":43.25941,"lon":5.40919,"is_reserved":false,"is_disabled":false,"rental_uris":{"android":"levelo://app?vid=8ac8ae6d-42b3-4068-a992-537653320638","ios":"levelo://app?vid=8ac8ae6d-42b3-4068-a992-537653320638"},"vehicle_type_id":"4","last_reported":1732540822,"current_range_meters":32800,"station_id":"ce4bhm92rcd13ifvqglg","pricing_plan_id":"cebpf4jnsgd1na2vs0mg"},{"bike_id":"5d7feb9a-064c-4ad8-b84a-eddbfa1261c4","system_id":"levelo_inurba_marseille","lat":43.25117,"lon":5.40318,"is_reserved":false,"is_disabled":false,"rental_uris":{"android":"levelo://app?vid=5d7feb9a-064c-4ad8-b84a-eddbfa1261c4","ios":"levelo://app?vid=5d7feb9a-064c-4ad8-b84a-eddbfa1261c4"},"vehicle_type_id":"4","last_reported":1732540822,"current_range_meters":30800,"station_id":"ce4bhlh2rcd13ifvqgig","pricing_plan_id":"cebpf4jnsgd1na2vs0mg"},{"bike_id":"a918e547-6f82-4e25-bfd2-d24f191d92a1","system_id":"levelo_inurba_marseille","lat":43.24068,"lon":5.37734,"is_reserved":false,"is_disabled":false,"rental_uris":{"android":"levelo://app?vid=a918e547-6f82-4e25-bfd2-d24f191d92a1","ios":"levelo://app?vid=a918e547-6f82-4e25-bfd2-d24f191d92a1"},"vehicle_type_id":"4","last_reported":1732540822,"current_range_meters":28000,"station_id":"ce4bhnp2rcd13ifvqgvg","pricing_plan_id":"cebpf4jnsgd1na2vs0mg"},{"bike_id":"6454e564-4e89-4d66-9bef-1fddf4911052","system_id":"levelo_inurba_marseille","lat":43.30548,"lon":5.36558,"is_reserved":false,"is_disabled":true,"rental_uris":{"android":"levelo://app?vid=6454e564-4e89-4d66-9bef-1fddf4911052","ios":"levelo://app?vid=6454e564-4e89-4d66-9bef-1fddf4911052"},"vehicle_type_id":"4","last_reported":1732540822,"current_range_meters":8000,"station_id":"ce4bgs12rcd13ifvqcag","pricing_plan_id":"cebpf4jnsgd1na2vs0mg"},{"bike_id":"ada8dc80-eedd-4cb2-8421-923b90201e5c","system_id":"levelo_inurba_marseille","lat":43.26204,"lon":5.37937,"is_reserved":false,"is_disabled":false,"rental_uris":{"android":"levelo://app?vid=ada8dc80-eedd-4cb2-8421-923b90201e5c","ios":"levelo://app?vid=ada8dc80-eedd-4cb2-8421-923b90201e5c"},"vehicle_type_id":"4","last_reported":1732540822,"current_range_meters":38800,"station_id":"ce4bhjp2rcd13ifvqg90","pricing_plan_id":"cebpf4jnsgd1na2vs0mg"},{"bike_id":"514a8212-9b24-4a6b-a340-210872312793","system_id":"levelo_inurba_marseille","lat":43.27325,"lon":5.39101,"is_reserved":false,"is_disabled":true,"rental_uris":{"android":"levelo://app?vid=514a8212-9b24-4a6b-a340-210872312793","ios":"levelo://app?vid=514a8212-9b24-4a6b-a340-210872312793"},"vehicle_type_id":"4","last_reported":1732540822,"current_range_meters":12000,"station_id":"ce4bhgp2rcd13ifvqfe0","pricing_plan_id":"cebpf4jnsgd1na2vs0mg"},{"bike_id":"17ba6615-9f08-440e-93e9-f8f4f3600fcd","system_id":"levelo_inurba_marseille","lat":43.30539,"lon":5.36547,"is_reserved":false,"is_disabled":false,"rental_uris":{"android":"levelo://app?vid=17ba6615-9f08-440e-93e9-f8f4f3600fcd","ios":"levelo://app?vid=17ba6615-9f08-440e-93e9-f8f4f3600fcd"},"vehicle_type_id":"4","last_reported":1732540822,"current_range_meters":38800,"station_id":"ce4bgs12rcd13ifvqcag","pricing_plan_id":"cebpf4jnsgd1na2vs0mg"},{"bike_id":"cbc2167d-639d-4b33-b914-3ad6f36f2868","system_id":"levelo_inurba_marseille","lat":43.22923,"lon":5.35375,"is_reserved":false,"is_disabled":false,"rental_uris":{"android":"levelo://app?vid=cbc2167d-639d-4b33-b914-3ad6f36f2868","ios":"levelo://app?vid=cbc2167d-639d-4b33-b914-3ad6f36f2868"},"vehicle_type_id":"4","last_reported":1732540822,"current_range_meters":30000,"station_id":"cpo3532slgdg3j2ikp40","pricing_plan_id":"cebpf4jnsgd1na2vs0mg"},{"bike_id":"c4591fec-8c8d-495c-9589-bbcb7df7d040","system_id":"levelo_inurba_marseille","lat":43.27376,"lon":5.3625,"is_reserved":false,"is_disabled":false,"rental_uris":{"android":"levelo://app?vid=c4591fec-8c8d-495c-9589-bbcb7df7d040","ios":"levelo://app?vid=c4591fec-8c8d-495c-9589-bbcb7df7d040"},"vehicle_type_id":"4","last_reported":1732540822,"current_range_meters":38000,"station_id":"ce4bhbh2rcd13ifvqeo0","pricing_plan_id":"cebpf4jnsgd1na2vs0mg"},{"bike_id":"0483ec2a-b95d-4cd9-84b6-206e98973005","system_id":"levelo_inurba_marseille","lat":43.26562,"lon":5.39012,"is_reserved":false,"is_disabled":false,"rental_uris":{"android":"levelo://app?vid=0483ec2a-b95d-4cd9-84b6-206e98973005","ios":"levelo://app?vid=0483ec2a-b95d-4cd9-84b6-206e98973005"},"vehicle_type_id":"4","last_reported":1732540822,"current_range_meters":20400,"station_id":"ce4bhe12rcd13ifvqf30","pricing_plan_id":"cebpf4jnsgd1na2vs0mg"},{"bike_id":"8ff6927a-74d0-4610-b648-3cc754f0f233","system_id":"levelo_inurba_marseille","lat":43.28036,"lon":5.42439,"is_reserved":false,"is_disabled":false,"rental_uris":{"android":"levelo://app?vid=8ff6927a-74d0-4610-b648-3cc754f0f233","ios":"levelo://app?vid=8ff6927a-74d0-4610-b648-3cc754f0f233"},"vehicle_type_id":"4","last_reported":1732540822,"current_range_meters":22800,"station_id":"","pricing_plan_id":"cebpf4jnsgd1na2vs0mg"},{"bike_id":"635f2088-37d7-4c7e-b140-3292398be605","system_id":"levelo_inurba_marseille","lat":43.24806,"lon":5.37453,"is_reserved":false,"is_disabled":false,"rental_uris":{"android":"levelo://app?vid=635f2088-37d7-4c7e-b140-3292398be605","ios":"levelo://app?vid=635f2088-37d7-4c7e-b140-3292398be605"},"vehicle_type_id":"4","last_reported":1732540822,"current_range_meters":29600,"station_id":"ce4bhgh2rcd13ifvqfb0","pricing_plan_id":"cebpf4jnsgd1na2vs0mg"},{"bike_id":"799f454b-c2c3-4459-8538-779252cd3d40","system_id":"levelo_inurba_marseille","lat":43.2721,"lon":5.39172,"is_reserved":false,"is_disabled":false,"rental_uris":{"android":"levelo://app?vid=799f454b-c2c3-4459-8538-779252cd3d40","ios":"levelo://app?vid=799f454b-c2c3-4459-8538-779252cd3d40"},"vehicle_type_id":"4","last_reported":1732540822,"current_range_meters":14800,"station_id":"ce4bhhp2rcd13ifvqfm0","pricing_plan_id":"cebpf4jnsgd1na2vs0mg"},{"bike_id":"1364b3be-a94a-4b7c-aeae-35b767d5e537","system_id":"levelo_inurba_marseille","lat":43.32539,"lon":5.41438,"is_reserved":false,"is_disabled":false,"rental_uris":{"android":"levelo://app?vid=1364b3be-a94a-4b7c-aeae-35b767d5e537","ios":"levelo://app?vid=1364b3be-a94a-4b7c-aeae-35b767d5e537"},"vehicle_type_id":"4","last_reported":1732540822,"current_range_meters":27200,"station_id":"ce4bhq12rcd13ifvqhhg","pricing_plan_id":"cebpf4jnsgd1na2vs0mg"},{"bike_id":"2f3784db-4d41-454c-ace1-ccc8701e402d","system_id":"levelo_inurba_marseille","lat":43.29415,"lon":5.38619,"is_reserved":false,"is_disabled":false,"rental_uris":{"android":"levelo://app?vid=2f3784db-4d41-454c-ace1-ccc8701e402d","ios":"levelo://app?vid=2f3784db-4d41-454c-ace1-ccc8701e402d"},"vehicle_type_id":"4","last_reported":1732540822,"current_range_meters":37600,"station_id":"ce4bh2h2rcd13ifvqdh0","pricing_plan_id":"cebpf4jnsgd1na2vs0mg"},{"bike_id":"ac0b1748-85d5-4c2c-898d-7cc150942903","system_id":"levelo_inurba_marseille","lat":43.26563,"lon":5.39013,"is_reserved":false,"is_disabled":false,"rental_uris":{"android":"levelo://app?vid=ac0b1748-85d5-4c2c-898d-7cc150942903","ios":"levelo://app?vid=ac0b1748-85d5-4c2c-898d-7cc150942903"},"vehicle_type_id":"4","last_reported":1732540822,"current_range_meters":33200,"station_id":"ce4bhe12rcd13ifvqf30","pricing_plan_id":"cebpf4jnsgd1na2vs0mg"},{"bike_id":"9328bf07-69e7-4ddc-b711-0669ff412e1c","system_id":"levelo_inurba_marseille","lat":43.29281,"lon":5.40126,"is_reserved":false,"is_disabled":true,"rental_uris":{"android":"levelo://app?vid=9328bf07-69e7-4ddc-b711-0669ff412e1c","ios":"levelo://app?vid=9328bf07-69e7-4ddc-b711-0669ff412e1c"},"vehicle_type_id":"4","last_reported":1732540822,"current_range_meters":28800,"station_id":"ce4bh312rcd13ifvqdk0","pricing_plan_id":"cebpf4jnsgd1na2vs0mg"},{"bike_id":"8c9317ad-e399-4ba7-aa9b-ea01f0bff570","system_id":"levelo_inurba_marseille","lat":43.32105,"lon":5.3677,"is_reserved":false,"is_disabled":false,"rental_uris":{"android":"levelo://app?vid=8c9317ad-e399-4ba7-aa9b-ea01f0bff570","ios":"levelo://app?vid=8c9317ad-e399-4ba7-aa9b-ea01f0bff570"},"vehicle_type_id":"4","last_reported":1732540822,"current_range_meters":18800,"station_id":"ce4bhrh2rcd13ifvqhug","pricing_plan_id":"cebpf4jnsgd1na2vs0mg"},{"bike_id":"ed00ff1c-a428-4ce5-a455-260378e65da7","system_id":"levelo_inurba_marseille","lat":43.28803,"lon":5.40024,"is_reserved":false,"is_disabled":true,"rental_uris":{"android":"levelo://app?vid=ed00ff1c-a428-4ce5-a455-260378e65da7","ios":"levelo://app?vid=ed00ff1c-a428-4ce5-a455-260378e65da7"},"vehicle_type_id":"4","last_reported":1732540822,"current_range_meters":0,"station_id":"","pricing_plan_id":"cebpf4jnsgd1na2vs0mg"},{"bike_id":"9f39a5d0-7875-4e58-85fb-5252fae9a8e9","system_id":"levelo_inurba_marseille","lat":43.28347,"lon":5.38108,"is_reserved":false,"is_disabled":false,"rental_uris":{"android":"levelo://app?vid=9f39a5d0-7875-4e58-85fb-5252fae9a8e9","ios":"levelo://app?vid=9f39a5d0-7875-4e58-85fb-5252fae9a8e9"},"vehicle_type_id":"4","last_reported":1732540822,"current_range_meters":28000,"station_id":"ce4bh412rcd13ifvqdr0","pricing_plan_id":"cebpf4jnsgd1na2vs0mg"},{"bike_id":"858b65e1-94fc-4151-a71e-8b168cb19dcb","system_id":"levelo_inurba_marseille","lat":43.32249,"lon":5.39241,"is_reserved":false,"is_disabled":true,"rental_uris":{"android":"levelo://app?vid=858b65e1-94fc-4151-a71e-8b168cb19dcb","ios":"levelo://app?vid=858b65e1-94fc-4151-a71e-8b168cb19dcb"},"vehicle_type_id":"4","last_reported":1732540822,"current_range_meters":2000,"station_id":"","pricing_plan_id":"cebpf4jnsgd1na2vs0mg"},{"bike_id":"ce0839e0-537e-4665-81df-ecac770131d7","system_id":"levelo_inurba_marseille","lat":43.30254,"lon":5.40073,"is_reserved":false,"is_disabled":true,"rental_uris":{"android":"levelo://app?vid=ce0839e0-537e-4665-81df-ecac770131d7","ios":"levelo://app?vid=ce0839e0-537e-4665-81df-ecac770131d7"},"vehicle_type_id":"4","last_reported":1732540822,"current_range_meters":0,"station_id":"ce4bgvh2rcd13ifvqcs0","pricing_plan_id":"cebpf4jnsgd1na2vs0mg"},{"bike_id":"c19daa05-850d-4320-a7a9-0c3452315bd1","system_id":"levelo_inurba_marseille","lat":43.30531,"lon":5.3654,"is_reserved":false,"is_disabled":false,"rental_uris":{"android":"levelo://app?vid=c19daa05-850d-4320-a7a9-0c3452315bd1","ios":"levelo://app?vid=c19daa05-850d-4320-a7a9-0c3452315bd1"},"vehicle_type_id":"4","last_reported":1732540822,"current_range_meters":33200,"station_id":"ce4bgs12rcd13ifvqcag","pricing_plan_id":"cebpf4jnsgd1na2vs0mg"},{"bike_id":"c252ea49-c8b2-4704-94c8-b0b88175d268","system_id":"levelo_inurba_marseille","lat":43.30547,"lon":5.3654,"is_reserved":false,"is_disabled":false,"rental_uris":{"android":"levelo://app?vid=c252ea49-c8b2-4704-94c8-b0b88175d268","ios":"levelo://app?vid=c252ea49-c8b2-4704-94c8-b0b88175d268"},"vehicle_type_id":"4","last_reported":1732540822,"current_range_meters":6400,"station_id":"ce4bgs12rcd13ifvqcag","pricing_plan_id":"cebpf4jnsgd1na2vs0mg"},{"bike_id":"40fd1298-d57c-4042-a793-291f7ea14686","system_id":"levelo_inurba_marseille","lat":43.29852,"lon":5.36293,"is_reserved":false,"is_disabled":false,"rental_uris":{"android":"levelo://app?vid=40fd1298-d57c-4042-a793-291f7ea14686","ios":"levelo://app?vid=40fd1298-d57c-4042-a793-291f7ea14686"},"vehicle_type_id":"4","last_reported":1732540822,"current_range_meters":37600,"station_id":"ce4bgpp2rcd13ifvqc3g","pricing_plan_id":"cebpf4jnsgd1na2vs0mg"},{"bike_id":"bdcd807d-101c-4909-b854-901665fa1cfa","system_id":"levelo_inurba_marseille","lat":43.31359,"lon":5.38503,"is_reserved":false,"is_disabled":true,"rental_uris":{"android":"levelo://app?vid=bdcd807d-101c-4909-b854-901665fa1cfa","ios":"levelo://app?vid=bdcd807d-101c-4909-b854-901665fa1cfa"},"vehicle_type_id":"4","last_reported":1732540822,"current_range_meters":1600,"station_id":"ce4bgt92rcd13ifvqcf0","pricing_plan_id":"cebpf4jnsgd1na2vs0mg"},{"bike_id":"d2c5de91-ee11-4235-bf0b-2d6ba223d13a","system_id":"levelo_inurba_marseille","lat":43.34142,"lon":5.40902,"is_reserved":false,"is_disabled":false,"rental_uris":{"android":"levelo://app?vid=d2c5de91-ee11-4235-bf0b-2d6ba223d13a","ios":"levelo://app?vid=d2c5de91-ee11-4235-bf0b-2d6ba223d13a"},"vehicle_type_id":"4","last_reported":1732540822,"current_range_meters":38800,"station_id":"ce4bhqh2rcd13ifvqhlg","pricing_plan_id":"cebpf4jnsgd1na2vs0mg"},{"bike_id":"9888fe50-5284-4880-a4f3-d719e5c57162","system_id":"levelo_inurba_marseille","lat":43.29798,"lon":5.381,"is_reserved":false,"is_disabled":false,"rental_uris":{"android":"levelo://app?vid=9888fe50-5284-4880-a4f3-d719e5c57162","ios":"levelo://app?vid=9888fe50-5284-4880-a4f3-d719e5c57162"},"vehicle_type_id":"4","last_reported":1732540822,"current_range_meters":6800,"station_id":"ce4bgip2rcd13ifvqbb0","pricing_plan_id":"cebpf4jnsgd1na2vs0mg"},{"bike_id":"1c70e5e6-7fac-4d18-ba75-18652dc12e80","system_id":"levelo_inurba_marseille","lat":43.255,"lon":5.37649,"is_reserved":false,"is_disabled":false,"rental_uris":{"android":"levelo://app?vid=1c70e5e6-7fac-4d18-ba75-18652dc12e80","ios":"levelo://app?vid=1c70e5e6-7fac-4d18-ba75-18652dc12e80"},"vehicle_type_id":"4","last_reported":1732540822,"current_range_meters":38800,"station_id":"ce4bhh12rcd13ifvqff0","pricing_plan_id":"cebpf4jnsgd1na2vs0mg"},{"bike_id":"f4916991-c85f-4b7f-b703-7d2e6b8efcdf","system_id":"levelo_inurba_marseille","lat":43.33746,"lon":5.37452,"is_reserved":false,"is_disabled":false,"rental_uris":{"android":"levelo://app?vid=f4916991-c85f-4b7f-b703-7d2e6b8efcdf","ios":"levelo://app?vid=f4916991-c85f-4b7f-b703-7d2e6b8efcdf"},"vehicle_type_id":"4","last_reported":1732540822,"current_range_meters":16000,"station_id":"","pricing_plan_id":"cebpf4jnsgd1na2vs0mg"},{"bike_id":"552ae1f9-34eb-4d70-a19b-3616d3661778","system_id":"levelo_inurba_marseille","lat":43.33724,"lon":5.39173,"is_reserved":false,"is_disabled":false,"rental_uris":{"android":"levelo://app?vid=552ae1f9-34eb-4d70-a19b-3616d3661778","ios":"levelo://app?vid=552ae1f9-34eb-4d70-a19b-3616d3661778"},"vehicle_type_id":"4","last_reported":1732540822,"current_range_meters":9600,"station_id":"ce4bhr92rcd13ifvqhsg","pricing_plan_id":"cebpf4jnsgd1na2vs0mg"},{"bike_id":"6e8bf199-1489-4d95-855c-8dd52959e171","system_id":"levelo_inurba_marseille","lat":43.2738,"lon":5.36253,"is_reserved":false,"is_disabled":false,"rental_uris":{"android":"levelo://app?vid=6e8bf199-1489-4d95-855c-8dd52959e171","ios":"levelo://app?vid=6e8bf199-1489-4d95-855c-8dd52959e171"},"vehicle_type_id":"4","last_reported":1732540822,"current_range_meters":27600,"station_id":"ce4bhbh2rcd13ifvqeo0","pricing_plan_id":"cebpf4jnsgd1na2vs0mg"},{"bike_id":"f7f3756c-1ec7-4782-9c87-6273f87b6774","system_id":"levelo_inurba_marseille","lat":43.337444,"lon":5.374475,"is_reserved":false,"is_disabled":true,"rental_uris":{"android":"levelo://app?vid=f7f3756c-1ec7-4782-9c87-6273f87b6774","ios":"levelo://app?vid=f7f3756c-1ec7-4782-9c87-6273f87b6774"},"vehicle_type_id":"4","last_reported":1732540822,"current_range_meters":24000,"station_id":"","pricing_plan_id":"cebpf4jnsgd1na2vs0mg"},{"bike_id":"cd8c2128-3f57-449e-9910-94d2cd8aa711","system_id":"levelo_inurba_marseille","lat":43.26495,"lon":5.3954,"is_reserved":false,"is_disabled":false,"rental_uris":{"android":"levelo://app?vid=cd8c2128-3f57-449e-9910-94d2cd8aa711","ios":"levelo://app?vid=cd8c2128-3f57-449e-9910-94d2cd8aa711"},"vehicle_type_id":"4","last_reported":1732540822,"current_range_meters":38400,"station_id":"ce4bhi12rcd13ifvqfq0","pricing_plan_id":"cebpf4jnsgd1na2vs0mg"},{"bike_id":"57b110bc-d427-4076-9a55-28213cac1a4e","system_id":"levelo_inurba_marseille","lat":43.26686,"lon":5.38274,"is_reserved":false,"is_disabled":false,"rental_uris":{"android":"levelo://app?vid=57b110bc-d427-4076-9a55-28213cac1a4e","ios":"levelo://app?vid=57b110bc-d427-4076-9a55-28213cac1a4e"},"vehicle_type_id":"4","last_reported":1732540822,"current_range_meters":21600,"station_id":"ce4bhg92rcd13ifvqf90","pricing_plan_id":"cebpf4jnsgd1na2vs0mg"},{"bike_id":"bc2ab4b8-0a8a-4dd3-b615-272ca02b7a2d","system_id":"levelo_inurba_marseille","lat":43.26196,"lon":5.37932,"is_reserved":false,"is_disabled":false,"rental_uris":{"android":"levelo://app?vid=bc2ab4b8-0a8a-4dd3-b615-272ca02b7a2d","ios":"levelo://app?vid=bc2ab4b8-0a8a-4dd3-b615-272ca02b7a2d"},"vehicle_type_id":"4","last_reported":1732540822,"current_range_meters":39200,"station_id":"ce4bhjp2rcd13ifvqg90","pricing_plan_id":"cebpf4jnsgd1na2vs0mg"},{"bike_id":"1406efc3-0d5e-49b4-8025-82ab6797cd40","system_id":"levelo_inurba_marseille","lat":43.27966,"lon":5.38737,"is_reserved":false,"is_disabled":false,"rental_uris":{"android":"levelo://app?vid=1406efc3-0d5e-49b4-8025-82ab6797cd40","ios":"levelo://app?vid=1406efc3-0d5e-49b4-8025-82ab6797cd40"},"vehicle_type_id":"4","last_reported":1732540822,"current_range_meters":22800,"station_id":"ce4bhg12rcd13ifvqf80","pricing_plan_id":"cebpf4jnsgd1na2vs0mg"},{"bike_id":"70374131-c02f-492b-a621-516b85f303fb","system_id":"levelo_inurba_marseille","lat":43.26947,"lon":5.38626,"is_reserved":false,"is_disabled":false,"rental_uris":{"android":"levelo://app?vid=70374131-c02f-492b-a621-516b85f303fb","ios":"levelo://app?vid=70374131-c02f-492b-a621-516b85f303fb"},"vehicle_type_id":"4","last_reported":1732540822,"current_range_meters":24800,"station_id":"ce4bhh92rcd13ifvqfh0","pricing_plan_id":"cebpf4jnsgd1na2vs0mg"},{"bike_id":"25a2b490-97af-47b5-a929-7a7a9e93428d","system_id":"levelo_inurba_marseille","lat":43.3059,"lon":5.39358,"is_reserved":false,"is_disabled":false,"rental_uris":{"android":"levelo://app?vid=25a2b490-97af-47b5-a929-7a7a9e93428d","ios":"levelo://app?vid=25a2b490-97af-47b5-a929-7a7a9e93428d"},"vehicle_type_id":"4","last_reported":1732540822,"current_range_meters":7200,"station_id":"ce4bh0p2rcd13ifvqd80","pricing_plan_id":"cebpf4jnsgd1na2vs0mg"},{"bike_id":"e9c58893-2a5f-4ff0-bc52-ed6250a8aba0","system_id":"levelo_inurba_marseille","lat":43.29971,"lon":5.38481,"is_reserved":false,"is_disabled":false,"rental_uris":{"android":"levelo://app?vid=e9c58893-2a5f-4ff0-bc52-ed6250a8aba0","ios":"levelo://app?vid=e9c58893-2a5f-4ff0-bc52-ed6250a8aba0"},"vehicle_type_id":"4","last_reported":1732540822,"current_range_meters":14800,"station_id":"ce4bgj92rcd13ifvqbd0","pricing_plan_id":"cebpf4jnsgd1na2vs0mg"},{"bike_id":"3b61d502-b161-4d1c-aa52-76d23145153c","system_id":"levelo_inurba_marseille","lat":43.29277,"lon":5.36845,"is_reserved":false,"is_disabled":false,"rental_uris":{"android":"levelo://app?vid=3b61d502-b161-4d1c-aa52-76d23145153c","ios":"levelo://app?vid=3b61d502-b161-4d1c-aa52-76d23145153c"},"vehicle_type_id":"4","last_reported":1732540822,"current_range_meters":35600,"station_id":"ce4bhbp2rcd13ifvqesg","pricing_plan_id":"cebpf4jnsgd1na2vs0mg"},{"bike_id":"7f89b812-16cb-4135-bc5f-efa2b244ec26","system_id":"levelo_inurba_marseille","lat":43.26548,"lon":5.37289,"is_reserved":false,"is_disabled":true,"rental_uris":{"android":"levelo://app?vid=7f89b812-16cb-4135-bc5f-efa2b244ec26","ios":"levelo://app?vid=7f89b812-16cb-4135-bc5f-efa2b244ec26"},"vehicle_type_id":"4","last_reported":1732540822,"current_range_meters":36800,"station_id":"ce4bhg12rcd13ifvqf70","pricing_plan_id":"cebpf4jnsgd1na2vs0mg"},{"bike_id":"e2f0ef73-8018-4db5-80ea-af7dd90396dd","system_id":"levelo_inurba_marseille","lat":43.28151,"lon":5.42641,"is_reserved":false,"is_disabled":false,"rental_uris":{"android":"levelo://app?vid=e2f0ef73-8018-4db5-80ea-af7dd90396dd","ios":"levelo://app?vid=e2f0ef73-8018-4db5-80ea-af7dd90396dd"},"vehicle_type_id":"4","last_reported":1732540822,"current_range_meters":18000,"station_id":"ce4bhnh2rcd13ifvqgug","pricing_plan_id":"cebpf4jnsgd1na2vs0mg"},{"bike_id":"86ec5835-1e76-4455-9969-54b44bba3755","system_id":"levelo_inurba_marseille","lat":43.3248,"lon":5.3656,"is_reserved":false,"is_disabled":false,"rental_uris":{"android":"levelo://app?vid=86ec5835-1e76-4455-9969-54b44bba3755","ios":"levelo://app?vid=86ec5835-1e76-4455-9969-54b44bba3755"},"vehicle_type_id":"4","last_reported":1732540822,"current_range_meters":39200,"station_id":"ce4bhs12rcd13ifvqhvg","pricing_plan_id":"cebpf4jnsgd1na2vs0mg"},{"bike_id":"54aa96d9-1827-49fc-85aa-0558dfaec8c4","system_id":"levelo_inurba_marseille","lat":43.28708,"lon":5.37944,"is_reserved":false,"is_disabled":false,"rental_uris":{"android":"levelo://app?vid=54aa96d9-1827-49fc-85aa-0558dfaec8c4","ios":"levelo://app?vid=54aa96d9-1827-49fc-85aa-0558dfaec8c4"},"vehicle_type_id":"4","last_reported":1732540822,"current_range_meters":12800,"station_id":"ce4bh9p2rcd13ifvqec0","pricing_plan_id":"cebpf4jnsgd1na2vs0mg"},{"bike_id":"3da2d427-88ec-469e-8ad0-4856f026458e","system_id":"levelo_inurba_marseille","lat":43.28707,"lon":5.37937,"is_reserved":false,"is_disabled":false,"rental_uris":{"android":"levelo://app?vid=3da2d427-88ec-469e-8ad0-4856f026458e","ios":"levelo://app?vid=3da2d427-88ec-469e-8ad0-4856f026458e"},"vehicle_type_id":"4","last_reported":1732540822,"current_range_meters":28800,"station_id":"ce4bh9p2rcd13ifvqec0","pricing_plan_id":"cebpf4jnsgd1na2vs0mg"},{"bike_id":"63e5c75a-30c8-4be5-8ec8-448fdf89dbb8","system_id":"levelo_inurba_marseille","lat":43.23068,"lon":5.3549,"is_reserved":false,"is_disabled":false,"rental_uris":{"android":"levelo://app?vid=63e5c75a-30c8-4be5-8ec8-448fdf89dbb8","ios":"levelo://app?vid=63e5c75a-30c8-4be5-8ec8-448fdf89dbb8"},"vehicle_type_id":"4","last_reported":1732540822,"current_range_meters":36800,"station_id":"cpo3342slgdg3j2ifvpg","pricing_plan_id":"cebpf4jnsgd1na2vs0mg"},{"bike_id":"225481a4-8d0d-49b7-9354-a44a706b5862","system_id":"levelo_inurba_marseille","lat":43.24129,"lon":5.36686,"is_reserved":false,"is_disabled":false,"rental_uris":{"android":"levelo://app?vid=225481a4-8d0d-49b7-9354-a44a706b5862","ios":"levelo://app?vid=225481a4-8d0d-49b7-9354-a44a706b5862"},"vehicle_type_id":"4","last_reported":1732540822,"current_range_meters":8800,"station_id":"ce4bhi12rcd13ifvqfp0","pricing_plan_id":"cebpf4jnsgd1na2vs0mg"},{"bike_id":"cf251549-26dd-4cfe-aae0-68a73509a128","system_id":"levelo_inurba_marseille","lat":43.30244,"lon":5.40064,"is_reserved":false,"is_disabled":false,"rental_uris":{"android":"levelo://app?vid=cf251549-26dd-4cfe-aae0-68a73509a128","ios":"levelo://app?vid=cf251549-26dd-4cfe-aae0-68a73509a128"},"vehicle_type_id":"4","last_reported":1732540822,"current_range_meters":9200,"station_id":"ce4bgvh2rcd13ifvqcs0","pricing_plan_id":"cebpf4jnsgd1na2vs0mg"},{"bike_id":"f8ef7e89-5e64-4095-a7c2-9055ca7247f1","system_id":"levelo_inurba_marseille","lat":43.2749,"lon":5.42455,"is_reserved":false,"is_disabled":false,"rental_uris":{"android":"levelo://app?vid=f8ef7e89-5e64-4095-a7c2-9055ca7247f1","ios":"levelo://app?vid=f8ef7e89-5e64-4095-a7c2-9055ca7247f1"},"vehicle_type_id":"4","last_reported":1732540822,"current_range_meters":38000,"station_id":"ce4bhn92rcd13ifvqgrg","pricing_plan_id":"cebpf4jnsgd1na2vs0mg"},{"bike_id":"1cd4e653-de41-4a68-ac8f-1fc33f37b6b4","system_id":"levelo_inurba_marseille","lat":43.27491,"lon":5.42458,"is_reserved":false,"is_disabled":false,"rental_uris":{"android":"levelo://app?vid=1cd4e653-de41-4a68-ac8f-1fc33f37b6b4","ios":"levelo://app?vid=1cd4e653-de41-4a68-ac8f-1fc33f37b6b4"},"vehicle_type_id":"4","last_reported":1732540822,"current_range_meters":39200,"station_id":"ce4bhn92rcd13ifvqgrg","pricing_plan_id":"cebpf4jnsgd1na2vs0mg"},{"bike_id":"6a30d627-309b-4ab9-ab1e-41d25a38cdaa","system_id":"levelo_inurba_marseille","lat":43.32538,"lon":5.41441,"is_reserved":false,"is_disabled":true,"rental_uris":{"android":"levelo://app?vid=6a30d627-309b-4ab9-ab1e-41d25a38cdaa","ios":"levelo://app?vid=6a30d627-309b-4ab9-ab1e-41d25a38cdaa"},"vehicle_type_id":"4","last_reported":1732540822,"current_range_meters":38000,"station_id":"ce4bhq12rcd13ifvqhhg","pricing_plan_id":"cebpf4jnsgd1na2vs0mg"},{"bike_id":"d32e419a-46a3-4050-be6a-d2a299ac411f","system_id":"levelo_inurba_marseille","lat":43.29303,"lon":5.3717,"is_reserved":false,"is_disabled":false,"rental_uris":{"android":"levelo://app?vid=d32e419a-46a3-4050-be6a-d2a299ac411f","ios":"levelo://app?vid=d32e419a-46a3-4050-be6a-d2a299ac411f"},"vehicle_type_id":"4","last_reported":1732540822,"current_range_meters":28400,"station_id":"ce4bgh92rcd13ifvqb40","pricing_plan_id":"cebpf4jnsgd1na2vs0mg"},{"bike_id":"bca3fd95-577b-4655-a940-7281cdb56793","system_id":"levelo_inurba_marseille","lat":43.28031,"lon":5.36939,"is_reserved":false,"is_disabled":true,"rental_uris":{"android":"levelo://app?vid=bca3fd95-577b-4655-a940-7281cdb56793","ios":"levelo://app?vid=bca3fd95-577b-4655-a940-7281cdb56793"},"vehicle_type_id":"4","last_reported":1732540822,"current_range_meters":30000,"station_id":"ce4bha12rcd13ifvqef0","pricing_plan_id":"cebpf4jnsgd1na2vs0mg"},{"bike_id":"e5951ee3-4a5a-4ebb-b469-096c5188dfa3","system_id":"levelo_inurba_marseille","lat":43.23187,"lon":5.35552,"is_reserved":false,"is_disabled":false,"rental_uris":{"android":"levelo://app?vid=e5951ee3-4a5a-4ebb-b469-096c5188dfa3","ios":"levelo://app?vid=e5951ee3-4a5a-4ebb-b469-096c5188dfa3"},"vehicle_type_id":"4","last_reported":1732540822,"current_range_meters":38800,"station_id":"ce4bhu92rcd13ifvqi70","pricing_plan_id":"cebpf4jnsgd1na2vs0mg"},{"bike_id":"3cc26207-7312-4eaa-95b6-cfa66aac5ad8","system_id":"levelo_inurba_marseille","lat":43.2315,"lon":5.43711,"is_reserved":false,"is_disabled":false,"rental_uris":{"android":"levelo://app?vid=3cc26207-7312-4eaa-95b6-cfa66aac5ad8","ios":"levelo://app?vid=3cc26207-7312-4eaa-95b6-cfa66aac5ad8"},"vehicle_type_id":"4","last_reported":1732540822,"current_range_meters":14800,"station_id":"ce4bhmp2rcd13ifvqgog","pricing_plan_id":"cebpf4jnsgd1na2vs0mg"},{"bike_id":"33ae12dc-d757-46bf-b195-cf4bbca44eb2","system_id":"levelo_inurba_marseille","lat":43.30533,"lon":5.36551,"is_reserved":false,"is_disabled":false,"rental_uris":{"android":"levelo://app?vid=33ae12dc-d757-46bf-b195-cf4bbca44eb2","ios":"levelo://app?vid=33ae12dc-d757-46bf-b195-cf4bbca44eb2"},"vehicle_type_id":"4","last_reported":1732540822,"current_range_meters":38800,"station_id":"ce4bgs12rcd13ifvqcag","pricing_plan_id":"cebpf4jnsgd1na2vs0mg"},{"bike_id":"66aad5d7-efa9-4543-8e11-bbf0af584fcf","system_id":"levelo_inurba_marseille","lat":43.27811,"lon":5.407,"is_reserved":false,"is_disabled":true,"rental_uris":{"android":"levelo://app?vid=66aad5d7-efa9-4543-8e11-bbf0af584fcf","ios":"levelo://app?vid=66aad5d7-efa9-4543-8e11-bbf0af584fcf"},"vehicle_type_id":"4","last_reported":1732540822,"current_range_meters":38800,"station_id":"ce4bhnh2rcd13ifvqgtg","pricing_plan_id":"cebpf4jnsgd1na2vs0mg"},{"bike_id":"72488474-eae6-4478-8a05-c823522d6ae5","system_id":"levelo_inurba_marseille","lat":43.27971,"lon":5.38745,"is_reserved":false,"is_disabled":false,"rental_uris":{"android":"levelo://app?vid=72488474-eae6-4478-8a05-c823522d6ae5","ios":"levelo://app?vid=72488474-eae6-4478-8a05-c823522d6ae5"},"vehicle_type_id":"4","last_reported":1732540822,"current_range_meters":30000,"station_id":"ce4bhg12rcd13ifvqf80","pricing_plan_id":"cebpf4jnsgd1na2vs0mg"},{"bike_id":"6c948e9c-d5b3-4fe5-a918-1bd2f7c83b02","system_id":"levelo_inurba_marseille","lat":43.32119,"lon":5.36774,"is_reserved":false,"is_disabled":false,"rental_uris":{"android":"levelo://app?vid=6c948e9c-d5b3-4fe5-a918-1bd2f7c83b02","ios":"levelo://app?vid=6c948e9c-d5b3-4fe5-a918-1bd2f7c83b02"},"vehicle_type_id":"4","last_reported":1732540822,"current_range_meters":24400,"station_id":"ce4bhrh2rcd13ifvqhug","pricing_plan_id":"cebpf4jnsgd1na2vs0mg"},{"bike_id":"9e620abf-d324-4f99-84fc-d67e71109f2a","system_id":"levelo_inurba_marseille","lat":43.31077,"lon":5.42435,"is_reserved":false,"is_disabled":true,"rental_uris":{"android":"levelo://app?vid=9e620abf-d324-4f99-84fc-d67e71109f2a","ios":"levelo://app?vid=9e620abf-d324-4f99-84fc-d67e71109f2a"},"vehicle_type_id":"4","last_reported":1732540822,"current_range_meters":0,"station_id":"ce4bhp92rcd13ifvqhag","pricing_plan_id":"cebpf4jnsgd1na2vs0mg"},{"bike_id":"9388a7ff-9c5c-4c26-9899-39b2408cf7e3","system_id":"levelo_inurba_marseille","lat":43.31025,"lon":5.38342,"is_reserved":false,"is_disabled":true,"rental_uris":{"android":"levelo://app?vid=9388a7ff-9c5c-4c26-9899-39b2408cf7e3","ios":"levelo://app?vid=9388a7ff-9c5c-4c26-9899-39b2408cf7e3"},"vehicle_type_id":"4","last_reported":1732540822,"current_range_meters":0,"station_id":"","pricing_plan_id":"cebpf4jnsgd1na2vs0mg"},{"bike_id":"f0b812fb-308b-478f-b343-bd91863b177d","system_id":"levelo_inurba_marseille","lat":43.323456,"lon":5.40621,"is_reserved":false,"is_disabled":true,"rental_uris":{"android":"levelo://app?vid=f0b812fb-308b-478f-b343-bd91863b177d","ios":"levelo://app?vid=f0b812fb-308b-478f-b343-bd91863b177d"},"vehicle_type_id":"4","last_reported":1732540822,"current_range_meters":10000,"station_id":"ce4bhq92rcd13ifvqhjg","pricing_plan_id":"cebpf4jnsgd1na2vs0mg"},{"bike_id":"f7391c5b-b81b-40d5-9499-a3596cfb1899","system_id":"levelo_inurba_marseille","lat":43.28999,"lon":5.35603,"is_reserved":false,"is_disabled":false,"rental_uris":{"android":"levelo://app?vid=f7391c5b-b81b-40d5-9499-a3596cfb1899","ios":"levelo://app?vid=f7391c5b-b81b-40d5-9499-a3596cfb1899"},"vehicle_type_id":"4","last_reported":1732540822,"current_range_meters":34800,"station_id":"ce4bhb92rcd13ifvqen0","pricing_plan_id":"cebpf4jnsgd1na2vs0mg"},{"bike_id":"7c91f2ac-1dd3-428c-aafd-49def36e722e","system_id":"levelo_inurba_marseille","lat":43.337444,"lon":5.374475,"is_reserved":false,"is_disabled":false,"rental_uris":{"android":"levelo://app?vid=7c91f2ac-1dd3-428c-aafd-49def36e722e","ios":"levelo://app?vid=7c91f2ac-1dd3-428c-aafd-49def36e722e"},"vehicle_type_id":"4","last_reported":1732540822,"current_range_meters":34000,"station_id":"","pricing_plan_id":"cebpf4jnsgd1na2vs0mg"},{"bike_id":"2e3be6b5-744e-4939-96b4-dfac134c2621","system_id":"levelo_inurba_marseille","lat":43.29577,"lon":5.39957,"is_reserved":false,"is_disabled":false,"rental_uris":{"android":"levelo://app?vid=2e3be6b5-744e-4939-96b4-dfac134c2621","ios":"levelo://app?vid=2e3be6b5-744e-4939-96b4-dfac134c2621"},"vehicle_type_id":"4","last_reported":1732540822,"current_range_meters":38400,"station_id":"ce4bh312rcd13ifvqdj0","pricing_plan_id":"cebpf4jnsgd1na2vs0mg"},{"bike_id":"dd45cca2-4784-42d8-b742-63e444597be9","system_id":"levelo_inurba_marseille","lat":43.29369,"lon":5.37847,"is_reserved":false,"is_disabled":false,"rental_uris":{"android":"levelo://app?vid=dd45cca2-4784-42d8-b742-63e444597be9","ios":"levelo://app?vid=dd45cca2-4784-42d8-b742-63e444597be9"},"vehicle_type_id":"4","last_reported":1732540822,"current_range_meters":36000,"station_id":"ce4bgjh2rcd13ifvqbf0","pricing_plan_id":"cebpf4jnsgd1na2vs0mg"},{"bike_id":"f14e9fba-b9bd-4443-896c-9fd7a4fd971d","system_id":"levelo_inurba_marseille","lat":43.29904,"lon":5.43672,"is_reserved":false,"is_disabled":false,"rental_uris":{"android":"levelo://app?vid=f14e9fba-b9bd-4443-896c-9fd7a4fd971d","ios":"levelo://app?vid=f14e9fba-b9bd-4443-896c-9fd7a4fd971d"},"vehicle_type_id":"4","last_reported":1732540822,"current_range_meters":39200,"station_id":"ce4bhpp2rcd13ifvqhfg","pricing_plan_id":"cebpf4jnsgd1na2vs0mg"},{"bike_id":"5c53cfbd-2547-413a-b79a-f8cc3b1ca992","system_id":"levelo_inurba_marseille","lat":43.32112,"lon":5.36777,"is_reserved":false,"is_disabled":false,"rental_uris":{"android":"levelo://app?vid=5c53cfbd-2547-413a-b79a-f8cc3b1ca992","ios":"levelo://app?vid=5c53cfbd-2547-413a-b79a-f8cc3b1ca992"},"vehicle_type_id":"4","last_reported":1732540822,"current_range_meters":36800,"station_id":"ce4bhrh2rcd13ifvqhug","pricing_plan_id":"cebpf4jnsgd1na2vs0mg"},{"bike_id":"1930fbd7-c4fb-4c91-b0cb-04c9adde9ef0","system_id":"levelo_inurba_marseille","lat":43.29414,"lon":5.38621,"is_reserved":false,"is_disabled":false,"rental_uris":{"android":"levelo://app?vid=1930fbd7-c4fb-4c91-b0cb-04c9adde9ef0","ios":"levelo://app?vid=1930fbd7-c4fb-4c91-b0cb-04c9adde9ef0"},"vehicle_type_id":"4","last_reported":1732540822,"current_range_meters":16800,"station_id":"ce4bh2h2rcd13ifvqdh0","pricing_plan_id":"cebpf4jnsgd1na2vs0mg"},{"bike_id":"256bcf67-197e-4786-b79f-0b86efb5a3ef","system_id":"levelo_inurba_marseille","lat":43.29974,"lon":5.38489,"is_reserved":false,"is_disabled":false,"rental_uris":{"android":"levelo://app?vid=256bcf67-197e-4786-b79f-0b86efb5a3ef","ios":"levelo://app?vid=256bcf67-197e-4786-b79f-0b86efb5a3ef"},"vehicle_type_id":"4","last_reported":1732540822,"current_range_meters":28800,"station_id":"ce4bgj92rcd13ifvqbd0","pricing_plan_id":"cebpf4jnsgd1na2vs0mg"},{"bike_id":"3b1c97d8-be81-484f-81f9-990f5b17db10","system_id":"levelo_inurba_marseille","lat":43.34147,"lon":5.40911,"is_reserved":false,"is_disabled":true,"rental_uris":{"android":"levelo://app?vid=3b1c97d8-be81-484f-81f9-990f5b17db10","ios":"levelo://app?vid=3b1c97d8-be81-484f-81f9-990f5b17db10"},"vehicle_type_id":"4","last_reported":1732540822,"current_range_meters":38000,"station_id":"ce4bhqh2rcd13ifvqhlg","pricing_plan_id":"cebpf4jnsgd1na2vs0mg"},{"bike_id":"43ef1878-08c8-43ce-8a84-e0d20cc2548c","system_id":"levelo_inurba_marseille","lat":43.25941,"lon":5.40904,"is_reserved":false,"is_disabled":false,"rental_uris":{"android":"levelo://app?vid=43ef1878-08c8-43ce-8a84-e0d20cc2548c","ios":"levelo://app?vid=43ef1878-08c8-43ce-8a84-e0d20cc2548c"},"vehicle_type_id":"4","last_reported":1732540822,"current_range_meters":36400,"station_id":"ce4bhm92rcd13ifvqglg","pricing_plan_id":"cebpf4jnsgd1na2vs0mg"},{"bike_id":"c654d963-59cb-411d-88f5-00e380e29de2","system_id":"levelo_inurba_marseille","lat":43.29791,"lon":5.381,"is_reserved":false,"is_disabled":false,"rental_uris":{"android":"levelo://app?vid=c654d963-59cb-411d-88f5-00e380e29de2","ios":"levelo://app?vid=c654d963-59cb-411d-88f5-00e380e29de2"},"vehicle_type_id":"4","last_reported":1732540822,"current_range_meters":36000,"station_id":"ce4bgip2rcd13ifvqbb0","pricing_plan_id":"cebpf4jnsgd1na2vs0mg"},{"bike_id":"88aa470a-28cb-4249-940d-574827546a59","system_id":"levelo_inurba_marseille","lat":43.29852,"lon":5.36291,"is_reserved":false,"is_disabled":false,"rental_uris":{"android":"levelo://app?vid=88aa470a-28cb-4249-940d-574827546a59","ios":"levelo://app?vid=88aa470a-28cb-4249-940d-574827546a59"},"vehicle_type_id":"4","last_reported":1732540822,"current_range_meters":22000,"station_id":"ce4bgpp2rcd13ifvqc3g","pricing_plan_id":"cebpf4jnsgd1na2vs0mg"},{"bike_id":"5a5dc9da-13ee-4e53-9066-4548e3d0883f","system_id":"levelo_inurba_marseille","lat":43.33761,"lon":5.37454,"is_reserved":false,"is_disabled":false,"rental_uris":{"android":"levelo://app?vid=5a5dc9da-13ee-4e53-9066-4548e3d0883f","ios":"levelo://app?vid=5a5dc9da-13ee-4e53-9066-4548e3d0883f"},"vehicle_type_id":"4","last_reported":1732540822,"current_range_meters":16400,"station_id":"","pricing_plan_id":"cebpf4jnsgd1na2vs0mg"},{"bike_id":"40c7ddb8-0e1a-4eb1-9e2f-d3bf1a0f9d1e","system_id":"levelo_inurba_marseille","lat":43.28274,"lon":5.35069,"is_reserved":false,"is_disabled":true,"rental_uris":{"android":"levelo://app?vid=40c7ddb8-0e1a-4eb1-9e2f-d3bf1a0f9d1e","ios":"levelo://app?vid=40c7ddb8-0e1a-4eb1-9e2f-d3bf1a0f9d1e"},"vehicle_type_id":"4","last_reported":1732540822,"current_range_meters":25600,"station_id":"ce4bhbp2rcd13ifvqerg","pricing_plan_id":"cebpf4jnsgd1na2vs0mg"},{"bike_id":"46ac22a8-6f10-4221-98a6-34eba5c97bfb","system_id":"levelo_inurba_marseille","lat":43.29191,"lon":5.3732,"is_reserved":false,"is_disabled":true,"rental_uris":{"android":"levelo://app?vid=46ac22a8-6f10-4221-98a6-34eba5c97bfb","ios":"levelo://app?vid=46ac22a8-6f10-4221-98a6-34eba5c97bfb"},"vehicle_type_id":"4","last_reported":1732540822,"current_range_meters":0,"station_id":"","pricing_plan_id":"cebpf4jnsgd1na2vs0mg"},{"bike_id":"5846e7ee-045c-466d-b02c-9cd3eadc9db6","system_id":"levelo_inurba_marseille","lat":43.29199,"lon":5.35803,"is_reserved":false,"is_disabled":true,"rental_uris":{"android":"levelo://app?vid=5846e7ee-045c-466d-b02c-9cd3eadc9db6","ios":"levelo://app?vid=5846e7ee-045c-466d-b02c-9cd3eadc9db6"},"vehicle_type_id":"4","last_reported":1732540822,"current_range_meters":38800,"station_id":"ce4bhb12rcd13ifvqel0","pricing_plan_id":"cebpf4jnsgd1na2vs0mg"},{"bike_id":"cc9b9dd9-b9e0-4271-aaac-c023d094cddd","system_id":"levelo_inurba_marseille","lat":43.28347,"lon":5.3811,"is_reserved":false,"is_disabled":false,"rental_uris":{"android":"levelo://app?vid=cc9b9dd9-b9e0-4271-aaac-c023d094cddd","ios":"levelo://app?vid=cc9b9dd9-b9e0-4271-aaac-c023d094cddd"},"vehicle_type_id":"4","last_reported":1732540822,"current_range_meters":26000,"station_id":"ce4bh412rcd13ifvqdr0","pricing_plan_id":"cebpf4jnsgd1na2vs0mg"},{"bike_id":"25dcc473-3f4a-4da9-910c-6686c627596d","system_id":"levelo_inurba_marseille","lat":43.29523,"lon":5.39032,"is_reserved":false,"is_disabled":false,"rental_uris":{"android":"levelo://app?vid=25dcc473-3f4a-4da9-910c-6686c627596d","ios":"levelo://app?vid=25dcc473-3f4a-4da9-910c-6686c627596d"},"vehicle_type_id":"4","last_reported":1732540822,"current_range_meters":38000,"station_id":"ce4bh3p2rcd13ifvqdp0","pricing_plan_id":"cebpf4jnsgd1na2vs0mg"},{"bike_id":"43746d86-8a13-4845-9faf-ae69b548d714","system_id":"levelo_inurba_marseille","lat":43.29448,"lon":5.37927,"is_reserved":false,"is_disabled":true,"rental_uris":{"android":"levelo://app?vid=43746d86-8a13-4845-9faf-ae69b548d714","ios":"levelo://app?vid=43746d86-8a13-4845-9faf-ae69b548d714"},"vehicle_type_id":"4","last_reported":1732540822,"current_range_meters":0,"station_id":"","pricing_plan_id":"cebpf4jnsgd1na2vs0mg"},{"bike_id":"2af2f209-74ab-41f6-b808-cd21a37751e1","system_id":"levelo_inurba_marseille","lat":43.26036,"lon":5.37554,"is_reserved":false,"is_disabled":false,"rental_uris":{"android":"levelo://app?vid=2af2f209-74ab-41f6-b808-cd21a37751e1","ios":"levelo://app?vid=2af2f209-74ab-41f6-b808-cd21a37751e1"},"vehicle_type_id":"4","last_reported":1732540822,"current_range_meters":38000,"station_id":"ce4bhgh2rcd13ifvqfa0","pricing_plan_id":"cebpf4jnsgd1na2vs0mg"},{"bike_id":"7317920e-5975-4c67-a891-63736e89f140","system_id":"levelo_inurba_marseille","lat":43.29274,"lon":5.36786,"is_reserved":false,"is_disabled":true,"rental_uris":{"android":"levelo://app?vid=7317920e-5975-4c67-a891-63736e89f140","ios":"levelo://app?vid=7317920e-5975-4c67-a891-63736e89f140"},"vehicle_type_id":"4","last_reported":1732540822,"current_range_meters":23200,"station_id":"","pricing_plan_id":"cebpf4jnsgd1na2vs0mg"},{"bike_id":"a2b09865-004d-45eb-b301-cf3640220a72","system_id":"levelo_inurba_marseille","lat":43.29605,"lon":5.38105,"is_reserved":false,"is_disabled":true,"rental_uris":{"android":"levelo://app?vid=a2b09865-004d-45eb-b301-cf3640220a72","ios":"levelo://app?vid=a2b09865-004d-45eb-b301-cf3640220a72"},"vehicle_type_id":"4","last_reported":1732540822,"current_range_meters":0,"station_id":"ce4bgl12rcd13ifvqbo0","pricing_plan_id":"cebpf4jnsgd1na2vs0mg"},{"bike_id":"956159ef-cd2c-48a1-9638-7d5ccd7a02f9","system_id":"levelo_inurba_marseille","lat":43.2668,"lon":5.38273,"is_reserved":false,"is_disabled":false,"rental_uris":{"android":"levelo://app?vid=956159ef-cd2c-48a1-9638-7d5ccd7a02f9","ios":"levelo://app?vid=956159ef-cd2c-48a1-9638-7d5ccd7a02f9"},"vehicle_type_id":"4","last_reported":1732540822,"current_range_meters":26800,"station_id":"ce4bhg92rcd13ifvqf90","pricing_plan_id":"cebpf4jnsgd1na2vs0mg"},{"bike_id":"47f72a8b-330f-4d9b-b9eb-6c2b50ebfe1f","system_id":"levelo_inurba_marseille","lat":43.27201,"lon":5.39196,"is_reserved":false,"is_disabled":false,"rental_uris":{"android":"levelo://app?vid=47f72a8b-330f-4d9b-b9eb-6c2b50ebfe1f","ios":"levelo://app?vid=47f72a8b-330f-4d9b-b9eb-6c2b50ebfe1f"},"vehicle_type_id":"4","last_reported":1732540822,"current_range_meters":18800,"station_id":"ce4bhhp2rcd13ifvqfm0","pricing_plan_id":"cebpf4jnsgd1na2vs0mg"},{"bike_id":"b777e881-954f-41ae-bb6d-48a5fe325c58","system_id":"levelo_inurba_marseille","lat":43.2621,"lon":5.3793,"is_reserved":false,"is_disabled":false,"rental_uris":{"android":"levelo://app?vid=b777e881-954f-41ae-bb6d-48a5fe325c58","ios":"levelo://app?vid=b777e881-954f-41ae-bb6d-48a5fe325c58"},"vehicle_type_id":"4","last_reported":1732540822,"current_range_meters":38000,"station_id":"ce4bhjp2rcd13ifvqg90","pricing_plan_id":"cebpf4jnsgd1na2vs0mg"},{"bike_id":"2612e93b-efd9-47d8-9055-c03c0a09ca65","system_id":"levelo_inurba_marseille","lat":43.26781,"lon":5.39423,"is_reserved":false,"is_disabled":true,"rental_uris":{"android":"levelo://app?vid=2612e93b-efd9-47d8-9055-c03c0a09ca65","ios":"levelo://app?vid=2612e93b-efd9-47d8-9055-c03c0a09ca65"},"vehicle_type_id":"4","last_reported":1732540822,"current_range_meters":0,"station_id":"ce4bhh12rcd13ifvqfg0","pricing_plan_id":"cebpf4jnsgd1na2vs0mg"},{"bike_id":"fa719603-3f5a-410e-b287-e996ead0be5d","system_id":"levelo_inurba_marseille","lat":43.29479,"lon":5.3746,"is_reserved":false,"is_disabled":false,"rental_uris":{"android":"levelo://app?vid=fa719603-3f5a-410e-b287-e996ead0be5d","ios":"levelo://app?vid=fa719603-3f5a-410e-b287-e996ead0be5d"},"vehicle_type_id":"4","last_reported":1732540822,"current_range_meters":35200,"station_id":"","pricing_plan_id":"cebpf4jnsgd1na2vs0mg"},{"bike_id":"fa0217d8-89ad-4cca-a826-b525f5b071e0","system_id":"levelo_inurba_marseille","lat":43.29587,"lon":5.38108,"is_reserved":false,"is_disabled":false,"rental_uris":{"android":"levelo://app?vid=fa0217d8-89ad-4cca-a826-b525f5b071e0","ios":"levelo://app?vid=fa0217d8-89ad-4cca-a826-b525f5b071e0"},"vehicle_type_id":"4","last_reported":1732540822,"current_range_meters":12000,"station_id":"ce4bgl12rcd13ifvqbo0","pricing_plan_id":"cebpf4jnsgd1na2vs0mg"},{"bike_id":"ac8a6bc2-c9c9-45a2-85f6-35f3b09c2037","system_id":"levelo_inurba_marseille","lat":43.33607,"lon":5.41032,"is_reserved":false,"is_disabled":true,"rental_uris":{"android":"levelo://app?vid=ac8a6bc2-c9c9-45a2-85f6-35f3b09c2037","ios":"levelo://app?vid=ac8a6bc2-c9c9-45a2-85f6-35f3b09c2037"},"vehicle_type_id":"4","last_reported":1732540822,"current_range_meters":30000,"station_id":"ce4bhqh2rcd13ifvqhmg","pricing_plan_id":"cebpf4jnsgd1na2vs0mg"},{"bike_id":"ee2b6f35-7d1b-4ce9-8a89-ced5ff6ba75e","system_id":"levelo_inurba_marseille","lat":43.24387,"lon":5.37061,"is_reserved":false,"is_disabled":false,"rental_uris":{"android":"levelo://app?vid=ee2b6f35-7d1b-4ce9-8a89-ced5ff6ba75e","ios":"levelo://app?vid=ee2b6f35-7d1b-4ce9-8a89-ced5ff6ba75e"},"vehicle_type_id":"4","last_reported":1732540822,"current_range_meters":38800,"station_id":"ce4bhhh2rcd13ifvqfk0","pricing_plan_id":"cebpf4jnsgd1na2vs0mg"},