{"last_updated":1727334498,"ttl":60,"version":"2.2","data":{"bikes":[{"bike_id":"f82c8257-bab0-4d5a-b202-1064bb5dc194","system_id":"levelo_inurba_marseille","lat":43.27076,"lon":5.42277,"is_reserved":false,"is_disabled":false,"rental_uris":{"android":"levelo://app?vid=f82c8257-bab0-4d5a-b202-1064bb5dc194","ios":"levelo://app?vid=f82c8257-bab0-4d5a-b202-1064bb5dc194"},"vehicle_type_id":"4","last_reported":1727334499,"current_range_meters":12800,"station_id":"ce4bhk92rcd13ifvqgb0","pricing_plan_id":"cebpf4jnsgd1na2vs0mg"},{"bike_id":"8bc53cdf-0b0e-4448-88b8-b15c46af21d2","system_id":"levelo_inurba_marseille","lat":43.26684,"lon":5.38268,"is_reserved":false,"is_disabled":false,"rental_uris":{"android":"levelo://app?vid=8bc53cdf-0b0e-4448-88b8-b15c46af21d2","ios":"levelo://app?vid=8bc53cdf-0b0e-4448-88b8-b15c46af21d2"},"vehicle_type_id":"4","last_reported":1727334499,"current_range_meters":36800,"station_id":"ce4bhg92rcd13ifvqf90","pricing_plan_id":"cebpf4jnsgd1na2vs0mg"},{"bike_id":"74d68aab-dcd1-4d0a-976e-418b8bad0fdd","system_id":"levelo_inurba_marseille","lat":43.2316,"lon":5.43696,"is_reserved":false,"is_disabled":false,"rental_uris":{"android":"levelo://app?vid=74d68aab-dcd1-4d0a-976e-418b8bad0fdd","ios":"levelo://app?vid=74d68aab-dcd1-4d0a-976e-418b8bad0fdd"},"vehicle_type_id":"4","last_reported":1727334499,"current_range_meters":38800,"station_id":"ce4bhmp2rcd13ifvqgog","pricing_plan_id":"cebpf4jnsgd1na2vs0mg"},{"bike_id":"6867a5cc-3719-43a0-a0a1-1af2b8b70384","system_id":"levelo_inurba_marseille","lat":43.30477,"lon":5.3789,"is_reserved":false,"is_disabled":false,"rental_uris":{"android":"levelo://app?vid=6867a5cc-3719-43a0-a0a1-1af2b8b70384","ios":"levelo://app?vid=6867a5cc-3719-43a0-a0a1-1af2b8b70384"},"vehicle_type_id":"4","last_reported":1727334499,"current_range_meters":34000,"station_id":"ce4bgup2rcd13ifvqcn0","pricing_plan_id":"cebpf4jnsgd1na2vs0mg"},{"bike_id":"725e8b9d-23c5-473a-9ddb-2d99c34398a4","system_id":"levelo_inurba_marseille","lat":43.30796,"lon":5.38155,"is_reserved":false,"is_disabled":false,"rental_uris":{"android":"levelo://app?vid=725e8b9d-23c5-473a-9ddb-2d99c34398a4","ios":"levelo://app?vid=725e8b9d-23c5-473a-9ddb-2d99c34398a4"},"vehicle_type_id":"4","last_reported":1727334499,"current_range_meters":28000,"station_id":"ce4bgt12rcd13ifvqce0","pricing_plan_id":"cebpf4jnsgd1na2vs0mg"},{"bike_id":"f2d346e2-35ed-4bb7-ae46-f1e76162498b","system_id":"levelo_inurba_marseille","lat":43.24077,"lon":5.37761,"is_reserved":false,"is_disabled":false,"rental_uris":{"android":"levelo://app?vid=f2d346e2-35ed-4bb7-ae46-f1e76162498b","ios":"levelo://app?vid=f2d346e2-35ed-4bb7-ae46-f1e76162498b"},"vehicle_type_id":"4","last_reported":1727334499,"current_range_meters":34800,"station_id":"ce4bhnp2rcd13ifvqgvg","pricing_plan_id":"cebpf4jnsgd1na2vs0mg"},{"bike_id":"a0e11361-5622-4071-93ff-becec437b424","system_id":"levelo_inurba_marseille","lat":43.29088,"lon":5.38153,"is_reserved":false,"is_disabled":false,"rental_uris":{"android":"levelo://app?vid=a0e11361-5622-4071-93ff-becec437b424","ios":"levelo://app?vid=a0e11361-5622-4071-93ff-becec437b424"},"vehicle_type_id":"4","last_reported":1727334499,"current_range_meters":36400,"station_id":"ce4bhc92rcd13ifvqetg","pricing_plan_id":"cebpf4jnsgd1na2vs0mg"},{"bike_id":"40ec5bfa-1b9f-4e34-8561-543b16e14199","system_id":"levelo_inurba_marseille","lat":43.27496,"lon":5.42449,"is_reserved":false,"is_disabled":false,"rental_uris":{"android":"levelo://app?vid=40ec5bfa-1b9f-4e34-8561-543b16e14199","ios":"levelo://app?vid=40ec5bfa-1b9f-4e34-8561-543b16e14199"},"vehicle_type_id":"4","last_reported":1727334499,"current_range_meters":25200,"station_id":"ce4bhn92rcd13ifvqgrg","pricing_plan_id":"cebpf4jnsgd1na2vs0mg"},{"bike_id":"c3dc0bfd-1047-4800-8b7c-7d8cb2ac491b","system_id":"levelo_inurba_marseille","lat":43.3055,"lon":5.36537,"is_reserved":false,"is_disabled":false,"rental_uris":{"android":"levelo://app?vid=c3dc0bfd-1047-4800-8b7c-7d8cb2ac491b","ios":"levelo://app?vid=c3dc0bfd-1047-4800-8b7c-7d8cb2ac491b"},"vehicle_type_id":"4","last_reported":1727334499,"current_range_meters":15200,"station_id":"ce4bgs12rcd13ifvqcag","pricing_plan_id":"cebpf4jnsgd1na2vs0mg"},{"bike_id":"f7817ba7-e252-458f-ae87-46b773db6a5d","system_id":"levelo_inurba_marseille","lat":43.24083,"lon":5.3775,"is_reserved":false,"is_disabled":false,"rental_uris":{"android":"levelo://app?vid=f7817ba7-e252-458f-ae87-46b773db6a5d","ios":"levelo://app?vid=f7817ba7-e252-458f-ae87-46b773db6a5d"},"vehicle_type_id":"4","last_reported":1727334499,"current_range_meters":9200,"station_id":"ce4bhnp2rcd13ifvqgvg","pricing_plan_id":"cebpf4jnsgd1na2vs0mg"},{"bike_id":"e46ff160-d947-4030-ac63-bf4012cce178","system_id":"levelo_inurba_marseille","lat":43.32659,"lon":5.40991,"is_reserved":false,"is_disabled":false,"rental_uris":{"android":"levelo://app?vid=e46ff160-d947-4030-ac63-bf4012cce178","ios":"levelo://app?vid=e46ff160-d947-4030-ac63-bf4012cce178"},"vehicle_type_id":"4","last_reported":1727334499,"current_range_meters":38400,"station_id":"ce4bhpp2rcd13ifvqhgg","pricing_plan_id":"cebpf4jnsgd1na2vs0mg"},{"bike_id":"eb965b44-7547-4d6c-8d03-5439b5c3f4a8","system_id":"levelo_inurba_marseille","lat":43.27496,"lon":5.42451,"is_reserved":false,"is_disabled":false,"rental_uris":{"android":"levelo://app?vid=eb965b44-7547-4d6c-8d03-5439b5c3f4a8","ios":"levelo://app?vid=eb965b44-7547-4d6c-8d03-5439b5c3f4a8"},"vehicle_type_id":"4","last_reported":1727334499,"current_range_meters":15200,"station_id":"ce4bhn92rcd13ifvqgrg","pricing_plan_id":"cebpf4jnsgd1na2vs0mg"},{"bike_id":"d8c11869-15b2-4684-8361-fc2a360c0f30","system_id":"levelo_inurba_marseille","lat":43.2718,"lon":5.39218,"is_reserved":false,"is_disabled":false,"rental_uris":{"android":"levelo://app?vid=d8c11869-15b2-4684-8361-fc2a360c0f30","ios":"levelo://app?vid=d8c11869-15b2-4684-8361-fc2a360c0f30"},"vehicle_type_id":"4","last_reported":1727334499,"current_range_meters":27600,"station_id":"ce4bhhp2rcd13ifvqfm0","pricing_plan_id":"cebpf4jnsgd1na2vs0mg"},{"bike_id":"818eb369-4c70-42e8-b04d-afc706498bad","system_id":"levelo_inurba_marseille","lat":43.30287,"lon":5.37697,"is_reserved":false,"is_disabled":false,"rental_uris":{"android":"levelo://app?vid=818eb369-4c70-42e8-b04d-afc706498bad","ios":"levelo://app?vid=818eb369-4c70-42e8-b04d-afc706498bad"},"vehicle_type_id":"4","last_reported":1727334499,"current_range_meters":38000,"station_id":"ce4bguh2rcd13ifvqcj0","pricing_plan_id":"cebpf4jnsgd1na2vs0mg"},{"bike_id":"9fa4f99d-a411-4ef4-b6c8-d9fd7e40a915","system_id":"levelo_inurba_marseille","lat":43.23196,"lon":5.35544,"is_reserved":false,"is_disabled":false,"rental_uris":{"android":"levelo://app?vid=9fa4f99d-a411-4ef4-b6c8-d9fd7e40a915","ios":"levelo://app?vid=9fa4f99d-a411-4ef4-b6c8-d9fd7e40a915"},"vehicle_type_id":"4","last_reported":1727334499,"current_range_meters":28000,"station_id":"ce4bhu92rcd13ifvqi70","pricing_plan_id":"cebpf4jnsgd1na2vs0mg"},{"bike_id":"18dcc2de-6658-4930-a51b-2c944671767f","system_id":"levelo_inurba_marseille","lat":43.31371,"lon":5.36687,"is_reserved":false,"is_disabled":false,"rental_uris":{"android":"levelo://app?vid=18dcc2de-6658-4930-a51b-2c944671767f","ios":"levelo://app?vid=18dcc2de-6658-4930-a51b-2c944671767f"},"vehicle_type_id":"4","last_reported":1727334499,"current_range_meters":32400,"station_id":"ce4bgr92rcd13ifvqc6g","pricing_plan_id":"cebpf4jnsgd1na2vs0mg"},{"bike_id":"6f81454f-c6f2-4c20-86c3-cce455ad9812","system_id":"levelo_inurba_marseille","lat":43.27495,"lon":5.42456,"is_reserved":false,"is_disabled":false,"rental_uris":{"android":"levelo://app?vid=6f81454f-c6f2-4c20-86c3-cce455ad9812","ios":"levelo://app?vid=6f81454f-c6f2-4c20-86c3-cce455ad9812"},"vehicle_type_id":"4","last_reported":1727334499,"current_range_meters":8400,"station_id":"ce4bhn92rcd13ifvqgrg","pricing_plan_id":"cebpf4jnsgd1na2vs0mg"},{"bike_id":"73d2d7a1-cf6f-4e52-99a9-81ba936188ef","system_id":"levelo_inurba_marseille","lat":43.28156,"lon":5.42648,"is_reserved":false,"is_disabled":false,"rental_uris":{"android":"levelo://app?vid=73d2d7a1-cf6f-4e52-99a9-81ba936188ef","ios":"levelo://app?vid=73d2d7a1-cf6f-4e52-99a9-81ba936188ef"},"vehicle_type_id":"4","last_reported":1727334499,"current_range_meters":3200,"station_id":"ce4bhnh2rcd13ifvqgug","pricing_plan_id":"cebpf4jnsgd1na2vs0mg"},{"bike_id":"c22bc6e4-28ef-43f8-b7c8-73e92b69d5e2","system_id":"levelo_inurba_marseille","lat":43.26565,"lon":5.3901,"is_reserved":false,"is_disabled":false,"rental_uris":{"android":"levelo://app?vid=c22bc6e4-28ef-43f8-b7c8-73e92b69d5e2","ios":"levelo://app?vid=c22bc6e4-28ef-43f8-b7c8-73e92b69d5e2"},"vehicle_type_id":"4","last_reported":1727334499,"current_range_meters":28800,"station_id":"ce4bhe12rcd13ifvqf30","pricing_plan_id":"cebpf4jnsgd1na2vs0mg"},{"bike_id":"90f01120-67fa-4ef1-b4c3-3c9f7df17fa0","system_id":"levelo_inurba_marseille","lat":43.30156,"lon":5.38075,"is_reserved":false,"is_disabled":false,"rental_uris":{"android":"levelo://app?vid=90f01120-67fa-4ef1-b4c3-3c9f7df17fa0","ios":"levelo://app?vid=90f01120-67fa-4ef1-b4c3-3c9f7df17fa0"},"vehicle_type_id":"4","last_reported":1727334499,"current_range_meters":33200,"station_id":"ce4bgjp2rcd13ifvqbh0","pricing_plan_id":"cebpf4jnsgd1na2vs0mg"},{"bike_id":"5f8ee706-f7c1-429a-ae2e-0125142c1c97","system_id":"levelo_inurba_marseille","lat":43.29278,"lon":5.36852,"is_reserved":false,"is_disabled":false,"rental_uris":{"android":"levelo://app?vid=5f8ee706-f7c1-429a-ae2e-0125142c1c97","ios":"levelo://app?vid=5f8ee706-f7c1-429a-ae2e-0125142c1c97"},"vehicle_type_id":"4","last_reported":1727334499,"current_range_meters":29600,"station_id":"ce4bhbp2rcd13ifvqesg","pricing_plan_id":"cebpf4jnsgd1na2vs0mg"},{"bike_id":"8719d41f-c18c-47e8-8545-751d41f9eb6a","system_id":"levelo_inurba_marseille","lat":43.2749,"lon":5.42445,"is_reserved":false,"is_disabled":false,"rental_uris":{"android":"levelo://app?vid=8719d41f-c18c-47e8-8545-751d41f9eb6a","ios":"levelo://app?vid=8719d41f-c18c-47e8-8545-751d41f9eb6a"},"vehicle_type_id":"4","last_reported":1727334499,"current_range_meters":38000,"station_id":"ce4bhn92rcd13ifvqgrg","pricing_plan_id":"cebpf4jnsgd1na2vs0mg"},{"bike_id":"79742e59-9a50-46be-8ac2-5a56b4b153b8","system_id":"levelo_inurba_marseille","lat":43.27497,"lon":5.42451,"is_reserved":false,"is_disabled":false,"rental_uris":{"android":"levelo://app?vid=79742e59-9a50-46be-8ac2-5a56b4b153b8","ios":"levelo://app?vid=79742e59-9a50-46be-8ac2-5a56b4b153b8"},"vehicle_type_id":"4","last_reported":1727334499,"current_range_meters":32000,"station_id":"ce4bhn92rcd13ifvqgrg","pricing_plan_id":"cebpf4jnsgd1na2vs0mg"},{"bike_id":"b0da3b8b-593c-4a97-b84c-abb310164520","system_id":"levelo_inurba_marseille","lat":43.31358,"lon":5.36699,"is_reserved":false,"is_disabled":false,"rental_uris":{"android":"levelo://app?vid=b0da3b8b-593c-4a97-b84c-abb310164520","ios":"levelo://app?vid=b0da3b8b-593c-4a97-b84c-abb310164520"},"vehicle_type_id":"4","last_reported":1727334499,"current_range_meters":30400,"station_id":"ce4bgr92rcd13ifvqc6g","pricing_plan_id":"cebpf4jnsgd1na2vs0mg"},{"bike_id":"64458427-85d5-4ac4-8859-e4ecdf247b77","system_id":"levelo_inurba_marseille","lat":43.3014,"lon":5.37417,"is_reserved":false,"is_disabled":false,"rental_uris":{"android":"levelo://app?vid=64458427-85d5-4ac4-8859-e4ecdf247b77","ios":"levelo://app?vid=64458427-85d5-4ac4-8859-e4ecdf247b77"},"vehicle_type_id":"4","last_reported":1727334499,"current_range_meters":35200,"station_id":"ce4bgs92rcd13ifvqcc0","pricing_plan_id":"cebpf4jnsgd1na2vs0mg"},{"bike_id":"7737b815-6daf-41f0-8354-4b28ba75917f","system_id":"levelo_inurba_marseille","lat":43.30188,"lon":5.39833,"is_reserved":false,"is_disabled":false,"rental_uris":{"android":"levelo://app?vid=7737b815-6daf-41f0-8354-4b28ba75917f","ios":"levelo://app?vid=7737b815-6daf-41f0-8354-4b28ba75917f"},"vehicle_type_id":"4","last_reported":1727334499,"current_range_meters":12800,"station_id":"ce4bgvp2rcd13ifvqct0","pricing_plan_id":"cebpf4jnsgd1na2vs0mg"},{"bike_id":"da46a019-d715-418c-86b6-c032c73ef947","system_id":"levelo_inurba_marseille","lat":43.3046,"lon":5.37908,"is_reserved":false,"is_disabled":false,"rental_uris":{"android":"levelo://app?vid=da46a019-d715-418c-86b6-c032c73ef947","ios":"levelo://app?vid=da46a019-d715-418c-86b6-c032c73ef947"},"vehicle_type_id":"4","last_reported":1727334499,"current_range_meters":20400,"station_id":"ce4bgup2rcd13ifvqcn0","pricing_plan_id":"cebpf4jnsgd1na2vs0mg"},{"bike_id":"379d63ca-2f4e-4723-ada2-e0ac6c8bd9b2","system_id":"levelo_inurba_marseille","lat":43.24077,"lon":5.37758,"is_reserved":false,"is_disabled":false,"rental_uris":{"android":"levelo://app?vid=379d63ca-2f4e-4723-ada2-e0ac6c8bd9b2","ios":"levelo://app?vid=379d63ca-2f4e-4723-ada2-e0ac6c8bd9b2"},"vehicle_type_id":"4","last_reported":1727334499,"current_range_meters":9600,"station_id":"ce4bhnp2rcd13ifvqgvg","pricing_plan_id":"cebpf4jnsgd1na2vs0mg"},{"bike_id":"3109b08e-97cb-47e0-ba01-1d18ed43f231","system_id":"levelo_inurba_marseille","lat":43.26032,"lon":5.37551,"is_reserved":false,"is_disabled":false,"rental_uris":{"android":"levelo://app?vid=3109b08e-97cb-47e0-ba01-1d18ed43f231","ios":"levelo://app?vid=3109b08e-97cb-47e0-ba01-1d18ed43f231"},"vehicle_type_id":"4","last_reported":1727334499,"current_range_meters":39200,"station_id":"ce4bhgh2rcd13ifvqfa0","pricing_plan_id":"cebpf4jnsgd1na2vs0mg"},{"bike_id":"e14566a6-555f-4434-b8ae-bf20815898da","system_id":"levelo_inurba_marseille","lat":43.26309,"lon":5.39284,"is_reserved":false,"is_disabled":false,"rental_uris":{"android":"levelo://app?vid=e14566a6-555f-4434-b8ae-bf20815898da","ios":"levelo://app?vid=e14566a6-555f-4434-b8ae-bf20815898da"},"vehicle_type_id":"4","last_reported":1727334499,"current_range_meters":8000,"station_id":"ce4bhh92rcd13ifvqfj0","pricing_plan_id":"cebpf4jnsgd1na2vs0mg"},{"bike_id":"86ec87f8-7c00-40fa-adcd-87335ef4639c","system_id":"levelo_inurba_marseille","lat":43.28626,"lon":5.38102,"is_reserved":false,"is_disabled":false,"rental_uris":{"android":"levelo://app?vid=86ec87f8-7c00-40fa-adcd-87335ef4639c","ios":"levelo://app?vid=86ec87f8-7c00-40fa-adcd-87335ef4639c"},"vehicle_type_id":"4","last_reported":1727334499,"current_range_meters":34800,"station_id":"","pricing_plan_id":"cebpf4jnsgd1na2vs0mg"},{"bike_id":"b6daf4df-7c90-4c5e-b397-06a87d15013f","system_id":"levelo_inurba_marseille","lat":43.33702,"lon":5.37443,"is_reserved":false,"is_disabled":false,"rental_uris":{"android":"levelo://app?vid=b6daf4df-7c90-4c5e-b397-06a87d15013f","ios":"levelo://app?vid=b6daf4df-7c90-4c5e-b397-06a87d15013f"},"vehicle_type_id":"4","last_reported":1727334499,"current_range_meters":30800,"station_id":"","pricing_plan_id":"cebpf4jnsgd1na2vs0mg"},{"bike_id":"e5252604-aa53-40fb-a4e5-3494593550a1","system_id":"levelo_inurba_marseille","lat":43.28002,"lon":5.40009,"is_reserved":false,"is_disabled":false,"rental_uris":{"android":"levelo://app?vid=e5252604-aa53-40fb-a4e5-3494593550a1","ios":"levelo://app?vid=e5252604-aa53-40fb-a4e5-3494593550a1"},"vehicle_type_id":"4","last_reported":1727334499,"current_range_meters":28400,"station_id":"ce4bho92rcd13ifvqh4g","pricing_plan_id":"cebpf4jnsgd1na2vs0mg"},{"bike_id":"dab37bf3-4a86-4251-b6a1-c4d272e4ea4d","system_id":"levelo_inurba_marseille","lat":43.33606,"lon":5.41028,"is_reserved":false,"is_disabled":false,"rental_uris":{"android":"levelo://app?vid=dab37bf3-4a86-4251-b6a1-c4d272e4ea4d","ios":"levelo://app?vid=dab37bf3-4a86-4251-b6a1-c4d272e4ea4d"},"vehicle_type_id":"4","last_reported":1727334499,"current_range_meters":39200,"station_id":"ce4bhqh2rcd13ifvqhmg","pricing_plan_id":"cebpf4jnsgd1na2vs0mg"},{"bike_id":"08b026dc-51d7-4466-b8fe-616983a2646d","system_id":"levelo_inurba_marseille","lat":43.32537,"lon":5.41426,"is_reserved":false,"is_disabled":false,"rental_uris":{"android":"levelo://app?vid=08b026dc-51d7-4466-b8fe-616983a2646d","ios":"levelo://app?vid=08b026dc-51d7-4466-b8fe-616983a2646d"},"vehicle_type_id":"4","last_reported":1727334499,"current_range_meters":35200,"station_id":"ce4bhq12rcd13ifvqhhg","pricing_plan_id":"cebpf4jnsgd1na2vs0mg"},{"bike_id":"149e773b-e68e-4416-a5b2-7f96b3b9f697","system_id":"levelo_inurba_marseille","lat":43.24177,"lon":5.39732,"is_reserved":false,"is_disabled":false,"rental_uris":{"android":"levelo://app?vid=149e773b-e68e-4416-a5b2-7f96b3b9f697","ios":"levelo://app?vid=149e773b-e68e-4416-a5b2-7f96b3b9f697"},"vehicle_type_id":"4","last_reported":1727334499,"current_range_meters":34000,"station_id":"ce4bhn12rcd13ifvqgpg","pricing_plan_id":"cebpf4jnsgd1na2vs0mg"},{"bike_id":"920a992c-b9bd-467d-8738-97c73c4e43f7","system_id":"levelo_inurba_marseille","lat":43.31223,"lon":5.36859,"is_reserved":false,"is_disabled":false,"rental_uris":{"android":"levelo://app?vid=920a992c-b9bd-467d-8738-97c73c4e43f7","ios":"levelo://app?vid=920a992c-b9bd-467d-8738-97c73c4e43f7"},"vehicle_type_id":"4","last_reported":1727334499,"current_range_meters":24800,"station_id":"ce4bgl92rcd13ifvqbq0","pricing_plan_id":"cebpf4jnsgd1na2vs0mg"},{"bike_id":"57bc1e84-e83e-4198-85b5-3e7f9c3f0b0b","system_id":"levelo_inurba_marseille","lat":43.24166,"lon":5.36392,"is_reserved":false,"is_disabled":false,"rental_uris":{"android":"levelo://app?vid=57bc1e84-e83e-4198-85b5-3e7f9c3f0b0b","ios":"levelo://app?vid=57bc1e84-e83e-4198-85b5-3e7f9c3f0b0b"},"vehicle_type_id":"4","last_reported":1727334499,"current_range_meters":28400,"station_id":"cpo36qri1sfpv3e86is0","pricing_plan_id":"cebpf4jnsgd1na2vs0mg"},{"bike_id":"7a8458d5-44ac-4f2e-abef-3f01eb31f7ca","system_id":"levelo_inurba_marseille","lat":43.337444,"lon":5.374475,"is_reserved":false,"is_disabled":false,"rental_uris":{"android":"levelo://app?vid=7a8458d5-44ac-4f2e-abef-3f01eb31f7ca","ios":"levelo://app?vid=7a8458d5-44ac-4f2e-abef-3f01eb31f7ca"},"vehicle_type_id":"4","last_reported":1727334499,"current_range_meters":22000,"station_id":"","pricing_plan_id":"cebpf4jnsgd1na2vs0mg"},{"bike_id":"55b5b31c-f41c-48ad-b5e7-5e4648004aa7","system_id":"levelo_inurba_marseille","lat":43.30465,"lon":5.37899,"is_reserved":false,"is_disabled":false,"rental_uris":{"android":"levelo://app?vid=55b5b31c-f41c-48ad-b5e7-5e4648004aa7","ios":"levelo://app?vid=55b5b31c-f41c-48ad-b5e7-5e4648004aa7"},"vehicle_type_id":"4","last_reported":1727334499,"current_range_meters":19200,"station_id":"ce4bgup2rcd13ifvqcn0","pricing_plan_id":"cebpf4jnsgd1na2vs0mg"},{"bike_id":"5dbb8ff1-be89-4260-8d73-790bb45fe51b","system_id":"levelo_inurba_marseille","lat":43.284693,"lon":5.384332,"is_reserved":false,"is_disabled":false,"rental_uris":{"android":"levelo://app?vid=5dbb8ff1-be89-4260-8d73-790bb45fe51b","ios":"levelo://app?vid=5dbb8ff1-be89-4260-8d73-790bb45fe51b"},"vehicle_type_id":"4","last_reported":1727334499,"current_range_meters":19200,"station_id":"ce4bh512rcd13ifvqe3g","pricing_plan_id":"cebpf4jnsgd1na2vs0mg"},{"bike_id":"bb438151-4b82-4fd5-8e8f-54cbf435dcb7","system_id":"levelo_inurba_marseille","lat":43.289344,"lon":5.366441,"is_reserved":false,"is_disabled":false,"rental_uris":{"android":"levelo://app?vid=bb438151-4b82-4fd5-8e8f-54cbf435dcb7","ios":"levelo://app?vid=bb438151-4b82-4fd5-8e8f-54cbf435dcb7"},"vehicle_type_id":"4","last_reported":1727334499,"current_range_meters":38000,"station_id":"","pricing_plan_id":"cebpf4jnsgd1na2vs0mg"},{"bike_id":"0ff4805d-5eb0-413d-9fd8-adffbbf2ce16","system_id":"levelo_inurba_marseille","lat":43.29849,"lon":5.36285,"is_reserved":false,"is_disabled":false,"rental_uris":{"android":"levelo://app?vid=0ff4805d-5eb0-413d-9fd8-adffbbf2ce16","ios":"levelo://app?vid=0ff4805d-5eb0-413d-9fd8-adffbbf2ce16"},"vehicle_type_id":"4","last_reported":1727334499,"current_range_meters":38400,"station_id":"ce4bgpp2rcd13ifvqc3g","pricing_plan_id":"cebpf4jnsgd1na2vs0mg"},{"bike_id":"13ed2806-0100-4d07-a2d5-d6e3f0fa1a81","system_id":"levelo_inurba_marseille","lat":43.31501,"lon":5.37306,"is_reserved":false,"is_disabled":false,"rental_uris":{"android":"levelo://app?vid=13ed2806-0100-4d07-a2d5-d6e3f0fa1a81","ios":"levelo://app?vid=13ed2806-0100-4d07-a2d5-d6e3f0fa1a81"},"vehicle_type_id":"4","last_reported":1727334499,"current_range_meters":28800,"station_id":"ce4bgt12rcd13ifvqcd0","pricing_plan_id":"cebpf4jnsgd1na2vs0mg"},{"bike_id":"1641169f-2609-48fc-9fa8-62b9cffac069","system_id":"levelo_inurba_marseille","lat":43.30538,"lon":5.3655,"is_reserved":false,"is_disabled":false,"rental_uris":{"android":"levelo://app?vid=1641169f-2609-48fc-9fa8-62b9cffac069","ios":"levelo://app?vid=1641169f-2609-48fc-9fa8-62b9cffac069"},"vehicle_type_id":"4","last_reported":1727334499,"current_range_meters":36800,"station_id":"ce4bgs12rcd13ifvqcag","pricing_plan_id":"cebpf4jnsgd1na2vs0mg"},{"bike_id":"ed9d69a6-a921-4251-b073-fdfe53c8cdc2","system_id":"levelo_inurba_marseille","lat":43.24078,"lon":5.37755,"is_reserved":false,"is_disabled":false,"rental_uris":{"android":"levelo://app?vid=ed9d69a6-a921-4251-b073-fdfe53c8cdc2","ios":"levelo://app?vid=ed9d69a6-a921-4251-b073-fdfe53c8cdc2"},"vehicle_type_id":"4","last_reported":1727334499,"current_range_meters":36800,"station_id":"ce4bhnp2rcd13ifvqgvg","pricing_plan_id":"cebpf4jnsgd1na2vs0mg"},{"bike_id":"adaba394-dc91-4ad7-a352-b2390878dcad","system_id":"levelo_inurba_marseille","lat":43.30879,"lon":5.37193,"is_reserved":false,"is_disabled":false,"rental_uris":{"android":"levelo://app?vid=adaba394-dc91-4ad7-a352-b2390878dcad","ios":"levelo://app?vid=adaba394-dc91-4ad7-a352-b2390878dcad"},"vehicle_type_id":"4","last_reported":1727334499,"current_range_meters":32400,"station_id":"ce4bguh2rcd13ifvqckg","pricing_plan_id":"cebpf4jnsgd1na2vs0mg"},{"bike_id":"d162aab3-be10-4904-bc7f-276c85e185c1","system_id":"levelo_inurba_marseille","lat":43.30545,"lon":5.38435,"is_reserved":false,"is_disabled":false,"rental_uris":{"android":"levelo://app?vid=d162aab3-be10-4904-bc7f-276c85e185c1","ios":"levelo://app?vid=d162aab3-be10-4904-bc7f-276c85e185c1"},"vehicle_type_id":"4","last_reported":1727334499,"current_range_meters":38800,"station_id":"ce4bgg92rcd13ifvqb30","pricing_plan_id":"cebpf4jnsgd1na2vs0mg"},{"bike_id":"152b5a72-6234-4588-af17-59d01342fa63","system_id":"levelo_inurba_marseille","lat":43.30255,"lon":5.40048,"is_reserved":false,"is_disabled":false,"rental_uris":{"android":"levelo://app?vid=152b5a72-6234-4588-af17-59d01342fa63","ios":"levelo://app?vid=152b5a72-6234-4588-af17-59d01342fa63"},"vehicle_type_id":"4","last_reported":1727334499,"current_range_meters":2800,"station_id":"ce4bgvh2rcd13ifvqcs0","pricing_plan_id":"cebpf4jnsgd1na2vs0mg"},{"bike_id":"9d073943-f5f8-4878-a9c1-9cd044e25bbe","system_id":"levelo_inurba_marseille","lat":43.23153,"lon":5.43709,"is_reserved":false,"is_disabled":false,"rental_uris":{"android":"levelo://app?vid=9d073943-f5f8-4878-a9c1-9cd044e25bbe","ios":"levelo://app?vid=9d073943-f5f8-4878-a9c1-9cd044e25bbe"},"vehicle_type_id":"4","last_reported":1727334499,"current_range_meters":24000,"station_id":"ce4bhmp2rcd13ifvqgog","pricing_plan_id":"cebpf4jnsgd1na2vs0mg"},{"bike_id":"6ce78276-8ec0-4d60-a72c-c0fc9ac59e97","system_id":"levelo_inurba_marseille","lat":43.24079,"lon":5.37755,"is_reserved":false,"is_disabled":false,"rental_uris":{"android":"levelo://app?vid=6ce78276-8ec0-4d60-a72c-c0fc9ac59e97","ios":"levelo://app?vid=6ce78276-8ec0-4d60-a72c-c0fc9ac59e97"},"vehicle_type_id":"4","last_reported":1727334499,"current_range_meters":36400,"station_id":"ce4bhnp2rcd13ifvqgvg","pricing_plan_id":"cebpf4jnsgd1na2vs0mg"},{"bike_id":"967e74fa-58db-45ed-a2be-5ac78e779452","system_id":"levelo_inurba_marseille","lat":43.30607,"lon":5.37221,"is_reserved":false,"is_disabled":false,"rental_uris":{"android":"levelo://app?vid=967e74fa-58db-45ed-a2be-5ac78e779452","ios":"levelo://app?vid=967e74fa-58db-45ed-a2be-5ac78e779452"},"vehicle_type_id":"4","last_reported":1727334499,"current_range_meters":16400,"station_id":"ce4bgqh2rcd13ifvqc4g","pricing_plan_id":"cebpf4jnsgd1na2vs0mg"},{"bike_id":"3a705eee-12a8-4d5e-a9d9-cb2026320587","system_id":"levelo_inurba_marseille","lat":43.2696,"lon":5.38629,"is_reserved":false,"is_disabled":false,"rental_uris":{"android":"levelo://app?vid=3a705eee-12a8-4d5e-a9d9-cb2026320587","ios":"levelo://app?vid=3a705eee-12a8-4d5e-a9d9-cb2026320587"},"vehicle_type_id":"4","last_reported":1727334499,"current_range_meters":36400,"station_id":"ce4bhh92rcd13ifvqfh0","pricing_plan_id":"cebpf4jnsgd1na2vs0mg"},{"bike_id":"e7d1c47a-ec9f-493a-8306-8aedefc72d11","system_id":"levelo_inurba_marseille","lat":43.29966,"lon":5.37428,"is_reserved":false,"is_disabled":false,"rental_uris":{"android":"levelo://app?vid=e7d1c47a-ec9f-493a-8306-8aedefc72d11","ios":"levelo://app?vid=e7d1c47a-ec9f-493a-8306-8aedefc72d11"},"vehicle_type_id":"4","last_reported":1727334499,"current_range_meters":34800,"station_id":"ce4bgs92rcd13ifvqcc0","pricing_plan_id":"cebpf4jnsgd1na2vs0mg"},{"bike_id":"e0321300-37ad-4bce-a17c-4bf73cb9114f","system_id":"levelo_inurba_marseille","lat":43.29902,"lon":5.43658,"is_reserved":false,"is_disabled":false,"rental_uris":{"android":"levelo://app?vid=e0321300-37ad-4bce-a17c-4bf73cb9114f","ios":"levelo://app?vid=e0321300-37ad-4bce-a17c-4bf73cb9114f"},"vehicle_type_id":"4","last_reported":1727334499,"current_range_meters":36400,"station_id":"ce4bhpp2rcd13ifvqhfg","pricing_plan_id":"cebpf4jnsgd1na2vs0mg"},{"bike_id":"fb8dbcb4-f3ca-4dc2-8469-db6b421828f0","system_id":"levelo_inurba_marseille","lat":43.30571,"lon":5.36682,"is_reserved":false,"is_disabled":false,"rental_uris":{"android":"levelo://app?vid=fb8dbcb4-f3ca-4dc2-8469-db6b421828f0","ios":"levelo://app?vid=fb8dbcb4-f3ca-4dc2-8469-db6b421828f0"},"vehicle_type_id":"4","last_reported":1727334499,"current_range_meters":32000,"station_id":"ce4bgrp2rcd13ifvqc9g","pricing_plan_id":"cebpf4jnsgd1na2vs0mg"},{"bike_id":"a997bf5b-16b3-4273-bcac-6545c92219a8","system_id":"levelo_inurba_marseille","lat":43.29036,"lon":5.39965,"is_reserved":false,"is_disabled":false,"rental_uris":{"android":"levelo://app?vid=a997bf5b-16b3-4273-bcac-6545c92219a8","ios":"levelo://app?vid=a997bf5b-16b3-4273-bcac-6545c92219a8"},"vehicle_type_id":"4","last_reported":1727334499,"current_range_meters":36000,"station_id":"ce4bh392rcd13ifvqdm0","pricing_plan_id":"cebpf4jnsgd1na2vs0mg"},{"bike_id":"5998edb1-c12b-4b6e-8439-caa5c7c173af","system_id":"levelo_inurba_marseille","lat":43.26955,"lon":5.38623,"is_reserved":false,"is_disabled":false,"rental_uris":{"android":"levelo://app?vid=5998edb1-c12b-4b6e-8439-caa5c7c173af","ios":"levelo://app?vid=5998edb1-c12b-4b6e-8439-caa5c7c173af"},"vehicle_type_id":"4","last_reported":1727334499,"current_range_meters":29600,"station_id":"ce4bhh92rcd13ifvqfh0","pricing_plan_id":"cebpf4jnsgd1na2vs0mg"},{"bike_id":"17a078e4-ebb0-4651-a520-5b5f918b6ab4","system_id":"levelo_inurba_marseille","lat":43.24072,"lon":5.37763,"is_reserved":false,"is_disabled":false,"rental_uris":{"android":"levelo://app?vid=17a078e4-ebb0-4651-a520-5b5f918b6ab4","ios":"levelo://app?vid=17a078e4-ebb0-4651-a520-5b5f918b6ab4"},"vehicle_type_id":"4","last_reported":1727334499,"current_range_meters":36400,"station_id":"ce4bhnp2rcd13ifvqgvg","pricing_plan_id":"cebpf4jnsgd1na2vs0mg"},{"bike_id":"739277f5-a4df-443b-8ba0-9247b8971ff3","system_id":"levelo_inurba_marseille","lat":43.30468,"lon":5.37899,"is_reserved":false,"is_disabled":false,"rental_uris":{"android":"levelo://app?vid=739277f5-a4df-443b-8ba0-9247b8971ff3","ios":"levelo://app?vid=739277f5-a4df-443b-8ba0-9247b8971ff3"},"vehicle_type_id":"4","last_reported":1727334499,"current_range_meters":16800,"station_id":"ce4bgup2rcd13ifvqcn0","pricing_plan_id":"cebpf4jnsgd1na2vs0mg"},{"bike_id":"018668e8-a530-4d21-ab04-2b5e2f2cf015","system_id":"levelo_inurba_marseille","lat":43.29591,"lon":5.40217,"is_reserved":false,"is_disabled":false,"rental_uris":{"android":"levelo://app?vid=018668e8-a530-4d21-ab04-2b5e2f2cf015","ios":"levelo://app?vid=018668e8-a530-4d21-ab04-2b5e2f2cf015"},"vehicle_type_id":"4","last_reported":1727334499,"current_range_meters":30400,"station_id":"","pricing_plan_id":"cebpf4jnsgd1na2vs0mg"},{"bike_id":"bb888b5e-5ef9-4e83-ac22-c75b070a294a","system_id":"levelo_inurba_marseille","lat":43.29026,"lon":5.38136,"is_reserved":false,"is_disabled":false,"rental_uris":{"android":"levelo://app?vid=bb888b5e-5ef9-4e83-ac22-c75b070a294a","ios":"levelo://app?vid=bb888b5e-5ef9-4e83-ac22-c75b070a294a"},"vehicle_type_id":"4","last_reported":1727334499,"current_range_meters":26000,"station_id":"ce4bh4p2rcd13ifvqe1g","pricing_plan_id":"cebpf4jnsgd1na2vs0mg"},{"bike_id":"79a05bb1-ccec-47f0-8ebd-1f95854549f8","system_id":"levelo_inurba_marseille","lat":43.31282,"lon":5.380327,"is_reserved":false,"is_disabled":false,"rental_uris":{"android":"levelo://app?vid=79a05bb1-ccec-47f0-8ebd-1f95854549f8","ios":"levelo://app?vid=79a05bb1-ccec-47f0-8ebd-1f95854549f8"},"vehicle_type_id":"4","last_reported":1727334499,"current_range_meters":8000,"station_id":"","pricing_plan_id":"cebpf4jnsgd1na2vs0mg"},{"bike_id":"30136007-4af8-4987-a9f0-08680d42d88d","system_id":"levelo_inurba_marseille","lat":43.27495,"lon":5.42453,"is_reserved":false,"is_disabled":false,"rental_uris":{"android":"levelo://app?vid=30136007-4af8-4987-a9f0-08680d42d88d","ios":"levelo://app?vid=30136007-4af8-4987-a9f0-08680d42d88d"},"vehicle_type_id":"4","last_reported":1727334499,"current_range_meters":32000,"station_id":"ce4bhn92rcd13ifvqgrg","pricing_plan_id":"cebpf4jnsgd1na2vs0mg"},{"bike_id":"4f97cbe7-906a-4778-849e-2e0ca8839ceb","system_id":"levelo_inurba_marseille","lat":43.2903,"lon":5.39969,"is_reserved":false,"is_disabled":false,"rental_uris":{"android":"levelo://app?vid=4f97cbe7-906a-4778-849e-2e0ca8839ceb","ios":"levelo://app?vid=4f97cbe7-906a-4778-849e-2e0ca8839ceb"},"vehicle_type_id":"4","last_reported":1727334499,"current_range_meters":32400,"station_id":"ce4bh392rcd13ifvqdm0","pricing_plan_id":"cebpf4jnsgd1na2vs0mg"},{"bike_id":"4ca8f2df-d07d-4530-b77f-5472e4a1443e","system_id":"levelo_inurba_marseille","lat":43.32551,"lon":5.41436,"is_reserved":false,"is_disabled":false,"rental_uris":{"android":"levelo://app?vid=4ca8f2df-d07d-4530-b77f-5472e4a1443e","ios":"levelo://app?vid=4ca8f2df-d07d-4530-b77f-5472e4a1443e"},"vehicle_type_id":"4","last_reported":1727334499,"current_range_meters":32000,"station_id":"ce4bhq12rcd13ifvqhhg","pricing_plan_id":"cebpf4jnsgd1na2vs0mg"},{"bike_id":"752881b9-4c40-468e-86a8-9d197fc0c16d","system_id":"levelo_inurba_marseille","lat":43.293432,"lon":5.385661,"is_reserved":false,"is_disabled":false,"rental_uris":{"android":"levelo://app?vid=752881b9-4c40-468e-86a8-9d197fc0c16d","ios":"levelo://app?vid=752881b9-4c40-468e-86a8-9d197fc0c16d"},"vehicle_type_id":"4","last_reported":1727334499,"current_range_meters":35600,"station_id":"ce4bh692rcd13ifvqea0","pricing_plan_id":"cebpf4jnsgd1na2vs0mg"},{"bike_id":"df1bb53e-c106-4893-ad76-6a4c9dfa43a7","system_id":"levelo_inurba_marseille","lat":43.30165,"lon":5.3808,"is_reserved":false,"is_disabled":false,"rental_uris":{"android":"levelo://app?vid=df1bb53e-c106-4893-ad76-6a4c9dfa43a7","ios":"levelo://app?vid=df1bb53e-c106-4893-ad76-6a4c9dfa43a7"},"vehicle_type_id":"4","last_reported":1727334499,"current_range_meters":14800,"station_id":"ce4bgjp2rcd13ifvqbh0","pricing_plan_id":"cebpf4jnsgd1na2vs0mg"},{"bike_id":"94684309-8430-4a88-9798-819abff5d61a","system_id":"levelo_inurba_marseille","lat":43.23153,"lon":5.43708,"is_reserved":false,"is_disabled":false,"rental_uris":{"android":"levelo://app?vid=94684309-8430-4a88-9798-819abff5d61a","ios":"levelo://app?vid=94684309-8430-4a88-9798-819abff5d61a"},"vehicle_type_id":"4","last_reported":1727334499,"current_range_meters":22000,"station_id":"ce4bhmp2rcd13ifvqgog","pricing_plan_id":"cebpf4jnsgd1na2vs0mg"},{"bike_id":"7f7cfb71-e29e-44f8-9bcf-1cbb0dfe5d35","system_id":"levelo_inurba_marseille","lat":43.298473,"lon":5.363312,"is_reserved":false,"is_disabled":false,"rental_uris":{"android":"levelo://app?vid=7f7cfb71-e29e-44f8-9bcf-1cbb0dfe5d35","ios":"levelo://app?vid=7f7cfb71-e29e-44f8-9bcf-1cbb0dfe5d35"},"vehicle_type_id":"4","last_reported":1727334499,"current_range_meters":17600,"station_id":"ce4bgpp2rcd13ifvqc3g","pricing_plan_id":"cebpf4jnsgd1na2vs0mg"},{"bike_id":"83b1fba5-9391-4b09-9400-1ffffa9b9c0a","system_id":"levelo_inurba_marseille","lat":43.231553,"lon":5.437097,"is_reserved":false,"is_disabled":false,"rental_uris":{"android":"levelo://app?vid=83b1fba5-9391-4b09-9400-1ffffa9b9c0a","ios":"levelo://app?vid=83b1fba5-9391-4b09-9400-1ffffa9b9c0a"},"vehicle_type_id":"4","last_reported":1727334499,"current_range_meters":20400,"station_id":"ce4bhmp2rcd13ifvqgog","pricing_plan_id":"cebpf4jnsgd1na2vs0mg"},{"bike_id":"e2439c25-39ef-4ab9-9943-1cd0b7edb5dd","system_id":"levelo_inurba_marseille","lat":43.30539,"lon":5.36695,"is_reserved":false,"is_disabled":false,"rental_uris":{"android":"levelo://app?vid=e2439c25-39ef-4ab9-9943-1cd0b7edb5dd","ios":"levelo://app?vid=e2439c25-39ef-4ab9-9943-1cd0b7edb5dd"},"vehicle_type_id":"4","last_reported":1727334499,"current_range_meters":39200,"station_id":"ce4bgrp2rcd13ifvqc9g","pricing_plan_id":"cebpf4jnsgd1na2vs0mg"},{"bike_id":"b6a68c98-7747-4d23-80cb-dfcf9482b2da","system_id":"levelo_inurba_marseille","lat":43.30155,"lon":5.38068,"is_reserved":false,"is_disabled":false,"rental_uris":{"android":"levelo://app?vid=b6a68c98-7747-4d23-80cb-dfcf9482b2da","ios":"levelo://app?vid=b6a68c98-7747-4d23-80cb-dfcf9482b2da"},"vehicle_type_id":"4","last_reported":1727334499,"current_range_meters":3200,"station_id":"ce4bgjp2rcd13ifvqbh0","pricing_plan_id":"cebpf4jnsgd1na2vs0mg"},{"bike_id":"d37ee7c4-90b9-492a-8132-1a01022d0d2e","system_id":"levelo_inurba_marseille","lat":43.31359,"lon":5.38488,"is_reserved":false,"is_disabled":false,"rental_uris":{"android":"levelo://app?vid=d37ee7c4-90b9-492a-8132-1a01022d0d2e","ios":"levelo://app?vid=d37ee7c4-90b9-492a-8132-1a01022d0d2e"},"vehicle_type_id":"4","last_reported":1727334499,"current_range_meters":22400,"station_id":"ce4bgt92rcd13ifvqcf0","pricing_plan_id":"cebpf4jnsgd1na2vs0mg"},{"bike_id":"12fd5c68-a189-44be-8c96-00f99e9d5e8d","system_id":"levelo_inurba_marseille","lat":43.24388,"lon":5.37053,"is_reserved":false,"is_disabled":false,"rental_uris":{"android":"levelo://app?vid=12fd5c68-a189-44be-8c96-00f99e9d5e8d","ios":"levelo://app?vid=12fd5c68-a189-44be-8c96-00f99e9d5e8d"},"vehicle_type_id":"4","last_reported":1727334499,"current_range_meters":39200,"station_id":"ce4bhhh2rcd13ifvqfk0","pricing_plan_id":"cebpf4jnsgd1na2vs0mg"},{"bike_id":"f9404c9f-c90b-4fa6-baaf-9e0f12afb3d7","system_id":"levelo_inurba_marseille","lat":43.30251,"lon":5.40064,"is_reserved":false,"is_disabled":false,"rental_uris":{"android":"levelo://app?vid=f9404c9f-c90b-4fa6-baaf-9e0f12afb3d7","ios":"levelo://app?vid=f9404c9f-c90b-4fa6-baaf-9e0f12afb3d7"},"vehicle_type_id":"4","last_reported":1727334499,"current_range_meters":39200,"station_id":"ce4bgvh2rcd13ifvqcs0","pricing_plan_id":"cebpf4jnsgd1na2vs0mg"},{"bike_id":"a9e8d3c0-07af-489e-a2b6-48c102fe5f7a","system_id":"levelo_inurba_marseille","lat":43.31365,"lon":5.38488,"is_reserved":false,"is_disabled":false,"rental_uris":{"android":"levelo://app?vid=a9e8d3c0-07af-489e-a2b6-48c102fe5f7a","ios":"levelo://app?vid=a9e8d3c0-07af-489e-a2b6-48c102fe5f7a"},"vehicle_type_id":"4","last_reported":1727334499,"current_range_meters":38000,"station_id":"ce4bgt92rcd13ifvqcf0","pricing_plan_id":"cebpf4jnsgd1na2vs0mg"},{"bike_id":"c017f362-9664-45c4-b19b-7118d6bf47c1","system_id":"levelo_inurba_marseille","lat":43.28154,"lon":5.42649,"is_reserved":false,"is_disabled":false,"rental_uris":{"android":"levelo://app?vid=c017f362-9664-45c4-b19b-7118d6bf47c1","ios":"levelo://app?vid=c017f362-9664-45c4-b19b-7118d6bf47c1"},"vehicle_type_id":"4","last_reported":1727334499,"current_range_meters":39200,"station_id":"ce4bhnh2rcd13ifvqgug","pricing_plan_id":"cebpf4jnsgd1na2vs0mg"},{"bike_id":"717dcbb1-2c9d-4c71-807d-59cb471c1e9e","system_id":"levelo_inurba_marseille","lat":43.28352,"lon":5.38104,"is_reserved":false,"is_disabled":false,"rental_uris":{"android":"levelo://app?vid=717dcbb1-2c9d-4c71-807d-59cb471c1e9e","ios":"levelo://app?vid=717dcbb1-2c9d-4c71-807d-59cb471c1e9e"},"vehicle_type_id":"4","last_reported":1727334499,"current_range_meters":25200,"station_id":"ce4bh412rcd13ifvqdr0","pricing_plan_id":"cebpf4jnsgd1na2vs0mg"},{"bike_id":"65063097-6998-460f-ac17-9ddd6188ee3b","system_id":"levelo_inurba_marseille","lat":43.31079,"lon":5.3834,"is_reserved":false,"is_disabled":false,"rental_uris":{"android":"levelo://app?vid=65063097-6998-460f-ac17-9ddd6188ee3b","ios":"levelo://app?vid=65063097-6998-460f-ac17-9ddd6188ee3b"},"vehicle_type_id":"4","last_reported":1727334499,"current_range_meters":35600,"station_id":"ce4bgv92rcd13ifvqcr0","pricing_plan_id":"cebpf4jnsgd1na2vs0mg"},{"bike_id":"01d29b64-d22e-4bec-9419-25ffa88d35f2","system_id":"levelo_inurba_marseille","lat":43.31369,"lon":5.38494,"is_reserved":false,"is_disabled":false,"rental_uris":{"android":"levelo://app?vid=01d29b64-d22e-4bec-9419-25ffa88d35f2","ios":"levelo://app?vid=01d29b64-d22e-4bec-9419-25ffa88d35f2"},"vehicle_type_id":"4","last_reported":1727334499,"current_range_meters":38000,"station_id":"ce4bgt92rcd13ifvqcf0","pricing_plan_id":"cebpf4jnsgd1na2vs0mg"},{"bike_id":"006cf940-48cf-4382-8743-904d681f2f25","system_id":"levelo_inurba_marseille","lat":43.289259,"lon":5.366502,"is_reserved":false,"is_disabled":false,"rental_uris":{"android":"levelo://app?vid=006cf940-48cf-4382-8743-904d681f2f25","ios":"levelo://app?vid=006cf940-48cf-4382-8743-904d681f2f25"},"vehicle_type_id":"4","last_reported":1727334499,"current_range_meters":26800,"station_id":"ce4bhap2rcd13ifvqek0","pricing_plan_id":"cebpf4jnsgd1na2vs0mg"},{"bike_id":"540ab1b5-efb5-40e8-9b41-57b1dcd8622b","system_id":"levelo_inurba_marseille","lat":43.30463,"lon":5.37899,"is_reserved":false,"is_disabled":false,"rental_uris":{"android":"levelo://app?vid=540ab1b5-efb5-40e8-9b41-57b1dcd8622b","ios":"levelo://app?vid=540ab1b5-efb5-40e8-9b41-57b1dcd8622b"},"vehicle_type_id":"4","last_reported":1727334499,"current_range_meters":33200,"station_id":"ce4bgup2rcd13ifvqcn0","pricing_plan_id":"cebpf4jnsgd1na2vs0mg"},{"bike_id":"5325b546-be8c-45ee-8bcb-8af51028126d","system_id":"levelo_inurba_marseille","lat":43.31222,"lon":5.36866,"is_reserved":false,"is_disabled":false,"rental_uris":{"android":"levelo://app?vid=5325b546-be8c-45ee-8bcb-8af51028126d","ios":"levelo://app?vid=5325b546-be8c-45ee-8bcb-8af51028126d"},"vehicle_type_id":"4","last_reported":1727334499,"current_range_meters":17200,"station_id":"ce4bgl92rcd13ifvqbq0","pricing_plan_id":"cebpf4jnsgd1na2vs0mg"},{"bike_id":"38674e62-e768-405d-9590-89d89d7b7b0f","system_id":"levelo_inurba_marseille","lat":43.26062,"lon":5.39396,"is_reserved":false,"is_disabled":false,"rental_uris":{"android":"levelo://app?vid=38674e62-e768-405d-9590-89d89d7b7b0f","ios":"levelo://app?vid=38674e62-e768-405d-9590-89d89d7b7b0f"},"vehicle_type_id":"4","last_reported":1727334499,"current_range_meters":39200,"station_id":"ce4bhh92rcd13ifvqfj0","pricing_plan_id":"cebpf4jnsgd1na2vs0mg"},{"bike_id":"28d64466-ff35-42ac-b1b5-ec9038ae539d","system_id":"levelo_inurba_marseille","lat":43.313385,"lon":5.367152,"is_reserved":false,"is_disabled":false,"rental_uris":{"android":"levelo://app?vid=28d64466-ff35-42ac-b1b5-ec9038ae539d","ios":"levelo://app?vid=28d64466-ff35-42ac-b1b5-ec9038ae539d"},"vehicle_type_id":"4","last_reported":1727334499,"current_range_meters":22800,"station_id":"ce4bgr92rcd13ifvqc6g","pricing_plan_id":"cebpf4jnsgd1na2vs0mg"},{"bike_id":"1b01696d-69a3-45f6-85c7-5dc14a0edeac","system_id":"levelo_inurba_marseille","lat":43.27849,"lon":5.42473,"is_reserved":false,"is_disabled":false,"rental_uris":{"android":"levelo://app?vid=1b01696d-69a3-45f6-85c7-5dc14a0edeac","ios":"levelo://app?vid=1b01696d-69a3-45f6-85c7-5dc14a0edeac"},"vehicle_type_id":"4","last_reported":1727334499,"current_range_meters":24400,"station_id":"","pricing_plan_id":"cebpf4jnsgd1na2vs0mg"},{"bike_id":"747f9daa-faa1-4a88-9760-323625e1700b","system_id":"levelo_inurba_marseille","lat":43.30784,"lon":5.3765,"is_reserved":false,"is_disabled":false,"rental_uris":{"android":"levelo://app?vid=747f9daa-faa1-4a88-9760-323625e1700b","ios":"levelo://app?vid=747f9daa-faa1-4a88-9760-323625e1700b"},"vehicle_type_id":"4","last_reported":1727334499,"current_range_meters":34000,"station_id":"ce4bgv92rcd13ifvqcq0","pricing_plan_id":"cebpf4jnsgd1na2vs0mg"},{"bike_id":"980a6e78-e57a-42f3-8e3b-e7ab987b675c","system_id":"levelo_inurba_marseille","lat":43.2408,"lon":5.37771,"is_reserved":false,"is_disabled":false,"rental_uris":{"android":"levelo://app?vid=980a6e78-e57a-42f3-8e3b-e7ab987b675c","ios":"levelo://app?vid=980a6e78-e57a-42f3-8e3b-e7ab987b675c"},"vehicle_type_id":"4","last_reported":1727334499,"current_range_meters":18800,"station_id":"ce4bhnp2rcd13ifvqgvg","pricing_plan_id":"cebpf4jnsgd1na2vs0mg"},{"bike_id":"9f9c6052-e813-4141-968a-017042695798","system_id":"levelo_inurba_marseille","lat":43.30476,"lon":5.37908,"is_reserved":false,"is_disabled":false,"rental_uris":{"android":"levelo://app?vid=9f9c6052-e813-4141-968a-017042695798","ios":"levelo://app?vid=9f9c6052-e813-4141-968a-017042695798"},"vehicle_type_id":"4","last_reported":1727334499,"current_range_meters":32400,"station_id":"ce4bgup2rcd13ifvqcn0","pricing_plan_id":"cebpf4jnsgd1na2vs0mg"},{"bike_id":"cbc2abbd-bca0-45c1-8cc4-b30dd141ee70","system_id":"levelo_inurba_marseille","lat":43.29951,"lon":5.37175,"is_reserved":false,"is_disabled":false,"rental_uris":{"android":"levelo://app?vid=cbc2abbd-bca0-45c1-8cc4-b30dd141ee70","ios":"levelo://app?vid=cbc2abbd-bca0-45c1-8cc4-b30dd141ee70"},"vehicle_type_id":"4","last_reported":1727334499,"current_range_meters":27600,"station_id":"ce4bgr92rcd13ifvqc7g","pricing_plan_id":"cebpf4jnsgd1na2vs0mg"},{"bike_id":"99d44a35-6595-4df5-8399-2ae2357600c8","system_id":"levelo_inurba_marseille","lat":43.25937,"lon":5.40904,"is_reserved":false,"is_disabled":false,"rental_uris":{"android":"levelo://app?vid=99d44a35-6595-4df5-8399-2ae2357600c8","ios":"levelo://app?vid=99d44a35-6595-4df5-8399-2ae2357600c8"},"vehicle_type_id":"4","last_reported":1727334499,"current_range_meters":38000,"station_id":"ce4bhm92rcd13ifvqglg","pricing_plan_id":"cebpf4jnsgd1na2vs0mg"},{"bike_id":"cb4054b9-b900-4f97-8568-69a230432353","system_id":"levelo_inurba_marseille","lat":43.240753,"lon":5.377632,"is_reserved":false,"is_disabled":false,"rental_uris":{"android":"levelo://app?vid=cb4054b9-b900-4f97-8568-69a230432353","ios":"levelo://app?vid=cb4054b9-b900-4f97-8568-69a230432353"},"vehicle_type_id":"4","last_reported":1727334499,"current_range_meters":17600,"station_id":"ce4bgs92rcd13ifvqcc0","pricing_plan_id":"cebpf4jnsgd1na2vs0mg"},{"bike_id":"447d8a9b-9114-4eac-be8e-8d5e87bed79e","system_id":"levelo_inurba_marseille","lat":43.32532,"lon":5.41431,"is_reserved":false,"is_disabled":false,"rental_uris":{"android":"levelo://app?vid=447d8a9b-9114-4eac-be8e-8d5e87bed79e","ios":"levelo://app?vid=447d8a9b-9114-4eac-be8e-8d5e87bed79e"},"vehicle_type_id":"4","last_reported":1727334499,"current_range_meters":34000,"station_id":"ce4bhq12rcd13ifvqhhg","pricing_plan_id":"cebpf4jnsgd1na2vs0mg"},{"bike_id":"48e6bb39-de35-46b7-b057-3295a5474807","system_id":"levelo_inurba_marseille","lat":43.28369,"lon":5.38483,"is_reserved":false,"is_disabled":false,"rental_uris":{"android":"levelo://app?vid=48e6bb39-de35-46b7-b057-3295a5474807","ios":"levelo://app?vid=48e6bb39-de35-46b7-b057-3295a5474807"},"vehicle_type_id":"4","last_reported":1727334499,"current_range_meters":26000,"station_id":"","pricing_plan_id":"cebpf4jnsgd1na2vs0mg"},{"bike_id":"178cba8c-1927-49a5-ada2-fb6bb85a9228","system_id":"levelo_inurba_marseille","lat":43.24077,"lon":5.37753,"is_reserved":false,"is_disabled":false,"rental_uris":{"android":"levelo://app?vid=178cba8c-1927-49a5-ada2-fb6bb85a9228","ios":"levelo://app?vid=178cba8c-1927-49a5-ada2-fb6bb85a9228"},"vehicle_type_id":"4","last_reported":1727334499,"current_range_meters":32000,"station_id":"ce4bhnp2rcd13ifvqgvg","pricing_plan_id":"cebpf4jnsgd1na2vs0mg"},{"bike_id":"bca61560-0fea-43b7-9dea-bd8851a6b8fd","system_id":"levelo_inurba_marseille","lat":43.30469,"lon":5.37908,"is_reserved":false,"is_disabled":false,"rental_uris":{"android":"levelo://app?vid=bca61560-0fea-43b7-9dea-bd8851a6b8fd","ios":"levelo://app?vid=bca61560-0fea-43b7-9dea-bd8851a6b8fd"},"vehicle_type_id":"4","last_reported":1727334499,"current_range_meters":31200,"station_id":"ce4bgup2rcd13ifvqcn0","pricing_plan_id":"cebpf4jnsgd1na2vs0mg"},{"bike_id":"d0d07880-62b3-4c52-b862-412a7e5558bd","system_id":"levelo_inurba_marseille","lat":43.27996,"lon":5.41662,"is_reserved":false,"is_disabled":false,"rental_uris":{"android":"levelo://app?vid=d0d07880-62b3-4c52-b862-412a7e5558bd","ios":"levelo://app?vid=d0d07880-62b3-4c52-b862-412a7e5558bd"},"vehicle_type_id":"4","last_reported":1727334499,"current_range_meters":18000,"station_id":"ce4bho12rcd13ifvqh1g","pricing_plan_id":"cebpf4jnsgd1na2vs0mg"},{"bike_id":"69a44723-2ad3-42ce-8d16-6968ae7b4b69","system_id":"levelo_inurba_marseille","lat":43.31344,"lon":5.36701,"is_reserved":false,"is_disabled":false,"rental_uris":{"android":"levelo://app?vid=69a44723-2ad3-42ce-8d16-6968ae7b4b69","ios":"levelo://app?vid=69a44723-2ad3-42ce-8d16-6968ae7b4b69"},"vehicle_type_id":"4","last_reported":1727334499,"current_range_meters":28400,"station_id":"ce4bgr92rcd13ifvqc6g","pricing_plan_id":"cebpf4jnsgd1na2vs0mg"},{"bike_id":"6422322b-88ca-4e2c-bfdf-3f1556973a7e","system_id":"levelo_inurba_marseille","lat":43.293687,"lon":5.378332,"is_reserved":false,"is_disabled":false,"rental_uris":{"android":"levelo://app?vid=6422322b-88ca-4e2c-bfdf-3f1556973a7e","ios":"levelo://app?vid=6422322b-88ca-4e2c-bfdf-3f1556973a7e"},"vehicle_type_id":"4","last_reported":1727334499,"current_range_meters":2000,"station_id":"ce4bh492rcd13ifvqdvg","pricing_plan_id":"cebpf4jnsgd1na2vs0mg"},{"bike_id":"5804818a-6e7e-4f3c-be4c-90121e07a52c","system_id":"levelo_inurba_marseille","lat":43.23151,"lon":5.43712,"is_reserved":false,"is_disabled":false,"rental_uris":{"android":"levelo://app?vid=5804818a-6e7e-4f3c-be4c-90121e07a52c","ios":"levelo://app?vid=5804818a-6e7e-4f3c-be4c-90121e07a52c"},"vehicle_type_id":"4","last_reported":1727334499,"current_range_meters":17200,"station_id":"ce4bhmp2rcd13ifvqgog","pricing_plan_id":"cebpf4jnsgd1na2vs0mg"},{"bike_id":"91372296-66f0-4955-9ea7-af2aeb756cbd","system_id":"levelo_inurba_marseille","lat":43.29848,"lon":5.36279,"is_reserved":false,"is_disabled":false,"rental_uris":{"android":"levelo://app?vid=91372296-66f0-4955-9ea7-af2aeb756cbd","ios":"levelo://app?vid=91372296-66f0-4955-9ea7-af2aeb756cbd"},"vehicle_type_id":"4","last_reported":1727334499,"current_range_meters":4400,"station_id":"ce4bgpp2rcd13ifvqc3g","pricing_plan_id":"cebpf4jnsgd1na2vs0mg"},{"bike_id":"cf36a53a-3509-423f-8075-777dbf5a32a1","system_id":"levelo_inurba_marseille","lat":43.22937,"lon":5.35373,"is_reserved":false,"is_disabled":false,"rental_uris":{"android":"levelo://app?vid=cf36a53a-3509-423f-8075-777dbf5a32a1","ios":"levelo://app?vid=cf36a53a-3509-423f-8075-777dbf5a32a1"},"vehicle_type_id":"4","last_reported":1727334499,"current_range_meters":26000,"station_id":"cpo3532slgdg3j2ikp40","pricing_plan_id":"cebpf4jnsgd1na2vs0mg"},{"bike_id":"a75d11e4-5000-41f8-9ff2-fbd2a76366d5","system_id":"levelo_inurba_marseille","lat":43.3395,"lon":5.42078,"is_reserved":false,"is_disabled":false,"rental_uris":{"android":"levelo://app?vid=a75d11e4-5000-41f8-9ff2-fbd2a76366d5","ios":"levelo://app?vid=a75d11e4-5000-41f8-9ff2-fbd2a76366d5"},"vehicle_type_id":"4","last_reported":1727334499,"current_range_meters":16400,"station_id":"","pricing_plan_id":"cebpf4jnsgd1na2vs0mg"},{"bike_id":"d8898c38-d84b-4a32-81d5-f35fe017d87f","system_id":"levelo_inurba_marseille","lat":43.3122,"lon":5.36843,"is_reserved":false,"is_disabled":false,"rental_uris":{"android":"levelo://app?vid=d8898c38-d84b-4a32-81d5-f35fe017d87f","ios":"levelo://app?vid=d8898c38-d84b-4a32-81d5-f35fe017d87f"},"vehicle_type_id":"4","last_reported":1727334499,"current_range_meters":30400,"station_id":"ce4bgl92rcd13ifvqbq0","pricing_plan_id":"cebpf4jnsgd1na2vs0mg"},{"bike_id":"7432f318-175c-4186-8f46-8870d2e02596","system_id":"levelo_inurba_marseille","lat":43.29278,"lon":5.36845,"is_reserved":false,"is_disabled":false,"rental_uris":{"android":"levelo://app?vid=7432f318-175c-4186-8f46-8870d2e02596","ios":"levelo://app?vid=7432f318-175c-4186-8f46-8870d2e02596"},"vehicle_type_id":"4","last_reported":1727334499,"current_range_meters":30000,"station_id":"ce4bhbp2rcd13ifvqesg","pricing_plan_id":"cebpf4jnsgd1na2vs0mg"},{"bike_id":"78abe469-536b-42bc-9bee-73f10028bf3e","system_id":"levelo_inurba_marseille","lat":43.27491,"lon":5.42455,"is_reserved":false,"is_disabled":false,"rental_uris":{"android":"levelo://app?vid=78abe469-536b-42bc-9bee-73f10028bf3e","ios":"levelo://app?vid=78abe469-536b-42bc-9bee-73f10028bf3e"},"vehicle_type_id":"4","last_reported":1727334499,"current_range_meters":36000,"station_id":"ce4bhn92rcd13ifvqgrg","pricing_plan_id":"cebpf4jnsgd1na2vs0mg"},{"bike_id":"d93148a6-c678-41c4-a726-9e626ad95f20","system_id":"levelo_inurba_marseille","lat":43.26195,"lon":5.37915,"is_reserved":false,"is_disabled":false,"rental_uris":{"android":"levelo://app?vid=d93148a6-c678-41c4-a726-9e626ad95f20","ios":"levelo://app?vid=d93148a6-c678-41c4-a726-9e626ad95f20"},"vehicle_type_id":"4","last_reported":1727334499,"current_range_meters":6000,"station_id":"ce4bhjp2rcd13ifvqg90","pricing_plan_id":"cebpf4jnsgd1na2vs0mg"},{"bike_id":"d16f415b-91b0-49f3-895b-28b198556ee1","system_id":"levelo_inurba_marseille","lat":43.30951,"lon":5.39035,"is_reserved":false,"is_disabled":false,"rental_uris":{"android":"levelo://app?vid=d16f415b-91b0-49f3-895b-28b198556ee1","ios":"levelo://app?vid=d16f415b-91b0-49f3-895b-28b198556ee1"},"vehicle_type_id":"4","last_reported":1727334499,"current_range_meters":32400,"station_id":"ce4bgup2rcd13ifvqco0","pricing_plan_id":"cebpf4jnsgd1na2vs0mg"},{"bike_id":"c5bd1edb-7030-475f-b12f-861d57045551","system_id":"levelo_inurba_marseille","lat":43.30479,"lon":5.37902,"is_reserved":false,"is_disabled":false,"rental_uris":{"android":"levelo://app?vid=c5bd1edb-7030-475f-b12f-861d57045551","ios":"levelo://app?vid=c5bd1edb-7030-475f-b12f-861d57045551"},"vehicle_type_id":"4","last_reported":1727334499,"current_range_meters":11600,"station_id":"ce4bgup2rcd13ifvqcn0","pricing_plan_id":"cebpf4jnsgd1na2vs0mg"},{"bike_id":"90ec8e32-de8b-49d2-90ec-0e997d932c46","system_id":"levelo_inurba_marseille","lat":43.28423,"lon":5.3499,"is_reserved":false,"is_disabled":false,"rental_uris":{"android":"levelo://app?vid=90ec8e32-de8b-49d2-90ec-0e997d932c46","ios":"levelo://app?vid=90ec8e32-de8b-49d2-90ec-0e997d932c46"},"vehicle_type_id":"4","last_reported":1727334499,"current_range_meters":37600,"station_id":"ce4bhbh2rcd13ifvqepg","pricing_plan_id":"cebpf4jnsgd1na2vs0mg"},{"bike_id":"03ee95af-84cc-44ed-a76a-332d8cd751b2","system_id":"levelo_inurba_marseille","lat":43.23148,"lon":5.43719,"is_reserved":false,"is_disabled":false,"rental_uris":{"android":"levelo://app?vid=03ee95af-84cc-44ed-a76a-332d8cd751b2","ios":"levelo://app?vid=03ee95af-84cc-44ed-a76a-332d8cd751b2"},"vehicle_type_id":"4","last_reported":1727334499,"current_range_meters":6400,"station_id":"ce4bhmp2rcd13ifvqgog","pricing_plan_id":"cebpf4jnsgd1na2vs0mg"},{"bike_id":"08a5cd66-f021-4853-bec7-3221a1186d83","system_id":"levelo_inurba_marseille","lat":43.27497,"lon":5.42447,"is_reserved":false,"is_disabled":false,"rental_uris":{"android":"levelo://app?vid=08a5cd66-f021-4853-bec7-3221a1186d83","ios":"levelo://app?vid=08a5cd66-f021-4853-bec7-3221a1186d83"},"vehicle_type_id":"4","last_reported":1727334499,"current_range_meters":22800,"station_id":"ce4bhn92rcd13ifvqgrg","pricing_plan_id":"cebpf4jnsgd1na2vs0mg"},{"bike_id":"34ca17fd-9244-48c2-9b8f-4365e2fc0da2","system_id":"levelo_inurba_marseille","lat":43.32362,"lon":5.38888,"is_reserved":false,"is_disabled":false,"rental_uris":{"android":"levelo://app?vid=34ca17fd-9244-48c2-9b8f-4365e2fc0da2","ios":"levelo://app?vid=34ca17fd-9244-48c2-9b8f-4365e2fc0da2"},"vehicle_type_id":"4","last_reported":1727334499,"current_range_meters":18000,"station_id":"ce4bhqp2rcd13ifvqhog","pricing_plan_id":"cebpf4jnsgd1na2vs0mg"},{"bike_id":"3b797606-8f8d-45f9-b51e-fe5143a658b4","system_id":"levelo_inurba_marseille","lat":43.30151,"lon":5.38074,"is_reserved":false,"is_disabled":false,"rental_uris":{"android":"levelo://app?vid=3b797606-8f8d-45f9-b51e-fe5143a658b4","ios":"levelo://app?vid=3b797606-8f8d-45f9-b51e-fe5143a658b4"},"vehicle_type_id":"4","last_reported":1727334499,"current_range_meters":29600,"station_id":"ce4bgjp2rcd13ifvqbh0","pricing_plan_id":"cebpf4jnsgd1na2vs0mg"},{"bike_id":"e3957d14-62b8-4556-99f8-ab988c9dd032","system_id":"levelo_inurba_marseille","lat":43.30472,"lon":5.37892,"is_reserved":false,"is_disabled":false,"rental_uris":{"android":"levelo://app?vid=e3957d14-62b8-4556-99f8-ab988c9dd032","ios":"levelo://app?vid=e3957d14-62b8-4556-99f8-ab988c9dd032"},"vehicle_type_id":"4","last_reported":1727334499,"current_range_meters":33600,"station_id":"ce4bgup2rcd13ifvqcn0","pricing_plan_id":"cebpf4jnsgd1na2vs0mg"},{"bike_id":"d8654ec4-6c00-4844-bf03-787bfe5964d4","system_id":"levelo_inurba_marseille","lat":43.27493,"lon":5.42451,"is_reserved":false,"is_disabled":false,"rental_uris":{"android":"levelo://app?vid=d8654ec4-6c00-4844-bf03-787bfe5964d4","ios":"levelo://app?vid=d8654ec4-6c00-4844-bf03-787bfe5964d4"},"vehicle_type_id":"4","last_reported":1727334499,"current_range_meters":25600,"station_id":"ce4bhn92rcd13ifvqgrg","pricing_plan_id":"cebpf4jnsgd1na2vs0mg"},{"bike_id":"637beff3-55bd-4f15-99c0-4cb53d5dddb9","system_id":"levelo_inurba_marseille","lat":43.30656,"lon":5.39533,"is_reserved":false,"is_disabled":false,"rental_uris":{"android":"levelo://app?vid=637beff3-55bd-4f15-99c0-4cb53d5dddb9","ios":"levelo://app?vid=637beff3-55bd-4f15-99c0-4cb53d5dddb9"},"vehicle_type_id":"4","last_reported":1727334499,"current_range_meters":37600,"station_id":"","pricing_plan_id":"cebpf4jnsgd1na2vs0mg"},{"bike_id":"ba8290d1-f090-44a1-af10-4e654d71056b","system_id":"levelo_inurba_marseille","lat":43.30463,"lon":5.37914,"is_reserved":false,"is_disabled":false,"rental_uris":{"android":"levelo://app?vid=ba8290d1-f090-44a1-af10-4e654d71056b","ios":"levelo://app?vid=ba8290d1-f090-44a1-af10-4e654d71056b"},"vehicle_type_id":"4","last_reported":1727334499,"current_range_meters":24000,"station_id":"ce4bgup2rcd13ifvqcn0","pricing_plan_id":"cebpf4jnsgd1na2vs0mg"},{"bike_id":"24c96040-78e5-4d3d-98c2-da1d0a848e1f","system_id":"levelo_inurba_marseille","lat":43.24073,"lon":5.37761,"is_reserved":false,"is_disabled":false,"rental_uris":{"android":"levelo://app?vid=24c96040-78e5-4d3d-98c2-da1d0a848e1f","ios":"levelo://app?vid=24c96040-78e5-4d3d-98c2-da1d0a848e1f"},"vehicle_type_id":"4","last_reported":1727334499,"current_range_meters":25600,"station_id":"ce4bhnp2rcd13ifvqgvg","pricing_plan_id":"cebpf4jnsgd1na2vs0mg"},{"bike_id":"d43c85ca-4c93-4962-8e62-f8d251e36364","system_id":"levelo_inurba_marseille","lat":43.28152,"lon":5.4265,"is_reserved":false,"is_disabled":false,"rental_uris":{"android":"levelo://app?vid=d43c85ca-4c93-4962-8e62-f8d251e36364","ios":"levelo://app?vid=d43c85ca-4c93-4962-8e62-f8d251e36364"},"vehicle_type_id":"4","last_reported":1727334499,"current_range_meters":36400,"station_id":"ce4bhnh2rcd13ifvqgug","pricing_plan_id":"cebpf4jnsgd1na2vs0mg"},{"bike_id":"b860d883-c194-47c2-a427-633aacf2d83d","system_id":"levelo_inurba_marseille","lat":43.33606,"lon":5.41023,"is_reserved":false,"is_disabled":false,"rental_uris":{"android":"levelo://app?vid=b860d883-c194-47c2-a427-633aacf2d83d","ios":"levelo://app?vid=b860d883-c194-47c2-a427-633aacf2d83d"},"vehicle_type_id":"4","last_reported":1727334499,"current_range_meters":24800,"station_id":"ce4bhqh2rcd13ifvqhmg","pricing_plan_id":"cebpf4jnsgd1na2vs0mg"},{"bike_id":"086467af-eb55-40d9-bf12-d79311bd4582","system_id":"levelo_inurba_marseille","lat":43.28717,"lon":5.37938,"is_reserved":false,"is_disabled":false,"rental_uris":{"android":"levelo://app?vid=086467af-eb55-40d9-bf12-d79311bd4582","ios":"levelo://app?vid=086467af-eb55-40d9-bf12-d79311bd4582"},"vehicle_type_id":"4","last_reported":1727334499,"current_range_meters":28400,"station_id":"ce4bh9p2rcd13ifvqec0","pricing_plan_id":"cebpf4jnsgd1na2vs0mg"},{"bike_id":"5933e752-2163-42fe-ae1d-31c1fb0105f2","system_id":"levelo_inurba_marseille","lat":43.30478,"lon":5.37898,"is_reserved":false,"is_disabled":false,"rental_uris":{"android":"levelo://app?vid=5933e752-2163-42fe-ae1d-31c1fb0105f2","ios":"levelo://app?vid=5933e752-2163-42fe-ae1d-31c1fb0105f2"},"vehicle_type_id":"4","last_reported":1727334499,"current_range_meters":17200,"station_id":"ce4bgup2rcd13ifvqcn0","pricing_plan_id":"cebpf4jnsgd1na2vs0mg"},{"bike_id":"71417a4e-e058-47af-99fe-23be5a623ecf","system_id":"levelo_inurba_marseille","lat":43.27491,"lon":5.42459,"is_reserved":false,"is_disabled":false,"rental_uris":{"android":"levelo://app?vid=71417a4e-e058-47af-99fe-23be5a623ecf","ios":"levelo://app?vid=71417a4e-e058-47af-99fe-23be5a623ecf"},"vehicle_type_id":"4","last_reported":1727334499,"current_range_meters":14400,"station_id":"ce4bhn92rcd13ifvqgrg","pricing_plan_id":"cebpf4jnsgd1na2vs0mg"},{"bike_id":"5233d857-1fab-42f4-9c19-87f7a987f56d","system_id":"levelo_inurba_marseille","lat":43.27501,"lon":5.42445,"is_reserved":false,"is_disabled":false,"rental_uris":{"android":"levelo://app?vid=5233d857-1fab-42f4-9c19-87f7a987f56d","ios":"levelo://app?vid=5233d857-1fab-42f4-9c19-87f7a987f56d"},"vehicle_type_id":"4","last_reported":1727334499,"current_range_meters":33200,"station_id":"ce4bhn92rcd13ifvqgrg","pricing_plan_id":"cebpf4jnsgd1na2vs0mg"},{"bike_id":"263c46da-03f3-4ad8-925c-c858c22c0067","system_id":"levelo_inurba_marseille","lat":43.258759,"lon":5.398991,"is_reserved":false,"is_disabled":false,"rental_uris":{"android":"levelo://app?vid=263c46da-03f3-4ad8-925c-c858c22c0067","ios":"levelo://app?vid=263c46da-03f3-4ad8-925c-c858c22c0067"},"vehicle_type_id":"4","last_reported":1727334499,"current_range_meters":33600,"station_id":"ce4bhl92rcd13ifvqghg","pricing_plan_id":"cebpf4jnsgd1na2vs0mg"},{"bike_id":"538dac14-9de1-4375-a115-13e606449aa7","system_id":"levelo_inurba_marseille","lat":43.24075,"lon":5.37755,"is_reserved":false,"is_disabled":false,"rental_uris":{"android":"levelo://app?vid=538dac14-9de1-4375-a115-13e606449aa7","ios":"levelo://app?vid=538dac14-9de1-4375-a115-13e606449aa7"},"vehicle_type_id":"4","last_reported":1727334499,"current_range_meters":34800,"station_id":"ce4bhnp2rcd13ifvqgvg","pricing_plan_id":"cebpf4jnsgd1na2vs0mg"},{"bike_id":"0a5ef607-1314-4ea7-a547-44134686620f","system_id":"levelo_inurba_marseille","lat":43.27492,"lon":5.42451,"is_reserved":false,"is_disabled":false,"rental_uris":{"android":"levelo://app?vid=0a5ef607-1314-4ea7-a547-44134686620f","ios":"levelo://app?vid=0a5ef607-1314-4ea7-a547-44134686620f"},"vehicle_type_id":"4","last_reported":1727334499,"current_range_meters":38000,"station_id":"ce4bhn92rcd13ifvqgrg","pricing_plan_id":"cebpf4jnsgd1na2vs0mg"},{"bike_id":"e868c1c8-1da6-4beb-8a99-b79f5ec61971","system_id":"levelo_inurba_marseille","lat":43.26951,"lon":5.38633,"is_reserved":false,"is_disabled":false,"rental_uris":{"android":"levelo://app?vid=e868c1c8-1da6-4beb-8a99-b79f5ec61971","ios":"levelo://app?vid=e868c1c8-1da6-4beb-8a99-b79f5ec61971"},"vehicle_type_id":"4","last_reported":1727334499,"current_range_meters":24000,"station_id":"ce4bhh92rcd13ifvqfh0","pricing_plan_id":"cebpf4jnsgd1na2vs0mg"},{"bike_id":"acc235a4-8579-4ea1-85b1-7447f430c3ae","system_id":"levelo_inurba_marseille","lat":43.26566,"lon":5.39007,"is_reserved":false,"is_disabled":false,"rental_uris":{"android":"levelo://app?vid=acc235a4-8579-4ea1-85b1-7447f430c3ae","ios":"levelo://app?vid=acc235a4-8579-4ea1-85b1-7447f430c3ae"},"vehicle_type_id":"4","last_reported":1727334499,"current_range_meters":20400,"station_id":"ce4bhe12rcd13ifvqf30","pricing_plan_id":"cebpf4jnsgd1na2vs0mg"},{"bike_id":"880be84e-2de4-446e-b7c7-eb38f845843e","system_id":"levelo_inurba_marseille","lat":43.25937,"lon":5.40905,"is_reserved":false,"is_disabled":false,"rental_uris":{"android":"levelo://app?vid=880be84e-2de4-446e-b7c7-eb38f845843e","ios":"levelo://app?vid=880be84e-2de4-446e-b7c7-eb38f845843e"},"vehicle_type_id":"4","last_reported":1727334499,"current_range_meters":31200,"station_id":"ce4bhm92rcd13ifvqglg","pricing_plan_id":"cebpf4jnsgd1na2vs0mg"},{"bike_id":"86cc00fb-3115-49c4-8209-a596309893f4","system_id":"levelo_inurba_marseille","lat":43.28152,"lon":5.42646,"is_reserved":false,"is_disabled":false,"rental_uris":{"android":"levelo://app?vid=86cc00fb-3115-49c4-8209-a596309893f4","ios":"levelo://app?vid=86cc00fb-3115-49c4-8209-a596309893f4"},"vehicle_type_id":"4","last_reported":1727334499,"current_range_meters":38400,"station_id":"ce4bhnh2rcd13ifvqgug","pricing_plan_id":"cebpf4jnsgd1na2vs0mg"},{"bike_id":"cdd4a971-88d1-4937-adf9-51649b8b80ee","system_id":"levelo_inurba_marseille","lat":43.3092,"lon":5.36851,"is_reserved":false,"is_disabled":false,"rental_uris":{"android":"levelo://app?vid=cdd4a971-88d1-4937-adf9-51649b8b80ee","ios":"levelo://app?vid=cdd4a971-88d1-4937-adf9-51649b8b80ee"},"vehicle_type_id":"4","last_reported":1727334499,"current_range_meters":39200,"station_id":"ce4bgn92rcd13ifvqbvg","pricing_plan_id":"cebpf4jnsgd1na2vs0mg"},{"bike_id":"2ed98b51-95b7-4b57-a44b-84e22c01b097","system_id":"levelo_inurba_marseille","lat":43.25938,"lon":5.409,"is_reserved":false,"is_disabled":false,"rental_uris":{"android":"levelo://app?vid=2ed98b51-95b7-4b57-a44b-84e22c01b097","ios":"levelo://app?vid=2ed98b51-95b7-4b57-a44b-84e22c01b097"},"vehicle_type_id":"4","last_reported":1727334499,"current_range_meters":27200,"station_id":"ce4bhm92rcd13ifvqglg","pricing_plan_id":"cebpf4jnsgd1na2vs0mg"},{"bike_id":"9661e5d3-6c14-43a7-81c8-f303fe6c8639","system_id":"levelo_inurba_marseille","lat":43.3014,"lon":5.37423,"is_reserved":false,"is_disabled":false,"rental_uris":{"android":"levelo://app?vid=9661e5d3-6c14-43a7-81c8-f303fe6c8639","ios":"levelo://app?vid=9661e5d3-6c14-43a7-81c8-f303fe6c8639"},"vehicle_type_id":"4","last_reported":1727334499,"current_range_meters":33200,"station_id":"ce4bgs92rcd13ifvqcc0","pricing_plan_id":"cebpf4jnsgd1na2vs0mg"},{"bike_id":"db901e4b-152d-44f9-bf8e-0ac06b2af6fe","system_id":"levelo_inurba_marseille","lat":43.30544,"lon":5.36691,"is_reserved":false,"is_disabled":false,"rental_uris":{"android":"levelo://app?vid=db901e4b-152d-44f9-bf8e-0ac06b2af6fe","ios":"levelo://app?vid=db901e4b-152d-44f9-bf8e-0ac06b2af6fe"},"vehicle_type_id":"4","last_reported":1727334499,"current_range_meters":30800,"station_id":"ce4bgrp2rcd13ifvqc9g","pricing_plan_id":"cebpf4jnsgd1na2vs0mg"},{"bike_id":"c859838e-9668-46a6-9add-c65973b9865a","system_id":"levelo_inurba_marseille","lat":43.27074,"lon":5.42277,"is_reserved":false,"is_disabled":false,"rental_uris":{"android":"levelo://app?vid=c859838e-9668-46a6-9add-c65973b9865a","ios":"levelo://app?vid=c859838e-9668-46a6-9add-c65973b9865a"},"vehicle_type_id":"4","last_reported":1727334499,"current_range_meters":29600,"station_id":"ce4bhk92rcd13ifvqgb0","pricing_plan_id":"cebpf4jnsgd1na2vs0mg"},{"bike_id":"4d63e6bf-5364-45f2-b199-35d2c134ddde","system_id":"levelo_inurba_marseille","lat":43.30903,"lon":5.37202,"is_reserved":false,"is_disabled":false,"rental_uris":{"android":"levelo://app?vid=4d63e6bf-5364-45f2-b199-35d2c134ddde","ios":"levelo://app?vid=4d63e6bf-5364-45f2-b199-35d2c134ddde"},"vehicle_type_id":"4","last_reported":1727334499,"current_range_meters":34000,"station_id":"ce4bguh2rcd13ifvqckg","pricing_plan_id":"cebpf4jnsgd1na2vs0mg"},{"bike_id":"e939d41d-05db-4a9f-a56d-b4b5aa1bec26","system_id":"levelo_inurba_marseille","lat":43.26567,"lon":5.39,"is_reserved":false,"is_disabled":false,"rental_uris":{"android":"levelo://app?vid=e939d41d-05db-4a9f-a56d-b4b5aa1bec26","ios":"levelo://app?vid=e939d41d-05db-4a9f-a56d-b4b5aa1bec26"},"vehicle_type_id":"4","last_reported":1727334499,"current_range_meters":28000,"station_id":"ce4bhe12rcd13ifvqf30","pricing_plan_id":"cebpf4jnsgd1na2vs0mg"},{"bike_id":"e9a8dbaf-57f8-49f9-b8b9-f8977d9d8a8f","system_id":"levelo_inurba_marseille","lat":43.32481,"lon":5.36562,"is_reserved":false,"is_disabled":false,"rental_uris":{"android":"levelo://app?vid=e9a8dbaf-57f8-49f9-b8b9-f8977d9d8a8f","ios":"levelo://app?vid=e9a8dbaf-57f8-49f9-b8b9-f8977d9d8a8f"},"vehicle_type_id":"4","last_reported":1727334499,"current_range_meters":10000,"station_id":"ce4bhs12rcd13ifvqhvg","pricing_plan_id":"cebpf4jnsgd1na2vs0mg"},{"bike_id":"0324fb8b-19b0-44a0-bdd2-72a6ffd7c2a7","system_id":"levelo_inurba_marseille","lat":43.240479,"lon":5.366092,"is_reserved":false,"is_disabled":false,"rental_uris":{"android":"levelo://app?vid=0324fb8b-19b0-44a0-bdd2-72a6ffd7c2a7","ios":"levelo://app?vid=0324fb8b-19b0-44a0-bdd2-72a6ffd7c2a7"},"vehicle_type_id":"4","last_reported":1727334499,"current_range_meters":29600,"station_id":"ce4bhi12rcd13ifvqfp0","pricing_plan_id":"cebpf4jnsgd1na2vs0mg"},{"bike_id":"32f2ee49-0647-4da0-a723-7687c3b8c1c9","system_id":"levelo_inurba_marseille","lat":43.23158,"lon":5.43709,"is_reserved":false,"is_disabled":false,"rental_uris":{"android":"levelo://app?vid=32f2ee49-0647-4da0-a723-7687c3b8c1c9","ios":"levelo://app?vid=32f2ee49-0647-4da0-a723-7687c3b8c1c9"},"vehicle_type_id":"4","last_reported":1727334499,"current_range_meters":11600,"station_id":"ce4bhmp2rcd13ifvqgog","pricing_plan_id":"cebpf4jnsgd1na2vs0mg"},{"bike_id":"22e78102-e61a-40ce-aa23-528aa9929fe6","system_id":"levelo_inurba_marseille","lat":43.27069,"lon":5.42276,"is_reserved":false,"is_disabled":false,"rental_uris":{"android":"levelo://app?vid=22e78102-e61a-40ce-aa23-528aa9929fe6","ios":"levelo://app?vid=22e78102-e61a-40ce-aa23-528aa9929fe6"},"vehicle_type_id":"4","last_reported":1727334499,"current_range_meters":8000,"station_id":"ce4bhk92rcd13ifvqgb0","pricing_plan_id":"cebpf4jnsgd1na2vs0mg"},{"bike_id":"91a6324b-623d-4ede-a51e-be3b5188864d","system_id":"levelo_inurba_marseille","lat":43.30285,"lon":5.37702,"is_reserved":false,"is_disabled":false,"rental_uris":{"android":"levelo://app?vid=91a6324b-623d-4ede-a51e-be3b5188864d","ios":"levelo://app?vid=91a6324b-623d-4ede-a51e-be3b5188864d"},"vehicle_type_id":"4","last_reported":1727334499,"current_range_meters":35600,"station_id":"ce4bguh2rcd13ifvqcj0","pricing_plan_id":"cebpf4jnsgd1na2vs0mg"},{"bike_id":"45daab6e-bdfa-4378-bb67-2ff46e2c4c5d","system_id":"levelo_inurba_marseille","lat":43.26953,"lon":5.38628,"is_reserved":false,"is_disabled":false,"rental_uris":{"android":"levelo://app?vid=45daab6e-bdfa-4378-bb67-2ff46e2c4c5d","ios":"levelo://app?vid=45daab6e-bdfa-4378-bb67-2ff46e2c4c5d"},"vehicle_type_id":"4","last_reported":1727334499,"current_range_meters":32400,"station_id":"ce4bhh92rcd13ifvqfh0","pricing_plan_id":"cebpf4jnsgd1na2vs0mg"},{"bike_id":"85fd46fc-10b6-47fb-95b0-6518aa718d69","system_id":"levelo_inurba_marseille","lat":43.33606,"lon":5.41033,"is_reserved":false,"is_disabled":false,"rental_uris":{"android":"levelo://app?vid=85fd46fc-10b6-47fb-95b0-6518aa718d69","ios":"levelo://app?vid=85fd46fc-10b6-47fb-95b0-6518aa718d69"},"vehicle_type_id":"4","last_reported":1727334499,"current_range_meters":25200,"station_id":"ce4bhqh2rcd13ifvqhmg","pricing_plan_id":"cebpf4jnsgd1na2vs0mg"},{"bike_id":"4c9ebba9-92e0-4ef4-9b48-37715295cf85","system_id":"levelo_inurba_marseille","lat":43.30907,"lon":5.36845,"is_reserved":false,"is_disabled":false,"rental_uris":{"android":"levelo://app?vid=4c9ebba9-92e0-4ef4-9b48-37715295cf85","ios":"levelo://app?vid=4c9ebba9-92e0-4ef4-9b48-37715295cf85"},"vehicle_type_id":"4","last_reported":1727334499,"current_range_meters":25200,"station_id":"ce4bgn92rcd13ifvqbvg","pricing_plan_id":"cebpf4jnsgd1na2vs0mg"},{"bike_id":"47ba0401-8be6-4c89-8eef-6bff009d65b5","system_id":"levelo_inurba_marseille","lat":43.32291,"lon":5.38262,"is_reserved":false,"is_disabled":false,"rental_uris":{"android":"levelo://app?vid=47ba0401-8be6-4c89-8eef-6bff009d65b5","ios":"levelo://app?vid=47ba0401-8be6-4c89-8eef-6bff009d65b5"},"vehicle_type_id":"4","last_reported":1727334499,"current_range_meters":11600,"station_id":"ce4bhr12rcd13ifvqhqg","pricing_plan_id":"cebpf4jnsgd1na2vs0mg"},{"bike_id":"e9c30c3c-02b9-4f52-9864-998f980f1bc0","system_id":"levelo_inurba_marseille","lat":43.29048,"lon":5.39944,"is_reserved":false,"is_disabled":false,"rental_uris":{"android":"levelo://app?vid=e9c30c3c-02b9-4f52-9864-998f980f1bc0","ios":"levelo://app?vid=e9c30c3c-02b9-4f52-9864-998f980f1bc0"},"vehicle_type_id":"4","last_reported":1727334499,"current_range_meters":15200,"station_id":"ce4bh392rcd13ifvqdm0","pricing_plan_id":"cebpf4jnsgd1na2vs0mg"},{"bike_id":"730a8251-d94a-4277-99a9-1c8f6d01216c","system_id":"levelo_inurba_marseille","lat":43.25932,"lon":5.40913,"is_reserved":false,"is_disabled":false,"rental_uris":{"android":"levelo://app?vid=730a8251-d94a-4277-99a9-1c8f6d01216c","ios":"levelo://app?vid=730a8251-d94a-4277-99a9-1c8f6d01216c"},"vehicle_type_id":"4","last_reported":1727334499,"current_range_meters":19200,"station_id":"ce4bhm92rcd13ifvqglg","pricing_plan_id":"cebpf4jnsgd1na2vs0mg"},{"bike_id":"5f6c79fc-4a32-4034-b731-a210b1c8c48d","system_id":"levelo_inurba_marseille","lat":43.30545,"lon":5.3668,"is_reserved":false,"is_disabled":false,"rental_uris":{"android":"levelo://app?vid=5f6c79fc-4a32-4034-b731-a210b1c8c48d","ios":"levelo://app?vid=5f6c79fc-4a32-4034-b731-a210b1c8c48d"},"vehicle_type_id":"4","last_reported":1727334499,"current_range_meters":9600,"station_id":"ce4bgrp2rcd13ifvqc9g","pricing_plan_id":"cebpf4jnsgd1na2vs0mg"},{"bike_id":"d09622a2-aaf2-4ad4-921f-fa78add55e28","system_id":"levelo_inurba_marseille","lat":43.29315,"lon":5.37434,"is_reserved":false,"is_disabled":false,"rental_uris":{"android":"levelo://app?vid=d09622a2-aaf2-4ad4-921f-fa78add55e28","ios":"levelo://app?vid=d09622a2-aaf2-4ad4-921f-fa78add55e28"},"vehicle_type_id":"4","last_reported":1727334499,"current_range_meters":14000,"station_id":"ce4bgi12rcd13ifvqb70","pricing_plan_id":"cebpf4jnsgd1na2vs0mg"},{"bike_id":"751bff45-76c1-4c5f-b949-27cb0e9aacd7","system_id":"levelo_inurba_marseille","lat":43.33787,"lon":5.37447,"is_reserved":false,"is_disabled":false,"rental_uris":{"android":"levelo://app?vid=751bff45-76c1-4c5f-b949-27cb0e9aacd7","ios":"levelo://app?vid=751bff45-76c1-4c5f-b949-27cb0e9aacd7"},"vehicle_type_id":"4","last_reported":1727334499,"current_range_meters":38800,"station_id":"","pricing_plan_id":"cebpf4jnsgd1na2vs0mg"},{"bike_id":"17fd6100-32c6-48e7-bad6-45cde3e31294","system_id":"levelo_inurba_marseille","lat":43.28442,"lon":5.39193,"is_reserved":false,"is_disabled":false,"rental_uris":{"android":"levelo://app?vid=17fd6100-32c6-48e7-bad6-45cde3e31294","ios":"levelo://app?vid=17fd6100-32c6-48e7-bad6-45cde3e31294"},"vehicle_type_id":"4","last_reported":1727334499,"current_range_meters":20000,"station_id":"ce4bhoh2rcd13ifvqh5g","pricing_plan_id":"cebpf4jnsgd1na2vs0mg"},{"bike_id":"be6597c7-36df-467d-8d7f-8202a760e6f4","system_id":"levelo_inurba_marseille","lat":43.31355,"lon":5.36718,"is_reserved":false,"is_disabled":false,"rental_uris":{"android":"levelo://app?vid=be6597c7-36df-467d-8d7f-8202a760e6f4","ios":"levelo://app?vid=be6597c7-36df-467d-8d7f-8202a760e6f4"},"vehicle_type_id":"4","last_reported":1727334499,"current_range_meters":11600,"station_id":"ce4bgr92rcd13ifvqc6g","pricing_plan_id":"cebpf4jnsgd1na2vs0mg"},{"bike_id":"d408b86b-fbc5-44ee-8a5d-721332897b32","system_id":"levelo_inurba_marseille","lat":43.30463,"lon":5.37898,"is_reserved":false,"is_disabled":false,"rental_uris":{"android":"levelo://app?vid=d408b86b-fbc5-44ee-8a5d-721332897b32","ios":"levelo://app?vid=d408b86b-fbc5-44ee-8a5d-721332897b32"},"vehicle_type_id":"4","last_reported":1727334499,"current_range_meters":4000,"station_id":"ce4bgup2rcd13ifvqcn0","pricing_plan_id":"cebpf4jnsgd1na2vs0mg"},{"bike_id":"2c18cbbd-2b5a-4884-95e0-7a86106b06cc","system_id":"levelo_inurba_marseille","lat":43.309,"lon":5.37197,"is_reserved":false,"is_disabled":false,"rental_uris":{"android":"levelo://app?vid=2c18cbbd-2b5a-4884-95e0-7a86106b06cc","ios":"levelo://app?vid=2c18cbbd-2b5a-4884-95e0-7a86106b06cc"},"vehicle_type_id":"4","last_reported":1727334499,"current_range_meters":39200,"station_id":"ce4bguh2rcd13ifvqckg","pricing_plan_id":"cebpf4jnsgd1na2vs0mg"},{"bike_id":"1a4252c3-05b9-4471-8eed-398eca369e49","system_id":"levelo_inurba_marseille","lat":43.24078,"lon":5.37754,"is_reserved":false,"is_disabled":false,"rental_uris":{"android":"levelo://app?vid=1a4252c3-05b9-4471-8eed-398eca369e49","ios":"levelo://app?vid=1a4252c3-05b9-4471-8eed-398eca369e49"},"vehicle_type_id":"4","last_reported":1727334499,"current_range_meters":19600,"station_id":"ce4bhnp2rcd13ifvqgvg","pricing_plan_id":"cebpf4jnsgd1na2vs0mg"},{"bike_id":"b89f3c75-62ef-439a-891a-3e5717a4b61a","system_id":"levelo_inurba_marseille","lat":43.27943,"lon":5.3794,"is_reserved":false,"is_disabled":false,"rental_uris":{"android":"levelo://app?vid=b89f3c75-62ef-439a-891a-3e5717a4b61a","ios":"levelo://app?vid=b89f3c75-62ef-439a-891a-3e5717a4b61a"},"vehicle_type_id":"4","last_reported":1727334499,"current_range_meters":24400,"station_id":"","pricing_plan_id":"cebpf4jnsgd1na2vs0mg"},{"bike_id":"5fd3d987-df50-4412-92e6-d3019028bc09","system_id":"levelo_inurba_marseille","lat":43.27313,"lon":5.39057,"is_reserved":false,"is_disabled":false,"rental_uris":{"android":"levelo://app?vid=5fd3d987-df50-4412-92e6-d3019028bc09","ios":"levelo://app?vid=5fd3d987-df50-4412-92e6-d3019028bc09"},"vehicle_type_id":"4","last_reported":1727334499,"current_range_meters":9200,"station_id":"ce4bhgp2rcd13ifvqfe0","pricing_plan_id":"cebpf4jnsgd1na2vs0mg"},{"bike_id":"f9cefe39-9e01-48d0-9432-d12f8a7da9df","system_id":"levelo_inurba_marseille","lat":43.30886,"lon":5.37193,"is_reserved":false,"is_disabled":false,"rental_uris":{"android":"levelo://app?vid=f9cefe39-9e01-48d0-9432-d12f8a7da9df","ios":"levelo://app?vid=f9cefe39-9e01-48d0-9432-d12f8a7da9df"},"vehicle_type_id":"4","last_reported":1727334499,"current_range_meters":38800,"station_id":"ce4bguh2rcd13ifvqckg","pricing_plan_id":"cebpf4jnsgd1na2vs0mg"},{"bike_id":"bf80c917-9e64-4fa7-bc7f-4ab666ec530f","system_id":"levelo_inurba_marseille","lat":43.297758,"lon":5.372253,"is_reserved":false,"is_disabled":false,"rental_uris":{"android":"levelo://app?vid=bf80c917-9e64-4fa7-bc7f-4ab666ec530f","ios":"levelo://app?vid=bf80c917-9e64-4fa7-bc7f-4ab666ec530f"},"vehicle_type_id":"4","last_reported":1727334499,"current_range_meters":23200,"station_id":"ce4bgop2rcd13ifvqc1g","pricing_plan_id":"cebpf4jnsgd1na2vs0mg"},{"bike_id":"888a00c5-28e4-4c6b-b265-dbfe78399d03","system_id":"levelo_inurba_marseille","lat":43.27901,"lon":5.38019,"is_reserved":false,"is_disabled":false,"rental_uris":{"android":"levelo://app?vid=888a00c5-28e4-4c6b-b265-dbfe78399d03","ios":"levelo://app?vid=888a00c5-28e4-4c6b-b265-dbfe78399d03"},"vehicle_type_id":"4","last_reported":1727334499,"current_range_meters":8400,"station_id":"ce4bhf92rcd13ifvqf50","pricing_plan_id":"cebpf4jnsgd1na2vs0mg"},{"bike_id":"15091c48-fa1f-42b0-a263-2568d4978cd4","system_id":"levelo_inurba_marseille","lat":43.24074,"lon":5.37764,"is_reserved":false,"is_disabled":false,"rental_uris":{"android":"levelo://app?vid=15091c48-fa1f-42b0-a263-2568d4978cd4","ios":"levelo://app?vid=15091c48-fa1f-42b0-a263-2568d4978cd4"},"vehicle_type_id":"4","last_reported":1727334499,"current_range_meters":14400,"station_id":"ce4bhnp2rcd13ifvqgvg","pricing_plan_id":"cebpf4jnsgd1na2vs0mg"},{"bike_id":"e7538fd8-10d9-40e4-aff9-8eb2f36b73c6","system_id":"levelo_inurba_marseille","lat":43.32479,"lon":5.36557,"is_reserved":false,"is_disabled":false,"rental_uris":{"android":"levelo://app?vid=e7538fd8-10d9-40e4-aff9-8eb2f36b73c6","ios":"levelo://app?vid=e7538fd8-10d9-40e4-aff9-8eb2f36b73c6"},"vehicle_type_id":"4","last_reported":1727334499,"current_range_meters":29600,"station_id":"ce4bhs12rcd13ifvqhvg","pricing_plan_id":"cebpf4jnsgd1na2vs0mg"},{"bike_id":"c2e5a81e-6912-4cb0-98ad-5f3df477fa43","system_id":"levelo_inurba_marseille","lat":43.28995,"lon":5.375887,"is_reserved":false,"is_disabled":false,"rental_uris":{"android":"levelo://app?vid=c2e5a81e-6912-4cb0-98ad-5f3df477fa43","ios":"levelo://app?vid=c2e5a81e-6912-4cb0-98ad-5f3df477fa43"},"vehicle_type_id":"4","last_reported":1727334499,"current_range_meters":38000,"station_id":"ce4bh692rcd13ifvqe90","pricing_plan_id":"cebpf4jnsgd1na2vs0mg"},{"bike_id":"06fb3533-6683-4b59-80ee-35513a7c5b46","system_id":"levelo_inurba_marseille","lat":43.240871,"lon":5.377568,"is_reserved":false,"is_disabled":false,"rental_uris":{"android":"levelo://app?vid=06fb3533-6683-4b59-80ee-35513a7c5b46","ios":"levelo://app?vid=06fb3533-6683-4b59-80ee-35513a7c5b46"},"vehicle_type_id":"4","last_reported":1727334499,"current_range_meters":29600,"station_id":"ce4bhnp2rcd13ifvqgvg","pricing_plan_id":"cebpf4jnsgd1na2vs0mg"},{"bike_id":"8460a7e8-1a9d-4ecf-8e31-4e5a3fd8d5e0","system_id":"levelo_inurba_marseille","lat":43.29934,"lon":5.36559,"is_reserved":false,"is_disabled":false,"rental_uris":{"android":"levelo://app?vid=8460a7e8-1a9d-4ecf-8e31-4e5a3fd8d5e0","ios":"levelo://app?vid=8460a7e8-1a9d-4ecf-8e31-4e5a3fd8d5e0"},"vehicle_type_id":"4","last_reported":1727334499,"current_range_meters":14400,"station_id":"ce4bgm92rcd13ifvqbr0","pricing_plan_id":"cebpf4jnsgd1na2vs0mg"},{"bike_id":"6c6d2726-4971-47f1-bc33-ffdb13891bd6","system_id":"levelo_inurba_marseille","lat":43.29276,"lon":5.36844,"is_reserved":false,"is_disabled":false,"rental_uris":{"android":"levelo://app?vid=6c6d2726-4971-47f1-bc33-ffdb13891bd6","ios":"levelo://app?vid=6c6d2726-4971-47f1-bc33-ffdb13891bd6"},"vehicle_type_id":"4","last_reported":1727334499,"current_range_meters":26800,"station_id":"ce4bhbp2rcd13ifvqesg","pricing_plan_id":"cebpf4jnsgd1na2vs0mg"},{"bike_id":"6110015c-7eb2-4d9e-b4f7-1a7372745b5f","system_id":"levelo_inurba_marseille","lat":43.26681,"lon":5.38269,"is_reserved":false,"is_disabled":false,"rental_uris":{"android":"levelo://app?vid=6110015c-7eb2-4d9e-b4f7-1a7372745b5f","ios":"levelo://app?vid=6110015c-7eb2-4d9e-b4f7-1a7372745b5f"},"vehicle_type_id":"4","last_reported":1727334499,"current_range_meters":32000,"station_id":"ce4bhg92rcd13ifvqf90","pricing_plan_id":"cebpf4jnsgd1na2vs0mg"},{"bike_id":"ba28c655-7b18-4e97-988d-7b8744ba7e35","system_id":"levelo_inurba_marseille","lat":43.30548,"lon":5.36562,"is_reserved":false,"is_disabled":false,"rental_uris":{"android":"levelo://app?vid=ba28c655-7b18-4e97-988d-7b8744ba7e35","ios":"levelo://app?vid=ba28c655-7b18-4e97-988d-7b8744ba7e35"},"vehicle_type_id":"4","last_reported":1727334499,"current_range_meters":24400,"station_id":"ce4bgs12rcd13ifvqcag","pricing_plan_id":"cebpf4jnsgd1na2vs0mg"},{"bike_id":"e7aeb33b-2d1a-4f23-86c4-d95ed913d334","system_id":"levelo_inurba_marseille","lat":43.25934,"lon":5.40907,"is_reserved":false,"is_disabled":false,"rental_uris":{"android":"levelo://app?vid=e7aeb33b-2d1a-4f23-86c4-d95ed913d334","ios":"levelo://app?vid=e7aeb33b-2d1a-4f23-86c4-d95ed913d334"},"vehicle_type_id":"4","last_reported":1727334499,"current_range_meters":12000,"station_id":"ce4bhm92rcd13ifvqglg","pricing_plan_id":"cebpf4jnsgd1na2vs0mg"},{"bike_id":"02b1f4be-5600-47f6-9d66-89f232b8b451","system_id":"levelo_inurba_marseille","lat":43.28715,"lon":5.37943,"is_reserved":false,"is_disabled":false,"rental_uris":{"android":"levelo://app?vid=02b1f4be-5600-47f6-9d66-89f232b8b451","ios":"levelo://app?vid=02b1f4be-5600-47f6-9d66-89f232b8b451"},"vehicle_type_id":"4","last_reported":1727334499,"current_range_meters":38800,"station_id":"ce4bh9p2rcd13ifvqec0","pricing_plan_id":"cebpf4jnsgd1na2vs0mg"},{"bike_id":"cfade8c3-0038-45c3-af3a-cbaa61b28825","system_id":"levelo_inurba_marseille","lat":43.24079,"lon":5.37757,"is_reserved":false,"is_disabled":false,"rental_uris":{"android":"levelo://app?vid=cfade8c3-0038-45c3-af3a-cbaa61b28825","ios":"levelo://app?vid=cfade8c3-0038-45c3-af3a-cbaa61b28825"},"vehicle_type_id":"4","last_reported":1727334499,"current_range_meters":28000,"station_id":"ce4bhnp2rcd13ifvqgvg","pricing_plan_id":"cebpf4jnsgd1na2vs0mg"},{"bike_id":"164c5150-fd82-49d7-aff9-b769aa561f0f","system_id":"levelo_inurba_marseille","lat":43.31998,"lon":5.38142,"is_reserved":false,"is_disabled":false,"rental_uris":{"android":"levelo://app?vid=164c5150-fd82-49d7-aff9-b769aa561f0f","ios":"levelo://app?vid=164c5150-fd82-49d7-aff9-b769aa561f0f"},"vehicle_type_id":"4","last_reported":1727334499,"current_range_meters":27600,"station_id":"ce4bhr12rcd13ifvqhpg","pricing_plan_id":"cebpf4jnsgd1na2vs0mg"},{"bike_id":"64577474-503b-47b8-ba02-db6057494fc8","system_id":"levelo_inurba_marseille","lat":43.25941,"lon":5.40906,"is_reserved":false,"is_disabled":false,"rental_uris":{"android":"levelo://app?vid=64577474-503b-47b8-ba02-db6057494fc8","ios":"levelo://app?vid=64577474-503b-47b8-ba02-db6057494fc8"},"vehicle_type_id":"4","last_reported":1727334499,"current_range_meters":35600,"station_id":"ce4bhm92rcd13ifvqglg","pricing_plan_id":"cebpf4jnsgd1na2vs0mg"},{"bike_id":"2838c3b1-75b7-40b1-8f0c-0d005fb9dee7","system_id":"levelo_inurba_marseille","lat":43.3255,"lon":5.41433,"is_reserved":false,"is_disabled":false,"rental_uris":{"android":"levelo://app?vid=2838c3b1-75b7-40b1-8f0c-0d005fb9dee7","ios":"levelo://app?vid=2838c3b1-75b7-40b1-8f0c-0d005fb9dee7"},"vehicle_type_id":"4","last_reported":1727334499,"current_range_meters":16000,"station_id":"ce4bhq12rcd13ifvqhhg","pricing_plan_id":"cebpf4jnsgd1na2vs0mg"},{"bike_id":"666cfbb3-1b46-4df5-a347-94d4c62ca70f","system_id":"levelo_inurba_marseille","lat":43.24074,"lon":5.37754,"is_reserved":false,"is_disabled":false,"rental_uris":{"android":"levelo://app?vid=666cfbb3-1b46-4df5-a347-94d4c62ca70f","ios":"levelo://app?vid=666cfbb3-1b46-4df5-a347-94d4c62ca70f"},"vehicle_type_id":"4","last_reported":1727334499,"current_range_meters":7200,"station_id":"ce4bhnp2rcd13ifvqgvg","pricing_plan_id":"cebpf4jnsgd1na2vs0mg"},{"bike_id":"8daa29e7-59b8-4d33-b3a3-84845f7aff9b","system_id":"levelo_inurba_marseille","lat":43.26199,"lon":5.37934,"is_reserved":false,"is_disabled":false,"rental_uris":{"android":"levelo://app?vid=8daa29e7-59b8-4d33-b3a3-84845f7aff9b","ios":"levelo://app?vid=8daa29e7-59b8-4d33-b3a3-84845f7aff9b"},"vehicle_type_id":"4","last_reported":1727334499,"current_range_meters":32800,"station_id":"ce4bhjp2rcd13ifvqg90","pricing_plan_id":"cebpf4jnsgd1na2vs0mg"},{"bike_id":"c6ebdc49-4729-4e81-a2ad-ad9c2b48e60f","system_id":"levelo_inurba_marseille","lat":43.30473,"lon":5.37901,"is_reserved":false,"is_disabled":false,"rental_uris":{"android":"levelo://app?vid=c6ebdc49-4729-4e81-a2ad-ad9c2b48e60f","ios":"levelo://app?vid=c6ebdc49-4729-4e81-a2ad-ad9c2b48e60f"},"vehicle_type_id":"4","last_reported":1727334499,"current_range_meters":32800,"station_id":"ce4bgup2rcd13ifvqcn0","pricing_plan_id":"cebpf4jnsgd1na2vs0mg"},{"bike_id":"96d87797-6140-499f-ac3d-eadd7dfd9fec","system_id":"levelo_inurba_marseille","lat":43.32257,"lon":5.41258,"is_reserved":false,"is_disabled":false,"rental_uris":{"android":"levelo://app?vid=96d87797-6140-499f-ac3d-eadd7dfd9fec","ios":"levelo://app?vid=96d87797-6140-499f-ac3d-eadd7dfd9fec"},"vehicle_type_id":"4","last_reported":1727334499,"current_range_meters":23200,"station_id":"ce4bhqh2rcd13ifvqhmg","pricing_plan_id":"cebpf4jnsgd1na2vs0mg"},{"bike_id":"47984ad2-c175-435c-88b3-31757c572c31","system_id":"levelo_inurba_marseille","lat":43.2408,"lon":5.37752,"is_reserved":false,"is_disabled":false,"rental_uris":{"android":"levelo://app?vid=47984ad2-c175-435c-88b3-31757c572c31","ios":"levelo://app?vid=47984ad2-c175-435c-88b3-31757c572c31"},"vehicle_type_id":"4","last_reported":1727334499,"current_range_meters":28400,"station_id":"ce4bhnp2rcd13ifvqgvg","pricing_plan_id":"cebpf4jnsgd1na2vs0mg"},{"bike_id":"6b2d6110-047a-4374-b820-0abaa9613131","system_id":"levelo_inurba_marseille","lat":43.32476,"lon":5.36572,"is_reserved":false,"is_disabled":false,"rental_uris":{"android":"levelo://app?vid=6b2d6110-047a-4374-b820-0abaa9613131","ios":"levelo://app?vid=6b2d6110-047a-4374-b820-0abaa9613131"},"vehicle_type_id":"4","last_reported":1727334499,"current_range_meters":37600,"station_id":"ce4bhs12rcd13ifvqhvg","pricing_plan_id":"cebpf4jnsgd1na2vs0mg"},{"bike_id":"b90aebb6-9350-4611-bb73-5ffa7602d9ca","system_id":"levelo_inurba_marseille","lat":43.26683,"lon":5.38275,"is_reserved":false,"is_disabled":false,"rental_uris":{"android":"levelo://app?vid=b90aebb6-9350-4611-bb73-5ffa7602d9ca","ios":"levelo://app?vid=b90aebb6-9350-4611-bb73-5ffa7602d9ca"},"vehicle_type_id":"4","last_reported":1727334499,"current_range_meters":25600,"station_id":"ce4bhg92rcd13ifvqf90","pricing_plan_id":"cebpf4jnsgd1na2vs0mg"},{"bike_id":"a7bca3df-0344-4204-86d7-b742d4769839","system_id":"levelo_inurba_marseille","lat":43.30863,"lon":5.3685,"is_reserved":false,"is_disabled":false,"rental_uris":{"android":"levelo://app?vid=a7bca3df-0344-4204-86d7-b742d4769839","ios":"levelo://app?vid=a7bca3df-0344-4204-86d7-b742d4769839"},"vehicle_type_id":"4","last_reported":1727334499,"current_range_meters":24400,"station_id":"ce4bgn92rcd13ifvqbvg","pricing_plan_id":"cebpf4jnsgd1na2vs0mg"},{"bike_id":"f653a44a-9e6f-4f4b-b1ab-2289c42b4590","system_id":"levelo_inurba_marseille","lat":43.28354,"lon":5.3811,"is_reserved":false,"is_disabled":false,"rental_uris":{"android":"levelo://app?vid=f653a44a-9e6f-4f4b-b1ab-2289c42b4590","ios":"levelo://app?vid=f653a44a-9e6f-4f4b-b1ab-2289c42b4590"},"vehicle_type_id":"4","last_reported":1727334499,"current_range_meters":38400,"station_id":"ce4bh412rcd13ifvqdr0","pricing_plan_id":"cebpf4jnsgd1na2vs0mg"},{"bike_id":"5c5d6480-15ef-41d1-819d-f6b78d27575d","system_id":"levelo_inurba_marseille","lat":43.297974,"lon":5.363328,"is_reserved":false,"is_disabled":false,"rental_uris":{"android":"levelo://app?vid=5c5d6480-15ef-41d1-819d-f6b78d27575d","ios":"levelo://app?vid=5c5d6480-15ef-41d1-819d-f6b78d27575d"},"vehicle_type_id":"4","last_reported":1727334499,"current_range_meters":24000,"station_id":"ce4bgpp2rcd13ifvqc3g","pricing_plan_id":"cebpf4jnsgd1na2vs0mg"},{"bike_id":"a42a4355-f441-42ee-ba49-846b018efed6","system_id":"levelo_inurba_marseille","lat":43.30475,"lon":5.37904,"is_reserved":false,"is_disabled":false,"rental_uris":{"android":"levelo://app?vid=a42a4355-f441-42ee-ba49-846b018efed6","ios":"levelo://app?vid=a42a4355-f441-42ee-ba49-846b018efed6"},"vehicle_type_id":"4","last_reported":1727334499,"current_range_meters":16400,"station_id":"ce4bgup2rcd13ifvqcn0","pricing_plan_id":"cebpf4jnsgd1na2vs0mg"},{"bike_id":"3b95d26e-f06e-49bf-b839-e0adcd439c46","system_id":"levelo_inurba_marseille","lat":43.23189,"lon":5.39991,"is_reserved":false,"is_disabled":false,"rental_uris":{"android":"levelo://app?vid=3b95d26e-f06e-49bf-b839-e0adcd439c46","ios":"levelo://app?vid=3b95d26e-f06e-49bf-b839-e0adcd439c46"},"vehicle_type_id":"4","last_reported":1727334499,"current_range_meters":38400,"station_id":"ce4bhn12rcd13ifvqgqg","pricing_plan_id":"cebpf4jnsgd1na2vs0mg"},{"bike_id":"66a18b8f-cc41-4366-812b-bb7ff2c21893","system_id":"levelo_inurba_marseille","lat":43.29558,"lon":5.42282,"is_reserved":false,"is_disabled":false,"rental_uris":{"android":"levelo://app?vid=66a18b8f-cc41-4366-812b-bb7ff2c21893","ios":"levelo://app?vid=66a18b8f-cc41-4366-812b-bb7ff2c21893"},"vehicle_type_id":"4","last_reported":1727334499,"current_range_meters":20800,"station_id":"ce4bhph2rcd13ifvqhdg","pricing_plan_id":"cebpf4jnsgd1na2vs0mg"},{"bike_id":"7eb9ce67-a47c-4f95-9e57-af5e0f346d25","system_id":"levelo_inurba_marseille","lat":43.31345,"lon":5.3671,"is_reserved":false,"is_disabled":false,"rental_uris":{"android":"levelo://app?vid=7eb9ce67-a47c-4f95-9e57-af5e0f346d25","ios":"levelo://app?vid=7eb9ce67-a47c-4f95-9e57-af5e0f346d25"},"vehicle_type_id":"4","last_reported":1727334499,"current_range_meters":38800,"station_id":"ce4bgr92rcd13ifvqc6g","pricing_plan_id":"cebpf4jnsgd1na2vs0mg"},{"bike_id":"80d1d5df-61ca-4f88-bada-c65e746a68df","system_id":"levelo_inurba_marseille","lat":43.29846,"lon":5.36273,"is_reserved":false,"is_disabled":false,"rental_uris":{"android":"levelo://app?vid=80d1d5df-61ca-4f88-bada-c65e746a68df","ios":"levelo://app?vid=80d1d5df-61ca-4f88-bada-c65e746a68df"},"vehicle_type_id":"4","last_reported":1727334499,"current_range_meters":32400,"station_id":"ce4bgpp2rcd13ifvqc3g","pricing_plan_id":"cebpf4jnsgd1na2vs0mg"},{"bike_id":"7827170f-fe53-4f76-acc5-1f9d10e67145","system_id":"levelo_inurba_marseille","lat":43.22928,"lon":5.35377,"is_reserved":false,"is_disabled":false,"rental_uris":{"android":"levelo://app?vid=7827170f-fe53-4f76-acc5-1f9d10e67145","ios":"levelo://app?vid=7827170f-fe53-4f76-acc5-1f9d10e67145"},"vehicle_type_id":"4","last_reported":1727334499,"current_range_meters":35200,"station_id":"cpo3532slgdg3j2ikp40","pricing_plan_id":"cebpf4jnsgd1na2vs0mg"},{"bike_id":"ebae3c15-7e7e-4b53-bbfe-281af6e0853b","system_id":"levelo_inurba_marseille","lat":43.27498,"lon":5.42448,"is_reserved":false,"is_disabled":false,"rental_uris":{"android":"levelo://app?vid=ebae3c15-7e7e-4b53-bbfe-281af6e0853b","ios":"levelo://app?vid=ebae3c15-7e7e-4b53-bbfe-281af6e0853b"},"vehicle_type_id":"4","last_reported":1727334499,"current_range_meters":37600,"station_id":"ce4bhn92rcd13ifvqgrg","pricing_plan_id":"cebpf4jnsgd1na2vs0mg"},{"bike_id":"038f80b5-65f0-47ef-9d43-617ee9f0ac37","system_id":"levelo_inurba_marseille","lat":43.30533,"lon":5.36543,"is_reserved":false,"is_disabled":false,"rental_uris":{"android":"levelo://app?vid=038f80b5-65f0-47ef-9d43-617ee9f0ac37","ios":"levelo://app?vid=038f80b5-65f0-47ef-9d43-617ee9f0ac37"},"vehicle_type_id":"4","last_reported":1727334499,"current_range_meters":39200,"station_id":"ce4bgs12rcd13ifvqcag","pricing_plan_id":"cebpf4jnsgd1na2vs0mg"},{"bike_id":"bb4f739b-7da8-4be2-b06d-d6b5a0b3283b","system_id":"levelo_inurba_marseille","lat":43.23154,"lon":5.43711,"is_reserved":false,"is_disabled":false,"rental_uris":{"android":"levelo://app?vid=bb4f739b-7da8-4be2-b06d-d6b5a0b3283b","ios":"levelo://app?vid=bb4f739b-7da8-4be2-b06d-d6b5a0b3283b"},"vehicle_type_id":"4","last_reported":1727334499,"current_range_meters":24800,"station_id":"ce4bhmp2rcd13ifvqgog","pricing_plan_id":"cebpf4jnsgd1na2vs0mg"},{"bike_id":"4a4bfd88-bdfc-4802-b3a8-e798e4274727","system_id":"levelo_inurba_marseille","lat":43.32294,"lon":5.38253,"is_reserved":false,"is_disabled":false,"rental_uris":{"android":"levelo://app?vid=4a4bfd88-bdfc-4802-b3a8-e798e4274727","ios":"levelo://app?vid=4a4bfd88-bdfc-4802-b3a8-e798e4274727"},"vehicle_type_id":"4","last_reported":1727334499,"current_range_meters":25200,"station_id":"ce4bhr12rcd13ifvqhqg","pricing_plan_id":"cebpf4jnsgd1na2vs0mg"},{"bike_id":"d66a4195-867e-4bfb-ba88-b3cd6797fa0f","system_id":"levelo_inurba_marseille","lat":43.27498,"lon":5.4245,"is_reserved":false,"is_disabled":false,"rental_uris":{"android":"levelo://app?vid=d66a4195-867e-4bfb-ba88-b3cd6797fa0f","ios":"levelo://app?vid=d66a4195-867e-4bfb-ba88-b3cd6797fa0f"},"vehicle_type_id":"4","last_reported":1727334499,"current_range_meters":30800,"station_id":"ce4bhn92rcd13ifvqgrg","pricing_plan_id":"cebpf4jnsgd1na2vs0mg"},{"bike_id":"81c79a5f-f1a7-4420-97f8-092caaa8c88e","system_id":"levelo_inurba_marseille","lat":43.30559,"lon":5.367,"is_reserved":false,"is_disabled":false,"rental_uris":{"android":"levelo://app?vid=81c79a5f-f1a7-4420-97f8-092caaa8c88e","ios":"levelo://app?vid=81c79a5f-f1a7-4420-97f8-092caaa8c88e"},"vehicle_type_id":"4","last_reported":1727334499,"current_range_meters":17600,"station_id":"ce4bgrp2rcd13ifvqc9g","pricing_plan_id":"cebpf4jnsgd1na2vs0mg"},{"bike_id":"de8ff9a9-709a-4424-83ed-039925aabde2","system_id":"levelo_inurba_marseille","lat":43.2407,"lon":5.37765,"is_reserved":false,"is_disabled":false,"rental_uris":{"android":"levelo://app?vid=de8ff9a9-709a-4424-83ed-039925aabde2","ios":"levelo://app?vid=de8ff9a9-709a-4424-83ed-039925aabde2"},"vehicle_type_id":"4","last_reported":1727334499,"current_range_meters":10000,"station_id":"ce4bhnp2rcd13ifvqgvg","pricing_plan_id":"cebpf4jnsgd1na2vs0mg"},{"bike_id":"4660de8f-6b1d-4ec7-86e9-b37d4a58ce76","system_id":"levelo_inurba_marseille","lat":43.3229,"lon":5.3826,"is_reserved":false,"is_disabled":false,"rental_uris":{"android":"levelo://app?vid=4660de8f-6b1d-4ec7-86e9-b37d4a58ce76","ios":"levelo://app?vid=4660de8f-6b1d-4ec7-86e9-b37d4a58ce76"},"vehicle_type_id":"4","last_reported":1727334499,"current_range_meters":34000,"station_id":"ce4bhr12rcd13ifvqhqg","pricing_plan_id":"cebpf4jnsgd1na2vs0mg"},{"bike_id":"51f09462-21ab-4804-b4b7-b21839f6f402","system_id":"levelo_inurba_marseille","lat":43.30323,"lon":5.40433,"is_reserved":false,"is_disabled":false,"rental_uris":{"android":"levelo://app?vid=51f09462-21ab-4804-b4b7-b21839f6f402","ios":"levelo://app?vid=51f09462-21ab-4804-b4b7-b21839f6f402"},"vehicle_type_id":"4","last_reported":1727334499,"current_range_meters":26800,"station_id":"ce4bh012rcd13ifvqd10","pricing_plan_id":"cebpf4jnsgd1na2vs0mg"},{"bike_id":"36cb9d96-0fef-4eec-9e55-edc35ebb8906","system_id":"levelo_inurba_marseille","lat":43.28492,"lon":5.38584,"is_reserved":false,"is_disabled":false,"rental_uris":{"android":"levelo://app?vid=36cb9d96-0fef-4eec-9e55-edc35ebb8906","ios":"levelo://app?vid=36cb9d96-0fef-4eec-9e55-edc35ebb8906"},"vehicle_type_id":"4","last_reported":1727334499,"current_range_meters":23200,"station_id":"ce4bh8p2rcd13ifvqeb0","pricing_plan_id":"cebpf4jnsgd1na2vs0mg"},{"bike_id":"078bf408-951d-4a2c-8ea7-054f083515f3","system_id":"levelo_inurba_marseille","lat":43.30477,"lon":5.37891,"is_reserved":false,"is_disabled":false,"rental_uris":{"android":"levelo://app?vid=078bf408-951d-4a2c-8ea7-054f083515f3","ios":"levelo://app?vid=078bf408-951d-4a2c-8ea7-054f083515f3"},"vehicle_type_id":"4","last_reported":1727334499,"current_range_meters":25200,"station_id":"ce4bgup2rcd13ifvqcn0","pricing_plan_id":"cebpf4jnsgd1na2vs0mg"},{"bike_id":"98e41583-259b-49a5-9279-aa1bac1ed566","system_id":"levelo_inurba_marseille","lat":43.30544,"lon":5.36558,"is_reserved":false,"is_disabled":false,"rental_uris":{"android":"levelo://app?vid=98e41583-259b-49a5-9279-aa1bac1ed566","ios":"levelo://app?vid=98e41583-259b-49a5-9279-aa1bac1ed566"},"vehicle_type_id":"4","last_reported":1727334499,"current_range_meters":36800,"station_id":"ce4bgs12rcd13ifvqcag","pricing_plan_id":"cebpf4jnsgd1na2vs0mg"},{"bike_id":"8b1c6698-cd99-42a4-8f7c-970d46686118","system_id":"levelo_inurba_marseille","lat":43.2668,"lon":5.38266,"is_reserved":false,"is_disabled":false,"rental_uris":{"android":"levelo://app?vid=8b1c6698-cd99-42a4-8f7c-970d46686118","ios":"levelo://app?vid=8b1c6698-cd99-42a4-8f7c-970d46686118"},"vehicle_type_id":"4","last_reported":1727334499,"current_range_meters":36400,"station_id":"ce4bhg92rcd13ifvqf90","pricing_plan_id":"cebpf4jnsgd1na2vs0mg"},{"bike_id":"19708902-570b-41d0-bede-9a89add31afc","system_id":"levelo_inurba_marseille","lat":43.32339,"lon":5.40614,"is_reserved":false,"is_disabled":false,"rental_uris":{"android":"levelo://app?vid=19708902-570b-41d0-bede-9a89add31afc","ios":"levelo://app?vid=19708902-570b-41d0-bede-9a89add31afc"},"vehicle_type_id":"4","last_reported":1727334499,"current_range_meters":37600,"station_id":"ce4bhq92rcd13ifvqhjg","pricing_plan_id":"cebpf4jnsgd1na2vs0mg"},{"bike_id":"eda8bcde-5e1d-4538-802b-7a2e14d9f52d","system_id":"levelo_inurba_marseille","lat":43.22926,"lon":5.3537,"is_reserved":false,"is_disabled":false,"rental_uris":{"android":"levelo://app?vid=eda8bcde-5e1d-4538-802b-7a2e14d9f52d","ios":"levelo://app?vid=eda8bcde-5e1d-4538-802b-7a2e14d9f52d"},"vehicle_type_id":"4","last_reported":1727334499,"current_range_meters":23200,"station_id":"cpo3532slgdg3j2ikp40","pricing_plan_id":"cebpf4jnsgd1na2vs0mg"},{"bike_id":"51f4d75c-79c5-47e9-8fcd-05825786ca23","system_id":"levelo_inurba_marseille","lat":43.23184,"lon":5.3998,"is_reserved":false,"is_disabled":false,"rental_uris":{"android":"levelo://app?vid=51f4d75c-79c5-47e9-8fcd-05825786ca23","ios":"levelo://app?vid=51f4d75c-79c5-47e9-8fcd-05825786ca23"},"vehicle_type_id":"4","last_reported":1727334499,"current_range_meters":39200,"station_id":"ce4bhn12rcd13ifvqgqg","pricing_plan_id":"cebpf4jnsgd1na2vs0mg"},{"bike_id":"1e6b0c16-c6ca-44c3-8633-a751ebbb6842","system_id":"levelo_inurba_marseille","lat":43.28616,"lon":5.37062,"is_reserved":false,"is_disabled":false,"rental_uris":{"android":"levelo://app?vid=1e6b0c16-c6ca-44c3-8633-a751ebbb6842","ios":"levelo://app?vid=1e6b0c16-c6ca-44c3-8633-a751ebbb6842"},"vehicle_type_id":"4","last_reported":1727334499,"current_range_meters":32400,"station_id":"ce4bht12rcd13ifvqi60","pricing_plan_id":"cebpf4jnsgd1na2vs0mg"},{"bike_id":"63cafc39-9620-4a95-a481-6a2db0fb6d14","system_id":"levelo_inurba_marseille","lat":43.29583,"lon":5.37513,"is_reserved":false,"is_disabled":false,"rental_uris":{"android":"levelo://app?vid=63cafc39-9620-4a95-a481-6a2db0fb6d14","ios":"levelo://app?vid=63cafc39-9620-4a95-a481-6a2db0fb6d14"},"vehicle_type_id":"4","last_reported":1727334499,"current_range_meters":37600,"station_id":"ce4bgh92rcd13ifvqb50","pricing_plan_id":"cebpf4jnsgd1na2vs0mg"},{"bike_id":"7e06aaaa-a3eb-45f3-b488-d847eb00575d","system_id":"levelo_inurba_marseille","lat":43.30539,"lon":5.36539,"is_reserved":false,"is_disabled":false,"rental_uris":{"android":"levelo://app?vid=7e06aaaa-a3eb-45f3-b488-d847eb00575d","ios":"levelo://app?vid=7e06aaaa-a3eb-45f3-b488-d847eb00575d"},"vehicle_type_id":"4","last_reported":1727334499,"current_range_meters":39200,"station_id":"ce4bgs12rcd13ifvqcag","pricing_plan_id":"cebpf4jnsgd1na2vs0mg"},{"bike_id":"49944727-cba5-4e3c-9932-9a69821399bd","system_id":"levelo_inurba_marseille","lat":43.30149,"lon":5.37404,"is_reserved":false,"is_disabled":false,"rental_uris":{"android":"levelo://app?vid=49944727-cba5-4e3c-9932-9a69821399bd","ios":"levelo://app?vid=49944727-cba5-4e3c-9932-9a69821399bd"},"vehicle_type_id":"4","last_reported":1727334499,"current_range_meters":29600,"station_id":"ce4bgs92rcd13ifvqcc0","pricing_plan_id":"cebpf4jnsgd1na2vs0mg"},{"bike_id":"80b47960-913f-41dd-92b6-b416a7ba96d1","system_id":"levelo_inurba_marseille","lat":43.30907,"lon":5.36859,"is_reserved":false,"is_disabled":false,"rental_uris":{"android":"levelo://app?vid=80b47960-913f-41dd-92b6-b416a7ba96d1","ios":"levelo://app?vid=80b47960-913f-41dd-92b6-b416a7ba96d1"},"vehicle_type_id":"4","last_reported":1727334499,"current_range_meters":35600,"station_id":"ce4bgn92rcd13ifvqbvg","pricing_plan_id":"cebpf4jnsgd1na2vs0mg"},{"bike_id":"d4d49c5e-62de-4d4d-8cb9-3735f408ea1d","system_id":"levelo_inurba_marseille","lat":43.30293,"lon":5.36904,"is_reserved":false,"is_disabled":false,"rental_uris":{"android":"levelo://app?vid=d4d49c5e-62de-4d4d-8cb9-3735f408ea1d","ios":"levelo://app?vid=d4d49c5e-62de-4d4d-8cb9-3735f408ea1d"},"vehicle_type_id":"4","last_reported":1727334499,"current_range_meters":25600,"station_id":"ce4bgqh2rcd13ifvqc5g","pricing_plan_id":"cebpf4jnsgd1na2vs0mg"},{"bike_id":"516dcf1b-5f94-432c-8e96-4e53ea62fac3","system_id":"levelo_inurba_marseille","lat":43.30912,"lon":5.36845,"is_reserved":false,"is_disabled":false,"rental_uris":{"android":"levelo://app?vid=516dcf1b-5f94-432c-8e96-4e53ea62fac3","ios":"levelo://app?vid=516dcf1b-5f94-432c-8e96-4e53ea62fac3"},"vehicle_type_id":"4","last_reported":1727334499,"current_range_meters":6000,"station_id":"ce4bgn92rcd13ifvqbvg","pricing_plan_id":"cebpf4jnsgd1na2vs0mg"},{"bike_id":"16d3bf1b-cf12-4501-adb9-064386d78a4b","system_id":"levelo_inurba_marseille","lat":43.2408,"lon":5.37755,"is_reserved":false,"is_disabled":false,"rental_uris":{"android":"levelo://app?vid=16d3bf1b-cf12-4501-adb9-064386d78a4b","ios":"levelo://app?vid=16d3bf1b-cf12-4501-adb9-064386d78a4b"},"vehicle_type_id":"4","last_reported":1727334499,"current_range_meters":7200,"station_id":"ce4bhnp2rcd13ifvqgvg","pricing_plan_id":"cebpf4jnsgd1na2vs0mg"},{"bike_id":"1cafb7e2-bb2d-4cdd-850c-a35197648656","system_id":"levelo_inurba_marseille","lat":43.32293,"lon":5.3827,"is_reserved":false,"is_disabled":false,"rental_uris":{"android":"levelo://app?vid=1cafb7e2-bb2d-4cdd-850c-a35197648656","ios":"levelo://app?vid=1cafb7e2-bb2d-4cdd-850c-a35197648656"},"vehicle_type_id":"4","last_reported":1727334499,"current_range_meters":38400,"station_id":"ce4bhr12rcd13ifvqhqg","pricing_plan_id":"cebpf4jnsgd1na2vs0mg"},