{"last_updated":1734541706,"ttl":60,"version":"2.2","data":{"bikes":[{"bike_id":"f748dfcd-5bb5-4d45-b2d0-0f917ee8a191","system_id":"levelo_inurba_marseille","lat":43.29874,"lon":5.36299,"is_reserved":false,"is_disabled":false,"rental_uris":{"android":"levelo://app?vid=f748dfcd-5bb5-4d45-b2d0-0f917ee8a191","ios":"levelo://app?vid=f748dfcd-5bb5-4d45-b2d0-0f917ee8a191"},"vehicle_type_id":"4","last_reported":1734541706,"current_range_meters":39200,"station_id":"ce4bgpp2rcd13ifvqc3g","pricing_plan_id":"cebpf4jnsgd1na2vs0mg"},{"bike_id":"fe83448c-7735-402f-b7fe-255f362315b9","system_id":"levelo_inurba_marseille","lat":43.32478,"lon":5.36568,"is_reserved":false,"is_disabled":false,"rental_uris":{"android":"levelo://app?vid=fe83448c-7735-402f-b7fe-255f362315b9","ios":"levelo://app?vid=fe83448c-7735-402f-b7fe-255f362315b9"},"vehicle_type_id":"4","last_reported":1734541706,"current_range_meters":16000,"station_id":"ce4bhs12rcd13ifvqhvg","pricing_plan_id":"cebpf4jnsgd1na2vs0mg"},{"bike_id":"138dc06d-e129-4f74-9b31-d9492da7f837","system_id":"levelo_inurba_marseille","lat":43.24166,"lon":5.36387,"is_reserved":false,"is_disabled":false,"rental_uris":{"android":"levelo://app?vid=138dc06d-e129-4f74-9b31-d9492da7f837","ios":"levelo://app?vid=138dc06d-e129-4f74-9b31-d9492da7f837"},"vehicle_type_id":"4","last_reported":1734541706,"current_range_meters":38800,"station_id":"cpo36qri1sfpv3e86is0","pricing_plan_id":"cebpf4jnsgd1na2vs0mg"},{"bike_id":"a2d1ed87-6be6-4a19-be38-65d6668edee0","system_id":"levelo_inurba_marseille","lat":43.27618,"lon":5.36136,"is_reserved":false,"is_disabled":false,"rental_uris":{"android":"levelo://app?vid=a2d1ed87-6be6-4a19-be38-65d6668edee0","ios":"levelo://app?vid=a2d1ed87-6be6-4a19-be38-65d6668edee0"},"vehicle_type_id":"4","last_reported":1734541706,"current_range_meters":10000,"station_id":"ce4bgj92rcd13ifvqbe0","pricing_plan_id":"cebpf4jnsgd1na2vs0mg"},{"bike_id":"081d1d13-c4e6-4131-bcf6-859944235f20","system_id":"levelo_inurba_marseille","lat":43.25721,"lon":5.41106,"is_reserved":false,"is_disabled":false,"rental_uris":{"android":"levelo://app?vid=081d1d13-c4e6-4131-bcf6-859944235f20","ios":"levelo://app?vid=081d1d13-c4e6-4131-bcf6-859944235f20"},"vehicle_type_id":"4","last_reported":1734541706,"current_range_meters":4800,"station_id":"ce4bhkp2rcd13ifvqgd0","pricing_plan_id":"cebpf4jnsgd1na2vs0mg"},{"bike_id":"81d3e597-3bce-470f-a24f-c70eb8e49aa7","system_id":"levelo_inurba_marseille","lat":43.28254,"lon":5.35057,"is_reserved":false,"is_disabled":false,"rental_uris":{"android":"levelo://app?vid=81d3e597-3bce-470f-a24f-c70eb8e49aa7","ios":"levelo://app?vid=81d3e597-3bce-470f-a24f-c70eb8e49aa7"},"vehicle_type_id":"4","last_reported":1734541706,"current_range_meters":12400,"station_id":"ce4bhbp2rcd13ifvqerg","pricing_plan_id":"cebpf4jnsgd1na2vs0mg"},{"bike_id":"bca2340a-8004-4c0f-8043-686a667e19f3","system_id":"levelo_inurba_marseille","lat":43.26554,"lon":5.3728,"is_reserved":false,"is_disabled":false,"rental_uris":{"android":"levelo://app?vid=bca2340a-8004-4c0f-8043-686a667e19f3","ios":"levelo://app?vid=bca2340a-8004-4c0f-8043-686a667e19f3"},"vehicle_type_id":"4","last_reported":1734541706,"current_range_meters":30000,"station_id":"ce4bhg12rcd13ifvqf70","pricing_plan_id":"cebpf4jnsgd1na2vs0mg"},{"bike_id":"4d2b778a-07de-4b20-a929-eabd85476bc3","system_id":"levelo_inurba_marseille","lat":43.295708,"lon":5.375244,"is_reserved":false,"is_disabled":false,"rental_uris":{"android":"levelo://app?vid=4d2b778a-07de-4b20-a929-eabd85476bc3","ios":"levelo://app?vid=4d2b778a-07de-4b20-a929-eabd85476bc3"},"vehicle_type_id":"4","last_reported":1734541706,"current_range_meters":34000,"station_id":"ce4bgh92rcd13ifvqb50","pricing_plan_id":"cebpf4jnsgd1na2vs0mg"},{"bike_id":"c5e5048c-6130-4ae0-8106-06e0aa34e3ad","system_id":"levelo_inurba_marseille","lat":43.27997,"lon":5.41665,"is_reserved":false,"is_disabled":false,"rental_uris":{"android":"levelo://app?vid=c5e5048c-6130-4ae0-8106-06e0aa34e3ad","ios":"levelo://app?vid=c5e5048c-6130-4ae0-8106-06e0aa34e3ad"},"vehicle_type_id":"4","last_reported":1734541706,"current_range_meters":27200,"station_id":"ce4bho12rcd13ifvqh1g","pricing_plan_id":"cebpf4jnsgd1na2vs0mg"},{"bike_id":"a5bab296-af15-45a1-81e9-5b6f00bc7788","system_id":"levelo_inurba_marseille","lat":43.26956,"lon":5.40251,"is_reserved":false,"is_disabled":false,"rental_uris":{"android":"levelo://app?vid=a5bab296-af15-45a1-81e9-5b6f00bc7788","ios":"levelo://app?vid=a5bab296-af15-45a1-81e9-5b6f00bc7788"},"vehicle_type_id":"4","last_reported":1734541706,"current_range_meters":34000,"station_id":"cjm6bp8fraef2m0cb0m0","pricing_plan_id":"cebpf4jnsgd1na2vs0mg"},{"bike_id":"31f8bd31-65d8-4342-abf1-cd49aa53e8d7","system_id":"levelo_inurba_marseille","lat":43.2988,"lon":5.36308,"is_reserved":false,"is_disabled":false,"rental_uris":{"android":"levelo://app?vid=31f8bd31-65d8-4342-abf1-cd49aa53e8d7","ios":"levelo://app?vid=31f8bd31-65d8-4342-abf1-cd49aa53e8d7"},"vehicle_type_id":"4","last_reported":1734541706,"current_range_meters":32000,"station_id":"ce4bgpp2rcd13ifvqc3g","pricing_plan_id":"cebpf4jnsgd1na2vs0mg"},{"bike_id":"ec06458b-a20d-4b61-b651-bf5ae17c3bc3","system_id":"levelo_inurba_marseille","lat":43.27551,"lon":5.38424,"is_reserved":false,"is_disabled":false,"rental_uris":{"android":"levelo://app?vid=ec06458b-a20d-4b61-b651-bf5ae17c3bc3","ios":"levelo://app?vid=ec06458b-a20d-4b61-b651-bf5ae17c3bc3"},"vehicle_type_id":"4","last_reported":1734541706,"current_range_meters":38800,"station_id":"ce4bhh92rcd13ifvqfi0","pricing_plan_id":"cebpf4jnsgd1na2vs0mg"},{"bike_id":"4544d100-c4ff-463a-b5d7-1fbb0c886e1b","system_id":"levelo_inurba_marseille","lat":43.31326,"lon":5.39687,"is_reserved":false,"is_disabled":false,"rental_uris":{"android":"levelo://app?vid=4544d100-c4ff-463a-b5d7-1fbb0c886e1b","ios":"levelo://app?vid=4544d100-c4ff-463a-b5d7-1fbb0c886e1b"},"vehicle_type_id":"4","last_reported":1734541706,"current_range_meters":17200,"station_id":"ce4bgvp2rcd13ifvqcu0","pricing_plan_id":"cebpf4jnsgd1na2vs0mg"},{"bike_id":"9498eaaa-937b-4b55-9ad6-062218625b07","system_id":"levelo_inurba_marseille","lat":43.22941,"lon":5.35377,"is_reserved":false,"is_disabled":false,"rental_uris":{"android":"levelo://app?vid=9498eaaa-937b-4b55-9ad6-062218625b07","ios":"levelo://app?vid=9498eaaa-937b-4b55-9ad6-062218625b07"},"vehicle_type_id":"4","last_reported":1734541706,"current_range_meters":37600,"station_id":"cpo3532slgdg3j2ikp40","pricing_plan_id":"cebpf4jnsgd1na2vs0mg"},{"bike_id":"1f834613-72c8-4bef-a54d-6ea138016033","system_id":"levelo_inurba_marseille","lat":43.23193,"lon":5.35545,"is_reserved":false,"is_disabled":false,"rental_uris":{"android":"levelo://app?vid=1f834613-72c8-4bef-a54d-6ea138016033","ios":"levelo://app?vid=1f834613-72c8-4bef-a54d-6ea138016033"},"vehicle_type_id":"4","last_reported":1734541706,"current_range_meters":39200,"station_id":"ce4bhu92rcd13ifvqi70","pricing_plan_id":"cebpf4jnsgd1na2vs0mg"},{"bike_id":"3b1ac175-91d1-4b9c-85e2-6fe97104d7c4","system_id":"levelo_inurba_marseille","lat":43.31073,"lon":5.3834,"is_reserved":false,"is_disabled":true,"rental_uris":{"android":"levelo://app?vid=3b1ac175-91d1-4b9c-85e2-6fe97104d7c4","ios":"levelo://app?vid=3b1ac175-91d1-4b9c-85e2-6fe97104d7c4"},"vehicle_type_id":"4","last_reported":1734541706,"current_range_meters":0,"station_id":"ce4bgv92rcd13ifvqcr0","pricing_plan_id":"cebpf4jnsgd1na2vs0mg"},{"bike_id":"c97b1a47-e8db-422e-8145-d5ec06389d94","system_id":"levelo_inurba_marseille","lat":43.2963,"lon":5.40599,"is_reserved":false,"is_disabled":false,"rental_uris":{"android":"levelo://app?vid=c97b1a47-e8db-422e-8145-d5ec06389d94","ios":"levelo://app?vid=c97b1a47-e8db-422e-8145-d5ec06389d94"},"vehicle_type_id":"4","last_reported":1734541706,"current_range_meters":17600,"station_id":"ce4bh0h2rcd13ifvqd60","pricing_plan_id":"cebpf4jnsgd1na2vs0mg"},{"bike_id":"f23c72e0-53e6-497e-a874-03021934ba2b","system_id":"levelo_inurba_marseille","lat":43.3133,"lon":5.39695,"is_reserved":false,"is_disabled":false,"rental_uris":{"android":"levelo://app?vid=f23c72e0-53e6-497e-a874-03021934ba2b","ios":"levelo://app?vid=f23c72e0-53e6-497e-a874-03021934ba2b"},"vehicle_type_id":"4","last_reported":1734541706,"current_range_meters":24400,"station_id":"ce4bgvp2rcd13ifvqcu0","pricing_plan_id":"cebpf4jnsgd1na2vs0mg"},{"bike_id":"124e6c05-4926-4207-84f5-da69a7334d60","system_id":"levelo_inurba_marseille","lat":43.29045,"lon":5.38131,"is_reserved":false,"is_disabled":true,"rental_uris":{"android":"levelo://app?vid=124e6c05-4926-4207-84f5-da69a7334d60","ios":"levelo://app?vid=124e6c05-4926-4207-84f5-da69a7334d60"},"vehicle_type_id":"4","last_reported":1734541706,"current_range_meters":33200,"station_id":"ce4bh4p2rcd13ifvqe1g","pricing_plan_id":"cebpf4jnsgd1na2vs0mg"},{"bike_id":"cece21bd-76d6-4f19-b3ff-0220eec8a48b","system_id":"levelo_inurba_marseille","lat":43.29187,"lon":5.358,"is_reserved":false,"is_disabled":false,"rental_uris":{"android":"levelo://app?vid=cece21bd-76d6-4f19-b3ff-0220eec8a48b","ios":"levelo://app?vid=cece21bd-76d6-4f19-b3ff-0220eec8a48b"},"vehicle_type_id":"4","last_reported":1734541706,"current_range_meters":38800,"station_id":"ce4bhb12rcd13ifvqel0","pricing_plan_id":"cebpf4jnsgd1na2vs0mg"},{"bike_id":"8053e015-991c-4910-88bd-a36827ef7539","system_id":"levelo_inurba_marseille","lat":43.24809,"lon":5.37457,"is_reserved":false,"is_disabled":false,"rental_uris":{"android":"levelo://app?vid=8053e015-991c-4910-88bd-a36827ef7539","ios":"levelo://app?vid=8053e015-991c-4910-88bd-a36827ef7539"},"vehicle_type_id":"4","last_reported":1734541706,"current_range_meters":2800,"station_id":"ce4bhgh2rcd13ifvqfb0","pricing_plan_id":"cebpf4jnsgd1na2vs0mg"},{"bike_id":"ef0ddfae-8964-4351-aa76-8487b220c22f","system_id":"levelo_inurba_marseille","lat":43.27817,"lon":5.40715,"is_reserved":false,"is_disabled":false,"rental_uris":{"android":"levelo://app?vid=ef0ddfae-8964-4351-aa76-8487b220c22f","ios":"levelo://app?vid=ef0ddfae-8964-4351-aa76-8487b220c22f"},"vehicle_type_id":"4","last_reported":1734541706,"current_range_meters":22400,"station_id":"ce4bhnh2rcd13ifvqgtg","pricing_plan_id":"cebpf4jnsgd1na2vs0mg"},{"bike_id":"e6d6e3ab-03d6-4832-a94c-9c708321eeb5","system_id":"levelo_inurba_marseille","lat":43.29195,"lon":5.39327,"is_reserved":false,"is_disabled":false,"rental_uris":{"android":"levelo://app?vid=e6d6e3ab-03d6-4832-a94c-9c708321eeb5","ios":"levelo://app?vid=e6d6e3ab-03d6-4832-a94c-9c708321eeb5"},"vehicle_type_id":"4","last_reported":1734541706,"current_range_meters":26000,"station_id":"ce4bh192rcd13ifvqdd0","pricing_plan_id":"cebpf4jnsgd1na2vs0mg"},{"bike_id":"2491c714-f3f7-493b-9790-9992e16c8fb6","system_id":"levelo_inurba_marseille","lat":43.3414,"lon":5.40909,"is_reserved":false,"is_disabled":true,"rental_uris":{"android":"levelo://app?vid=2491c714-f3f7-493b-9790-9992e16c8fb6","ios":"levelo://app?vid=2491c714-f3f7-493b-9790-9992e16c8fb6"},"vehicle_type_id":"4","last_reported":1734541706,"current_range_meters":38800,"station_id":"ce4bhqh2rcd13ifvqhlg","pricing_plan_id":"cebpf4jnsgd1na2vs0mg"},{"bike_id":"067a33a2-2207-4251-a8f2-939cdc678233","system_id":"levelo_inurba_marseille","lat":43.25001,"lon":5.38925,"is_reserved":false,"is_disabled":false,"rental_uris":{"android":"levelo://app?vid=067a33a2-2207-4251-a8f2-939cdc678233","ios":"levelo://app?vid=067a33a2-2207-4251-a8f2-939cdc678233"},"vehicle_type_id":"4","last_reported":1734541706,"current_range_meters":24800,"station_id":"ce4bhgp2rcd13ifvqfd0","pricing_plan_id":"cebpf4jnsgd1na2vs0mg"},{"bike_id":"ea1ee0a0-f240-4d25-84d9-e6fb6fc7a18c","system_id":"levelo_inurba_marseille","lat":43.338039,"lon":5.421031,"is_reserved":false,"is_disabled":true,"rental_uris":{"android":"levelo://app?vid=ea1ee0a0-f240-4d25-84d9-e6fb6fc7a18c","ios":"levelo://app?vid=ea1ee0a0-f240-4d25-84d9-e6fb6fc7a18c"},"vehicle_type_id":"4","last_reported":1734541706,"current_range_meters":0,"station_id":"","pricing_plan_id":"cebpf4jnsgd1na2vs0mg"},{"bike_id":"23e342bd-db0d-4226-b3c1-92c67e2ee2ac","system_id":"levelo_inurba_marseille","lat":43.2656,"lon":5.38998,"is_reserved":false,"is_disabled":false,"rental_uris":{"android":"levelo://app?vid=23e342bd-db0d-4226-b3c1-92c67e2ee2ac","ios":"levelo://app?vid=23e342bd-db0d-4226-b3c1-92c67e2ee2ac"},"vehicle_type_id":"4","last_reported":1734541706,"current_range_meters":34800,"station_id":"ce4bhe12rcd13ifvqf30","pricing_plan_id":"cebpf4jnsgd1na2vs0mg"},{"bike_id":"8f9391fc-b0cd-4c21-832e-5b3db93dd591","system_id":"levelo_inurba_marseille","lat":43.304341,"lon":5.38892,"is_reserved":false,"is_disabled":false,"rental_uris":{"android":"levelo://app?vid=8f9391fc-b0cd-4c21-832e-5b3db93dd591","ios":"levelo://app?vid=8f9391fc-b0cd-4c21-832e-5b3db93dd591"},"vehicle_type_id":"4","last_reported":1734541706,"current_range_meters":6800,"station_id":"ce4bgk12rcd13ifvqbi0","pricing_plan_id":"cebpf4jnsgd1na2vs0mg"},{"bike_id":"a54396c2-4823-48ca-afb8-9e22f99cbd0b","system_id":"levelo_inurba_marseille","lat":43.241791,"lon":5.397343,"is_reserved":false,"is_disabled":false,"rental_uris":{"android":"levelo://app?vid=a54396c2-4823-48ca-afb8-9e22f99cbd0b","ios":"levelo://app?vid=a54396c2-4823-48ca-afb8-9e22f99cbd0b"},"vehicle_type_id":"4","last_reported":1734541706,"current_range_meters":28000,"station_id":"ce4bhn12rcd13ifvqgpg","pricing_plan_id":"cebpf4jnsgd1na2vs0mg"},{"bike_id":"89a4604e-37bc-4704-b12a-b8b822be2e5d","system_id":"levelo_inurba_marseille","lat":43.29194,"lon":5.3932,"is_reserved":false,"is_disabled":false,"rental_uris":{"android":"levelo://app?vid=89a4604e-37bc-4704-b12a-b8b822be2e5d","ios":"levelo://app?vid=89a4604e-37bc-4704-b12a-b8b822be2e5d"},"vehicle_type_id":"4","last_reported":1734541706,"current_range_meters":35200,"station_id":"ce4bh192rcd13ifvqdd0","pricing_plan_id":"cebpf4jnsgd1na2vs0mg"},{"bike_id":"bc84c838-198d-40a0-a261-a1e23761d14f","system_id":"levelo_inurba_marseille","lat":43.26941,"lon":5.40248,"is_reserved":false,"is_disabled":false,"rental_uris":{"android":"levelo://app?vid=bc84c838-198d-40a0-a261-a1e23761d14f","ios":"levelo://app?vid=bc84c838-198d-40a0-a261-a1e23761d14f"},"vehicle_type_id":"4","last_reported":1734541706,"current_range_meters":16400,"station_id":"cjm6bp8fraef2m0cb0m0","pricing_plan_id":"cebpf4jnsgd1na2vs0mg"},{"bike_id":"b32bf776-ff36-4f03-b2e8-253040903f88","system_id":"levelo_inurba_marseille","lat":43.29706,"lon":5.3729,"is_reserved":false,"is_disabled":false,"rental_uris":{"android":"levelo://app?vid=b32bf776-ff36-4f03-b2e8-253040903f88","ios":"levelo://app?vid=b32bf776-ff36-4f03-b2e8-253040903f88"},"vehicle_type_id":"4","last_reported":1734541706,"current_range_meters":12000,"station_id":"ce4bgk12rcd13ifvqbj0","pricing_plan_id":"cebpf4jnsgd1na2vs0mg"},{"bike_id":"7209b086-e3d3-4c78-9e16-67090db12b9e","system_id":"levelo_inurba_marseille","lat":43.301595,"lon":5.381516,"is_reserved":false,"is_disabled":false,"rental_uris":{"android":"levelo://app?vid=7209b086-e3d3-4c78-9e16-67090db12b9e","ios":"levelo://app?vid=7209b086-e3d3-4c78-9e16-67090db12b9e"},"vehicle_type_id":"4","last_reported":1734541706,"current_range_meters":6400,"station_id":"ce4bgjp2rcd13ifvqbh0","pricing_plan_id":"cebpf4jnsgd1na2vs0mg"},{"bike_id":"8bfac80e-1fb6-4c29-8a7a-e5d1d210dc81","system_id":"levelo_inurba_marseille","lat":43.31009,"lon":5.38065,"is_reserved":false,"is_disabled":false,"rental_uris":{"android":"levelo://app?vid=8bfac80e-1fb6-4c29-8a7a-e5d1d210dc81","ios":"levelo://app?vid=8bfac80e-1fb6-4c29-8a7a-e5d1d210dc81"},"vehicle_type_id":"4","last_reported":1734541706,"current_range_meters":23200,"station_id":"","pricing_plan_id":"cebpf4jnsgd1na2vs0mg"},{"bike_id":"4f2b2e7b-acb7-48ac-9678-c8c97e08f2e4","system_id":"levelo_inurba_marseille","lat":43.27817,"lon":5.40708,"is_reserved":false,"is_disabled":false,"rental_uris":{"android":"levelo://app?vid=4f2b2e7b-acb7-48ac-9678-c8c97e08f2e4","ios":"levelo://app?vid=4f2b2e7b-acb7-48ac-9678-c8c97e08f2e4"},"vehicle_type_id":"4","last_reported":1734541706,"current_range_meters":28000,"station_id":"ce4bhnh2rcd13ifvqgtg","pricing_plan_id":"cebpf4jnsgd1na2vs0mg"},{"bike_id":"717b808b-eaaf-43be-9456-34f8c352dd94","system_id":"levelo_inurba_marseille","lat":43.28458,"lon":5.35888,"is_reserved":false,"is_disabled":false,"rental_uris":{"android":"levelo://app?vid=717b808b-eaaf-43be-9456-34f8c352dd94","ios":"levelo://app?vid=717b808b-eaaf-43be-9456-34f8c352dd94"},"vehicle_type_id":"4","last_reported":1734541706,"current_range_meters":12000,"station_id":"ce4bhah2rcd13ifvqei0","pricing_plan_id":"cebpf4jnsgd1na2vs0mg"},{"bike_id":"d95550e9-7388-4315-9e27-934b58e4f59a","system_id":"levelo_inurba_marseille","lat":43.29727,"lon":5.37667,"is_reserved":false,"is_disabled":false,"rental_uris":{"android":"levelo://app?vid=d95550e9-7388-4315-9e27-934b58e4f59a","ios":"levelo://app?vid=d95550e9-7388-4315-9e27-934b58e4f59a"},"vehicle_type_id":"4","last_reported":1734541706,"current_range_meters":37600,"station_id":"ce4bgkh2rcd13ifvqbl0","pricing_plan_id":"cebpf4jnsgd1na2vs0mg"},{"bike_id":"bcd22134-fb80-4459-95b8-5236b5eeb8bc","system_id":"levelo_inurba_marseille","lat":43.32049,"lon":5.41535,"is_reserved":false,"is_disabled":false,"rental_uris":{"android":"levelo://app?vid=bcd22134-fb80-4459-95b8-5236b5eeb8bc","ios":"levelo://app?vid=bcd22134-fb80-4459-95b8-5236b5eeb8bc"},"vehicle_type_id":"4","last_reported":1734541706,"current_range_meters":4800,"station_id":"ce4bhq92rcd13ifvqhkg","pricing_plan_id":"cebpf4jnsgd1na2vs0mg"},{"bike_id":"4cd8f22a-82ae-4985-b778-378a4fb404d0","system_id":"levelo_inurba_marseille","lat":43.29864,"lon":5.36316,"is_reserved":false,"is_disabled":false,"rental_uris":{"android":"levelo://app?vid=4cd8f22a-82ae-4985-b778-378a4fb404d0","ios":"levelo://app?vid=4cd8f22a-82ae-4985-b778-378a4fb404d0"},"vehicle_type_id":"4","last_reported":1734541706,"current_range_meters":9600,"station_id":"ce4bgpp2rcd13ifvqc3g","pricing_plan_id":"cebpf4jnsgd1na2vs0mg"},{"bike_id":"86c83bcb-399d-43cb-a4b5-54e53dfd94eb","system_id":"levelo_inurba_marseille","lat":43.305364,"lon":5.367055,"is_reserved":false,"is_disabled":false,"rental_uris":{"android":"levelo://app?vid=86c83bcb-399d-43cb-a4b5-54e53dfd94eb","ios":"levelo://app?vid=86c83bcb-399d-43cb-a4b5-54e53dfd94eb"},"vehicle_type_id":"4","last_reported":1734541706,"current_range_meters":38800,"station_id":"ce4bgrp2rcd13ifvqc9g","pricing_plan_id":"cebpf4jnsgd1na2vs0mg"},{"bike_id":"19113779-e647-4105-868a-7c3772c8771f","system_id":"levelo_inurba_marseille","lat":43.28616,"lon":5.35101,"is_reserved":false,"is_disabled":false,"rental_uris":{"android":"levelo://app?vid=19113779-e647-4105-868a-7c3772c8771f","ios":"levelo://app?vid=19113779-e647-4105-868a-7c3772c8771f"},"vehicle_type_id":"4","last_reported":1734541706,"current_range_meters":17600,"station_id":"ce4bhch2rcd13ifvqeug","pricing_plan_id":"cebpf4jnsgd1na2vs0mg"},{"bike_id":"ef997489-9cbf-4c53-af7a-03aef084f7a0","system_id":"levelo_inurba_marseille","lat":43.26777,"lon":5.39414,"is_reserved":false,"is_disabled":false,"rental_uris":{"android":"levelo://app?vid=ef997489-9cbf-4c53-af7a-03aef084f7a0","ios":"levelo://app?vid=ef997489-9cbf-4c53-af7a-03aef084f7a0"},"vehicle_type_id":"4","last_reported":1734541706,"current_range_meters":15200,"station_id":"ce4bhh12rcd13ifvqfg0","pricing_plan_id":"cebpf4jnsgd1na2vs0mg"},{"bike_id":"5da5b853-9c16-4ff4-94d8-77f19dce47dd","system_id":"levelo_inurba_marseille","lat":43.2998,"lon":5.37176,"is_reserved":false,"is_disabled":false,"rental_uris":{"android":"levelo://app?vid=5da5b853-9c16-4ff4-94d8-77f19dce47dd","ios":"levelo://app?vid=5da5b853-9c16-4ff4-94d8-77f19dce47dd"},"vehicle_type_id":"4","last_reported":1734541706,"current_range_meters":6800,"station_id":"ce4bgr92rcd13ifvqc7g","pricing_plan_id":"cebpf4jnsgd1na2vs0mg"},{"bike_id":"0d4cf357-cd32-43d3-8971-89a7a2f06824","system_id":"levelo_inurba_marseille","lat":43.25577,"lon":5.3823,"is_reserved":false,"is_disabled":true,"rental_uris":{"android":"levelo://app?vid=0d4cf357-cd32-43d3-8971-89a7a2f06824","ios":"levelo://app?vid=0d4cf357-cd32-43d3-8971-89a7a2f06824"},"vehicle_type_id":"4","last_reported":1734541706,"current_range_meters":1200,"station_id":"ce4bhih2rcd13ifvqfs0","pricing_plan_id":"cebpf4jnsgd1na2vs0mg"},{"bike_id":"2ea5e87b-01fb-430b-ac72-4db16b665dab","system_id":"levelo_inurba_marseille","lat":43.29299,"lon":5.37457,"is_reserved":false,"is_disabled":false,"rental_uris":{"android":"levelo://app?vid=2ea5e87b-01fb-430b-ac72-4db16b665dab","ios":"levelo://app?vid=2ea5e87b-01fb-430b-ac72-4db16b665dab"},"vehicle_type_id":"4","last_reported":1734541706,"current_range_meters":35600,"station_id":"ce4bgi12rcd13ifvqb70","pricing_plan_id":"cebpf4jnsgd1na2vs0mg"},{"bike_id":"a96908ed-0cc9-45df-be26-183e2f9a4888","system_id":"levelo_inurba_marseille","lat":43.24662,"lon":5.38166,"is_reserved":false,"is_disabled":false,"rental_uris":{"android":"levelo://app?vid=a96908ed-0cc9-45df-be26-183e2f9a4888","ios":"levelo://app?vid=a96908ed-0cc9-45df-be26-183e2f9a4888"},"vehicle_type_id":"4","last_reported":1734541706,"current_range_meters":17600,"station_id":"ce4bhih2rcd13ifvqfr0","pricing_plan_id":"cebpf4jnsgd1na2vs0mg"},{"bike_id":"fcb8317a-8b51-4fbd-80d3-34200695d9a8","system_id":"levelo_inurba_marseille","lat":43.28929,"lon":5.38392,"is_reserved":false,"is_disabled":false,"rental_uris":{"android":"levelo://app?vid=fcb8317a-8b51-4fbd-80d3-34200695d9a8","ios":"levelo://app?vid=fcb8317a-8b51-4fbd-80d3-34200695d9a8"},"vehicle_type_id":"4","last_reported":1734541706,"current_range_meters":21600,"station_id":"ce4bh612rcd13ifvqe6g","pricing_plan_id":"cebpf4jnsgd1na2vs0mg"},{"bike_id":"72492ff3-d3e5-4b81-822b-1d3357339451","system_id":"levelo_inurba_marseille","lat":43.29118,"lon":5.39943,"is_reserved":false,"is_disabled":true,"rental_uris":{"android":"levelo://app?vid=72492ff3-d3e5-4b81-822b-1d3357339451","ios":"levelo://app?vid=72492ff3-d3e5-4b81-822b-1d3357339451"},"vehicle_type_id":"4","last_reported":1734541706,"current_range_meters":38400,"station_id":"","pricing_plan_id":"cebpf4jnsgd1na2vs0mg"},{"bike_id":"c9aecb48-1552-47ad-af23-8b6bab0d2fdf","system_id":"levelo_inurba_marseille","lat":43.25085,"lon":5.39502,"is_reserved":false,"is_disabled":false,"rental_uris":{"android":"levelo://app?vid=c9aecb48-1552-47ad-af23-8b6bab0d2fdf","ios":"levelo://app?vid=c9aecb48-1552-47ad-af23-8b6bab0d2fdf"},"vehicle_type_id":"4","last_reported":1734541706,"current_range_meters":39200,"station_id":"ce4bhm12rcd13ifvqgkg","pricing_plan_id":"cebpf4jnsgd1na2vs0mg"},{"bike_id":"921bbff8-28d4-4d0d-80af-4b13aeca41c1","system_id":"levelo_inurba_marseille","lat":43.26939,"lon":5.40862,"is_reserved":false,"is_disabled":false,"rental_uris":{"android":"levelo://app?vid=921bbff8-28d4-4d0d-80af-4b13aeca41c1","ios":"levelo://app?vid=921bbff8-28d4-4d0d-80af-4b13aeca41c1"},"vehicle_type_id":"4","last_reported":1734541706,"current_range_meters":27200,"station_id":"","pricing_plan_id":"cebpf4jnsgd1na2vs0mg"},{"bike_id":"b28f9753-28e1-431d-914b-59d1f0cf26b3","system_id":"levelo_inurba_marseille","lat":43.26559,"lon":5.37291,"is_reserved":false,"is_disabled":false,"rental_uris":{"android":"levelo://app?vid=b28f9753-28e1-431d-914b-59d1f0cf26b3","ios":"levelo://app?vid=b28f9753-28e1-431d-914b-59d1f0cf26b3"},"vehicle_type_id":"4","last_reported":1734541706,"current_range_meters":10800,"station_id":"ce4bhg12rcd13ifvqf70","pricing_plan_id":"cebpf4jnsgd1na2vs0mg"},{"bike_id":"d701d942-3097-416b-ba9e-ba9024999f6c","system_id":"levelo_inurba_marseille","lat":43.29529,"lon":5.38542,"is_reserved":false,"is_disabled":false,"rental_uris":{"android":"levelo://app?vid=d701d942-3097-416b-ba9e-ba9024999f6c","ios":"levelo://app?vid=d701d942-3097-416b-ba9e-ba9024999f6c"},"vehicle_type_id":"4","last_reported":1734541706,"current_range_meters":8000,"station_id":"ce4bgih2rcd13ifvqba0","pricing_plan_id":"cebpf4jnsgd1na2vs0mg"},{"bike_id":"4e00f0c6-ac19-47cf-aff9-ceeb4f9d5aa4","system_id":"levelo_inurba_marseille","lat":43.2904,"lon":5.359093,"is_reserved":false,"is_disabled":false,"rental_uris":{"android":"levelo://app?vid=4e00f0c6-ac19-47cf-aff9-ceeb4f9d5aa4","ios":"levelo://app?vid=4e00f0c6-ac19-47cf-aff9-ceeb4f9d5aa4"},"vehicle_type_id":"4","last_reported":1734541706,"current_range_meters":35200,"station_id":"ce4bha92rcd13ifvqeg0","pricing_plan_id":"cebpf4jnsgd1na2vs0mg"},{"bike_id":"7d8f3629-1522-4261-a2a5-b39f31db4221","system_id":"levelo_inurba_marseille","lat":43.28078,"lon":5.39665,"is_reserved":false,"is_disabled":false,"rental_uris":{"android":"levelo://app?vid=7d8f3629-1522-4261-a2a5-b39f31db4221","ios":"levelo://app?vid=7d8f3629-1522-4261-a2a5-b39f31db4221"},"vehicle_type_id":"4","last_reported":1734541706,"current_range_meters":6000,"station_id":"ce4bho12rcd13ifvqh2g","pricing_plan_id":"cebpf4jnsgd1na2vs0mg"},{"bike_id":"990b10d5-dc20-4d68-9abd-b7eaf39a4263","system_id":"levelo_inurba_marseille","lat":43.29097,"lon":5.38149,"is_reserved":false,"is_disabled":false,"rental_uris":{"android":"levelo://app?vid=990b10d5-dc20-4d68-9abd-b7eaf39a4263","ios":"levelo://app?vid=990b10d5-dc20-4d68-9abd-b7eaf39a4263"},"vehicle_type_id":"4","last_reported":1734541706,"current_range_meters":37600,"station_id":"ce4bh512rcd13ifvqe2g","pricing_plan_id":"cebpf4jnsgd1na2vs0mg"},{"bike_id":"782bcbf2-b7de-4b04-bebc-aaa0329dd90c","system_id":"levelo_inurba_marseille","lat":43.231952,"lon":5.35558,"is_reserved":false,"is_disabled":false,"rental_uris":{"android":"levelo://app?vid=782bcbf2-b7de-4b04-bebc-aaa0329dd90c","ios":"levelo://app?vid=782bcbf2-b7de-4b04-bebc-aaa0329dd90c"},"vehicle_type_id":"4","last_reported":1734541706,"current_range_meters":38800,"station_id":"ce4bhu92rcd13ifvqi70","pricing_plan_id":"cebpf4jnsgd1na2vs0mg"},{"bike_id":"96ff88dc-8cf7-4b0f-a345-fa00220da932","system_id":"levelo_inurba_marseille","lat":43.27418,"lon":5.42394,"is_reserved":false,"is_disabled":true,"rental_uris":{"android":"levelo://app?vid=96ff88dc-8cf7-4b0f-a345-fa00220da932","ios":"levelo://app?vid=96ff88dc-8cf7-4b0f-a345-fa00220da932"},"vehicle_type_id":"4","last_reported":1734541706,"current_range_meters":0,"station_id":"","pricing_plan_id":"cebpf4jnsgd1na2vs0mg"},{"bike_id":"d033e481-cf2c-436a-88d8-e136b48caeda","system_id":"levelo_inurba_marseille","lat":43.24391,"lon":5.37068,"is_reserved":false,"is_disabled":false,"rental_uris":{"android":"levelo://app?vid=d033e481-cf2c-436a-88d8-e136b48caeda","ios":"levelo://app?vid=d033e481-cf2c-436a-88d8-e136b48caeda"},"vehicle_type_id":"4","last_reported":1734541706,"current_range_meters":18800,"station_id":"ce4bhhh2rcd13ifvqfk0","pricing_plan_id":"cebpf4jnsgd1na2vs0mg"},{"bike_id":"5654a558-cefd-4b06-9c09-58d1b662d5cd","system_id":"levelo_inurba_marseille","lat":43.24181,"lon":5.3972,"is_reserved":false,"is_disabled":false,"rental_uris":{"android":"levelo://app?vid=5654a558-cefd-4b06-9c09-58d1b662d5cd","ios":"levelo://app?vid=5654a558-cefd-4b06-9c09-58d1b662d5cd"},"vehicle_type_id":"4","last_reported":1734541706,"current_range_meters":38400,"station_id":"ce4bhn12rcd13ifvqgpg","pricing_plan_id":"cebpf4jnsgd1na2vs0mg"},{"bike_id":"0648d916-c038-4cf6-a9c1-778e31e3ca3d","system_id":"levelo_inurba_marseille","lat":43.29361,"lon":5.37843,"is_reserved":false,"is_disabled":false,"rental_uris":{"android":"levelo://app?vid=0648d916-c038-4cf6-a9c1-778e31e3ca3d","ios":"levelo://app?vid=0648d916-c038-4cf6-a9c1-778e31e3ca3d"},"vehicle_type_id":"4","last_reported":1734541706,"current_range_meters":16400,"station_id":"ce4bgjh2rcd13ifvqbf0","pricing_plan_id":"cebpf4jnsgd1na2vs0mg"},{"bike_id":"37a3e5bf-6f53-427b-9a89-d96d119f0635","system_id":"levelo_inurba_marseille","lat":43.26617,"lon":5.37265,"is_reserved":false,"is_disabled":true,"rental_uris":{"android":"levelo://app?vid=37a3e5bf-6f53-427b-9a89-d96d119f0635","ios":"levelo://app?vid=37a3e5bf-6f53-427b-9a89-d96d119f0635"},"vehicle_type_id":"4","last_reported":1734541706,"current_range_meters":0,"station_id":"","pricing_plan_id":"cebpf4jnsgd1na2vs0mg"},{"bike_id":"cd662eb7-69ad-44c3-96b8-64676dd03ecd","system_id":"levelo_inurba_marseille","lat":43.28072,"lon":5.39657,"is_reserved":false,"is_disabled":false,"rental_uris":{"android":"levelo://app?vid=cd662eb7-69ad-44c3-96b8-64676dd03ecd","ios":"levelo://app?vid=cd662eb7-69ad-44c3-96b8-64676dd03ecd"},"vehicle_type_id":"4","last_reported":1734541706,"current_range_meters":16000,"station_id":"ce4bho12rcd13ifvqh2g","pricing_plan_id":"cebpf4jnsgd1na2vs0mg"},{"bike_id":"2ac0e10e-0de3-4079-b426-24ce9322c9f5","system_id":"levelo_inurba_marseille","lat":43.32368,"lon":5.38888,"is_reserved":false,"is_disabled":false,"rental_uris":{"android":"levelo://app?vid=2ac0e10e-0de3-4079-b426-24ce9322c9f5","ios":"levelo://app?vid=2ac0e10e-0de3-4079-b426-24ce9322c9f5"},"vehicle_type_id":"4","last_reported":1734541706,"current_range_meters":30400,"station_id":"ce4bhqp2rcd13ifvqhog","pricing_plan_id":"cebpf4jnsgd1na2vs0mg"},{"bike_id":"96d9467f-3d6c-4252-86fd-4ca3d1578e2d","system_id":"levelo_inurba_marseille","lat":43.2781,"lon":5.40703,"is_reserved":false,"is_disabled":false,"rental_uris":{"android":"levelo://app?vid=96d9467f-3d6c-4252-86fd-4ca3d1578e2d","ios":"levelo://app?vid=96d9467f-3d6c-4252-86fd-4ca3d1578e2d"},"vehicle_type_id":"4","last_reported":1734541706,"current_range_meters":18800,"station_id":"ce4bhnh2rcd13ifvqgtg","pricing_plan_id":"cebpf4jnsgd1na2vs0mg"},{"bike_id":"88510cc1-d9fe-438a-a531-0fa1e89c9e0b","system_id":"levelo_inurba_marseille","lat":43.2317,"lon":5.3998,"is_reserved":false,"is_disabled":false,"rental_uris":{"android":"levelo://app?vid=88510cc1-d9fe-438a-a531-0fa1e89c9e0b","ios":"levelo://app?vid=88510cc1-d9fe-438a-a531-0fa1e89c9e0b"},"vehicle_type_id":"4","last_reported":1734541706,"current_range_meters":24400,"station_id":"ce4bhn12rcd13ifvqgqg","pricing_plan_id":"cebpf4jnsgd1na2vs0mg"},{"bike_id":"97fa7a5d-a7ef-4e16-876a-146c6b539c7c","system_id":"levelo_inurba_marseille","lat":43.27686,"lon":5.38899,"is_reserved":false,"is_disabled":true,"rental_uris":{"android":"levelo://app?vid=97fa7a5d-a7ef-4e16-876a-146c6b539c7c","ios":"levelo://app?vid=97fa7a5d-a7ef-4e16-876a-146c6b539c7c"},"vehicle_type_id":"4","last_reported":1734541706,"current_range_meters":0,"station_id":"ce4bhi12rcd13ifvqfo0","pricing_plan_id":"cebpf4jnsgd1na2vs0mg"},{"bike_id":"ae19097a-ba4f-4cc6-8149-c9ca9489d087","system_id":"levelo_inurba_marseille","lat":43.28105,"lon":5.37836,"is_reserved":false,"is_disabled":false,"rental_uris":{"android":"levelo://app?vid=ae19097a-ba4f-4cc6-8149-c9ca9489d087","ios":"levelo://app?vid=ae19097a-ba4f-4cc6-8149-c9ca9489d087"},"vehicle_type_id":"4","last_reported":1734541706,"current_range_meters":4000,"station_id":"ce4bha12rcd13ifvqee0","pricing_plan_id":"cebpf4jnsgd1na2vs0mg"},{"bike_id":"125d7d37-ea99-4b91-81f6-725053754df9","system_id":"levelo_inurba_marseille","lat":43.29097,"lon":5.38144,"is_reserved":false,"is_disabled":false,"rental_uris":{"android":"levelo://app?vid=125d7d37-ea99-4b91-81f6-725053754df9","ios":"levelo://app?vid=125d7d37-ea99-4b91-81f6-725053754df9"},"vehicle_type_id":"4","last_reported":1734541706,"current_range_meters":25600,"station_id":"ce4bh512rcd13ifvqe2g","pricing_plan_id":"cebpf4jnsgd1na2vs0mg"},{"bike_id":"e27180a2-55a7-4264-a086-836c574c349c","system_id":"levelo_inurba_marseille","lat":43.29664,"lon":5.37288,"is_reserved":false,"is_disabled":false,"rental_uris":{"android":"levelo://app?vid=e27180a2-55a7-4264-a086-836c574c349c","ios":"levelo://app?vid=e27180a2-55a7-4264-a086-836c574c349c"},"vehicle_type_id":"4","last_reported":1734541706,"current_range_meters":16000,"station_id":"ce4bgk12rcd13ifvqbj0","pricing_plan_id":"cebpf4jnsgd1na2vs0mg"},{"bike_id":"ba60245e-88fd-4aa5-9df5-baee3ef1d4e4","system_id":"levelo_inurba_marseille","lat":43.28732,"lon":5.37941,"is_reserved":false,"is_disabled":true,"rental_uris":{"android":"levelo://app?vid=ba60245e-88fd-4aa5-9df5-baee3ef1d4e4","ios":"levelo://app?vid=ba60245e-88fd-4aa5-9df5-baee3ef1d4e4"},"vehicle_type_id":"4","last_reported":1734541706,"current_range_meters":26000,"station_id":"ce4bh9p2rcd13ifvqec0","pricing_plan_id":"cebpf4jnsgd1na2vs0mg"},{"bike_id":"2706d02d-aaff-40a5-9926-c7426882c786","system_id":"levelo_inurba_marseille","lat":43.30823,"lon":5.43485,"is_reserved":false,"is_disabled":false,"rental_uris":{"android":"levelo://app?vid=2706d02d-aaff-40a5-9926-c7426882c786","ios":"levelo://app?vid=2706d02d-aaff-40a5-9926-c7426882c786"},"vehicle_type_id":"4","last_reported":1734541706,"current_range_meters":11200,"station_id":"ce4bhph2rcd13ifvqheg","pricing_plan_id":"cebpf4jnsgd1na2vs0mg"},{"bike_id":"f87ee5bb-d043-4774-9d28-e87c85abd629","system_id":"levelo_inurba_marseille","lat":43.27562,"lon":5.38418,"is_reserved":false,"is_disabled":false,"rental_uris":{"android":"levelo://app?vid=f87ee5bb-d043-4774-9d28-e87c85abd629","ios":"levelo://app?vid=f87ee5bb-d043-4774-9d28-e87c85abd629"},"vehicle_type_id":"4","last_reported":1734541706,"current_range_meters":36800,"station_id":"ce4bhh92rcd13ifvqfi0","pricing_plan_id":"cebpf4jnsgd1na2vs0mg"},{"bike_id":"4c8b14c1-a279-4e3d-b684-d6545dbf4d61","system_id":"levelo_inurba_marseille","lat":43.31068,"lon":5.37568,"is_reserved":false,"is_disabled":false,"rental_uris":{"android":"levelo://app?vid=4c8b14c1-a279-4e3d-b684-d6545dbf4d61","ios":"levelo://app?vid=4c8b14c1-a279-4e3d-b684-d6545dbf4d61"},"vehicle_type_id":"4","last_reported":1734541706,"current_range_meters":32800,"station_id":"","pricing_plan_id":"cebpf4jnsgd1na2vs0mg"},{"bike_id":"dece50d5-78ec-49a4-af77-5488072baa57","system_id":"levelo_inurba_marseille","lat":43.29419,"lon":5.38621,"is_reserved":false,"is_disabled":true,"rental_uris":{"android":"levelo://app?vid=dece50d5-78ec-49a4-af77-5488072baa57","ios":"levelo://app?vid=dece50d5-78ec-49a4-af77-5488072baa57"},"vehicle_type_id":"4","last_reported":1734541706,"current_range_meters":1600,"station_id":"ce4bh2h2rcd13ifvqdh0","pricing_plan_id":"cebpf4jnsgd1na2vs0mg"},{"bike_id":"e0c2eddf-4ba9-4754-b0b5-efd80badee74","system_id":"levelo_inurba_marseille","lat":43.25828,"lon":5.39428,"is_reserved":false,"is_disabled":true,"rental_uris":{"android":"levelo://app?vid=e0c2eddf-4ba9-4754-b0b5-efd80badee74","ios":"levelo://app?vid=e0c2eddf-4ba9-4754-b0b5-efd80badee74"},"vehicle_type_id":"4","last_reported":1734541706,"current_range_meters":0,"station_id":"ce4bhip2rcd13ifvqft0","pricing_plan_id":"cebpf4jnsgd1na2vs0mg"},{"bike_id":"d546bd4d-aeb5-4ee9-82a2-b3f374fd1e77","system_id":"levelo_inurba_marseille","lat":43.29404,"lon":5.38625,"is_reserved":false,"is_disabled":false,"rental_uris":{"android":"levelo://app?vid=d546bd4d-aeb5-4ee9-82a2-b3f374fd1e77","ios":"levelo://app?vid=d546bd4d-aeb5-4ee9-82a2-b3f374fd1e77"},"vehicle_type_id":"4","last_reported":1734541706,"current_range_meters":21600,"station_id":"ce4bh2h2rcd13ifvqdh0","pricing_plan_id":"cebpf4jnsgd1na2vs0mg"},{"bike_id":"aea02672-4cb0-4b39-aab8-95206403582a","system_id":"levelo_inurba_marseille","lat":43.28466,"lon":5.35882,"is_reserved":false,"is_disabled":false,"rental_uris":{"android":"levelo://app?vid=aea02672-4cb0-4b39-aab8-95206403582a","ios":"levelo://app?vid=aea02672-4cb0-4b39-aab8-95206403582a"},"vehicle_type_id":"4","last_reported":1734541706,"current_range_meters":38800,"station_id":"ce4bhah2rcd13ifvqei0","pricing_plan_id":"cebpf4jnsgd1na2vs0mg"},{"bike_id":"ff6c6cb2-193d-4cda-989d-8ff0aca58427","system_id":"levelo_inurba_marseille","lat":43.30607,"lon":5.37154,"is_reserved":false,"is_disabled":true,"rental_uris":{"android":"levelo://app?vid=ff6c6cb2-193d-4cda-989d-8ff0aca58427","ios":"levelo://app?vid=ff6c6cb2-193d-4cda-989d-8ff0aca58427"},"vehicle_type_id":"4","last_reported":1734541706,"current_range_meters":0,"station_id":"","pricing_plan_id":"cebpf4jnsgd1na2vs0mg"},{"bike_id":"68907ca0-038a-4705-886b-af6c122ac485","system_id":"levelo_inurba_marseille","lat":43.23178,"lon":5.3998,"is_reserved":false,"is_disabled":false,"rental_uris":{"android":"levelo://app?vid=68907ca0-038a-4705-886b-af6c122ac485","ios":"levelo://app?vid=68907ca0-038a-4705-886b-af6c122ac485"},"vehicle_type_id":"4","last_reported":1734541706,"current_range_meters":39200,"station_id":"ce4bhn12rcd13ifvqgqg","pricing_plan_id":"cebpf4jnsgd1na2vs0mg"},{"bike_id":"273c7107-c740-4faa-9938-9ae182624c88","system_id":"levelo_inurba_marseille","lat":43.29528,"lon":5.38539,"is_reserved":false,"is_disabled":false,"rental_uris":{"android":"levelo://app?vid=273c7107-c740-4faa-9938-9ae182624c88","ios":"levelo://app?vid=273c7107-c740-4faa-9938-9ae182624c88"},"vehicle_type_id":"4","last_reported":1734541706,"current_range_meters":6400,"station_id":"ce4bgih2rcd13ifvqba0","pricing_plan_id":"cebpf4jnsgd1na2vs0mg"},{"bike_id":"1bf57af1-9063-447f-acc4-5858f918b514","system_id":"levelo_inurba_marseille","lat":43.31754,"lon":5.3901,"is_reserved":false,"is_disabled":false,"rental_uris":{"android":"levelo://app?vid=1bf57af1-9063-447f-acc4-5858f918b514","ios":"levelo://app?vid=1bf57af1-9063-447f-acc4-5858f918b514"},"vehicle_type_id":"4","last_reported":1734541706,"current_range_meters":35200,"station_id":"ce4bhqp2rcd13ifvqhng","pricing_plan_id":"cebpf4jnsgd1na2vs0mg"},{"bike_id":"d4d41f91-3461-4b8c-8aee-51c41fd54cb3","system_id":"levelo_inurba_marseille","lat":43.29531,"lon":5.38544,"is_reserved":false,"is_disabled":false,"rental_uris":{"android":"levelo://app?vid=d4d41f91-3461-4b8c-8aee-51c41fd54cb3","ios":"levelo://app?vid=d4d41f91-3461-4b8c-8aee-51c41fd54cb3"},"vehicle_type_id":"4","last_reported":1734541706,"current_range_meters":34800,"station_id":"ce4bgih2rcd13ifvqba0","pricing_plan_id":"cebpf4jnsgd1na2vs0mg"},{"bike_id":"bb337245-7c41-4671-900b-a4d92ae562c6","system_id":"levelo_inurba_marseille","lat":43.29522,"lon":5.39026,"is_reserved":false,"is_disabled":true,"rental_uris":{"android":"levelo://app?vid=bb337245-7c41-4671-900b-a4d92ae562c6","ios":"levelo://app?vid=bb337245-7c41-4671-900b-a4d92ae562c6"},"vehicle_type_id":"4","last_reported":1734541706,"current_range_meters":0,"station_id":"ce4bh3p2rcd13ifvqdp0","pricing_plan_id":"cebpf4jnsgd1na2vs0mg"},{"bike_id":"930a9f54-b659-4794-8040-fe5a7143d996","system_id":"levelo_inurba_marseille","lat":43.3205,"lon":5.41566,"is_reserved":false,"is_disabled":false,"rental_uris":{"android":"levelo://app?vid=930a9f54-b659-4794-8040-fe5a7143d996","ios":"levelo://app?vid=930a9f54-b659-4794-8040-fe5a7143d996"},"vehicle_type_id":"4","last_reported":1734541706,"current_range_meters":25600,"station_id":"ce4bhq92rcd13ifvqhkg","pricing_plan_id":"cebpf4jnsgd1na2vs0mg"},{"bike_id":"bbbc3d4e-8ec7-41ec-9945-0546fd0bbfdf","system_id":"levelo_inurba_marseille","lat":43.2857,"lon":5.39503,"is_reserved":false,"is_disabled":false,"rental_uris":{"android":"levelo://app?vid=bbbc3d4e-8ec7-41ec-9945-0546fd0bbfdf","ios":"levelo://app?vid=bbbc3d4e-8ec7-41ec-9945-0546fd0bbfdf"},"vehicle_type_id":"4","last_reported":1734541706,"current_range_meters":21600,"station_id":"ce4bh292rcd13ifvqdg0","pricing_plan_id":"cebpf4jnsgd1na2vs0mg"},{"bike_id":"7b5e7c89-1d7c-480f-a901-352f5a7330f3","system_id":"levelo_inurba_marseille","lat":43.2997,"lon":5.38495,"is_reserved":false,"is_disabled":false,"rental_uris":{"android":"levelo://app?vid=7b5e7c89-1d7c-480f-a901-352f5a7330f3","ios":"levelo://app?vid=7b5e7c89-1d7c-480f-a901-352f5a7330f3"},"vehicle_type_id":"4","last_reported":1734541706,"current_range_meters":36800,"station_id":"ce4bgj92rcd13ifvqbd0","pricing_plan_id":"cebpf4jnsgd1na2vs0mg"},{"bike_id":"222f2010-e1f4-46f6-a092-3cde05cef084","system_id":"levelo_inurba_marseille","lat":43.2866,"lon":5.3635,"is_reserved":false,"is_disabled":false,"rental_uris":{"android":"levelo://app?vid=222f2010-e1f4-46f6-a092-3cde05cef084","ios":"levelo://app?vid=222f2010-e1f4-46f6-a092-3cde05cef084"},"vehicle_type_id":"4","last_reported":1734541706,"current_range_meters":39200,"station_id":"ce4bhah2rcd13ifvqej0","pricing_plan_id":"cebpf4jnsgd1na2vs0mg"},{"bike_id":"3bec605b-2ea4-40c6-8567-2dcb62a17266","system_id":"levelo_inurba_marseille","lat":43.29268,"lon":5.36841,"is_reserved":false,"is_disabled":true,"rental_uris":{"android":"levelo://app?vid=3bec605b-2ea4-40c6-8567-2dcb62a17266","ios":"levelo://app?vid=3bec605b-2ea4-40c6-8567-2dcb62a17266"},"vehicle_type_id":"4","last_reported":1734541706,"current_range_meters":35600,"station_id":"ce4bhbp2rcd13ifvqesg","pricing_plan_id":"cebpf4jnsgd1na2vs0mg"},{"bike_id":"c322e508-8fd6-46a8-b80e-f6f1a2ae74ec","system_id":"levelo_inurba_marseille","lat":43.31533,"lon":5.380273,"is_reserved":false,"is_disabled":false,"rental_uris":{"android":"levelo://app?vid=c322e508-8fd6-46a8-b80e-f6f1a2ae74ec","ios":"levelo://app?vid=c322e508-8fd6-46a8-b80e-f6f1a2ae74ec"},"vehicle_type_id":"4","last_reported":1734541706,"current_range_meters":38800,"station_id":"ce4bhsp2rcd13ifvqi50","pricing_plan_id":"cebpf4jnsgd1na2vs0mg"},{"bike_id":"17b2d2b0-9855-46b4-a478-0bd9c7277056","system_id":"levelo_inurba_marseille","lat":43.30912,"lon":5.37844,"is_reserved":false,"is_disabled":true,"rental_uris":{"android":"levelo://app?vid=17b2d2b0-9855-46b4-a478-0bd9c7277056","ios":"levelo://app?vid=17b2d2b0-9855-46b4-a478-0bd9c7277056"},"vehicle_type_id":"4","last_reported":1734541706,"current_range_meters":0,"station_id":"","pricing_plan_id":"cebpf4jnsgd1na2vs0mg"},{"bike_id":"a58dcf92-b20c-408c-8297-3e174a612334","system_id":"levelo_inurba_marseille","lat":43.30928,"lon":5.40143,"is_reserved":false,"is_disabled":false,"rental_uris":{"android":"levelo://app?vid=a58dcf92-b20c-408c-8297-3e174a612334","ios":"levelo://app?vid=a58dcf92-b20c-408c-8297-3e174a612334"},"vehicle_type_id":"4","last_reported":1734541706,"current_range_meters":18800,"station_id":"ce4bgvp2rcd13ifvqct0","pricing_plan_id":"cebpf4jnsgd1na2vs0mg"},{"bike_id":"bbed791e-f048-465f-925d-0adbea3050a6","system_id":"levelo_inurba_marseille","lat":43.30926,"lon":5.40137,"is_reserved":false,"is_disabled":false,"rental_uris":{"android":"levelo://app?vid=bbed791e-f048-465f-925d-0adbea3050a6","ios":"levelo://app?vid=bbed791e-f048-465f-925d-0adbea3050a6"},"vehicle_type_id":"4","last_reported":1734541706,"current_range_meters":14400,"station_id":"ce4bgvp2rcd13ifvqct0","pricing_plan_id":"cebpf4jnsgd1na2vs0mg"},{"bike_id":"9f97f512-1b19-443a-b67f-86de027e5577","system_id":"levelo_inurba_marseille","lat":43.34549,"lon":5.37605,"is_reserved":false,"is_disabled":false,"rental_uris":{"android":"levelo://app?vid=9f97f512-1b19-443a-b67f-86de027e5577","ios":"levelo://app?vid=9f97f512-1b19-443a-b67f-86de027e5577"},"vehicle_type_id":"4","last_reported":1734541706,"current_range_meters":26800,"station_id":"","pricing_plan_id":"cebpf4jnsgd1na2vs0mg"},{"bike_id":"4b1287ea-b137-4649-aa07-b6ececfe9347","system_id":"levelo_inurba_marseille","lat":43.2655,"lon":5.37288,"is_reserved":false,"is_disabled":false,"rental_uris":{"android":"levelo://app?vid=4b1287ea-b137-4649-aa07-b6ececfe9347","ios":"levelo://app?vid=4b1287ea-b137-4649-aa07-b6ececfe9347"},"vehicle_type_id":"4","last_reported":1734541706,"current_range_meters":37600,"station_id":"ce4bhg12rcd13ifvqf70","pricing_plan_id":"cebpf4jnsgd1na2vs0mg"},{"bike_id":"3712608c-16df-4a0f-99e1-087159d02879","system_id":"levelo_inurba_marseille","lat":43.28918,"lon":5.38394,"is_reserved":false,"is_disabled":false,"rental_uris":{"android":"levelo://app?vid=3712608c-16df-4a0f-99e1-087159d02879","ios":"levelo://app?vid=3712608c-16df-4a0f-99e1-087159d02879"},"vehicle_type_id":"4","last_reported":1734541706,"current_range_meters":32800,"station_id":"ce4bh612rcd13ifvqe6g","pricing_plan_id":"cebpf4jnsgd1na2vs0mg"},{"bike_id":"c8e30e21-63ad-4fc5-b3a5-487460e36868","system_id":"levelo_inurba_marseille","lat":43.29287,"lon":5.36847,"is_reserved":false,"is_disabled":false,"rental_uris":{"android":"levelo://app?vid=c8e30e21-63ad-4fc5-b3a5-487460e36868","ios":"levelo://app?vid=c8e30e21-63ad-4fc5-b3a5-487460e36868"},"vehicle_type_id":"4","last_reported":1734541706,"current_range_meters":27600,"station_id":"ce4bhbp2rcd13ifvqesg","pricing_plan_id":"cebpf4jnsgd1na2vs0mg"},{"bike_id":"3f684ade-8ff8-412b-8c78-ba957e925730","system_id":"levelo_inurba_marseille","lat":43.30552,"lon":5.36699,"is_reserved":false,"is_disabled":false,"rental_uris":{"android":"levelo://app?vid=3f684ade-8ff8-412b-8c78-ba957e925730","ios":"levelo://app?vid=3f684ade-8ff8-412b-8c78-ba957e925730"},"vehicle_type_id":"4","last_reported":1734541706,"current_range_meters":27600,"station_id":"ce4bgrp2rcd13ifvqc9g","pricing_plan_id":"cebpf4jnsgd1na2vs0mg"},{"bike_id":"da708de4-c602-4244-8495-8ce716405c97","system_id":"levelo_inurba_marseille","lat":43.32339,"lon":5.40624,"is_reserved":false,"is_disabled":true,"rental_uris":{"android":"levelo://app?vid=da708de4-c602-4244-8495-8ce716405c97","ios":"levelo://app?vid=da708de4-c602-4244-8495-8ce716405c97"},"vehicle_type_id":"4","last_reported":1734541706,"current_range_meters":0,"station_id":"ce4bhq92rcd13ifvqhjg","pricing_plan_id":"cebpf4jnsgd1na2vs0mg"},{"bike_id":"034c2ab0-dde7-46f8-b919-7ecc1452e578","system_id":"levelo_inurba_marseille","lat":43.27941,"lon":5.41052,"is_reserved":false,"is_disabled":true,"rental_uris":{"android":"levelo://app?vid=034c2ab0-dde7-46f8-b919-7ecc1452e578","ios":"levelo://app?vid=034c2ab0-dde7-46f8-b919-7ecc1452e578"},"vehicle_type_id":"4","last_reported":1734541706,"current_range_meters":1600,"station_id":"ce4bhnp2rcd13ifvqh0g","pricing_plan_id":"cebpf4jnsgd1na2vs0mg"},{"bike_id":"63ac9ec0-94d0-4b1e-8838-1ee7b4295fda","system_id":"levelo_inurba_marseille","lat":43.32106,"lon":5.36762,"is_reserved":false,"is_disabled":true,"rental_uris":{"android":"levelo://app?vid=63ac9ec0-94d0-4b1e-8838-1ee7b4295fda","ios":"levelo://app?vid=63ac9ec0-94d0-4b1e-8838-1ee7b4295fda"},"vehicle_type_id":"4","last_reported":1734541706,"current_range_meters":0,"station_id":"ce4bhrh2rcd13ifvqhug","pricing_plan_id":"cebpf4jnsgd1na2vs0mg"},{"bike_id":"2e60e43d-e5e6-4411-bc66-379c34abef6b","system_id":"levelo_inurba_marseille","lat":43.26566,"lon":5.39009,"is_reserved":false,"is_disabled":false,"rental_uris":{"android":"levelo://app?vid=2e60e43d-e5e6-4411-bc66-379c34abef6b","ios":"levelo://app?vid=2e60e43d-e5e6-4411-bc66-379c34abef6b"},"vehicle_type_id":"4","last_reported":1734541706,"current_range_meters":18000,"station_id":"ce4bhe12rcd13ifvqf30","pricing_plan_id":"cebpf4jnsgd1na2vs0mg"},{"bike_id":"d323e78c-e386-437e-9508-fdddde5388ff","system_id":"levelo_inurba_marseille","lat":43.28938,"lon":5.36639,"is_reserved":false,"is_disabled":false,"rental_uris":{"android":"levelo://app?vid=d323e78c-e386-437e-9508-fdddde5388ff","ios":"levelo://app?vid=d323e78c-e386-437e-9508-fdddde5388ff"},"vehicle_type_id":"4","last_reported":1734541706,"current_range_meters":10000,"station_id":"ce4bhap2rcd13ifvqek0","pricing_plan_id":"cebpf4jnsgd1na2vs0mg"},{"bike_id":"e49249f7-67ae-4467-9089-d0be452ea2b0","system_id":"levelo_inurba_marseille","lat":43.27192,"lon":5.40994,"is_reserved":false,"is_disabled":false,"rental_uris":{"android":"levelo://app?vid=e49249f7-67ae-4467-9089-d0be452ea2b0","ios":"levelo://app?vid=e49249f7-67ae-4467-9089-d0be452ea2b0"},"vehicle_type_id":"4","last_reported":1734541706,"current_range_meters":38000,"station_id":"ce4bhl12rcd13ifvqgf0","pricing_plan_id":"cebpf4jnsgd1na2vs0mg"},{"bike_id":"882de910-9b3d-43e3-b04c-ac39dcd38f96","system_id":"levelo_inurba_marseille","lat":43.30584,"lon":5.36738,"is_reserved":false,"is_disabled":false,"rental_uris":{"android":"levelo://app?vid=882de910-9b3d-43e3-b04c-ac39dcd38f96","ios":"levelo://app?vid=882de910-9b3d-43e3-b04c-ac39dcd38f96"},"vehicle_type_id":"4","last_reported":1734541706,"current_range_meters":38400,"station_id":"ce4bgrp2rcd13ifvqc9g","pricing_plan_id":"cebpf4jnsgd1na2vs0mg"},{"bike_id":"7e876e85-730f-4bb1-8e78-bc65c4d6fe75","system_id":"levelo_inurba_marseille","lat":43.29038,"lon":5.35927,"is_reserved":false,"is_disabled":false,"rental_uris":{"android":"levelo://app?vid=7e876e85-730f-4bb1-8e78-bc65c4d6fe75","ios":"levelo://app?vid=7e876e85-730f-4bb1-8e78-bc65c4d6fe75"},"vehicle_type_id":"4","last_reported":1734541706,"current_range_meters":25600,"station_id":"ce4bha92rcd13ifvqeg0","pricing_plan_id":"cebpf4jnsgd1na2vs0mg"},{"bike_id":"647a24ea-8723-4b44-a66c-e4feebd50d69","system_id":"levelo_inurba_marseille","lat":43.30557,"lon":5.366997,"is_reserved":false,"is_disabled":false,"rental_uris":{"android":"levelo://app?vid=647a24ea-8723-4b44-a66c-e4feebd50d69","ios":"levelo://app?vid=647a24ea-8723-4b44-a66c-e4feebd50d69"},"vehicle_type_id":"4","last_reported":1734541706,"current_range_meters":33200,"station_id":"ce4bgrp2rcd13ifvqc9g","pricing_plan_id":"cebpf4jnsgd1na2vs0mg"},{"bike_id":"1a0f8368-9bbe-46af-804d-89c1d05ccf47","system_id":"levelo_inurba_marseille","lat":43.29293,"lon":5.37452,"is_reserved":false,"is_disabled":true,"rental_uris":{"android":"levelo://app?vid=1a0f8368-9bbe-46af-804d-89c1d05ccf47","ios":"levelo://app?vid=1a0f8368-9bbe-46af-804d-89c1d05ccf47"},"vehicle_type_id":"4","last_reported":1734541706,"current_range_meters":0,"station_id":"ce4bgi12rcd13ifvqb70","pricing_plan_id":"cebpf4jnsgd1na2vs0mg"},{"bike_id":"0ba2cc58-146e-4791-af13-2a3524842812","system_id":"levelo_inurba_marseille","lat":43.2792,"lon":5.38009,"is_reserved":false,"is_disabled":false,"rental_uris":{"android":"levelo://app?vid=0ba2cc58-146e-4791-af13-2a3524842812","ios":"levelo://app?vid=0ba2cc58-146e-4791-af13-2a3524842812"},"vehicle_type_id":"4","last_reported":1734541706,"current_range_meters":39200,"station_id":"ce4bhf92rcd13ifvqf50","pricing_plan_id":"cebpf4jnsgd1na2vs0mg"},{"bike_id":"456fe449-495c-4b0a-b105-7cd98e1e0d63","system_id":"levelo_inurba_marseille","lat":43.26937,"lon":5.4026,"is_reserved":false,"is_disabled":false,"rental_uris":{"android":"levelo://app?vid=456fe449-495c-4b0a-b105-7cd98e1e0d63","ios":"levelo://app?vid=456fe449-495c-4b0a-b105-7cd98e1e0d63"},"vehicle_type_id":"4","last_reported":1734541706,"current_range_meters":22800,"station_id":"cjm6bp8fraef2m0cb0m0","pricing_plan_id":"cebpf4jnsgd1na2vs0mg"},{"bike_id":"e047c41c-baeb-4cbf-af40-1bc461b4723a","system_id":"levelo_inurba_marseille","lat":43.2896,"lon":5.36542,"is_reserved":false,"is_disabled":false,"rental_uris":{"android":"levelo://app?vid=e047c41c-baeb-4cbf-af40-1bc461b4723a","ios":"levelo://app?vid=e047c41c-baeb-4cbf-af40-1bc461b4723a"},"vehicle_type_id":"4","last_reported":1734541706,"current_range_meters":32800,"station_id":"ce4bhap2rcd13ifvqek0","pricing_plan_id":"cebpf4jnsgd1na2vs0mg"},{"bike_id":"a3c5629d-815a-4b9f-981c-aecf81ac260d","system_id":"levelo_inurba_marseille","lat":43.29096,"lon":5.3814,"is_reserved":false,"is_disabled":true,"rental_uris":{"android":"levelo://app?vid=a3c5629d-815a-4b9f-981c-aecf81ac260d","ios":"levelo://app?vid=a3c5629d-815a-4b9f-981c-aecf81ac260d"},"vehicle_type_id":"4","last_reported":1734541706,"current_range_meters":1600,"station_id":"ce4bh512rcd13ifvqe2g","pricing_plan_id":"cebpf4jnsgd1na2vs0mg"},{"bike_id":"0e0d321d-8c00-48bc-8770-e24343c367f7","system_id":"levelo_inurba_marseille","lat":43.311043,"lon":5.369306,"is_reserved":false,"is_disabled":true,"rental_uris":{"android":"levelo://app?vid=0e0d321d-8c00-48bc-8770-e24343c367f7","ios":"levelo://app?vid=0e0d321d-8c00-48bc-8770-e24343c367f7"},"vehicle_type_id":"4","last_reported":1734541706,"current_range_meters":1600,"station_id":"ce4bgl92rcd13ifvqbq0","pricing_plan_id":"cebpf4jnsgd1na2vs0mg"},{"bike_id":"d01cebba-724c-4b83-a09a-fd6203041762","system_id":"levelo_inurba_marseille","lat":43.31684,"lon":5.40472,"is_reserved":false,"is_disabled":false,"rental_uris":{"android":"levelo://app?vid=d01cebba-724c-4b83-a09a-fd6203041762","ios":"levelo://app?vid=d01cebba-724c-4b83-a09a-fd6203041762"},"vehicle_type_id":"4","last_reported":1734541706,"current_range_meters":5600,"station_id":"ce4bh012rcd13ifvqd00","pricing_plan_id":"cebpf4jnsgd1na2vs0mg"},{"bike_id":"72ab65b8-b83b-4c3a-a9c5-b48fab8eaa94","system_id":"levelo_inurba_marseille","lat":43.313265,"lon":5.39705,"is_reserved":false,"is_disabled":true,"rental_uris":{"android":"levelo://app?vid=72ab65b8-b83b-4c3a-a9c5-b48fab8eaa94","ios":"levelo://app?vid=72ab65b8-b83b-4c3a-a9c5-b48fab8eaa94"},"vehicle_type_id":"4","last_reported":1734541706,"current_range_meters":1200,"station_id":"ce4bgvp2rcd13ifvqcu0","pricing_plan_id":"cebpf4jnsgd1na2vs0mg"},{"bike_id":"53586763-e6eb-40b6-bde6-7786af1effe6","system_id":"levelo_inurba_marseille","lat":43.312017,"lon":5.3681,"is_reserved":false,"is_disabled":true,"rental_uris":{"android":"levelo://app?vid=53586763-e6eb-40b6-bde6-7786af1effe6","ios":"levelo://app?vid=53586763-e6eb-40b6-bde6-7786af1effe6"},"vehicle_type_id":"4","last_reported":1734541706,"current_range_meters":26800,"station_id":"ce4bgl92rcd13ifvqbq0","pricing_plan_id":"cebpf4jnsgd1na2vs0mg"},{"bike_id":"283c4773-4001-45ea-ba2a-de39cca6ed50","system_id":"levelo_inurba_marseille","lat":43.28929,"lon":5.38395,"is_reserved":false,"is_disabled":false,"rental_uris":{"android":"levelo://app?vid=283c4773-4001-45ea-ba2a-de39cca6ed50","ios":"levelo://app?vid=283c4773-4001-45ea-ba2a-de39cca6ed50"},"vehicle_type_id":"4","last_reported":1734541706,"current_range_meters":24400,"station_id":"ce4bh612rcd13ifvqe6g","pricing_plan_id":"cebpf4jnsgd1na2vs0mg"},{"bike_id":"78f5dcee-b6ca-4cfa-ae6f-ebcf64be1236","system_id":"levelo_inurba_marseille","lat":43.32354,"lon":5.40619,"is_reserved":false,"is_disabled":false,"rental_uris":{"android":"levelo://app?vid=78f5dcee-b6ca-4cfa-ae6f-ebcf64be1236","ios":"levelo://app?vid=78f5dcee-b6ca-4cfa-ae6f-ebcf64be1236"},"vehicle_type_id":"4","last_reported":1734541706,"current_range_meters":38800,"station_id":"ce4bhq92rcd13ifvqhjg","pricing_plan_id":"cebpf4jnsgd1na2vs0mg"},{"bike_id":"dd8c5b4c-64c3-4fbb-8df7-3b1a11a1b585","system_id":"levelo_inurba_marseille","lat":43.27617,"lon":5.361,"is_reserved":false,"is_disabled":false,"rental_uris":{"android":"levelo://app?vid=dd8c5b4c-64c3-4fbb-8df7-3b1a11a1b585","ios":"levelo://app?vid=dd8c5b4c-64c3-4fbb-8df7-3b1a11a1b585"},"vehicle_type_id":"4","last_reported":1734541706,"current_range_meters":8800,"station_id":"ce4bgj92rcd13ifvqbe0","pricing_plan_id":"cebpf4jnsgd1na2vs0mg"},{"bike_id":"1371ef7b-33e7-41ac-92de-c41a685650d7","system_id":"levelo_inurba_marseille","lat":43.29555,"lon":5.39969,"is_reserved":false,"is_disabled":false,"rental_uris":{"android":"levelo://app?vid=1371ef7b-33e7-41ac-92de-c41a685650d7","ios":"levelo://app?vid=1371ef7b-33e7-41ac-92de-c41a685650d7"},"vehicle_type_id":"4","last_reported":1734541706,"current_range_meters":26000,"station_id":"ce4bh312rcd13ifvqdj0","pricing_plan_id":"cebpf4jnsgd1na2vs0mg"},{"bike_id":"80b05b51-71c4-43eb-ae94-7b6820fddb65","system_id":"levelo_inurba_marseille","lat":43.28278,"lon":5.35077,"is_reserved":false,"is_disabled":false,"rental_uris":{"android":"levelo://app?vid=80b05b51-71c4-43eb-ae94-7b6820fddb65","ios":"levelo://app?vid=80b05b51-71c4-43eb-ae94-7b6820fddb65"},"vehicle_type_id":"4","last_reported":1734541706,"current_range_meters":25600,"station_id":"ce4bhbp2rcd13ifvqerg","pricing_plan_id":"cebpf4jnsgd1na2vs0mg"},{"bike_id":"80b00021-33de-476d-a30c-e66ea0b759f2","system_id":"levelo_inurba_marseille","lat":43.29533,"lon":5.38548,"is_reserved":false,"is_disabled":false,"rental_uris":{"android":"levelo://app?vid=80b00021-33de-476d-a30c-e66ea0b759f2","ios":"levelo://app?vid=80b00021-33de-476d-a30c-e66ea0b759f2"},"vehicle_type_id":"4","last_reported":1734541706,"current_range_meters":36800,"station_id":"ce4bgih2rcd13ifvqba0","pricing_plan_id":"cebpf4jnsgd1na2vs0mg"},{"bike_id":"0e0aa76d-7f37-42c2-b9b8-8627df6ccb52","system_id":"levelo_inurba_marseille","lat":43.29281,"lon":5.37427,"is_reserved":false,"is_disabled":false,"rental_uris":{"android":"levelo://app?vid=0e0aa76d-7f37-42c2-b9b8-8627df6ccb52","ios":"levelo://app?vid=0e0aa76d-7f37-42c2-b9b8-8627df6ccb52"},"vehicle_type_id":"4","last_reported":1734541706,"current_range_meters":38800,"station_id":"ce4bgi12rcd13ifvqb70","pricing_plan_id":"cebpf4jnsgd1na2vs0mg"},{"bike_id":"d17f5eb8-49bc-4444-a1f9-71d182ee7bc9","system_id":"levelo_inurba_marseille","lat":43.25085,"lon":5.39526,"is_reserved":false,"is_disabled":false,"rental_uris":{"android":"levelo://app?vid=d17f5eb8-49bc-4444-a1f9-71d182ee7bc9","ios":"levelo://app?vid=d17f5eb8-49bc-4444-a1f9-71d182ee7bc9"},"vehicle_type_id":"4","last_reported":1734541706,"current_range_meters":9200,"station_id":"ce4bhm12rcd13ifvqgkg","pricing_plan_id":"cebpf4jnsgd1na2vs0mg"},{"bike_id":"d9cea4e5-26fc-4208-8aa7-e94de2bed857","system_id":"levelo_inurba_marseille","lat":43.26552,"lon":5.37286,"is_reserved":false,"is_disabled":false,"rental_uris":{"android":"levelo://app?vid=d9cea4e5-26fc-4208-8aa7-e94de2bed857","ios":"levelo://app?vid=d9cea4e5-26fc-4208-8aa7-e94de2bed857"},"vehicle_type_id":"4","last_reported":1734541706,"current_range_meters":32400,"station_id":"ce4bhg12rcd13ifvqf70","pricing_plan_id":"cebpf4jnsgd1na2vs0mg"},{"bike_id":"a3232108-6d4d-45f4-ac66-cd85d6391bc7","system_id":"levelo_inurba_marseille","lat":43.23058,"lon":5.35475,"is_reserved":false,"is_disabled":false,"rental_uris":{"android":"levelo://app?vid=a3232108-6d4d-45f4-ac66-cd85d6391bc7","ios":"levelo://app?vid=a3232108-6d4d-45f4-ac66-cd85d6391bc7"},"vehicle_type_id":"4","last_reported":1734541706,"current_range_meters":37600,"station_id":"cpo3342slgdg3j2ifvpg","pricing_plan_id":"cebpf4jnsgd1na2vs0mg"},{"bike_id":"32c98ab6-fe20-4209-aaad-3325b93af7bf","system_id":"levelo_inurba_marseille","lat":43.292,"lon":5.35802,"is_reserved":false,"is_disabled":false,"rental_uris":{"android":"levelo://app?vid=32c98ab6-fe20-4209-aaad-3325b93af7bf","ios":"levelo://app?vid=32c98ab6-fe20-4209-aaad-3325b93af7bf"},"vehicle_type_id":"4","last_reported":1734541706,"current_range_meters":32000,"station_id":"ce4bhb12rcd13ifvqel0","pricing_plan_id":"cebpf4jnsgd1na2vs0mg"},{"bike_id":"5f268945-074c-44ed-9099-05e8aa15f651","system_id":"levelo_inurba_marseille","lat":43.26056,"lon":5.394,"is_reserved":false,"is_disabled":false,"rental_uris":{"android":"levelo://app?vid=5f268945-074c-44ed-9099-05e8aa15f651","ios":"levelo://app?vid=5f268945-074c-44ed-9099-05e8aa15f651"},"vehicle_type_id":"4","last_reported":1734541706,"current_range_meters":36400,"station_id":"ce4bhh92rcd13ifvqfj0","pricing_plan_id":"cebpf4jnsgd1na2vs0mg"},{"bike_id":"1f85f844-031e-4abc-a842-f34e73f3cb0b","system_id":"levelo_inurba_marseille","lat":43.28104,"lon":5.37833,"is_reserved":false,"is_disabled":false,"rental_uris":{"android":"levelo://app?vid=1f85f844-031e-4abc-a842-f34e73f3cb0b","ios":"levelo://app?vid=1f85f844-031e-4abc-a842-f34e73f3cb0b"},"vehicle_type_id":"4","last_reported":1734541706,"current_range_meters":24800,"station_id":"ce4bha12rcd13ifvqee0","pricing_plan_id":"cebpf4jnsgd1na2vs0mg"},{"bike_id":"53d84b51-ea35-479a-9800-092de6548357","system_id":"levelo_inurba_marseille","lat":43.2783,"lon":5.39206,"is_reserved":false,"is_disabled":false,"rental_uris":{"android":"levelo://app?vid=53d84b51-ea35-479a-9800-092de6548357","ios":"levelo://app?vid=53d84b51-ea35-479a-9800-092de6548357"},"vehicle_type_id":"4","last_reported":1734541706,"current_range_meters":8400,"station_id":"ce4bhjp2rcd13ifvqga0","pricing_plan_id":"cebpf4jnsgd1na2vs0mg"},{"bike_id":"ea8e1fb6-f5a7-4aa1-a273-578658261ba0","system_id":"levelo_inurba_marseille","lat":43.309199,"lon":5.401412,"is_reserved":false,"is_disabled":false,"rental_uris":{"android":"levelo://app?vid=ea8e1fb6-f5a7-4aa1-a273-578658261ba0","ios":"levelo://app?vid=ea8e1fb6-f5a7-4aa1-a273-578658261ba0"},"vehicle_type_id":"4","last_reported":1734541706,"current_range_meters":5600,"station_id":"ce4bgvp2rcd13ifvqct0","pricing_plan_id":"cebpf4jnsgd1na2vs0mg"},{"bike_id":"d5b46566-5c25-4344-a5f5-ae1f44c9a316","system_id":"levelo_inurba_marseille","lat":43.27427,"lon":5.39416,"is_reserved":false,"is_disabled":false,"rental_uris":{"android":"levelo://app?vid=d5b46566-5c25-4344-a5f5-ae1f44c9a316","ios":"levelo://app?vid=d5b46566-5c25-4344-a5f5-ae1f44c9a316"},"vehicle_type_id":"4","last_reported":1734541706,"current_range_meters":6800,"station_id":"ce4bhdp2rcd13ifvqf20","pricing_plan_id":"cebpf4jnsgd1na2vs0mg"},{"bike_id":"614ca12a-3413-46a7-8fd1-4e5043baf841","system_id":"levelo_inurba_marseille","lat":43.23181,"lon":5.39985,"is_reserved":false,"is_disabled":false,"rental_uris":{"android":"levelo://app?vid=614ca12a-3413-46a7-8fd1-4e5043baf841","ios":"levelo://app?vid=614ca12a-3413-46a7-8fd1-4e5043baf841"},"vehicle_type_id":"4","last_reported":1734541706,"current_range_meters":9200,"station_id":"ce4bhn12rcd13ifvqgqg","pricing_plan_id":"cebpf4jnsgd1na2vs0mg"},{"bike_id":"312e4a92-1757-4775-8fd0-006ecbca45c9","system_id":"levelo_inurba_marseille","lat":43.29973,"lon":5.37182,"is_reserved":false,"is_disabled":false,"rental_uris":{"android":"levelo://app?vid=312e4a92-1757-4775-8fd0-006ecbca45c9","ios":"levelo://app?vid=312e4a92-1757-4775-8fd0-006ecbca45c9"},"vehicle_type_id":"4","last_reported":1734541706,"current_range_meters":30000,"station_id":"ce4bgr92rcd13ifvqc7g","pricing_plan_id":"cebpf4jnsgd1na2vs0mg"},{"bike_id":"c8399855-72d4-4f25-aa5a-52a18924a7b8","system_id":"levelo_inurba_marseille","lat":43.24164,"lon":5.36396,"is_reserved":false,"is_disabled":false,"rental_uris":{"android":"levelo://app?vid=c8399855-72d4-4f25-aa5a-52a18924a7b8","ios":"levelo://app?vid=c8399855-72d4-4f25-aa5a-52a18924a7b8"},"vehicle_type_id":"4","last_reported":1734541706,"current_range_meters":38800,"station_id":"cpo36qri1sfpv3e86is0","pricing_plan_id":"cebpf4jnsgd1na2vs0mg"},{"bike_id":"f8b9f595-57de-4f40-884a-1ccbe4ed31e9","system_id":"levelo_inurba_marseille","lat":43.31686,"lon":5.40469,"is_reserved":false,"is_disabled":false,"rental_uris":{"android":"levelo://app?vid=f8b9f595-57de-4f40-884a-1ccbe4ed31e9","ios":"levelo://app?vid=f8b9f595-57de-4f40-884a-1ccbe4ed31e9"},"vehicle_type_id":"4","last_reported":1734541706,"current_range_meters":38800,"station_id":"ce4bh012rcd13ifvqd00","pricing_plan_id":"cebpf4jnsgd1na2vs0mg"},{"bike_id":"685aed44-8029-4c29-ac84-b6be7990b121","system_id":"levelo_inurba_marseille","lat":43.27948,"lon":5.41042,"is_reserved":false,"is_disabled":false,"rental_uris":{"android":"levelo://app?vid=685aed44-8029-4c29-ac84-b6be7990b121","ios":"levelo://app?vid=685aed44-8029-4c29-ac84-b6be7990b121"},"vehicle_type_id":"4","last_reported":1734541706,"current_range_meters":31200,"station_id":"ce4bhnp2rcd13ifvqh0g","pricing_plan_id":"cebpf4jnsgd1na2vs0mg"},{"bike_id":"104359e4-6a95-41ab-a2bc-a7f2629a94ba","system_id":"levelo_inurba_marseille","lat":43.27661,"lon":5.38886,"is_reserved":false,"is_disabled":false,"rental_uris":{"android":"levelo://app?vid=104359e4-6a95-41ab-a2bc-a7f2629a94ba","ios":"levelo://app?vid=104359e4-6a95-41ab-a2bc-a7f2629a94ba"},"vehicle_type_id":"4","last_reported":1734541706,"current_range_meters":28400,"station_id":"ce4bhi12rcd13ifvqfo0","pricing_plan_id":"cebpf4jnsgd1na2vs0mg"},{"bike_id":"f6c24bab-43e4-40f0-a9e8-46b309fcaecb","system_id":"levelo_inurba_marseille","lat":43.29576,"lon":5.37514,"is_reserved":false,"is_disabled":false,"rental_uris":{"android":"levelo://app?vid=f6c24bab-43e4-40f0-a9e8-46b309fcaecb","ios":"levelo://app?vid=f6c24bab-43e4-40f0-a9e8-46b309fcaecb"},"vehicle_type_id":"4","last_reported":1734541706,"current_range_meters":38800,"station_id":"ce4bgh92rcd13ifvqb50","pricing_plan_id":"cebpf4jnsgd1na2vs0mg"},{"bike_id":"107b175b-7d09-4848-bef1-c3f58f90de43","system_id":"levelo_inurba_marseille","lat":43.28739,"lon":5.37936,"is_reserved":false,"is_disabled":false,"rental_uris":{"android":"levelo://app?vid=107b175b-7d09-4848-bef1-c3f58f90de43","ios":"levelo://app?vid=107b175b-7d09-4848-bef1-c3f58f90de43"},"vehicle_type_id":"4","last_reported":1734541706,"current_range_meters":10000,"station_id":"ce4bh9p2rcd13ifvqec0","pricing_plan_id":"cebpf4jnsgd1na2vs0mg"},{"bike_id":"149f6e59-92f2-4391-ad8d-a3c211e76bb2","system_id":"levelo_inurba_marseille","lat":43.231891,"lon":5.355456,"is_reserved":false,"is_disabled":false,"rental_uris":{"android":"levelo://app?vid=149f6e59-92f2-4391-ad8d-a3c211e76bb2","ios":"levelo://app?vid=149f6e59-92f2-4391-ad8d-a3c211e76bb2"},"vehicle_type_id":"4","last_reported":1734541706,"current_range_meters":39200,"station_id":"ce4bhu92rcd13ifvqi70","pricing_plan_id":"cebpf4jnsgd1na2vs0mg"},{"bike_id":"a4e960ac-517b-4b66-b9b3-f4cddd65e283","system_id":"levelo_inurba_marseille","lat":43.290021,"lon":5.356172,"is_reserved":false,"is_disabled":false,"rental_uris":{"android":"levelo://app?vid=a4e960ac-517b-4b66-b9b3-f4cddd65e283","ios":"levelo://app?vid=a4e960ac-517b-4b66-b9b3-f4cddd65e283"},"vehicle_type_id":"4","last_reported":1734541706,"current_range_meters":8400,"station_id":"ce4bhb92rcd13ifvqen0","pricing_plan_id":"cebpf4jnsgd1na2vs0mg"},{"bike_id":"0964a333-009c-43df-a369-e7b7f1f82c22","system_id":"levelo_inurba_marseille","lat":43.30536,"lon":5.36693,"is_reserved":false,"is_disabled":true,"rental_uris":{"android":"levelo://app?vid=0964a333-009c-43df-a369-e7b7f1f82c22","ios":"levelo://app?vid=0964a333-009c-43df-a369-e7b7f1f82c22"},"vehicle_type_id":"4","last_reported":1734541706,"current_range_meters":28000,"station_id":"","pricing_plan_id":"cebpf4jnsgd1na2vs0mg"},{"bike_id":"ceec0e21-c5cb-4ae4-9e82-cfbcebfa38bb","system_id":"levelo_inurba_marseille","lat":43.31361,"lon":5.38491,"is_reserved":false,"is_disabled":false,"rental_uris":{"android":"levelo://app?vid=ceec0e21-c5cb-4ae4-9e82-cfbcebfa38bb","ios":"levelo://app?vid=ceec0e21-c5cb-4ae4-9e82-cfbcebfa38bb"},"vehicle_type_id":"4","last_reported":1734541706,"current_range_meters":6000,"station_id":"ce4bgt92rcd13ifvqcf0","pricing_plan_id":"cebpf4jnsgd1na2vs0mg"},{"bike_id":"56795d50-8d26-4766-8d9f-e01f0b85bee9","system_id":"levelo_inurba_marseille","lat":43.29059,"lon":5.37161,"is_reserved":false,"is_disabled":false,"rental_uris":{"android":"levelo://app?vid=56795d50-8d26-4766-8d9f-e01f0b85bee9","ios":"levelo://app?vid=56795d50-8d26-4766-8d9f-e01f0b85bee9"},"vehicle_type_id":"4","last_reported":1734541706,"current_range_meters":38000,"station_id":"ce4bh5p2rcd13ifvqe4g","pricing_plan_id":"cebpf4jnsgd1na2vs0mg"},{"bike_id":"9d2aefec-f4a3-4a23-a13a-c09b46ffe2e4","system_id":"levelo_inurba_marseille","lat":43.31142,"lon":5.36674,"is_reserved":false,"is_disabled":false,"rental_uris":{"android":"levelo://app?vid=9d2aefec-f4a3-4a23-a13a-c09b46ffe2e4","ios":"levelo://app?vid=9d2aefec-f4a3-4a23-a13a-c09b46ffe2e4"},"vehicle_type_id":"4","last_reported":1734541706,"current_range_meters":36800,"station_id":"","pricing_plan_id":"cebpf4jnsgd1na2vs0mg"},{"bike_id":"fb610bef-f3b1-4e06-89fc-d9543f34f28d","system_id":"levelo_inurba_marseille","lat":43.29762,"lon":5.37093,"is_reserved":false,"is_disabled":false,"rental_uris":{"android":"levelo://app?vid=fb610bef-f3b1-4e06-89fc-d9543f34f28d","ios":"levelo://app?vid=fb610bef-f3b1-4e06-89fc-d9543f34f28d"},"vehicle_type_id":"4","last_reported":1734541706,"current_range_meters":38400,"station_id":"ce4bgop2rcd13ifvqc1g","pricing_plan_id":"cebpf4jnsgd1na2vs0mg"},{"bike_id":"9e31486d-5bd1-4634-a057-ecb1ad785a96","system_id":"levelo_inurba_marseille","lat":43.26938,"lon":5.38919,"is_reserved":false,"is_disabled":false,"rental_uris":{"android":"levelo://app?vid=9e31486d-5bd1-4634-a057-ecb1ad785a96","ios":"levelo://app?vid=9e31486d-5bd1-4634-a057-ecb1ad785a96"},"vehicle_type_id":"4","last_reported":1734541706,"current_range_meters":19200,"station_id":"ce4bhhh2rcd13ifvqfl0","pricing_plan_id":"cebpf4jnsgd1na2vs0mg"},{"bike_id":"f7a1f626-d579-4021-88f0-7084ef1952e8","system_id":"levelo_inurba_marseille","lat":43.30535,"lon":5.36551,"is_reserved":false,"is_disabled":false,"rental_uris":{"android":"levelo://app?vid=f7a1f626-d579-4021-88f0-7084ef1952e8","ios":"levelo://app?vid=f7a1f626-d579-4021-88f0-7084ef1952e8"},"vehicle_type_id":"4","last_reported":1734541706,"current_range_meters":25600,"station_id":"ce4bgs12rcd13ifvqcag","pricing_plan_id":"cebpf4jnsgd1na2vs0mg"},{"bike_id":"bec80080-50e2-45ff-9b28-e961ba41cefb","system_id":"levelo_inurba_marseille","lat":43.29002,"lon":5.35604,"is_reserved":false,"is_disabled":false,"rental_uris":{"android":"levelo://app?vid=bec80080-50e2-45ff-9b28-e961ba41cefb","ios":"levelo://app?vid=bec80080-50e2-45ff-9b28-e961ba41cefb"},"vehicle_type_id":"4","last_reported":1734541706,"current_range_meters":38800,"station_id":"ce4bhb92rcd13ifvqen0","pricing_plan_id":"cebpf4jnsgd1na2vs0mg"},{"bike_id":"adedeed0-3592-4d19-98d6-39bd21012629","system_id":"levelo_inurba_marseille","lat":43.23197,"lon":5.35558,"is_reserved":false,"is_disabled":false,"rental_uris":{"android":"levelo://app?vid=adedeed0-3592-4d19-98d6-39bd21012629","ios":"levelo://app?vid=adedeed0-3592-4d19-98d6-39bd21012629"},"vehicle_type_id":"4","last_reported":1734541706,"current_range_meters":36400,"station_id":"ce4bhu92rcd13ifvqi70","pricing_plan_id":"cebpf4jnsgd1na2vs0mg"},{"bike_id":"82f7f145-591c-4ce0-8f76-660882a2845e","system_id":"levelo_inurba_marseille","lat":43.33596,"lon":5.40982,"is_reserved":false,"is_disabled":true,"rental_uris":{"android":"levelo://app?vid=82f7f145-591c-4ce0-8f76-660882a2845e","ios":"levelo://app?vid=82f7f145-591c-4ce0-8f76-660882a2845e"},"vehicle_type_id":"4","last_reported":1734541706,"current_range_meters":28400,"station_id":"ce4bhqh2rcd13ifvqhmg","pricing_plan_id":"cebpf4jnsgd1na2vs0mg"},{"bike_id":"c43144b8-701d-4fef-8260-134b7f7dba42","system_id":"levelo_inurba_marseille","lat":43.262,"lon":5.37932,"is_reserved":false,"is_disabled":true,"rental_uris":{"android":"levelo://app?vid=c43144b8-701d-4fef-8260-134b7f7dba42","ios":"levelo://app?vid=c43144b8-701d-4fef-8260-134b7f7dba42"},"vehicle_type_id":"4","last_reported":1734541706,"current_range_meters":800,"station_id":"ce4bhjp2rcd13ifvqg90","pricing_plan_id":"cebpf4jnsgd1na2vs0mg"},{"bike_id":"ac7c5f56-daad-496c-965f-9103737000e8","system_id":"levelo_inurba_marseille","lat":43.23973,"lon":5.36643,"is_reserved":false,"is_disabled":false,"rental_uris":{"android":"levelo://app?vid=ac7c5f56-daad-496c-965f-9103737000e8","ios":"levelo://app?vid=ac7c5f56-daad-496c-965f-9103737000e8"},"vehicle_type_id":"4","last_reported":1734541706,"current_range_meters":38400,"station_id":"ce4bhi12rcd13ifvqfp0","pricing_plan_id":"cebpf4jnsgd1na2vs0mg"},{"bike_id":"55eb3b8d-2227-470b-b9a8-f7520629c64b","system_id":"levelo_inurba_marseille","lat":43.30539,"lon":5.36531,"is_reserved":false,"is_disabled":false,"rental_uris":{"android":"levelo://app?vid=55eb3b8d-2227-470b-b9a8-f7520629c64b","ios":"levelo://app?vid=55eb3b8d-2227-470b-b9a8-f7520629c64b"},"vehicle_type_id":"4","last_reported":1734541706,"current_range_meters":17200,"station_id":"ce4bgs12rcd13ifvqcag","pricing_plan_id":"cebpf4jnsgd1na2vs0mg"},{"bike_id":"19d07322-c64a-461f-acf5-9f589c5bfb4f","system_id":"levelo_inurba_marseille","lat":43.3112,"lon":5.37773,"is_reserved":false,"is_disabled":true,"rental_uris":{"android":"levelo://app?vid=19d07322-c64a-461f-acf5-9f589c5bfb4f","ios":"levelo://app?vid=19d07322-c64a-461f-acf5-9f589c5bfb4f"},"vehicle_type_id":"4","last_reported":1734541706,"current_range_meters":1200,"station_id":"ce4bgt92rcd13ifvqcg0","pricing_plan_id":"cebpf4jnsgd1na2vs0mg"},{"bike_id":"d908618f-8da1-4d41-a49b-8864e8a5d208","system_id":"levelo_inurba_marseille","lat":43.24549,"lon":5.39524,"is_reserved":false,"is_disabled":false,"rental_uris":{"android":"levelo://app?vid=d908618f-8da1-4d41-a49b-8864e8a5d208","ios":"levelo://app?vid=d908618f-8da1-4d41-a49b-8864e8a5d208"},"vehicle_type_id":"4","last_reported":1734541706,"current_range_meters":27600,"station_id":"ce4bhlp2rcd13ifvqgjg","pricing_plan_id":"cebpf4jnsgd1na2vs0mg"},{"bike_id":"94dbe6ce-ba1d-41dd-b0cf-1f05a50be5b3","system_id":"levelo_inurba_marseille","lat":43.23206,"lon":5.35563,"is_reserved":false,"is_disabled":false,"rental_uris":{"android":"levelo://app?vid=94dbe6ce-ba1d-41dd-b0cf-1f05a50be5b3","ios":"levelo://app?vid=94dbe6ce-ba1d-41dd-b0cf-1f05a50be5b3"},"vehicle_type_id":"4","last_reported":1734541706,"current_range_meters":29600,"station_id":"ce4bhu92rcd13ifvqi70","pricing_plan_id":"cebpf4jnsgd1na2vs0mg"},{"bike_id":"7b305c6f-361b-46c6-bcc8-6b2d9fd084fa","system_id":"levelo_inurba_marseille","lat":43.28119,"lon":5.4422,"is_reserved":false,"is_disabled":true,"rental_uris":{"android":"levelo://app?vid=7b305c6f-361b-46c6-bcc8-6b2d9fd084fa","ios":"levelo://app?vid=7b305c6f-361b-46c6-bcc8-6b2d9fd084fa"},"vehicle_type_id":"4","last_reported":1734541706,"current_range_meters":0,"station_id":"","pricing_plan_id":"cebpf4jnsgd1na2vs0mg"},{"bike_id":"cde5e894-1056-4f83-b615-a85c94c5dc4e","system_id":"levelo_inurba_marseille","lat":43.27806,"lon":5.4071,"is_reserved":false,"is_disabled":false,"rental_uris":{"android":"levelo://app?vid=cde5e894-1056-4f83-b615-a85c94c5dc4e","ios":"levelo://app?vid=cde5e894-1056-4f83-b615-a85c94c5dc4e"},"vehicle_type_id":"4","last_reported":1734541706,"current_range_meters":20400,"station_id":"ce4bhnh2rcd13ifvqgtg","pricing_plan_id":"cebpf4jnsgd1na2vs0mg"},{"bike_id":"5e006376-15e6-4397-98fe-7fc27eb12234","system_id":"levelo_inurba_marseille","lat":43.27996,"lon":5.40026,"is_reserved":false,"is_disabled":false,"rental_uris":{"android":"levelo://app?vid=5e006376-15e6-4397-98fe-7fc27eb12234","ios":"levelo://app?vid=5e006376-15e6-4397-98fe-7fc27eb12234"},"vehicle_type_id":"4","last_reported":1734541706,"current_range_meters":24400,"station_id":"ce4bho92rcd13ifvqh4g","pricing_plan_id":"cebpf4jnsgd1na2vs0mg"},{"bike_id":"c81d12c0-b3b4-4b91-a004-bb72046d4aaa","system_id":"levelo_inurba_marseille","lat":43.29929,"lon":5.37492,"is_reserved":false,"is_disabled":false,"rental_uris":{"android":"levelo://app?vid=c81d12c0-b3b4-4b91-a004-bb72046d4aaa","ios":"levelo://app?vid=c81d12c0-b3b4-4b91-a004-bb72046d4aaa"},"vehicle_type_id":"4","last_reported":1734541706,"current_range_meters":28400,"station_id":"ce4bgjh2rcd13ifvqbg0","pricing_plan_id":"cebpf4jnsgd1na2vs0mg"},{"bike_id":"5acc2202-802d-4275-a1f8-8ae59f8fd4a3","system_id":"levelo_inurba_marseille","lat":43.26575,"lon":5.39002,"is_reserved":false,"is_disabled":false,"rental_uris":{"android":"levelo://app?vid=5acc2202-802d-4275-a1f8-8ae59f8fd4a3","ios":"levelo://app?vid=5acc2202-802d-4275-a1f8-8ae59f8fd4a3"},"vehicle_type_id":"4","last_reported":1734541706,"current_range_meters":34800,"station_id":"ce4bhe12rcd13ifvqf30","pricing_plan_id":"cebpf4jnsgd1na2vs0mg"},{"bike_id":"a7710e02-ad90-43c0-9b4c-d843cb2dd96c","system_id":"levelo_inurba_marseille","lat":43.29526,"lon":5.39033,"is_reserved":false,"is_disabled":false,"rental_uris":{"android":"levelo://app?vid=a7710e02-ad90-43c0-9b4c-d843cb2dd96c","ios":"levelo://app?vid=a7710e02-ad90-43c0-9b4c-d843cb2dd96c"},"vehicle_type_id":"4","last_reported":1734541706,"current_range_meters":29600,"station_id":"ce4bh3p2rcd13ifvqdp0","pricing_plan_id":"cebpf4jnsgd1na2vs0mg"},{"bike_id":"ee01a507-8893-4440-bbe0-75da356e3a4f","system_id":"levelo_inurba_marseille","lat":43.29898,"lon":5.38145,"is_reserved":false,"is_disabled":true,"rental_uris":{"android":"levelo://app?vid=ee01a507-8893-4440-bbe0-75da356e3a4f","ios":"levelo://app?vid=ee01a507-8893-4440-bbe0-75da356e3a4f"},"vehicle_type_id":"4","last_reported":1734541706,"current_range_meters":0,"station_id":"ce4bgj12rcd13ifvqbc0","pricing_plan_id":"cebpf4jnsgd1na2vs0mg"},{"bike_id":"c02aaa8a-5382-4c2c-8d82-fff39f6beab4","system_id":"levelo_inurba_marseille","lat":43.27367,"lon":5.36254,"is_reserved":false,"is_disabled":false,"rental_uris":{"android":"levelo://app?vid=c02aaa8a-5382-4c2c-8d82-fff39f6beab4","ios":"levelo://app?vid=c02aaa8a-5382-4c2c-8d82-fff39f6beab4"},"vehicle_type_id":"4","last_reported":1734541706,"current_range_meters":38800,"station_id":"ce4bhbh2rcd13ifvqeo0","pricing_plan_id":"cebpf4jnsgd1na2vs0mg"},{"bike_id":"db096120-123f-4da5-ad64-583f4719ba51","system_id":"levelo_inurba_marseille","lat":43.31116,"lon":5.378,"is_reserved":false,"is_disabled":true,"rental_uris":{"android":"levelo://app?vid=db096120-123f-4da5-ad64-583f4719ba51","ios":"levelo://app?vid=db096120-123f-4da5-ad64-583f4719ba51"},"vehicle_type_id":"4","last_reported":1734541706,"current_range_meters":0,"station_id":"ce4bgt92rcd13ifvqcg0","pricing_plan_id":"cebpf4jnsgd1na2vs0mg"},{"bike_id":"c965dca8-9d21-49b9-add0-eb345c116033","system_id":"levelo_inurba_marseille","lat":43.29873,"lon":5.38389,"is_reserved":false,"is_disabled":false,"rental_uris":{"android":"levelo://app?vid=c965dca8-9d21-49b9-add0-eb345c116033","ios":"levelo://app?vid=c965dca8-9d21-49b9-add0-eb345c116033"},"vehicle_type_id":"4","last_reported":1734541706,"current_range_meters":6800,"station_id":"","pricing_plan_id":"cebpf4jnsgd1na2vs0mg"},{"bike_id":"0202ef24-b792-4759-baea-d0a792040129","system_id":"levelo_inurba_marseille","lat":43.25816,"lon":5.39419,"is_reserved":false,"is_disabled":false,"rental_uris":{"android":"levelo://app?vid=0202ef24-b792-4759-baea-d0a792040129","ios":"levelo://app?vid=0202ef24-b792-4759-baea-d0a792040129"},"vehicle_type_id":"4","last_reported":1734541706,"current_range_meters":38800,"station_id":"ce4bhip2rcd13ifvqft0","pricing_plan_id":"cebpf4jnsgd1na2vs0mg"},{"bike_id":"a84e27d3-0828-484d-a1ef-d85904c16bdc","system_id":"levelo_inurba_marseille","lat":43.29265,"lon":5.38431,"is_reserved":false,"is_disabled":false,"rental_uris":{"android":"levelo://app?vid=a84e27d3-0828-484d-a1ef-d85904c16bdc","ios":"levelo://app?vid=a84e27d3-0828-484d-a1ef-d85904c16bdc"},"vehicle_type_id":"4","last_reported":1734541706,"current_range_meters":16000,"station_id":"ce4bh692rcd13ifvqea0","pricing_plan_id":"cebpf4jnsgd1na2vs0mg"},{"bike_id":"6f806eb5-e1e3-4697-b71f-5ba3b6785505","system_id":"levelo_inurba_marseille","lat":43.28458,"lon":5.35887,"is_reserved":false,"is_disabled":false,"rental_uris":{"android":"levelo://app?vid=6f806eb5-e1e3-4697-b71f-5ba3b6785505","ios":"levelo://app?vid=6f806eb5-e1e3-4697-b71f-5ba3b6785505"},"vehicle_type_id":"4","last_reported":1734541706,"current_range_meters":22800,"station_id":"ce4bhah2rcd13ifvqei0","pricing_plan_id":"cebpf4jnsgd1na2vs0mg"},{"bike_id":"f03bf3a7-d85d-4c18-bb3a-c371cea58361","system_id":"levelo_inurba_marseille","lat":43.30546,"lon":5.36541,"is_reserved":false,"is_disabled":true,"rental_uris":{"android":"levelo://app?vid=f03bf3a7-d85d-4c18-bb3a-c371cea58361","ios":"levelo://app?vid=f03bf3a7-d85d-4c18-bb3a-c371cea58361"},"vehicle_type_id":"4","last_reported":1734541706,"current_range_meters":800,"station_id":"ce4bgs12rcd13ifvqcag","pricing_plan_id":"cebpf4jnsgd1na2vs0mg"},{"bike_id":"c13edf77-2970-42c5-b0ec-391282375bc1","system_id":"levelo_inurba_marseille","lat":43.3302,"lon":5.39036,"is_reserved":false,"is_disabled":false,"rental_uris":{"android":"levelo://app?vid=c13edf77-2970-42c5-b0ec-391282375bc1","ios":"levelo://app?vid=c13edf77-2970-42c5-b0ec-391282375bc1"},"vehicle_type_id":"4","last_reported":1734541706,"current_range_meters":24000,"station_id":"ce4bhr92rcd13ifvqhrg","pricing_plan_id":"cebpf4jnsgd1na2vs0mg"},{"bike_id":"15b06ab3-5941-43b5-a9a5-ceb90aabbb54","system_id":"levelo_inurba_marseille","lat":43.22924,"lon":5.35369,"is_reserved":false,"is_disabled":false,"rental_uris":{"android":"levelo://app?vid=15b06ab3-5941-43b5-a9a5-ceb90aabbb54","ios":"levelo://app?vid=15b06ab3-5941-43b5-a9a5-ceb90aabbb54"},"vehicle_type_id":"4","last_reported":1734541706,"current_range_meters":38800,"station_id":"cpo3532slgdg3j2ikp40","pricing_plan_id":"cebpf4jnsgd1na2vs0mg"},{"bike_id":"d85a8ef0-3e26-4457-943a-90f55e137bf2","system_id":"levelo_inurba_marseille","lat":43.30549,"lon":5.3669,"is_reserved":false,"is_disabled":false,"rental_uris":{"android":"levelo://app?vid=d85a8ef0-3e26-4457-943a-90f55e137bf2","ios":"levelo://app?vid=d85a8ef0-3e26-4457-943a-90f55e137bf2"},"vehicle_type_id":"4","last_reported":1734541706,"current_range_meters":38400,"station_id":"ce4bgrp2rcd13ifvqc9g","pricing_plan_id":"cebpf4jnsgd1na2vs0mg"},{"bike_id":"e9efdce3-c6ef-413a-95d3-f15a9719b5b5","system_id":"levelo_inurba_marseille","lat":43.24391,"lon":5.37055,"is_reserved":false,"is_disabled":false,"rental_uris":{"android":"levelo://app?vid=e9efdce3-c6ef-413a-95d3-f15a9719b5b5","ios":"levelo://app?vid=e9efdce3-c6ef-413a-95d3-f15a9719b5b5"},"vehicle_type_id":"4","last_reported":1734541706,"current_range_meters":38800,"station_id":"ce4bhhh2rcd13ifvqfk0","pricing_plan_id":"cebpf4jnsgd1na2vs0mg"},{"bike_id":"e3423766-ff70-4b7b-a941-b3f451968318","system_id":"levelo_inurba_marseille","lat":43.29545,"lon":5.42275,"is_reserved":false,"is_disabled":true,"rental_uris":{"android":"levelo://app?vid=e3423766-ff70-4b7b-a941-b3f451968318","ios":"levelo://app?vid=e3423766-ff70-4b7b-a941-b3f451968318"},"vehicle_type_id":"4","last_reported":1734541706,"current_range_meters":38800,"station_id":"ce4bhph2rcd13ifvqhdg","pricing_plan_id":"cebpf4jnsgd1na2vs0mg"},{"bike_id":"ee4c4cbd-161d-40d0-b545-1983eed33917","system_id":"levelo_inurba_marseille","lat":43.27368,"lon":5.36258,"is_reserved":false,"is_disabled":true,"rental_uris":{"android":"levelo://app?vid=ee4c4cbd-161d-40d0-b545-1983eed33917","ios":"levelo://app?vid=ee4c4cbd-161d-40d0-b545-1983eed33917"},"vehicle_type_id":"4","last_reported":1734541706,"current_range_meters":0,"station_id":"ce4bhbh2rcd13ifvqeo0","pricing_plan_id":"cebpf4jnsgd1na2vs0mg"},{"bike_id":"e3aa5bba-154e-46ea-aa76-06672844f11e","system_id":"levelo_inurba_marseille","lat":43.27613,"lon":5.36105,"is_reserved":false,"is_disabled":false,"rental_uris":{"android":"levelo://app?vid=e3aa5bba-154e-46ea-aa76-06672844f11e","ios":"levelo://app?vid=e3aa5bba-154e-46ea-aa76-06672844f11e"},"vehicle_type_id":"4","last_reported":1734541706,"current_range_meters":38800,"station_id":"ce4bgj92rcd13ifvqbe0","pricing_plan_id":"cebpf4jnsgd1na2vs0mg"},{"bike_id":"dda38de9-f2fc-4b22-ab17-c69940e2958f","system_id":"levelo_inurba_marseille","lat":43.23196,"lon":5.35555,"is_reserved":false,"is_disabled":false,"rental_uris":{"android":"levelo://app?vid=dda38de9-f2fc-4b22-ab17-c69940e2958f","ios":"levelo://app?vid=dda38de9-f2fc-4b22-ab17-c69940e2958f"},"vehicle_type_id":"4","last_reported":1734541706,"current_range_meters":23200,"station_id":"ce4bhu92rcd13ifvqi70","pricing_plan_id":"cebpf4jnsgd1na2vs0mg"},{"bike_id":"ec917d1f-8be0-4554-9986-6fcd7ca75c49","system_id":"levelo_inurba_marseille","lat":43.29177,"lon":5.3715,"is_reserved":false,"is_disabled":false,"rental_uris":{"android":"levelo://app?vid=ec917d1f-8be0-4554-9986-6fcd7ca75c49","ios":"levelo://app?vid=ec917d1f-8be0-4554-9986-6fcd7ca75c49"},"vehicle_type_id":"4","last_reported":1734541706,"current_range_meters":8800,"station_id":"ce4bha92rcd13ifvqeh0","pricing_plan_id":"cebpf4jnsgd1na2vs0mg"},{"bike_id":"0c284a21-eaa4-42e6-b4eb-153076ef1c17","system_id":"levelo_inurba_marseille","lat":43.27834,"lon":5.39209,"is_reserved":false,"is_disabled":true,"rental_uris":{"android":"levelo://app?vid=0c284a21-eaa4-42e6-b4eb-153076ef1c17","ios":"levelo://app?vid=0c284a21-eaa4-42e6-b4eb-153076ef1c17"},"vehicle_type_id":"4","last_reported":1734541706,"current_range_meters":1200,"station_id":"ce4bhjp2rcd13ifvqga0","pricing_plan_id":"cebpf4jnsgd1na2vs0mg"},{"bike_id":"a4eb1442-f48e-414c-9161-5ca64584f15e","system_id":"levelo_inurba_marseille","lat":43.31682,"lon":5.40476,"is_reserved":false,"is_disabled":false,"rental_uris":{"android":"levelo://app?vid=a4eb1442-f48e-414c-9161-5ca64584f15e","ios":"levelo://app?vid=a4eb1442-f48e-414c-9161-5ca64584f15e"},"vehicle_type_id":"4","last_reported":1734541706,"current_range_meters":32000,"station_id":"","pricing_plan_id":"cebpf4jnsgd1na2vs0mg"},{"bike_id":"426d94a0-406b-49cc-819a-dc24aed27380","system_id":"levelo_inurba_marseille","lat":43.26565,"lon":5.39008,"is_reserved":false,"is_disabled":false,"rental_uris":{"android":"levelo://app?vid=426d94a0-406b-49cc-819a-dc24aed27380","ios":"levelo://app?vid=426d94a0-406b-49cc-819a-dc24aed27380"},"vehicle_type_id":"4","last_reported":1734541706,"current_range_meters":14000,"station_id":"ce4bhe12rcd13ifvqf30","pricing_plan_id":"cebpf4jnsgd1na2vs0mg"},{"bike_id":"104a0529-c991-4a35-b60f-a187666692b8","system_id":"levelo_inurba_marseille","lat":43.29191,"lon":5.35803,"is_reserved":false,"is_disabled":false,"rental_uris":{"android":"levelo://app?vid=104a0529-c991-4a35-b60f-a187666692b8","ios":"levelo://app?vid=104a0529-c991-4a35-b60f-a187666692b8"},"vehicle_type_id":"4","last_reported":1734541706,"current_range_meters":11600,"station_id":"ce4bhb12rcd13ifvqel0","pricing_plan_id":"cebpf4jnsgd1na2vs0mg"},{"bike_id":"1c4127b9-486f-41b4-8296-37dda68e98bf","system_id":"levelo_inurba_marseille","lat":43.23128,"lon":5.35448,"is_reserved":false,"is_disabled":false,"rental_uris":{"android":"levelo://app?vid=1c4127b9-486f-41b4-8296-37dda68e98bf","ios":"levelo://app?vid=1c4127b9-486f-41b4-8296-37dda68e98bf"},"vehicle_type_id":"4","last_reported":1734541706,"current_range_meters":36000,"station_id":"cpo3342slgdg3j2ifvpg","pricing_plan_id":"cebpf4jnsgd1na2vs0mg"},{"bike_id":"47c8d280-a3ee-43ef-8691-72d298c93f9e","system_id":"levelo_inurba_marseille","lat":43.30555,"lon":5.36691,"is_reserved":false,"is_disabled":false,"rental_uris":{"android":"levelo://app?vid=47c8d280-a3ee-43ef-8691-72d298c93f9e","ios":"levelo://app?vid=47c8d280-a3ee-43ef-8691-72d298c93f9e"},"vehicle_type_id":"4","last_reported":1734541706,"current_range_meters":38800,"station_id":"ce4bgrp2rcd13ifvqc9g","pricing_plan_id":"cebpf4jnsgd1na2vs0mg"},{"bike_id":"72ebafc3-84a0-418a-86d3-5d8520b49030","system_id":"levelo_inurba_marseille","lat":43.28728,"lon":5.36076,"is_reserved":false,"is_disabled":false,"rental_uris":{"android":"levelo://app?vid=72ebafc3-84a0-418a-86d3-5d8520b49030","ios":"levelo://app?vid=72ebafc3-84a0-418a-86d3-5d8520b49030"},"vehicle_type_id":"4","last_reported":1734541706,"current_range_meters":38800,"station_id":"cki0cbj6b192h4jlfktg","pricing_plan_id":"cebpf4jnsgd1na2vs0mg"},{"bike_id":"5f45dd8a-4072-49d6-af7f-e10061df7f9d","system_id":"levelo_inurba_marseille","lat":43.28578,"lon":5.395,"is_reserved":false,"is_disabled":false,"rental_uris":{"android":"levelo://app?vid=5f45dd8a-4072-49d6-af7f-e10061df7f9d","ios":"levelo://app?vid=5f45dd8a-4072-49d6-af7f-e10061df7f9d"},"vehicle_type_id":"4","last_reported":1734541706,"current_range_meters":37600,"station_id":"ce4bh292rcd13ifvqdg0","pricing_plan_id":"cebpf4jnsgd1na2vs0mg"},{"bike_id":"ddde197a-b6b1-4dea-8787-99f0c140b515","system_id":"levelo_inurba_marseille","lat":43.28662,"lon":5.36354,"is_reserved":false,"is_disabled":false,"rental_uris":{"android":"levelo://app?vid=ddde197a-b6b1-4dea-8787-99f0c140b515","ios":"levelo://app?vid=ddde197a-b6b1-4dea-8787-99f0c140b515"},"vehicle_type_id":"4","last_reported":1734541706,"current_range_meters":20800,"station_id":"ce4bhah2rcd13ifvqej0","pricing_plan_id":"cebpf4jnsgd1na2vs0mg"},{"bike_id":"3573bed3-bc23-45dc-b179-94817c29ba65","system_id":"levelo_inurba_marseille","lat":43.28846,"lon":5.35863,"is_reserved":false,"is_disabled":false,"rental_uris":{"android":"levelo://app?vid=3573bed3-bc23-45dc-b179-94817c29ba65","ios":"levelo://app?vid=3573bed3-bc23-45dc-b179-94817c29ba65"},"vehicle_type_id":"4","last_reported":1734541706,"current_range_meters":38800,"station_id":"ce4bhb12rcd13ifvqem0","pricing_plan_id":"cebpf4jnsgd1na2vs0mg"},{"bike_id":"6e6c545f-1609-49d3-a6f4-564ee1952fc2","system_id":"levelo_inurba_marseille","lat":43.2953,"lon":5.38542,"is_reserved":false,"is_disabled":false,"rental_uris":{"android":"levelo://app?vid=6e6c545f-1609-49d3-a6f4-564ee1952fc2","ios":"levelo://app?vid=6e6c545f-1609-49d3-a6f4-564ee1952fc2"},"vehicle_type_id":"4","last_reported":1734541706,"current_range_meters":14800,"station_id":"ce4bgih2rcd13ifvqba0","pricing_plan_id":"cebpf4jnsgd1na2vs0mg"},{"bike_id":"b5389020-b1f0-4e16-878a-95dddceecd74","system_id":"levelo_inurba_marseille","lat":43.29441,"lon":5.39745,"is_reserved":false,"is_disabled":false,"rental_uris":{"android":"levelo://app?vid=b5389020-b1f0-4e16-878a-95dddceecd74","ios":"levelo://app?vid=b5389020-b1f0-4e16-878a-95dddceecd74"},"vehicle_type_id":"4","last_reported":1734541706,"current_range_meters":35600,"station_id":"ce4bh3h2rcd13ifvqdo0","pricing_plan_id":"cebpf4jnsgd1na2vs0mg"},{"bike_id":"bb8b3d2a-67f2-4df9-8ec2-f4d27a96656a","system_id":"levelo_inurba_marseille","lat":43.31051,"lon":5.37136,"is_reserved":false,"is_disabled":false,"rental_uris":{"android":"levelo://app?vid=bb8b3d2a-67f2-4df9-8ec2-f4d27a96656a","ios":"levelo://app?vid=bb8b3d2a-67f2-4df9-8ec2-f4d27a96656a"},"vehicle_type_id":"4","last_reported":1734541706,"current_range_meters":28800,"station_id":"","pricing_plan_id":"cebpf4jnsgd1na2vs0mg"},{"bike_id":"df14045e-8e73-442d-8baf-7ce7c5ec81fd","system_id":"levelo_inurba_marseille","lat":43.24173,"lon":5.3641,"is_reserved":false,"is_disabled":false,"rental_uris":{"android":"levelo://app?vid=df14045e-8e73-442d-8baf-7ce7c5ec81fd","ios":"levelo://app?vid=df14045e-8e73-442d-8baf-7ce7c5ec81fd"},"vehicle_type_id":"4","last_reported":1734541706,"current_range_meters":38800,"station_id":"cpo36qri1sfpv3e86is0","pricing_plan_id":"cebpf4jnsgd1na2vs0mg"},{"bike_id":"18980bd8-e644-4304-9929-7462c6c998ea","system_id":"levelo_inurba_marseille","lat":43.29515,"lon":5.37489,"is_reserved":false,"is_disabled":true,"rental_uris":{"android":"levelo://app?vid=18980bd8-e644-4304-9929-7462c6c998ea","ios":"levelo://app?vid=18980bd8-e644-4304-9929-7462c6c998ea"},"vehicle_type_id":"4","last_reported":1734541706,"current_range_meters":30400,"station_id":"ce4bgkp2rcd13ifvqbmg","pricing_plan_id":"cebpf4jnsgd1na2vs0mg"},{"bike_id":"660020b3-e74b-4a4b-98ae-93d899dfdddf","system_id":"levelo_inurba_marseille","lat":43.27318,"lon":5.39069,"is_reserved":false,"is_disabled":true,"rental_uris":{"android":"levelo://app?vid=660020b3-e74b-4a4b-98ae-93d899dfdddf","ios":"levelo://app?vid=660020b3-e74b-4a4b-98ae-93d899dfdddf"},"vehicle_type_id":"4","last_reported":1734541706,"current_range_meters":0,"station_id":"ce4bhgp2rcd13ifvqfe0","pricing_plan_id":"cebpf4jnsgd1na2vs0mg"},{"bike_id":"606fccef-83d2-4924-bb4a-30d56e9f775f","system_id":"levelo_inurba_marseille","lat":43.30554,"lon":5.36703,"is_reserved":false,"is_disabled":false,"rental_uris":{"android":"levelo://app?vid=606fccef-83d2-4924-bb4a-30d56e9f775f","ios":"levelo://app?vid=606fccef-83d2-4924-bb4a-30d56e9f775f"},"vehicle_type_id":"4","last_reported":1734541706,"current_range_meters":18800,"station_id":"ce4bgrp2rcd13ifvqc9g","pricing_plan_id":"cebpf4jnsgd1na2vs0mg"},{"bike_id":"5c943dae-94ef-41d4-ac61-d384f5dec745","system_id":"levelo_inurba_marseille","lat":43.3176,"lon":5.39017,"is_reserved":false,"is_disabled":false,"rental_uris":{"android":"levelo://app?vid=5c943dae-94ef-41d4-ac61-d384f5dec745","ios":"levelo://app?vid=5c943dae-94ef-41d4-ac61-d384f5dec745"},"vehicle_type_id":"4","last_reported":1734541706,"current_range_meters":34000,"station_id":"ce4bhqp2rcd13ifvqhng","pricing_plan_id":"cebpf4jnsgd1na2vs0mg"},{"bike_id":"c1890551-6fbc-46c5-98e2-ebdde4a2eb4a","system_id":"levelo_inurba_marseille","lat":43.25082,"lon":5.39511,"is_reserved":false,"is_disabled":false,"rental_uris":{"android":"levelo://app?vid=c1890551-6fbc-46c5-98e2-ebdde4a2eb4a","ios":"levelo://app?vid=c1890551-6fbc-46c5-98e2-ebdde4a2eb4a"},"vehicle_type_id":"4","last_reported":1734541706,"current_range_meters":39200,"station_id":"ce4bhm12rcd13ifvqgkg","pricing_plan_id":"cebpf4jnsgd1na2vs0mg"},{"bike_id":"bd1ba168-d6d4-4983-998d-9e5c5bf117ec","system_id":"levelo_inurba_marseille","lat":43.2826,"lon":5.35054,"is_reserved":false,"is_disabled":false,"rental_uris":{"android":"levelo://app?vid=bd1ba168-d6d4-4983-998d-9e5c5bf117ec","ios":"levelo://app?vid=bd1ba168-d6d4-4983-998d-9e5c5bf117ec"},"vehicle_type_id":"4","last_reported":1734541706,"current_range_meters":20000,"station_id":"ce4bhbp2rcd13ifvqerg","pricing_plan_id":"cebpf4jnsgd1na2vs0mg"},{"bike_id":"c2100899-5854-45d5-93ef-7bb5db253e91","system_id":"levelo_inurba_marseille","lat":43.23413,"lon":5.35934,"is_reserved":false,"is_disabled":false,"rental_uris":{"android":"levelo://app?vid=c2100899-5854-45d5-93ef-7bb5db253e91","ios":"levelo://app?vid=c2100899-5854-45d5-93ef-7bb5db253e91"},"vehicle_type_id":"4","last_reported":1734541706,"current_range_meters":20800,"station_id":"","pricing_plan_id":"cebpf4jnsgd1na2vs0mg"},{"bike_id":"e0b2aca7-c6a3-4a45-acef-b71094abc689","system_id":"levelo_inurba_marseille","lat":43.303125,"lon":5.369094,"is_reserved":false,"is_disabled":true,"rental_uris":{"android":"levelo://app?vid=e0b2aca7-c6a3-4a45-acef-b71094abc689","ios":"levelo://app?vid=e0b2aca7-c6a3-4a45-acef-b71094abc689"},"vehicle_type_id":"4","last_reported":1734541706,"current_range_meters":0,"station_id":"","pricing_plan_id":"cebpf4jnsgd1na2vs0mg"},{"bike_id":"0b21b101-f6d2-4183-8fd5-0506c4f37acd","system_id":"levelo_inurba_marseille","lat":43.27497,"lon":5.4246,"is_reserved":false,"is_disabled":true,"rental_uris":{"android":"levelo://app?vid=0b21b101-f6d2-4183-8fd5-0506c4f37acd","ios":"levelo://app?vid=0b21b101-f6d2-4183-8fd5-0506c4f37acd"},"vehicle_type_id":"4","last_reported":1734541706,"current_range_meters":0,"station_id":"ce4bhn92rcd13ifvqgrg","pricing_plan_id":"cebpf4jnsgd1na2vs0mg"},{"bike_id":"88773bcf-9aa4-4aec-8fd2-4e72b491ac42","system_id":"levelo_inurba_marseille","lat":43.29298,"lon":5.37453,"is_reserved":false,"is_disabled":false,"rental_uris":{"android":"levelo://app?vid=88773bcf-9aa4-4aec-8fd2-4e72b491ac42","ios":"levelo://app?vid=88773bcf-9aa4-4aec-8fd2-4e72b491ac42"},"vehicle_type_id":"4","last_reported":1734541706,"current_range_meters":25200,"station_id":"ce4bgi12rcd13ifvqb70","pricing_plan_id":"cebpf4jnsgd1na2vs0mg"},{"bike_id":"70f8d415-7cca-4b3d-aade-c6cab3905398","system_id":"levelo_inurba_marseille","lat":43.29784,"lon":5.37101,"is_reserved":false,"is_disabled":false,"rental_uris":{"android":"levelo://app?vid=70f8d415-7cca-4b3d-aade-c6cab3905398","ios":"levelo://app?vid=70f8d415-7cca-4b3d-aade-c6cab3905398"},"vehicle_type_id":"4","last_reported":1734541706,"current_range_meters":32400,"station_id":"ce4bgop2rcd13ifvqc1g","pricing_plan_id":"cebpf4jnsgd1na2vs0mg"},{"bike_id":"3d0bff93-6c4c-479f-8654-33f936c72517","system_id":"levelo_inurba_marseille","lat":43.3031,"lon":5.40394,"is_reserved":false,"is_disabled":false,"rental_uris":{"android":"levelo://app?vid=3d0bff93-6c4c-479f-8654-33f936c72517","ios":"levelo://app?vid=3d0bff93-6c4c-479f-8654-33f936c72517"},"vehicle_type_id":"4","last_reported":1734541706,"current_range_meters":39200,"station_id":"ce4bh012rcd13ifvqd10","pricing_plan_id":"cebpf4jnsgd1na2vs0mg"},{"bike_id":"c2ca4e66-2846-4547-9cd2-5d2f212f27c5","system_id":"levelo_inurba_marseille","lat":43.29003,"lon":5.35606,"is_reserved":false,"is_disabled":false,"rental_uris":{"android":"levelo://app?vid=c2ca4e66-2846-4547-9cd2-5d2f212f27c5","ios":"levelo://app?vid=c2ca4e66-2846-4547-9cd2-5d2f212f27c5"},"vehicle_type_id":"4","last_reported":1734541706,"current_range_meters":8800,"station_id":"ce4bhb92rcd13ifvqen0","pricing_plan_id":"cebpf4jnsgd1na2vs0mg"},{"bike_id":"fa72d921-c600-4eaf-b2ad-dc3eed0e18f3","system_id":"levelo_inurba_marseille","lat":43.28152,"lon":5.42641,"is_reserved":false,"is_disabled":false,"rental_uris":{"android":"levelo://app?vid=fa72d921-c600-4eaf-b2ad-dc3eed0e18f3","ios":"levelo://app?vid=fa72d921-c600-4eaf-b2ad-dc3eed0e18f3"},"vehicle_type_id":"4","last_reported":1734541706,"current_range_meters":22000,"station_id":"ce4bhnh2rcd13ifvqgug","pricing_plan_id":"cebpf4jnsgd1na2vs0mg"},{"bike_id":"5667b6f8-e154-4774-8c3c-5b07cb96ea47","system_id":"levelo_inurba_marseille","lat":43.28002,"lon":5.40014,"is_reserved":false,"is_disabled":false,"rental_uris":{"android":"levelo://app?vid=5667b6f8-e154-4774-8c3c-5b07cb96ea47","ios":"levelo://app?vid=5667b6f8-e154-4774-8c3c-5b07cb96ea47"},"vehicle_type_id":"4","last_reported":1734541706,"current_range_meters":7200,"station_id":"ce4bho92rcd13ifvqh4g","pricing_plan_id":"cebpf4jnsgd1na2vs0mg"},{"bike_id":"f34ee23b-f6f8-49f2-b962-0c5b765f18b8","system_id":"levelo_inurba_marseille","lat":43.30957,"lon":5.39034,"is_reserved":false,"is_disabled":true,"rental_uris":{"android":"levelo://app?vid=f34ee23b-f6f8-49f2-b962-0c5b765f18b8","ios":"levelo://app?vid=f34ee23b-f6f8-49f2-b962-0c5b765f18b8"},"vehicle_type_id":"4","last_reported":1734541706,"current_range_meters":30800,"station_id":"ce4bgup2rcd13ifvqco0","pricing_plan_id":"cebpf4jnsgd1na2vs0mg"},{"bike_id":"fe99903b-e1b0-443f-8d67-cce944ba4ebc","system_id":"levelo_inurba_marseille","lat":43.30552,"lon":5.36535,"is_reserved":false,"is_disabled":false,"rental_uris":{"android":"levelo://app?vid=fe99903b-e1b0-443f-8d67-cce944ba4ebc","ios":"levelo://app?vid=fe99903b-e1b0-443f-8d67-cce944ba4ebc"},"vehicle_type_id":"4","last_reported":1734541706,"current_range_meters":22800,"station_id":"ce4bgs12rcd13ifvqcag","pricing_plan_id":"cebpf4jnsgd1na2vs0mg"},{"bike_id":"ffb1d736-39d8-437f-8f2d-7b7055f6acf6","system_id":"levelo_inurba_marseille","lat":43.26572,"lon":5.37241,"is_reserved":false,"is_disabled":false,"rental_uris":{"android":"levelo://app?vid=ffb1d736-39d8-437f-8f2d-7b7055f6acf6","ios":"levelo://app?vid=ffb1d736-39d8-437f-8f2d-7b7055f6acf6"},"vehicle_type_id":"4","last_reported":1734541706,"current_range_meters":24800,"station_id":"ce4bhg12rcd13ifvqf70","pricing_plan_id":"cebpf4jnsgd1na2vs0mg"},{"bike_id":"6b3733d4-4008-4899-9474-c353e4f86222","system_id":"levelo_inurba_marseille","lat":43.26943,"lon":5.40259,"is_reserved":false,"is_disabled":false,"rental_uris":{"android":"levelo://app?vid=6b3733d4-4008-4899-9474-c353e4f86222","ios":"levelo://app?vid=6b3733d4-4008-4899-9474-c353e4f86222"},"vehicle_type_id":"4","last_reported":1734541706,"current_range_meters":8800,"station_id":"cjm6bp8fraef2m0cb0m0","pricing_plan_id":"cebpf4jnsgd1na2vs0mg"},{"bike_id":"20638e43-6636-4216-8922-f231f4804b00","system_id":"levelo_inurba_marseille","lat":43.25819,"lon":5.39434,"is_reserved":false,"is_disabled":false,"rental_uris":{"android":"levelo://app?vid=20638e43-6636-4216-8922-f231f4804b00","ios":"levelo://app?vid=20638e43-6636-4216-8922-f231f4804b00"},"vehicle_type_id":"4","last_reported":1734541706,"current_range_meters":20800,"station_id":"ce4bhip2rcd13ifvqft0","pricing_plan_id":"cebpf4jnsgd1na2vs0mg"},{"bike_id":"b24d1790-6919-4969-a87b-1275d5af6c39","system_id":"levelo_inurba_marseille","lat":43.28073,"lon":5.39659,"is_reserved":false,"is_disabled":false,"rental_uris":{"android":"levelo://app?vid=b24d1790-6919-4969-a87b-1275d5af6c39","ios":"levelo://app?vid=b24d1790-6919-4969-a87b-1275d5af6c39"},"vehicle_type_id":"4","last_reported":1734541706,"current_range_meters":17200,"station_id":"ce4bho12rcd13ifvqh2g","pricing_plan_id":"cebpf4jnsgd1na2vs0mg"},{"bike_id":"f01fec6d-34bb-4b08-8c02-10aa97639d82","system_id":"levelo_inurba_marseille","lat":43.28564,"lon":5.39502,"is_reserved":false,"is_disabled":false,"rental_uris":{"android":"levelo://app?vid=f01fec6d-34bb-4b08-8c02-10aa97639d82","ios":"levelo://app?vid=f01fec6d-34bb-4b08-8c02-10aa97639d82"},"vehicle_type_id":"4","last_reported":1734541706,"current_range_meters":33200,"station_id":"ce4bh292rcd13ifvqdg0","pricing_plan_id":"cebpf4jnsgd1na2vs0mg"},{"bike_id":"5da27d02-45c8-406e-a62a-e49978b2f2ce","system_id":"levelo_inurba_marseille","lat":43.29195,"lon":5.35802,"is_reserved":false,"is_disabled":false,"rental_uris":{"android":"levelo://app?vid=5da27d02-45c8-406e-a62a-e49978b2f2ce","ios":"levelo://app?vid=5da27d02-45c8-406e-a62a-e49978b2f2ce"},"vehicle_type_id":"4","last_reported":1734541706,"current_range_meters":38800,"station_id":"ce4bhb12rcd13ifvqel0","pricing_plan_id":"cebpf4jnsgd1na2vs0mg"},{"bike_id":"87ec5743-2787-4fd2-99a8-16217c63f6bb","system_id":"levelo_inurba_marseille","lat":43.31506,"lon":5.37295,"is_reserved":false,"is_disabled":false,"rental_uris":{"android":"levelo://app?vid=87ec5743-2787-4fd2-99a8-16217c63f6bb","ios":"levelo://app?vid=87ec5743-2787-4fd2-99a8-16217c63f6bb"},"vehicle_type_id":"4","last_reported":1734541706,"current_range_meters":10800,"station_id":"ce4bgt12rcd13ifvqcd0","pricing_plan_id":"cebpf4jnsgd1na2vs0mg"},{"bike_id":"19fdfde3-1106-4c9f-aa83-c033c535965a","system_id":"levelo_inurba_marseille","lat":43.27976,"lon":5.38738,"is_reserved":false,"is_disabled":true,"rental_uris":{"android":"levelo://app?vid=19fdfde3-1106-4c9f-aa83-c033c535965a","ios":"levelo://app?vid=19fdfde3-1106-4c9f-aa83-c033c535965a"},"vehicle_type_id":"4","last_reported":1734541706,"current_range_meters":2000,"station_id":"ce4bhg12rcd13ifvqf80","pricing_plan_id":"cebpf4jnsgd1na2vs0mg"},{"bike_id":"6ef40d34-217a-48f8-a32f-f523ce67eeb8","system_id":"levelo_inurba_marseille","lat":43.25412,"lon":5.38523,"is_reserved":false,"is_disabled":false,"rental_uris":{"android":"levelo://app?vid=6ef40d34-217a-48f8-a32f-f523ce67eeb8","ios":"levelo://app?vid=6ef40d34-217a-48f8-a32f-f523ce67eeb8"},