{"last_updated":1734214074,"ttl":60,"version":"2.2","data":{"bikes":[{"bike_id":"45c22bfb-3859-46ca-bbdd-b43970628095","system_id":"levelo_inurba_marseille","lat":43.23188,"lon":5.39996,"is_reserved":false,"is_disabled":false,"rental_uris":{"android":"levelo://app?vid=45c22bfb-3859-46ca-bbdd-b43970628095","ios":"levelo://app?vid=45c22bfb-3859-46ca-bbdd-b43970628095"},"vehicle_type_id":"4","last_reported":1734214075,"current_range_meters":20000,"station_id":"ce4bhn12rcd13ifvqgqg","pricing_plan_id":"cebpf4jnsgd1na2vs0mg"},{"bike_id":"646d615d-b8ef-4796-822a-34bd6dbc380a","system_id":"levelo_inurba_marseille","lat":43.26791,"lon":5.39433,"is_reserved":false,"is_disabled":false,"rental_uris":{"android":"levelo://app?vid=646d615d-b8ef-4796-822a-34bd6dbc380a","ios":"levelo://app?vid=646d615d-b8ef-4796-822a-34bd6dbc380a"},"vehicle_type_id":"4","last_reported":1734214075,"current_range_meters":38800,"station_id":"ce4bhh12rcd13ifvqfg0","pricing_plan_id":"cebpf4jnsgd1na2vs0mg"},{"bike_id":"50b3a443-a67d-4bc4-85df-95f6908841be","system_id":"levelo_inurba_marseille","lat":43.23192,"lon":5.35562,"is_reserved":false,"is_disabled":false,"rental_uris":{"android":"levelo://app?vid=50b3a443-a67d-4bc4-85df-95f6908841be","ios":"levelo://app?vid=50b3a443-a67d-4bc4-85df-95f6908841be"},"vehicle_type_id":"4","last_reported":1734214075,"current_range_meters":16800,"station_id":"ce4bhu92rcd13ifvqi70","pricing_plan_id":"cebpf4jnsgd1na2vs0mg"},{"bike_id":"8480ec53-09b0-4a33-a9d6-134f5c6764fa","system_id":"levelo_inurba_marseille","lat":43.29303,"lon":5.37455,"is_reserved":false,"is_disabled":false,"rental_uris":{"android":"levelo://app?vid=8480ec53-09b0-4a33-a9d6-134f5c6764fa","ios":"levelo://app?vid=8480ec53-09b0-4a33-a9d6-134f5c6764fa"},"vehicle_type_id":"4","last_reported":1734214075,"current_range_meters":35200,"station_id":"ce4bgi12rcd13ifvqb70","pricing_plan_id":"cebpf4jnsgd1na2vs0mg"},{"bike_id":"ed9edba7-d3f1-4e95-8555-1252dbf70dce","system_id":"levelo_inurba_marseille","lat":43.27547,"lon":5.38464,"is_reserved":false,"is_disabled":true,"rental_uris":{"android":"levelo://app?vid=ed9edba7-d3f1-4e95-8555-1252dbf70dce","ios":"levelo://app?vid=ed9edba7-d3f1-4e95-8555-1252dbf70dce"},"vehicle_type_id":"4","last_reported":1734214075,"current_range_meters":38400,"station_id":"ce4bhh92rcd13ifvqfi0","pricing_plan_id":"cebpf4jnsgd1na2vs0mg"},{"bike_id":"767bd7f7-f068-49b4-a91d-aee7712bfd36","system_id":"levelo_inurba_marseille","lat":43.314927,"lon":5.373043,"is_reserved":false,"is_disabled":false,"rental_uris":{"android":"levelo://app?vid=767bd7f7-f068-49b4-a91d-aee7712bfd36","ios":"levelo://app?vid=767bd7f7-f068-49b4-a91d-aee7712bfd36"},"vehicle_type_id":"4","last_reported":1734214075,"current_range_meters":38800,"station_id":"ce4bgt12rcd13ifvqcd0","pricing_plan_id":"cebpf4jnsgd1na2vs0mg"},{"bike_id":"35642114-ba9f-4cd0-9d6f-a2edaa6e597b","system_id":"levelo_inurba_marseille","lat":43.30458,"lon":5.37903,"is_reserved":false,"is_disabled":false,"rental_uris":{"android":"levelo://app?vid=35642114-ba9f-4cd0-9d6f-a2edaa6e597b","ios":"levelo://app?vid=35642114-ba9f-4cd0-9d6f-a2edaa6e597b"},"vehicle_type_id":"4","last_reported":1734214075,"current_range_meters":10800,"station_id":"ce4bgup2rcd13ifvqcn0","pricing_plan_id":"cebpf4jnsgd1na2vs0mg"},{"bike_id":"b9909b1b-7dc0-43e0-9eac-af3c1c280ed0","system_id":"levelo_inurba_marseille","lat":43.29117,"lon":5.3576,"is_reserved":false,"is_disabled":false,"rental_uris":{"android":"levelo://app?vid=b9909b1b-7dc0-43e0-9eac-af3c1c280ed0","ios":"levelo://app?vid=b9909b1b-7dc0-43e0-9eac-af3c1c280ed0"},"vehicle_type_id":"4","last_reported":1734214075,"current_range_meters":11200,"station_id":"","pricing_plan_id":"cebpf4jnsgd1na2vs0mg"},{"bike_id":"a5df68ae-5bff-4473-86b9-d03b0d9fbbc3","system_id":"levelo_inurba_marseille","lat":43.28929,"lon":5.36637,"is_reserved":false,"is_disabled":false,"rental_uris":{"android":"levelo://app?vid=a5df68ae-5bff-4473-86b9-d03b0d9fbbc3","ios":"levelo://app?vid=a5df68ae-5bff-4473-86b9-d03b0d9fbbc3"},"vehicle_type_id":"4","last_reported":1734214075,"current_range_meters":23200,"station_id":"ce4bhap2rcd13ifvqek0","pricing_plan_id":"cebpf4jnsgd1na2vs0mg"},{"bike_id":"beeec7ad-5e77-4e6c-9ca8-0f54ebdb7091","system_id":"levelo_inurba_marseille","lat":43.30121,"lon":5.37455,"is_reserved":false,"is_disabled":false,"rental_uris":{"android":"levelo://app?vid=beeec7ad-5e77-4e6c-9ca8-0f54ebdb7091","ios":"levelo://app?vid=beeec7ad-5e77-4e6c-9ca8-0f54ebdb7091"},"vehicle_type_id":"4","last_reported":1734214075,"current_range_meters":27600,"station_id":"ce4bgs92rcd13ifvqcc0","pricing_plan_id":"cebpf4jnsgd1na2vs0mg"},{"bike_id":"7e41dbd6-3507-468e-887e-e234b87ef752","system_id":"levelo_inurba_marseille","lat":43.29372,"lon":5.37853,"is_reserved":false,"is_disabled":false,"rental_uris":{"android":"levelo://app?vid=7e41dbd6-3507-468e-887e-e234b87ef752","ios":"levelo://app?vid=7e41dbd6-3507-468e-887e-e234b87ef752"},"vehicle_type_id":"4","last_reported":1734214075,"current_range_meters":35600,"station_id":"ce4bgjh2rcd13ifvqbf0","pricing_plan_id":"cebpf4jnsgd1na2vs0mg"},{"bike_id":"023e9fe7-d71a-46b0-96c7-778e7c2b1925","system_id":"levelo_inurba_marseille","lat":43.30134,"lon":5.38778,"is_reserved":false,"is_disabled":false,"rental_uris":{"android":"levelo://app?vid=023e9fe7-d71a-46b0-96c7-778e7c2b1925","ios":"levelo://app?vid=023e9fe7-d71a-46b0-96c7-778e7c2b1925"},"vehicle_type_id":"4","last_reported":1734214075,"current_range_meters":22000,"station_id":"ce4bhoh2rcd13ifvqh6g","pricing_plan_id":"cebpf4jnsgd1na2vs0mg"},{"bike_id":"2aabb9e3-ae45-4b17-b10d-af50e235d80a","system_id":"levelo_inurba_marseille","lat":43.26788,"lon":5.39926,"is_reserved":false,"is_disabled":true,"rental_uris":{"android":"levelo://app?vid=2aabb9e3-ae45-4b17-b10d-af50e235d80a","ios":"levelo://app?vid=2aabb9e3-ae45-4b17-b10d-af50e235d80a"},"vehicle_type_id":"4","last_reported":1734214075,"current_range_meters":0,"station_id":"","pricing_plan_id":"cebpf4jnsgd1na2vs0mg"},{"bike_id":"707fb3ca-9aaa-4891-90ae-4a971299a89a","system_id":"levelo_inurba_marseille","lat":43.29883,"lon":5.38915,"is_reserved":false,"is_disabled":false,"rental_uris":{"android":"levelo://app?vid=707fb3ca-9aaa-4891-90ae-4a971299a89a","ios":"levelo://app?vid=707fb3ca-9aaa-4891-90ae-4a971299a89a"},"vehicle_type_id":"4","last_reported":1734214075,"current_range_meters":38800,"station_id":"ce4bh392rcd13ifvqdl0","pricing_plan_id":"cebpf4jnsgd1na2vs0mg"},{"bike_id":"d0e85661-eea5-4b39-9df2-cda64a4c3cd6","system_id":"levelo_inurba_marseille","lat":43.30882,"lon":5.37192,"is_reserved":false,"is_disabled":false,"rental_uris":{"android":"levelo://app?vid=d0e85661-eea5-4b39-9df2-cda64a4c3cd6","ios":"levelo://app?vid=d0e85661-eea5-4b39-9df2-cda64a4c3cd6"},"vehicle_type_id":"4","last_reported":1734214075,"current_range_meters":38000,"station_id":"ce4bguh2rcd13ifvqckg","pricing_plan_id":"cebpf4jnsgd1na2vs0mg"},{"bike_id":"a839feba-19e0-43dc-accc-15584f393366","system_id":"levelo_inurba_marseille","lat":43.28468,"lon":5.35885,"is_reserved":false,"is_disabled":false,"rental_uris":{"android":"levelo://app?vid=a839feba-19e0-43dc-accc-15584f393366","ios":"levelo://app?vid=a839feba-19e0-43dc-accc-15584f393366"},"vehicle_type_id":"4","last_reported":1734214075,"current_range_meters":35600,"station_id":"ce4bhah2rcd13ifvqei0","pricing_plan_id":"cebpf4jnsgd1na2vs0mg"},{"bike_id":"3595e955-9243-4ebf-a4ff-5df2907e8d74","system_id":"levelo_inurba_marseille","lat":43.32289,"lon":5.38276,"is_reserved":false,"is_disabled":false,"rental_uris":{"android":"levelo://app?vid=3595e955-9243-4ebf-a4ff-5df2907e8d74","ios":"levelo://app?vid=3595e955-9243-4ebf-a4ff-5df2907e8d74"},"vehicle_type_id":"4","last_reported":1734214075,"current_range_meters":38800,"station_id":"ce4bhr12rcd13ifvqhqg","pricing_plan_id":"cebpf4jnsgd1na2vs0mg"},{"bike_id":"74fd2f2d-9002-46a2-97fb-83a607590ba6","system_id":"levelo_inurba_marseille","lat":43.29577,"lon":5.39961,"is_reserved":false,"is_disabled":false,"rental_uris":{"android":"levelo://app?vid=74fd2f2d-9002-46a2-97fb-83a607590ba6","ios":"levelo://app?vid=74fd2f2d-9002-46a2-97fb-83a607590ba6"},"vehicle_type_id":"4","last_reported":1734214075,"current_range_meters":16400,"station_id":"ce4bh312rcd13ifvqdj0","pricing_plan_id":"cebpf4jnsgd1na2vs0mg"},{"bike_id":"f630154d-3aae-41d3-a130-dc2e5df19002","system_id":"levelo_inurba_marseille","lat":43.29707,"lon":5.3661,"is_reserved":false,"is_disabled":false,"rental_uris":{"android":"levelo://app?vid=f630154d-3aae-41d3-a130-dc2e5df19002","ios":"levelo://app?vid=f630154d-3aae-41d3-a130-dc2e5df19002"},"vehicle_type_id":"4","last_reported":1734214075,"current_range_meters":6000,"station_id":"ce4bgn12rcd13ifvqbt0","pricing_plan_id":"cebpf4jnsgd1na2vs0mg"},{"bike_id":"e2e5ca26-ae0f-40ee-98f0-8a717fd53b58","system_id":"levelo_inurba_marseille","lat":43.3112,"lon":5.37774,"is_reserved":false,"is_disabled":false,"rental_uris":{"android":"levelo://app?vid=e2e5ca26-ae0f-40ee-98f0-8a717fd53b58","ios":"levelo://app?vid=e2e5ca26-ae0f-40ee-98f0-8a717fd53b58"},"vehicle_type_id":"4","last_reported":1734214075,"current_range_meters":38800,"station_id":"ce4bgt92rcd13ifvqcg0","pricing_plan_id":"cebpf4jnsgd1na2vs0mg"},{"bike_id":"bd837a99-30d4-4e17-b69f-324b25f41582","system_id":"levelo_inurba_marseille","lat":43.28935,"lon":5.36638,"is_reserved":false,"is_disabled":false,"rental_uris":{"android":"levelo://app?vid=bd837a99-30d4-4e17-b69f-324b25f41582","ios":"levelo://app?vid=bd837a99-30d4-4e17-b69f-324b25f41582"},"vehicle_type_id":"4","last_reported":1734214075,"current_range_meters":29600,"station_id":"ce4bhap2rcd13ifvqek0","pricing_plan_id":"cebpf4jnsgd1na2vs0mg"},{"bike_id":"496b9119-850a-49b3-bf98-295bb079ca7c","system_id":"levelo_inurba_marseille","lat":43.2821,"lon":5.44574,"is_reserved":false,"is_disabled":false,"rental_uris":{"android":"levelo://app?vid=496b9119-850a-49b3-bf98-295bb079ca7c","ios":"levelo://app?vid=496b9119-850a-49b3-bf98-295bb079ca7c"},"vehicle_type_id":"4","last_reported":1734214075,"current_range_meters":8400,"station_id":"","pricing_plan_id":"cebpf4jnsgd1na2vs0mg"},{"bike_id":"dc789fe6-4fa7-476d-9fb9-0afdc463ba3e","system_id":"levelo_inurba_marseille","lat":43.27992,"lon":5.41659,"is_reserved":false,"is_disabled":false,"rental_uris":{"android":"levelo://app?vid=dc789fe6-4fa7-476d-9fb9-0afdc463ba3e","ios":"levelo://app?vid=dc789fe6-4fa7-476d-9fb9-0afdc463ba3e"},"vehicle_type_id":"4","last_reported":1734214075,"current_range_meters":38800,"station_id":"ce4bho12rcd13ifvqh1g","pricing_plan_id":"cebpf4jnsgd1na2vs0mg"},{"bike_id":"03ff3e32-27a0-4629-8f34-4101ea444023","system_id":"levelo_inurba_marseille","lat":43.28414,"lon":5.37516,"is_reserved":false,"is_disabled":false,"rental_uris":{"android":"levelo://app?vid=03ff3e32-27a0-4629-8f34-4101ea444023","ios":"levelo://app?vid=03ff3e32-27a0-4629-8f34-4101ea444023"},"vehicle_type_id":"4","last_reported":1734214075,"current_range_meters":26000,"station_id":"ce4bh412rcd13ifvqds0","pricing_plan_id":"cebpf4jnsgd1na2vs0mg"},{"bike_id":"f2ca7e84-4062-4e89-a552-d3c5f09b3446","system_id":"levelo_inurba_marseille","lat":43.28972,"lon":5.37836,"is_reserved":false,"is_disabled":false,"rental_uris":{"android":"levelo://app?vid=f2ca7e84-4062-4e89-a552-d3c5f09b3446","ios":"levelo://app?vid=f2ca7e84-4062-4e89-a552-d3c5f09b3446"},"vehicle_type_id":"4","last_reported":1734214075,"current_range_meters":24400,"station_id":"ce4bh9p2rcd13ifvqed0","pricing_plan_id":"cebpf4jnsgd1na2vs0mg"},{"bike_id":"09aa2f3c-9555-44b2-a34d-05acc5333b88","system_id":"levelo_inurba_marseille","lat":43.27944,"lon":5.41051,"is_reserved":true,"is_disabled":false,"rental_uris":{"android":"levelo://app?vid=09aa2f3c-9555-44b2-a34d-05acc5333b88","ios":"levelo://app?vid=09aa2f3c-9555-44b2-a34d-05acc5333b88"},"vehicle_type_id":"4","last_reported":1734214075,"current_range_meters":38800,"station_id":"ce4bhnp2rcd13ifvqh0g","pricing_plan_id":"cebpf4jnsgd1na2vs0mg"},{"bike_id":"243d8a32-8675-42ff-8a0a-1d7d8c05b7b1","system_id":"levelo_inurba_marseille","lat":43.32656,"lon":5.40997,"is_reserved":false,"is_disabled":false,"rental_uris":{"android":"levelo://app?vid=243d8a32-8675-42ff-8a0a-1d7d8c05b7b1","ios":"levelo://app?vid=243d8a32-8675-42ff-8a0a-1d7d8c05b7b1"},"vehicle_type_id":"4","last_reported":1734214075,"current_range_meters":9200,"station_id":"ce4bhpp2rcd13ifvqhgg","pricing_plan_id":"cebpf4jnsgd1na2vs0mg"},{"bike_id":"d5c89c1f-3bad-4af2-9449-e04c277a4696","system_id":"levelo_inurba_marseille","lat":43.299886,"lon":5.413364,"is_reserved":false,"is_disabled":true,"rental_uris":{"android":"levelo://app?vid=d5c89c1f-3bad-4af2-9449-e04c277a4696","ios":"levelo://app?vid=d5c89c1f-3bad-4af2-9449-e04c277a4696"},"vehicle_type_id":"4","last_reported":1734214075,"current_range_meters":38000,"station_id":"ce4bhp12rcd13ifvqh9g","pricing_plan_id":"cebpf4jnsgd1na2vs0mg"},{"bike_id":"e6c17fa1-6fd0-4ca1-9951-48e979ee6abc","system_id":"levelo_inurba_marseille","lat":43.26564,"lon":5.373,"is_reserved":false,"is_disabled":true,"rental_uris":{"android":"levelo://app?vid=e6c17fa1-6fd0-4ca1-9951-48e979ee6abc","ios":"levelo://app?vid=e6c17fa1-6fd0-4ca1-9951-48e979ee6abc"},"vehicle_type_id":"4","last_reported":1734214075,"current_range_meters":0,"station_id":"ce4bhg12rcd13ifvqf70","pricing_plan_id":"cebpf4jnsgd1na2vs0mg"},{"bike_id":"5dcb142e-3766-4e2c-b1fe-c9ebbc5d3c50","system_id":"levelo_inurba_marseille","lat":43.31993,"lon":5.38153,"is_reserved":false,"is_disabled":false,"rental_uris":{"android":"levelo://app?vid=5dcb142e-3766-4e2c-b1fe-c9ebbc5d3c50","ios":"levelo://app?vid=5dcb142e-3766-4e2c-b1fe-c9ebbc5d3c50"},"vehicle_type_id":"4","last_reported":1734214075,"current_range_meters":38000,"station_id":"ce4bhr12rcd13ifvqhpg","pricing_plan_id":"cebpf4jnsgd1na2vs0mg"},{"bike_id":"af84f0d6-0da8-41c2-b16a-2d81040dffb1","system_id":"levelo_inurba_marseille","lat":43.24188,"lon":5.39726,"is_reserved":false,"is_disabled":false,"rental_uris":{"android":"levelo://app?vid=af84f0d6-0da8-41c2-b16a-2d81040dffb1","ios":"levelo://app?vid=af84f0d6-0da8-41c2-b16a-2d81040dffb1"},"vehicle_type_id":"4","last_reported":1734214075,"current_range_meters":28000,"station_id":"ce4bhn12rcd13ifvqgpg","pricing_plan_id":"cebpf4jnsgd1na2vs0mg"},{"bike_id":"476a7d49-84d5-41c4-9e80-123da142b241","system_id":"levelo_inurba_marseille","lat":43.29696,"lon":5.36597,"is_reserved":false,"is_disabled":false,"rental_uris":{"android":"levelo://app?vid=476a7d49-84d5-41c4-9e80-123da142b241","ios":"levelo://app?vid=476a7d49-84d5-41c4-9e80-123da142b241"},"vehicle_type_id":"4","last_reported":1734214075,"current_range_meters":38800,"station_id":"ce4bgn12rcd13ifvqbt0","pricing_plan_id":"cebpf4jnsgd1na2vs0mg"},{"bike_id":"89c28168-9e53-422f-a68c-5ee6ccf55d1e","system_id":"levelo_inurba_marseille","lat":43.29705,"lon":5.37659,"is_reserved":false,"is_disabled":false,"rental_uris":{"android":"levelo://app?vid=89c28168-9e53-422f-a68c-5ee6ccf55d1e","ios":"levelo://app?vid=89c28168-9e53-422f-a68c-5ee6ccf55d1e"},"vehicle_type_id":"4","last_reported":1734214075,"current_range_meters":38800,"station_id":"ce4bgkh2rcd13ifvqbl0","pricing_plan_id":"cebpf4jnsgd1na2vs0mg"},{"bike_id":"faeeed3d-e1ea-42b2-8154-c03c65ca9361","system_id":"levelo_inurba_marseille","lat":43.26222,"lon":5.37225,"is_reserved":false,"is_disabled":true,"rental_uris":{"android":"levelo://app?vid=faeeed3d-e1ea-42b2-8154-c03c65ca9361","ios":"levelo://app?vid=faeeed3d-e1ea-42b2-8154-c03c65ca9361"},"vehicle_type_id":"4","last_reported":1734214075,"current_range_meters":0,"station_id":"","pricing_plan_id":"cebpf4jnsgd1na2vs0mg"},{"bike_id":"8bc2629d-782c-426d-a834-8e5e7d2d5eae","system_id":"levelo_inurba_marseille","lat":43.31334,"lon":5.39687,"is_reserved":false,"is_disabled":false,"rental_uris":{"android":"levelo://app?vid=8bc2629d-782c-426d-a834-8e5e7d2d5eae","ios":"levelo://app?vid=8bc2629d-782c-426d-a834-8e5e7d2d5eae"},"vehicle_type_id":"4","last_reported":1734214075,"current_range_meters":38800,"station_id":"ce4bgvp2rcd13ifvqcu0","pricing_plan_id":"cebpf4jnsgd1na2vs0mg"},{"bike_id":"5e2df100-9aa3-4afe-9ef6-c8a86d45c159","system_id":"levelo_inurba_marseille","lat":43.28963,"lon":5.37839,"is_reserved":false,"is_disabled":false,"rental_uris":{"android":"levelo://app?vid=5e2df100-9aa3-4afe-9ef6-c8a86d45c159","ios":"levelo://app?vid=5e2df100-9aa3-4afe-9ef6-c8a86d45c159"},"vehicle_type_id":"4","last_reported":1734214075,"current_range_meters":38800,"station_id":"ce4bh9p2rcd13ifvqed0","pricing_plan_id":"cebpf4jnsgd1na2vs0mg"},{"bike_id":"6d233442-1f06-40c2-8154-9aabcfcd3454","system_id":"levelo_inurba_marseille","lat":43.31886,"lon":5.40736,"is_reserved":false,"is_disabled":false,"rental_uris":{"android":"levelo://app?vid=6d233442-1f06-40c2-8154-9aabcfcd3454","ios":"levelo://app?vid=6d233442-1f06-40c2-8154-9aabcfcd3454"},"vehicle_type_id":"4","last_reported":1734214075,"current_range_meters":38400,"station_id":"ce4bh0p2rcd13ifvqd70","pricing_plan_id":"cebpf4jnsgd1na2vs0mg"},{"bike_id":"2e2ae1e2-0153-447d-8453-4be72f1a64d7","system_id":"levelo_inurba_marseille","lat":43.30603,"lon":5.37226,"is_reserved":false,"is_disabled":false,"rental_uris":{"android":"levelo://app?vid=2e2ae1e2-0153-447d-8453-4be72f1a64d7","ios":"levelo://app?vid=2e2ae1e2-0153-447d-8453-4be72f1a64d7"},"vehicle_type_id":"4","last_reported":1734214075,"current_range_meters":2800,"station_id":"ce4bgqh2rcd13ifvqc4g","pricing_plan_id":"cebpf4jnsgd1na2vs0mg"},{"bike_id":"f8f27439-92c3-4e58-8a50-e934c8e07da3","system_id":"levelo_inurba_marseille","lat":43.29962,"lon":5.38497,"is_reserved":false,"is_disabled":false,"rental_uris":{"android":"levelo://app?vid=f8f27439-92c3-4e58-8a50-e934c8e07da3","ios":"levelo://app?vid=f8f27439-92c3-4e58-8a50-e934c8e07da3"},"vehicle_type_id":"4","last_reported":1734214075,"current_range_meters":29600,"station_id":"ce4bgj92rcd13ifvqbd0","pricing_plan_id":"cebpf4jnsgd1na2vs0mg"},{"bike_id":"03af2219-0349-436f-b3be-90d657d4b2e0","system_id":"levelo_inurba_marseille","lat":43.2979,"lon":5.38115,"is_reserved":false,"is_disabled":false,"rental_uris":{"android":"levelo://app?vid=03af2219-0349-436f-b3be-90d657d4b2e0","ios":"levelo://app?vid=03af2219-0349-436f-b3be-90d657d4b2e0"},"vehicle_type_id":"4","last_reported":1734214075,"current_range_meters":38800,"station_id":"ce4bgip2rcd13ifvqbb0","pricing_plan_id":"cebpf4jnsgd1na2vs0mg"},{"bike_id":"69d22519-30af-4cfc-91c4-c524af85c0be","system_id":"levelo_inurba_marseille","lat":43.29534,"lon":5.38538,"is_reserved":false,"is_disabled":false,"rental_uris":{"android":"levelo://app?vid=69d22519-30af-4cfc-91c4-c524af85c0be","ios":"levelo://app?vid=69d22519-30af-4cfc-91c4-c524af85c0be"},"vehicle_type_id":"4","last_reported":1734214075,"current_range_meters":30800,"station_id":"ce4bgih2rcd13ifvqba0","pricing_plan_id":"cebpf4jnsgd1na2vs0mg"},{"bike_id":"8c9a5da4-dc3f-4150-a808-aa276248a783","system_id":"levelo_inurba_marseille","lat":43.30596,"lon":5.39357,"is_reserved":false,"is_disabled":false,"rental_uris":{"android":"levelo://app?vid=8c9a5da4-dc3f-4150-a808-aa276248a783","ios":"levelo://app?vid=8c9a5da4-dc3f-4150-a808-aa276248a783"},"vehicle_type_id":"4","last_reported":1734214075,"current_range_meters":36000,"station_id":"ce4bh0p2rcd13ifvqd80","pricing_plan_id":"cebpf4jnsgd1na2vs0mg"},{"bike_id":"3258e1ab-e0b5-4f3b-9b62-7836d94eb61a","system_id":"levelo_inurba_marseille","lat":43.32658,"lon":5.40993,"is_reserved":false,"is_disabled":false,"rental_uris":{"android":"levelo://app?vid=3258e1ab-e0b5-4f3b-9b62-7836d94eb61a","ios":"levelo://app?vid=3258e1ab-e0b5-4f3b-9b62-7836d94eb61a"},"vehicle_type_id":"4","last_reported":1734214075,"current_range_meters":36400,"station_id":"ce4bhpp2rcd13ifvqhgg","pricing_plan_id":"cebpf4jnsgd1na2vs0mg"},{"bike_id":"ccb0bd57-8fd0-4a14-a2f1-a98cf5042768","system_id":"levelo_inurba_marseille","lat":43.30904,"lon":5.39642,"is_reserved":false,"is_disabled":false,"rental_uris":{"android":"levelo://app?vid=ccb0bd57-8fd0-4a14-a2f1-a98cf5042768","ios":"levelo://app?vid=ccb0bd57-8fd0-4a14-a2f1-a98cf5042768"},"vehicle_type_id":"4","last_reported":1734214075,"current_range_meters":28400,"station_id":"ce4bh012rcd13ifvqcv0","pricing_plan_id":"cebpf4jnsgd1na2vs0mg"},{"bike_id":"e00d66cc-b150-49e8-ae6d-e9090bf6d114","system_id":"levelo_inurba_marseille","lat":43.29067,"lon":5.37168,"is_reserved":false,"is_disabled":false,"rental_uris":{"android":"levelo://app?vid=e00d66cc-b150-49e8-ae6d-e9090bf6d114","ios":"levelo://app?vid=e00d66cc-b150-49e8-ae6d-e9090bf6d114"},"vehicle_type_id":"4","last_reported":1734214075,"current_range_meters":11200,"station_id":"ce4bh5p2rcd13ifvqe4g","pricing_plan_id":"cebpf4jnsgd1na2vs0mg"},{"bike_id":"88341ea4-6ea4-4722-b434-08ec41b7663f","system_id":"levelo_inurba_marseille","lat":43.30593,"lon":5.39354,"is_reserved":false,"is_disabled":true,"rental_uris":{"android":"levelo://app?vid=88341ea4-6ea4-4722-b434-08ec41b7663f","ios":"levelo://app?vid=88341ea4-6ea4-4722-b434-08ec41b7663f"},"vehicle_type_id":"4","last_reported":1734214075,"current_range_meters":31200,"station_id":"ce4bh0p2rcd13ifvqd80","pricing_plan_id":"cebpf4jnsgd1na2vs0mg"},{"bike_id":"edaea664-24e0-4d6c-aa7a-497f5c5f88f6","system_id":"levelo_inurba_marseille","lat":43.27011,"lon":5.39139,"is_reserved":false,"is_disabled":true,"rental_uris":{"android":"levelo://app?vid=edaea664-24e0-4d6c-aa7a-497f5c5f88f6","ios":"levelo://app?vid=edaea664-24e0-4d6c-aa7a-497f5c5f88f6"},"vehicle_type_id":"4","last_reported":1734214075,"current_range_meters":0,"station_id":"","pricing_plan_id":"cebpf4jnsgd1na2vs0mg"},{"bike_id":"637f7e23-be3b-4aa9-87cb-5d394800192c","system_id":"levelo_inurba_marseille","lat":43.317142,"lon":5.437023,"is_reserved":false,"is_disabled":false,"rental_uris":{"android":"levelo://app?vid=637f7e23-be3b-4aa9-87cb-5d394800192c","ios":"levelo://app?vid=637f7e23-be3b-4aa9-87cb-5d394800192c"},"vehicle_type_id":"4","last_reported":1734214075,"current_range_meters":38800,"station_id":"ce4bhp92rcd13ifvqhcg","pricing_plan_id":"cebpf4jnsgd1na2vs0mg"},{"bike_id":"372bdabf-b91c-41f7-88b9-da5a3c44cc39","system_id":"levelo_inurba_marseille","lat":43.23149,"lon":5.43723,"is_reserved":false,"is_disabled":false,"rental_uris":{"android":"levelo://app?vid=372bdabf-b91c-41f7-88b9-da5a3c44cc39","ios":"levelo://app?vid=372bdabf-b91c-41f7-88b9-da5a3c44cc39"},"vehicle_type_id":"4","last_reported":1734214075,"current_range_meters":27200,"station_id":"ce4bhmp2rcd13ifvqgog","pricing_plan_id":"cebpf4jnsgd1na2vs0mg"},{"bike_id":"840517c9-5921-40ba-ade6-d8d7a768cdb5","system_id":"levelo_inurba_marseille","lat":43.2893,"lon":5.36635,"is_reserved":false,"is_disabled":false,"rental_uris":{"android":"levelo://app?vid=840517c9-5921-40ba-ade6-d8d7a768cdb5","ios":"levelo://app?vid=840517c9-5921-40ba-ade6-d8d7a768cdb5"},"vehicle_type_id":"4","last_reported":1734214075,"current_range_meters":28000,"station_id":"ce4bhap2rcd13ifvqek0","pricing_plan_id":"cebpf4jnsgd1na2vs0mg"},{"bike_id":"da306aef-acdc-4ea6-b097-95f7b1d0455e","system_id":"levelo_inurba_marseille","lat":43.31219,"lon":5.36865,"is_reserved":false,"is_disabled":false,"rental_uris":{"android":"levelo://app?vid=da306aef-acdc-4ea6-b097-95f7b1d0455e","ios":"levelo://app?vid=da306aef-acdc-4ea6-b097-95f7b1d0455e"},"vehicle_type_id":"4","last_reported":1734214075,"current_range_meters":37600,"station_id":"ce4bgl92rcd13ifvqbq0","pricing_plan_id":"cebpf4jnsgd1na2vs0mg"},{"bike_id":"4600372f-6b1d-4928-9068-2be3d7b0a63e","system_id":"levelo_inurba_marseille","lat":43.30136,"lon":5.39884,"is_reserved":false,"is_disabled":false,"rental_uris":{"android":"levelo://app?vid=4600372f-6b1d-4928-9068-2be3d7b0a63e","ios":"levelo://app?vid=4600372f-6b1d-4928-9068-2be3d7b0a63e"},"vehicle_type_id":"4","last_reported":1734214075,"current_range_meters":28800,"station_id":"ce4bh0h2rcd13ifvqd40","pricing_plan_id":"cebpf4jnsgd1na2vs0mg"},{"bike_id":"aadd2714-491f-462b-a7dd-f20e3cb50a03","system_id":"levelo_inurba_marseille","lat":43.28262,"lon":5.35059,"is_reserved":false,"is_disabled":false,"rental_uris":{"android":"levelo://app?vid=aadd2714-491f-462b-a7dd-f20e3cb50a03","ios":"levelo://app?vid=aadd2714-491f-462b-a7dd-f20e3cb50a03"},"vehicle_type_id":"4","last_reported":1734214075,"current_range_meters":38800,"station_id":"ce4bhbp2rcd13ifvqerg","pricing_plan_id":"cebpf4jnsgd1na2vs0mg"},{"bike_id":"0bf81dcc-c1c3-4e43-a815-57d9ca14a9a2","system_id":"levelo_inurba_marseille","lat":43.30805,"lon":5.43525,"is_reserved":false,"is_disabled":false,"rental_uris":{"android":"levelo://app?vid=0bf81dcc-c1c3-4e43-a815-57d9ca14a9a2","ios":"levelo://app?vid=0bf81dcc-c1c3-4e43-a815-57d9ca14a9a2"},"vehicle_type_id":"4","last_reported":1734214075,"current_range_meters":35200,"station_id":"ce4bhph2rcd13ifvqheg","pricing_plan_id":"cebpf4jnsgd1na2vs0mg"},{"bike_id":"ba6abc17-2a1f-45c6-8711-b118d10bc680","system_id":"levelo_inurba_marseille","lat":43.2894,"lon":5.36383,"is_reserved":false,"is_disabled":false,"rental_uris":{"android":"levelo://app?vid=ba6abc17-2a1f-45c6-8711-b118d10bc680","ios":"levelo://app?vid=ba6abc17-2a1f-45c6-8711-b118d10bc680"},"vehicle_type_id":"4","last_reported":1734214075,"current_range_meters":34800,"station_id":"ce4bhc92rcd13ifvqetg","pricing_plan_id":"cebpf4jnsgd1na2vs0mg"},{"bike_id":"82d2deac-e154-4bd7-b34d-957379fd607c","system_id":"levelo_inurba_marseille","lat":43.3228,"lon":5.383,"is_reserved":false,"is_disabled":false,"rental_uris":{"android":"levelo://app?vid=82d2deac-e154-4bd7-b34d-957379fd607c","ios":"levelo://app?vid=82d2deac-e154-4bd7-b34d-957379fd607c"},"vehicle_type_id":"4","last_reported":1734214075,"current_range_meters":10800,"station_id":"ce4bhr12rcd13ifvqhqg","pricing_plan_id":"cebpf4jnsgd1na2vs0mg"},{"bike_id":"6621c790-2ed4-4559-aca2-389a8d35e7a1","system_id":"levelo_inurba_marseille","lat":43.28461,"lon":5.35885,"is_reserved":false,"is_disabled":false,"rental_uris":{"android":"levelo://app?vid=6621c790-2ed4-4559-aca2-389a8d35e7a1","ios":"levelo://app?vid=6621c790-2ed4-4559-aca2-389a8d35e7a1"},"vehicle_type_id":"4","last_reported":1734214075,"current_range_meters":36800,"station_id":"ce4bhah2rcd13ifvqei0","pricing_plan_id":"cebpf4jnsgd1na2vs0mg"},{"bike_id":"d0915087-09b2-4ff8-becc-05a6a3d45ea4","system_id":"levelo_inurba_marseille","lat":43.28702,"lon":5.37401,"is_reserved":false,"is_disabled":false,"rental_uris":{"android":"levelo://app?vid=d0915087-09b2-4ff8-becc-05a6a3d45ea4","ios":"levelo://app?vid=d0915087-09b2-4ff8-becc-05a6a3d45ea4"},"vehicle_type_id":"4","last_reported":1734214075,"current_range_meters":28000,"station_id":"ce4bh3p2rcd13ifvqdq0","pricing_plan_id":"cebpf4jnsgd1na2vs0mg"},{"bike_id":"4fe5b802-6d4a-478f-80f7-e4f6837b7ef9","system_id":"levelo_inurba_marseille","lat":43.26941,"lon":5.40248,"is_reserved":false,"is_disabled":false,"rental_uris":{"android":"levelo://app?vid=4fe5b802-6d4a-478f-80f7-e4f6837b7ef9","ios":"levelo://app?vid=4fe5b802-6d4a-478f-80f7-e4f6837b7ef9"},"vehicle_type_id":"4","last_reported":1734214075,"current_range_meters":38800,"station_id":"cjm6bp8fraef2m0cb0m0","pricing_plan_id":"cebpf4jnsgd1na2vs0mg"},{"bike_id":"a6425594-e645-475e-b674-2d52cda9fc38","system_id":"levelo_inurba_marseille","lat":43.24803,"lon":5.37455,"is_reserved":false,"is_disabled":false,"rental_uris":{"android":"levelo://app?vid=a6425594-e645-475e-b674-2d52cda9fc38","ios":"levelo://app?vid=a6425594-e645-475e-b674-2d52cda9fc38"},"vehicle_type_id":"4","last_reported":1734214075,"current_range_meters":28800,"station_id":"ce4bhgh2rcd13ifvqfb0","pricing_plan_id":"cebpf4jnsgd1na2vs0mg"},{"bike_id":"dbbb1ad0-9518-4f73-a26a-d5ec2207b552","system_id":"levelo_inurba_marseille","lat":43.29419,"lon":5.38621,"is_reserved":false,"is_disabled":false,"rental_uris":{"android":"levelo://app?vid=dbbb1ad0-9518-4f73-a26a-d5ec2207b552","ios":"levelo://app?vid=dbbb1ad0-9518-4f73-a26a-d5ec2207b552"},"vehicle_type_id":"4","last_reported":1734214075,"current_range_meters":39200,"station_id":"ce4bh2h2rcd13ifvqdh0","pricing_plan_id":"cebpf4jnsgd1na2vs0mg"},{"bike_id":"fd4efec3-03a9-456d-9f3e-04aeb194cc68","system_id":"levelo_inurba_marseille","lat":43.25825,"lon":5.39433,"is_reserved":false,"is_disabled":false,"rental_uris":{"android":"levelo://app?vid=fd4efec3-03a9-456d-9f3e-04aeb194cc68","ios":"levelo://app?vid=fd4efec3-03a9-456d-9f3e-04aeb194cc68"},"vehicle_type_id":"4","last_reported":1734214075,"current_range_meters":33200,"station_id":"ce4bhip2rcd13ifvqft0","pricing_plan_id":"cebpf4jnsgd1na2vs0mg"},{"bike_id":"6994f3dd-5742-486e-b28b-ea715f1289aa","system_id":"levelo_inurba_marseille","lat":43.3361,"lon":5.41023,"is_reserved":false,"is_disabled":false,"rental_uris":{"android":"levelo://app?vid=6994f3dd-5742-486e-b28b-ea715f1289aa","ios":"levelo://app?vid=6994f3dd-5742-486e-b28b-ea715f1289aa"},"vehicle_type_id":"4","last_reported":1734214075,"current_range_meters":12400,"station_id":"ce4bhqh2rcd13ifvqhmg","pricing_plan_id":"cebpf4jnsgd1na2vs0mg"},{"bike_id":"dfdefa1a-36e5-482a-aafa-f01de140dff1","system_id":"levelo_inurba_marseille","lat":43.284602,"lon":5.358942,"is_reserved":false,"is_disabled":false,"rental_uris":{"android":"levelo://app?vid=dfdefa1a-36e5-482a-aafa-f01de140dff1","ios":"levelo://app?vid=dfdefa1a-36e5-482a-aafa-f01de140dff1"},"vehicle_type_id":"4","last_reported":1734214075,"current_range_meters":28000,"station_id":"ce4bhah2rcd13ifvqei0","pricing_plan_id":"cebpf4jnsgd1na2vs0mg"},{"bike_id":"6984ddff-220c-4b42-9e9c-0be8654a51ea","system_id":"levelo_inurba_marseille","lat":43.30895,"lon":5.37207,"is_reserved":false,"is_disabled":false,"rental_uris":{"android":"levelo://app?vid=6984ddff-220c-4b42-9e9c-0be8654a51ea","ios":"levelo://app?vid=6984ddff-220c-4b42-9e9c-0be8654a51ea"},"vehicle_type_id":"4","last_reported":1734214075,"current_range_meters":28400,"station_id":"ce4bguh2rcd13ifvqckg","pricing_plan_id":"cebpf4jnsgd1na2vs0mg"},{"bike_id":"adc4ecf9-5f4c-49e0-915f-2787f3778b82","system_id":"levelo_inurba_marseille","lat":43.32302,"lon":5.38241,"is_reserved":false,"is_disabled":false,"rental_uris":{"android":"levelo://app?vid=adc4ecf9-5f4c-49e0-915f-2787f3778b82","ios":"levelo://app?vid=adc4ecf9-5f4c-49e0-915f-2787f3778b82"},"vehicle_type_id":"4","last_reported":1734214075,"current_range_meters":38800,"station_id":"ce4bhr12rcd13ifvqhqg","pricing_plan_id":"cebpf4jnsgd1na2vs0mg"},{"bike_id":"e127d95f-4a75-47e8-adce-231a113e8e24","system_id":"levelo_inurba_marseille","lat":43.308,"lon":5.38158,"is_reserved":false,"is_disabled":false,"rental_uris":{"android":"levelo://app?vid=e127d95f-4a75-47e8-adce-231a113e8e24","ios":"levelo://app?vid=e127d95f-4a75-47e8-adce-231a113e8e24"},"vehicle_type_id":"4","last_reported":1734214075,"current_range_meters":19200,"station_id":"ce4bgt12rcd13ifvqce0","pricing_plan_id":"cebpf4jnsgd1na2vs0mg"},{"bike_id":"2071f054-5a90-4b26-bab7-f4ec1d1dd648","system_id":"levelo_inurba_marseille","lat":43.28103,"lon":5.37846,"is_reserved":false,"is_disabled":false,"rental_uris":{"android":"levelo://app?vid=2071f054-5a90-4b26-bab7-f4ec1d1dd648","ios":"levelo://app?vid=2071f054-5a90-4b26-bab7-f4ec1d1dd648"},"vehicle_type_id":"4","last_reported":1734214075,"current_range_meters":38800,"station_id":"ce4bha12rcd13ifvqee0","pricing_plan_id":"cebpf4jnsgd1na2vs0mg"},{"bike_id":"0e6e5fe9-00fb-4612-a30a-a69ff66f7186","system_id":"levelo_inurba_marseille","lat":43.32656,"lon":5.40995,"is_reserved":false,"is_disabled":false,"rental_uris":{"android":"levelo://app?vid=0e6e5fe9-00fb-4612-a30a-a69ff66f7186","ios":"levelo://app?vid=0e6e5fe9-00fb-4612-a30a-a69ff66f7186"},"vehicle_type_id":"4","last_reported":1734214075,"current_range_meters":22400,"station_id":"ce4bhpp2rcd13ifvqhgg","pricing_plan_id":"cebpf4jnsgd1na2vs0mg"},{"bike_id":"2fde2325-c422-42fb-bd6a-b015a704ab42","system_id":"levelo_inurba_marseille","lat":43.25113,"lon":5.4032,"is_reserved":false,"is_disabled":false,"rental_uris":{"android":"levelo://app?vid=2fde2325-c422-42fb-bd6a-b015a704ab42","ios":"levelo://app?vid=2fde2325-c422-42fb-bd6a-b015a704ab42"},"vehicle_type_id":"4","last_reported":1734214075,"current_range_meters":17200,"station_id":"ce4bhlh2rcd13ifvqgig","pricing_plan_id":"cebpf4jnsgd1na2vs0mg"},{"bike_id":"261c8340-9746-4274-8bee-ecfa837e9a1c","system_id":"levelo_inurba_marseille","lat":43.29522,"lon":5.39056,"is_reserved":false,"is_disabled":false,"rental_uris":{"android":"levelo://app?vid=261c8340-9746-4274-8bee-ecfa837e9a1c","ios":"levelo://app?vid=261c8340-9746-4274-8bee-ecfa837e9a1c"},"vehicle_type_id":"4","last_reported":1734214075,"current_range_meters":10800,"station_id":"ce4bh3p2rcd13ifvqdp0","pricing_plan_id":"cebpf4jnsgd1na2vs0mg"},{"bike_id":"199419ba-c84a-400d-bd91-0b0240050a13","system_id":"levelo_inurba_marseille","lat":43.27539,"lon":5.38664,"is_reserved":false,"is_disabled":false,"rental_uris":{"android":"levelo://app?vid=199419ba-c84a-400d-bd91-0b0240050a13","ios":"levelo://app?vid=199419ba-c84a-400d-bd91-0b0240050a13"},"vehicle_type_id":"4","last_reported":1734214075,"current_range_meters":34800,"station_id":"","pricing_plan_id":"cebpf4jnsgd1na2vs0mg"},{"bike_id":"2d1a96e9-730f-44cb-a744-ed6c69085b6d","system_id":"levelo_inurba_marseille","lat":43.28711,"lon":5.37937,"is_reserved":false,"is_disabled":false,"rental_uris":{"android":"levelo://app?vid=2d1a96e9-730f-44cb-a744-ed6c69085b6d","ios":"levelo://app?vid=2d1a96e9-730f-44cb-a744-ed6c69085b6d"},"vehicle_type_id":"4","last_reported":1734214075,"current_range_meters":36400,"station_id":"ce4bh9p2rcd13ifvqec0","pricing_plan_id":"cebpf4jnsgd1na2vs0mg"},{"bike_id":"ae0bdd7b-187c-409c-b2b3-37aac32d4db3","system_id":"levelo_inurba_marseille","lat":43.32363,"lon":5.36757,"is_reserved":false,"is_disabled":false,"rental_uris":{"android":"levelo://app?vid=ae0bdd7b-187c-409c-b2b3-37aac32d4db3","ios":"levelo://app?vid=ae0bdd7b-187c-409c-b2b3-37aac32d4db3"},"vehicle_type_id":"4","last_reported":1734214075,"current_range_meters":38400,"station_id":"ce4bhsh2rcd13ifvqi2g","pricing_plan_id":"cebpf4jnsgd1na2vs0mg"},{"bike_id":"42cfffe7-8d2a-4a4f-b8f4-c4e4f1a96726","system_id":"levelo_inurba_marseille","lat":43.26552,"lon":5.37285,"is_reserved":false,"is_disabled":false,"rental_uris":{"android":"levelo://app?vid=42cfffe7-8d2a-4a4f-b8f4-c4e4f1a96726","ios":"levelo://app?vid=42cfffe7-8d2a-4a4f-b8f4-c4e4f1a96726"},"vehicle_type_id":"4","last_reported":1734214075,"current_range_meters":12000,"station_id":"ce4bhg12rcd13ifvqf70","pricing_plan_id":"cebpf4jnsgd1na2vs0mg"},{"bike_id":"9ad311dd-c450-4f09-933a-ef53d4559dc3","system_id":"levelo_inurba_marseille","lat":43.26989,"lon":5.39869,"is_reserved":false,"is_disabled":false,"rental_uris":{"android":"levelo://app?vid=9ad311dd-c450-4f09-933a-ef53d4559dc3","ios":"levelo://app?vid=9ad311dd-c450-4f09-933a-ef53d4559dc3"},"vehicle_type_id":"4","last_reported":1734214075,"current_range_meters":25200,"station_id":"","pricing_plan_id":"cebpf4jnsgd1na2vs0mg"},{"bike_id":"37456efc-92e9-4863-91c7-bd4d94a41119","system_id":"levelo_inurba_marseille","lat":43.28497,"lon":5.40178,"is_reserved":false,"is_disabled":false,"rental_uris":{"android":"levelo://app?vid=37456efc-92e9-4863-91c7-bd4d94a41119","ios":"levelo://app?vid=37456efc-92e9-4863-91c7-bd4d94a41119"},"vehicle_type_id":"4","last_reported":1734214075,"current_range_meters":11600,"station_id":"","pricing_plan_id":"cebpf4jnsgd1na2vs0mg"},{"bike_id":"123e146a-854c-4e79-886f-1db5d5371d0c","system_id":"levelo_inurba_marseille","lat":43.31997,"lon":5.3815,"is_reserved":false,"is_disabled":false,"rental_uris":{"android":"levelo://app?vid=123e146a-854c-4e79-886f-1db5d5371d0c","ios":"levelo://app?vid=123e146a-854c-4e79-886f-1db5d5371d0c"},"vehicle_type_id":"4","last_reported":1734214075,"current_range_meters":38800,"station_id":"ce4bhr12rcd13ifvqhpg","pricing_plan_id":"cebpf4jnsgd1na2vs0mg"},{"bike_id":"44db9a9d-ddc8-4756-b796-1d8de4c4d278","system_id":"levelo_inurba_marseille","lat":43.31956,"lon":5.38151,"is_reserved":false,"is_disabled":false,"rental_uris":{"android":"levelo://app?vid=44db9a9d-ddc8-4756-b796-1d8de4c4d278","ios":"levelo://app?vid=44db9a9d-ddc8-4756-b796-1d8de4c4d278"},"vehicle_type_id":"4","last_reported":1734214075,"current_range_meters":25600,"station_id":"ce4bhr12rcd13ifvqhpg","pricing_plan_id":"cebpf4jnsgd1na2vs0mg"},{"bike_id":"8105cf46-5302-4a31-85d1-18a38d6a21d6","system_id":"levelo_inurba_marseille","lat":43.25001,"lon":5.38928,"is_reserved":false,"is_disabled":false,"rental_uris":{"android":"levelo://app?vid=8105cf46-5302-4a31-85d1-18a38d6a21d6","ios":"levelo://app?vid=8105cf46-5302-4a31-85d1-18a38d6a21d6"},"vehicle_type_id":"4","last_reported":1734214075,"current_range_meters":14000,"station_id":"ce4bhgp2rcd13ifvqfd0","pricing_plan_id":"cebpf4jnsgd1na2vs0mg"},{"bike_id":"af67ac53-ba21-4ff0-8334-95679e9ff2cc","system_id":"levelo_inurba_marseille","lat":43.278805,"lon":5.388003,"is_reserved":false,"is_disabled":true,"rental_uris":{"android":"levelo://app?vid=af67ac53-ba21-4ff0-8334-95679e9ff2cc","ios":"levelo://app?vid=af67ac53-ba21-4ff0-8334-95679e9ff2cc"},"vehicle_type_id":"4","last_reported":1734214075,"current_range_meters":400,"station_id":"","pricing_plan_id":"cebpf4jnsgd1na2vs0mg"},{"bike_id":"cc792cf1-5419-459c-a85e-0d5c0d4fbc94","system_id":"levelo_inurba_marseille","lat":43.29299,"lon":5.37448,"is_reserved":false,"is_disabled":false,"rental_uris":{"android":"levelo://app?vid=cc792cf1-5419-459c-a85e-0d5c0d4fbc94","ios":"levelo://app?vid=cc792cf1-5419-459c-a85e-0d5c0d4fbc94"},"vehicle_type_id":"4","last_reported":1734214075,"current_range_meters":23200,"station_id":"ce4bgi12rcd13ifvqb70","pricing_plan_id":"cebpf4jnsgd1na2vs0mg"},{"bike_id":"af3cf5fc-8f4b-4054-b231-9398597286a2","system_id":"levelo_inurba_marseille","lat":43.31365,"lon":5.38502,"is_reserved":false,"is_disabled":false,"rental_uris":{"android":"levelo://app?vid=af3cf5fc-8f4b-4054-b231-9398597286a2","ios":"levelo://app?vid=af3cf5fc-8f4b-4054-b231-9398597286a2"},"vehicle_type_id":"4","last_reported":1734214075,"current_range_meters":17200,"station_id":"ce4bgt92rcd13ifvqcf0","pricing_plan_id":"cebpf4jnsgd1na2vs0mg"},{"bike_id":"51fd7664-4274-4c81-a174-1e64bd9c4e61","system_id":"levelo_inurba_marseille","lat":43.29594,"lon":5.38094,"is_reserved":false,"is_disabled":false,"rental_uris":{"android":"levelo://app?vid=51fd7664-4274-4c81-a174-1e64bd9c4e61","ios":"levelo://app?vid=51fd7664-4274-4c81-a174-1e64bd9c4e61"},"vehicle_type_id":"4","last_reported":1734214075,"current_range_meters":17600,"station_id":"ce4bgl12rcd13ifvqbo0","pricing_plan_id":"cebpf4jnsgd1na2vs0mg"},{"bike_id":"db7344aa-d70f-4cc6-96e3-ab6ac70f1072","system_id":"levelo_inurba_marseille","lat":43.29244,"lon":5.38426,"is_reserved":false,"is_disabled":false,"rental_uris":{"android":"levelo://app?vid=db7344aa-d70f-4cc6-96e3-ab6ac70f1072","ios":"levelo://app?vid=db7344aa-d70f-4cc6-96e3-ab6ac70f1072"},"vehicle_type_id":"4","last_reported":1734214075,"current_range_meters":24400,"station_id":"ce4bh692rcd13ifvqea0","pricing_plan_id":"cebpf4jnsgd1na2vs0mg"},{"bike_id":"c3e03ce1-362f-4e8d-a05d-bab105a3e4a0","system_id":"levelo_inurba_marseille","lat":43.29395,"lon":5.37852,"is_reserved":false,"is_disabled":false,"rental_uris":{"android":"levelo://app?vid=c3e03ce1-362f-4e8d-a05d-bab105a3e4a0","ios":"levelo://app?vid=c3e03ce1-362f-4e8d-a05d-bab105a3e4a0"},"vehicle_type_id":"4","last_reported":1734214075,"current_range_meters":22400,"station_id":"ce4bgjh2rcd13ifvqbf0","pricing_plan_id":"cebpf4jnsgd1na2vs0mg"},{"bike_id":"fc43bfe3-9f6d-4964-8d03-4526a28744ff","system_id":"levelo_inurba_marseille","lat":43.23961,"lon":5.36629,"is_reserved":false,"is_disabled":false,"rental_uris":{"android":"levelo://app?vid=fc43bfe3-9f6d-4964-8d03-4526a28744ff","ios":"levelo://app?vid=fc43bfe3-9f6d-4964-8d03-4526a28744ff"},"vehicle_type_id":"4","last_reported":1734214075,"current_range_meters":38400,"station_id":"ce4bhi12rcd13ifvqfp0","pricing_plan_id":"cebpf4jnsgd1na2vs0mg"},{"bike_id":"1b8e8d3f-9802-40b9-895c-701341bdb7df","system_id":"levelo_inurba_marseille","lat":43.29869,"lon":5.39738,"is_reserved":false,"is_disabled":false,"rental_uris":{"android":"levelo://app?vid=1b8e8d3f-9802-40b9-895c-701341bdb7df","ios":"levelo://app?vid=1b8e8d3f-9802-40b9-895c-701341bdb7df"},"vehicle_type_id":"4","last_reported":1734214075,"current_range_meters":18800,"station_id":"ce4bh0h2rcd13ifvqd50","pricing_plan_id":"cebpf4jnsgd1na2vs0mg"},{"bike_id":"1ca6b9b9-25b3-49b2-9b3d-4659a7a7434d","system_id":"levelo_inurba_marseille","lat":43.29631,"lon":5.406,"is_reserved":false,"is_disabled":false,"rental_uris":{"android":"levelo://app?vid=1ca6b9b9-25b3-49b2-9b3d-4659a7a7434d","ios":"levelo://app?vid=1ca6b9b9-25b3-49b2-9b3d-4659a7a7434d"},"vehicle_type_id":"4","last_reported":1734214075,"current_range_meters":16800,"station_id":"ce4bh0h2rcd13ifvqd60","pricing_plan_id":"cebpf4jnsgd1na2vs0mg"},{"bike_id":"d65fcea9-51ba-41f0-86fd-e798dfdd6f09","system_id":"levelo_inurba_marseille","lat":43.28708,"lon":5.38308,"is_reserved":false,"is_disabled":true,"rental_uris":{"android":"levelo://app?vid=d65fcea9-51ba-41f0-86fd-e798dfdd6f09","ios":"levelo://app?vid=d65fcea9-51ba-41f0-86fd-e798dfdd6f09"},"vehicle_type_id":"4","last_reported":1734214075,"current_range_meters":0,"station_id":"","pricing_plan_id":"cebpf4jnsgd1na2vs0mg"},{"bike_id":"656d8740-9b85-4a93-86ce-9d32a0e761f7","system_id":"levelo_inurba_marseille","lat":43.310716,"lon":5.383462,"is_reserved":false,"is_disabled":true,"rental_uris":{"android":"levelo://app?vid=656d8740-9b85-4a93-86ce-9d32a0e761f7","ios":"levelo://app?vid=656d8740-9b85-4a93-86ce-9d32a0e761f7"},"vehicle_type_id":"4","last_reported":1734214075,"current_range_meters":28400,"station_id":"ce4bgv92rcd13ifvqcr0","pricing_plan_id":"cebpf4jnsgd1na2vs0mg"},{"bike_id":"30b09c14-5db6-4bdd-8ec0-8d8fd355bef3","system_id":"levelo_inurba_marseille","lat":43.29882,"lon":5.39743,"is_reserved":false,"is_disabled":true,"rental_uris":{"android":"levelo://app?vid=30b09c14-5db6-4bdd-8ec0-8d8fd355bef3","ios":"levelo://app?vid=30b09c14-5db6-4bdd-8ec0-8d8fd355bef3"},"vehicle_type_id":"4","last_reported":1734214075,"current_range_meters":4800,"station_id":"ce4bh0h2rcd13ifvqd50","pricing_plan_id":"cebpf4jnsgd1na2vs0mg"},{"bike_id":"f08c808c-af08-40b8-81c3-97739c995b77","system_id":"levelo_inurba_marseille","lat":43.30131,"lon":5.39908,"is_reserved":false,"is_disabled":true,"rental_uris":{"android":"levelo://app?vid=f08c808c-af08-40b8-81c3-97739c995b77","ios":"levelo://app?vid=f08c808c-af08-40b8-81c3-97739c995b77"},"vehicle_type_id":"4","last_reported":1734214075,"current_range_meters":30800,"station_id":"ce4bh0h2rcd13ifvqd40","pricing_plan_id":"cebpf4jnsgd1na2vs0mg"},{"bike_id":"86970bbe-b814-43c9-89a2-85f507f309fa","system_id":"levelo_inurba_marseille","lat":43.30548,"lon":5.38437,"is_reserved":false,"is_disabled":true,"rental_uris":{"android":"levelo://app?vid=86970bbe-b814-43c9-89a2-85f507f309fa","ios":"levelo://app?vid=86970bbe-b814-43c9-89a2-85f507f309fa"},"vehicle_type_id":"4","last_reported":1734214075,"current_range_meters":6800,"station_id":"ce4bgg92rcd13ifvqb30","pricing_plan_id":"cebpf4jnsgd1na2vs0mg"},{"bike_id":"1eb744c4-592e-49f4-bbfa-95dfc0f3d2e1","system_id":"levelo_inurba_marseille","lat":43.29597,"lon":5.3771,"is_reserved":false,"is_disabled":false,"rental_uris":{"android":"levelo://app?vid=1eb744c4-592e-49f4-bbfa-95dfc0f3d2e1","ios":"levelo://app?vid=1eb744c4-592e-49f4-bbfa-95dfc0f3d2e1"},"vehicle_type_id":"4","last_reported":1734214075,"current_range_meters":25200,"station_id":"ce4bgi92rcd13ifvqb90","pricing_plan_id":"cebpf4jnsgd1na2vs0mg"},{"bike_id":"96969163-05be-4d1c-a728-67794615bdfc","system_id":"levelo_inurba_marseille","lat":43.29019,"lon":5.38993,"is_reserved":false,"is_disabled":false,"rental_uris":{"android":"levelo://app?vid=96969163-05be-4d1c-a728-67794615bdfc","ios":"levelo://app?vid=96969163-05be-4d1c-a728-67794615bdfc"},"vehicle_type_id":"4","last_reported":1734214075,"current_range_meters":18800,"station_id":"","pricing_plan_id":"cebpf4jnsgd1na2vs0mg"},{"bike_id":"64203de9-e72b-4d66-9a84-7a315c7ed37f","system_id":"levelo_inurba_marseille","lat":43.29435,"lon":5.37427,"is_reserved":false,"is_disabled":true,"rental_uris":{"android":"levelo://app?vid=64203de9-e72b-4d66-9a84-7a315c7ed37f","ios":"levelo://app?vid=64203de9-e72b-4d66-9a84-7a315c7ed37f"},"vehicle_type_id":"4","last_reported":1734214075,"current_range_meters":0,"station_id":"","pricing_plan_id":"cebpf4jnsgd1na2vs0mg"},{"bike_id":"43a2fa1d-314c-4a4d-b7c9-aa2f198eb73b","system_id":"levelo_inurba_marseille","lat":43.30178,"lon":5.38769,"is_reserved":false,"is_disabled":true,"rental_uris":{"android":"levelo://app?vid=43a2fa1d-314c-4a4d-b7c9-aa2f198eb73b","ios":"levelo://app?vid=43a2fa1d-314c-4a4d-b7c9-aa2f198eb73b"},"vehicle_type_id":"4","last_reported":1734214075,"current_range_meters":33200,"station_id":"ce4bghh2rcd13ifvqb60","pricing_plan_id":"cebpf4jnsgd1na2vs0mg"},{"bike_id":"f40a8800-0282-4e19-ba2d-6a4b73090705","system_id":"levelo_inurba_marseille","lat":43.28681,"lon":5.38663,"is_reserved":false,"is_disabled":true,"rental_uris":{"android":"levelo://app?vid=f40a8800-0282-4e19-ba2d-6a4b73090705","ios":"levelo://app?vid=f40a8800-0282-4e19-ba2d-6a4b73090705"},"vehicle_type_id":"4","last_reported":1734214075,"current_range_meters":30400,"station_id":"ce4bh492rcd13ifvqdug","pricing_plan_id":"cebpf4jnsgd1na2vs0mg"},{"bike_id":"fccc0d8b-33ed-4fb8-9529-e358ad05e466","system_id":"levelo_inurba_marseille","lat":43.30434,"lon":5.38891,"is_reserved":false,"is_disabled":false,"rental_uris":{"android":"levelo://app?vid=fccc0d8b-33ed-4fb8-9529-e358ad05e466","ios":"levelo://app?vid=fccc0d8b-33ed-4fb8-9529-e358ad05e466"},"vehicle_type_id":"4","last_reported":1734214075,"current_range_meters":19600,"station_id":"ce4bgk12rcd13ifvqbi0","pricing_plan_id":"cebpf4jnsgd1na2vs0mg"},{"bike_id":"ee86875a-7fd8-4803-839e-f9dfb16c4db6","system_id":"levelo_inurba_marseille","lat":43.231538,"lon":5.437168,"is_reserved":false,"is_disabled":false,"rental_uris":{"android":"levelo://app?vid=ee86875a-7fd8-4803-839e-f9dfb16c4db6","ios":"levelo://app?vid=ee86875a-7fd8-4803-839e-f9dfb16c4db6"},"vehicle_type_id":"4","last_reported":1734214075,"current_range_meters":7200,"station_id":"ce4bhmp2rcd13ifvqgog","pricing_plan_id":"cebpf4jnsgd1na2vs0mg"},{"bike_id":"61dbeb61-d323-4879-9bd3-0bdb0cfa36d5","system_id":"levelo_inurba_marseille","lat":43.29276,"lon":5.38447,"is_reserved":false,"is_disabled":false,"rental_uris":{"android":"levelo://app?vid=61dbeb61-d323-4879-9bd3-0bdb0cfa36d5","ios":"levelo://app?vid=61dbeb61-d323-4879-9bd3-0bdb0cfa36d5"},"vehicle_type_id":"4","last_reported":1734214075,"current_range_meters":26000,"station_id":"ce4bh692rcd13ifvqea0","pricing_plan_id":"cebpf4jnsgd1na2vs0mg"},{"bike_id":"f99c7c28-be55-4a52-8e63-eadcb69654bf","system_id":"levelo_inurba_marseille","lat":43.29419,"lon":5.38628,"is_reserved":false,"is_disabled":false,"rental_uris":{"android":"levelo://app?vid=f99c7c28-be55-4a52-8e63-eadcb69654bf","ios":"levelo://app?vid=f99c7c28-be55-4a52-8e63-eadcb69654bf"},"vehicle_type_id":"4","last_reported":1734214075,"current_range_meters":31200,"station_id":"ce4bh2h2rcd13ifvqdh0","pricing_plan_id":"cebpf4jnsgd1na2vs0mg"},{"bike_id":"70c673d5-6066-4faf-b215-c0e7165e8d28","system_id":"levelo_inurba_marseille","lat":43.26057,"lon":5.39394,"is_reserved":false,"is_disabled":false,"rental_uris":{"android":"levelo://app?vid=70c673d5-6066-4faf-b215-c0e7165e8d28","ios":"levelo://app?vid=70c673d5-6066-4faf-b215-c0e7165e8d28"},"vehicle_type_id":"4","last_reported":1734214075,"current_range_meters":8800,"station_id":"ce4bhh92rcd13ifvqfj0","pricing_plan_id":"cebpf4jnsgd1na2vs0mg"},{"bike_id":"e2200d13-01c2-4911-8571-0e3065ed5868","system_id":"levelo_inurba_marseille","lat":43.29172,"lon":5.37147,"is_reserved":false,"is_disabled":false,"rental_uris":{"android":"levelo://app?vid=e2200d13-01c2-4911-8571-0e3065ed5868","ios":"levelo://app?vid=e2200d13-01c2-4911-8571-0e3065ed5868"},"vehicle_type_id":"4","last_reported":1734214075,"current_range_meters":30000,"station_id":"ce4bha92rcd13ifvqeh0","pricing_plan_id":"cebpf4jnsgd1na2vs0mg"},{"bike_id":"a292a457-10f9-4b48-a0ef-624edd7a1383","system_id":"levelo_inurba_marseille","lat":43.31368,"lon":5.38488,"is_reserved":false,"is_disabled":false,"rental_uris":{"android":"levelo://app?vid=a292a457-10f9-4b48-a0ef-624edd7a1383","ios":"levelo://app?vid=a292a457-10f9-4b48-a0ef-624edd7a1383"},"vehicle_type_id":"4","last_reported":1734214075,"current_range_meters":24800,"station_id":"ce4bgt92rcd13ifvqcf0","pricing_plan_id":"cebpf4jnsgd1na2vs0mg"},{"bike_id":"d155e5dc-01d8-403a-892d-340cef9712f2","system_id":"levelo_inurba_marseille","lat":43.31044,"lon":5.38346,"is_reserved":false,"is_disabled":false,"rental_uris":{"android":"levelo://app?vid=d155e5dc-01d8-403a-892d-340cef9712f2","ios":"levelo://app?vid=d155e5dc-01d8-403a-892d-340cef9712f2"},"vehicle_type_id":"4","last_reported":1734214075,"current_range_meters":18000,"station_id":"ce4bgv92rcd13ifvqcr0","pricing_plan_id":"cebpf4jnsgd1na2vs0mg"},{"bike_id":"f1cc26cc-7e0e-4451-ac3b-fd295a7d7efc","system_id":"levelo_inurba_marseille","lat":43.30892,"lon":5.37192,"is_reserved":false,"is_disabled":false,"rental_uris":{"android":"levelo://app?vid=f1cc26cc-7e0e-4451-ac3b-fd295a7d7efc","ios":"levelo://app?vid=f1cc26cc-7e0e-4451-ac3b-fd295a7d7efc"},"vehicle_type_id":"4","last_reported":1734214075,"current_range_meters":11200,"station_id":"ce4bguh2rcd13ifvqckg","pricing_plan_id":"cebpf4jnsgd1na2vs0mg"},{"bike_id":"af6f3c5e-c739-460d-a27f-0c47560f3bfc","system_id":"levelo_inurba_marseille","lat":43.28707,"lon":5.3999,"is_reserved":false,"is_disabled":false,"rental_uris":{"android":"levelo://app?vid=af6f3c5e-c739-460d-a27f-0c47560f3bfc","ios":"levelo://app?vid=af6f3c5e-c739-460d-a27f-0c47560f3bfc"},"vehicle_type_id":"4","last_reported":1734214075,"current_range_meters":29600,"station_id":"ce4bho92rcd13ifvqh3g","pricing_plan_id":"cebpf4jnsgd1na2vs0mg"},{"bike_id":"357f62ed-4ec8-4ddc-af36-a87d158c2072","system_id":"levelo_inurba_marseille","lat":43.279079,"lon":5.380119,"is_reserved":false,"is_disabled":false,"rental_uris":{"android":"levelo://app?vid=357f62ed-4ec8-4ddc-af36-a87d158c2072","ios":"levelo://app?vid=357f62ed-4ec8-4ddc-af36-a87d158c2072"},"vehicle_type_id":"4","last_reported":1734214075,"current_range_meters":19200,"station_id":"ce4bhf92rcd13ifvqf50","pricing_plan_id":"cebpf4jnsgd1na2vs0mg"},{"bike_id":"07154a6e-1aad-4b6f-8cd5-49a1da2b8e24","system_id":"levelo_inurba_marseille","lat":43.23162,"lon":5.4371,"is_reserved":false,"is_disabled":false,"rental_uris":{"android":"levelo://app?vid=07154a6e-1aad-4b6f-8cd5-49a1da2b8e24","ios":"levelo://app?vid=07154a6e-1aad-4b6f-8cd5-49a1da2b8e24"},"vehicle_type_id":"4","last_reported":1734214075,"current_range_meters":39200,"station_id":"ce4bhmp2rcd13ifvqgog","pricing_plan_id":"cebpf4jnsgd1na2vs0mg"},{"bike_id":"acda9170-8058-4395-be1d-4f9f6510eb74","system_id":"levelo_inurba_marseille","lat":43.27906,"lon":5.38007,"is_reserved":false,"is_disabled":false,"rental_uris":{"android":"levelo://app?vid=acda9170-8058-4395-be1d-4f9f6510eb74","ios":"levelo://app?vid=acda9170-8058-4395-be1d-4f9f6510eb74"},"vehicle_type_id":"4","last_reported":1734214075,"current_range_meters":28400,"station_id":"ce4bhf92rcd13ifvqf50","pricing_plan_id":"cebpf4jnsgd1na2vs0mg"},{"bike_id":"25d50438-ea94-4bda-a203-219d565fa8f3","system_id":"levelo_inurba_marseille","lat":43.29033,"lon":5.39959,"is_reserved":false,"is_disabled":false,"rental_uris":{"android":"levelo://app?vid=25d50438-ea94-4bda-a203-219d565fa8f3","ios":"levelo://app?vid=25d50438-ea94-4bda-a203-219d565fa8f3"},"vehicle_type_id":"4","last_reported":1734214075,"current_range_meters":27600,"station_id":"ce4bhdp2rcd13ifvqf20","pricing_plan_id":"cebpf4jnsgd1na2vs0mg"},{"bike_id":"36e23093-baf4-4fb6-96c2-ab37566256cc","system_id":"levelo_inurba_marseille","lat":43.29275,"lon":5.372,"is_reserved":false,"is_disabled":false,"rental_uris":{"android":"levelo://app?vid=36e23093-baf4-4fb6-96c2-ab37566256cc","ios":"levelo://app?vid=36e23093-baf4-4fb6-96c2-ab37566256cc"},"vehicle_type_id":"4","last_reported":1734214075,"current_range_meters":36400,"station_id":"ce4bgh92rcd13ifvqb40","pricing_plan_id":"cebpf4jnsgd1na2vs0mg"},{"bike_id":"8889766f-8ba7-4c7d-b173-6f970b943218","system_id":"levelo_inurba_marseille","lat":43.29396,"lon":5.38648,"is_reserved":false,"is_disabled":false,"rental_uris":{"android":"levelo://app?vid=8889766f-8ba7-4c7d-b173-6f970b943218","ios":"levelo://app?vid=8889766f-8ba7-4c7d-b173-6f970b943218"},"vehicle_type_id":"4","last_reported":1734214075,"current_range_meters":38000,"station_id":"ce4bh2h2rcd13ifvqdh0","pricing_plan_id":"cebpf4jnsgd1na2vs0mg"},{"bike_id":"6b10d37b-3846-4f7e-8b9d-57ca79bbb675","system_id":"levelo_inurba_marseille","lat":43.29535,"lon":5.3855,"is_reserved":false,"is_disabled":true,"rental_uris":{"android":"levelo://app?vid=6b10d37b-3846-4f7e-8b9d-57ca79bbb675","ios":"levelo://app?vid=6b10d37b-3846-4f7e-8b9d-57ca79bbb675"},"vehicle_type_id":"4","last_reported":1734214075,"current_range_meters":36800,"station_id":"ce4bgih2rcd13ifvqba0","pricing_plan_id":"cebpf4jnsgd1na2vs0mg"},{"bike_id":"9703c418-561c-4947-909b-5280aa1605c3","system_id":"levelo_inurba_marseille","lat":43.2416,"lon":5.39725,"is_reserved":false,"is_disabled":false,"rental_uris":{"android":"levelo://app?vid=9703c418-561c-4947-909b-5280aa1605c3","ios":"levelo://app?vid=9703c418-561c-4947-909b-5280aa1605c3"},"vehicle_type_id":"4","last_reported":1734214075,"current_range_meters":38800,"station_id":"ce4bhn12rcd13ifvqgpg","pricing_plan_id":"cebpf4jnsgd1na2vs0mg"},{"bike_id":"7ccff023-1f54-4882-831f-d41b8116b43e","system_id":"levelo_inurba_marseille","lat":43.289738,"lon":5.378393,"is_reserved":false,"is_disabled":false,"rental_uris":{"android":"levelo://app?vid=7ccff023-1f54-4882-831f-d41b8116b43e","ios":"levelo://app?vid=7ccff023-1f54-4882-831f-d41b8116b43e"},"vehicle_type_id":"4","last_reported":1734214075,"current_range_meters":38800,"station_id":"ce4bh9p2rcd13ifvqed0","pricing_plan_id":"cebpf4jnsgd1na2vs0mg"},{"bike_id":"377ad416-b0ae-445f-b4f6-76ea4fd47056","system_id":"levelo_inurba_marseille","lat":43.27925,"lon":5.38002,"is_reserved":false,"is_disabled":false,"rental_uris":{"android":"levelo://app?vid=377ad416-b0ae-445f-b4f6-76ea4fd47056","ios":"levelo://app?vid=377ad416-b0ae-445f-b4f6-76ea4fd47056"},"vehicle_type_id":"4","last_reported":1734214075,"current_range_meters":12800,"station_id":"ce4bhf92rcd13ifvqf50","pricing_plan_id":"cebpf4jnsgd1na2vs0mg"},{"bike_id":"8ddc14ad-fb38-4186-8d5d-c0af9b8677d7","system_id":"levelo_inurba_marseille","lat":43.28952,"lon":5.38407,"is_reserved":false,"is_disabled":false,"rental_uris":{"android":"levelo://app?vid=8ddc14ad-fb38-4186-8d5d-c0af9b8677d7","ios":"levelo://app?vid=8ddc14ad-fb38-4186-8d5d-c0af9b8677d7"},"vehicle_type_id":"4","last_reported":1734214075,"current_range_meters":32400,"station_id":"ce4bh612rcd13ifvqe6g","pricing_plan_id":"cebpf4jnsgd1na2vs0mg"},{"bike_id":"73a5e47c-cd4d-43db-8435-971a31f159ec","system_id":"levelo_inurba_marseille","lat":43.29309,"lon":5.37157,"is_reserved":false,"is_disabled":false,"rental_uris":{"android":"levelo://app?vid=73a5e47c-cd4d-43db-8435-971a31f159ec","ios":"levelo://app?vid=73a5e47c-cd4d-43db-8435-971a31f159ec"},"vehicle_type_id":"4","last_reported":1734214075,"current_range_meters":35600,"station_id":"ce4bgh92rcd13ifvqb40","pricing_plan_id":"cebpf4jnsgd1na2vs0mg"},{"bike_id":"489bef11-27d3-43bb-a1d3-fb8c6a6b4564","system_id":"levelo_inurba_marseille","lat":43.26215,"lon":5.37426,"is_reserved":false,"is_disabled":false,"rental_uris":{"android":"levelo://app?vid=489bef11-27d3-43bb-a1d3-fb8c6a6b4564","ios":"levelo://app?vid=489bef11-27d3-43bb-a1d3-fb8c6a6b4564"},"vehicle_type_id":"4","last_reported":1734214075,"current_range_meters":17200,"station_id":"ce4bhgp2rcd13ifvqfc0","pricing_plan_id":"cebpf4jnsgd1na2vs0mg"},{"bike_id":"c7100cf8-cc8e-43c5-9619-3c289e92afef","system_id":"levelo_inurba_marseille","lat":43.29166,"lon":5.37163,"is_reserved":false,"is_disabled":false,"rental_uris":{"android":"levelo://app?vid=c7100cf8-cc8e-43c5-9619-3c289e92afef","ios":"levelo://app?vid=c7100cf8-cc8e-43c5-9619-3c289e92afef"},"vehicle_type_id":"4","last_reported":1734214075,"current_range_meters":38800,"station_id":"ce4bha92rcd13ifvqeh0","pricing_plan_id":"cebpf4jnsgd1na2vs0mg"},{"bike_id":"a9ecf1a4-de37-454b-a62a-1c76f78bfd81","system_id":"levelo_inurba_marseille","lat":43.24648,"lon":5.38893,"is_reserved":false,"is_disabled":false,"rental_uris":{"android":"levelo://app?vid=a9ecf1a4-de37-454b-a62a-1c76f78bfd81","ios":"levelo://app?vid=a9ecf1a4-de37-454b-a62a-1c76f78bfd81"},"vehicle_type_id":"4","last_reported":1734214075,"current_range_meters":28800,"station_id":"ce4bhg12rcd13ifvqf60","pricing_plan_id":"cebpf4jnsgd1na2vs0mg"},{"bike_id":"14265d1a-e85e-4729-94d2-d5bc6998360b","system_id":"levelo_inurba_marseille","lat":43.3031,"lon":5.39211,"is_reserved":false,"is_disabled":false,"rental_uris":{"android":"levelo://app?vid=14265d1a-e85e-4729-94d2-d5bc6998360b","ios":"levelo://app?vid=14265d1a-e85e-4729-94d2-d5bc6998360b"},"vehicle_type_id":"4","last_reported":1734214075,"current_range_meters":25600,"station_id":"ce4bgkh2rcd13ifvqbk0","pricing_plan_id":"cebpf4jnsgd1na2vs0mg"},{"bike_id":"693c1ece-3329-4985-9a2b-c90b1fe06ddf","system_id":"levelo_inurba_marseille","lat":43.3176,"lon":5.39013,"is_reserved":false,"is_disabled":false,"rental_uris":{"android":"levelo://app?vid=693c1ece-3329-4985-9a2b-c90b1fe06ddf","ios":"levelo://app?vid=693c1ece-3329-4985-9a2b-c90b1fe06ddf"},"vehicle_type_id":"4","last_reported":1734214075,"current_range_meters":27600,"station_id":"ce4bhqp2rcd13ifvqhng","pricing_plan_id":"cebpf4jnsgd1na2vs0mg"},{"bike_id":"b4f28572-e9c3-4d89-a9c6-b22627fb6aff","system_id":"levelo_inurba_marseille","lat":43.32546,"lon":5.41437,"is_reserved":false,"is_disabled":false,"rental_uris":{"android":"levelo://app?vid=b4f28572-e9c3-4d89-a9c6-b22627fb6aff","ios":"levelo://app?vid=b4f28572-e9c3-4d89-a9c6-b22627fb6aff"},"vehicle_type_id":"4","last_reported":1734214075,"current_range_meters":23200,"station_id":"ce4bhq12rcd13ifvqhhg","pricing_plan_id":"cebpf4jnsgd1na2vs0mg"},{"bike_id":"5c962dda-b22e-470a-995c-451dd81da0e3","system_id":"levelo_inurba_marseille","lat":43.28946,"lon":5.36414,"is_reserved":false,"is_disabled":false,"rental_uris":{"android":"levelo://app?vid=5c962dda-b22e-470a-995c-451dd81da0e3","ios":"levelo://app?vid=5c962dda-b22e-470a-995c-451dd81da0e3"},"vehicle_type_id":"4","last_reported":1734214075,"current_range_meters":3200,"station_id":"ce4bhc92rcd13ifvqetg","pricing_plan_id":"cebpf4jnsgd1na2vs0mg"},{"bike_id":"f98e7e7f-5920-4770-8e6a-e1e9626c2cb5","system_id":"levelo_inurba_marseille","lat":43.25806,"lon":5.39444,"is_reserved":false,"is_disabled":false,"rental_uris":{"android":"levelo://app?vid=f98e7e7f-5920-4770-8e6a-e1e9626c2cb5","ios":"levelo://app?vid=f98e7e7f-5920-4770-8e6a-e1e9626c2cb5"},"vehicle_type_id":"4","last_reported":1734214075,"current_range_meters":10000,"station_id":"ce4bhip2rcd13ifvqft0","pricing_plan_id":"cebpf4jnsgd1na2vs0mg"},{"bike_id":"55ce578e-dec3-47c6-bc2a-3369d6d751b1","system_id":"levelo_inurba_marseille","lat":43.23183,"lon":5.39994,"is_reserved":false,"is_disabled":false,"rental_uris":{"android":"levelo://app?vid=55ce578e-dec3-47c6-bc2a-3369d6d751b1","ios":"levelo://app?vid=55ce578e-dec3-47c6-bc2a-3369d6d751b1"},"vehicle_type_id":"4","last_reported":1734214075,"current_range_meters":6400,"station_id":"ce4bhn12rcd13ifvqgqg","pricing_plan_id":"cebpf4jnsgd1na2vs0mg"},{"bike_id":"4ed89fb3-49db-432f-94d6-dc56679cbedd","system_id":"levelo_inurba_marseille","lat":43.28975,"lon":5.37844,"is_reserved":false,"is_disabled":false,"rental_uris":{"android":"levelo://app?vid=4ed89fb3-49db-432f-94d6-dc56679cbedd","ios":"levelo://app?vid=4ed89fb3-49db-432f-94d6-dc56679cbedd"},"vehicle_type_id":"4","last_reported":1734214075,"current_range_meters":23200,"station_id":"ce4bh9p2rcd13ifvqed0","pricing_plan_id":"cebpf4jnsgd1na2vs0mg"},{"bike_id":"4e3eebec-f009-4887-809b-5f30495d5092","system_id":"levelo_inurba_marseille","lat":43.287,"lon":5.3739,"is_reserved":false,"is_disabled":true,"rental_uris":{"android":"levelo://app?vid=4e3eebec-f009-4887-809b-5f30495d5092","ios":"levelo://app?vid=4e3eebec-f009-4887-809b-5f30495d5092"},"vehicle_type_id":"4","last_reported":1734214075,"current_range_meters":24800,"station_id":"ce4bh3p2rcd13ifvqdq0","pricing_plan_id":"cebpf4jnsgd1na2vs0mg"},{"bike_id":"eb1496f4-67ed-47fd-8660-60023378367f","system_id":"levelo_inurba_marseille","lat":43.294212,"lon":5.374322,"is_reserved":false,"is_disabled":true,"rental_uris":{"android":"levelo://app?vid=eb1496f4-67ed-47fd-8660-60023378367f","ios":"levelo://app?vid=eb1496f4-67ed-47fd-8660-60023378367f"},"vehicle_type_id":"4","last_reported":1734214075,"current_range_meters":0,"station_id":"","pricing_plan_id":"cebpf4jnsgd1na2vs0mg"},{"bike_id":"71adf873-8534-4b4c-88ad-a35b28cb9554","system_id":"levelo_inurba_marseille","lat":43.24738,"lon":5.41154,"is_reserved":false,"is_disabled":false,"rental_uris":{"android":"levelo://app?vid=71adf873-8534-4b4c-88ad-a35b28cb9554","ios":"levelo://app?vid=71adf873-8534-4b4c-88ad-a35b28cb9554"},"vehicle_type_id":"4","last_reported":1734214075,"current_range_meters":22800,"station_id":"","pricing_plan_id":"cebpf4jnsgd1na2vs0mg"},{"bike_id":"c0c3fc51-3be3-4932-a397-78224f09cbb8","system_id":"levelo_inurba_marseille","lat":43.31227,"lon":5.36862,"is_reserved":false,"is_disabled":false,"rental_uris":{"android":"levelo://app?vid=c0c3fc51-3be3-4932-a397-78224f09cbb8","ios":"levelo://app?vid=c0c3fc51-3be3-4932-a397-78224f09cbb8"},"vehicle_type_id":"4","last_reported":1734214075,"current_range_meters":30400,"station_id":"ce4bgl92rcd13ifvqbq0","pricing_plan_id":"cebpf4jnsgd1na2vs0mg"},{"bike_id":"30ebf9e5-e6c0-48c8-b762-4f7bbd57689f","system_id":"levelo_inurba_marseille","lat":43.28936,"lon":5.3639,"is_reserved":false,"is_disabled":false,"rental_uris":{"android":"levelo://app?vid=30ebf9e5-e6c0-48c8-b762-4f7bbd57689f","ios":"levelo://app?vid=30ebf9e5-e6c0-48c8-b762-4f7bbd57689f"},"vehicle_type_id":"4","last_reported":1734214075,"current_range_meters":38000,"station_id":"ce4bhc92rcd13ifvqetg","pricing_plan_id":"cebpf4jnsgd1na2vs0mg"},{"bike_id":"1dde6f4b-4f52-49f7-98b1-3ea7bce0474f","system_id":"levelo_inurba_marseille","lat":43.31533,"lon":5.38029,"is_reserved":false,"is_disabled":false,"rental_uris":{"android":"levelo://app?vid=1dde6f4b-4f52-49f7-98b1-3ea7bce0474f","ios":"levelo://app?vid=1dde6f4b-4f52-49f7-98b1-3ea7bce0474f"},"vehicle_type_id":"4","last_reported":1734214075,"current_range_meters":10000,"station_id":"ce4bhsp2rcd13ifvqi50","pricing_plan_id":"cebpf4jnsgd1na2vs0mg"},{"bike_id":"e417af0d-29ea-459e-9bdd-15daa8ff17e0","system_id":"levelo_inurba_marseille","lat":43.29544,"lon":5.38565,"is_reserved":false,"is_disabled":true,"rental_uris":{"android":"levelo://app?vid=e417af0d-29ea-459e-9bdd-15daa8ff17e0","ios":"levelo://app?vid=e417af0d-29ea-459e-9bdd-15daa8ff17e0"},"vehicle_type_id":"4","last_reported":1734214075,"current_range_meters":38800,"station_id":"ce4bgih2rcd13ifvqba0","pricing_plan_id":"cebpf4jnsgd1na2vs0mg"},{"bike_id":"7d1db28c-edeb-4a91-9b40-97c4e6901127","system_id":"levelo_inurba_marseille","lat":43.25722,"lon":5.41103,"is_reserved":false,"is_disabled":false,"rental_uris":{"android":"levelo://app?vid=7d1db28c-edeb-4a91-9b40-97c4e6901127","ios":"levelo://app?vid=7d1db28c-edeb-4a91-9b40-97c4e6901127"},"vehicle_type_id":"4","last_reported":1734214075,"current_range_meters":26000,"station_id":"ce4bhkp2rcd13ifvqgd0","pricing_plan_id":"cebpf4jnsgd1na2vs0mg"},{"bike_id":"6294caf7-5c80-4698-96c5-02fec0775dba","system_id":"levelo_inurba_marseille","lat":43.31175,"lon":5.3872,"is_reserved":false,"is_disabled":false,"rental_uris":{"android":"levelo://app?vid=6294caf7-5c80-4698-96c5-02fec0775dba","ios":"levelo://app?vid=6294caf7-5c80-4698-96c5-02fec0775dba"},"vehicle_type_id":"4","last_reported":1734214075,"current_range_meters":38000,"station_id":"ce4bgv12rcd13ifvqcp0","pricing_plan_id":"cebpf4jnsgd1na2vs0mg"},{"bike_id":"abdf81ec-e98d-4dee-9e25-ca8f28442f23","system_id":"levelo_inurba_marseille","lat":43.29741,"lon":5.40717,"is_reserved":false,"is_disabled":true,"rental_uris":{"android":"levelo://app?vid=abdf81ec-e98d-4dee-9e25-ca8f28442f23","ios":"levelo://app?vid=abdf81ec-e98d-4dee-9e25-ca8f28442f23"},"vehicle_type_id":"4","last_reported":1734214075,"current_range_meters":400,"station_id":"","pricing_plan_id":"cebpf4jnsgd1na2vs0mg"},{"bike_id":"56a44aec-4383-4004-9164-02ac5de8f956","system_id":"levelo_inurba_marseille","lat":43.28848,"lon":5.35842,"is_reserved":false,"is_disabled":false,"rental_uris":{"android":"levelo://app?vid=56a44aec-4383-4004-9164-02ac5de8f956","ios":"levelo://app?vid=56a44aec-4383-4004-9164-02ac5de8f956"},"vehicle_type_id":"4","last_reported":1734214075,"current_range_meters":21600,"station_id":"ce4bhb12rcd13ifvqem0","pricing_plan_id":"cebpf4jnsgd1na2vs0mg"},{"bike_id":"748a382e-7fe2-4a58-a98a-ff4a5538255b","system_id":"levelo_inurba_marseille","lat":43.313572,"lon":5.384934,"is_reserved":false,"is_disabled":false,"rental_uris":{"android":"levelo://app?vid=748a382e-7fe2-4a58-a98a-ff4a5538255b","ios":"levelo://app?vid=748a382e-7fe2-4a58-a98a-ff4a5538255b"},"vehicle_type_id":"4","last_reported":1734214075,"current_range_meters":36400,"station_id":"ce4bgt92rcd13ifvqcf0","pricing_plan_id":"cebpf4jnsgd1na2vs0mg"},{"bike_id":"4a10ded7-00ff-4ff3-bc89-44b487cf8699","system_id":"levelo_inurba_marseille","lat":43.25122,"lon":5.40321,"is_reserved":false,"is_disabled":false,"rental_uris":{"android":"levelo://app?vid=4a10ded7-00ff-4ff3-bc89-44b487cf8699","ios":"levelo://app?vid=4a10ded7-00ff-4ff3-bc89-44b487cf8699"},"vehicle_type_id":"4","last_reported":1734214075,"current_range_meters":38800,"station_id":"ce4bhlh2rcd13ifvqgig","pricing_plan_id":"cebpf4jnsgd1na2vs0mg"},{"bike_id":"228fe83d-8ed9-4f3f-8b58-1ad5b3077b00","system_id":"levelo_inurba_marseille","lat":43.3042,"lon":5.39753,"is_reserved":false,"is_disabled":false,"rental_uris":{"android":"levelo://app?vid=228fe83d-8ed9-4f3f-8b58-1ad5b3077b00","ios":"levelo://app?vid=228fe83d-8ed9-4f3f-8b58-1ad5b3077b00"},"vehicle_type_id":"4","last_reported":1734214075,"current_range_meters":36400,"station_id":"ce4bh092rcd13ifvqd20","pricing_plan_id":"cebpf4jnsgd1na2vs0mg"},{"bike_id":"17cc4ddb-de8e-47e0-b9b2-0d9cd13f8f19","system_id":"levelo_inurba_marseille","lat":43.33621,"lon":5.41033,"is_reserved":false,"is_disabled":false,"rental_uris":{"android":"levelo://app?vid=17cc4ddb-de8e-47e0-b9b2-0d9cd13f8f19","ios":"levelo://app?vid=17cc4ddb-de8e-47e0-b9b2-0d9cd13f8f19"},"vehicle_type_id":"4","last_reported":1734214075,"current_range_meters":12000,"station_id":"ce4bhqh2rcd13ifvqhmg","pricing_plan_id":"cebpf4jnsgd1na2vs0mg"},{"bike_id":"6be26bca-8c98-4bdd-984c-f08645a078c8","system_id":"levelo_inurba_marseille","lat":43.29774,"lon":5.38106,"is_reserved":false,"is_disabled":false,"rental_uris":{"android":"levelo://app?vid=6be26bca-8c98-4bdd-984c-f08645a078c8","ios":"levelo://app?vid=6be26bca-8c98-4bdd-984c-f08645a078c8"},"vehicle_type_id":"4","last_reported":1734214075,"current_range_meters":38800,"station_id":"ce4bgip2rcd13ifvqbb0","pricing_plan_id":"cebpf4jnsgd1na2vs0mg"},{"bike_id":"ecbfcd56-e2e9-411a-916b-327a5fa7e43b","system_id":"levelo_inurba_marseille","lat":43.30005,"lon":5.37363,"is_reserved":false,"is_disabled":false,"rental_uris":{"android":"levelo://app?vid=ecbfcd56-e2e9-411a-916b-327a5fa7e43b","ios":"levelo://app?vid=ecbfcd56-e2e9-411a-916b-327a5fa7e43b"},"vehicle_type_id":"4","last_reported":1734214075,"current_range_meters":27200,"station_id":"","pricing_plan_id":"cebpf4jnsgd1na2vs0mg"},{"bike_id":"7bdde0b3-b592-41fc-9649-9bd6fe6ae294","system_id":"levelo_inurba_marseille","lat":43.29681,"lon":5.36671,"is_reserved":false,"is_disabled":false,"rental_uris":{"android":"levelo://app?vid=7bdde0b3-b592-41fc-9649-9bd6fe6ae294","ios":"levelo://app?vid=7bdde0b3-b592-41fc-9649-9bd6fe6ae294"},"vehicle_type_id":"4","last_reported":1734214075,"current_range_meters":38800,"station_id":"","pricing_plan_id":"cebpf4jnsgd1na2vs0mg"},{"bike_id":"a170ba40-17b7-4bf6-90f8-c07a5cf55709","system_id":"levelo_inurba_marseille","lat":43.24653,"lon":5.3889,"is_reserved":false,"is_disabled":true,"rental_uris":{"android":"levelo://app?vid=a170ba40-17b7-4bf6-90f8-c07a5cf55709","ios":"levelo://app?vid=a170ba40-17b7-4bf6-90f8-c07a5cf55709"},"vehicle_type_id":"4","last_reported":1734214075,"current_range_meters":0,"station_id":"ce4bhg12rcd13ifvqf60","pricing_plan_id":"cebpf4jnsgd1na2vs0mg"},{"bike_id":"b89cd02a-44c8-4fbb-83be-fee20ca926ec","system_id":"levelo_inurba_marseille","lat":43.25123,"lon":5.40321,"is_reserved":false,"is_disabled":false,"rental_uris":{"android":"levelo://app?vid=b89cd02a-44c8-4fbb-83be-fee20ca926ec","ios":"levelo://app?vid=b89cd02a-44c8-4fbb-83be-fee20ca926ec"},"vehicle_type_id":"4","last_reported":1734214075,"current_range_meters":8800,"station_id":"ce4bhlh2rcd13ifvqgig","pricing_plan_id":"cebpf4jnsgd1na2vs0mg"},{"bike_id":"b00f6b0f-a684-418a-b5a7-06ee9a0bd601","system_id":"levelo_inurba_marseille","lat":43.29531,"lon":5.38542,"is_reserved":false,"is_disabled":false,"rental_uris":{"android":"levelo://app?vid=b00f6b0f-a684-418a-b5a7-06ee9a0bd601","ios":"levelo://app?vid=b00f6b0f-a684-418a-b5a7-06ee9a0bd601"},"vehicle_type_id":"4","last_reported":1734214075,"current_range_meters":18000,"station_id":"ce4bgih2rcd13ifvqba0","pricing_plan_id":"cebpf4jnsgd1na2vs0mg"},{"bike_id":"5b6ca433-01a6-4103-9759-da4f588af137","system_id":"levelo_inurba_marseille","lat":43.27904,"lon":5.38023,"is_reserved":false,"is_disabled":false,"rental_uris":{"android":"levelo://app?vid=5b6ca433-01a6-4103-9759-da4f588af137","ios":"levelo://app?vid=5b6ca433-01a6-4103-9759-da4f588af137"},"vehicle_type_id":"4","last_reported":1734214075,"current_range_meters":18800,"station_id":"ce4bhf92rcd13ifvqf50","pricing_plan_id":"cebpf4jnsgd1na2vs0mg"},{"bike_id":"275ee744-5d9b-4ac8-bb35-a47c0223f564","system_id":"levelo_inurba_marseille","lat":43.32544,"lon":5.414294,"is_reserved":false,"is_disabled":false,"rental_uris":{"android":"levelo://app?vid=275ee744-5d9b-4ac8-bb35-a47c0223f564","ios":"levelo://app?vid=275ee744-5d9b-4ac8-bb35-a47c0223f564"},"vehicle_type_id":"4","last_reported":1734214075,"current_range_meters":20800,"station_id":"ce4bhq12rcd13ifvqhhg","pricing_plan_id":"cebpf4jnsgd1na2vs0mg"},{"bike_id":"c51154b5-1034-4fc0-8fac-d1d2e91dba39","system_id":"levelo_inurba_marseille","lat":43.23062,"lon":5.35494,"is_reserved":false,"is_disabled":false,"rental_uris":{"android":"levelo://app?vid=c51154b5-1034-4fc0-8fac-d1d2e91dba39","ios":"levelo://app?vid=c51154b5-1034-4fc0-8fac-d1d2e91dba39"},"vehicle_type_id":"4","last_reported":1734214075,"current_range_meters":8800,"station_id":"cpo3342slgdg3j2ifvpg","pricing_plan_id":"cebpf4jnsgd1na2vs0mg"},{"bike_id":"5cca0271-574f-47ce-96cc-d2585a5b5673","system_id":"levelo_inurba_marseille","lat":43.29417,"lon":5.38627,"is_reserved":false,"is_disabled":false,"rental_uris":{"android":"levelo://app?vid=5cca0271-574f-47ce-96cc-d2585a5b5673","ios":"levelo://app?vid=5cca0271-574f-47ce-96cc-d2585a5b5673"},"vehicle_type_id":"4","last_reported":1734214075,"current_range_meters":18800,"station_id":"ce4bh2h2rcd13ifvqdh0","pricing_plan_id":"cebpf4jnsgd1na2vs0mg"},{"bike_id":"d361eec5-1d66-4054-83a1-879726484406","system_id":"levelo_inurba_marseille","lat":43.31327,"lon":5.39689,"is_reserved":false,"is_disabled":false,"rental_uris":{"android":"levelo://app?vid=d361eec5-1d66-4054-83a1-879726484406","ios":"levelo://app?vid=d361eec5-1d66-4054-83a1-879726484406"},"vehicle_type_id":"4","last_reported":1734214075,"current_range_meters":18000,"station_id":"ce4bgvp2rcd13ifvqcu0","pricing_plan_id":"cebpf4jnsgd1na2vs0mg"},{"bike_id":"266f7fca-62d8-462d-83ba-67663ab9bbef","system_id":"levelo_inurba_marseille","lat":43.25107,"lon":5.40323,"is_reserved":false,"is_disabled":false,"rental_uris":{"android":"levelo://app?vid=266f7fca-62d8-462d-83ba-67663ab9bbef","ios":"levelo://app?vid=266f7fca-62d8-462d-83ba-67663ab9bbef"},"vehicle_type_id":"4","last_reported":1734214075,"current_range_meters":38000,"station_id":"ce4bhlh2rcd13ifvqgig","pricing_plan_id":"cebpf4jnsgd1na2vs0mg"},{"bike_id":"e6daa3b0-d355-4eb9-8e91-304a7094997b","system_id":"levelo_inurba_marseille","lat":43.2989,"lon":5.4367,"is_reserved":false,"is_disabled":false,"rental_uris":{"android":"levelo://app?vid=e6daa3b0-d355-4eb9-8e91-304a7094997b","ios":"levelo://app?vid=e6daa3b0-d355-4eb9-8e91-304a7094997b"},"vehicle_type_id":"4","last_reported":1734214075,"current_range_meters":18000,"station_id":"ce4bhpp2rcd13ifvqhfg","pricing_plan_id":"cebpf4jnsgd1na2vs0mg"},{"bike_id":"104ceb5b-ffeb-462d-afa4-5c623377a4ce","system_id":"levelo_inurba_marseille","lat":43.25818,"lon":5.39428,"is_reserved":false,"is_disabled":false,"rental_uris":{"android":"levelo://app?vid=104ceb5b-ffeb-462d-afa4-5c623377a4ce","ios":"levelo://app?vid=104ceb5b-ffeb-462d-afa4-5c623377a4ce"},"vehicle_type_id":"4","last_reported":1734214075,"current_range_meters":17600,"station_id":"ce4bhip2rcd13ifvqft0","pricing_plan_id":"cebpf4jnsgd1na2vs0mg"},{"bike_id":"fabc0430-593f-48af-8609-5df6565dc6c4","system_id":"levelo_inurba_marseille","lat":43.25124,"lon":5.40316,"is_reserved":false,"is_disabled":false,"rental_uris":{"android":"levelo://app?vid=fabc0430-593f-48af-8609-5df6565dc6c4","ios":"levelo://app?vid=fabc0430-593f-48af-8609-5df6565dc6c4"},"vehicle_type_id":"4","last_reported":1734214075,"current_range_meters":7200,"station_id":"ce4bhlh2rcd13ifvqgig","pricing_plan_id":"cebpf4jnsgd1na2vs0mg"},{"bike_id":"03d2214a-d9fe-4499-ab8e-4ae0d98f072c","system_id":"levelo_inurba_marseille","lat":43.28667,"lon":5.3867,"is_reserved":false,"is_disabled":false,"rental_uris":{"android":"levelo://app?vid=03d2214a-d9fe-4499-ab8e-4ae0d98f072c","ios":"levelo://app?vid=03d2214a-d9fe-4499-ab8e-4ae0d98f072c"},"vehicle_type_id":"4","last_reported":1734214075,"current_range_meters":31200,"station_id":"ce4bh492rcd13ifvqdug","pricing_plan_id":"cebpf4jnsgd1na2vs0mg"},{"bike_id":"21591caf-5015-404e-b449-b0dbc024d5d7","system_id":"levelo_inurba_marseille","lat":43.31119,"lon":5.37764,"is_reserved":false,"is_disabled":false,"rental_uris":{"android":"levelo://app?vid=21591caf-5015-404e-b449-b0dbc024d5d7","ios":"levelo://app?vid=21591caf-5015-404e-b449-b0dbc024d5d7"},"vehicle_type_id":"4","last_reported":1734214075,"current_range_meters":32800,"station_id":"ce4bgt92rcd13ifvqcg0","pricing_plan_id":"cebpf4jnsgd1na2vs0mg"},{"bike_id":"47f19aef-b2fd-4399-87eb-c59939d56e58","system_id":"levelo_inurba_marseille","lat":43.24391,"lon":5.37052,"is_reserved":false,"is_disabled":false,"rental_uris":{"android":"levelo://app?vid=47f19aef-b2fd-4399-87eb-c59939d56e58","ios":"levelo://app?vid=47f19aef-b2fd-4399-87eb-c59939d56e58"},"vehicle_type_id":"4","last_reported":1734214075,"current_range_meters":38000,"station_id":"ce4bhhh2rcd13ifvqfk0","pricing_plan_id":"cebpf4jnsgd1na2vs0mg"},{"bike_id":"72bdc4f6-9d1d-42c9-ac9e-f6bf19c7da8a","system_id":"levelo_inurba_marseille","lat":43.240731,"lon":5.377635,"is_reserved":false,"is_disabled":false,"rental_uris":{"android":"levelo://app?vid=72bdc4f6-9d1d-42c9-ac9e-f6bf19c7da8a","ios":"levelo://app?vid=72bdc4f6-9d1d-42c9-ac9e-f6bf19c7da8a"},"vehicle_type_id":"4","last_reported":1734214075,"current_range_meters":38800,"station_id":"ce4bhnp2rcd13ifvqgvg","pricing_plan_id":"cebpf4jnsgd1na2vs0mg"},{"bike_id":"56266a76-ba72-4e71-8e56-13aed47b955b","system_id":"levelo_inurba_marseille","lat":43.24666,"lon":5.38167,"is_reserved":false,"is_disabled":false,"rental_uris":{"android":"levelo://app?vid=56266a76-ba72-4e71-8e56-13aed47b955b","ios":"levelo://app?vid=56266a76-ba72-4e71-8e56-13aed47b955b"},"vehicle_type_id":"4","last_reported":1734214075,"current_range_meters":16400,"station_id":"ce4bhih2rcd13ifvqfr0","pricing_plan_id":"cebpf4jnsgd1na2vs0mg"},{"bike_id":"5b1563e7-f3dd-4fc4-915d-0d71cb9abf74","system_id":"levelo_inurba_marseille","lat":43.29271,"lon":5.38441,"is_reserved":false,"is_disabled":false,"rental_uris":{"android":"levelo://app?vid=5b1563e7-f3dd-4fc4-915d-0d71cb9abf74","ios":"levelo://app?vid=5b1563e7-f3dd-4fc4-915d-0d71cb9abf74"},"vehicle_type_id":"4","last_reported":1734214075,"current_range_meters":38000,"station_id":"ce4bh692rcd13ifvqea0","pricing_plan_id":"cebpf4jnsgd1na2vs0mg"},{"bike_id":"47abff2d-a13d-495a-897a-f3c2755c2291","system_id":"levelo_inurba_marseille","lat":43.25487,"lon":5.37663,"is_reserved":false,"is_disabled":false,"rental_uris":{"android":"levelo://app?vid=47abff2d-a13d-495a-897a-f3c2755c2291","ios":"levelo://app?vid=47abff2d-a13d-495a-897a-f3c2755c2291"},"vehicle_type_id":"4","last_reported":1734214075,"current_range_meters":38000,"station_id":"ce4bhh12rcd13ifvqff0","pricing_plan_id":"cebpf4jnsgd1na2vs0mg"},{"bike_id":"af5005fc-d058-4152-a2f0-a599ec2fe143","system_id":"levelo_inurba_marseille","lat":43.322882,"lon":5.382804,"is_reserved":false,"is_disabled":false,"rental_uris":{"android":"levelo://app?vid=af5005fc-d058-4152-a2f0-a599ec2fe143","ios":"levelo://app?vid=af5005fc-d058-4152-a2f0-a599ec2fe143"},"vehicle_type_id":"4","last_reported":1734214075,"current_range_meters":38800,"station_id":"ce4bhr12rcd13ifvqhqg","pricing_plan_id":"cebpf4jnsgd1na2vs0mg"},{"bike_id":"3650d84c-d2fd-4728-abeb-b9accdfa7210","system_id":"levelo_inurba_marseille","lat":43.30246,"lon":5.40081,"is_reserved":false,"is_disabled":true,"rental_uris":{"android":"levelo://app?vid=3650d84c-d2fd-4728-abeb-b9accdfa7210","ios":"levelo://app?vid=3650d84c-d2fd-4728-abeb-b9accdfa7210"},"vehicle_type_id":"4","last_reported":1734214075,"current_range_meters":25200,"station_id":"ce4bgvh2rcd13ifvqcs0","pricing_plan_id":"cebpf4jnsgd1na2vs0mg"},{"bike_id":"b76bfadb-6288-4939-8ca7-fc00e8227f70","system_id":"levelo_inurba_marseille","lat":43.3107,"lon":5.38352,"is_reserved":false,"is_disabled":true,"rental_uris":{"android":"levelo://app?vid=b76bfadb-6288-4939-8ca7-fc00e8227f70","ios":"levelo://app?vid=b76bfadb-6288-4939-8ca7-fc00e8227f70"},"vehicle_type_id":"4","last_reported":1734214075,"current_range_meters":0,"station_id":"ce4bgv92rcd13ifvqcr0","pricing_plan_id":"cebpf4jnsgd1na2vs0mg"},{"bike_id":"00eec280-8911-401e-b1d0-cb83b9c50d87","system_id":"levelo_inurba_marseille","lat":43.29988,"lon":5.38518,"is_reserved":false,"is_disabled":false,"rental_uris":{"android":"levelo://app?vid=00eec280-8911-401e-b1d0-cb83b9c50d87","ios":"levelo://app?vid=00eec280-8911-401e-b1d0-cb83b9c50d87"},"vehicle_type_id":"4","last_reported":1734214075,"current_range_meters":8800,"station_id":"ce4bgj92rcd13ifvqbd0","pricing_plan_id":"cebpf4jnsgd1na2vs0mg"},{"bike_id":"be3cc1f6-59b3-48d9-8415-8e7c09047a60","system_id":"levelo_inurba_marseille","lat":43.25114,"lon":5.40323,"is_reserved":false,"is_disabled":false,"rental_uris":{"android":"levelo://app?vid=be3cc1f6-59b3-48d9-8415-8e7c09047a60","ios":"levelo://app?vid=be3cc1f6-59b3-48d9-8415-8e7c09047a60"},"vehicle_type_id":"4","last_reported":1734214075,"current_range_meters":4400,"station_id":"ce4bhlh2rcd13ifvqgig","pricing_plan_id":"cebpf4jnsgd1na2vs0mg"},{"bike_id":"464c721f-776c-4489-87fa-e2dbfefca462","system_id":"levelo_inurba_marseille","lat":43.30551,"lon":5.38418,"is_reserved":false,"is_disabled":false,"rental_uris":{"android":"levelo://app?vid=464c721f-776c-4489-87fa-e2dbfefca462","ios":"levelo://app?vid=464c721f-776c-4489-87fa-e2dbfefca462"},"vehicle_type_id":"4","last_reported":1734214075,"current_range_meters":9200,"station_id":"ce4bgg92rcd13ifvqb30","pricing_plan_id":"cebpf4jnsgd1na2vs0mg"},{"bike_id":"18ecf20d-710e-4de4-81f8-f5c752c0ec80","system_id":"levelo_inurba_marseille","lat":43.28279,"lon":5.35075,"is_reserved":false,"is_disabled":false,"rental_uris":{"android":"levelo://app?vid=18ecf20d-710e-4de4-81f8-f5c752c0ec80","ios":"levelo://app?vid=18ecf20d-710e-4de4-81f8-f5c752c0ec80"},"vehicle_type_id":"4","last_reported":1734214075,"current_range_meters":17200,"station_id":"ce4bhbp2rcd13ifvqerg","pricing_plan_id":"cebpf4jnsgd1na2vs0mg"},{"bike_id":"425f721e-4481-4245-9dd4-65f65f07aa6c","system_id":"levelo_inurba_marseille","lat":43.28467,"lon":5.3588,"is_reserved":false,"is_disabled":false,"rental_uris":{"android":"levelo://app?vid=425f721e-4481-4245-9dd4-65f65f07aa6c","ios":"levelo://app?vid=425f721e-4481-4245-9dd4-65f65f07aa6c"},"vehicle_type_id":"4","last_reported":1734214075,"current_range_meters":28000,"station_id":"ce4bhah2rcd13ifvqei0","pricing_plan_id":"cebpf4jnsgd1na2vs0mg"},{"bike_id":"01ff1c67-c448-4f0b-9454-80972badcb2f","system_id":"levelo_inurba_marseille","lat":43.29319,"lon":5.37435,"is_reserved":false,"is_disabled":false,"rental_uris":{"android":"levelo://app?vid=01ff1c67-c448-4f0b-9454-80972badcb2f","ios":"levelo://app?vid=01ff1c67-c448-4f0b-9454-80972badcb2f"},"vehicle_type_id":"4","last_reported":1734214075,"current_range_meters":35200,"station_id":"ce4bgi12rcd13ifvqb70","pricing_plan_id":"cebpf4jnsgd1na2vs0mg"},{"bike_id":"27e3e284-342c-40a8-901e-bae9ad28ff08","system_id":"levelo_inurba_marseille","lat":43.34157,"lon":5.40902,"is_reserved":false,"is_disabled":false,"rental_uris":{"android":"levelo://app?vid=27e3e284-342c-40a8-901e-bae9ad28ff08","ios":"levelo://app?vid=27e3e284-342c-40a8-901e-bae9ad28ff08"},"vehicle_type_id":"4","last_reported":1734214075,"current_range_meters":18800,"station_id":"ce4bhqh2rcd13ifvqhlg","pricing_plan_id":"cebpf4jnsgd1na2vs0mg"},{"bike_id":"f9a3a93d-897c-4514-96cb-ccacb8410486","system_id":"levelo_inurba_marseille","lat":43.23957,"lon":5.3663,"is_reserved":false,"is_disabled":false,"rental_uris":{"android":"levelo://app?vid=f9a3a93d-897c-4514-96cb-ccacb8410486","ios":"levelo://app?vid=f9a3a93d-897c-4514-96cb-ccacb8410486"},"vehicle_type_id":"4","last_reported":1734214075,"current_range_meters":38800,"station_id":"ce4bhi12rcd13ifvqfp0","pricing_plan_id":"cebpf4jnsgd1na2vs0mg"},{"bike_id":"a9dd58fb-b0a6-4eec-a5a1-c9728b329a3c","system_id":"levelo_inurba_marseille","lat":43.29349,"lon":5.37859,"is_reserved":false,"is_disabled":false,"rental_uris":{"android":"levelo://app?vid=a9dd58fb-b0a6-4eec-a5a1-c9728b329a3c","ios":"levelo://app?vid=a9dd58fb-b0a6-4eec-a5a1-c9728b329a3c"},"vehicle_type_id":"4","last_reported":1734214075,"current_range_meters":10800,"station_id":"ce4bgjh2rcd13ifvqbf0","pricing_plan_id":"cebpf4jnsgd1na2vs0mg"},{"bike_id":"6cb5f94f-eade-4b7c-b995-84c805be74f9","system_id":"levelo_inurba_marseille","lat":43.33779,"lon":5.37414,"is_reserved":false,"is_disabled":false,"rental_uris":{"android":"levelo://app?vid=6cb5f94f-eade-4b7c-b995-84c805be74f9","ios":"levelo://app?vid=6cb5f94f-eade-4b7c-b995-84c805be74f9"},"vehicle_type_id":"4","last_reported":1734214075,"current_range_meters":37600,"station_id":"","pricing_plan_id":"cebpf4jnsgd1na2vs0mg"},{"bike_id":"58071d0b-1ca9-417a-a438-41b7fa75a0ec","system_id":"levelo_inurba_marseille","lat":43.29182,"lon":5.39312,"is_reserved":false,"is_disabled":true,"rental_uris":{"android":"levelo://app?vid=58071d0b-1ca9-417a-a438-41b7fa75a0ec","ios":"levelo://app?vid=58071d0b-1ca9-417a-a438-41b7fa75a0ec"},"vehicle_type_id":"4","last_reported":1734214075,"current_range_meters":2800,"station_id":"ce4bh192rcd13ifvqdd0","pricing_plan_id":"cebpf4jnsgd1na2vs0mg"},{"bike_id":"dfd7df50-b96e-4d10-81c7-84ad94dd9a10","system_id":"levelo_inurba_marseille","lat":43.31757,"lon":5.39019,"is_reserved":false,"is_disabled":false,"rental_uris":{"android":"levelo://app?vid=dfd7df50-b96e-4d10-81c7-84ad94dd9a10","ios":"levelo://app?vid=dfd7df50-b96e-4d10-81c7-84ad94dd9a10"},"vehicle_type_id":"4","last_reported":1734214075,"current_range_meters":38800,"station_id":"ce4bhqp2rcd13ifvqhng","pricing_plan_id":"cebpf4jnsgd1na2vs0mg"},{"bike_id":"5698604e-aaa5-42b6-9f56-06778c2d2e5a","system_id":"levelo_inurba_marseille","lat":43.25111,"lon":5.40323,"is_reserved":false,"is_disabled":false,"rental_uris":{"android":"levelo://app?vid=5698604e-aaa5-42b6-9f56-06778c2d2e5a","ios":"levelo://app?vid=5698604e-aaa5-42b6-9f56-06778c2d2e5a"},"vehicle_type_id":"4","last_reported":1734214075,"current_range_meters":38800,"station_id":"ce4bhlh2rcd13ifvqgig","pricing_plan_id":"cebpf4jnsgd1na2vs0mg"},{"bike_id":"0a646241-c519-49e3-958d-6acd5fe9c130","system_id":"levelo_inurba_marseille","lat":43.3302,"lon":5.39041,"is_reserved":false,"is_disabled":false,"rental_uris":{"android":"levelo://app?vid=0a646241-c519-49e3-958d-6acd5fe9c130","ios":"levelo://app?vid=0a646241-c519-49e3-958d-6acd5fe9c130"},"vehicle_type_id":"4","last_reported":1734214075,"current_range_meters":38800,"station_id":"ce4bhr92rcd13ifvqhrg","pricing_plan_id":"cebpf4jnsgd1na2vs0mg"},{"bike_id":"cfdfd01c-b2c2-41e6-9b96-7c8b8a24df63","system_id":"levelo_inurba_marseille","lat":43.28015,"lon":5.44252,"is_reserved":false,"is_disabled":false,"rental_uris":{"android":"levelo://app?vid=cfdfd01c-b2c2-41e6-9b96-7c8b8a24df63","ios":"levelo://app?vid=cfdfd01c-b2c2-41e6-9b96-7c8b8a24df63"},"vehicle_type_id":"4","last_reported":1734214075,"current_range_meters":22000,"station_id":"","pricing_plan_id":"cebpf4jnsgd1na2vs0mg"},{"bike_id":"62be7227-74b7-4792-b3e9-793f45ae0003","system_id":"levelo_inurba_marseille","lat":43.2454,"lon":5.39525,"is_reserved":false,"is_disabled":false,"rental_uris":{"android":"levelo://app?vid=62be7227-74b7-4792-b3e9-793f45ae0003","ios":"levelo://app?vid=62be7227-74b7-4792-b3e9-793f45ae0003"},"vehicle_type_id":"4","last_reported":1734214075,"current_range_meters":32800,"station_id":"ce4bhlp2rcd13ifvqgjg","pricing_plan_id":"cebpf4jnsgd1na2vs0mg"},{"bike_id":"47d51823-b4b3-45b6-9ade-fc0f4eab7fa6","system_id":"levelo_inurba_marseille","lat":43.28946,"lon":5.36392,"is_reserved":false,"is_disabled":false,"rental_uris":{"android":"levelo://app?vid=47d51823-b4b3-45b6-9ade-fc0f4eab7fa6","ios":"levelo://app?vid=47d51823-b4b3-45b6-9ade-fc0f4eab7fa6"},"vehicle_type_id":"4","last_reported":1734214075,"current_range_meters":10000,"station_id":"ce4bhc92rcd13ifvqetg","pricing_plan_id":"cebpf4jnsgd1na2vs0mg"},{"bike_id":"ca59d865-1951-4846-a717-a349b9e50e7c","system_id":"levelo_inurba_marseille","lat":43.27616,"lon":5.36109,"is_reserved":false,"is_disabled":true,"rental_uris":{"android":"levelo://app?vid=ca59d865-1951-4846-a717-a349b9e50e7c","ios":"levelo://app?vid=ca59d865-1951-4846-a717-a349b9e50e7c"},"vehicle_type_id":"4","last_reported":1734214075,"current_range_meters":35200,"station_id":"ce4bgj92rcd13ifvqbe0","pricing_plan_id":"cebpf4jnsgd1na2vs0mg"},{"bike_id":"ac790da0-101d-4c64-a15f-c103215fe687","system_id":"levelo_inurba_marseille","lat":43.2319,"lon":5.35552,"is_reserved":false,"is_disabled":false,"rental_uris":{"android":"levelo://app?vid=ac790da0-101d-4c64-a15f-c103215fe687","ios":"levelo://app?vid=ac790da0-101d-4c64-a15f-c103215fe687"},"vehicle_type_id":"4","last_reported":1734214075,"current_range_meters":10000,"station_id":"ce4bhu92rcd13ifvqi70","pricing_plan_id":"cebpf4jnsgd1na2vs0mg"},{"bike_id":"283ec910-2b59-4ffd-bbff-9867d116f826","system_id":"levelo_inurba_marseille","lat":43.337444,"lon":5.374475,"is_reserved":false,"is_disabled":true,"rental_uris":{"android":"levelo://app?vid=283ec910-2b59-4ffd-bbff-9867d116f826","ios":"levelo://app?vid=283ec910-2b59-4ffd-bbff-9867d116f826"},"vehicle_type_id":"4","last_reported":1734214075,"current_range_meters":0,"station_id":"","pricing_plan_id":"cebpf4jnsgd1na2vs0mg"},{"bike_id":"44bb1ee1-6608-426b-ad9e-5efdc1a7eac0","system_id":"levelo_inurba_marseille","lat":43.33752,"lon":5.37495,"is_reserved":false,"is_disabled":false,"rental_uris":{"android":"levelo://app?vid=44bb1ee1-6608-426b-ad9e-5efdc1a7eac0","ios":"levelo://app?vid=44bb1ee1-6608-426b-ad9e-5efdc1a7eac0"},"vehicle_type_id":"4","last_reported":1734214075,"current_range_meters":23200,"station_id":"","pricing_plan_id":"cebpf4jnsgd1na2vs0mg"},{"bike_id":"bbffd889-750b-4762-ae94-78458d50ea91","system_id":"levelo_inurba_marseille","lat":43.33719,"lon":5.39187,"is_reserved":false,"is_disabled":false,"rental_uris":{"android":"levelo://app?vid=bbffd889-750b-4762-ae94-78458d50ea91","ios":"levelo://app?vid=bbffd889-750b-4762-ae94-78458d50ea91"},"vehicle_type_id":"4","last_reported":1734214075,"current_range_meters":38800,"station_id":"ce4bhr92rcd13ifvqhsg","pricing_plan_id":"cebpf4jnsgd1na2vs0mg"},{"bike_id":"deb6eddb-fa5f-42e0-a3a4-a53bb91ef7c2","system_id":"levelo_inurba_marseille","lat":43.29874,"lon":5.39731,"is_reserved":false,"is_disabled":false,"rental_uris":{"android":"levelo://app?vid=deb6eddb-fa5f-42e0-a3a4-a53bb91ef7c2","ios":"levelo://app?vid=deb6eddb-fa5f-42e0-a3a4-a53bb91ef7c2"},"vehicle_type_id":"4","last_reported":1734214075,"current_range_meters":30800,"station_id":"ce4bh0h2rcd13ifvqd50","pricing_plan_id":"cebpf4jnsgd1na2vs0mg"},{"bike_id":"6af93c5c-2369-4249-9874-540f27f0edd3","system_id":"levelo_inurba_marseille","lat":43.33719,"lon":5.39183,"is_reserved":false,"is_disabled":false,"rental_uris":{"android":"levelo://app?vid=6af93c5c-2369-4249-9874-540f27f0edd3","ios":"levelo://app?vid=6af93c5c-2369-4249-9874-540f27f0edd3"},"vehicle_type_id":"4","last_reported":1734214075,"current_range_meters":11600,"station_id":"ce4bhr92rcd13ifvqhsg","pricing_plan_id":"cebpf4jnsgd1na2vs0mg"},{"bike_id":"aae088da-2eae-4c85-885f-eb90c01aef74","system_id":"levelo_inurba_marseille","lat":43.30127,"lon":5.38781,"is_reserved":false,"is_disabled":false,"rental_uris":{"android":"levelo://app?vid=aae088da-2eae-4c85-885f-eb90c01aef74","ios":"levelo://app?vid=aae088da-2eae-4c85-885f-eb90c01aef74"},"vehicle_type_id":"4","last_reported":1734214075,"current_range_meters":30800,"station_id":"ce4bghh2rcd13ifvqb60","pricing_plan_id":"cebpf4jnsgd1na2vs0mg"},{"bike_id":"6e6a004b-462d-4b03-aeaa-2611256f0d89","system_id":"levelo_inurba_marseille","lat":43.28114,"lon":5.38935,"is_reserved":false,"is_disabled":true,"rental_uris":{"android":"levelo://app?vid=6e6a004b-462d-4b03-aeaa-2611256f0d89","ios":"levelo://app?vid=6e6a004b-462d-4b03-aeaa-2611256f0d89"},"vehicle_type_id":"4","last_reported":1734214075,"current_range_meters":0,"station_id":"","pricing_plan_id":"cebpf4jnsgd1na2vs0mg"},{"bike_id":"a42f5994-229b-4ba6-b3f2-7045ec6149a1","system_id":"levelo_inurba_marseille","lat":43.24647,"lon":5.38901,"is_reserved":false,"is_disabled":false,"rental_uris":{"android":"levelo://app?vid=a42f5994-229b-4ba6-b3f2-7045ec6149a1","ios":"levelo://app?vid=a42f5994-229b-4ba6-b3f2-7045ec6149a1"},"vehicle_type_id":"4","last_reported":1734214075,"current_range_meters":11200,"station_id":"ce4bhg12rcd13ifvqf60","pricing_plan_id":"cebpf4jnsgd1na2vs0mg"},{"bike_id":"135e5cd9-80c5-473c-a7b1-4e3ae0b20661","system_id":"levelo_inurba_marseille","lat":43.29097,"lon":5.38809,"is_reserved":false,"is_disabled":true,"rental_uris":{"android":"levelo://app?vid=135e5cd9-80c5-473c-a7b1-4e3ae0b20661","ios":"levelo://app?vid=135e5cd9-80c5-473c-a7b1-4e3ae0b20661"},"vehicle_type_id":"4","last_reported":1734214075,"current_range_meters":0,"station_id":"ce4bgkh2rcd13ifvqbk0","pricing_plan_id":"cebpf4jnsgd1na2vs0mg"},{"bike_id":"ed9a6af3-2f16-46f1-8fc7-fd7a4a8d26f4","system_id":"levelo_inurba_marseille","lat":43.27376,"lon":5.36263,"is_reserved":false,"is_disabled":false,"rental_uris":{"android":"levelo://app?vid=ed9a6af3-2f16-46f1-8fc7-fd7a4a8d26f4","ios":"levelo://app?vid=ed9a6af3-2f16-46f1-8fc7-fd7a4a8d26f4"},"vehicle_type_id":"4","last_reported":1734214075,"current_range_meters":38800,"station_id":"ce4bhbh2rcd13ifvqeo0","pricing_plan_id":"cebpf4jnsgd1na2vs0mg"},{"bike_id":"2486d544-0292-4cbc-abc8-324d72621448","system_id":"levelo_inurba_marseille","lat":43.3149,"lon":5.37303,"is_reserved":false,"is_disabled":false,"rental_uris":{"android":"levelo://app?vid=2486d544-0292-4cbc-abc8-324d72621448","ios":"levelo://app?vid=2486d544-0292-4cbc-abc8-324d72621448"},"vehicle_type_id":"4","last_reported":1734214075,"current_range_meters":36400,"station_id":"ce4bgt12rcd13ifvqcd0","pricing_plan_id":"cebpf4jnsgd1na2vs0mg"},{"bike_id":"e67bad9c-3af3-4a96-b576-1960031a95e6","system_id":"levelo_inurba_marseille","lat":43.3112,"lon":5.37763,"is_reserved":false,"is_disabled":false,"rental_uris":{"android":"levelo://app?vid=e67bad9c-3af3-4a96-b576-1960031a95e6","ios":"levelo://app?vid=e67bad9c-3af3-4a96-b576-1960031a95e6"},"vehicle_type_id":"4","last_reported":1734214075,"current_range_meters":17600,"station_id":"ce4bgt92rcd13ifvqcg0","pricing_plan_id":"cebpf4jnsgd1na2vs0mg"},{"bike_id":"924c4a0a-e91e-43bb-9107-ce44f113c62e","system_id":"levelo_inurba_marseille","lat":43.27072,"lon":5.42282,"is_reserved":false,"is_disabled":false,"rental_uris":{"android":"levelo://app?vid=924c4a0a-e91e-43bb-9107-ce44f113c62e","ios":"levelo://app?vid=924c4a0a-e91e-43bb-9107-ce44f113c62e"},"vehicle_type_id":"4","last_reported":1734214075,"current_range_meters":28400,"station_id":"ce4bhk92rcd13ifvqgb0","pricing_plan_id":"cebpf4jnsgd1na2vs0mg"},{"bike_id":"e8aaa0b9-a913-404f-8e2c-26bf81f1a708","system_id":"levelo_inurba_marseille","lat":43.34144,"lon":5.40911,"is_reserved":false,"is_disabled":false,"rental_uris":{"android":"levelo://app?vid=e8aaa0b9-a913-404f-8e2c-26bf81f1a708","ios":"levelo://app?vid=e8aaa0b9-a913-404f-8e2c-26bf81f1a708"},"vehicle_type_id":"4","last_reported":1734214075,"current_range_meters":38800,"station_id":"ce4bhqh2rcd13ifvqhlg","pricing_plan_id":"cebpf4jnsgd1na2vs0mg"},{"bike_id":"92e58994-c94e-4343-8b7e-89e34d163311","system_id":"levelo_inurba_marseille","lat":43.29878,"lon":5.38912,"is_reserved":false,"is_disabled":false,"rental_uris":{"android":"levelo://app?vid=92e58994-c94e-4343-8b7e-89e34d163311","ios":"levelo://app?vid=92e58994-c94e-4343-8b7e-89e34d163311"},"vehicle_type_id":"4","last_reported":1734214075,"current_range_meters":32000,"station_id":"ce4bh392rcd13ifvqdl0","pricing_plan_id":"cebpf4jnsgd1na2vs0mg"},{"bike_id":"be683fd0-ec6a-4095-b888-57aea3177ea4","system_id":"levelo_inurba_marseille","lat":43.26209,"lon":5.37441,"is_reserved":false,"is_disabled":false,"rental_uris":{"android":"levelo://app?vid=be683fd0-ec6a-4095-b888-57aea3177ea4","ios":"levelo://app?vid=be683fd0-ec6a-4095-b888-57aea3177ea4"},"vehicle_type_id":"4","last_reported":1734214075,"current_range_meters":33600,"station_id":"ce4bhgp2rcd13ifvqfc0","pricing_plan_id":"cebpf4jnsgd1na2vs0mg"},{"bike_id":"299e54a2-4aa1-46ed-abd2-9ff34f25e086","system_id":"levelo_inurba_marseille","lat":43.30577,"lon":5.3658,"is_reserved":false,"is_disabled":false,"rental_uris":{"android":"levelo://app?vid=299e54a2-4aa1-46ed-abd2-9ff34f25e086","ios":"levelo://app?vid=299e54a2-4aa1-46ed-abd2-9ff34f25e086"},"vehicle_type_id":"4","last_reported":1734214075,"current_range_meters":16800,"station_id":"ce4bgs12rcd13ifvqcag","pricing_plan_id":"cebpf4jnsgd1na2vs0mg"},{"bike_id":"3599291f-7f07-46b8-9fec-0f3c5f3a7817","system_id":"levelo_inurba_marseille","lat":43.27994,"lon":5.40027,"is_reserved":false,"is_disabled":false,"rental_uris":{"android":"levelo://app?vid=3599291f-7f07-46b8-9fec-0f3c5f3a7817","ios":"levelo://app?vid=3599291f-7f07-46b8-9fec-0f3c5f3a7817"},"vehicle_type_id":"4","last_reported":1734214075,"current_range_meters":30000,"station_id":"ce4bho92rcd13ifvqh4g","pricing_plan_id":"cebpf4jnsgd1na2vs0mg"},{"bike_id":"f5f4d447-f4f3-4ff1-8516-48951ac4acb1","system_id":"levelo_inurba_marseille","lat":43.3169,"lon":5.4048,"is_reserved":false,"is_disabled":false,"rental_uris":{"android":"levelo://app?vid=f5f4d447-f4f3-4ff1-8516-48951ac4acb1","ios":"levelo://app?vid=f5f4d447-f4f3-4ff1-8516-48951ac4acb1"},"vehicle_type_id":"4","last_reported":1734214075,"current_range_meters":12000,"station_id":"ce4bh012rcd13ifvqd00","pricing_plan_id":"cebpf4jnsgd1na2vs0mg"},{"bike_id":"07aaffff-6c5a-4390-a6e5-b91a437396ec","system_id":"levelo_inurba_marseille","lat":43.24167,"lon":5.36391,"is_reserved":false,"is_disabled":false,"rental_uris":{"android":"levelo://app?vid=07aaffff-6c5a-4390-a6e5-b91a437396ec","ios":"levelo://app?vid=07aaffff-6c5a-4390-a6e5-b91a437396ec"},"vehicle_type_id":"4","last_reported":1734214075,"current_range_meters":9200,"station_id":"cpo36qri1sfpv3e86is0","pricing_plan_id":"cebpf4jnsgd1na2vs0mg"},{"bike_id":"171f5513-5f2f-4ab3-8b50-ea5fa30dcecc","system_id":"levelo_inurba_marseille","lat":43.29079,"lon":5.37158,"is_reserved":false,"is_disabled":false,"rental_uris":{"android":"levelo://app?vid=171f5513-5f2f-4ab3-8b50-ea5fa30dcecc","ios":"levelo://app?vid=171f5513-5f2f-4ab3-8b50-ea5fa30dcecc"},"vehicle_type_id":"4","last_reported":1734214075,"current_range_meters":38400,"station_id":"ce4bh5p2rcd13ifvqe4g","pricing_plan_id":"cebpf4jnsgd1na2vs0mg"},{"bike_id":"1b75c00a-7a16-497d-ba8a-3675046db709","system_id":"levelo_inurba_marseille","lat":43.29295,"lon":5.37175,"is_reserved":false,"is_disabled":false,"rental_uris":{"android":"levelo://app?vid=1b75c00a-7a16-497d-ba8a-3675046db709","ios":"levelo://app?vid=1b75c00a-7a16-497d-ba8a-3675046db709"},"vehicle_type_id":"4","last_reported":1734214075,"current_range_meters":19200,"station_id":"ce4bgh92rcd13ifvqb40","pricing_plan_id":"cebpf4jnsgd1na2vs0mg"},{"bike_id":"a36172b4-1d88-4dee-82f7-dfb2da414d3a","system_id":"levelo_inurba_marseille","lat":43.25082,"lon":5.3952,"is_reserved":false,"is_disabled":false,"rental_uris":{"android":"levelo://app?vid=a36172b4-1d88-4dee-82f7-dfb2da414d3a","ios":"levelo://app?vid=a36172b4-1d88-4dee-82f7-dfb2da414d3a"},"vehicle_type_id":"4","last_reported":1734214075,"current_range_meters":14800,"station_id":"ce4bhm12rcd13ifvqgkg","pricing_plan_id":"cebpf4jnsgd1na2vs0mg"},{"bike_id":"4f60e8db-2230-4556-bd82-9eac64b67738","system_id":"levelo_inurba_marseille","lat":43.29259,"lon":5.38445,"is_reserved":false,"is_disabled":false,"rental_uris":{"android":"levelo://app?vid=4f60e8db-2230-4556-bd82-9eac64b67738","ios":"levelo://app?vid=4f60e8db-2230-4556-bd82-9eac64b67738"},"vehicle_type_id":"4","last_reported":1734214075,"current_range_meters":30800,"station_id":"ce4bh692rcd13ifvqea0","pricing_plan_id":"cebpf4jnsgd1na2vs0mg"},{"bike_id":"ec992169-28ac-44ed-81d4-f57e15ed8930","system_id":"levelo_inurba_marseille","lat":43.2942,"lon":5.38626,"is_reserved":false,"is_disabled":false,"rental_uris":{"android":"levelo://app?vid=ec992169-28ac-44ed-81d4-f57e15ed8930","ios":"levelo://app?vid=ec992169-28ac-44ed-81d4-f57e15ed8930"},"vehicle_type_id":"4","last_reported":1734214075,"current_range_meters":22800,"station_id":"ce4bh2h2rcd13ifvqdh0","pricing_plan_id":"cebpf4jnsgd1na2vs0mg"},{"bike_id":"bf90883b-6d48-4aff-9eb8-aa99bcdacfd0","system_id":"levelo_inurba_marseille","lat":43.27881,"lon":5.40735,"is_reserved":false,"is_disabled":false,"rental_uris":{"android":"levelo://app?vid=bf90883b-6d48-4aff-9eb8-aa99bcdacfd0","ios":"levelo://app?vid=bf90883b-6d48-4aff-9eb8-aa99bcdacfd0"},"vehicle_type_id":"4","last_reported":1734214075,"current_range_meters":17200,"station_id":"ce4bhnh2rcd13ifvqgtg","pricing_plan_id":"cebpf4jnsgd1na2vs0mg"},{"bike_id":"c1f80541-c3a8-49f0-9704-465534aa49ce","system_id":"levelo_inurba_marseille","lat":43.30409,"lon":5.41269,"is_reserved":false,"is_disabled":false,"rental_uris":{"android":"levelo://app?vid=c1f80541-c3a8-49f0-9704-465534aa49ce","ios":"levelo://app?vid=c1f80541-c3a8-49f0-9704-465534aa49ce"},"vehicle_type_id":"4","last_reported":1734214075,"current_range_meters":38800,"station_id":"ce4bhop2rcd13ifvqh8g","pricing_plan_id":"cebpf4jnsgd1na2vs0mg"},{"bike_id":"9c18590c-c7c2-4772-8977-7d5944ddd1b5","system_id":"levelo_inurba_marseille","lat":43.281,"lon":5.37842,"is_reserved":false,"is_disabled":false,"rental_uris":{"android":"levelo://app?vid=9c18590c-c7c2-4772-8977-7d5944ddd1b5","ios":"levelo://app?vid=9c18590c-c7c2-4772-8977-7d5944ddd1b5"},"vehicle_type_id":"4","last_reported":1734214075,"current_range_meters":10800,"station_id":"ce4bha12rcd13ifvqee0","pricing_plan_id":"cebpf4jnsgd1na2vs0mg"},{"bike_id":"2c66e731-c044-4057-ba99-38aa63e029be","system_id":"levelo_inurba_marseille","lat":43.27943,"lon":5.39566,"is_reserved":false,"is_disabled":false,"rental_uris":{"android":"levelo://app?vid=2c66e731-c044-4057-ba99-38aa63e029be","ios":"levelo://app?vid=2c66e731-c044-4057-ba99-38aa63e029be"},"vehicle_type_id":"4","last_reported":1734214075,"current_range_meters":17600,"station_id":"ce4bhf92rcd13ifvqf40","pricing_plan_id":"cebpf4jnsgd1na2vs0mg"},{"bike_id":"30f7652d-68ec-4a9a-b8c8-5aa173f7380a","system_id":"levelo_inurba_marseille","lat":43.29963,"lon":5.385,"is_reserved":false,"is_disabled":false,"rental_uris":{"android":"levelo://app?vid=30f7652d-68ec-4a9a-b8c8-5aa173f7380a","ios":"levelo://app?vid=30f7652d-68ec-4a9a-b8c8-5aa173f7380a"},