{"last_updated":1749766203,"ttl":60,"version":"2.2","data":{"bikes":[{"bike_id":"b31f0139-170f-4194-984f-4386218a1e9d","system_id":"levelo_inurba_marseille","lat":43.33771,"lon":5.37424,"is_reserved":false,"is_disabled":true,"rental_uris":{"android":"levelo://app?vid=b31f0139-170f-4194-984f-4386218a1e9d","ios":"levelo://app?vid=b31f0139-170f-4194-984f-4386218a1e9d"},"vehicle_type_id":"4","last_reported":1749766203,"current_range_meters":0,"station_id":"","pricing_plan_id":"cebpf4jnsgd1na2vs0mg"},{"bike_id":"1acfb620-cad7-48c0-8901-d7a5b74a5b65","system_id":"levelo_inurba_marseille","lat":43.33751,"lon":5.37456,"is_reserved":false,"is_disabled":false,"rental_uris":{"android":"levelo://app?vid=1acfb620-cad7-48c0-8901-d7a5b74a5b65","ios":"levelo://app?vid=1acfb620-cad7-48c0-8901-d7a5b74a5b65"},"vehicle_type_id":"4","last_reported":1749766203,"current_range_meters":6400,"station_id":"","pricing_plan_id":"cebpf4jnsgd1na2vs0mg"},{"bike_id":"d4726352-7076-43eb-a171-725f7f1300cd","system_id":"levelo_inurba_marseille","lat":43.28194,"lon":5.39046,"is_reserved":false,"is_disabled":true,"rental_uris":{"android":"levelo://app?vid=d4726352-7076-43eb-a171-725f7f1300cd","ios":"levelo://app?vid=d4726352-7076-43eb-a171-725f7f1300cd"},"vehicle_type_id":"4","last_reported":1749766203,"current_range_meters":0,"station_id":"","pricing_plan_id":"cebpf4jnsgd1na2vs0mg"},{"bike_id":"bf89d78c-eb96-40d5-beb0-f402ef102cc1","system_id":"levelo_inurba_marseille","lat":43.337444,"lon":5.374475,"is_reserved":false,"is_disabled":true,"rental_uris":{"android":"levelo://app?vid=bf89d78c-eb96-40d5-beb0-f402ef102cc1","ios":"levelo://app?vid=bf89d78c-eb96-40d5-beb0-f402ef102cc1"},"vehicle_type_id":"4","last_reported":1749766203,"current_range_meters":0,"station_id":"","pricing_plan_id":"cebpf4jnsgd1na2vs0mg"},{"bike_id":"7c6a9c32-3bbe-4d4c-8294-1969d0688a87","system_id":"levelo_inurba_marseille","lat":43.28455,"lon":5.42072,"is_reserved":false,"is_disabled":true,"rental_uris":{"android":"levelo://app?vid=7c6a9c32-3bbe-4d4c-8294-1969d0688a87","ios":"levelo://app?vid=7c6a9c32-3bbe-4d4c-8294-1969d0688a87"},"vehicle_type_id":"4","last_reported":1749766203,"current_range_meters":0,"station_id":"","pricing_plan_id":"cebpf4jnsgd1na2vs0mg"},{"bike_id":"e5a418ab-16b9-4fbd-8198-b4dcf4120b23","system_id":"levelo_inurba_marseille","lat":43.260223,"lon":5.375339,"is_reserved":false,"is_disabled":true,"rental_uris":{"android":"levelo://app?vid=e5a418ab-16b9-4fbd-8198-b4dcf4120b23","ios":"levelo://app?vid=e5a418ab-16b9-4fbd-8198-b4dcf4120b23"},"vehicle_type_id":"4","last_reported":1749766203,"current_range_meters":0,"station_id":"","pricing_plan_id":"cebpf4jnsgd1na2vs0mg"},{"bike_id":"492f4bbd-1190-4ef2-b66a-479ffe91b09b","system_id":"levelo_inurba_marseille","lat":43.337444,"lon":5.374475,"is_reserved":false,"is_disabled":true,"rental_uris":{"android":"levelo://app?vid=492f4bbd-1190-4ef2-b66a-479ffe91b09b","ios":"levelo://app?vid=492f4bbd-1190-4ef2-b66a-479ffe91b09b"},"vehicle_type_id":"4","last_reported":1749766203,"current_range_meters":0,"station_id":"","pricing_plan_id":"cebpf4jnsgd1na2vs0mg"},{"bike_id":"ce526313-e4c7-47eb-856f-183916936663","system_id":"levelo_inurba_marseille","lat":43.26212,"lon":5.39597,"is_reserved":false,"is_disabled":true,"rental_uris":{"android":"levelo://app?vid=ce526313-e4c7-47eb-856f-183916936663","ios":"levelo://app?vid=ce526313-e4c7-47eb-856f-183916936663"},"vehicle_type_id":"4","last_reported":1749766203,"current_range_meters":0,"station_id":"","pricing_plan_id":"cebpf4jnsgd1na2vs0mg"},{"bike_id":"3a95650e-3b7f-4eec-b29c-edc0f4501c80","system_id":"levelo_inurba_marseille","lat":43.27487,"lon":5.42433,"is_reserved":false,"is_disabled":true,"rental_uris":{"android":"levelo://app?vid=3a95650e-3b7f-4eec-b29c-edc0f4501c80","ios":"levelo://app?vid=3a95650e-3b7f-4eec-b29c-edc0f4501c80"},"vehicle_type_id":"4","last_reported":1749766203,"current_range_meters":0,"station_id":"ce4bhn92rcd13ifvqgrg","pricing_plan_id":"cebpf4jnsgd1na2vs0mg"},{"bike_id":"b18ce1ce-bbed-467d-b219-56823a682e66","system_id":"levelo_inurba_marseille","lat":43.32739,"lon":5.4239,"is_reserved":false,"is_disabled":true,"rental_uris":{"android":"levelo://app?vid=b18ce1ce-bbed-467d-b219-56823a682e66","ios":"levelo://app?vid=b18ce1ce-bbed-467d-b219-56823a682e66"},"vehicle_type_id":"4","last_reported":1749766203,"current_range_meters":0,"station_id":"ce4bhp92rcd13ifvqhcg","pricing_plan_id":"cebpf4jnsgd1na2vs0mg"},{"bike_id":"c81c5999-1ebd-4e29-8bcb-b8ee16968943","system_id":"levelo_inurba_marseille","lat":43.32475,"lon":5.36573,"is_reserved":false,"is_disabled":true,"rental_uris":{"android":"levelo://app?vid=c81c5999-1ebd-4e29-8bcb-b8ee16968943","ios":"levelo://app?vid=c81c5999-1ebd-4e29-8bcb-b8ee16968943"},"vehicle_type_id":"4","last_reported":1749766203,"current_range_meters":0,"station_id":"ce4bhs12rcd13ifvqhvg","pricing_plan_id":"cebpf4jnsgd1na2vs0mg"},{"bike_id":"a9b6bf99-4070-4437-bb20-72962ae30b90","system_id":"levelo_inurba_marseille","lat":43.274732,"lon":5.363963,"is_reserved":false,"is_disabled":true,"rental_uris":{"android":"levelo://app?vid=a9b6bf99-4070-4437-bb20-72962ae30b90","ios":"levelo://app?vid=a9b6bf99-4070-4437-bb20-72962ae30b90"},"vehicle_type_id":"4","last_reported":1749766203,"current_range_meters":400,"station_id":"","pricing_plan_id":"cebpf4jnsgd1na2vs0mg"},{"bike_id":"3589a205-671f-4e20-a149-145bef043099","system_id":"levelo_inurba_marseille","lat":43.29269,"lon":5.36464,"is_reserved":false,"is_disabled":true,"rental_uris":{"android":"levelo://app?vid=3589a205-671f-4e20-a149-145bef043099","ios":"levelo://app?vid=3589a205-671f-4e20-a149-145bef043099"},"vehicle_type_id":"4","last_reported":1749766203,"current_range_meters":400,"station_id":"","pricing_plan_id":"cebpf4jnsgd1na2vs0mg"},{"bike_id":"57e53f3d-694b-4384-acfd-564d1db11ac1","system_id":"levelo_inurba_marseille","lat":43.24739,"lon":5.40667,"is_reserved":false,"is_disabled":true,"rental_uris":{"android":"levelo://app?vid=57e53f3d-694b-4384-acfd-564d1db11ac1","ios":"levelo://app?vid=57e53f3d-694b-4384-acfd-564d1db11ac1"},"vehicle_type_id":"4","last_reported":1749766203,"current_range_meters":800,"station_id":"","pricing_plan_id":"cebpf4jnsgd1na2vs0mg"},{"bike_id":"714f2415-0c52-43a9-a110-79853909e612","system_id":"levelo_inurba_marseille","lat":43.299335,"lon":5.374213,"is_reserved":false,"is_disabled":true,"rental_uris":{"android":"levelo://app?vid=714f2415-0c52-43a9-a110-79853909e612","ios":"levelo://app?vid=714f2415-0c52-43a9-a110-79853909e612"},"vehicle_type_id":"4","last_reported":1749766203,"current_range_meters":800,"station_id":"ce4bgrp2rcd13ifvqc9g","pricing_plan_id":"cebpf4jnsgd1na2vs0mg"},{"bike_id":"66b1cbfb-c132-4ef4-922c-0beab9b5a350","system_id":"levelo_inurba_marseille","lat":43.29733,"lon":5.46018,"is_reserved":false,"is_disabled":true,"rental_uris":{"android":"levelo://app?vid=66b1cbfb-c132-4ef4-922c-0beab9b5a350","ios":"levelo://app?vid=66b1cbfb-c132-4ef4-922c-0beab9b5a350"},"vehicle_type_id":"4","last_reported":1749766203,"current_range_meters":1200,"station_id":"","pricing_plan_id":"cebpf4jnsgd1na2vs0mg"},{"bike_id":"853e9d90-8fb4-4c17-a762-9923b9fb02f0","system_id":"levelo_inurba_marseille","lat":43.25446,"lon":5.38104,"is_reserved":false,"is_disabled":true,"rental_uris":{"android":"levelo://app?vid=853e9d90-8fb4-4c17-a762-9923b9fb02f0","ios":"levelo://app?vid=853e9d90-8fb4-4c17-a762-9923b9fb02f0"},"vehicle_type_id":"4","last_reported":1749766203,"current_range_meters":2000,"station_id":"","pricing_plan_id":"cebpf4jnsgd1na2vs0mg"},{"bike_id":"5077581b-cebb-46fc-ba69-4fa8272d4810","system_id":"levelo_inurba_marseille","lat":43.213647,"lon":5.355261,"is_reserved":false,"is_disabled":false,"rental_uris":{"android":"levelo://app?vid=5077581b-cebb-46fc-ba69-4fa8272d4810","ios":"levelo://app?vid=5077581b-cebb-46fc-ba69-4fa8272d4810"},"vehicle_type_id":"4","last_reported":1749766203,"current_range_meters":2800,"station_id":"","pricing_plan_id":"cebpf4jnsgd1na2vs0mg"},{"bike_id":"4b46de49-fc9e-423b-b68b-7bdf05a00e45","system_id":"levelo_inurba_marseille","lat":43.25315,"lon":5.39369,"is_reserved":false,"is_disabled":false,"rental_uris":{"android":"levelo://app?vid=4b46de49-fc9e-423b-b68b-7bdf05a00e45","ios":"levelo://app?vid=4b46de49-fc9e-423b-b68b-7bdf05a00e45"},"vehicle_type_id":"4","last_reported":1749766203,"current_range_meters":2800,"station_id":"","pricing_plan_id":"cebpf4jnsgd1na2vs0mg"},{"bike_id":"8bc2b890-8875-4b0a-9157-1e38232badc4","system_id":"levelo_inurba_marseille","lat":43.24179,"lon":5.39736,"is_reserved":false,"is_disabled":false,"rental_uris":{"android":"levelo://app?vid=8bc2b890-8875-4b0a-9157-1e38232badc4","ios":"levelo://app?vid=8bc2b890-8875-4b0a-9157-1e38232badc4"},"vehicle_type_id":"4","last_reported":1749766203,"current_range_meters":2800,"station_id":"ce4bhn12rcd13ifvqgpg","pricing_plan_id":"cebpf4jnsgd1na2vs0mg"},{"bike_id":"a11e2f95-f2db-47ea-a510-51db897ce935","system_id":"levelo_inurba_marseille","lat":43.29531,"lon":5.39027,"is_reserved":false,"is_disabled":false,"rental_uris":{"android":"levelo://app?vid=a11e2f95-f2db-47ea-a510-51db897ce935","ios":"levelo://app?vid=a11e2f95-f2db-47ea-a510-51db897ce935"},"vehicle_type_id":"4","last_reported":1749766203,"current_range_meters":3200,"station_id":"ce4bh3p2rcd13ifvqdp0","pricing_plan_id":"cebpf4jnsgd1na2vs0mg"},{"bike_id":"a65610d2-25bc-44d0-bbd3-3e69717b1aca","system_id":"levelo_inurba_marseille","lat":43.30729,"lon":5.40167,"is_reserved":false,"is_disabled":false,"rental_uris":{"android":"levelo://app?vid=a65610d2-25bc-44d0-bbd3-3e69717b1aca","ios":"levelo://app?vid=a65610d2-25bc-44d0-bbd3-3e69717b1aca"},"vehicle_type_id":"4","last_reported":1749766203,"current_range_meters":4000,"station_id":"","pricing_plan_id":"cebpf4jnsgd1na2vs0mg"},{"bike_id":"2591baac-ec70-4676-9c62-770b3db610e4","system_id":"levelo_inurba_marseille","lat":43.29277,"lon":5.40113,"is_reserved":false,"is_disabled":false,"rental_uris":{"android":"levelo://app?vid=2591baac-ec70-4676-9c62-770b3db610e4","ios":"levelo://app?vid=2591baac-ec70-4676-9c62-770b3db610e4"},"vehicle_type_id":"4","last_reported":1749766203,"current_range_meters":4000,"station_id":"ce4bh312rcd13ifvqdk0","pricing_plan_id":"cebpf4jnsgd1na2vs0mg"},{"bike_id":"b0f5dbf0-03df-454a-9f9e-d0ca884ccd96","system_id":"levelo_inurba_marseille","lat":43.27838,"lon":5.39203,"is_reserved":false,"is_disabled":false,"rental_uris":{"android":"levelo://app?vid=b0f5dbf0-03df-454a-9f9e-d0ca884ccd96","ios":"levelo://app?vid=b0f5dbf0-03df-454a-9f9e-d0ca884ccd96"},"vehicle_type_id":"4","last_reported":1749766203,"current_range_meters":4000,"station_id":"ce4bhjp2rcd13ifvqga0","pricing_plan_id":"cebpf4jnsgd1na2vs0mg"},{"bike_id":"5c219ba0-bd6f-4ec1-8199-9fc28d07f25c","system_id":"levelo_inurba_marseille","lat":43.32318,"lon":5.44662,"is_reserved":false,"is_disabled":false,"rental_uris":{"android":"levelo://app?vid=5c219ba0-bd6f-4ec1-8199-9fc28d07f25c","ios":"levelo://app?vid=5c219ba0-bd6f-4ec1-8199-9fc28d07f25c"},"vehicle_type_id":"4","last_reported":1749766203,"current_range_meters":4800,"station_id":"","pricing_plan_id":"cebpf4jnsgd1na2vs0mg"},{"bike_id":"66314ca9-30a7-4c0a-8507-6f89f4c9b4e1","system_id":"levelo_inurba_marseille","lat":43.26178,"lon":5.37051,"is_reserved":false,"is_disabled":false,"rental_uris":{"android":"levelo://app?vid=66314ca9-30a7-4c0a-8507-6f89f4c9b4e1","ios":"levelo://app?vid=66314ca9-30a7-4c0a-8507-6f89f4c9b4e1"},"vehicle_type_id":"4","last_reported":1749766203,"current_range_meters":4800,"station_id":"","pricing_plan_id":"cebpf4jnsgd1na2vs0mg"},{"bike_id":"543ae042-548d-459c-9bf9-84a2ef008637","system_id":"levelo_inurba_marseille","lat":43.28936,"lon":5.366452,"is_reserved":false,"is_disabled":false,"rental_uris":{"android":"levelo://app?vid=543ae042-548d-459c-9bf9-84a2ef008637","ios":"levelo://app?vid=543ae042-548d-459c-9bf9-84a2ef008637"},"vehicle_type_id":"4","last_reported":1749766203,"current_range_meters":4800,"station_id":"ce4bhc92rcd13ifvqetg","pricing_plan_id":"cebpf4jnsgd1na2vs0mg"},{"bike_id":"c18dd1b1-c7a6-44ba-9260-65bd123f5651","system_id":"levelo_inurba_marseille","lat":43.2794,"lon":5.41043,"is_reserved":false,"is_disabled":false,"rental_uris":{"android":"levelo://app?vid=c18dd1b1-c7a6-44ba-9260-65bd123f5651","ios":"levelo://app?vid=c18dd1b1-c7a6-44ba-9260-65bd123f5651"},"vehicle_type_id":"4","last_reported":1749766203,"current_range_meters":4800,"station_id":"ce4bhnp2rcd13ifvqh0g","pricing_plan_id":"cebpf4jnsgd1na2vs0mg"},{"bike_id":"9a2aea70-a1fd-492f-b01c-8df565d98ed9","system_id":"levelo_inurba_marseille","lat":43.25866,"lon":5.39896,"is_reserved":false,"is_disabled":false,"rental_uris":{"android":"levelo://app?vid=9a2aea70-a1fd-492f-b01c-8df565d98ed9","ios":"levelo://app?vid=9a2aea70-a1fd-492f-b01c-8df565d98ed9"},"vehicle_type_id":"4","last_reported":1749766203,"current_range_meters":5600,"station_id":"ce4bhl92rcd13ifvqghg","pricing_plan_id":"cebpf4jnsgd1na2vs0mg"},{"bike_id":"cc75948a-4cf0-4592-babe-3fb3b8670bdd","system_id":"levelo_inurba_marseille","lat":43.27938,"lon":5.41045,"is_reserved":false,"is_disabled":false,"rental_uris":{"android":"levelo://app?vid=cc75948a-4cf0-4592-babe-3fb3b8670bdd","ios":"levelo://app?vid=cc75948a-4cf0-4592-babe-3fb3b8670bdd"},"vehicle_type_id":"4","last_reported":1749766203,"current_range_meters":5600,"station_id":"ce4bhnp2rcd13ifvqh0g","pricing_plan_id":"cebpf4jnsgd1na2vs0mg"},{"bike_id":"8e108a83-e2bf-43e0-9b41-3765b051abd1","system_id":"levelo_inurba_marseille","lat":43.28041,"lon":5.34948,"is_reserved":false,"is_disabled":false,"rental_uris":{"android":"levelo://app?vid=8e108a83-e2bf-43e0-9b41-3765b051abd1","ios":"levelo://app?vid=8e108a83-e2bf-43e0-9b41-3765b051abd1"},"vehicle_type_id":"4","last_reported":1749766203,"current_range_meters":6000,"station_id":"","pricing_plan_id":"cebpf4jnsgd1na2vs0mg"},{"bike_id":"5514c35d-6efe-4239-9a72-fa946ca5d7a0","system_id":"levelo_inurba_marseille","lat":43.30373,"lon":5.425,"is_reserved":false,"is_disabled":false,"rental_uris":{"android":"levelo://app?vid=5514c35d-6efe-4239-9a72-fa946ca5d7a0","ios":"levelo://app?vid=5514c35d-6efe-4239-9a72-fa946ca5d7a0"},"vehicle_type_id":"4","last_reported":1749766203,"current_range_meters":6000,"station_id":"ce4bhoh2rcd13ifvqh6g","pricing_plan_id":"cebpf4jnsgd1na2vs0mg"},{"bike_id":"ee6a438e-f524-42d9-b0dd-f762df2189e9","system_id":"levelo_inurba_marseille","lat":43.30244,"lon":5.4005,"is_reserved":false,"is_disabled":false,"rental_uris":{"android":"levelo://app?vid=ee6a438e-f524-42d9-b0dd-f762df2189e9","ios":"levelo://app?vid=ee6a438e-f524-42d9-b0dd-f762df2189e9"},"vehicle_type_id":"4","last_reported":1749766203,"current_range_meters":6400,"station_id":"ce4bgvh2rcd13ifvqcs0","pricing_plan_id":"cebpf4jnsgd1na2vs0mg"},{"bike_id":"48d34ad3-2644-46dd-82a0-47e5ff24cebe","system_id":"levelo_inurba_marseille","lat":43.30443,"lon":5.389,"is_reserved":false,"is_disabled":false,"rental_uris":{"android":"levelo://app?vid=48d34ad3-2644-46dd-82a0-47e5ff24cebe","ios":"levelo://app?vid=48d34ad3-2644-46dd-82a0-47e5ff24cebe"},"vehicle_type_id":"4","last_reported":1749766203,"current_range_meters":6800,"station_id":"ce4bgk12rcd13ifvqbi0","pricing_plan_id":"cebpf4jnsgd1na2vs0mg"},{"bike_id":"18eb704d-9c6a-4d62-a967-a0bfb1e64dd8","system_id":"levelo_inurba_marseille","lat":43.27566,"lon":5.38406,"is_reserved":false,"is_disabled":false,"rental_uris":{"android":"levelo://app?vid=18eb704d-9c6a-4d62-a967-a0bfb1e64dd8","ios":"levelo://app?vid=18eb704d-9c6a-4d62-a967-a0bfb1e64dd8"},"vehicle_type_id":"4","last_reported":1749766203,"current_range_meters":6800,"station_id":"ce4bhh92rcd13ifvqfi0","pricing_plan_id":"cebpf4jnsgd1na2vs0mg"},{"bike_id":"72ab3f62-9ed5-4b3f-9414-c1931a91b7f0","system_id":"levelo_inurba_marseille","lat":43.27487,"lon":5.42457,"is_reserved":false,"is_disabled":false,"rental_uris":{"android":"levelo://app?vid=72ab3f62-9ed5-4b3f-9414-c1931a91b7f0","ios":"levelo://app?vid=72ab3f62-9ed5-4b3f-9414-c1931a91b7f0"},"vehicle_type_id":"4","last_reported":1749766203,"current_range_meters":6800,"station_id":"ce4bhn92rcd13ifvqgrg","pricing_plan_id":"cebpf4jnsgd1na2vs0mg"},{"bike_id":"0161bd5e-3992-4e6b-a37f-c99408197a24","system_id":"levelo_inurba_marseille","lat":43.31755,"lon":5.39016,"is_reserved":false,"is_disabled":false,"rental_uris":{"android":"levelo://app?vid=0161bd5e-3992-4e6b-a37f-c99408197a24","ios":"levelo://app?vid=0161bd5e-3992-4e6b-a37f-c99408197a24"},"vehicle_type_id":"4","last_reported":1749766203,"current_range_meters":6800,"station_id":"ce4bhqp2rcd13ifvqhng","pricing_plan_id":"cebpf4jnsgd1na2vs0mg"},{"bike_id":"235150ee-8608-43fd-9967-1d26ceb74f6c","system_id":"levelo_inurba_marseille","lat":43.308908,"lon":5.396525,"is_reserved":false,"is_disabled":false,"rental_uris":{"android":"levelo://app?vid=235150ee-8608-43fd-9967-1d26ceb74f6c","ios":"levelo://app?vid=235150ee-8608-43fd-9967-1d26ceb74f6c"},"vehicle_type_id":"4","last_reported":1749766203,"current_range_meters":7200,"station_id":"ce4bh012rcd13ifvqcv0","pricing_plan_id":"cebpf4jnsgd1na2vs0mg"},{"bike_id":"dc2ffc5b-f591-49e9-87e8-1424c33f4e4c","system_id":"levelo_inurba_marseille","lat":43.29525,"lon":5.39387,"is_reserved":false,"is_disabled":false,"rental_uris":{"android":"levelo://app?vid=dc2ffc5b-f591-49e9-87e8-1424c33f4e4c","ios":"levelo://app?vid=dc2ffc5b-f591-49e9-87e8-1424c33f4e4c"},"vehicle_type_id":"4","last_reported":1749766203,"current_range_meters":7200,"station_id":"ce4bh292rcd13ifvqdf0","pricing_plan_id":"cebpf4jnsgd1na2vs0mg"},{"bike_id":"067c9c46-0814-4537-9c95-6604fc30484c","system_id":"levelo_inurba_marseille","lat":43.27936,"lon":5.41041,"is_reserved":false,"is_disabled":false,"rental_uris":{"android":"levelo://app?vid=067c9c46-0814-4537-9c95-6604fc30484c","ios":"levelo://app?vid=067c9c46-0814-4537-9c95-6604fc30484c"},"vehicle_type_id":"4","last_reported":1749766203,"current_range_meters":7200,"station_id":"ce4bhnp2rcd13ifvqh0g","pricing_plan_id":"cebpf4jnsgd1na2vs0mg"},{"bike_id":"4bdec13b-159d-40fb-a855-353ac731c577","system_id":"levelo_inurba_marseille","lat":43.29258,"lon":5.409,"is_reserved":false,"is_disabled":false,"rental_uris":{"android":"levelo://app?vid=4bdec13b-159d-40fb-a855-353ac731c577","ios":"levelo://app?vid=4bdec13b-159d-40fb-a855-353ac731c577"},"vehicle_type_id":"4","last_reported":1749766203,"current_range_meters":8000,"station_id":"ce4bh192rcd13ifvqdc0","pricing_plan_id":"cebpf4jnsgd1na2vs0mg"},{"bike_id":"6cc6a2f0-2230-489e-8686-1dfcdb9dd991","system_id":"levelo_inurba_marseille","lat":43.25716,"lon":5.41109,"is_reserved":false,"is_disabled":false,"rental_uris":{"android":"levelo://app?vid=6cc6a2f0-2230-489e-8686-1dfcdb9dd991","ios":"levelo://app?vid=6cc6a2f0-2230-489e-8686-1dfcdb9dd991"},"vehicle_type_id":"4","last_reported":1749766203,"current_range_meters":8000,"station_id":"ce4bhkp2rcd13ifvqgd0","pricing_plan_id":"cebpf4jnsgd1na2vs0mg"},{"bike_id":"8d077453-18da-4e23-9305-ee493a72b0b4","system_id":"levelo_inurba_marseille","lat":43.34138,"lon":5.40904,"is_reserved":false,"is_disabled":false,"rental_uris":{"android":"levelo://app?vid=8d077453-18da-4e23-9305-ee493a72b0b4","ios":"levelo://app?vid=8d077453-18da-4e23-9305-ee493a72b0b4"},"vehicle_type_id":"4","last_reported":1749766203,"current_range_meters":8000,"station_id":"ce4bhqh2rcd13ifvqhlg","pricing_plan_id":"cebpf4jnsgd1na2vs0mg"},{"bike_id":"c2c7556d-f2ac-4306-af14-b3a7bd5c0cbf","system_id":"levelo_inurba_marseille","lat":43.29789,"lon":5.39348,"is_reserved":false,"is_disabled":false,"rental_uris":{"android":"levelo://app?vid=c2c7556d-f2ac-4306-af14-b3a7bd5c0cbf","ios":"levelo://app?vid=c2c7556d-f2ac-4306-af14-b3a7bd5c0cbf"},"vehicle_type_id":"4","last_reported":1749766203,"current_range_meters":8000,"station_id":"chh1huq6cuj3fo74tm60","pricing_plan_id":"cebpf4jnsgd1na2vs0mg"},{"bike_id":"e5ff82fd-cc37-4e1f-aade-050998fb0f61","system_id":"levelo_inurba_marseille","lat":43.26264,"lon":5.3711,"is_reserved":false,"is_disabled":false,"rental_uris":{"android":"levelo://app?vid=e5ff82fd-cc37-4e1f-aade-050998fb0f61","ios":"levelo://app?vid=e5ff82fd-cc37-4e1f-aade-050998fb0f61"},"vehicle_type_id":"4","last_reported":1749766203,"current_range_meters":8400,"station_id":"","pricing_plan_id":"cebpf4jnsgd1na2vs0mg"},{"bike_id":"308cbf69-b866-4a48-b377-e4f7d5e7c70b","system_id":"levelo_inurba_marseille","lat":43.32955,"lon":5.39028,"is_reserved":false,"is_disabled":false,"rental_uris":{"android":"levelo://app?vid=308cbf69-b866-4a48-b377-e4f7d5e7c70b","ios":"levelo://app?vid=308cbf69-b866-4a48-b377-e4f7d5e7c70b"},"vehicle_type_id":"4","last_reported":1749766203,"current_range_meters":8400,"station_id":"","pricing_plan_id":"cebpf4jnsgd1na2vs0mg"},{"bike_id":"acf45683-b354-4fc8-84c3-9f0ff05126b2","system_id":"levelo_inurba_marseille","lat":43.26801,"lon":5.40272,"is_reserved":false,"is_disabled":false,"rental_uris":{"android":"levelo://app?vid=acf45683-b354-4fc8-84c3-9f0ff05126b2","ios":"levelo://app?vid=acf45683-b354-4fc8-84c3-9f0ff05126b2"},"vehicle_type_id":"4","last_reported":1749766203,"current_range_meters":8400,"station_id":"ce501612rcd8frsf0b60","pricing_plan_id":"cebpf4jnsgd1na2vs0mg"},{"bike_id":"0d4c93e6-1a7d-4067-89b9-9e2ad3b0eb56","system_id":"levelo_inurba_marseille","lat":43.30639,"lon":5.40098,"is_reserved":false,"is_disabled":false,"rental_uris":{"android":"levelo://app?vid=0d4c93e6-1a7d-4067-89b9-9e2ad3b0eb56","ios":"levelo://app?vid=0d4c93e6-1a7d-4067-89b9-9e2ad3b0eb56"},"vehicle_type_id":"4","last_reported":1749766203,"current_range_meters":8800,"station_id":"ce4bh112rcd13ifvqda0","pricing_plan_id":"cebpf4jnsgd1na2vs0mg"},{"bike_id":"1c9e1255-56f2-4177-ac6c-6f4c1ad3b58c","system_id":"levelo_inurba_marseille","lat":43.29017,"lon":5.38134,"is_reserved":false,"is_disabled":false,"rental_uris":{"android":"levelo://app?vid=1c9e1255-56f2-4177-ac6c-6f4c1ad3b58c","ios":"levelo://app?vid=1c9e1255-56f2-4177-ac6c-6f4c1ad3b58c"},"vehicle_type_id":"4","last_reported":1749766203,"current_range_meters":8800,"station_id":"ce4bh4p2rcd13ifvqe1g","pricing_plan_id":"cebpf4jnsgd1na2vs0mg"},{"bike_id":"d3381714-8e82-4952-8a0d-4348069f4a65","system_id":"levelo_inurba_marseille","lat":43.27979,"lon":5.41656,"is_reserved":false,"is_disabled":false,"rental_uris":{"android":"levelo://app?vid=d3381714-8e82-4952-8a0d-4348069f4a65","ios":"levelo://app?vid=d3381714-8e82-4952-8a0d-4348069f4a65"},"vehicle_type_id":"4","last_reported":1749766203,"current_range_meters":8800,"station_id":"ce4bho12rcd13ifvqh1g","pricing_plan_id":"cebpf4jnsgd1na2vs0mg"},{"bike_id":"a2421370-e442-436f-a98a-844d44299694","system_id":"levelo_inurba_marseille","lat":43.32366,"lon":5.3677,"is_reserved":false,"is_disabled":false,"rental_uris":{"android":"levelo://app?vid=a2421370-e442-436f-a98a-844d44299694","ios":"levelo://app?vid=a2421370-e442-436f-a98a-844d44299694"},"vehicle_type_id":"4","last_reported":1749766203,"current_range_meters":8800,"station_id":"ce4bhsh2rcd13ifvqi2g","pricing_plan_id":"cebpf4jnsgd1na2vs0mg"},{"bike_id":"82c9e919-8d69-45aa-aca9-b0b4926160ea","system_id":"levelo_inurba_marseille","lat":43.31162,"lon":5.38718,"is_reserved":false,"is_disabled":false,"rental_uris":{"android":"levelo://app?vid=82c9e919-8d69-45aa-aca9-b0b4926160ea","ios":"levelo://app?vid=82c9e919-8d69-45aa-aca9-b0b4926160ea"},"vehicle_type_id":"4","last_reported":1749766203,"current_range_meters":9200,"station_id":"ce4bgv12rcd13ifvqcp0","pricing_plan_id":"cebpf4jnsgd1na2vs0mg"},{"bike_id":"126ef016-ac91-4ce5-a668-ac7ef0b33b75","system_id":"levelo_inurba_marseille","lat":43.31065,"lon":5.38339,"is_reserved":false,"is_disabled":false,"rental_uris":{"android":"levelo://app?vid=126ef016-ac91-4ce5-a668-ac7ef0b33b75","ios":"levelo://app?vid=126ef016-ac91-4ce5-a668-ac7ef0b33b75"},"vehicle_type_id":"4","last_reported":1749766203,"current_range_meters":9200,"station_id":"ce4bgv92rcd13ifvqcr0","pricing_plan_id":"cebpf4jnsgd1na2vs0mg"},{"bike_id":"da82380f-8e2c-440f-90fb-64731fe3788f","system_id":"levelo_inurba_marseille","lat":43.30425,"lon":5.39752,"is_reserved":false,"is_disabled":false,"rental_uris":{"android":"levelo://app?vid=da82380f-8e2c-440f-90fb-64731fe3788f","ios":"levelo://app?vid=da82380f-8e2c-440f-90fb-64731fe3788f"},"vehicle_type_id":"4","last_reported":1749766203,"current_range_meters":9200,"station_id":"ce4bh092rcd13ifvqd20","pricing_plan_id":"cebpf4jnsgd1na2vs0mg"},{"bike_id":"8685cae3-996f-48a5-812f-f5b2ccb04c9a","system_id":"levelo_inurba_marseille","lat":43.28422,"lon":5.37509,"is_reserved":false,"is_disabled":false,"rental_uris":{"android":"levelo://app?vid=8685cae3-996f-48a5-812f-f5b2ccb04c9a","ios":"levelo://app?vid=8685cae3-996f-48a5-812f-f5b2ccb04c9a"},"vehicle_type_id":"4","last_reported":1749766203,"current_range_meters":9200,"station_id":"ce4bh412rcd13ifvqds0","pricing_plan_id":"cebpf4jnsgd1na2vs0mg"},{"bike_id":"b23225b1-18f8-48ff-8a1c-9d5c0239c002","system_id":"levelo_inurba_marseille","lat":43.28096,"lon":5.37851,"is_reserved":false,"is_disabled":false,"rental_uris":{"android":"levelo://app?vid=b23225b1-18f8-48ff-8a1c-9d5c0239c002","ios":"levelo://app?vid=b23225b1-18f8-48ff-8a1c-9d5c0239c002"},"vehicle_type_id":"4","last_reported":1749766203,"current_range_meters":9200,"station_id":"ce4bha12rcd13ifvqee0","pricing_plan_id":"cebpf4jnsgd1na2vs0mg"},{"bike_id":"6a48cef8-3226-47e0-b7ea-d3f476302eb8","system_id":"levelo_inurba_marseille","lat":43.28106,"lon":5.3783,"is_reserved":false,"is_disabled":false,"rental_uris":{"android":"levelo://app?vid=6a48cef8-3226-47e0-b7ea-d3f476302eb8","ios":"levelo://app?vid=6a48cef8-3226-47e0-b7ea-d3f476302eb8"},"vehicle_type_id":"4","last_reported":1749766203,"current_range_meters":9200,"station_id":"ce4bha12rcd13ifvqee0","pricing_plan_id":"cebpf4jnsgd1na2vs0mg"},{"bike_id":"3eb19b35-79f0-493f-927f-506034c28943","system_id":"levelo_inurba_marseille","lat":43.27949,"lon":5.41042,"is_reserved":false,"is_disabled":false,"rental_uris":{"android":"levelo://app?vid=3eb19b35-79f0-493f-927f-506034c28943","ios":"levelo://app?vid=3eb19b35-79f0-493f-927f-506034c28943"},"vehicle_type_id":"4","last_reported":1749766203,"current_range_meters":9200,"station_id":"ce4bhnp2rcd13ifvqh0g","pricing_plan_id":"cebpf4jnsgd1na2vs0mg"},{"bike_id":"dbacae93-7c1c-48ec-9494-91113ef4f93b","system_id":"levelo_inurba_marseille","lat":43.284302,"lon":5.392005,"is_reserved":false,"is_disabled":false,"rental_uris":{"android":"levelo://app?vid=dbacae93-7c1c-48ec-9494-91113ef4f93b","ios":"levelo://app?vid=dbacae93-7c1c-48ec-9494-91113ef4f93b"},"vehicle_type_id":"4","last_reported":1749766203,"current_range_meters":9200,"station_id":"ce4bhoh2rcd13ifvqh5g","pricing_plan_id":"cebpf4jnsgd1na2vs0mg"},{"bike_id":"ad64a88d-672a-4149-88ae-94379cb38fa2","system_id":"levelo_inurba_marseille","lat":43.28721,"lon":5.36087,"is_reserved":false,"is_disabled":false,"rental_uris":{"android":"levelo://app?vid=ad64a88d-672a-4149-88ae-94379cb38fa2","ios":"levelo://app?vid=ad64a88d-672a-4149-88ae-94379cb38fa2"},"vehicle_type_id":"4","last_reported":1749766203,"current_range_meters":9200,"station_id":"cki0cbj6b192h4jlfktg","pricing_plan_id":"cebpf4jnsgd1na2vs0mg"},{"bike_id":"538be204-294c-44d3-be2e-ddd41840eef1","system_id":"levelo_inurba_marseille","lat":43.21744,"lon":5.34617,"is_reserved":false,"is_disabled":false,"rental_uris":{"android":"levelo://app?vid=538be204-294c-44d3-be2e-ddd41840eef1","ios":"levelo://app?vid=538be204-294c-44d3-be2e-ddd41840eef1"},"vehicle_type_id":"4","last_reported":1749766203,"current_range_meters":9200,"station_id":"st_cvj6r9ubvosntc0bgbag","pricing_plan_id":"cebpf4jnsgd1na2vs0mg"},{"bike_id":"a25b84b4-c252-4eda-97fb-1a1f22303c5d","system_id":"levelo_inurba_marseille","lat":43.313934,"lon":5.374314,"is_reserved":false,"is_disabled":false,"rental_uris":{"android":"levelo://app?vid=a25b84b4-c252-4eda-97fb-1a1f22303c5d","ios":"levelo://app?vid=a25b84b4-c252-4eda-97fb-1a1f22303c5d"},"vehicle_type_id":"4","last_reported":1749766203,"current_range_meters":9600,"station_id":"","pricing_plan_id":"cebpf4jnsgd1na2vs0mg"},{"bike_id":"2d8d93ea-b7f3-45ea-bfc9-7535eeff1324","system_id":"levelo_inurba_marseille","lat":43.30248,"lon":5.40059,"is_reserved":false,"is_disabled":false,"rental_uris":{"android":"levelo://app?vid=2d8d93ea-b7f3-45ea-bfc9-7535eeff1324","ios":"levelo://app?vid=2d8d93ea-b7f3-45ea-bfc9-7535eeff1324"},"vehicle_type_id":"4","last_reported":1749766203,"current_range_meters":9600,"station_id":"ce4bgvh2rcd13ifvqcs0","pricing_plan_id":"cebpf4jnsgd1na2vs0mg"},{"bike_id":"d69be9e8-dd7e-4f72-9987-a9a9f616c36d","system_id":"levelo_inurba_marseille","lat":43.30644,"lon":5.4007,"is_reserved":false,"is_disabled":false,"rental_uris":{"android":"levelo://app?vid=d69be9e8-dd7e-4f72-9987-a9a9f616c36d","ios":"levelo://app?vid=d69be9e8-dd7e-4f72-9987-a9a9f616c36d"},"vehicle_type_id":"4","last_reported":1749766203,"current_range_meters":9600,"station_id":"ce4bh112rcd13ifvqda0","pricing_plan_id":"cebpf4jnsgd1na2vs0mg"},{"bike_id":"b24e2f9d-3f4a-4cf7-b7b0-3a4ecba9f9f4","system_id":"levelo_inurba_marseille","lat":43.29019,"lon":5.38623,"is_reserved":false,"is_disabled":false,"rental_uris":{"android":"levelo://app?vid=b24e2f9d-3f4a-4cf7-b7b0-3a4ecba9f9f4","ios":"levelo://app?vid=b24e2f9d-3f4a-4cf7-b7b0-3a4ecba9f9f4"},"vehicle_type_id":"4","last_reported":1749766203,"current_range_meters":9600,"station_id":"ce4bh4p2rcd13ifvqe0g","pricing_plan_id":"cebpf4jnsgd1na2vs0mg"},{"bike_id":"69ee7d22-e091-40a6-985c-59a183b58089","system_id":"levelo_inurba_marseille","lat":43.28044,"lon":5.3695,"is_reserved":false,"is_disabled":false,"rental_uris":{"android":"levelo://app?vid=69ee7d22-e091-40a6-985c-59a183b58089","ios":"levelo://app?vid=69ee7d22-e091-40a6-985c-59a183b58089"},"vehicle_type_id":"4","last_reported":1749766203,"current_range_meters":9600,"station_id":"ce4bha12rcd13ifvqef0","pricing_plan_id":"cebpf4jnsgd1na2vs0mg"},{"bike_id":"500320f2-e4bb-4906-a414-ca67470055ab","system_id":"levelo_inurba_marseille","lat":43.25643,"lon":5.38588,"is_reserved":false,"is_disabled":false,"rental_uris":{"android":"levelo://app?vid=500320f2-e4bb-4906-a414-ca67470055ab","ios":"levelo://app?vid=500320f2-e4bb-4906-a414-ca67470055ab"},"vehicle_type_id":"4","last_reported":1749766203,"current_range_meters":10000,"station_id":"","pricing_plan_id":"cebpf4jnsgd1na2vs0mg"},{"bike_id":"501fe5cc-ec9f-4031-8e12-9c9a87dfd25d","system_id":"levelo_inurba_marseille","lat":43.31847,"lon":5.40564,"is_reserved":false,"is_disabled":false,"rental_uris":{"android":"levelo://app?vid=501fe5cc-ec9f-4031-8e12-9c9a87dfd25d","ios":"levelo://app?vid=501fe5cc-ec9f-4031-8e12-9c9a87dfd25d"},"vehicle_type_id":"4","last_reported":1749766203,"current_range_meters":10000,"station_id":"","pricing_plan_id":"cebpf4jnsgd1na2vs0mg"},{"bike_id":"b3a8b12e-856d-4c64-951b-d380fd9a0ed1","system_id":"levelo_inurba_marseille","lat":43.31362,"lon":5.3849,"is_reserved":false,"is_disabled":false,"rental_uris":{"android":"levelo://app?vid=b3a8b12e-856d-4c64-951b-d380fd9a0ed1","ios":"levelo://app?vid=b3a8b12e-856d-4c64-951b-d380fd9a0ed1"},"vehicle_type_id":"4","last_reported":1749766203,"current_range_meters":10000,"station_id":"ce4bgt92rcd13ifvqcf0","pricing_plan_id":"cebpf4jnsgd1na2vs0mg"},{"bike_id":"5d9854c2-0900-43ec-a119-94a110b42f04","system_id":"levelo_inurba_marseille","lat":43.3064,"lon":5.40074,"is_reserved":false,"is_disabled":false,"rental_uris":{"android":"levelo://app?vid=5d9854c2-0900-43ec-a119-94a110b42f04","ios":"levelo://app?vid=5d9854c2-0900-43ec-a119-94a110b42f04"},"vehicle_type_id":"4","last_reported":1749766203,"current_range_meters":10000,"station_id":"ce4bh112rcd13ifvqda0","pricing_plan_id":"cebpf4jnsgd1na2vs0mg"},{"bike_id":"e308a4f9-a16b-45c2-92b3-38bbf5b9ff9c","system_id":"levelo_inurba_marseille","lat":43.279323,"lon":5.410578,"is_reserved":false,"is_disabled":false,"rental_uris":{"android":"levelo://app?vid=e308a4f9-a16b-45c2-92b3-38bbf5b9ff9c","ios":"levelo://app?vid=e308a4f9-a16b-45c2-92b3-38bbf5b9ff9c"},"vehicle_type_id":"4","last_reported":1749766203,"current_range_meters":10000,"station_id":"ce4bhnp2rcd13ifvqh0g","pricing_plan_id":"cebpf4jnsgd1na2vs0mg"},{"bike_id":"94ba6f4b-428d-4ab6-ab1a-43165113acc6","system_id":"levelo_inurba_marseille","lat":43.31119,"lon":5.37765,"is_reserved":false,"is_disabled":false,"rental_uris":{"android":"levelo://app?vid=94ba6f4b-428d-4ab6-ab1a-43165113acc6","ios":"levelo://app?vid=94ba6f4b-428d-4ab6-ab1a-43165113acc6"},"vehicle_type_id":"4","last_reported":1749766203,"current_range_meters":10800,"station_id":"ce4bgt92rcd13ifvqcg0","pricing_plan_id":"cebpf4jnsgd1na2vs0mg"},{"bike_id":"f29bc8f6-1ce3-4a61-ad98-87e8cff7f4ba","system_id":"levelo_inurba_marseille","lat":43.29567,"lon":5.39979,"is_reserved":false,"is_disabled":false,"rental_uris":{"android":"levelo://app?vid=f29bc8f6-1ce3-4a61-ad98-87e8cff7f4ba","ios":"levelo://app?vid=f29bc8f6-1ce3-4a61-ad98-87e8cff7f4ba"},"vehicle_type_id":"4","last_reported":1749766203,"current_range_meters":10800,"station_id":"ce4bh312rcd13ifvqdj0","pricing_plan_id":"cebpf4jnsgd1na2vs0mg"},{"bike_id":"ff878066-5176-4105-b0b1-8f35f953f55b","system_id":"levelo_inurba_marseille","lat":43.279187,"lon":5.395726,"is_reserved":false,"is_disabled":false,"rental_uris":{"android":"levelo://app?vid=ff878066-5176-4105-b0b1-8f35f953f55b","ios":"levelo://app?vid=ff878066-5176-4105-b0b1-8f35f953f55b"},"vehicle_type_id":"4","last_reported":1749766203,"current_range_meters":10800,"station_id":"ce4bhf92rcd13ifvqf40","pricing_plan_id":"cebpf4jnsgd1na2vs0mg"},{"bike_id":"ef43d5f3-6463-4845-b382-05579d28a004","system_id":"levelo_inurba_marseille","lat":43.264953,"lon":5.395561,"is_reserved":false,"is_disabled":false,"rental_uris":{"android":"levelo://app?vid=ef43d5f3-6463-4845-b382-05579d28a004","ios":"levelo://app?vid=ef43d5f3-6463-4845-b382-05579d28a004"},"vehicle_type_id":"4","last_reported":1749766203,"current_range_meters":10800,"station_id":"ce4bhi12rcd13ifvqfq0","pricing_plan_id":"cebpf4jnsgd1na2vs0mg"},{"bike_id":"a0dcf989-b70d-42e2-945c-5f2258f735af","system_id":"levelo_inurba_marseille","lat":43.25116,"lon":5.40312,"is_reserved":false,"is_disabled":false,"rental_uris":{"android":"levelo://app?vid=a0dcf989-b70d-42e2-945c-5f2258f735af","ios":"levelo://app?vid=a0dcf989-b70d-42e2-945c-5f2258f735af"},"vehicle_type_id":"4","last_reported":1749766203,"current_range_meters":10800,"station_id":"ce4bhlh2rcd13ifvqgig","pricing_plan_id":"cebpf4jnsgd1na2vs0mg"},{"bike_id":"39d60e6f-11db-4bf8-8767-63872a5c5589","system_id":"levelo_inurba_marseille","lat":43.28002,"lon":5.41663,"is_reserved":false,"is_disabled":false,"rental_uris":{"android":"levelo://app?vid=39d60e6f-11db-4bf8-8767-63872a5c5589","ios":"levelo://app?vid=39d60e6f-11db-4bf8-8767-63872a5c5589"},"vehicle_type_id":"4","last_reported":1749766203,"current_range_meters":10800,"station_id":"ce4bho12rcd13ifvqh1g","pricing_plan_id":"cebpf4jnsgd1na2vs0mg"},{"bike_id":"040bd027-fa7d-42c9-807f-e534b24621e0","system_id":"levelo_inurba_marseille","lat":43.32345,"lon":5.40591,"is_reserved":false,"is_disabled":false,"rental_uris":{"android":"levelo://app?vid=040bd027-fa7d-42c9-807f-e534b24621e0","ios":"levelo://app?vid=040bd027-fa7d-42c9-807f-e534b24621e0"},"vehicle_type_id":"4","last_reported":1749766203,"current_range_meters":10800,"station_id":"ce4bhq92rcd13ifvqhjg","pricing_plan_id":"cebpf4jnsgd1na2vs0mg"},{"bike_id":"ee050184-0220-42a8-8c16-af56c478a845","system_id":"levelo_inurba_marseille","lat":43.29543,"lon":5.38549,"is_reserved":false,"is_disabled":false,"rental_uris":{"android":"levelo://app?vid=ee050184-0220-42a8-8c16-af56c478a845","ios":"levelo://app?vid=ee050184-0220-42a8-8c16-af56c478a845"},"vehicle_type_id":"4","last_reported":1749766203,"current_range_meters":11200,"station_id":"ce4bgih2rcd13ifvqba0","pricing_plan_id":"cebpf4jnsgd1na2vs0mg"},{"bike_id":"085e827d-2900-440a-9453-7e29eb4fffea","system_id":"levelo_inurba_marseille","lat":43.31707,"lon":5.37723,"is_reserved":false,"is_disabled":false,"rental_uris":{"android":"levelo://app?vid=085e827d-2900-440a-9453-7e29eb4fffea","ios":"levelo://app?vid=085e827d-2900-440a-9453-7e29eb4fffea"},"vehicle_type_id":"4","last_reported":1749766203,"current_range_meters":11200,"station_id":"ce4bgth2rcd13ifvqch0","pricing_plan_id":"cebpf4jnsgd1na2vs0mg"},{"bike_id":"da379086-eb9d-4752-a723-f207ed635b97","system_id":"levelo_inurba_marseille","lat":43.30934,"lon":5.40141,"is_reserved":false,"is_disabled":false,"rental_uris":{"android":"levelo://app?vid=da379086-eb9d-4752-a723-f207ed635b97","ios":"levelo://app?vid=da379086-eb9d-4752-a723-f207ed635b97"},"vehicle_type_id":"4","last_reported":1749766203,"current_range_meters":11200,"station_id":"ce4bgvp2rcd13ifvqct0","pricing_plan_id":"cebpf4jnsgd1na2vs0mg"},{"bike_id":"d55db689-169a-4c14-b6fa-e5585576108f","system_id":"levelo_inurba_marseille","lat":43.25739,"lon":5.41097,"is_reserved":false,"is_disabled":false,"rental_uris":{"android":"levelo://app?vid=d55db689-169a-4c14-b6fa-e5585576108f","ios":"levelo://app?vid=d55db689-169a-4c14-b6fa-e5585576108f"},"vehicle_type_id":"4","last_reported":1749766203,"current_range_meters":11200,"station_id":"ce4bhkp2rcd13ifvqgd0","pricing_plan_id":"cebpf4jnsgd1na2vs0mg"},{"bike_id":"bc3e4e06-e7b1-40b5-bf1c-917e117d7bd4","system_id":"levelo_inurba_marseille","lat":43.32336,"lon":5.40617,"is_reserved":false,"is_disabled":false,"rental_uris":{"android":"levelo://app?vid=bc3e4e06-e7b1-40b5-bf1c-917e117d7bd4","ios":"levelo://app?vid=bc3e4e06-e7b1-40b5-bf1c-917e117d7bd4"},"vehicle_type_id":"4","last_reported":1749766203,"current_range_meters":11200,"station_id":"ce4bhq92rcd13ifvqhjg","pricing_plan_id":"cebpf4jnsgd1na2vs0mg"},{"bike_id":"97421c04-2630-4fc1-9da9-b17d88602c5f","system_id":"levelo_inurba_marseille","lat":43.337687,"lon":5.37437,"is_reserved":false,"is_disabled":false,"rental_uris":{"android":"levelo://app?vid=97421c04-2630-4fc1-9da9-b17d88602c5f","ios":"levelo://app?vid=97421c04-2630-4fc1-9da9-b17d88602c5f"},"vehicle_type_id":"4","last_reported":1749766203,"current_range_meters":11600,"station_id":"","pricing_plan_id":"cebpf4jnsgd1na2vs0mg"},{"bike_id":"8d60347d-541c-40fb-90ca-203bf6bd520a","system_id":"levelo_inurba_marseille","lat":43.27125,"lon":5.36393,"is_reserved":false,"is_disabled":false,"rental_uris":{"android":"levelo://app?vid=8d60347d-541c-40fb-90ca-203bf6bd520a","ios":"levelo://app?vid=8d60347d-541c-40fb-90ca-203bf6bd520a"},"vehicle_type_id":"4","last_reported":1749766203,"current_range_meters":11600,"station_id":"","pricing_plan_id":"cebpf4jnsgd1na2vs0mg"},{"bike_id":"102d3027-4807-4717-af6b-9417593f7269","system_id":"levelo_inurba_marseille","lat":43.29432,"lon":5.39751,"is_reserved":false,"is_disabled":false,"rental_uris":{"android":"levelo://app?vid=102d3027-4807-4717-af6b-9417593f7269","ios":"levelo://app?vid=102d3027-4807-4717-af6b-9417593f7269"},"vehicle_type_id":"4","last_reported":1749766203,"current_range_meters":11600,"station_id":"ce4bh3h2rcd13ifvqdo0","pricing_plan_id":"cebpf4jnsgd1na2vs0mg"},{"bike_id":"db290275-4e2a-4a78-988a-4985a4429640","system_id":"levelo_inurba_marseille","lat":43.28412,"lon":5.37557,"is_reserved":false,"is_disabled":false,"rental_uris":{"android":"levelo://app?vid=db290275-4e2a-4a78-988a-4985a4429640","ios":"levelo://app?vid=db290275-4e2a-4a78-988a-4985a4429640"},"vehicle_type_id":"4","last_reported":1749766203,"current_range_meters":11600,"station_id":"ce4bh412rcd13ifvqds0","pricing_plan_id":"cebpf4jnsgd1na2vs0mg"},{"bike_id":"299fe84b-236b-4b76-880f-525ae6f741dc","system_id":"levelo_inurba_marseille","lat":43.27998,"lon":5.41661,"is_reserved":false,"is_disabled":false,"rental_uris":{"android":"levelo://app?vid=299fe84b-236b-4b76-880f-525ae6f741dc","ios":"levelo://app?vid=299fe84b-236b-4b76-880f-525ae6f741dc"},"vehicle_type_id":"4","last_reported":1749766203,"current_range_meters":11600,"station_id":"ce4bho12rcd13ifvqh1g","pricing_plan_id":"cebpf4jnsgd1na2vs0mg"},{"bike_id":"1268e070-f02d-4537-93df-0bfd5c4daa05","system_id":"levelo_inurba_marseille","lat":43.32699,"lon":5.37683,"is_reserved":false,"is_disabled":false,"rental_uris":{"android":"levelo://app?vid=1268e070-f02d-4537-93df-0bfd5c4daa05","ios":"levelo://app?vid=1268e070-f02d-4537-93df-0bfd5c4daa05"},"vehicle_type_id":"4","last_reported":1749766203,"current_range_meters":12000,"station_id":"","pricing_plan_id":"cebpf4jnsgd1na2vs0mg"},{"bike_id":"812a7d1f-fdb4-4f0d-83d5-abeb697c7fd2","system_id":"levelo_inurba_marseille","lat":43.30884,"lon":5.39638,"is_reserved":false,"is_disabled":false,"rental_uris":{"android":"levelo://app?vid=812a7d1f-fdb4-4f0d-83d5-abeb697c7fd2","ios":"levelo://app?vid=812a7d1f-fdb4-4f0d-83d5-abeb697c7fd2"},"vehicle_type_id":"4","last_reported":1749766203,"current_range_meters":12000,"station_id":"ce4bh012rcd13ifvqcv0","pricing_plan_id":"cebpf4jnsgd1na2vs0mg"},{"bike_id":"e2e27818-bf4a-4e1a-8cb4-28f487746ad8","system_id":"levelo_inurba_marseille","lat":43.2835,"lon":5.38103,"is_reserved":false,"is_disabled":false,"rental_uris":{"android":"levelo://app?vid=e2e27818-bf4a-4e1a-8cb4-28f487746ad8","ios":"levelo://app?vid=e2e27818-bf4a-4e1a-8cb4-28f487746ad8"},"vehicle_type_id":"4","last_reported":1749766203,"current_range_meters":12000,"station_id":"ce4bh412rcd13ifvqdr0","pricing_plan_id":"cebpf4jnsgd1na2vs0mg"},{"bike_id":"b9976ba6-16e5-4fca-8a0c-40eee7440a39","system_id":"levelo_inurba_marseille","lat":43.2892,"lon":5.3642,"is_reserved":false,"is_disabled":false,"rental_uris":{"android":"levelo://app?vid=b9976ba6-16e5-4fca-8a0c-40eee7440a39","ios":"levelo://app?vid=b9976ba6-16e5-4fca-8a0c-40eee7440a39"},"vehicle_type_id":"4","last_reported":1749766203,"current_range_meters":12000,"station_id":"ce4bhc92rcd13ifvqetg","pricing_plan_id":"cebpf4jnsgd1na2vs0mg"},{"bike_id":"22d8c728-aba5-478a-a1f0-663d0ecf2711","system_id":"levelo_inurba_marseille","lat":43.26791,"lon":5.39411,"is_reserved":false,"is_disabled":false,"rental_uris":{"android":"levelo://app?vid=22d8c728-aba5-478a-a1f0-663d0ecf2711","ios":"levelo://app?vid=22d8c728-aba5-478a-a1f0-663d0ecf2711"},"vehicle_type_id":"4","last_reported":1749766203,"current_range_meters":12000,"station_id":"ce4bhh12rcd13ifvqfg0","pricing_plan_id":"cebpf4jnsgd1na2vs0mg"},{"bike_id":"abd0d78f-a5d4-4339-93f7-6b3fc51d77c5","system_id":"levelo_inurba_marseille","lat":43.36626,"lon":5.35554,"is_reserved":false,"is_disabled":false,"rental_uris":{"android":"levelo://app?vid=abd0d78f-a5d4-4339-93f7-6b3fc51d77c5","ios":"levelo://app?vid=abd0d78f-a5d4-4339-93f7-6b3fc51d77c5"},"vehicle_type_id":"4","last_reported":1749766203,"current_range_meters":12400,"station_id":"","pricing_plan_id":"cebpf4jnsgd1na2vs0mg"},{"bike_id":"37824172-b22f-4b3d-99d1-302b5b89bf5f","system_id":"levelo_inurba_marseille","lat":43.288513,"lon":5.393371,"is_reserved":false,"is_disabled":false,"rental_uris":{"android":"levelo://app?vid=37824172-b22f-4b3d-99d1-302b5b89bf5f","ios":"levelo://app?vid=37824172-b22f-4b3d-99d1-302b5b89bf5f"},"vehicle_type_id":"4","last_reported":1749766203,"current_range_meters":12400,"station_id":"ce4bh2p2rcd13ifvqdi0","pricing_plan_id":"cebpf4jnsgd1na2vs0mg"},{"bike_id":"e2d73edd-ab09-4323-8ecb-853ebc0a86d1","system_id":"levelo_inurba_marseille","lat":43.29261,"lon":5.38447,"is_reserved":false,"is_disabled":false,"rental_uris":{"android":"levelo://app?vid=e2d73edd-ab09-4323-8ecb-853ebc0a86d1","ios":"levelo://app?vid=e2d73edd-ab09-4323-8ecb-853ebc0a86d1"},"vehicle_type_id":"4","last_reported":1749766203,"current_range_meters":12400,"station_id":"ce4bh692rcd13ifvqea0","pricing_plan_id":"cebpf4jnsgd1na2vs0mg"},{"bike_id":"d2820fed-6c49-4831-a8dc-002ea8e59f8c","system_id":"levelo_inurba_marseille","lat":43.25118,"lon":5.40317,"is_reserved":false,"is_disabled":false,"rental_uris":{"android":"levelo://app?vid=d2820fed-6c49-4831-a8dc-002ea8e59f8c","ios":"levelo://app?vid=d2820fed-6c49-4831-a8dc-002ea8e59f8c"},"vehicle_type_id":"4","last_reported":1749766203,"current_range_meters":12400,"station_id":"ce4bhlh2rcd13ifvqgig","pricing_plan_id":"cebpf4jnsgd1na2vs0mg"},{"bike_id":"2bcbef13-a603-4ae9-8cf8-218fb0233a1f","system_id":"levelo_inurba_marseille","lat":43.29641,"lon":5.38685,"is_reserved":false,"is_disabled":false,"rental_uris":{"android":"levelo://app?vid=2bcbef13-a603-4ae9-8cf8-218fb0233a1f","ios":"levelo://app?vid=2bcbef13-a603-4ae9-8cf8-218fb0233a1f"},"vehicle_type_id":"4","last_reported":1749766203,"current_range_meters":12800,"station_id":"","pricing_plan_id":"cebpf4jnsgd1na2vs0mg"},{"bike_id":"6e464720-93b0-4699-80fe-881649eb71cd","system_id":"levelo_inurba_marseille","lat":43.23247,"lon":5.35591,"is_reserved":false,"is_disabled":false,"rental_uris":{"android":"levelo://app?vid=6e464720-93b0-4699-80fe-881649eb71cd","ios":"levelo://app?vid=6e464720-93b0-4699-80fe-881649eb71cd"},"vehicle_type_id":"4","last_reported":1749766203,"current_range_meters":12800,"station_id":"","pricing_plan_id":"cebpf4jnsgd1na2vs0mg"},{"bike_id":"e5ef7447-82af-477b-846f-d44631249354","system_id":"levelo_inurba_marseille","lat":43.324915,"lon":5.38788,"is_reserved":false,"is_disabled":false,"rental_uris":{"android":"levelo://app?vid=e5ef7447-82af-477b-846f-d44631249354","ios":"levelo://app?vid=e5ef7447-82af-477b-846f-d44631249354"},"vehicle_type_id":"4","last_reported":1749766203,"current_range_meters":12800,"station_id":"","pricing_plan_id":"cebpf4jnsgd1na2vs0mg"},{"bike_id":"2217805c-cdfc-4b1d-b13a-2ac337c290b1","system_id":"levelo_inurba_marseille","lat":43.2925,"lon":5.40897,"is_reserved":false,"is_disabled":false,"rental_uris":{"android":"levelo://app?vid=2217805c-cdfc-4b1d-b13a-2ac337c290b1","ios":"levelo://app?vid=2217805c-cdfc-4b1d-b13a-2ac337c290b1"},"vehicle_type_id":"4","last_reported":1749766203,"current_range_meters":12800,"station_id":"ce4bh192rcd13ifvqdc0","pricing_plan_id":"cebpf4jnsgd1na2vs0mg"},{"bike_id":"d98b9f09-92b6-489e-acab-5c383ee5b54d","system_id":"levelo_inurba_marseille","lat":43.27943,"lon":5.41047,"is_reserved":false,"is_disabled":false,"rental_uris":{"android":"levelo://app?vid=d98b9f09-92b6-489e-acab-5c383ee5b54d","ios":"levelo://app?vid=d98b9f09-92b6-489e-acab-5c383ee5b54d"},"vehicle_type_id":"4","last_reported":1749766203,"current_range_meters":12800,"station_id":"ce4bhnp2rcd13ifvqh0g","pricing_plan_id":"cebpf4jnsgd1na2vs0mg"},{"bike_id":"063eff84-b62e-4128-85ed-5896eed2f5f4","system_id":"levelo_inurba_marseille","lat":43.31287,"lon":5.3752,"is_reserved":false,"is_disabled":false,"rental_uris":{"android":"levelo://app?vid=063eff84-b62e-4128-85ed-5896eed2f5f4","ios":"levelo://app?vid=063eff84-b62e-4128-85ed-5896eed2f5f4"},"vehicle_type_id":"4","last_reported":1749766203,"current_range_meters":13600,"station_id":"","pricing_plan_id":"cebpf4jnsgd1na2vs0mg"},{"bike_id":"19c1457b-bd57-4678-9bba-1ab733b8ee97","system_id":"levelo_inurba_marseille","lat":43.31112,"lon":5.37765,"is_reserved":false,"is_disabled":false,"rental_uris":{"android":"levelo://app?vid=19c1457b-bd57-4678-9bba-1ab733b8ee97","ios":"levelo://app?vid=19c1457b-bd57-4678-9bba-1ab733b8ee97"},"vehicle_type_id":"4","last_reported":1749766203,"current_range_meters":13600,"station_id":"ce4bgt92rcd13ifvqcg0","pricing_plan_id":"cebpf4jnsgd1na2vs0mg"},{"bike_id":"c5baee3e-4673-43ef-b6c2-dcbe9bbc119e","system_id":"levelo_inurba_marseille","lat":43.29567,"lon":5.39977,"is_reserved":false,"is_disabled":false,"rental_uris":{"android":"levelo://app?vid=c5baee3e-4673-43ef-b6c2-dcbe9bbc119e","ios":"levelo://app?vid=c5baee3e-4673-43ef-b6c2-dcbe9bbc119e"},"vehicle_type_id":"4","last_reported":1749766203,"current_range_meters":13600,"station_id":"ce4bh312rcd13ifvqdj0","pricing_plan_id":"cebpf4jnsgd1na2vs0mg"},{"bike_id":"b62f7c21-b945-4de8-9cea-b76853582c01","system_id":"levelo_inurba_marseille","lat":43.30298,"lon":5.39223,"is_reserved":false,"is_disabled":false,"rental_uris":{"android":"levelo://app?vid=b62f7c21-b945-4de8-9cea-b76853582c01","ios":"levelo://app?vid=b62f7c21-b945-4de8-9cea-b76853582c01"},"vehicle_type_id":"4","last_reported":1749766203,"current_range_meters":14000,"station_id":"ce4bgkh2rcd13ifvqbk0","pricing_plan_id":"cebpf4jnsgd1na2vs0mg"},{"bike_id":"7be8c392-3df0-4c60-bda3-5bd6512b3065","system_id":"levelo_inurba_marseille","lat":43.31176,"lon":5.38712,"is_reserved":false,"is_disabled":false,"rental_uris":{"android":"levelo://app?vid=7be8c392-3df0-4c60-bda3-5bd6512b3065","ios":"levelo://app?vid=7be8c392-3df0-4c60-bda3-5bd6512b3065"},"vehicle_type_id":"4","last_reported":1749766203,"current_range_meters":14000,"station_id":"ce4bgv12rcd13ifvqcp0","pricing_plan_id":"cebpf4jnsgd1na2vs0mg"},{"bike_id":"c33a2cee-1afd-469e-b327-c30180528f6c","system_id":"levelo_inurba_marseille","lat":43.30249,"lon":5.40061,"is_reserved":false,"is_disabled":false,"rental_uris":{"android":"levelo://app?vid=c33a2cee-1afd-469e-b327-c30180528f6c","ios":"levelo://app?vid=c33a2cee-1afd-469e-b327-c30180528f6c"},"vehicle_type_id":"4","last_reported":1749766203,"current_range_meters":14000,"station_id":"ce4bgvh2rcd13ifvqcs0","pricing_plan_id":"cebpf4jnsgd1na2vs0mg"},{"bike_id":"8f455b55-9788-4547-970f-5d07ccee0a24","system_id":"levelo_inurba_marseille","lat":43.2991,"lon":5.39737,"is_reserved":false,"is_disabled":false,"rental_uris":{"android":"levelo://app?vid=8f455b55-9788-4547-970f-5d07ccee0a24","ios":"levelo://app?vid=8f455b55-9788-4547-970f-5d07ccee0a24"},"vehicle_type_id":"4","last_reported":1749766203,"current_range_meters":14000,"station_id":"ce4bh0h2rcd13ifvqd50","pricing_plan_id":"cebpf4jnsgd1na2vs0mg"},{"bike_id":"78e4331f-c67f-4812-a1cf-4af0acc5e2d6","system_id":"levelo_inurba_marseille","lat":43.32362,"lon":5.3674,"is_reserved":false,"is_disabled":false,"rental_uris":{"android":"levelo://app?vid=78e4331f-c67f-4812-a1cf-4af0acc5e2d6","ios":"levelo://app?vid=78e4331f-c67f-4812-a1cf-4af0acc5e2d6"},"vehicle_type_id":"4","last_reported":1749766203,"current_range_meters":14000,"station_id":"ce4bhsh2rcd13ifvqi2g","pricing_plan_id":"cebpf4jnsgd1na2vs0mg"},{"bike_id":"cd53e204-0085-4ec9-8375-52308dbeea84","system_id":"levelo_inurba_marseille","lat":43.29786,"lon":5.39353,"is_reserved":false,"is_disabled":false,"rental_uris":{"android":"levelo://app?vid=cd53e204-0085-4ec9-8375-52308dbeea84","ios":"levelo://app?vid=cd53e204-0085-4ec9-8375-52308dbeea84"},"vehicle_type_id":"4","last_reported":1749766203,"current_range_meters":14000,"station_id":"chh1huq6cuj3fo74tm60","pricing_plan_id":"cebpf4jnsgd1na2vs0mg"},{"bike_id":"3fe50ebb-7407-4c5c-803b-1cd761668abb","system_id":"levelo_inurba_marseille","lat":43.2293,"lon":5.35373,"is_reserved":false,"is_disabled":false,"rental_uris":{"android":"levelo://app?vid=3fe50ebb-7407-4c5c-803b-1cd761668abb","ios":"levelo://app?vid=3fe50ebb-7407-4c5c-803b-1cd761668abb"},"vehicle_type_id":"4","last_reported":1749766203,"current_range_meters":14000,"station_id":"cpo3532slgdg3j2ikp40","pricing_plan_id":"cebpf4jnsgd1na2vs0mg"},{"bike_id":"2b3487c0-6d03-4c54-801f-a27aa1820b7e","system_id":"levelo_inurba_marseille","lat":43.26499,"lon":5.37329,"is_reserved":false,"is_disabled":false,"rental_uris":{"android":"levelo://app?vid=2b3487c0-6d03-4c54-801f-a27aa1820b7e","ios":"levelo://app?vid=2b3487c0-6d03-4c54-801f-a27aa1820b7e"},"vehicle_type_id":"4","last_reported":1749766203,"current_range_meters":14400,"station_id":"","pricing_plan_id":"cebpf4jnsgd1na2vs0mg"},{"bike_id":"62c0da7f-aff9-4ffa-86b8-6966d8f0e555","system_id":"levelo_inurba_marseille","lat":43.21186,"lon":5.35087,"is_reserved":false,"is_disabled":false,"rental_uris":{"android":"levelo://app?vid=62c0da7f-aff9-4ffa-86b8-6966d8f0e555","ios":"levelo://app?vid=62c0da7f-aff9-4ffa-86b8-6966d8f0e555"},"vehicle_type_id":"4","last_reported":1749766203,"current_range_meters":14400,"station_id":"","pricing_plan_id":"cebpf4jnsgd1na2vs0mg"},{"bike_id":"efef7ea9-dfe7-4a71-9a42-eb2cee9bc37e","system_id":"levelo_inurba_marseille","lat":43.31205,"lon":5.37223,"is_reserved":false,"is_disabled":false,"rental_uris":{"android":"levelo://app?vid=efef7ea9-dfe7-4a71-9a42-eb2cee9bc37e","ios":"levelo://app?vid=efef7ea9-dfe7-4a71-9a42-eb2cee9bc37e"},"vehicle_type_id":"4","last_reported":1749766203,"current_range_meters":14400,"station_id":"","pricing_plan_id":"cebpf4jnsgd1na2vs0mg"},{"bike_id":"ef61ab66-e7b8-4b98-bdb0-7d18a313570c","system_id":"levelo_inurba_marseille","lat":43.295197,"lon":5.394009,"is_reserved":false,"is_disabled":false,"rental_uris":{"android":"levelo://app?vid=ef61ab66-e7b8-4b98-bdb0-7d18a313570c","ios":"levelo://app?vid=ef61ab66-e7b8-4b98-bdb0-7d18a313570c"},"vehicle_type_id":"4","last_reported":1749766203,"current_range_meters":14400,"station_id":"ce4bh292rcd13ifvqdf0","pricing_plan_id":"cebpf4jnsgd1na2vs0mg"},{"bike_id":"32bbf3cf-4d6e-44ef-bf25-4c65f7b1d1d6","system_id":"levelo_inurba_marseille","lat":43.29573,"lon":5.3997,"is_reserved":false,"is_disabled":false,"rental_uris":{"android":"levelo://app?vid=32bbf3cf-4d6e-44ef-bf25-4c65f7b1d1d6","ios":"levelo://app?vid=32bbf3cf-4d6e-44ef-bf25-4c65f7b1d1d6"},"vehicle_type_id":"4","last_reported":1749766203,"current_range_meters":14400,"station_id":"ce4bh312rcd13ifvqdj0","pricing_plan_id":"cebpf4jnsgd1na2vs0mg"},{"bike_id":"5b1c5214-637f-48d1-bc6d-f1fa81d9a462","system_id":"levelo_inurba_marseille","lat":43.28715,"lon":5.37938,"is_reserved":false,"is_disabled":false,"rental_uris":{"android":"levelo://app?vid=5b1c5214-637f-48d1-bc6d-f1fa81d9a462","ios":"levelo://app?vid=5b1c5214-637f-48d1-bc6d-f1fa81d9a462"},"vehicle_type_id":"4","last_reported":1749766203,"current_range_meters":14400,"station_id":"ce4bh9p2rcd13ifvqec0","pricing_plan_id":"cebpf4jnsgd1na2vs0mg"},{"bike_id":"bcc36335-30bf-427e-bc24-5acde7748b29","system_id":"levelo_inurba_marseille","lat":43.2894,"lon":5.36606,"is_reserved":false,"is_disabled":false,"rental_uris":{"android":"levelo://app?vid=bcc36335-30bf-427e-bc24-5acde7748b29","ios":"levelo://app?vid=bcc36335-30bf-427e-bc24-5acde7748b29"},"vehicle_type_id":"4","last_reported":1749766203,"current_range_meters":14400,"station_id":"ce4bhap2rcd13ifvqek0","pricing_plan_id":"cebpf4jnsgd1na2vs0mg"},{"bike_id":"ab55524a-82b3-4b4c-a892-eefc366f495e","system_id":"levelo_inurba_marseille","lat":43.24662,"lon":5.38144,"is_reserved":false,"is_disabled":false,"rental_uris":{"android":"levelo://app?vid=ab55524a-82b3-4b4c-a892-eefc366f495e","ios":"levelo://app?vid=ab55524a-82b3-4b4c-a892-eefc366f495e"},"vehicle_type_id":"4","last_reported":1749766203,"current_range_meters":14400,"station_id":"ce4bhih2rcd13ifvqfr0","pricing_plan_id":"cebpf4jnsgd1na2vs0mg"},{"bike_id":"d9b7caf1-dacc-416a-86fc-2105f32c2039","system_id":"levelo_inurba_marseille","lat":43.25719,"lon":5.41111,"is_reserved":false,"is_disabled":false,"rental_uris":{"android":"levelo://app?vid=d9b7caf1-dacc-416a-86fc-2105f32c2039","ios":"levelo://app?vid=d9b7caf1-dacc-416a-86fc-2105f32c2039"},"vehicle_type_id":"4","last_reported":1749766203,"current_range_meters":14400,"station_id":"ce4bhkp2rcd13ifvqgd0","pricing_plan_id":"cebpf4jnsgd1na2vs0mg"},{"bike_id":"c0bd4251-d527-48a7-9378-e4e80c1c274f","system_id":"levelo_inurba_marseille","lat":43.31818,"lon":5.37411,"is_reserved":false,"is_disabled":false,"rental_uris":{"android":"levelo://app?vid=c0bd4251-d527-48a7-9378-e4e80c1c274f","ios":"levelo://app?vid=c0bd4251-d527-48a7-9378-e4e80c1c274f"},"vehicle_type_id":"4","last_reported":1749766203,"current_range_meters":14800,"station_id":"","pricing_plan_id":"cebpf4jnsgd1na2vs0mg"},{"bike_id":"e0b035df-615f-4bab-9596-39da68e53fd2","system_id":"levelo_inurba_marseille","lat":43.26189,"lon":5.42085,"is_reserved":false,"is_disabled":false,"rental_uris":{"android":"levelo://app?vid=e0b035df-615f-4bab-9596-39da68e53fd2","ios":"levelo://app?vid=e0b035df-615f-4bab-9596-39da68e53fd2"},"vehicle_type_id":"4","last_reported":1749766203,"current_range_meters":14800,"station_id":"","pricing_plan_id":"cebpf4jnsgd1na2vs0mg"},{"bike_id":"2e1c7177-03ca-4238-ae87-aa45449f6415","system_id":"levelo_inurba_marseille","lat":43.31313,"lon":5.39701,"is_reserved":false,"is_disabled":false,"rental_uris":{"android":"levelo://app?vid=2e1c7177-03ca-4238-ae87-aa45449f6415","ios":"levelo://app?vid=2e1c7177-03ca-4238-ae87-aa45449f6415"},"vehicle_type_id":"4","last_reported":1749766203,"current_range_meters":14800,"station_id":"ce4bgvp2rcd13ifvqcu0","pricing_plan_id":"cebpf4jnsgd1na2vs0mg"},{"bike_id":"f8e539a2-3d55-4433-9bee-076742b9bc88","system_id":"levelo_inurba_marseille","lat":43.305948,"lon":5.393595,"is_reserved":false,"is_disabled":false,"rental_uris":{"android":"levelo://app?vid=f8e539a2-3d55-4433-9bee-076742b9bc88","ios":"levelo://app?vid=f8e539a2-3d55-4433-9bee-076742b9bc88"},"vehicle_type_id":"4","last_reported":1749766203,"current_range_meters":14800,"station_id":"ce4bh0p2rcd13ifvqd80","pricing_plan_id":"cebpf4jnsgd1na2vs0mg"},{"bike_id":"e9f7be4c-cd3a-4db4-837e-23de94b68530","system_id":"levelo_inurba_marseille","lat":43.27428,"lon":5.39412,"is_reserved":false,"is_disabled":false,"rental_uris":{"android":"levelo://app?vid=e9f7be4c-cd3a-4db4-837e-23de94b68530","ios":"levelo://app?vid=e9f7be4c-cd3a-4db4-837e-23de94b68530"},"vehicle_type_id":"4","last_reported":1749766203,"current_range_meters":14800,"station_id":"ce4bhdp2rcd13ifvqf20","pricing_plan_id":"cebpf4jnsgd1na2vs0mg"},{"bike_id":"566c7291-85cb-414c-ace7-f588a8181d84","system_id":"levelo_inurba_marseille","lat":43.24104,"lon":5.37756,"is_reserved":false,"is_disabled":false,"rental_uris":{"android":"levelo://app?vid=566c7291-85cb-414c-ace7-f588a8181d84","ios":"levelo://app?vid=566c7291-85cb-414c-ace7-f588a8181d84"},"vehicle_type_id":"4","last_reported":1749766203,"current_range_meters":14800,"station_id":"ce4bhnp2rcd13ifvqgvg","pricing_plan_id":"cebpf4jnsgd1na2vs0mg"},{"bike_id":"aaafc9a0-7043-4a81-b596-f021cc6da98c","system_id":"levelo_inurba_marseille","lat":43.28687,"lon":5.39994,"is_reserved":false,"is_disabled":false,"rental_uris":{"android":"levelo://app?vid=aaafc9a0-7043-4a81-b596-f021cc6da98c","ios":"levelo://app?vid=aaafc9a0-7043-4a81-b596-f021cc6da98c"},"vehicle_type_id":"4","last_reported":1749766203,"current_range_meters":14800,"station_id":"ce4bho92rcd13ifvqh3g","pricing_plan_id":"cebpf4jnsgd1na2vs0mg"},{"bike_id":"41902e46-3363-402b-89a9-77321257c96b","system_id":"levelo_inurba_marseille","lat":43.32349,"lon":5.36779,"is_reserved":false,"is_disabled":false,"rental_uris":{"android":"levelo://app?vid=41902e46-3363-402b-89a9-77321257c96b","ios":"levelo://app?vid=41902e46-3363-402b-89a9-77321257c96b"},"vehicle_type_id":"4","last_reported":1749766203,"current_range_meters":14800,"station_id":"ce4bhsh2rcd13ifvqi2g","pricing_plan_id":"cebpf4jnsgd1na2vs0mg"},{"bike_id":"346f3f80-6b15-4406-b905-bb78596f5bac","system_id":"levelo_inurba_marseille","lat":43.32362,"lon":5.3676,"is_reserved":false,"is_disabled":false,"rental_uris":{"android":"levelo://app?vid=346f3f80-6b15-4406-b905-bb78596f5bac","ios":"levelo://app?vid=346f3f80-6b15-4406-b905-bb78596f5bac"},"vehicle_type_id":"4","last_reported":1749766203,"current_range_meters":14800,"station_id":"ce4bhsh2rcd13ifvqi2g","pricing_plan_id":"cebpf4jnsgd1na2vs0mg"},{"bike_id":"36c13eb4-085c-4a8a-933d-c0384dc35fa9","system_id":"levelo_inurba_marseille","lat":43.2809,"lon":5.37863,"is_reserved":false,"is_disabled":false,"rental_uris":{"android":"levelo://app?vid=36c13eb4-085c-4a8a-933d-c0384dc35fa9","ios":"levelo://app?vid=36c13eb4-085c-4a8a-933d-c0384dc35fa9"},"vehicle_type_id":"4","last_reported":1749766203,"current_range_meters":15200,"station_id":"ce4bha12rcd13ifvqee0","pricing_plan_id":"cebpf4jnsgd1na2vs0mg"},{"bike_id":"b0cbaa95-ecc8-43b0-bfa0-1555833902b0","system_id":"levelo_inurba_marseille","lat":43.27918,"lon":5.39576,"is_reserved":false,"is_disabled":false,"rental_uris":{"android":"levelo://app?vid=b0cbaa95-ecc8-43b0-bfa0-1555833902b0","ios":"levelo://app?vid=b0cbaa95-ecc8-43b0-bfa0-1555833902b0"},"vehicle_type_id":"4","last_reported":1749766203,"current_range_meters":15200,"station_id":"ce4bhf92rcd13ifvqf40","pricing_plan_id":"cebpf4jnsgd1na2vs0mg"},{"bike_id":"28481905-b5a8-47c2-a2e9-a8a2d015c9fd","system_id":"levelo_inurba_marseille","lat":43.28157,"lon":5.42627,"is_reserved":false,"is_disabled":false,"rental_uris":{"android":"levelo://app?vid=28481905-b5a8-47c2-a2e9-a8a2d015c9fd","ios":"levelo://app?vid=28481905-b5a8-47c2-a2e9-a8a2d015c9fd"},"vehicle_type_id":"4","last_reported":1749766203,"current_range_meters":15200,"station_id":"ce4bhnh2rcd13ifvqgug","pricing_plan_id":"cebpf4jnsgd1na2vs0mg"},{"bike_id":"b2376cd9-056e-406a-8271-7295659b91ed","system_id":"levelo_inurba_marseille","lat":43.27945,"lon":5.410486,"is_reserved":false,"is_disabled":false,"rental_uris":{"android":"levelo://app?vid=b2376cd9-056e-406a-8271-7295659b91ed","ios":"levelo://app?vid=b2376cd9-056e-406a-8271-7295659b91ed"},"vehicle_type_id":"4","last_reported":1749766203,"current_range_meters":15200,"station_id":"ce4bhnp2rcd13ifvqh0g","pricing_plan_id":"cebpf4jnsgd1na2vs0mg"},{"bike_id":"0e496414-0a37-42cd-a276-30509f7961c2","system_id":"levelo_inurba_marseille","lat":43.294605,"lon":5.38653,"is_reserved":false,"is_disabled":false,"rental_uris":{"android":"levelo://app?vid=0e496414-0a37-42cd-a276-30509f7961c2","ios":"levelo://app?vid=0e496414-0a37-42cd-a276-30509f7961c2"},"vehicle_type_id":"4","last_reported":1749766203,"current_range_meters":16000,"station_id":"","pricing_plan_id":"cebpf4jnsgd1na2vs0mg"},{"bike_id":"0fd58e3a-c25e-4b33-bc39-15b144952394","system_id":"levelo_inurba_marseille","lat":43.29683,"lon":5.37288,"is_reserved":false,"is_disabled":false,"rental_uris":{"android":"levelo://app?vid=0fd58e3a-c25e-4b33-bc39-15b144952394","ios":"levelo://app?vid=0fd58e3a-c25e-4b33-bc39-15b144952394"},"vehicle_type_id":"4","last_reported":1749766203,"current_range_meters":16000,"station_id":"ce4bgk12rcd13ifvqbj0","pricing_plan_id":"cebpf4jnsgd1na2vs0mg"},{"bike_id":"dfe86e4d-732f-444a-affa-bc91e3d641f2","system_id":"levelo_inurba_marseille","lat":43.31717,"lon":5.40444,"is_reserved":false,"is_disabled":false,"rental_uris":{"android":"levelo://app?vid=dfe86e4d-732f-444a-affa-bc91e3d641f2","ios":"levelo://app?vid=dfe86e4d-732f-444a-affa-bc91e3d641f2"},"vehicle_type_id":"4","last_reported":1749766203,"current_range_meters":16000,"station_id":"ce4bh012rcd13ifvqd00","pricing_plan_id":"cebpf4jnsgd1na2vs0mg"},{"bike_id":"3722f342-aa71-4289-bd8c-743207dc1c4b","system_id":"levelo_inurba_marseille","lat":43.3066,"lon":5.40005,"is_reserved":false,"is_disabled":false,"rental_uris":{"android":"levelo://app?vid=3722f342-aa71-4289-bd8c-743207dc1c4b","ios":"levelo://app?vid=3722f342-aa71-4289-bd8c-743207dc1c4b"},"vehicle_type_id":"4","last_reported":1749766203,"current_range_meters":16000,"station_id":"ce4bh112rcd13ifvqda0","pricing_plan_id":"cebpf4jnsgd1na2vs0mg"},{"bike_id":"b09c5743-ef93-43e1-bf67-94b8f1293da4","system_id":"levelo_inurba_marseille","lat":43.29204,"lon":5.39321,"is_reserved":false,"is_disabled":false,"rental_uris":{"android":"levelo://app?vid=b09c5743-ef93-43e1-bf67-94b8f1293da4","ios":"levelo://app?vid=b09c5743-ef93-43e1-bf67-94b8f1293da4"},"vehicle_type_id":"4","last_reported":1749766203,"current_range_meters":16000,"station_id":"ce4bh192rcd13ifvqdd0","pricing_plan_id":"cebpf4jnsgd1na2vs0mg"},{"bike_id":"dc8d791b-973d-4f6b-9b6b-43529331e2de","system_id":"levelo_inurba_marseille","lat":43.26566,"lon":5.37295,"is_reserved":false,"is_disabled":false,"rental_uris":{"android":"levelo://app?vid=dc8d791b-973d-4f6b-9b6b-43529331e2de","ios":"levelo://app?vid=dc8d791b-973d-4f6b-9b6b-43529331e2de"},"vehicle_type_id":"4","last_reported":1749766203,"current_range_meters":16000,"station_id":"ce4bhg12rcd13ifvqf70","pricing_plan_id":"cebpf4jnsgd1na2vs0mg"},{"bike_id":"4d7a4278-ed01-4602-90f3-2e674e4d70c3","system_id":"levelo_inurba_marseille","lat":43.25701,"lon":5.41084,"is_reserved":false,"is_disabled":false,"rental_uris":{"android":"levelo://app?vid=4d7a4278-ed01-4602-90f3-2e674e4d70c3","ios":"levelo://app?vid=4d7a4278-ed01-4602-90f3-2e674e4d70c3"},"vehicle_type_id":"4","last_reported":1749766203,"current_range_meters":16000,"station_id":"ce4bhkp2rcd13ifvqgd0","pricing_plan_id":"cebpf4jnsgd1na2vs0mg"},{"bike_id":"c2a4f56b-8da0-4770-923f-b3d620b42530","system_id":"levelo_inurba_marseille","lat":43.30735,"lon":5.42446,"is_reserved":false,"is_disabled":false,"rental_uris":{"android":"levelo://app?vid=c2a4f56b-8da0-4770-923f-b3d620b42530","ios":"levelo://app?vid=c2a4f56b-8da0-4770-923f-b3d620b42530"},"vehicle_type_id":"4","last_reported":1749766203,"current_range_meters":16000,"station_id":"st_cvj6ca6bvosntc0bfgr0","pricing_plan_id":"cebpf4jnsgd1na2vs0mg"},{"bike_id":"713f94e3-c67e-4836-bdd5-cfe7bb1b1281","system_id":"levelo_inurba_marseille","lat":43.22507,"lon":5.34778,"is_reserved":false,"is_disabled":false,"rental_uris":{"android":"levelo://app?vid=713f94e3-c67e-4836-bdd5-cfe7bb1b1281","ios":"levelo://app?vid=713f94e3-c67e-4836-bdd5-cfe7bb1b1281"},"vehicle_type_id":"4","last_reported":1749766203,"current_range_meters":16400,"station_id":"","pricing_plan_id":"cebpf4jnsgd1na2vs0mg"},{"bike_id":"37a64c8b-230f-4d36-94de-7db209419664","system_id":"levelo_inurba_marseille","lat":43.29287,"lon":5.40123,"is_reserved":false,"is_disabled":false,"rental_uris":{"android":"levelo://app?vid=37a64c8b-230f-4d36-94de-7db209419664","ios":"levelo://app?vid=37a64c8b-230f-4d36-94de-7db209419664"},"vehicle_type_id":"4","last_reported":1749766203,"current_range_meters":16400,"station_id":"ce4bh312rcd13ifvqdk0","pricing_plan_id":"cebpf4jnsgd1na2vs0mg"},{"bike_id":"3a10e1a5-9a95-408a-8475-eda475dfdb64","system_id":"levelo_inurba_marseille","lat":43.28715,"lon":5.37392,"is_reserved":false,"is_disabled":false,"rental_uris":{"android":"levelo://app?vid=3a10e1a5-9a95-408a-8475-eda475dfdb64","ios":"levelo://app?vid=3a10e1a5-9a95-408a-8475-eda475dfdb64"},"vehicle_type_id":"4","last_reported":1749766203,"current_range_meters":16400,"station_id":"ce4bh3p2rcd13ifvqdq0","pricing_plan_id":"cebpf4jnsgd1na2vs0mg"},{"bike_id":"a35c7cee-97de-48bc-b410-8cce0652dd4b","system_id":"levelo_inurba_marseille","lat":43.25571,"lon":5.38231,"is_reserved":false,"is_disabled":false,"rental_uris":{"android":"levelo://app?vid=a35c7cee-97de-48bc-b410-8cce0652dd4b","ios":"levelo://app?vid=a35c7cee-97de-48bc-b410-8cce0652dd4b"},"vehicle_type_id":"4","last_reported":1749766203,"current_range_meters":16400,"station_id":"ce4bhih2rcd13ifvqfs0","pricing_plan_id":"cebpf4jnsgd1na2vs0mg"},{"bike_id":"b94ed378-8626-4de3-aad6-00cd45753d68","system_id":"levelo_inurba_marseille","lat":43.27057,"lon":5.40256,"is_reserved":false,"is_disabled":false,"rental_uris":{"android":"levelo://app?vid=b94ed378-8626-4de3-aad6-00cd45753d68","ios":"levelo://app?vid=b94ed378-8626-4de3-aad6-00cd45753d68"},"vehicle_type_id":"4","last_reported":1749766203,"current_range_meters":16400,"station_id":"ce4bhk92rcd13ifvqgc0","pricing_plan_id":"cebpf4jnsgd1na2vs0mg"},{"bike_id":"336eaeee-8a8c-40f5-846b-1868fb428592","system_id":"levelo_inurba_marseille","lat":43.29785,"lon":5.39349,"is_reserved":false,"is_disabled":false,"rental_uris":{"android":"levelo://app?vid=336eaeee-8a8c-40f5-846b-1868fb428592","ios":"levelo://app?vid=336eaeee-8a8c-40f5-846b-1868fb428592"},"vehicle_type_id":"4","last_reported":1749766203,"current_range_meters":16400,"station_id":"chh1huq6cuj3fo74tm60","pricing_plan_id":"cebpf4jnsgd1na2vs0mg"},{"bike_id":"6facbc0d-f1b5-4dc3-86d4-5c1204834925","system_id":"levelo_inurba_marseille","lat":43.28047,"lon":5.34796,"is_reserved":false,"is_disabled":false,"rental_uris":{"android":"levelo://app?vid=6facbc0d-f1b5-4dc3-86d4-5c1204834925","ios":"levelo://app?vid=6facbc0d-f1b5-4dc3-86d4-5c1204834925"},"vehicle_type_id":"4","last_reported":1749766203,"current_range_meters":16800,"station_id":"","pricing_plan_id":"cebpf4jnsgd1na2vs0mg"},{"bike_id":"9f90a87d-1238-4eb8-aa94-0ecc62cf4a40","system_id":"levelo_inurba_marseille","lat":43.29534,"lon":5.38548,"is_reserved":false,"is_disabled":false,"rental_uris":{"android":"levelo://app?vid=9f90a87d-1238-4eb8-aa94-0ecc62cf4a40","ios":"levelo://app?vid=9f90a87d-1238-4eb8-aa94-0ecc62cf4a40"},"vehicle_type_id":"4","last_reported":1749766203,"current_range_meters":16800,"station_id":"ce4bgih2rcd13ifvqba0","pricing_plan_id":"cebpf4jnsgd1na2vs0mg"},{"bike_id":"202f8067-8574-43f7-bc41-7a6497ea71aa","system_id":"levelo_inurba_marseille","lat":43.29279,"lon":5.40113,"is_reserved":false,"is_disabled":false,"rental_uris":{"android":"levelo://app?vid=202f8067-8574-43f7-bc41-7a6497ea71aa","ios":"levelo://app?vid=202f8067-8574-43f7-bc41-7a6497ea71aa"},"vehicle_type_id":"4","last_reported":1749766203,"current_range_meters":16800,"station_id":"ce4bh312rcd13ifvqdk0","pricing_plan_id":"cebpf4jnsgd1na2vs0mg"},{"bike_id":"47fb50cd-10c2-4d90-bcc8-c6319cd7c045","system_id":"levelo_inurba_marseille","lat":43.27829,"lon":5.39209,"is_reserved":false,"is_disabled":false,"rental_uris":{"android":"levelo://app?vid=47fb50cd-10c2-4d90-bcc8-c6319cd7c045","ios":"levelo://app?vid=47fb50cd-10c2-4d90-bcc8-c6319cd7c045"},"vehicle_type_id":"4","last_reported":1749766203,"current_range_meters":16800,"station_id":"ce4bhjp2rcd13ifvqga0","pricing_plan_id":"cebpf4jnsgd1na2vs0mg"},{"bike_id":"c80ee6b2-b34e-4434-af5d-292631c2d2b1","system_id":"levelo_inurba_marseille","lat":43.32662,"lon":5.40981,"is_reserved":false,"is_disabled":false,"rental_uris":{"android":"levelo://app?vid=c80ee6b2-b34e-4434-af5d-292631c2d2b1","ios":"levelo://app?vid=c80ee6b2-b34e-4434-af5d-292631c2d2b1"},"vehicle_type_id":"4","last_reported":1749766203,"current_range_meters":16800,"station_id":"ce4bhpp2rcd13ifvqhgg","pricing_plan_id":"cebpf4jnsgd1na2vs0mg"},{"bike_id":"339a66ba-be39-4c70-ab26-58745ad5a07c","system_id":"levelo_inurba_marseille","lat":43.31886,"lon":5.40736,"is_reserved":false,"is_disabled":false,"rental_uris":{"android":"levelo://app?vid=339a66ba-be39-4c70-ab26-58745ad5a07c","ios":"levelo://app?vid=339a66ba-be39-4c70-ab26-58745ad5a07c"},"vehicle_type_id":"4","last_reported":1749766203,"current_range_meters":16800,"station_id":"ce4bhq12rcd13ifvqhig","pricing_plan_id":"cebpf4jnsgd1na2vs0mg"},{"bike_id":"326cc913-bdbc-48c2-9a88-414846f09512","system_id":"levelo_inurba_marseille","lat":43.32363,"lon":5.36745,"is_reserved":false,"is_disabled":false,"rental_uris":{"android":"levelo://app?vid=326cc913-bdbc-48c2-9a88-414846f09512","ios":"levelo://app?vid=326cc913-bdbc-48c2-9a88-414846f09512"},"vehicle_type_id":"4","last_reported":1749766203,"current_range_meters":16800,"station_id":"ce4bhsh2rcd13ifvqi2g","pricing_plan_id":"cebpf4jnsgd1na2vs0mg"},{"bike_id":"27b3db84-0737-42f1-9f98-7f5cb27a1b2a","system_id":"levelo_inurba_marseille","lat":43.307294,"lon":5.424488,"is_reserved":false,"is_disabled":false,"rental_uris":{"android":"levelo://app?vid=27b3db84-0737-42f1-9f98-7f5cb27a1b2a","ios":"levelo://app?vid=27b3db84-0737-42f1-9f98-7f5cb27a1b2a"},"vehicle_type_id":"4","last_reported":1749766203,"current_range_meters":16800,"station_id":"st_cvj6ca6bvosntc0bfgr0","pricing_plan_id":"cebpf4jnsgd1na2vs0mg"},{"bike_id":"075c05ec-b3c9-44c3-b57f-1083abf2ca61","system_id":"levelo_inurba_marseille","lat":43.27123,"lon":5.42615,"is_reserved":false,"is_disabled":false,"rental_uris":{"android":"levelo://app?vid=075c05ec-b3c9-44c3-b57f-1083abf2ca61","ios":"levelo://app?vid=075c05ec-b3c9-44c3-b57f-1083abf2ca61"},"vehicle_type_id":"4","last_reported":1749766203,"current_range_meters":17200,"station_id":"","pricing_plan_id":"cebpf4jnsgd1na2vs0mg"},{"bike_id":"172e288f-377a-44f4-a6c6-d2ae0eb12ceb","system_id":"levelo_inurba_marseille","lat":43.31708,"lon":5.37738,"is_reserved":false,"is_disabled":false,"rental_uris":{"android":"levelo://app?vid=172e288f-377a-44f4-a6c6-d2ae0eb12ceb","ios":"levelo://app?vid=172e288f-377a-44f4-a6c6-d2ae0eb12ceb"},"vehicle_type_id":"4","last_reported":1749766203,"current_range_meters":17200,"station_id":"ce4bgth2rcd13ifvqch0","pricing_plan_id":"cebpf4jnsgd1na2vs0mg"},{"bike_id":"9de563e8-4d36-4091-b327-157f36dfceaf","system_id":"levelo_inurba_marseille","lat":43.30884,"lon":5.39653,"is_reserved":false,"is_disabled":false,"rental_uris":{"android":"levelo://app?vid=9de563e8-4d36-4091-b327-157f36dfceaf","ios":"levelo://app?vid=9de563e8-4d36-4091-b327-157f36dfceaf"},"vehicle_type_id":"4","last_reported":1749766203,"current_range_meters":17200,"station_id":"ce4bh012rcd13ifvqcv0","pricing_plan_id":"cebpf4jnsgd1na2vs0mg"},{"bike_id":"3073188d-082e-46e4-8436-3c3817f82cfc","system_id":"levelo_inurba_marseille","lat":43.306601,"lon":5.400703,"is_reserved":false,"is_disabled":false,"rental_uris":{"android":"levelo://app?vid=3073188d-082e-46e4-8436-3c3817f82cfc","ios":"levelo://app?vid=3073188d-082e-46e4-8436-3c3817f82cfc"},"vehicle_type_id":"4","last_reported":1749766203,"current_range_meters":17200,"station_id":"ce4bh112rcd13ifvqda0","pricing_plan_id":"cebpf4jnsgd1na2vs0mg"},{"bike_id":"77e99249-c6ba-4c18-a85e-e92f6e30d737","system_id":"levelo_inurba_marseille","lat":43.29575,"lon":5.39956,"is_reserved":false,"is_disabled":false,"rental_uris":{"android":"levelo://app?vid=77e99249-c6ba-4c18-a85e-e92f6e30d737","ios":"levelo://app?vid=77e99249-c6ba-4c18-a85e-e92f6e30d737"},"vehicle_type_id":"4","last_reported":1749766203,"current_range_meters":17200,"station_id":"ce4bh312rcd13ifvqdj0","pricing_plan_id":"cebpf4jnsgd1na2vs0mg"},{"bike_id":"209c5b84-d232-48cf-b199-c3447ef131bc","system_id":"levelo_inurba_marseille","lat":43.29883,"lon":5.38901,"is_reserved":false,"is_disabled":false,"rental_uris":{"android":"levelo://app?vid=209c5b84-d232-48cf-b199-c3447ef131bc","ios":"levelo://app?vid=209c5b84-d232-48cf-b199-c3447ef131bc"},"vehicle_type_id":"4","last_reported":1749766203,"current_range_meters":17200,"station_id":"ce4bh392rcd13ifvqdl0","pricing_plan_id":"cebpf4jnsgd1na2vs0mg"},{"bike_id":"df162176-6528-4988-b2b6-b94dcfa277c1","system_id":"levelo_inurba_marseille","lat":43.290437,"lon":5.39952,"is_reserved":false,"is_disabled":false,"rental_uris":{"android":"levelo://app?vid=df162176-6528-4988-b2b6-b94dcfa277c1","ios":"levelo://app?vid=df162176-6528-4988-b2b6-b94dcfa277c1"},"vehicle_type_id":"4","last_reported":1749766203,"current_range_meters":17200,"station_id":"ce4bh392rcd13ifvqdm0","pricing_plan_id":"cebpf4jnsgd1na2vs0mg"},{"bike_id":"238c9c1d-9a15-405c-a5a2-812094de7916","system_id":"levelo_inurba_marseille","lat":43.29264,"lon":5.38448,"is_reserved":false,"is_disabled":false,"rental_uris":{"android":"levelo://app?vid=238c9c1d-9a15-405c-a5a2-812094de7916","ios":"levelo://app?vid=238c9c1d-9a15-405c-a5a2-812094de7916"},"vehicle_type_id":"4","last_reported":1749766203,"current_range_meters":17200,"station_id":"ce4bh692rcd13ifvqea0","pricing_plan_id":"cebpf4jnsgd1na2vs0mg"},{"bike_id":"30fb109b-6d5e-4b80-8961-5da3d5c806e6","system_id":"levelo_inurba_marseille","lat":43.26795,"lon":5.39413,"is_reserved":false,"is_disabled":false,"rental_uris":{"android":"levelo://app?vid=30fb109b-6d5e-4b80-8961-5da3d5c806e6","ios":"levelo://app?vid=30fb109b-6d5e-4b80-8961-5da3d5c806e6"},"vehicle_type_id":"4","last_reported":1749766203,"current_range_meters":17200,"station_id":"ce4bhh12rcd13ifvqfg0","pricing_plan_id":"cebpf4jnsgd1na2vs0mg"},{"bike_id":"b9744627-1737-453c-b7ed-c1681c0ddfbb","system_id":"levelo_inurba_marseille","lat":43.27495,"lon":5.42448,"is_reserved":false,"is_disabled":false,"rental_uris":{"android":"levelo://app?vid=b9744627-1737-453c-b7ed-c1681c0ddfbb","ios":"levelo://app?vid=b9744627-1737-453c-b7ed-c1681c0ddfbb"},"vehicle_type_id":"4","last_reported":1749766203,"current_range_meters":17200,"station_id":"ce4bhn92rcd13ifvqgrg","pricing_plan_id":"cebpf4jnsgd1na2vs0mg"},{"bike_id":"7835a476-bf82-41b7-87e3-950cf4d733b9","system_id":"levelo_inurba_marseille","lat":43.2808,"lon":5.3566,"is_reserved":false,"is_disabled":false,"rental_uris":{"android":"levelo://app?vid=7835a476-bf82-41b7-87e3-950cf4d733b9","ios":"levelo://app?vid=7835a476-bf82-41b7-87e3-950cf4d733b9"},"vehicle_type_id":"4","last_reported":1749766203,"current_range_meters":17600,"station_id":"","pricing_plan_id":"cebpf4jnsgd1na2vs0mg"},{"bike_id":"aa95b471-8256-4955-8b0c-b9b2e1b2e466","system_id":"levelo_inurba_marseille","lat":43.31068,"lon":5.38353,"is_reserved":false,"is_disabled":false,"rental_uris":{"android":"levelo://app?vid=aa95b471-8256-4955-8b0c-b9b2e1b2e466","ios":"levelo://app?vid=aa95b471-8256-4955-8b0c-b9b2e1b2e466"},"vehicle_type_id":"4","last_reported":1749766203,"current_range_meters":17600,"station_id":"ce4bgv92rcd13ifvqcr0","pricing_plan_id":"cebpf4jnsgd1na2vs0mg"},{"bike_id":"236b5d8b-6c25-4589-9526-e00e36f6c41c","system_id":"levelo_inurba_marseille","lat":43.30258,"lon":5.4005,"is_reserved":false,"is_disabled":false,"rental_uris":{"android":"levelo://app?vid=236b5d8b-6c25-4589-9526-e00e36f6c41c","ios":"levelo://app?vid=236b5d8b-6c25-4589-9526-e00e36f6c41c"},"vehicle_type_id":"4","last_reported":1749766203,"current_range_meters":17600,"station_id":"ce4bgvh2rcd13ifvqcs0","pricing_plan_id":"cebpf4jnsgd1na2vs0mg"},{"bike_id":"48fa8fac-c0a7-4454-bddf-6013ba9b1315","system_id":"levelo_inurba_marseille","lat":43.29243,"lon":5.40918,"is_reserved":false,"is_disabled":false,"rental_uris":{"android":"levelo://app?vid=48fa8fac-c0a7-4454-bddf-6013ba9b1315","ios":"levelo://app?vid=48fa8fac-c0a7-4454-bddf-6013ba9b1315"},"vehicle_type_id":"4","last_reported":1749766203,"current_range_meters":17600,"station_id":"ce4bh192rcd13ifvqdc0","pricing_plan_id":"cebpf4jnsgd1na2vs0mg"},{"bike_id":"a5b7e00f-e7f8-4550-b8c5-cd8e27dc9bdf","system_id":"levelo_inurba_marseille","lat":43.29535,"lon":5.39405,"is_reserved":false,"is_disabled":false,"rental_uris":{"android":"levelo://app?vid=a5b7e00f-e7f8-4550-b8c5-cd8e27dc9bdf","ios":"levelo://app?vid=a5b7e00f-e7f8-4550-b8c5-cd8e27dc9bdf"},"vehicle_type_id":"4","last_reported":1749766203,"current_range_meters":17600,"station_id":"ce4bh292rcd13ifvqdf0","pricing_plan_id":"cebpf4jnsgd1na2vs0mg"},{"bike_id":"3b2851dc-cdc3-4c74-bb7a-6b50ea5674bc","system_id":"levelo_inurba_marseille","lat":43.31167,"lon":5.37991,"is_reserved":false,"is_disabled":false,"rental_uris":{"android":"levelo://app?vid=3b2851dc-cdc3-4c74-bb7a-6b50ea5674bc","ios":"levelo://app?vid=3b2851dc-cdc3-4c74-bb7a-6b50ea5674bc"},"vehicle_type_id":"4","last_reported":1749766203,"current_range_meters":18000,"station_id":"","pricing_plan_id":"cebpf4jnsgd1na2vs0mg"},{"bike_id":"e8639d85-2d2a-429d-bcfe-f3a304f2fccb","system_id":"levelo_inurba_marseille","lat":43.33724,"lon":5.37469,"is_reserved":false,"is_disabled":false,"rental_uris":{"android":"levelo://app?vid=e8639d85-2d2a-429d-bcfe-f3a304f2fccb","ios":"levelo://app?vid=e8639d85-2d2a-429d-bcfe-f3a304f2fccb"},"vehicle_type_id":"4","last_reported":1749766203,"current_range_meters":18000,"station_id":"","pricing_plan_id":"cebpf4jnsgd1na2vs0mg"},{"bike_id":"7f75d443-775f-49d4-b2f9-be67d84e1039","system_id":"levelo_inurba_marseille","lat":43.2586,"lon":5.39899,"is_reserved":false,"is_disabled":false,"rental_uris":{"android":"levelo://app?vid=7f75d443-775f-49d4-b2f9-be67d84e1039","ios":"levelo://app?vid=7f75d443-775f-49d4-b2f9-be67d84e1039"},"vehicle_type_id":"4","last_reported":1749766203,"current_range_meters":18000,"station_id":"ce4bhl92rcd13ifvqghg","pricing_plan_id":"cebpf4jnsgd1na2vs0mg"},{"bike_id":"86dc398f-680e-48f1-97b1-49cbd1ed69a4","system_id":"levelo_inurba_marseille","lat":43.30786,"lon":5.43508,"is_reserved":false,"is_disabled":false,"rental_uris":{"android":"levelo://app?vid=86dc398f-680e-48f1-97b1-49cbd1ed69a4","ios":"levelo://app?vid=86dc398f-680e-48f1-97b1-49cbd1ed69a4"},"vehicle_type_id":"4","last_reported":1749766203,"current_range_meters":18000,"station_id":"ce4bhph2rcd13ifvqheg","pricing_plan_id":"cebpf4jnsgd1na2vs0mg"},{"bike_id":"09ec4267-66b8-4c3d-a5a3-55e65164d948","system_id":"levelo_inurba_marseille","lat":43.31532,"lon":5.38021,"is_reserved":false,"is_disabled":false,"rental_uris":{"android":"levelo://app?vid=09ec4267-66b8-4c3d-a5a3-55e65164d948","ios":"levelo://app?vid=09ec4267-66b8-4c3d-a5a3-55e65164d948"},"vehicle_type_id":"4","last_reported":1749766203,"current_range_meters":18000,"station_id":"ce4bhsp2rcd13ifvqi50","pricing_plan_id":"cebpf4jnsgd1na2vs0mg"},{"bike_id":"2d9eb491-ef60-4c87-8fa5-c0a977f848da","system_id":"levelo_inurba_marseille","lat":43.21184,"lon":5.35098,"is_reserved":false,"is_disabled":false,"rental_uris":{"android":"levelo://app?vid=2d9eb491-ef60-4c87-8fa5-c0a977f848da","ios":"levelo://app?vid=2d9eb491-ef60-4c87-8fa5-c0a977f848da"},"vehicle_type_id":"4","last_reported":1749766203,"current_range_meters":18000,"station_id":"st_cvj6sg6p6f1abm77japg","pricing_plan_id":"cebpf4jnsgd1na2vs0mg"},{"bike_id":"3a11c5a8-e636-4a8e-97c5-5f95a0b7cfbb","system_id":"levelo_inurba_marseille","lat":43.33315,"lon":5.39626,"is_reserved":false,"is_disabled":false,"rental_uris":{"android":"levelo://app?vid=3a11c5a8-e636-4a8e-97c5-5f95a0b7cfbb","ios":"levelo://app?vid=3a11c5a8-e636-4a8e-97c5-5f95a0b7cfbb"},"vehicle_type_id":"4","last_reported":1749766203,"current_range_meters":18800,"station_id":"","pricing_plan_id":"cebpf4jnsgd1na2vs0mg"},{"bike_id":"af3f12f1-d644-4155-bdcf-86ec48e0276a","system_id":"levelo_inurba_marseille","lat":43.29872,"lon":5.3972,"is_reserved":false,"is_disabled":false,"rental_uris":{"android":"levelo://app?vid=af3f12f1-d644-4155-bdcf-86ec48e0276a","ios":"levelo://app?vid=af3f12f1-d644-4155-bdcf-86ec48e0276a"},"vehicle_type_id":"4","last_reported":1749766203,"current_range_meters":18800,"station_id":"ce4bh0h2rcd13ifvqd50","pricing_plan_id":"cebpf4jnsgd1na2vs0mg"},{"bike_id":"157b35cb-6502-446a-ad1b-2d3e3fd5d186","system_id":"levelo_inurba_marseille","lat":43.28848,"lon":5.39314,"is_reserved":false,"is_disabled":false,"rental_uris":{"android":"levelo://app?vid=157b35cb-6502-446a-ad1b-2d3e3fd5d186","ios":"levelo://app?vid=157b35cb-6502-446a-ad1b-2d3e3fd5d186"},"vehicle_type_id":"4","last_reported":1749766203,"current_range_meters":18800,"station_id":"ce4bh2p2rcd13ifvqdi0","pricing_plan_id":"cebpf4jnsgd1na2vs0mg"},{"bike_id":"6bf563f3-6a3e-4286-b02f-50d444dc80b7","system_id":"levelo_inurba_marseille","lat":43.27532,"lon":5.38396,"is_reserved":false,"is_disabled":false,"rental_uris":{"android":"levelo://app?vid=6bf563f3-6a3e-4286-b02f-50d444dc80b7","ios":"levelo://app?vid=6bf563f3-6a3e-4286-b02f-50d444dc80b7"},"vehicle_type_id":"4","last_reported":1749766203,"current_range_meters":18800,"station_id":"ce4bhh92rcd13ifvqfi0","pricing_plan_id":"cebpf4jnsgd1na2vs0mg"},{"bike_id":"01e352fc-2a4e-4402-ba07-c86f8b8d82b6","system_id":"levelo_inurba_marseille","lat":43.26209,"lon":5.37923,"is_reserved":false,"is_disabled":false,"rental_uris":{"android":"levelo://app?vid=01e352fc-2a4e-4402-ba07-c86f8b8d82b6","ios":"levelo://app?vid=01e352fc-2a4e-4402-ba07-c86f8b8d82b6"},"vehicle_type_id":"4","last_reported":1749766203,"current_range_meters":18800,"station_id":"ce4bhjp2rcd13ifvqg90","pricing_plan_id":"cebpf4jnsgd1na2vs0mg"},{"bike_id":"38c34fcb-73ef-441e-99aa-ae2325141acf","system_id":"levelo_inurba_marseille","lat":43.278143,"lon":5.407153,"is_reserved":false,"is_disabled":false,"rental_uris":{"android":"levelo://app?vid=38c34fcb-73ef-441e-99aa-ae2325141acf","ios":"levelo://app?vid=38c34fcb-73ef-441e-99aa-ae2325141acf"},"vehicle_type_id":"4","last_reported":1749766203,"current_range_meters":18800,"station_id":"ce4bhnh2rcd13ifvqgtg","pricing_plan_id":"cebpf4jnsgd1na2vs0mg"},{"bike_id":"a6faf63a-d7fa-4f1a-bece-6fcd31a2d496","system_id":"levelo_inurba_marseille","lat":43.24062,"lon":5.37771,"is_reserved":false,"is_disabled":false,"rental_uris":{"android":"levelo://app?vid=a6faf63a-d7fa-4f1a-bece-6fcd31a2d496","ios":"levelo://app?vid=a6faf63a-d7fa-4f1a-bece-6fcd31a2d496"},"vehicle_type_id":"4","last_reported":1749766203,"current_range_meters":18800,"station_id":"ce4bhnp2rcd13ifvqgvg","pricing_plan_id":"cebpf4jnsgd1na2vs0mg"},{"bike_id":"3a5a7fe8-c444-4552-bd4c-fb79ba9ab4ff","system_id":"levelo_inurba_marseille","lat":43.24678,"lon":5.38171,"is_reserved":false,"is_disabled":false,"rental_uris":{"android":"levelo://app?vid=3a5a7fe8-c444-4552-bd4c-fb79ba9ab4ff","ios":"levelo://app?vid=3a5a7fe8-c444-4552-bd4c-fb79ba9ab4ff"},"vehicle_type_id":"4","last_reported":1749766203,"current_range_meters":19200,"station_id":"ce4bhih2rcd13ifvqfr0","pricing_plan_id":"cebpf4jnsgd1na2vs0mg"},{"bike_id":"b3456736-dea4-447f-9dd1-ef8706b880fc","system_id":"levelo_inurba_marseille","lat":43.27841,"lon":5.39206,"is_reserved":false,"is_disabled":false,"rental_uris":{"android":"levelo://app?vid=b3456736-dea4-447f-9dd1-ef8706b880fc","ios":"levelo://app?vid=b3456736-dea4-447f-9dd1-ef8706b880fc"},"vehicle_type_id":"4","last_reported":1749766203,"current_range_meters":19200,"station_id":"ce4bhjp2rcd13ifvqga0","pricing_plan_id":"cebpf4jnsgd1na2vs0mg"},{"bike_id":"370797df-7a54-4279-83d7-5eca14579627","system_id":"levelo_inurba_marseille","lat":43.30372,"lon":5.424828,"is_reserved":false,"is_disabled":false,"rental_uris":{"android":"levelo://app?vid=370797df-7a54-4279-83d7-5eca14579627","ios":"levelo://app?vid=370797df-7a54-4279-83d7-5eca14579627"},"vehicle_type_id":"4","last_reported":1749766203,"current_range_meters":19200,"station_id":"ce4bhoh2rcd13ifvqh6g","pricing_plan_id":"cebpf4jnsgd1na2vs0mg"},{"bike_id":"2ab31527-f915-4286-b3a0-0beafd2cdd50","system_id":"levelo_inurba_marseille","lat":43.29962,"lon":5.37021,"is_reserved":false,"is_disabled":false,"rental_uris":{"android":"levelo://app?vid=2ab31527-f915-4286-b3a0-0beafd2cdd50","ios":"levelo://app?vid=2ab31527-f915-4286-b3a0-0beafd2cdd50"},"vehicle_type_id":"4","last_reported":1749766203,"current_range_meters":19600,"station_id":"","pricing_plan_id":"cebpf4jnsgd1na2vs0mg"},{"bike_id":"2c9dc922-971e-4e03-a2f5-593e32aba0f2","system_id":"levelo_inurba_marseille","lat":43.29257,"lon":5.38434,"is_reserved":false,"is_disabled":false,"rental_uris":{"android":"levelo://app?vid=2c9dc922-971e-4e03-a2f5-593e32aba0f2","ios":"levelo://app?vid=2c9dc922-971e-4e03-a2f5-593e32aba0f2"},"vehicle_type_id":"4","last_reported":1749766203,"current_range_meters":19600,"station_id":"ce4bh692rcd13ifvqea0","pricing_plan_id":"cebpf4jnsgd1na2vs0mg"},{"bike_id":"e9a55c35-885a-4fc9-af23-76aa28dbed9a","system_id":"levelo_inurba_marseille","lat":43.27484,"lon":5.42453,"is_reserved":false,"is_disabled":false,"rental_uris":{"android":"levelo://app?vid=e9a55c35-885a-4fc9-af23-76aa28dbed9a","ios":"levelo://app?vid=e9a55c35-885a-4fc9-af23-76aa28dbed9a"},"vehicle_type_id":"4","last_reported":1749766203,"current_range_meters":19600,"station_id":"ce4bhn92rcd13ifvqgrg","pricing_plan_id":"cebpf4jnsgd1na2vs0mg"},{"bike_id":"2a580a26-d80d-449e-806f-9387192f9cb0","system_id":"levelo_inurba_marseille","lat":43.27495,"lon":5.42449,"is_reserved":false,"is_disabled":false,"rental_uris":{"android":"levelo://app?vid=2a580a26-d80d-449e-806f-9387192f9cb0","ios":"levelo://app?vid=2a580a26-d80d-449e-806f-9387192f9cb0"},"vehicle_type_id":"4","last_reported":1749766203,"current_range_meters":19600,"station_id":"ce4bhn92rcd13ifvqgrg","pricing_plan_id":"cebpf4jnsgd1na2vs0mg"},{"bike_id":"5f84cd5c-7517-45ed-a7ff-a9ca4a856d39","system_id":"levelo_inurba_marseille","lat":43.32346,"lon":5.40627,"is_reserved":false,"is_disabled":false,"rental_uris":{"android":"levelo://app?vid=5f84cd5c-7517-45ed-a7ff-a9ca4a856d39","ios":"levelo://app?vid=5f84cd5c-7517-45ed-a7ff-a9ca4a856d39"},"vehicle_type_id":"4","last_reported":1749766203,"current_range_meters":19600,"station_id":"ce4bhq92rcd13ifvqhjg","pricing_plan_id":"cebpf4jnsgd1na2vs0mg"},{"bike_id":"f3ec16b2-8afd-4ecb-8d58-15a6a90ff603","system_id":"levelo_inurba_marseille","lat":43.32358,"lon":5.36764,"is_reserved":false,"is_disabled":false,"rental_uris":{"android":"levelo://app?vid=f3ec16b2-8afd-4ecb-8d58-15a6a90ff603","ios":"levelo://app?vid=f3ec16b2-8afd-4ecb-8d58-15a6a90ff603"},"vehicle_type_id":"4","last_reported":1749766203,"current_range_meters":19600,"station_id":"ce4bhsh2rcd13ifvqi2g","pricing_plan_id":"cebpf4jnsgd1na2vs0mg"},{"bike_id":"a172b0cf-62c4-4c52-a818-ce564350df02","system_id":"levelo_inurba_marseille","lat":43.21177,"lon":5.35085,"is_reserved":false,"is_disabled":false,"rental_uris":{"android":"levelo://app?vid=a172b0cf-62c4-4c52-a818-ce564350df02","ios":"levelo://app?vid=a172b0cf-62c4-4c52-a818-ce564350df02"},"vehicle_type_id":"4","last_reported":1749766203,"current_range_meters":19600,"station_id":"st_cvj6sg6p6f1abm77japg","pricing_plan_id":"cebpf4jnsgd1na2vs0mg"},{"bike_id":"a3d8ed61-ad96-4794-9377-3745ebafc863","system_id":"levelo_inurba_marseille","lat":43.29106,"lon":5.38061,"is_reserved":false,"is_disabled":false,"rental_uris":{"android":"levelo://app?vid=a3d8ed61-ad96-4794-9377-3745ebafc863","ios":"levelo://app?vid=a3d8ed61-ad96-4794-9377-3745ebafc863"},"vehicle_type_id":"4","last_reported":1749766203,"current_range_meters":20000,"station_id":"","pricing_plan_id":"cebpf4jnsgd1na2vs0mg"},{"bike_id":"e5b54a92-97e7-44d2-8b3e-df9a22926a91","system_id":"levelo_inurba_marseille","lat":43.292532,"lon":5.384361,"is_reserved":false,"is_disabled":false,"rental_uris":{"android":"levelo://app?vid=e5b54a92-97e7-44d2-8b3e-df9a22926a91","ios":"levelo://app?vid=e5b54a92-97e7-44d2-8b3e-df9a22926a91"},"vehicle_type_id":"4","last_reported":1749766203,"current_range_meters":20000,"station_id":"","pricing_plan_id":"cebpf4jnsgd1na2vs0mg"},{"bike_id":"94a832e8-9c68-44e0-b34e-90640166020b","system_id":"levelo_inurba_marseille","lat":43.30782,"lon":5.37642,"is_reserved":false,"is_disabled":false,"rental_uris":{"android":"levelo://app?vid=94a832e8-9c68-44e0-b34e-90640166020b","ios":"levelo://app?vid=94a832e8-9c68-44e0-b34e-90640166020b"},"vehicle_type_id":"4","last_reported":1749766203,"current_range_meters":20000,"station_id":"ce4bgv92rcd13ifvqcq0","pricing_plan_id":"cebpf4jnsgd1na2vs0mg"},{"bike_id":"79138840-5d3d-4832-9265-707861e8f791","system_id":"levelo_inurba_marseille","lat":43.23179,"lon":5.39982,"is_reserved":false,"is_disabled":false,"rental_uris":{"android":"levelo://app?vid=79138840-5d3d-4832-9265-707861e8f791","ios":"levelo://app?vid=79138840-5d3d-4832-9265-707861e8f791"},"vehicle_type_id":"4","last_reported":1749766203,"current_range_meters":20000,"station_id":"ce4bhn12rcd13ifvqgqg","pricing_plan_id":"cebpf4jnsgd1na2vs0mg"},{"bike_id":"790e53ba-b234-4725-944a-6355eb10589a","system_id":"levelo_inurba_marseille","lat":43.28437,"lon":5.39188,"is_reserved":false,"is_disabled":false,"rental_uris":{"android":"levelo://app?vid=790e53ba-b234-4725-944a-6355eb10589a","ios":"levelo://app?vid=790e53ba-b234-4725-944a-6355eb10589a"},"vehicle_type_id":"4","last_reported":1749766203,"current_range_meters":20000,"station_id":"ce4bhoh2rcd13ifvqh5g","pricing_plan_id":"cebpf4jnsgd1na2vs0mg"},{"bike_id":"41847c92-8bbb-49a9-b6f8-b12a63115460","system_id":"levelo_inurba_marseille","lat":43.3229,"lon":5.3827,"is_reserved":false,"is_disabled":false,"rental_uris":{"android":"levelo://app?vid=41847c92-8bbb-49a9-b6f8-b12a63115460","ios":"levelo://app?vid=41847c92-8bbb-49a9-b6f8-b12a63115460"},"vehicle_type_id":"4","last_reported":1749766203,"current_range_meters":20000,"station_id":"ce4bhr12rcd13ifvqhqg","pricing_plan_id":"cebpf4jnsgd1na2vs0mg"},{"bike_id":"fd5c0873-d8ef-4cc8-a1f7-cd7dc19f4832","system_id":"levelo_inurba_marseille","lat":43.28092,"lon":5.3785,"is_reserved":false,"is_disabled":false,"rental_uris":{"android":"levelo://app?vid=fd5c0873-d8ef-4cc8-a1f7-cd7dc19f4832","ios":"levelo://app?vid=fd5c0873-d8ef-4cc8-a1f7-cd7dc19f4832"},"vehicle_type_id":"4","last_reported":1749766203,"current_range_meters":20400,"station_id":"ce4bha12rcd13ifvqee0","pricing_plan_id":"cebpf4jnsgd1na2vs0mg"},{"bike_id":"288172b5-e918-4134-90ac-2eda8110933a","system_id":"levelo_inurba_marseille","lat":43.28456,"lon":5.359,"is_reserved":false,"is_disabled":false,"rental_uris":{"android":"levelo://app?vid=288172b5-e918-4134-90ac-2eda8110933a","ios":"levelo://app?vid=288172b5-e918-4134-90ac-2eda8110933a"},"vehicle_type_id":"4","last_reported":1749766203,"current_range_meters":20400,"station_id":"ce4bhah2rcd13ifvqei0","pricing_plan_id":"cebpf4jnsgd1na2vs0mg"},{"bike_id":"820d511e-1dfd-4d64-8d76-29c6861493b7","system_id":"levelo_inurba_marseille","lat":43.28927,"lon":5.3663,"is_reserved":false,"is_disabled":false,"rental_uris":{"android":"levelo://app?vid=820d511e-1dfd-4d64-8d76-29c6861493b7","ios":"levelo://app?vid=820d511e-1dfd-4d64-8d76-29c6861493b7"},"vehicle_type_id":"4","last_reported":1749766203,"current_range_meters":20400,"station_id":"ce4bhap2rcd13ifvqek0","pricing_plan_id":"cebpf4jnsgd1na2vs0mg"},{"bike_id":"68e99e54-d8c6-48d3-8810-64ac76c71abe","system_id":"levelo_inurba_marseille","lat":43.29237,"lon":5.3748,"is_reserved":false,"is_disabled":false,"rental_uris":{"android":"levelo://app?vid=68e99e54-d8c6-48d3-8810-64ac76c71abe","ios":"levelo://app?vid=68e99e54-d8c6-48d3-8810-64ac76c71abe"},"vehicle_type_id":"4","last_reported":1749766203,"current_range_meters":20800,"station_id":"","pricing_plan_id":"cebpf4jnsgd1na2vs0mg"},{"bike_id":"7c78d404-2897-4e42-ac90-d2c2fb3cc898","system_id":"levelo_inurba_marseille","lat":43.29549,"lon":5.39985,"is_reserved":false,"is_disabled":false,"rental_uris":{"android":"levelo://app?vid=7c78d404-2897-4e42-ac90-d2c2fb3cc898","ios":"levelo://app?vid=7c78d404-2897-4e42-ac90-d2c2fb3cc898"},"vehicle_type_id":"4","last_reported":1749766203,"current_range_meters":20800,"station_id":"ce4bh312rcd13ifvqdj0","pricing_plan_id":"cebpf4jnsgd1na2vs0mg"},{"bike_id":"4be38dc6-d3af-4606-903e-7bf53c505331","system_id":"levelo_inurba_marseille","lat":43.28465,"lon":5.35895,"is_reserved":false,"is_disabled":false,"rental_uris":{"android":"levelo://app?vid=4be38dc6-d3af-4606-903e-7bf53c505331","ios":"levelo://app?vid=4be38dc6-d3af-4606-903e-7bf53c505331"},"vehicle_type_id":"4","last_reported":1749766203,"current_range_meters":20800,"station_id":"ce4bhah2rcd13ifvqei0","pricing_plan_id":"cebpf4jnsgd1na2vs0mg"},{"bike_id":"680de6a0-642c-485b-8349-3bfed0ae404b","system_id":"levelo_inurba_marseille","lat":43.27825,"lon":5.39209,"is_reserved":false,"is_disabled":false,"rental_uris":{"android":"levelo://app?vid=680de6a0-642c-485b-8349-3bfed0ae404b","ios":"levelo://app?vid=680de6a0-642c-485b-8349-3bfed0ae404b"},"vehicle_type_id":"4","last_reported":1749766203,"current_range_meters":20800,"station_id":"ce4bhjp2rcd13ifvqga0","pricing_plan_id":"cebpf4jnsgd1na2vs0mg"},{"bike_id":"c3c5e2ae-f869-49fd-9524-cf505693e6b5","system_id":"levelo_inurba_marseille","lat":43.27505,"lon":5.42459,"is_reserved":false,"is_disabled":false,"rental_uris":{"android":"levelo://app?vid=c3c5e2ae-f869-49fd-9524-cf505693e6b5","ios":"levelo://app?vid=c3c5e2ae-f869-49fd-9524-cf505693e6b5"},"vehicle_type_id":"4","last_reported":1749766203,"current_range_meters":20800,"station_id":"ce4bhn92rcd13ifvqgrg","pricing_plan_id":"cebpf4jnsgd1na2vs0mg"},{"bike_id":"033f15e1-5ed0-4098-a7ec-2a49aba179ae","system_id":"levelo_inurba_marseille","lat":43.285,"lon":5.35367,"is_reserved":false,"is_disabled":false,"rental_uris":{"android":"levelo://app?vid=033f15e1-5ed0-4098-a7ec-2a49aba179ae","ios":"levelo://app?vid=033f15e1-5ed0-4098-a7ec-2a49aba179ae"},"vehicle_type_id":"4","last_reported":1749766203,"current_range_meters":21600,"station_id":"","pricing_plan_id":"cebpf4jnsgd1na2vs0mg"},{"bike_id":"4d8b70a3-6bd9-4864-a920-a073c39de746","system_id":"levelo_inurba_marseille","lat":43.30898,"lon":5.37188,"is_reserved":false,"is_disabled":false,"rental_uris":{"android":"levelo://app?vid=4d8b70a3-6bd9-4864-a920-a073c39de746","ios":"levelo://app?vid=4d8b70a3-6bd9-4864-a920-a073c39de746"},"vehicle_type_id":"4","last_reported":1749766203,"current_range_meters":21600,"station_id":"ce4bguh2rcd13ifvqckg","pricing_plan_id":"cebpf4jnsgd1na2vs0mg"},{"bike_id":"d1585d35-f934-41f3-90f3-90fda07e16ee","system_id":"levelo_inurba_marseille","lat":43.31171,"lon":5.38704,"is_reserved":false,"is_disabled":false,"rental_uris":{"android":"levelo://app?vid=d1585d35-f934-41f3-90f3-90fda07e16ee","ios":"levelo://app?vid=d1585d35-f934-41f3-90f3-90fda07e16ee"},"vehicle_type_id":"4","last_reported":1749766203,"current_range_meters":21600,"station_id":"ce4bgv12rcd13ifvqcp0","pricing_plan_id":"cebpf4jnsgd1na2vs0mg"},{"bike_id":"f5b41a3d-e7bf-4e13-8ddb-d182b4585e82","system_id":"levelo_inurba_marseille","lat":43.289408,"lon":5.396263,"is_reserved":false,"is_disabled":false,"rental_uris":{"android":"levelo://app?vid=f5b41a3d-e7bf-4e13-8ddb-d182b4585e82","ios":"levelo://app?vid=f5b41a3d-e7bf-4e13-8ddb-d182b4585e82"},"vehicle_type_id":"4","last_reported":1749766203,"current_range_meters":21600,"station_id":"ce4bh3h2rcd13ifvqdn0","pricing_plan_id":"cebpf4jnsgd1na2vs0mg"},{"bike_id":"8c21660c-c238-4cce-bb3a-1a55c3020ac5","system_id":"levelo_inurba_marseille","lat":43.2835,"lon":5.38107,"is_reserved":false,"is_disabled":false,"rental_uris":{"android":"levelo://app?vid=8c21660c-c238-4cce-bb3a-1a55c3020ac5","ios":"levelo://app?vid=8c21660c-c238-4cce-bb3a-1a55c3020ac5"},"vehicle_type_id":"4","last_reported":1749766203,"current_range_meters":21600,"station_id":"ce4bh412rcd13ifvqdr0","pricing_plan_id":"cebpf4jnsgd1na2vs0mg"},{"bike_id":"a9fd54a7-d1be-4a4d-8a31-2c1d112c14e8","system_id":"levelo_inurba_marseille","lat":43.2649,"lon":5.39543,"is_reserved":false,"is_disabled":false,"rental_uris":{"android":"levelo://app?vid=a9fd54a7-d1be-4a4d-8a31-2c1d112c14e8","ios":"levelo://app?vid=a9fd54a7-d1be-4a4d-8a31-2c1d112c14e8"},"vehicle_type_id":"4","last_reported":1749766203,"current_range_meters":21600,"station_id":"ce4bhi12rcd13ifvqfq0","pricing_plan_id":"cebpf4jnsgd1na2vs0mg"},{"bike_id":"e38f78d3-d80e-4426-b2ea-991911db92ea","system_id":"levelo_inurba_marseille","lat":43.26201,"lon":5.37927,"is_reserved":false,"is_disabled":false,"rental_uris":{"android":"levelo://app?vid=e38f78d3-d80e-4426-b2ea-991911db92ea","ios":"levelo://app?vid=e38f78d3-d80e-4426-b2ea-991911db92ea"},"vehicle_type_id":"4","last_reported":1749766203,"current_range_meters":21600,"station_id":"ce4bhjp2rcd13ifvqg90","pricing_plan_id":"cebpf4jnsgd1na2vs0mg"},{"bike_id":"4384e631-6b9c-4c43-85f3-16415f3dee1a","system_id":"levelo_inurba_marseille","lat":43.311113,"lon":5.3777,"is_reserved":false,"is_disabled":false,"rental_uris":{"android":"levelo://app?vid=4384e631-6b9c-4c43-85f3-16415f3dee1a","ios":"levelo://app?vid=4384e631-6b9c-4c43-85f3-16415f3dee1a"},"vehicle_type_id":"4","last_reported":1749766203,"current_range_meters":22000,"station_id":"ce4bgt92rcd13ifvqcg0","pricing_plan_id":"cebpf4jnsgd1na2vs0mg"},{"bike_id":"d9f598e3-da7e-43e8-a3f4-35a35cdf9e2e","system_id":"levelo_inurba_marseille","lat":43.31168,"lon":5.3872,"is_reserved":false,"is_disabled":false,"rental_uris":{"android":"levelo://app?vid=d9f598e3-da7e-43e8-a3f4-35a35cdf9e2e","ios":"levelo://app?vid=d9f598e3-da7e-43e8-a3f4-35a35cdf9e2e"},"vehicle_type_id":"4","last_reported":1749766203,"current_range_meters":22000,"station_id":"ce4bgv12rcd13ifvqcp0","pricing_plan_id":"cebpf4jnsgd1na2vs0mg"},{"bike_id":"94f65fc7-c495-4fc3-bd53-b2d2bfbe5284","system_id":"levelo_inurba_marseille","lat":43.28853,"lon":5.39304,"is_reserved":false,"is_disabled":false,"rental_uris":{"android":"levelo://app?vid=94f65fc7-c495-4fc3-bd53-b2d2bfbe5284","ios":"levelo://app?vid=94f65fc7-c495-4fc3-bd53-b2d2bfbe5284"},"vehicle_type_id":"4","last_reported":1749766203,"current_range_meters":22000,"station_id":"ce4bh2p2rcd13ifvqdi0","pricing_plan_id":"cebpf4jnsgd1na2vs0mg"},{"bike_id":"55043162-e667-4c21-8b54-bd263b6bd6bb","system_id":"levelo_inurba_marseille","lat":43.28709,"lon":5.37406,"is_reserved":false,"is_disabled":false,"rental_uris":{"android":"levelo://app?vid=55043162-e667-4c21-8b54-bd263b6bd6bb","ios":"levelo://app?vid=55043162-e667-4c21-8b54-bd263b6bd6bb"},"vehicle_type_id":"4","last_reported":1749766203,"current_range_meters":22000,"station_id":"ce4bh3p2rcd13ifvqdq0","pricing_plan_id":"cebpf4jnsgd1na2vs0mg"},{"bike_id":"075ad5b3-1645-4567-8339-eb3b8886e4c4","system_id":"levelo_inurba_marseille","lat":43.28647,"lon":5.36348,"is_reserved":false,"is_disabled":false,"rental_uris":{"android":"levelo://app?vid=075ad5b3-1645-4567-8339-eb3b8886e4c4","ios":"levelo://app?vid=075ad5b3-1645-4567-8339-eb3b8886e4c4"},"vehicle_type_id":"4","last_reported":1749766203,"current_range_meters":22000,"station_id":"ce4bhah2rcd13ifvqej0","pricing_plan_id":"cebpf4jnsgd1na2vs0mg"},{"bike_id":"ccb9975b-34a8-47da-b755-e17344ae18d3","system_id":"levelo_inurba_marseille","lat":43.23187,"lon":5.35553,"is_reserved":false,"is_disabled":false,"rental_uris":{"android":"levelo://app?vid=ccb9975b-34a8-47da-b755-e17344ae18d3","ios":"levelo://app?vid=ccb9975b-34a8-47da-b755-e17344ae18d3"},"vehicle_type_id":"4","last_reported":1749766203,"current_range_meters":22000,"station_id":"ce4bhu92rcd13ifvqi70","pricing_plan_id":"cebpf4jnsgd1na2vs0mg"},