{"last_updated":1743332912,"ttl":60,"version":"2.2","data":{"bikes":[{"bike_id":"68266010-e553-48dc-b066-85d674580121","system_id":"levelo_inurba_marseille","lat":43.24168,"lon":5.36395,"is_reserved":false,"is_disabled":false,"rental_uris":{"android":"levelo://app?vid=68266010-e553-48dc-b066-85d674580121","ios":"levelo://app?vid=68266010-e553-48dc-b066-85d674580121"},"vehicle_type_id":"4","last_reported":1743332912,"current_range_meters":2800,"station_id":"cpo36qri1sfpv3e86is0","pricing_plan_id":"cebpf4jnsgd1na2vs0mg"},{"bike_id":"8acc06e6-db4b-4b8c-bb60-7868d5a3b297","system_id":"levelo_inurba_marseille","lat":43.23179,"lon":5.39983,"is_reserved":false,"is_disabled":false,"rental_uris":{"android":"levelo://app?vid=8acc06e6-db4b-4b8c-bb60-7868d5a3b297","ios":"levelo://app?vid=8acc06e6-db4b-4b8c-bb60-7868d5a3b297"},"vehicle_type_id":"4","last_reported":1743332912,"current_range_meters":2800,"station_id":"ce4bhn12rcd13ifvqgqg","pricing_plan_id":"cebpf4jnsgd1na2vs0mg"},{"bike_id":"aa1314f3-15c5-4f83-876b-edcd283257d4","system_id":"levelo_inurba_marseille","lat":43.28035,"lon":5.36952,"is_reserved":false,"is_disabled":false,"rental_uris":{"android":"levelo://app?vid=aa1314f3-15c5-4f83-876b-edcd283257d4","ios":"levelo://app?vid=aa1314f3-15c5-4f83-876b-edcd283257d4"},"vehicle_type_id":"4","last_reported":1743332912,"current_range_meters":2800,"station_id":"ce4bha12rcd13ifvqef0","pricing_plan_id":"cebpf4jnsgd1na2vs0mg"},{"bike_id":"0ad1ecfc-78cd-4b9c-8776-0344da4cb372","system_id":"levelo_inurba_marseille","lat":43.301198,"lon":5.39854,"is_reserved":false,"is_disabled":false,"rental_uris":{"android":"levelo://app?vid=0ad1ecfc-78cd-4b9c-8776-0344da4cb372","ios":"levelo://app?vid=0ad1ecfc-78cd-4b9c-8776-0344da4cb372"},"vehicle_type_id":"4","last_reported":1743332912,"current_range_meters":4400,"station_id":"ce4bgup2rcd13ifvqco0","pricing_plan_id":"cebpf4jnsgd1na2vs0mg"},{"bike_id":"f1f1ea14-fd21-40b5-ad9e-3a99540f7355","system_id":"levelo_inurba_marseille","lat":43.289907,"lon":5.37829,"is_reserved":false,"is_disabled":false,"rental_uris":{"android":"levelo://app?vid=f1f1ea14-fd21-40b5-ad9e-3a99540f7355","ios":"levelo://app?vid=f1f1ea14-fd21-40b5-ad9e-3a99540f7355"},"vehicle_type_id":"4","last_reported":1743332912,"current_range_meters":2800,"station_id":"ce4bhe12rcd13ifvqf30","pricing_plan_id":"cebpf4jnsgd1na2vs0mg"},{"bike_id":"0f9fc322-7a0f-4e30-9d4f-f42e9d546b3b","system_id":"levelo_inurba_marseille","lat":43.30551,"lon":5.38439,"is_reserved":false,"is_disabled":true,"rental_uris":{"android":"levelo://app?vid=0f9fc322-7a0f-4e30-9d4f-f42e9d546b3b","ios":"levelo://app?vid=0f9fc322-7a0f-4e30-9d4f-f42e9d546b3b"},"vehicle_type_id":"4","last_reported":1743332912,"current_range_meters":3200,"station_id":"ce4bgg92rcd13ifvqb30","pricing_plan_id":"cebpf4jnsgd1na2vs0mg"},{"bike_id":"f465c181-aa90-4849-8459-60977990ab84","system_id":"levelo_inurba_marseille","lat":43.26064,"lon":5.394,"is_reserved":false,"is_disabled":false,"rental_uris":{"android":"levelo://app?vid=f465c181-aa90-4849-8459-60977990ab84","ios":"levelo://app?vid=f465c181-aa90-4849-8459-60977990ab84"},"vehicle_type_id":"4","last_reported":1743332912,"current_range_meters":3200,"station_id":"ce4bhh92rcd13ifvqfj0","pricing_plan_id":"cebpf4jnsgd1na2vs0mg"},{"bike_id":"03a100c1-f7ee-436f-944f-794d2b858ee2","system_id":"levelo_inurba_marseille","lat":43.29533,"lon":5.37494,"is_reserved":false,"is_disabled":true,"rental_uris":{"android":"levelo://app?vid=03a100c1-f7ee-436f-944f-794d2b858ee2","ios":"levelo://app?vid=03a100c1-f7ee-436f-944f-794d2b858ee2"},"vehicle_type_id":"4","last_reported":1743332912,"current_range_meters":3200,"station_id":"ce4bgkp2rcd13ifvqbmg","pricing_plan_id":"cebpf4jnsgd1na2vs0mg"},{"bike_id":"6bde1aa1-340b-4127-93f9-dba71a43c945","system_id":"levelo_inurba_marseille","lat":43.290344,"lon":5.386439,"is_reserved":false,"is_disabled":false,"rental_uris":{"android":"levelo://app?vid=6bde1aa1-340b-4127-93f9-dba71a43c945","ios":"levelo://app?vid=6bde1aa1-340b-4127-93f9-dba71a43c945"},"vehicle_type_id":"4","last_reported":1743332912,"current_range_meters":800,"station_id":"ce4bh4p2rcd13ifvqe0g","pricing_plan_id":"cebpf4jnsgd1na2vs0mg"},{"bike_id":"fd3b1a86-a62d-4ea1-88e8-b4dbda085f9b","system_id":"levelo_inurba_marseille","lat":43.29221,"lon":5.36079,"is_reserved":false,"is_disabled":false,"rental_uris":{"android":"levelo://app?vid=fd3b1a86-a62d-4ea1-88e8-b4dbda085f9b","ios":"levelo://app?vid=fd3b1a86-a62d-4ea1-88e8-b4dbda085f9b"},"vehicle_type_id":"4","last_reported":1743332912,"current_range_meters":0,"station_id":"ce4bhbh2rcd13ifvqeqg","pricing_plan_id":"cebpf4jnsgd1na2vs0mg"},{"bike_id":"8a242734-5e84-4dc5-a3f4-7fb85858edf9","system_id":"levelo_inurba_marseille","lat":43.28269,"lon":5.35057,"is_reserved":false,"is_disabled":false,"rental_uris":{"android":"levelo://app?vid=8a242734-5e84-4dc5-a3f4-7fb85858edf9","ios":"levelo://app?vid=8a242734-5e84-4dc5-a3f4-7fb85858edf9"},"vehicle_type_id":"4","last_reported":1743332912,"current_range_meters":3200,"station_id":"ce4bhbp2rcd13ifvqerg","pricing_plan_id":"cebpf4jnsgd1na2vs0mg"},{"bike_id":"6dd02f85-6cf6-46d2-9894-d0d58ed0d569","system_id":"levelo_inurba_marseille","lat":43.30771,"lon":5.42406,"is_reserved":false,"is_disabled":false,"rental_uris":{"android":"levelo://app?vid=6dd02f85-6cf6-46d2-9894-d0d58ed0d569","ios":"levelo://app?vid=6dd02f85-6cf6-46d2-9894-d0d58ed0d569"},"vehicle_type_id":"4","last_reported":1743332912,"current_range_meters":3600,"station_id":"st_cvj6ca6bvosntc0bfgr0","pricing_plan_id":"cebpf4jnsgd1na2vs0mg"},{"bike_id":"6df043e1-a42e-4580-9ca0-8f52f737a714","system_id":"levelo_inurba_marseille","lat":43.29563,"lon":5.42268,"is_reserved":false,"is_disabled":false,"rental_uris":{"android":"levelo://app?vid=6df043e1-a42e-4580-9ca0-8f52f737a714","ios":"levelo://app?vid=6df043e1-a42e-4580-9ca0-8f52f737a714"},"vehicle_type_id":"4","last_reported":1743332912,"current_range_meters":3600,"station_id":"ce4bhph2rcd13ifvqhdg","pricing_plan_id":"cebpf4jnsgd1na2vs0mg"},{"bike_id":"50a4f503-067e-4785-8c00-68076f6504cd","system_id":"levelo_inurba_marseille","lat":43.28041,"lon":5.3694,"is_reserved":false,"is_disabled":false,"rental_uris":{"android":"levelo://app?vid=50a4f503-067e-4785-8c00-68076f6504cd","ios":"levelo://app?vid=50a4f503-067e-4785-8c00-68076f6504cd"},"vehicle_type_id":"4","last_reported":1743332912,"current_range_meters":4000,"station_id":"ce4bha12rcd13ifvqef0","pricing_plan_id":"cebpf4jnsgd1na2vs0mg"},{"bike_id":"d1919d8c-9c9d-4d8f-91c8-abed0b1319cb","system_id":"levelo_inurba_marseille","lat":43.24805,"lon":5.37455,"is_reserved":false,"is_disabled":false,"rental_uris":{"android":"levelo://app?vid=d1919d8c-9c9d-4d8f-91c8-abed0b1319cb","ios":"levelo://app?vid=d1919d8c-9c9d-4d8f-91c8-abed0b1319cb"},"vehicle_type_id":"4","last_reported":1743332912,"current_range_meters":4000,"station_id":"ce4bhgh2rcd13ifvqfb0","pricing_plan_id":"cebpf4jnsgd1na2vs0mg"},{"bike_id":"4777850e-a840-44f2-a6a5-fd44a1ac41d3","system_id":"levelo_inurba_marseille","lat":43.2871,"lon":5.39962,"is_reserved":false,"is_disabled":true,"rental_uris":{"android":"levelo://app?vid=4777850e-a840-44f2-a6a5-fd44a1ac41d3","ios":"levelo://app?vid=4777850e-a840-44f2-a6a5-fd44a1ac41d3"},"vehicle_type_id":"4","last_reported":1743332912,"current_range_meters":4000,"station_id":"ce4bho92rcd13ifvqh3g","pricing_plan_id":"cebpf4jnsgd1na2vs0mg"},{"bike_id":"e6967797-29d0-4947-88e5-61bc42de65df","system_id":"levelo_inurba_marseille","lat":43.28622,"lon":5.35103,"is_reserved":false,"is_disabled":false,"rental_uris":{"android":"levelo://app?vid=e6967797-29d0-4947-88e5-61bc42de65df","ios":"levelo://app?vid=e6967797-29d0-4947-88e5-61bc42de65df"},"vehicle_type_id":"4","last_reported":1743332912,"current_range_meters":4000,"station_id":"ce4bhch2rcd13ifvqeug","pricing_plan_id":"cebpf4jnsgd1na2vs0mg"},{"bike_id":"b9b27ee1-4be8-474a-b66f-d879a74b1296","system_id":"levelo_inurba_marseille","lat":43.248112,"lon":5.374621,"is_reserved":false,"is_disabled":false,"rental_uris":{"android":"levelo://app?vid=b9b27ee1-4be8-474a-b66f-d879a74b1296","ios":"levelo://app?vid=b9b27ee1-4be8-474a-b66f-d879a74b1296"},"vehicle_type_id":"4","last_reported":1743332912,"current_range_meters":4000,"station_id":"ce4bhgh2rcd13ifvqfb0","pricing_plan_id":"cebpf4jnsgd1na2vs0mg"},{"bike_id":"3b6d2be7-27bc-45d3-b2ce-a61e9456c493","system_id":"levelo_inurba_marseille","lat":43.23179,"lon":5.39992,"is_reserved":false,"is_disabled":false,"rental_uris":{"android":"levelo://app?vid=3b6d2be7-27bc-45d3-b2ce-a61e9456c493","ios":"levelo://app?vid=3b6d2be7-27bc-45d3-b2ce-a61e9456c493"},"vehicle_type_id":"4","last_reported":1743332912,"current_range_meters":4000,"station_id":"ce4bhn12rcd13ifvqgqg","pricing_plan_id":"cebpf4jnsgd1na2vs0mg"},{"bike_id":"9df9e6fd-c97a-4d65-82df-bdcd7e8e07e3","system_id":"levelo_inurba_marseille","lat":43.29023,"lon":5.38638,"is_reserved":false,"is_disabled":false,"rental_uris":{"android":"levelo://app?vid=9df9e6fd-c97a-4d65-82df-bdcd7e8e07e3","ios":"levelo://app?vid=9df9e6fd-c97a-4d65-82df-bdcd7e8e07e3"},"vehicle_type_id":"4","last_reported":1743332912,"current_range_meters":6000,"station_id":"ce4bh4p2rcd13ifvqe0g","pricing_plan_id":"cebpf4jnsgd1na2vs0mg"},{"bike_id":"41c4f7af-fe61-4005-9cce-10b596edb7a7","system_id":"levelo_inurba_marseille","lat":43.31716,"lon":5.42396,"is_reserved":false,"is_disabled":false,"rental_uris":{"android":"levelo://app?vid=41c4f7af-fe61-4005-9cce-10b596edb7a7","ios":"levelo://app?vid=41c4f7af-fe61-4005-9cce-10b596edb7a7"},"vehicle_type_id":"4","last_reported":1743332912,"current_range_meters":4000,"station_id":"ce4bhp92rcd13ifvqhbg","pricing_plan_id":"cebpf4jnsgd1na2vs0mg"},{"bike_id":"1a17e6bd-14fd-4d19-9f80-42183fa69587","system_id":"levelo_inurba_marseille","lat":43.28656,"lon":5.36347,"is_reserved":false,"is_disabled":false,"rental_uris":{"android":"levelo://app?vid=1a17e6bd-14fd-4d19-9f80-42183fa69587","ios":"levelo://app?vid=1a17e6bd-14fd-4d19-9f80-42183fa69587"},"vehicle_type_id":"4","last_reported":1743332912,"current_range_meters":4400,"station_id":"ce4bhah2rcd13ifvqej0","pricing_plan_id":"cebpf4jnsgd1na2vs0mg"},{"bike_id":"0558bc66-2825-46b4-8c35-dfa19eca05b8","system_id":"levelo_inurba_marseille","lat":43.24424,"lon":5.37074,"is_reserved":false,"is_disabled":false,"rental_uris":{"android":"levelo://app?vid=0558bc66-2825-46b4-8c35-dfa19eca05b8","ios":"levelo://app?vid=0558bc66-2825-46b4-8c35-dfa19eca05b8"},"vehicle_type_id":"4","last_reported":1743332912,"current_range_meters":4400,"station_id":"ce4bhhh2rcd13ifvqfk0","pricing_plan_id":"cebpf4jnsgd1na2vs0mg"},{"bike_id":"940ae5db-0687-4daf-9885-7c2482b6fab9","system_id":"levelo_inurba_marseille","lat":43.28446,"lon":5.35889,"is_reserved":false,"is_disabled":false,"rental_uris":{"android":"levelo://app?vid=940ae5db-0687-4daf-9885-7c2482b6fab9","ios":"levelo://app?vid=940ae5db-0687-4daf-9885-7c2482b6fab9"},"vehicle_type_id":"4","last_reported":1743332912,"current_range_meters":4400,"station_id":"ce4bhah2rcd13ifvqei0","pricing_plan_id":"cebpf4jnsgd1na2vs0mg"},{"bike_id":"954a603d-5e9d-4508-8469-0978146844e8","system_id":"levelo_inurba_marseille","lat":43.30087,"lon":5.39086,"is_reserved":false,"is_disabled":false,"rental_uris":{"android":"levelo://app?vid=954a603d-5e9d-4508-8469-0978146844e8","ios":"levelo://app?vid=954a603d-5e9d-4508-8469-0978146844e8"},"vehicle_type_id":"4","last_reported":1743332912,"current_range_meters":4800,"station_id":"ce4bh192rcd13ifvqdb0","pricing_plan_id":"cebpf4jnsgd1na2vs0mg"},{"bike_id":"865a02c7-239d-4c4a-8242-4ce424cbd659","system_id":"levelo_inurba_marseille","lat":43.29845,"lon":5.39723,"is_reserved":false,"is_disabled":false,"rental_uris":{"android":"levelo://app?vid=865a02c7-239d-4c4a-8242-4ce424cbd659","ios":"levelo://app?vid=865a02c7-239d-4c4a-8242-4ce424cbd659"},"vehicle_type_id":"4","last_reported":1743332912,"current_range_meters":4800,"station_id":"ce4bh0h2rcd13ifvqd50","pricing_plan_id":"cebpf4jnsgd1na2vs0mg"},{"bike_id":"5262f1cd-9659-4355-9515-26427339333a","system_id":"levelo_inurba_marseille","lat":43.301495,"lon":5.380865,"is_reserved":false,"is_disabled":false,"rental_uris":{"android":"levelo://app?vid=5262f1cd-9659-4355-9515-26427339333a","ios":"levelo://app?vid=5262f1cd-9659-4355-9515-26427339333a"},"vehicle_type_id":"4","last_reported":1743332912,"current_range_meters":4800,"station_id":"ce4bhb12rcd13ifvqel0","pricing_plan_id":"cebpf4jnsgd1na2vs0mg"},{"bike_id":"d9cf565a-fc17-40fc-b4d9-e95e6c5fd73b","system_id":"levelo_inurba_marseille","lat":43.25682,"lon":5.41057,"is_reserved":false,"is_disabled":false,"rental_uris":{"android":"levelo://app?vid=d9cf565a-fc17-40fc-b4d9-e95e6c5fd73b","ios":"levelo://app?vid=d9cf565a-fc17-40fc-b4d9-e95e6c5fd73b"},"vehicle_type_id":"4","last_reported":1743332912,"current_range_meters":4800,"station_id":"ce4bhkp2rcd13ifvqgd0","pricing_plan_id":"cebpf4jnsgd1na2vs0mg"},{"bike_id":"01804e53-fef6-4d96-aad5-1a3e92251dd4","system_id":"levelo_inurba_marseille","lat":43.267904,"lon":5.394148,"is_reserved":false,"is_disabled":false,"rental_uris":{"android":"levelo://app?vid=01804e53-fef6-4d96-aad5-1a3e92251dd4","ios":"levelo://app?vid=01804e53-fef6-4d96-aad5-1a3e92251dd4"},"vehicle_type_id":"4","last_reported":1743332912,"current_range_meters":5600,"station_id":"ce4bhh12rcd13ifvqfg0","pricing_plan_id":"cebpf4jnsgd1na2vs0mg"},{"bike_id":"80507833-57fc-4199-a0f8-32eca269665b","system_id":"levelo_inurba_marseille","lat":43.2417,"lon":5.36398,"is_reserved":false,"is_disabled":false,"rental_uris":{"android":"levelo://app?vid=80507833-57fc-4199-a0f8-32eca269665b","ios":"levelo://app?vid=80507833-57fc-4199-a0f8-32eca269665b"},"vehicle_type_id":"4","last_reported":1743332912,"current_range_meters":5600,"station_id":"cpo36qri1sfpv3e86is0","pricing_plan_id":"cebpf4jnsgd1na2vs0mg"},{"bike_id":"b5ace6c6-32e3-486d-9744-efb1ce0dfa9d","system_id":"levelo_inurba_marseille","lat":43.28911,"lon":5.37102,"is_reserved":false,"is_disabled":true,"rental_uris":{"android":"levelo://app?vid=b5ace6c6-32e3-486d-9744-efb1ce0dfa9d","ios":"levelo://app?vid=b5ace6c6-32e3-486d-9744-efb1ce0dfa9d"},"vehicle_type_id":"4","last_reported":1743332912,"current_range_meters":5600,"station_id":"","pricing_plan_id":"cebpf4jnsgd1na2vs0mg"},{"bike_id":"8d6abdef-27aa-4d1b-9448-656a6296f19d","system_id":"levelo_inurba_marseille","lat":43.24177,"lon":5.39785,"is_reserved":false,"is_disabled":false,"rental_uris":{"android":"levelo://app?vid=8d6abdef-27aa-4d1b-9448-656a6296f19d","ios":"levelo://app?vid=8d6abdef-27aa-4d1b-9448-656a6296f19d"},"vehicle_type_id":"4","last_reported":1743332912,"current_range_meters":5600,"station_id":"ce4bhn12rcd13ifvqgpg","pricing_plan_id":"cebpf4jnsgd1na2vs0mg"},{"bike_id":"5fa76be9-4f44-42b2-9369-ca86f6bbce5c","system_id":"levelo_inurba_marseille","lat":43.265519,"lon":5.372846,"is_reserved":false,"is_disabled":true,"rental_uris":{"android":"levelo://app?vid=5fa76be9-4f44-42b2-9369-ca86f6bbce5c","ios":"levelo://app?vid=5fa76be9-4f44-42b2-9369-ca86f6bbce5c"},"vehicle_type_id":"4","last_reported":1743332912,"current_range_meters":6000,"station_id":"ce4bhg12rcd13ifvqf70","pricing_plan_id":"cebpf4jnsgd1na2vs0mg"},{"bike_id":"9b5aa050-0ab0-4073-8d4a-e102b1e24cb7","system_id":"levelo_inurba_marseille","lat":43.26557,"lon":5.37314,"is_reserved":false,"is_disabled":false,"rental_uris":{"android":"levelo://app?vid=9b5aa050-0ab0-4073-8d4a-e102b1e24cb7","ios":"levelo://app?vid=9b5aa050-0ab0-4073-8d4a-e102b1e24cb7"},"vehicle_type_id":"4","last_reported":1743332912,"current_range_meters":6000,"station_id":"ce4bhg12rcd13ifvqf70","pricing_plan_id":"cebpf4jnsgd1na2vs0mg"},{"bike_id":"fb77412f-be63-4c87-9055-495a2b5ad350","system_id":"levelo_inurba_marseille","lat":43.28265,"lon":5.35059,"is_reserved":false,"is_disabled":false,"rental_uris":{"android":"levelo://app?vid=fb77412f-be63-4c87-9055-495a2b5ad350","ios":"levelo://app?vid=fb77412f-be63-4c87-9055-495a2b5ad350"},"vehicle_type_id":"4","last_reported":1743332912,"current_range_meters":6000,"station_id":"ce4bhbp2rcd13ifvqerg","pricing_plan_id":"cebpf4jnsgd1na2vs0mg"},{"bike_id":"73ea5bca-5825-49bb-86da-5230b79310e1","system_id":"levelo_inurba_marseille","lat":43.23058,"lon":5.35495,"is_reserved":false,"is_disabled":false,"rental_uris":{"android":"levelo://app?vid=73ea5bca-5825-49bb-86da-5230b79310e1","ios":"levelo://app?vid=73ea5bca-5825-49bb-86da-5230b79310e1"},"vehicle_type_id":"4","last_reported":1743332912,"current_range_meters":6000,"station_id":"cpo3342slgdg3j2ifvpg","pricing_plan_id":"cebpf4jnsgd1na2vs0mg"},{"bike_id":"d14cdd1e-f0b3-48a5-be5e-77128af69a2d","system_id":"levelo_inurba_marseille","lat":43.28612,"lon":5.35112,"is_reserved":false,"is_disabled":false,"rental_uris":{"android":"levelo://app?vid=d14cdd1e-f0b3-48a5-be5e-77128af69a2d","ios":"levelo://app?vid=d14cdd1e-f0b3-48a5-be5e-77128af69a2d"},"vehicle_type_id":"4","last_reported":1743332912,"current_range_meters":6000,"station_id":"ce4bhch2rcd13ifvqeug","pricing_plan_id":"cebpf4jnsgd1na2vs0mg"},{"bike_id":"44b3e41c-f03e-44d0-9f50-7a27bd55bb80","system_id":"levelo_inurba_marseille","lat":43.30801,"lon":5.38153,"is_reserved":false,"is_disabled":false,"rental_uris":{"android":"levelo://app?vid=44b3e41c-f03e-44d0-9f50-7a27bd55bb80","ios":"levelo://app?vid=44b3e41c-f03e-44d0-9f50-7a27bd55bb80"},"vehicle_type_id":"4","last_reported":1743332912,"current_range_meters":6400,"station_id":"ce4bgt12rcd13ifvqce0","pricing_plan_id":"cebpf4jnsgd1na2vs0mg"},{"bike_id":"5d0712f9-1996-45e5-9e21-790034cdb16e","system_id":"levelo_inurba_marseille","lat":43.22932,"lon":5.35378,"is_reserved":false,"is_disabled":false,"rental_uris":{"android":"levelo://app?vid=5d0712f9-1996-45e5-9e21-790034cdb16e","ios":"levelo://app?vid=5d0712f9-1996-45e5-9e21-790034cdb16e"},"vehicle_type_id":"4","last_reported":1743332912,"current_range_meters":6400,"station_id":"cpo3532slgdg3j2ikp40","pricing_plan_id":"cebpf4jnsgd1na2vs0mg"},{"bike_id":"a36a9ec1-537e-4091-9d7a-dd0444d14e10","system_id":"levelo_inurba_marseille","lat":43.24806,"lon":5.3747,"is_reserved":false,"is_disabled":false,"rental_uris":{"android":"levelo://app?vid=a36a9ec1-537e-4091-9d7a-dd0444d14e10","ios":"levelo://app?vid=a36a9ec1-537e-4091-9d7a-dd0444d14e10"},"vehicle_type_id":"4","last_reported":1743332912,"current_range_meters":6400,"station_id":"ce4bhgh2rcd13ifvqfb0","pricing_plan_id":"cebpf4jnsgd1na2vs0mg"},{"bike_id":"a8c2d63a-9eeb-46b0-9f10-0ac54c09e17b","system_id":"levelo_inurba_marseille","lat":43.24995,"lon":5.38918,"is_reserved":false,"is_disabled":false,"rental_uris":{"android":"levelo://app?vid=a8c2d63a-9eeb-46b0-9f10-0ac54c09e17b","ios":"levelo://app?vid=a8c2d63a-9eeb-46b0-9f10-0ac54c09e17b"},"vehicle_type_id":"4","last_reported":1743332912,"current_range_meters":6400,"station_id":"ce4bhgp2rcd13ifvqfd0","pricing_plan_id":"cebpf4jnsgd1na2vs0mg"},{"bike_id":"f8ed3009-6d31-4d12-af28-58d547d38689","system_id":"levelo_inurba_marseille","lat":43.23965,"lon":5.36629,"is_reserved":false,"is_disabled":false,"rental_uris":{"android":"levelo://app?vid=f8ed3009-6d31-4d12-af28-58d547d38689","ios":"levelo://app?vid=f8ed3009-6d31-4d12-af28-58d547d38689"},"vehicle_type_id":"4","last_reported":1743332912,"current_range_meters":6400,"station_id":"ce4bhi12rcd13ifvqfp0","pricing_plan_id":"cebpf4jnsgd1na2vs0mg"},{"bike_id":"24b5d4a6-7b35-4d55-aa91-99f5816f5b9d","system_id":"levelo_inurba_marseille","lat":43.31328,"lon":5.39707,"is_reserved":false,"is_disabled":false,"rental_uris":{"android":"levelo://app?vid=24b5d4a6-7b35-4d55-aa91-99f5816f5b9d","ios":"levelo://app?vid=24b5d4a6-7b35-4d55-aa91-99f5816f5b9d"},"vehicle_type_id":"4","last_reported":1743332912,"current_range_meters":6400,"station_id":"ce4bgvp2rcd13ifvqcu0","pricing_plan_id":"cebpf4jnsgd1na2vs0mg"},{"bike_id":"970d0fb3-ec32-4d9d-8099-816bed18a534","system_id":"levelo_inurba_marseille","lat":43.23933,"lon":5.36548,"is_reserved":false,"is_disabled":false,"rental_uris":{"android":"levelo://app?vid=970d0fb3-ec32-4d9d-8099-816bed18a534","ios":"levelo://app?vid=970d0fb3-ec32-4d9d-8099-816bed18a534"},"vehicle_type_id":"4","last_reported":1743332912,"current_range_meters":6800,"station_id":"ce4bhi12rcd13ifvqfp0","pricing_plan_id":"cebpf4jnsgd1na2vs0mg"},{"bike_id":"96fa1290-e699-40b9-9109-379d3b77c6fb","system_id":"levelo_inurba_marseille","lat":43.3373,"lon":5.39183,"is_reserved":false,"is_disabled":false,"rental_uris":{"android":"levelo://app?vid=96fa1290-e699-40b9-9109-379d3b77c6fb","ios":"levelo://app?vid=96fa1290-e699-40b9-9109-379d3b77c6fb"},"vehicle_type_id":"4","last_reported":1743332912,"current_range_meters":6800,"station_id":"ce4bhr92rcd13ifvqhsg","pricing_plan_id":"cebpf4jnsgd1na2vs0mg"},{"bike_id":"4b2323ae-94b8-41f7-9062-4d9bd4bd549e","system_id":"levelo_inurba_marseille","lat":43.24163,"lon":5.36399,"is_reserved":false,"is_disabled":false,"rental_uris":{"android":"levelo://app?vid=4b2323ae-94b8-41f7-9062-4d9bd4bd549e","ios":"levelo://app?vid=4b2323ae-94b8-41f7-9062-4d9bd4bd549e"},"vehicle_type_id":"4","last_reported":1743332912,"current_range_meters":6800,"station_id":"cpo36qri1sfpv3e86is0","pricing_plan_id":"cebpf4jnsgd1na2vs0mg"},{"bike_id":"8e7b885b-decb-4c1b-8a60-30ae10e8d0b2","system_id":"levelo_inurba_marseille","lat":43.286987,"lon":5.3998,"is_reserved":false,"is_disabled":false,"rental_uris":{"android":"levelo://app?vid=8e7b885b-decb-4c1b-8a60-30ae10e8d0b2","ios":"levelo://app?vid=8e7b885b-decb-4c1b-8a60-30ae10e8d0b2"},"vehicle_type_id":"4","last_reported":1743332912,"current_range_meters":6800,"station_id":"ce4bho92rcd13ifvqh3g","pricing_plan_id":"cebpf4jnsgd1na2vs0mg"},{"bike_id":"f4b580d0-8dae-4a43-b74c-19e016bb1f9e","system_id":"levelo_inurba_marseille","lat":43.26206,"lon":5.37925,"is_reserved":false,"is_disabled":false,"rental_uris":{"android":"levelo://app?vid=f4b580d0-8dae-4a43-b74c-19e016bb1f9e","ios":"levelo://app?vid=f4b580d0-8dae-4a43-b74c-19e016bb1f9e"},"vehicle_type_id":"4","last_reported":1743332912,"current_range_meters":6800,"station_id":"ce4bhjp2rcd13ifvqg90","pricing_plan_id":"cebpf4jnsgd1na2vs0mg"},{"bike_id":"4586e23a-2d77-446c-8e8c-a15b6ae5de02","system_id":"levelo_inurba_marseille","lat":43.28592,"lon":5.38119,"is_reserved":false,"is_disabled":false,"rental_uris":{"android":"levelo://app?vid=4586e23a-2d77-446c-8e8c-a15b6ae5de02","ios":"levelo://app?vid=4586e23a-2d77-446c-8e8c-a15b6ae5de02"},"vehicle_type_id":"4","last_reported":1743332912,"current_range_meters":6800,"station_id":"","pricing_plan_id":"cebpf4jnsgd1na2vs0mg"},{"bike_id":"1737ee47-dc4f-46d0-9e68-9b89d248bcf8","system_id":"levelo_inurba_marseille","lat":43.2439,"lon":5.37071,"is_reserved":false,"is_disabled":false,"rental_uris":{"android":"levelo://app?vid=1737ee47-dc4f-46d0-9e68-9b89d248bcf8","ios":"levelo://app?vid=1737ee47-dc4f-46d0-9e68-9b89d248bcf8"},"vehicle_type_id":"4","last_reported":1743332912,"current_range_meters":6800,"station_id":"ce4bhhh2rcd13ifvqfk0","pricing_plan_id":"cebpf4jnsgd1na2vs0mg"},{"bike_id":"1a8ec8fe-cd0f-44f4-9a76-dfc354a60ccc","system_id":"levelo_inurba_marseille","lat":43.23962,"lon":5.36631,"is_reserved":false,"is_disabled":false,"rental_uris":{"android":"levelo://app?vid=1a8ec8fe-cd0f-44f4-9a76-dfc354a60ccc","ios":"levelo://app?vid=1a8ec8fe-cd0f-44f4-9a76-dfc354a60ccc"},"vehicle_type_id":"4","last_reported":1743332912,"current_range_meters":6800,"station_id":"ce4bhi12rcd13ifvqfp0","pricing_plan_id":"cebpf4jnsgd1na2vs0mg"},{"bike_id":"9aa86a2e-60f5-473b-acb9-7a23a7b14417","system_id":"levelo_inurba_marseille","lat":43.29576,"lon":5.36726,"is_reserved":false,"is_disabled":true,"rental_uris":{"android":"levelo://app?vid=9aa86a2e-60f5-473b-acb9-7a23a7b14417","ios":"levelo://app?vid=9aa86a2e-60f5-473b-acb9-7a23a7b14417"},"vehicle_type_id":"4","last_reported":1743332912,"current_range_meters":6800,"station_id":"ce4bgph2rcd13ifvqc2g","pricing_plan_id":"cebpf4jnsgd1na2vs0mg"},{"bike_id":"a2891cc1-74ac-4bb3-ac89-3d4a61a76871","system_id":"levelo_inurba_marseille","lat":43.23956,"lon":5.36632,"is_reserved":false,"is_disabled":false,"rental_uris":{"android":"levelo://app?vid=a2891cc1-74ac-4bb3-ac89-3d4a61a76871","ios":"levelo://app?vid=a2891cc1-74ac-4bb3-ac89-3d4a61a76871"},"vehicle_type_id":"4","last_reported":1743332912,"current_range_meters":7200,"station_id":"ce4bhi12rcd13ifvqfp0","pricing_plan_id":"cebpf4jnsgd1na2vs0mg"},{"bike_id":"7cec2169-18e5-43fb-9d87-af464085062d","system_id":"levelo_inurba_marseille","lat":43.29897,"lon":5.43668,"is_reserved":false,"is_disabled":false,"rental_uris":{"android":"levelo://app?vid=7cec2169-18e5-43fb-9d87-af464085062d","ios":"levelo://app?vid=7cec2169-18e5-43fb-9d87-af464085062d"},"vehicle_type_id":"4","last_reported":1743332912,"current_range_meters":7200,"station_id":"ce4bhpp2rcd13ifvqhfg","pricing_plan_id":"cebpf4jnsgd1na2vs0mg"},{"bike_id":"8c0f6e3f-b370-4d64-ac55-96b0ff55a395","system_id":"levelo_inurba_marseille","lat":43.24393,"lon":5.37047,"is_reserved":false,"is_disabled":false,"rental_uris":{"android":"levelo://app?vid=8c0f6e3f-b370-4d64-ac55-96b0ff55a395","ios":"levelo://app?vid=8c0f6e3f-b370-4d64-ac55-96b0ff55a395"},"vehicle_type_id":"4","last_reported":1743332912,"current_range_meters":7200,"station_id":"ce4bhhh2rcd13ifvqfk0","pricing_plan_id":"cebpf4jnsgd1na2vs0mg"},{"bike_id":"2bfdbabe-dcfc-4df8-b12b-1e50e0eba604","system_id":"levelo_inurba_marseille","lat":43.34147,"lon":5.409,"is_reserved":false,"is_disabled":false,"rental_uris":{"android":"levelo://app?vid=2bfdbabe-dcfc-4df8-b12b-1e50e0eba604","ios":"levelo://app?vid=2bfdbabe-dcfc-4df8-b12b-1e50e0eba604"},"vehicle_type_id":"4","last_reported":1743332912,"current_range_meters":7200,"station_id":"ce4bhqh2rcd13ifvqhlg","pricing_plan_id":"cebpf4jnsgd1na2vs0mg"},{"bike_id":"5a3307a6-54ca-44bc-a5fd-ab80751e6464","system_id":"levelo_inurba_marseille","lat":43.23176,"lon":5.40004,"is_reserved":false,"is_disabled":true,"rental_uris":{"android":"levelo://app?vid=5a3307a6-54ca-44bc-a5fd-ab80751e6464","ios":"levelo://app?vid=5a3307a6-54ca-44bc-a5fd-ab80751e6464"},"vehicle_type_id":"4","last_reported":1743332912,"current_range_meters":7200,"station_id":"ce4bhn12rcd13ifvqgqg","pricing_plan_id":"cebpf4jnsgd1na2vs0mg"},{"bike_id":"20464f3a-7c6c-498e-b7f1-c33b5c7d0188","system_id":"levelo_inurba_marseille","lat":43.292755,"lon":5.368431,"is_reserved":false,"is_disabled":false,"rental_uris":{"android":"levelo://app?vid=20464f3a-7c6c-498e-b7f1-c33b5c7d0188","ios":"levelo://app?vid=20464f3a-7c6c-498e-b7f1-c33b5c7d0188"},"vehicle_type_id":"4","last_reported":1743332912,"current_range_meters":7200,"station_id":"ce4bhbp2rcd13ifvqesg","pricing_plan_id":"cebpf4jnsgd1na2vs0mg"},{"bike_id":"3b9e2dbb-dda4-4ed5-8aef-7e67e6437f0d","system_id":"levelo_inurba_marseille","lat":43.33347,"lon":5.40118,"is_reserved":false,"is_disabled":false,"rental_uris":{"android":"levelo://app?vid=3b9e2dbb-dda4-4ed5-8aef-7e67e6437f0d","ios":"levelo://app?vid=3b9e2dbb-dda4-4ed5-8aef-7e67e6437f0d"},"vehicle_type_id":"4","last_reported":1743332912,"current_range_meters":7200,"station_id":"","pricing_plan_id":"cebpf4jnsgd1na2vs0mg"},{"bike_id":"a54d3b82-2add-457c-b57f-e4063bd785d1","system_id":"levelo_inurba_marseille","lat":43.28267,"lon":5.35073,"is_reserved":false,"is_disabled":false,"rental_uris":{"android":"levelo://app?vid=a54d3b82-2add-457c-b57f-e4063bd785d1","ios":"levelo://app?vid=a54d3b82-2add-457c-b57f-e4063bd785d1"},"vehicle_type_id":"4","last_reported":1743332912,"current_range_meters":8000,"station_id":"ce4bhbp2rcd13ifvqerg","pricing_plan_id":"cebpf4jnsgd1na2vs0mg"},{"bike_id":"aa8e17c4-ebaa-4e69-a760-7941c85c01b1","system_id":"levelo_inurba_marseille","lat":43.27372,"lon":5.36259,"is_reserved":false,"is_disabled":false,"rental_uris":{"android":"levelo://app?vid=aa8e17c4-ebaa-4e69-a760-7941c85c01b1","ios":"levelo://app?vid=aa8e17c4-ebaa-4e69-a760-7941c85c01b1"},"vehicle_type_id":"4","last_reported":1743332912,"current_range_meters":8000,"station_id":"ce4bhbh2rcd13ifvqeo0","pricing_plan_id":"cebpf4jnsgd1na2vs0mg"},{"bike_id":"02d90919-559d-4630-a432-1f6893f6e8aa","system_id":"levelo_inurba_marseille","lat":43.31114,"lon":5.37786,"is_reserved":false,"is_disabled":false,"rental_uris":{"android":"levelo://app?vid=02d90919-559d-4630-a432-1f6893f6e8aa","ios":"levelo://app?vid=02d90919-559d-4630-a432-1f6893f6e8aa"},"vehicle_type_id":"4","last_reported":1743332912,"current_range_meters":8000,"station_id":"ce4bgt92rcd13ifvqcg0","pricing_plan_id":"cebpf4jnsgd1na2vs0mg"},{"bike_id":"b2e6e5f9-815c-46ac-bebd-de4e22a8e049","system_id":"levelo_inurba_marseille","lat":43.33189,"lon":5.39438,"is_reserved":false,"is_disabled":false,"rental_uris":{"android":"levelo://app?vid=b2e6e5f9-815c-46ac-bebd-de4e22a8e049","ios":"levelo://app?vid=b2e6e5f9-815c-46ac-bebd-de4e22a8e049"},"vehicle_type_id":"4","last_reported":1743332912,"current_range_meters":8000,"station_id":"","pricing_plan_id":"cebpf4jnsgd1na2vs0mg"},{"bike_id":"b98594d7-8128-4bc2-a9d4-f4c330986c65","system_id":"levelo_inurba_marseille","lat":43.23948,"lon":5.36643,"is_reserved":false,"is_disabled":false,"rental_uris":{"android":"levelo://app?vid=b98594d7-8128-4bc2-a9d4-f4c330986c65","ios":"levelo://app?vid=b98594d7-8128-4bc2-a9d4-f4c330986c65"},"vehicle_type_id":"4","last_reported":1743332912,"current_range_meters":8000,"station_id":"ce4bhi12rcd13ifvqfp0","pricing_plan_id":"cebpf4jnsgd1na2vs0mg"},{"bike_id":"d64e0c2f-2ac5-4968-a0a1-fd8cc98f85a5","system_id":"levelo_inurba_marseille","lat":43.28269,"lon":5.35076,"is_reserved":false,"is_disabled":false,"rental_uris":{"android":"levelo://app?vid=d64e0c2f-2ac5-4968-a0a1-fd8cc98f85a5","ios":"levelo://app?vid=d64e0c2f-2ac5-4968-a0a1-fd8cc98f85a5"},"vehicle_type_id":"4","last_reported":1743332912,"current_range_meters":8000,"station_id":"ce4bhbp2rcd13ifvqerg","pricing_plan_id":"cebpf4jnsgd1na2vs0mg"},{"bike_id":"b1c2411a-9480-40f8-b226-997cc4466589","system_id":"levelo_inurba_marseille","lat":43.31721,"lon":5.42393,"is_reserved":false,"is_disabled":false,"rental_uris":{"android":"levelo://app?vid=b1c2411a-9480-40f8-b226-997cc4466589","ios":"levelo://app?vid=b1c2411a-9480-40f8-b226-997cc4466589"},"vehicle_type_id":"4","last_reported":1743332912,"current_range_meters":7200,"station_id":"ce4bhp92rcd13ifvqhbg","pricing_plan_id":"cebpf4jnsgd1na2vs0mg"},{"bike_id":"678afc02-7887-4189-83e7-46e425f91ae8","system_id":"levelo_inurba_marseille","lat":43.23192,"lon":5.35553,"is_reserved":false,"is_disabled":false,"rental_uris":{"android":"levelo://app?vid=678afc02-7887-4189-83e7-46e425f91ae8","ios":"levelo://app?vid=678afc02-7887-4189-83e7-46e425f91ae8"},"vehicle_type_id":"4","last_reported":1743332912,"current_range_meters":8000,"station_id":"ce4bhu92rcd13ifvqi70","pricing_plan_id":"cebpf4jnsgd1na2vs0mg"},{"bike_id":"04b820d0-e1b8-4864-83b6-79f51c874ca0","system_id":"levelo_inurba_marseille","lat":43.24802,"lon":5.37457,"is_reserved":false,"is_disabled":false,"rental_uris":{"android":"levelo://app?vid=04b820d0-e1b8-4864-83b6-79f51c874ca0","ios":"levelo://app?vid=04b820d0-e1b8-4864-83b6-79f51c874ca0"},"vehicle_type_id":"4","last_reported":1743332912,"current_range_meters":7200,"station_id":"ce4bhgh2rcd13ifvqfb0","pricing_plan_id":"cebpf4jnsgd1na2vs0mg"},{"bike_id":"a1b5a514-f0ef-42eb-b1a4-22dd30a86324","system_id":"levelo_inurba_marseille","lat":43.31755,"lon":5.38979,"is_reserved":false,"is_disabled":false,"rental_uris":{"android":"levelo://app?vid=a1b5a514-f0ef-42eb-b1a4-22dd30a86324","ios":"levelo://app?vid=a1b5a514-f0ef-42eb-b1a4-22dd30a86324"},"vehicle_type_id":"4","last_reported":1743332912,"current_range_meters":8000,"station_id":"ce4bhqp2rcd13ifvqhng","pricing_plan_id":"cebpf4jnsgd1na2vs0mg"},{"bike_id":"538b3a79-976b-4e35-9dd8-ca459622bbb3","system_id":"levelo_inurba_marseille","lat":43.262143,"lon":5.37438,"is_reserved":false,"is_disabled":false,"rental_uris":{"android":"levelo://app?vid=538b3a79-976b-4e35-9dd8-ca459622bbb3","ios":"levelo://app?vid=538b3a79-976b-4e35-9dd8-ca459622bbb3"},"vehicle_type_id":"4","last_reported":1743332912,"current_range_meters":8400,"station_id":"","pricing_plan_id":"cebpf4jnsgd1na2vs0mg"},{"bike_id":"d0ed36b4-3c5a-4da6-8fb4-955c321dd03a","system_id":"levelo_inurba_marseille","lat":43.27555,"lon":5.41002,"is_reserved":false,"is_disabled":false,"rental_uris":{"android":"levelo://app?vid=d0ed36b4-3c5a-4da6-8fb4-955c321dd03a","ios":"levelo://app?vid=d0ed36b4-3c5a-4da6-8fb4-955c321dd03a"},"vehicle_type_id":"4","last_reported":1743332912,"current_range_meters":8400,"station_id":"","pricing_plan_id":"cebpf4jnsgd1na2vs0mg"},{"bike_id":"49b5a4d5-2ce4-499c-95d5-119862a0acca","system_id":"levelo_inurba_marseille","lat":43.309,"lon":5.39631,"is_reserved":false,"is_disabled":false,"rental_uris":{"android":"levelo://app?vid=49b5a4d5-2ce4-499c-95d5-119862a0acca","ios":"levelo://app?vid=49b5a4d5-2ce4-499c-95d5-119862a0acca"},"vehicle_type_id":"4","last_reported":1743332912,"current_range_meters":8400,"station_id":"ce4bh012rcd13ifvqcv0","pricing_plan_id":"cebpf4jnsgd1na2vs0mg"},{"bike_id":"004ed55f-f985-4268-b523-9ed16ba4ea3b","system_id":"levelo_inurba_marseille","lat":43.29246,"lon":5.36851,"is_reserved":false,"is_disabled":true,"rental_uris":{"android":"levelo://app?vid=004ed55f-f985-4268-b523-9ed16ba4ea3b","ios":"levelo://app?vid=004ed55f-f985-4268-b523-9ed16ba4ea3b"},"vehicle_type_id":"4","last_reported":1743332912,"current_range_meters":8400,"station_id":"ce4bhbp2rcd13ifvqesg","pricing_plan_id":"cebpf4jnsgd1na2vs0mg"},{"bike_id":"92bfecbf-789d-4c73-ae76-0e5a1e2a6e8a","system_id":"levelo_inurba_marseille","lat":43.25578,"lon":5.38228,"is_reserved":false,"is_disabled":false,"rental_uris":{"android":"levelo://app?vid=92bfecbf-789d-4c73-ae76-0e5a1e2a6e8a","ios":"levelo://app?vid=92bfecbf-789d-4c73-ae76-0e5a1e2a6e8a"},"vehicle_type_id":"4","last_reported":1743332912,"current_range_meters":8400,"station_id":"ce4bhih2rcd13ifvqfs0","pricing_plan_id":"cebpf4jnsgd1na2vs0mg"},{"bike_id":"96ac20e8-5840-4579-b371-184ec6253952","system_id":"levelo_inurba_marseille","lat":43.27495,"lon":5.411445,"is_reserved":false,"is_disabled":false,"rental_uris":{"android":"levelo://app?vid=96ac20e8-5840-4579-b371-184ec6253952","ios":"levelo://app?vid=96ac20e8-5840-4579-b371-184ec6253952"},"vehicle_type_id":"4","last_reported":1743332912,"current_range_meters":8400,"station_id":"","pricing_plan_id":"cebpf4jnsgd1na2vs0mg"},{"bike_id":"747d2bc2-6706-42d9-8381-8fcc8fac62bd","system_id":"levelo_inurba_marseille","lat":43.28675,"lon":5.36979,"is_reserved":false,"is_disabled":true,"rental_uris":{"android":"levelo://app?vid=747d2bc2-6706-42d9-8381-8fcc8fac62bd","ios":"levelo://app?vid=747d2bc2-6706-42d9-8381-8fcc8fac62bd"},"vehicle_type_id":"4","last_reported":1743332912,"current_range_meters":8400,"station_id":"","pricing_plan_id":"cebpf4jnsgd1na2vs0mg"},{"bike_id":"ead84735-1991-4501-b506-2229ced7058a","system_id":"levelo_inurba_marseille","lat":43.23064,"lon":5.35473,"is_reserved":false,"is_disabled":false,"rental_uris":{"android":"levelo://app?vid=ead84735-1991-4501-b506-2229ced7058a","ios":"levelo://app?vid=ead84735-1991-4501-b506-2229ced7058a"},"vehicle_type_id":"4","last_reported":1743332912,"current_range_meters":8400,"station_id":"cpo3342slgdg3j2ifvpg","pricing_plan_id":"cebpf4jnsgd1na2vs0mg"},{"bike_id":"284a1f4d-bf0a-45fc-b4a6-34676ba11dbe","system_id":"levelo_inurba_marseille","lat":43.2417,"lon":5.364,"is_reserved":false,"is_disabled":false,"rental_uris":{"android":"levelo://app?vid=284a1f4d-bf0a-45fc-b4a6-34676ba11dbe","ios":"levelo://app?vid=284a1f4d-bf0a-45fc-b4a6-34676ba11dbe"},"vehicle_type_id":"4","last_reported":1743332912,"current_range_meters":8400,"station_id":"cpo36qri1sfpv3e86is0","pricing_plan_id":"cebpf4jnsgd1na2vs0mg"},{"bike_id":"37f41d5f-3983-4db2-8781-c345307ed7b9","system_id":"levelo_inurba_marseille","lat":43.27501,"lon":5.42444,"is_reserved":false,"is_disabled":false,"rental_uris":{"android":"levelo://app?vid=37f41d5f-3983-4db2-8781-c345307ed7b9","ios":"levelo://app?vid=37f41d5f-3983-4db2-8781-c345307ed7b9"},"vehicle_type_id":"4","last_reported":1743332912,"current_range_meters":8400,"station_id":"ce4bhn92rcd13ifvqgrg","pricing_plan_id":"cebpf4jnsgd1na2vs0mg"},{"bike_id":"2014ec2d-3dbd-40d7-818b-e9e4b74a24e2","system_id":"levelo_inurba_marseille","lat":43.31324,"lon":5.39725,"is_reserved":false,"is_disabled":false,"rental_uris":{"android":"levelo://app?vid=2014ec2d-3dbd-40d7-818b-e9e4b74a24e2","ios":"levelo://app?vid=2014ec2d-3dbd-40d7-818b-e9e4b74a24e2"},"vehicle_type_id":"4","last_reported":1743332912,"current_range_meters":8400,"station_id":"ce4bgvp2rcd13ifvqcu0","pricing_plan_id":"cebpf4jnsgd1na2vs0mg"},{"bike_id":"8e69e7f9-76b5-4d0a-8b34-45d50fc637f3","system_id":"levelo_inurba_marseille","lat":43.24203,"lon":5.38441,"is_reserved":false,"is_disabled":false,"rental_uris":{"android":"levelo://app?vid=8e69e7f9-76b5-4d0a-8b34-45d50fc637f3","ios":"levelo://app?vid=8e69e7f9-76b5-4d0a-8b34-45d50fc637f3"},"vehicle_type_id":"4","last_reported":1743332912,"current_range_meters":8400,"station_id":"","pricing_plan_id":"cebpf4jnsgd1na2vs0mg"},{"bike_id":"25bb5fbc-8229-4010-b703-31f5ee6ac141","system_id":"levelo_inurba_marseille","lat":43.30645,"lon":5.3655,"is_reserved":false,"is_disabled":false,"rental_uris":{"android":"levelo://app?vid=25bb5fbc-8229-4010-b703-31f5ee6ac141","ios":"levelo://app?vid=25bb5fbc-8229-4010-b703-31f5ee6ac141"},"vehicle_type_id":"4","last_reported":1743332912,"current_range_meters":9200,"station_id":"","pricing_plan_id":"cebpf4jnsgd1na2vs0mg"},{"bike_id":"1f51a83a-c1ff-4486-982b-9600b9fd6fdb","system_id":"levelo_inurba_marseille","lat":43.22935,"lon":5.35367,"is_reserved":false,"is_disabled":false,"rental_uris":{"android":"levelo://app?vid=1f51a83a-c1ff-4486-982b-9600b9fd6fdb","ios":"levelo://app?vid=1f51a83a-c1ff-4486-982b-9600b9fd6fdb"},"vehicle_type_id":"4","last_reported":1743332912,"current_range_meters":8800,"station_id":"cpo3532slgdg3j2ikp40","pricing_plan_id":"cebpf4jnsgd1na2vs0mg"},{"bike_id":"1adfec18-edad-4215-845d-68da8da924b9","system_id":"levelo_inurba_marseille","lat":43.23193,"lon":5.355532,"is_reserved":false,"is_disabled":false,"rental_uris":{"android":"levelo://app?vid=1adfec18-edad-4215-845d-68da8da924b9","ios":"levelo://app?vid=1adfec18-edad-4215-845d-68da8da924b9"},"vehicle_type_id":"4","last_reported":1743332912,"current_range_meters":8800,"station_id":"ce4bhu92rcd13ifvqi70","pricing_plan_id":"cebpf4jnsgd1na2vs0mg"},{"bike_id":"488767ae-a52a-41d7-8f9a-e947164469f3","system_id":"levelo_inurba_marseille","lat":43.31624,"lon":5.41652,"is_reserved":false,"is_disabled":true,"rental_uris":{"android":"levelo://app?vid=488767ae-a52a-41d7-8f9a-e947164469f3","ios":"levelo://app?vid=488767ae-a52a-41d7-8f9a-e947164469f3"},"vehicle_type_id":"4","last_reported":1743332912,"current_range_meters":8800,"station_id":"","pricing_plan_id":"cebpf4jnsgd1na2vs0mg"},{"bike_id":"4e975ee4-68fd-4c83-8a0f-b5e47a060645","system_id":"levelo_inurba_marseille","lat":43.262083,"lon":5.37473,"is_reserved":false,"is_disabled":false,"rental_uris":{"android":"levelo://app?vid=4e975ee4-68fd-4c83-8a0f-b5e47a060645","ios":"levelo://app?vid=4e975ee4-68fd-4c83-8a0f-b5e47a060645"},"vehicle_type_id":"4","last_reported":1743332912,"current_range_meters":8800,"station_id":"ce4bhgp2rcd13ifvqfc0","pricing_plan_id":"cebpf4jnsgd1na2vs0mg"},{"bike_id":"39baf016-c34f-4e87-9650-9ce95f117093","system_id":"levelo_inurba_marseille","lat":43.25025,"lon":5.38971,"is_reserved":false,"is_disabled":false,"rental_uris":{"android":"levelo://app?vid=39baf016-c34f-4e87-9650-9ce95f117093","ios":"levelo://app?vid=39baf016-c34f-4e87-9650-9ce95f117093"},"vehicle_type_id":"4","last_reported":1743332912,"current_range_meters":8800,"station_id":"ce4bhgp2rcd13ifvqfd0","pricing_plan_id":"cebpf4jnsgd1na2vs0mg"},{"bike_id":"f64bad08-8d41-40bc-8339-5d323ede0188","system_id":"levelo_inurba_marseille","lat":43.29211,"lon":5.36068,"is_reserved":false,"is_disabled":false,"rental_uris":{"android":"levelo://app?vid=f64bad08-8d41-40bc-8339-5d323ede0188","ios":"levelo://app?vid=f64bad08-8d41-40bc-8339-5d323ede0188"},"vehicle_type_id":"4","last_reported":1743332912,"current_range_meters":8800,"station_id":"ce4bhbh2rcd13ifvqeqg","pricing_plan_id":"cebpf4jnsgd1na2vs0mg"},{"bike_id":"fd5a39dd-96b5-442c-99c4-5577adc0b24b","system_id":"levelo_inurba_marseille","lat":43.231854,"lon":5.399864,"is_reserved":false,"is_disabled":false,"rental_uris":{"android":"levelo://app?vid=fd5a39dd-96b5-442c-99c4-5577adc0b24b","ios":"levelo://app?vid=fd5a39dd-96b5-442c-99c4-5577adc0b24b"},"vehicle_type_id":"4","last_reported":1743332912,"current_range_meters":8800,"station_id":"ce4bhn12rcd13ifvqgqg","pricing_plan_id":"cebpf4jnsgd1na2vs0mg"},{"bike_id":"baea59b0-41d5-4dfd-b867-59b3522dffec","system_id":"levelo_inurba_marseille","lat":43.25814,"lon":5.39422,"is_reserved":false,"is_disabled":false,"rental_uris":{"android":"levelo://app?vid=baea59b0-41d5-4dfd-b867-59b3522dffec","ios":"levelo://app?vid=baea59b0-41d5-4dfd-b867-59b3522dffec"},"vehicle_type_id":"4","last_reported":1743332912,"current_range_meters":8800,"station_id":"ce4bhip2rcd13ifvqft0","pricing_plan_id":"cebpf4jnsgd1na2vs0mg"},{"bike_id":"985e04e2-0080-460b-ba49-8db7cf3effda","system_id":"levelo_inurba_marseille","lat":43.24158,"lon":5.36413,"is_reserved":false,"is_disabled":false,"rental_uris":{"android":"levelo://app?vid=985e04e2-0080-460b-ba49-8db7cf3effda","ios":"levelo://app?vid=985e04e2-0080-460b-ba49-8db7cf3effda"},"vehicle_type_id":"4","last_reported":1743332912,"current_range_meters":8800,"station_id":"cpo36qri1sfpv3e86is0","pricing_plan_id":"cebpf4jnsgd1na2vs0mg"},{"bike_id":"83b8c1f6-8a10-4fde-9b47-bd0076283ade","system_id":"levelo_inurba_marseille","lat":43.26546,"lon":5.37355,"is_reserved":false,"is_disabled":false,"rental_uris":{"android":"levelo://app?vid=83b8c1f6-8a10-4fde-9b47-bd0076283ade","ios":"levelo://app?vid=83b8c1f6-8a10-4fde-9b47-bd0076283ade"},"vehicle_type_id":"4","last_reported":1743332912,"current_range_meters":8800,"station_id":"ce4bhg12rcd13ifvqf70","pricing_plan_id":"cebpf4jnsgd1na2vs0mg"},{"bike_id":"71f61918-7aa1-402e-862c-f8bf980c8a1d","system_id":"levelo_inurba_marseille","lat":43.28007,"lon":5.40015,"is_reserved":false,"is_disabled":false,"rental_uris":{"android":"levelo://app?vid=71f61918-7aa1-402e-862c-f8bf980c8a1d","ios":"levelo://app?vid=71f61918-7aa1-402e-862c-f8bf980c8a1d"},"vehicle_type_id":"4","last_reported":1743332912,"current_range_meters":8800,"station_id":"ce4bho92rcd13ifvqh4g","pricing_plan_id":"cebpf4jnsgd1na2vs0mg"},{"bike_id":"d74005a9-0b50-4e4f-8439-9c8b5332da24","system_id":"levelo_inurba_marseille","lat":43.22947,"lon":5.35376,"is_reserved":false,"is_disabled":false,"rental_uris":{"android":"levelo://app?vid=d74005a9-0b50-4e4f-8439-9c8b5332da24","ios":"levelo://app?vid=d74005a9-0b50-4e4f-8439-9c8b5332da24"},"vehicle_type_id":"4","last_reported":1743332912,"current_range_meters":9200,"station_id":"cpo3532slgdg3j2ikp40","pricing_plan_id":"cebpf4jnsgd1na2vs0mg"},{"bike_id":"42bc7b23-0e2f-4d72-b583-40bcdabb28c7","system_id":"levelo_inurba_marseille","lat":43.29543,"lon":5.3738,"is_reserved":false,"is_disabled":false,"rental_uris":{"android":"levelo://app?vid=42bc7b23-0e2f-4d72-b583-40bcdabb28c7","ios":"levelo://app?vid=42bc7b23-0e2f-4d72-b583-40bcdabb28c7"},"vehicle_type_id":"4","last_reported":1743332912,"current_range_meters":9200,"station_id":"","pricing_plan_id":"cebpf4jnsgd1na2vs0mg"},{"bike_id":"c22c38ac-cdc7-4323-bc60-ffc2c0247aa6","system_id":"levelo_inurba_marseille","lat":43.31341,"lon":5.39712,"is_reserved":false,"is_disabled":false,"rental_uris":{"android":"levelo://app?vid=c22c38ac-cdc7-4323-bc60-ffc2c0247aa6","ios":"levelo://app?vid=c22c38ac-cdc7-4323-bc60-ffc2c0247aa6"},"vehicle_type_id":"4","last_reported":1743332912,"current_range_meters":9200,"station_id":"ce4bgvp2rcd13ifvqcu0","pricing_plan_id":"cebpf4jnsgd1na2vs0mg"},{"bike_id":"99864047-3ac3-45c4-a913-53ee9cea7446","system_id":"levelo_inurba_marseille","lat":43.28698,"lon":5.37396,"is_reserved":false,"is_disabled":true,"rental_uris":{"android":"levelo://app?vid=99864047-3ac3-45c4-a913-53ee9cea7446","ios":"levelo://app?vid=99864047-3ac3-45c4-a913-53ee9cea7446"},"vehicle_type_id":"4","last_reported":1743332912,"current_range_meters":9200,"station_id":"ce4bh3p2rcd13ifvqdq0","pricing_plan_id":"cebpf4jnsgd1na2vs0mg"},{"bike_id":"076ba156-4462-4808-8c1c-e75845d65149","system_id":"levelo_inurba_marseille","lat":43.24185,"lon":5.39728,"is_reserved":false,"is_disabled":false,"rental_uris":{"android":"levelo://app?vid=076ba156-4462-4808-8c1c-e75845d65149","ios":"levelo://app?vid=076ba156-4462-4808-8c1c-e75845d65149"},"vehicle_type_id":"4","last_reported":1743332912,"current_range_meters":9200,"station_id":"ce4bhn12rcd13ifvqgpg","pricing_plan_id":"cebpf4jnsgd1na2vs0mg"},{"bike_id":"4326a070-3af3-493c-87d2-61ca6001d290","system_id":"levelo_inurba_marseille","lat":43.26273,"lon":5.37426,"is_reserved":false,"is_disabled":false,"rental_uris":{"android":"levelo://app?vid=4326a070-3af3-493c-87d2-61ca6001d290","ios":"levelo://app?vid=4326a070-3af3-493c-87d2-61ca6001d290"},"vehicle_type_id":"4","last_reported":1743332912,"current_range_meters":9200,"station_id":"","pricing_plan_id":"cebpf4jnsgd1na2vs0mg"},{"bike_id":"4576df33-62a6-4a82-9ad2-6633066a7f89","system_id":"levelo_inurba_marseille","lat":43.30801,"lon":5.38166,"is_reserved":false,"is_disabled":false,"rental_uris":{"android":"levelo://app?vid=4576df33-62a6-4a82-9ad2-6633066a7f89","ios":"levelo://app?vid=4576df33-62a6-4a82-9ad2-6633066a7f89"},"vehicle_type_id":"4","last_reported":1743332912,"current_range_meters":9200,"station_id":"ce4bgt12rcd13ifvqce0","pricing_plan_id":"cebpf4jnsgd1na2vs0mg"},{"bike_id":"5d68889e-5f86-414a-84b0-66ecfedd7ec1","system_id":"levelo_inurba_marseille","lat":43.292263,"lon":5.3605,"is_reserved":false,"is_disabled":false,"rental_uris":{"android":"levelo://app?vid=5d68889e-5f86-414a-84b0-66ecfedd7ec1","ios":"levelo://app?vid=5d68889e-5f86-414a-84b0-66ecfedd7ec1"},"vehicle_type_id":"4","last_reported":1743332912,"current_range_meters":9600,"station_id":"","pricing_plan_id":"cebpf4jnsgd1na2vs0mg"},{"bike_id":"95ae2f73-d331-46bf-b1b1-e69e98400250","system_id":"levelo_inurba_marseille","lat":43.23062,"lon":5.35486,"is_reserved":false,"is_disabled":false,"rental_uris":{"android":"levelo://app?vid=95ae2f73-d331-46bf-b1b1-e69e98400250","ios":"levelo://app?vid=95ae2f73-d331-46bf-b1b1-e69e98400250"},"vehicle_type_id":"4","last_reported":1743332912,"current_range_meters":9600,"station_id":"cpo3342slgdg3j2ifvpg","pricing_plan_id":"cebpf4jnsgd1na2vs0mg"},{"bike_id":"76d4ed16-8625-4a14-a5f1-d28ac2574c13","system_id":"levelo_inurba_marseille","lat":43.24549,"lon":5.39536,"is_reserved":false,"is_disabled":false,"rental_uris":{"android":"levelo://app?vid=76d4ed16-8625-4a14-a5f1-d28ac2574c13","ios":"levelo://app?vid=76d4ed16-8625-4a14-a5f1-d28ac2574c13"},"vehicle_type_id":"4","last_reported":1743332912,"current_range_meters":9600,"station_id":"ce4bhlp2rcd13ifvqgjg","pricing_plan_id":"cebpf4jnsgd1na2vs0mg"},{"bike_id":"71fc87ab-52b5-42a6-8a58-86368cf79076","system_id":"levelo_inurba_marseille","lat":43.27375,"lon":5.3625,"is_reserved":false,"is_disabled":false,"rental_uris":{"android":"levelo://app?vid=71fc87ab-52b5-42a6-8a58-86368cf79076","ios":"levelo://app?vid=71fc87ab-52b5-42a6-8a58-86368cf79076"},"vehicle_type_id":"4","last_reported":1743332912,"current_range_meters":9600,"station_id":"ce4bhbh2rcd13ifvqeo0","pricing_plan_id":"cebpf4jnsgd1na2vs0mg"},{"bike_id":"915f875a-1d86-4319-b636-2c4274059607","system_id":"levelo_inurba_marseille","lat":43.241652,"lon":5.363918,"is_reserved":false,"is_disabled":false,"rental_uris":{"android":"levelo://app?vid=915f875a-1d86-4319-b636-2c4274059607","ios":"levelo://app?vid=915f875a-1d86-4319-b636-2c4274059607"},"vehicle_type_id":"4","last_reported":1743332912,"current_range_meters":9600,"station_id":"ce4bhb92rcd13ifvqen0","pricing_plan_id":"cebpf4jnsgd1na2vs0mg"},{"bike_id":"20ba651d-a41c-4edc-96b4-074ae7201a08","system_id":"levelo_inurba_marseille","lat":43.30792,"lon":5.38161,"is_reserved":false,"is_disabled":false,"rental_uris":{"android":"levelo://app?vid=20ba651d-a41c-4edc-96b4-074ae7201a08","ios":"levelo://app?vid=20ba651d-a41c-4edc-96b4-074ae7201a08"},"vehicle_type_id":"4","last_reported":1743332912,"current_range_meters":9200,"station_id":"ce4bgt12rcd13ifvqce0","pricing_plan_id":"cebpf4jnsgd1na2vs0mg"},{"bike_id":"3fe8f393-7a01-4749-b56d-ced663f246a5","system_id":"levelo_inurba_marseille","lat":43.23958,"lon":5.366274,"is_reserved":false,"is_disabled":false,"rental_uris":{"android":"levelo://app?vid=3fe8f393-7a01-4749-b56d-ced663f246a5","ios":"levelo://app?vid=3fe8f393-7a01-4749-b56d-ced663f246a5"},"vehicle_type_id":"4","last_reported":1743332912,"current_range_meters":9600,"station_id":"ce4bhi12rcd13ifvqfp0","pricing_plan_id":"cebpf4jnsgd1na2vs0mg"},{"bike_id":"4db2abe8-ddc9-429c-adec-3c515a3e8b3c","system_id":"levelo_inurba_marseille","lat":43.24057,"lon":5.37742,"is_reserved":false,"is_disabled":false,"rental_uris":{"android":"levelo://app?vid=4db2abe8-ddc9-429c-adec-3c515a3e8b3c","ios":"levelo://app?vid=4db2abe8-ddc9-429c-adec-3c515a3e8b3c"},"vehicle_type_id":"4","last_reported":1743332912,"current_range_meters":9600,"station_id":"ce4bhnp2rcd13ifvqgvg","pricing_plan_id":"cebpf4jnsgd1na2vs0mg"},{"bike_id":"fb5a3640-c2bd-4d5a-a532-631ac7449c3d","system_id":"levelo_inurba_marseille","lat":43.28024,"lon":5.40917,"is_reserved":false,"is_disabled":false,"rental_uris":{"android":"levelo://app?vid=fb5a3640-c2bd-4d5a-a532-631ac7449c3d","ios":"levelo://app?vid=fb5a3640-c2bd-4d5a-a532-631ac7449c3d"},"vehicle_type_id":"4","last_reported":1743332912,"current_range_meters":9600,"station_id":"","pricing_plan_id":"cebpf4jnsgd1na2vs0mg"},{"bike_id":"5ef028cc-c915-455e-81c5-85331c93a604","system_id":"levelo_inurba_marseille","lat":43.26191,"lon":5.3745,"is_reserved":false,"is_disabled":false,"rental_uris":{"android":"levelo://app?vid=5ef028cc-c915-455e-81c5-85331c93a604","ios":"levelo://app?vid=5ef028cc-c915-455e-81c5-85331c93a604"},"vehicle_type_id":"4","last_reported":1743332912,"current_range_meters":9600,"station_id":"ce4bhgp2rcd13ifvqfc0","pricing_plan_id":"cebpf4jnsgd1na2vs0mg"},{"bike_id":"653ea6de-a177-4007-9cfa-5f3f77e975f6","system_id":"levelo_inurba_marseille","lat":43.2481,"lon":5.37435,"is_reserved":false,"is_disabled":false,"rental_uris":{"android":"levelo://app?vid=653ea6de-a177-4007-9cfa-5f3f77e975f6","ios":"levelo://app?vid=653ea6de-a177-4007-9cfa-5f3f77e975f6"},"vehicle_type_id":"4","last_reported":1743332912,"current_range_meters":9600,"station_id":"ce4bhgh2rcd13ifvqfb0","pricing_plan_id":"cebpf4jnsgd1na2vs0mg"},{"bike_id":"82e1f4e2-e052-4ffe-8e17-64d26a428b93","system_id":"levelo_inurba_marseille","lat":43.31317,"lon":5.39695,"is_reserved":false,"is_disabled":false,"rental_uris":{"android":"levelo://app?vid=82e1f4e2-e052-4ffe-8e17-64d26a428b93","ios":"levelo://app?vid=82e1f4e2-e052-4ffe-8e17-64d26a428b93"},"vehicle_type_id":"4","last_reported":1743332912,"current_range_meters":9600,"station_id":"ce4bgvp2rcd13ifvqcu0","pricing_plan_id":"cebpf4jnsgd1na2vs0mg"},{"bike_id":"21b7dfed-4bf3-42a6-9071-9b2b5259da3c","system_id":"levelo_inurba_marseille","lat":43.2961,"lon":5.3716,"is_reserved":false,"is_disabled":true,"rental_uris":{"android":"levelo://app?vid=21b7dfed-4bf3-42a6-9071-9b2b5259da3c","ios":"levelo://app?vid=21b7dfed-4bf3-42a6-9071-9b2b5259da3c"},"vehicle_type_id":"4","last_reported":1743332912,"current_range_meters":9600,"station_id":"ce4bgnh2rcd13ifvqc0g","pricing_plan_id":"cebpf4jnsgd1na2vs0mg"},{"bike_id":"d09fcea4-8e7f-4c95-a4cd-507616f3a687","system_id":"levelo_inurba_marseille","lat":43.27375,"lon":5.36259,"is_reserved":false,"is_disabled":false,"rental_uris":{"android":"levelo://app?vid=d09fcea4-8e7f-4c95-a4cd-507616f3a687","ios":"levelo://app?vid=d09fcea4-8e7f-4c95-a4cd-507616f3a687"},"vehicle_type_id":"4","last_reported":1743332912,"current_range_meters":10000,"station_id":"ce4bhbh2rcd13ifvqeo0","pricing_plan_id":"cebpf4jnsgd1na2vs0mg"},{"bike_id":"14c490b6-844b-4566-b5ce-4a1eef9a0745","system_id":"levelo_inurba_marseille","lat":43.27834,"lon":5.40694,"is_reserved":false,"is_disabled":false,"rental_uris":{"android":"levelo://app?vid=14c490b6-844b-4566-b5ce-4a1eef9a0745","ios":"levelo://app?vid=14c490b6-844b-4566-b5ce-4a1eef9a0745"},"vehicle_type_id":"4","last_reported":1743332912,"current_range_meters":10000,"station_id":"ce4bhnh2rcd13ifvqgtg","pricing_plan_id":"cebpf4jnsgd1na2vs0mg"},{"bike_id":"34e4a1a0-076a-4a4e-98d8-66500a713747","system_id":"levelo_inurba_marseille","lat":43.30639,"lon":5.401,"is_reserved":false,"is_disabled":false,"rental_uris":{"android":"levelo://app?vid=34e4a1a0-076a-4a4e-98d8-66500a713747","ios":"levelo://app?vid=34e4a1a0-076a-4a4e-98d8-66500a713747"},"vehicle_type_id":"4","last_reported":1743332912,"current_range_meters":10000,"station_id":"ce4bh112rcd13ifvqda0","pricing_plan_id":"cebpf4jnsgd1na2vs0mg"},{"bike_id":"f55695a6-b65f-4a30-99ab-94b2bfa63268","system_id":"levelo_inurba_marseille","lat":43.23195,"lon":5.35542,"is_reserved":false,"is_disabled":false,"rental_uris":{"android":"levelo://app?vid=f55695a6-b65f-4a30-99ab-94b2bfa63268","ios":"levelo://app?vid=f55695a6-b65f-4a30-99ab-94b2bfa63268"},"vehicle_type_id":"4","last_reported":1743332912,"current_range_meters":10000,"station_id":"ce4bhu92rcd13ifvqi70","pricing_plan_id":"cebpf4jnsgd1na2vs0mg"},{"bike_id":"ddbfb594-94fd-4b03-b776-b612bade417d","system_id":"levelo_inurba_marseille","lat":43.28266,"lon":5.35064,"is_reserved":false,"is_disabled":false,"rental_uris":{"android":"levelo://app?vid=ddbfb594-94fd-4b03-b776-b612bade417d","ios":"levelo://app?vid=ddbfb594-94fd-4b03-b776-b612bade417d"},"vehicle_type_id":"4","last_reported":1743332912,"current_range_meters":10000,"station_id":"ce4bhbp2rcd13ifvqerg","pricing_plan_id":"cebpf4jnsgd1na2vs0mg"},{"bike_id":"5347da3b-4766-4b5f-860e-e5fcb38f3a05","system_id":"levelo_inurba_marseille","lat":43.31354,"lon":5.38486,"is_reserved":false,"is_disabled":true,"rental_uris":{"android":"levelo://app?vid=5347da3b-4766-4b5f-860e-e5fcb38f3a05","ios":"levelo://app?vid=5347da3b-4766-4b5f-860e-e5fcb38f3a05"},"vehicle_type_id":"4","last_reported":1743332912,"current_range_meters":10000,"station_id":"ce4bgt92rcd13ifvqcf0","pricing_plan_id":"cebpf4jnsgd1na2vs0mg"},{"bike_id":"fcef8a59-62fa-41c3-baa3-043442973134","system_id":"levelo_inurba_marseille","lat":43.2315,"lon":5.43721,"is_reserved":false,"is_disabled":false,"rental_uris":{"android":"levelo://app?vid=fcef8a59-62fa-41c3-baa3-043442973134","ios":"levelo://app?vid=fcef8a59-62fa-41c3-baa3-043442973134"},"vehicle_type_id":"4","last_reported":1743332912,"current_range_meters":9600,"station_id":"ce4bhmp2rcd13ifvqgog","pricing_plan_id":"cebpf4jnsgd1na2vs0mg"},{"bike_id":"61b93b3e-de2c-498f-9067-20d081913f50","system_id":"levelo_inurba_marseille","lat":43.29194,"lon":5.3578,"is_reserved":false,"is_disabled":false,"rental_uris":{"android":"levelo://app?vid=61b93b3e-de2c-498f-9067-20d081913f50","ios":"levelo://app?vid=61b93b3e-de2c-498f-9067-20d081913f50"},"vehicle_type_id":"4","last_reported":1743332912,"current_range_meters":10000,"station_id":"ce4bhb12rcd13ifvqel0","pricing_plan_id":"cebpf4jnsgd1na2vs0mg"},{"bike_id":"e988637b-9811-4354-9e92-06be4ba4fd1f","system_id":"levelo_inurba_marseille","lat":43.29298,"lon":5.37447,"is_reserved":false,"is_disabled":false,"rental_uris":{"android":"levelo://app?vid=e988637b-9811-4354-9e92-06be4ba4fd1f","ios":"levelo://app?vid=e988637b-9811-4354-9e92-06be4ba4fd1f"},"vehicle_type_id":"4","last_reported":1743332912,"current_range_meters":10000,"station_id":"ce4bgi12rcd13ifvqb70","pricing_plan_id":"cebpf4jnsgd1na2vs0mg"},{"bike_id":"89cb64a2-9d53-4676-b875-b76ae5cfa600","system_id":"levelo_inurba_marseille","lat":43.29292,"lon":5.37452,"is_reserved":false,"is_disabled":false,"rental_uris":{"android":"levelo://app?vid=89cb64a2-9d53-4676-b875-b76ae5cfa600","ios":"levelo://app?vid=89cb64a2-9d53-4676-b875-b76ae5cfa600"},"vehicle_type_id":"4","last_reported":1743332912,"current_range_meters":10800,"station_id":"ce4bgi12rcd13ifvqb70","pricing_plan_id":"cebpf4jnsgd1na2vs0mg"},{"bike_id":"6ef18dd7-1cb9-4ef6-bfdd-052cde57f183","system_id":"levelo_inurba_marseille","lat":43.32098,"lon":5.36792,"is_reserved":false,"is_disabled":false,"rental_uris":{"android":"levelo://app?vid=6ef18dd7-1cb9-4ef6-bfdd-052cde57f183","ios":"levelo://app?vid=6ef18dd7-1cb9-4ef6-bfdd-052cde57f183"},"vehicle_type_id":"4","last_reported":1743332912,"current_range_meters":10800,"station_id":"ce4bhrh2rcd13ifvqhug","pricing_plan_id":"cebpf4jnsgd1na2vs0mg"},{"bike_id":"2c1e71e5-c946-4802-a82f-11f3b8cd9908","system_id":"levelo_inurba_marseille","lat":43.30895,"lon":5.3964,"is_reserved":false,"is_disabled":false,"rental_uris":{"android":"levelo://app?vid=2c1e71e5-c946-4802-a82f-11f3b8cd9908","ios":"levelo://app?vid=2c1e71e5-c946-4802-a82f-11f3b8cd9908"},"vehicle_type_id":"4","last_reported":1743332912,"current_range_meters":10800,"station_id":"ce4bh012rcd13ifvqcv0","pricing_plan_id":"cebpf4jnsgd1na2vs0mg"},{"bike_id":"8bcc045e-f28b-442a-a0af-38457b26197c","system_id":"levelo_inurba_marseille","lat":43.24165,"lon":5.36406,"is_reserved":false,"is_disabled":false,"rental_uris":{"android":"levelo://app?vid=8bcc045e-f28b-442a-a0af-38457b26197c","ios":"levelo://app?vid=8bcc045e-f28b-442a-a0af-38457b26197c"},"vehicle_type_id":"4","last_reported":1743332912,"current_range_meters":10800,"station_id":"cpo36qri1sfpv3e86is0","pricing_plan_id":"cebpf4jnsgd1na2vs0mg"},{"bike_id":"8af30850-6d0d-49e0-8c3f-009e7a64a288","system_id":"levelo_inurba_marseille","lat":43.27816,"lon":5.40701,"is_reserved":false,"is_disabled":false,"rental_uris":{"android":"levelo://app?vid=8af30850-6d0d-49e0-8c3f-009e7a64a288","ios":"levelo://app?vid=8af30850-6d0d-49e0-8c3f-009e7a64a288"},"vehicle_type_id":"4","last_reported":1743332912,"current_range_meters":11200,"station_id":"ce4bhnh2rcd13ifvqgtg","pricing_plan_id":"cebpf4jnsgd1na2vs0mg"},{"bike_id":"5c49fc8b-b573-44cd-9da2-767f8f7a765b","system_id":"levelo_inurba_marseille","lat":43.317591,"lon":5.390147,"is_reserved":false,"is_disabled":false,"rental_uris":{"android":"levelo://app?vid=5c49fc8b-b573-44cd-9da2-767f8f7a765b","ios":"levelo://app?vid=5c49fc8b-b573-44cd-9da2-767f8f7a765b"},"vehicle_type_id":"4","last_reported":1743332912,"current_range_meters":11200,"station_id":"ce4bhqp2rcd13ifvqhng","pricing_plan_id":"cebpf4jnsgd1na2vs0mg"},{"bike_id":"2fd8da57-074e-4c23-9b8c-ded3d23849c4","system_id":"levelo_inurba_marseille","lat":43.29578,"lon":5.375183,"is_reserved":false,"is_disabled":false,"rental_uris":{"android":"levelo://app?vid=2fd8da57-074e-4c23-9b8c-ded3d23849c4","ios":"levelo://app?vid=2fd8da57-074e-4c23-9b8c-ded3d23849c4"},"vehicle_type_id":"4","last_reported":1743332912,"current_range_meters":11200,"station_id":"ce4bgi92rcd13ifvqb90","pricing_plan_id":"cebpf4jnsgd1na2vs0mg"},{"bike_id":"52cd3cb6-4462-4356-9222-57f0529656b0","system_id":"levelo_inurba_marseille","lat":43.23965,"lon":5.36621,"is_reserved":false,"is_disabled":false,"rental_uris":{"android":"levelo://app?vid=52cd3cb6-4462-4356-9222-57f0529656b0","ios":"levelo://app?vid=52cd3cb6-4462-4356-9222-57f0529656b0"},"vehicle_type_id":"4","last_reported":1743332912,"current_range_meters":11200,"station_id":"ce4bhi12rcd13ifvqfp0","pricing_plan_id":"cebpf4jnsgd1na2vs0mg"},{"bike_id":"9bfa0035-2901-48ca-88f5-2f56c3943a29","system_id":"levelo_inurba_marseille","lat":43.26554,"lon":5.37286,"is_reserved":false,"is_disabled":false,"rental_uris":{"android":"levelo://app?vid=9bfa0035-2901-48ca-88f5-2f56c3943a29","ios":"levelo://app?vid=9bfa0035-2901-48ca-88f5-2f56c3943a29"},"vehicle_type_id":"4","last_reported":1743332912,"current_range_meters":11200,"station_id":"ce4bhg12rcd13ifvqf70","pricing_plan_id":"cebpf4jnsgd1na2vs0mg"},{"bike_id":"bfcad82b-6acc-493c-b418-93ec0bae17e4","system_id":"levelo_inurba_marseille","lat":43.32115,"lon":5.36778,"is_reserved":false,"is_disabled":false,"rental_uris":{"android":"levelo://app?vid=bfcad82b-6acc-493c-b418-93ec0bae17e4","ios":"levelo://app?vid=bfcad82b-6acc-493c-b418-93ec0bae17e4"},"vehicle_type_id":"4","last_reported":1743332912,"current_range_meters":11200,"station_id":"ce4bhrh2rcd13ifvqhug","pricing_plan_id":"cebpf4jnsgd1na2vs0mg"},{"bike_id":"db8db4e4-34d8-421e-a613-6b27d46c3444","system_id":"levelo_inurba_marseille","lat":43.26224,"lon":5.40446,"is_reserved":false,"is_disabled":false,"rental_uris":{"android":"levelo://app?vid=db8db4e4-34d8-421e-a613-6b27d46c3444","ios":"levelo://app?vid=db8db4e4-34d8-421e-a613-6b27d46c3444"},"vehicle_type_id":"4","last_reported":1743332912,"current_range_meters":11200,"station_id":"ce4bhmh2rcd13ifvqgmg","pricing_plan_id":"cebpf4jnsgd1na2vs0mg"},{"bike_id":"cb8c9ca5-9083-4e86-9e9f-2bc245af5095","system_id":"levelo_inurba_marseille","lat":43.28409,"lon":5.37502,"is_reserved":false,"is_disabled":true,"rental_uris":{"android":"levelo://app?vid=cb8c9ca5-9083-4e86-9e9f-2bc245af5095","ios":"levelo://app?vid=cb8c9ca5-9083-4e86-9e9f-2bc245af5095"},"vehicle_type_id":"4","last_reported":1743332912,"current_range_meters":11200,"station_id":"ce4bh412rcd13ifvqds0","pricing_plan_id":"cebpf4jnsgd1na2vs0mg"},{"bike_id":"824284d1-0946-4706-a6ff-4b264ab58896","system_id":"levelo_inurba_marseille","lat":43.28261,"lon":5.35068,"is_reserved":false,"is_disabled":false,"rental_uris":{"android":"levelo://app?vid=824284d1-0946-4706-a6ff-4b264ab58896","ios":"levelo://app?vid=824284d1-0946-4706-a6ff-4b264ab58896"},"vehicle_type_id":"4","last_reported":1743332912,"current_range_meters":11200,"station_id":"ce4bhbp2rcd13ifvqerg","pricing_plan_id":"cebpf4jnsgd1na2vs0mg"},{"bike_id":"7e46e322-27d9-4f9d-b1ce-11741eb7c78f","system_id":"levelo_inurba_marseille","lat":43.31758,"lon":5.39019,"is_reserved":false,"is_disabled":false,"rental_uris":{"android":"levelo://app?vid=7e46e322-27d9-4f9d-b1ce-11741eb7c78f","ios":"levelo://app?vid=7e46e322-27d9-4f9d-b1ce-11741eb7c78f"},"vehicle_type_id":"4","last_reported":1743332912,"current_range_meters":11600,"station_id":"ce4bhqp2rcd13ifvqhng","pricing_plan_id":"cebpf4jnsgd1na2vs0mg"},{"bike_id":"e9a2a445-241d-4d76-ae7f-242ac1e603b1","system_id":"levelo_inurba_marseille","lat":43.2317,"lon":5.35562,"is_reserved":false,"is_disabled":false,"rental_uris":{"android":"levelo://app?vid=e9a2a445-241d-4d76-ae7f-242ac1e603b1","ios":"levelo://app?vid=e9a2a445-241d-4d76-ae7f-242ac1e603b1"},"vehicle_type_id":"4","last_reported":1743332912,"current_range_meters":11600,"station_id":"ce4bhu92rcd13ifvqi70","pricing_plan_id":"cebpf4jnsgd1na2vs0mg"},{"bike_id":"51f634e3-ac61-4928-9ed6-54eb1e30344e","system_id":"levelo_inurba_marseille","lat":43.29706,"lon":5.37295,"is_reserved":false,"is_disabled":true,"rental_uris":{"android":"levelo://app?vid=51f634e3-ac61-4928-9ed6-54eb1e30344e","ios":"levelo://app?vid=51f634e3-ac61-4928-9ed6-54eb1e30344e"},"vehicle_type_id":"4","last_reported":1743332912,"current_range_meters":11600,"station_id":"ce4bgk12rcd13ifvqbj0","pricing_plan_id":"cebpf4jnsgd1na2vs0mg"},{"bike_id":"2668b2c5-296e-46e2-8764-f61208bfe4ae","system_id":"levelo_inurba_marseille","lat":43.23062,"lon":5.35496,"is_reserved":false,"is_disabled":false,"rental_uris":{"android":"levelo://app?vid=2668b2c5-296e-46e2-8764-f61208bfe4ae","ios":"levelo://app?vid=2668b2c5-296e-46e2-8764-f61208bfe4ae"},"vehicle_type_id":"4","last_reported":1743332912,"current_range_meters":11600,"station_id":"cpo3342slgdg3j2ifvpg","pricing_plan_id":"cebpf4jnsgd1na2vs0mg"},{"bike_id":"871f3035-10bb-4a28-afa0-18619600e1a6","system_id":"levelo_inurba_marseille","lat":43.299462,"lon":5.365342,"is_reserved":false,"is_disabled":true,"rental_uris":{"android":"levelo://app?vid=871f3035-10bb-4a28-afa0-18619600e1a6","ios":"levelo://app?vid=871f3035-10bb-4a28-afa0-18619600e1a6"},"vehicle_type_id":"4","last_reported":1743332912,"current_range_meters":12000,"station_id":"ce4bgm92rcd13ifvqbr0","pricing_plan_id":"cebpf4jnsgd1na2vs0mg"},{"bike_id":"0ce2c1a1-67cc-4e0d-a0fb-18850688e14b","system_id":"levelo_inurba_marseille","lat":43.26061,"lon":5.39389,"is_reserved":false,"is_disabled":false,"rental_uris":{"android":"levelo://app?vid=0ce2c1a1-67cc-4e0d-a0fb-18850688e14b","ios":"levelo://app?vid=0ce2c1a1-67cc-4e0d-a0fb-18850688e14b"},"vehicle_type_id":"4","last_reported":1743332912,"current_range_meters":11600,"station_id":"ce4bhh92rcd13ifvqfj0","pricing_plan_id":"cebpf4jnsgd1na2vs0mg"},{"bike_id":"ba362734-34ca-4bcd-8728-cadb040d6152","system_id":"levelo_inurba_marseille","lat":43.243901,"lon":5.37063,"is_reserved":false,"is_disabled":false,"rental_uris":{"android":"levelo://app?vid=ba362734-34ca-4bcd-8728-cadb040d6152","ios":"levelo://app?vid=ba362734-34ca-4bcd-8728-cadb040d6152"},"vehicle_type_id":"4","last_reported":1743332912,"current_range_meters":12000,"station_id":"ce4bhhh2rcd13ifvqfk0","pricing_plan_id":"cebpf4jnsgd1na2vs0mg"},{"bike_id":"039d6195-a4ab-472f-929f-b9ba7e67e0d4","system_id":"levelo_inurba_marseille","lat":43.28631,"lon":5.35104,"is_reserved":false,"is_disabled":false,"rental_uris":{"android":"levelo://app?vid=039d6195-a4ab-472f-929f-b9ba7e67e0d4","ios":"levelo://app?vid=039d6195-a4ab-472f-929f-b9ba7e67e0d4"},"vehicle_type_id":"4","last_reported":1743332912,"current_range_meters":12000,"station_id":"ce4bhch2rcd13ifvqeug","pricing_plan_id":"cebpf4jnsgd1na2vs0mg"},{"bike_id":"a795e633-fe44-4b2b-b41f-a99c83b163b1","system_id":"levelo_inurba_marseille","lat":43.2501,"lon":5.38948,"is_reserved":false,"is_disabled":false,"rental_uris":{"android":"levelo://app?vid=a795e633-fe44-4b2b-b41f-a99c83b163b1","ios":"levelo://app?vid=a795e633-fe44-4b2b-b41f-a99c83b163b1"},"vehicle_type_id":"4","last_reported":1743332912,"current_range_meters":12000,"station_id":"ce4bhgp2rcd13ifvqfd0","pricing_plan_id":"cebpf4jnsgd1na2vs0mg"},{"bike_id":"809a47f2-ac51-47d1-8bf7-2702a6a60091","system_id":"levelo_inurba_marseille","lat":43.28417,"lon":5.34993,"is_reserved":false,"is_disabled":false,"rental_uris":{"android":"levelo://app?vid=809a47f2-ac51-47d1-8bf7-2702a6a60091","ios":"levelo://app?vid=809a47f2-ac51-47d1-8bf7-2702a6a60091"},"vehicle_type_id":"4","last_reported":1743332912,"current_range_meters":12000,"station_id":"ce4bhbh2rcd13ifvqepg","pricing_plan_id":"cebpf4jnsgd1na2vs0mg"},{"bike_id":"82be5020-df29-4bb6-b821-10f31b9ed89a","system_id":"levelo_inurba_marseille","lat":43.28412,"lon":5.34987,"is_reserved":false,"is_disabled":false,"rental_uris":{"android":"levelo://app?vid=82be5020-df29-4bb6-b821-10f31b9ed89a","ios":"levelo://app?vid=82be5020-df29-4bb6-b821-10f31b9ed89a"},"vehicle_type_id":"4","last_reported":1743332912,"current_range_meters":12000,"station_id":"ce4bhbh2rcd13ifvqepg","pricing_plan_id":"cebpf4jnsgd1na2vs0mg"},{"bike_id":"f86ce691-3d3a-410d-a95b-f97da6ce85bf","system_id":"levelo_inurba_marseille","lat":43.25122,"lon":5.40313,"is_reserved":false,"is_disabled":false,"rental_uris":{"android":"levelo://app?vid=f86ce691-3d3a-410d-a95b-f97da6ce85bf","ios":"levelo://app?vid=f86ce691-3d3a-410d-a95b-f97da6ce85bf"},"vehicle_type_id":"4","last_reported":1743332912,"current_range_meters":12400,"station_id":"ce4bhlh2rcd13ifvqgig","pricing_plan_id":"cebpf4jnsgd1na2vs0mg"},{"bike_id":"ee110417-5ed9-4b88-a260-0ca1c312c3c9","system_id":"levelo_inurba_marseille","lat":43.24176,"lon":5.39732,"is_reserved":false,"is_disabled":false,"rental_uris":{"android":"levelo://app?vid=ee110417-5ed9-4b88-a260-0ca1c312c3c9","ios":"levelo://app?vid=ee110417-5ed9-4b88-a260-0ca1c312c3c9"},"vehicle_type_id":"4","last_reported":1743332912,"current_range_meters":12800,"station_id":"ce4bhn12rcd13ifvqgpg","pricing_plan_id":"cebpf4jnsgd1na2vs0mg"},{"bike_id":"d51b472c-d18b-4217-b46a-f69a5f2d08c9","system_id":"levelo_inurba_marseille","lat":43.26551,"lon":5.37281,"is_reserved":false,"is_disabled":false,"rental_uris":{"android":"levelo://app?vid=d51b472c-d18b-4217-b46a-f69a5f2d08c9","ios":"levelo://app?vid=d51b472c-d18b-4217-b46a-f69a5f2d08c9"},"vehicle_type_id":"4","last_reported":1743332912,"current_range_meters":12800,"station_id":"ce4bhg12rcd13ifvqf70","pricing_plan_id":"cebpf4jnsgd1na2vs0mg"},{"bike_id":"76859129-4009-4843-90a4-dc4d2b65271a","system_id":"levelo_inurba_marseille","lat":43.24168,"lon":5.36406,"is_reserved":false,"is_disabled":false,"rental_uris":{"android":"levelo://app?vid=76859129-4009-4843-90a4-dc4d2b65271a","ios":"levelo://app?vid=76859129-4009-4843-90a4-dc4d2b65271a"},"vehicle_type_id":"4","last_reported":1743332912,"current_range_meters":12800,"station_id":"cpo36qri1sfpv3e86is0","pricing_plan_id":"cebpf4jnsgd1na2vs0mg"},{"bike_id":"7ca6f145-aad1-46a9-862f-db9fe95e22ed","system_id":"levelo_inurba_marseille","lat":43.321,"lon":5.36763,"is_reserved":false,"is_disabled":false,"rental_uris":{"android":"levelo://app?vid=7ca6f145-aad1-46a9-862f-db9fe95e22ed","ios":"levelo://app?vid=7ca6f145-aad1-46a9-862f-db9fe95e22ed"},"vehicle_type_id":"4","last_reported":1743332912,"current_range_meters":12800,"station_id":"ce4bhrh2rcd13ifvqhug","pricing_plan_id":"cebpf4jnsgd1na2vs0mg"},{"bike_id":"24c910f8-a00a-49ca-b3fe-5d967a40972a","system_id":"levelo_inurba_marseille","lat":43.23055,"lon":5.35491,"is_reserved":false,"is_disabled":false,"rental_uris":{"android":"levelo://app?vid=24c910f8-a00a-49ca-b3fe-5d967a40972a","ios":"levelo://app?vid=24c910f8-a00a-49ca-b3fe-5d967a40972a"},"vehicle_type_id":"4","last_reported":1743332912,"current_range_meters":12800,"station_id":"cpo3342slgdg3j2ifvpg","pricing_plan_id":"cebpf4jnsgd1na2vs0mg"},{"bike_id":"b73281d3-4024-4cc2-9467-a02b03434418","system_id":"levelo_inurba_marseille","lat":43.28617,"lon":5.350955,"is_reserved":false,"is_disabled":false,"rental_uris":{"android":"levelo://app?vid=b73281d3-4024-4cc2-9467-a02b03434418","ios":"levelo://app?vid=b73281d3-4024-4cc2-9467-a02b03434418"},"vehicle_type_id":"4","last_reported":1743332912,"current_range_meters":12800,"station_id":"ce4bhch2rcd13ifvqeug","pricing_plan_id":"cebpf4jnsgd1na2vs0mg"},{"bike_id":"fb0aa921-622c-4380-85a7-d36744ebabe2","system_id":"levelo_inurba_marseille","lat":43.30301,"lon":5.36884,"is_reserved":false,"is_disabled":false,"rental_uris":{"android":"levelo://app?vid=fb0aa921-622c-4380-85a7-d36744ebabe2","ios":"levelo://app?vid=fb0aa921-622c-4380-85a7-d36744ebabe2"},"vehicle_type_id":"4","last_reported":1743332912,"current_range_meters":12800,"station_id":"ce4bgqh2rcd13ifvqc5g","pricing_plan_id":"cebpf4jnsgd1na2vs0mg"},{"bike_id":"78edf300-7db3-4c93-9631-38797c9b1771","system_id":"levelo_inurba_marseille","lat":43.290498,"lon":5.371476,"is_reserved":false,"is_disabled":true,"rental_uris":{"android":"levelo://app?vid=78edf300-7db3-4c93-9631-38797c9b1771","ios":"levelo://app?vid=78edf300-7db3-4c93-9631-38797c9b1771"},"vehicle_type_id":"4","last_reported":1743332912,"current_range_meters":12800,"station_id":"ce4bh5p2rcd13ifvqe4g","pricing_plan_id":"cebpf4jnsgd1na2vs0mg"},{"bike_id":"62134988-3aed-4731-86c0-ea328a0e54ad","system_id":"levelo_inurba_marseille","lat":43.3414,"lon":5.40901,"is_reserved":false,"is_disabled":false,"rental_uris":{"android":"levelo://app?vid=62134988-3aed-4731-86c0-ea328a0e54ad","ios":"levelo://app?vid=62134988-3aed-4731-86c0-ea328a0e54ad"},"vehicle_type_id":"4","last_reported":1743332912,"current_range_meters":13600,"station_id":"ce4bhqh2rcd13ifvqhlg","pricing_plan_id":"cebpf4jnsgd1na2vs0mg"},{"bike_id":"4334522d-bc96-44e6-8cb3-60275fb40687","system_id":"levelo_inurba_marseille","lat":43.298854,"lon":5.389092,"is_reserved":false,"is_disabled":false,"rental_uris":{"android":"levelo://app?vid=4334522d-bc96-44e6-8cb3-60275fb40687","ios":"levelo://app?vid=4334522d-bc96-44e6-8cb3-60275fb40687"},"vehicle_type_id":"4","last_reported":1743332912,"current_range_meters":13600,"station_id":"ce4bh392rcd13ifvqdl0","pricing_plan_id":"cebpf4jnsgd1na2vs0mg"},{"bike_id":"12cd2614-5759-4501-9c23-d3351a7cc7df","system_id":"levelo_inurba_marseille","lat":43.30537,"lon":5.38421,"is_reserved":false,"is_disabled":true,"rental_uris":{"android":"levelo://app?vid=12cd2614-5759-4501-9c23-d3351a7cc7df","ios":"levelo://app?vid=12cd2614-5759-4501-9c23-d3351a7cc7df"},"vehicle_type_id":"4","last_reported":1743332912,"current_range_meters":13600,"station_id":"ce4bgg92rcd13ifvqb30","pricing_plan_id":"cebpf4jnsgd1na2vs0mg"},{"bike_id":"443ab56d-96fb-4c42-a784-7f7d7003cfcc","system_id":"levelo_inurba_marseille","lat":43.29194,"lon":5.35807,"is_reserved":false,"is_disabled":false,"rental_uris":{"android":"levelo://app?vid=443ab56d-96fb-4c42-a784-7f7d7003cfcc","ios":"levelo://app?vid=443ab56d-96fb-4c42-a784-7f7d7003cfcc"},"vehicle_type_id":"4","last_reported":1743332912,"current_range_meters":14000,"station_id":"ce4bhb12rcd13ifvqel0","pricing_plan_id":"cebpf4jnsgd1na2vs0mg"},{"bike_id":"e8668964-cdce-4ef2-9f10-72b4ee83b253","system_id":"levelo_inurba_marseille","lat":43.27371,"lon":5.36274,"is_reserved":false,"is_disabled":false,"rental_uris":{"android":"levelo://app?vid=e8668964-cdce-4ef2-9f10-72b4ee83b253","ios":"levelo://app?vid=e8668964-cdce-4ef2-9f10-72b4ee83b253"},"vehicle_type_id":"4","last_reported":1743332912,"current_range_meters":14000,"station_id":"ce4bhbh2rcd13ifvqeo0","pricing_plan_id":"cebpf4jnsgd1na2vs0mg"},{"bike_id":"8800990b-0588-4701-9f9b-d00ff201f1bf","system_id":"levelo_inurba_marseille","lat":43.317619,"lon":5.390135,"is_reserved":false,"is_disabled":false,"rental_uris":{"android":"levelo://app?vid=8800990b-0588-4701-9f9b-d00ff201f1bf","ios":"levelo://app?vid=8800990b-0588-4701-9f9b-d00ff201f1bf"},"vehicle_type_id":"4","last_reported":1743332912,"current_range_meters":14000,"station_id":"ce4bhqp2rcd13ifvqhng","pricing_plan_id":"cebpf4jnsgd1na2vs0mg"},{"bike_id":"7bcef57b-2b32-4033-b8b4-6fd7fe51a930","system_id":"levelo_inurba_marseille","lat":43.2861,"lon":5.35102,"is_reserved":false,"is_disabled":false,"rental_uris":{"android":"levelo://app?vid=7bcef57b-2b32-4033-b8b4-6fd7fe51a930","ios":"levelo://app?vid=7bcef57b-2b32-4033-b8b4-6fd7fe51a930"},"vehicle_type_id":"4","last_reported":1743332912,"current_range_meters":14000,"station_id":"ce4bhch2rcd13ifvqeug","pricing_plan_id":"cebpf4jnsgd1na2vs0mg"},{"bike_id":"86f139b9-ffd3-4a79-86e8-d22d017328ee","system_id":"levelo_inurba_marseille","lat":43.33029,"lon":5.39032,"is_reserved":false,"is_disabled":false,"rental_uris":{"android":"levelo://app?vid=86f139b9-ffd3-4a79-86e8-d22d017328ee","ios":"levelo://app?vid=86f139b9-ffd3-4a79-86e8-d22d017328ee"},"vehicle_type_id":"4","last_reported":1743332912,"current_range_meters":14400,"station_id":"ce4bhr92rcd13ifvqhrg","pricing_plan_id":"cebpf4jnsgd1na2vs0mg"},{"bike_id":"0b60b6cc-65bb-4e73-8958-1b351c6fdd96","system_id":"levelo_inurba_marseille","lat":43.32107,"lon":5.36778,"is_reserved":false,"is_disabled":false,"rental_uris":{"android":"levelo://app?vid=0b60b6cc-65bb-4e73-8958-1b351c6fdd96","ios":"levelo://app?vid=0b60b6cc-65bb-4e73-8958-1b351c6fdd96"},"vehicle_type_id":"4","last_reported":1743332912,"current_range_meters":14000,"station_id":"ce4bhrh2rcd13ifvqhug","pricing_plan_id":"cebpf4jnsgd1na2vs0mg"},{"bike_id":"ba1107aa-9b1f-4710-bb75-05314e757fc6","system_id":"levelo_inurba_marseille","lat":43.31694,"lon":5.37202,"is_reserved":false,"is_disabled":false,"rental_uris":{"android":"levelo://app?vid=ba1107aa-9b1f-4710-bb75-05314e757fc6","ios":"levelo://app?vid=ba1107aa-9b1f-4710-bb75-05314e757fc6"},"vehicle_type_id":"4","last_reported":1743332912,"current_range_meters":14000,"station_id":"","pricing_plan_id":"cebpf4jnsgd1na2vs0mg"},{"bike_id":"0e340a5f-a92e-42fc-a741-38b3515358b1","system_id":"levelo_inurba_marseille","lat":43.28456,"lon":5.35899,"is_reserved":false,"is_disabled":false,"rental_uris":{"android":"levelo://app?vid=0e340a5f-a92e-42fc-a741-38b3515358b1","ios":"levelo://app?vid=0e340a5f-a92e-42fc-a741-38b3515358b1"},"vehicle_type_id":"4","last_reported":1743332912,"current_range_meters":14000,"station_id":"ce4bhah2rcd13ifvqei0","pricing_plan_id":"cebpf4jnsgd1na2vs0mg"},{"bike_id":"fd077727-cac9-4da1-be78-e3859541690a","system_id":"levelo_inurba_marseille","lat":43.30535,"lon":5.38424,"is_reserved":false,"is_disabled":true,"rental_uris":{"android":"levelo://app?vid=fd077727-cac9-4da1-be78-e3859541690a","ios":"levelo://app?vid=fd077727-cac9-4da1-be78-e3859541690a"},"vehicle_type_id":"4","last_reported":1743332912,"current_range_meters":14400,"station_id":"ce4bgg92rcd13ifvqb30","pricing_plan_id":"cebpf4jnsgd1na2vs0mg"},{"bike_id":"64ecf796-40f8-4700-a746-c073caf1f490","system_id":"levelo_inurba_marseille","lat":43.23209,"lon":5.35509,"is_reserved":false,"is_disabled":false,"rental_uris":{"android":"levelo://app?vid=64ecf796-40f8-4700-a746-c073caf1f490","ios":"levelo://app?vid=64ecf796-40f8-4700-a746-c073caf1f490"},"vehicle_type_id":"4","last_reported":1743332912,"current_range_meters":14400,"station_id":"ce4bhu92rcd13ifvqi70","pricing_plan_id":"cebpf4jnsgd1na2vs0mg"},{"bike_id":"19c4d38c-721f-4a6d-8de0-ad162aee3dc3","system_id":"levelo_inurba_marseille","lat":43.29867,"lon":5.38915,"is_reserved":false,"is_disabled":true,"rental_uris":{"android":"levelo://app?vid=19c4d38c-721f-4a6d-8de0-ad162aee3dc3","ios":"levelo://app?vid=19c4d38c-721f-4a6d-8de0-ad162aee3dc3"},"vehicle_type_id":"4","last_reported":1743332912,"current_range_meters":14400,"station_id":"ce4bh392rcd13ifvqdl0","pricing_plan_id":"cebpf4jnsgd1na2vs0mg"},{"bike_id":"d4eeed13-b364-475c-9de6-babee2b65982","system_id":"levelo_inurba_marseille","lat":43.26215,"lon":5.37436,"is_reserved":false,"is_disabled":false,"rental_uris":{"android":"levelo://app?vid=d4eeed13-b364-475c-9de6-babee2b65982","ios":"levelo://app?vid=d4eeed13-b364-475c-9de6-babee2b65982"},"vehicle_type_id":"4","last_reported":1743332912,"current_range_meters":14400,"station_id":"ce4bhgp2rcd13ifvqfc0","pricing_plan_id":"cebpf4jnsgd1na2vs0mg"},{"bike_id":"57f08a1e-051d-4497-90a3-9bc4fac2e8f4","system_id":"levelo_inurba_marseille","lat":43.293021,"lon":5.374699,"is_reserved":false,"is_disabled":false,"rental_uris":{"android":"levelo://app?vid=57f08a1e-051d-4497-90a3-9bc4fac2e8f4","ios":"levelo://app?vid=57f08a1e-051d-4497-90a3-9bc4fac2e8f4"},"vehicle_type_id":"4","last_reported":1743332912,"current_range_meters":14800,"station_id":"ce4bhb92rcd13ifvqen0","pricing_plan_id":"cebpf4jnsgd1na2vs0mg"},{"bike_id":"6d9c2021-a9bf-46e9-9c35-05049ef89824","system_id":"levelo_inurba_marseille","lat":43.26029,"lon":5.37545,"is_reserved":false,"is_disabled":false,"rental_uris":{"android":"levelo://app?vid=6d9c2021-a9bf-46e9-9c35-05049ef89824","ios":"levelo://app?vid=6d9c2021-a9bf-46e9-9c35-05049ef89824"},"vehicle_type_id":"4","last_reported":1743332912,"current_range_meters":14400,"station_id":"ce4bhgh2rcd13ifvqfa0","pricing_plan_id":"cebpf4jnsgd1na2vs0mg"},{"bike_id":"e72009ca-c4af-4096-8f76-b7c4933adfb0","system_id":"levelo_inurba_marseille","lat":43.317425,"lon":5.424084,"is_reserved":false,"is_disabled":false,"rental_uris":{"android":"levelo://app?vid=e72009ca-c4af-4096-8f76-b7c4933adfb0","ios":"levelo://app?vid=e72009ca-c4af-4096-8f76-b7c4933adfb0"},"vehicle_type_id":"4","last_reported":1743332912,"current_range_meters":14400,"station_id":"ce4bhp92rcd13ifvqhbg","pricing_plan_id":"cebpf4jnsgd1na2vs0mg"},{"bike_id":"fb0e2782-64d8-47c2-8a78-bad86b5dcc20","system_id":"levelo_inurba_marseille","lat":43.321001,"lon":5.367839,"is_reserved":false,"is_disabled":false,"rental_uris":{"android":"levelo://app?vid=fb0e2782-64d8-47c2-8a78-bad86b5dcc20","ios":"levelo://app?vid=fb0e2782-64d8-47c2-8a78-bad86b5dcc20"},"vehicle_type_id":"4","last_reported":1743332912,"current_range_meters":14400,"station_id":"ce4bhrh2rcd13ifvqhug","pricing_plan_id":"cebpf4jnsgd1na2vs0mg"},{"bike_id":"bf141ad1-7705-40d5-b4c8-a0fd5a4f4f94","system_id":"levelo_inurba_marseille","lat":43.25488,"lon":5.37643,"is_reserved":false,"is_disabled":false,"rental_uris":{"android":"levelo://app?vid=bf141ad1-7705-40d5-b4c8-a0fd5a4f4f94","ios":"levelo://app?vid=bf141ad1-7705-40d5-b4c8-a0fd5a4f4f94"},"vehicle_type_id":"4","last_reported":1743332912,"current_range_meters":14400,"station_id":"ce4bhh12rcd13ifvqff0","pricing_plan_id":"cebpf4jnsgd1na2vs0mg"},{"bike_id":"234b83fe-53cc-4bae-b183-53050553ea5b","system_id":"levelo_inurba_marseille","lat":43.24388,"lon":5.37059,"is_reserved":false,"is_disabled":false,"rental_uris":{"android":"levelo://app?vid=234b83fe-53cc-4bae-b183-53050553ea5b","ios":"levelo://app?vid=234b83fe-53cc-4bae-b183-53050553ea5b"},"vehicle_type_id":"4","last_reported":1743332912,"current_range_meters":14400,"station_id":"ce4bhhh2rcd13ifvqfk0","pricing_plan_id":"cebpf4jnsgd1na2vs0mg"},{"bike_id":"67085084-85a6-45a2-8452-0c83324101d7","system_id":"levelo_inurba_marseille","lat":43.2541,"lon":5.37596,"is_reserved":false,"is_disabled":false,"rental_uris":{"android":"levelo://app?vid=67085084-85a6-45a2-8452-0c83324101d7","ios":"levelo://app?vid=67085084-85a6-45a2-8452-0c83324101d7"},"vehicle_type_id":"4","last_reported":1743332912,"current_range_meters":14800,"station_id":"","pricing_plan_id":"cebpf4jnsgd1na2vs0mg"},{"bike_id":"268b4f79-5e60-4659-9497-950ce01d109f","system_id":"levelo_inurba_marseille","lat":43.28619,"lon":5.35103,"is_reserved":false,"is_disabled":false,"rental_uris":{"android":"levelo://app?vid=268b4f79-5e60-4659-9497-950ce01d109f","ios":"levelo://app?vid=268b4f79-5e60-4659-9497-950ce01d109f"},"vehicle_type_id":"4","last_reported":1743332912,"current_range_meters":14800,"station_id":"ce4bhch2rcd13ifvqeug","pricing_plan_id":"cebpf4jnsgd1na2vs0mg"},{"bike_id":"96c23313-4969-4f25-ba59-bcff6a491d70","system_id":"levelo_inurba_marseille","lat":43.23152,"lon":5.43712,"is_reserved":false,"is_disabled":false,"rental_uris":{"android":"levelo://app?vid=96c23313-4969-4f25-ba59-bcff6a491d70","ios":"levelo://app?vid=96c23313-4969-4f25-ba59-bcff6a491d70"},"vehicle_type_id":"4","last_reported":1743332912,"current_range_meters":14800,"station_id":"ce4bhmp2rcd13ifvqgog","pricing_plan_id":"cebpf4jnsgd1na2vs0mg"},{"bike_id":"e88184aa-26e3-4d78-8ad9-fc4cdf8545f8","system_id":"levelo_inurba_marseille","lat":43.30462,"lon":5.37914,"is_reserved":false,"is_disabled":false,"rental_uris":{"android":"levelo://app?vid=e88184aa-26e3-4d78-8ad9-fc4cdf8545f8","ios":"levelo://app?vid=e88184aa-26e3-4d78-8ad9-fc4cdf8545f8"},"vehicle_type_id":"4","last_reported":1743332912,"current_range_meters":14800,"station_id":"ce4bgup2rcd13ifvqcn0","pricing_plan_id":"cebpf4jnsgd1na2vs0mg"},{"bike_id":"42428cfe-3f95-40ff-9232-8a08d4516ac5","system_id":"levelo_inurba_marseille","lat":43.30167,"lon":5.38095,"is_reserved":false,"is_disabled":false,"rental_uris":{"android":"levelo://app?vid=42428cfe-3f95-40ff-9232-8a08d4516ac5","ios":"levelo://app?vid=42428cfe-3f95-40ff-9232-8a08d4516ac5"},"vehicle_type_id":"4","last_reported":1743332912,"current_range_meters":15200,"station_id":"ce4bgjp2rcd13ifvqbh0","pricing_plan_id":"cebpf4jnsgd1na2vs0mg"},{"bike_id":"d2bdab8d-508c-4617-a487-d6f2ad6bec6a","system_id":"levelo_inurba_marseille","lat":43.28621,"lon":5.35104,"is_reserved":false,"is_disabled":false,"rental_uris":{"android":"levelo://app?vid=d2bdab8d-508c-4617-a487-d6f2ad6bec6a","ios":"levelo://app?vid=d2bdab8d-508c-4617-a487-d6f2ad6bec6a"},"vehicle_type_id":"4","last_reported":1743332912,"current_range_meters":15200,"station_id":"ce4bhch2rcd13ifvqeug","pricing_plan_id":"cebpf4jnsgd1na2vs0mg"},{"bike_id":"8f4145c4-1bd6-401b-a227-c2c77bf7d7af","system_id":"levelo_inurba_marseille","lat":43.30217,"lon":5.40035,"is_reserved":false,"is_disabled":true,"rental_uris":{"android":"levelo://app?vid=8f4145c4-1bd6-401b-a227-c2c77bf7d7af","ios":"levelo://app?vid=8f4145c4-1bd6-401b-a227-c2c77bf7d7af"},"vehicle_type_id":"4","last_reported":1743332912,"current_range_meters":15200,"station_id":"ce4bgvh2rcd13ifvqcs0","pricing_plan_id":"cebpf4jnsgd1na2vs0mg"},{"bike_id":"e5e87896-fc79-4739-9748-f5cd1d13e44f","system_id":"levelo_inurba_marseille","lat":43.28629,"lon":5.35097,"is_reserved":false,"is_disabled":false,"rental_uris":{"android":"levelo://app?vid=e5e87896-fc79-4739-9748-f5cd1d13e44f","ios":"levelo://app?vid=e5e87896-fc79-4739-9748-f5cd1d13e44f"},"vehicle_type_id":"4","last_reported":1743332912,"current_range_meters":15200,"station_id":"ce4bhch2rcd13ifvqeug","pricing_plan_id":"cebpf4jnsgd1na2vs0mg"},{"bike_id":"f4aa7984-6e0a-4355-a188-7dfbb140094d","system_id":"levelo_inurba_marseille","lat":43.28148,"lon":5.42651,"is_reserved":false,"is_disabled":false,"rental_uris":{"android":"levelo://app?vid=f4aa7984-6e0a-4355-a188-7dfbb140094d","ios":"levelo://app?vid=f4aa7984-6e0a-4355-a188-7dfbb140094d"},"vehicle_type_id":"4","last_reported":1743332912,"current_range_meters":16000,"station_id":"ce4bhnh2rcd13ifvqgug","pricing_plan_id":"cebpf4jnsgd1na2vs0mg"},{"bike_id":"a9cd4874-e1ab-4062-b328-49eb2a454437","system_id":"levelo_inurba_marseille","lat":43.28398,"lon":5.34956,"is_reserved":false,"is_disabled":false,"rental_uris":{"android":"levelo://app?vid=a9cd4874-e1ab-4062-b328-49eb2a454437","ios":"levelo://app?vid=a9cd4874-e1ab-4062-b328-49eb2a454437"},"vehicle_type_id":"4","last_reported":1743332912,"current_range_meters":16000,"station_id":"ce4bhbh2rcd13ifvqepg","pricing_plan_id":"cebpf4jnsgd1na2vs0mg"},{"bike_id":"ddd87c41-bb83-428a-8d89-aa68329e6b50","system_id":"levelo_inurba_marseille","lat":43.23197,"lon":5.35557,"is_reserved":false,"is_disabled":false,"rental_uris":{"android":"levelo://app?vid=ddd87c41-bb83-428a-8d89-aa68329e6b50","ios":"levelo://app?vid=ddd87c41-bb83-428a-8d89-aa68329e6b50"},"vehicle_type_id":"4","last_reported":1743332912,"current_range_meters":16000,"station_id":"ce4bhu92rcd13ifvqi70","pricing_plan_id":"cebpf4jnsgd1na2vs0mg"},{"bike_id":"90999d59-def8-4d4d-a0de-1b61966a032f","system_id":"levelo_inurba_marseille","lat":43.24051,"lon":5.37722,"is_reserved":false,"is_disabled":false,"rental_uris":{"android":"levelo://app?vid=90999d59-def8-4d4d-a0de-1b61966a032f","ios":"levelo://app?vid=90999d59-def8-4d4d-a0de-1b61966a032f"},"vehicle_type_id":"4","last_reported":1743332912,"current_range_meters":16000,"station_id":"ce4bhnp2rcd13ifvqgvg","pricing_plan_id":"cebpf4jnsgd1na2vs0mg"},{"bike_id":"8a10f383-19c5-4923-b922-98dfb0c55539","system_id":"levelo_inurba_marseille","lat":43.23196,"lon":5.35546,"is_reserved":false,"is_disabled":false,"rental_uris":{"android":"levelo://app?vid=8a10f383-19c5-4923-b922-98dfb0c55539","ios":"levelo://app?vid=8a10f383-19c5-4923-b922-98dfb0c55539"},"vehicle_type_id":"4","last_reported":1743332912,"current_range_meters":16000,"station_id":"ce4bhu92rcd13ifvqi70","pricing_plan_id":"cebpf4jnsgd1na2vs0mg"},{"bike_id":"f39d06c5-353e-41bb-aafd-f13f8a2153d5","system_id":"levelo_inurba_marseille","lat":43.27369,"lon":5.36265,"is_reserved":false,"is_disabled":false,"rental_uris":{"android":"levelo://app?vid=f39d06c5-353e-41bb-aafd-f13f8a2153d5","ios":"levelo://app?vid=f39d06c5-353e-41bb-aafd-f13f8a2153d5"},"vehicle_type_id":"4","last_reported":1743332912,"current_range_meters":16000,"station_id":"ce4bhbh2rcd13ifvqeo0","pricing_plan_id":"cebpf4jnsgd1na2vs0mg"},{"bike_id":"3550a36d-3c45-4392-b638-e4bfcd519444","system_id":"levelo_inurba_marseille","lat":43.29906,"lon":5.38139,"is_reserved":false,"is_disabled":true,"rental_uris":{"android":"levelo://app?vid=3550a36d-3c45-4392-b638-e4bfcd519444","ios":"levelo://app?vid=3550a36d-3c45-4392-b638-e4bfcd519444"},"vehicle_type_id":"4","last_reported":1743332912,"current_range_meters":16000,"station_id":"ce4bgj12rcd13ifvqbc0","pricing_plan_id":"cebpf4jnsgd1na2vs0mg"},{"bike_id":"f3df6df3-5cb0-438c-80ab-5f2bb15565d6","system_id":"levelo_inurba_marseille","lat":43.27893,"lon":5.39558,"is_reserved":false,"is_disabled":false,"rental_uris":{"android":"levelo://app?vid=f3df6df3-5cb0-438c-80ab-5f2bb15565d6","ios":"levelo://app?vid=f3df6df3-5cb0-438c-80ab-5f2bb15565d6"},"vehicle_type_id":"4","last_reported":1743332912,"current_range_meters":16000,"station_id":"ce4bhf92rcd13ifvqf40","pricing_plan_id":"cebpf4jnsgd1na2vs0mg"},{"bike_id":"89330d7b-93d9-4847-a8df-1adb9ecd99b8","system_id":"levelo_inurba_marseille","lat":43.28268,"lon":5.35076,"is_reserved":false,"is_disabled":false,"rental_uris":{"android":"levelo://app?vid=89330d7b-93d9-4847-a8df-1adb9ecd99b8","ios":"levelo://app?vid=89330d7b-93d9-4847-a8df-1adb9ecd99b8"},"vehicle_type_id":"4","last_reported":1743332912,"current_range_meters":16000,"station_id":"ce4bhbp2rcd13ifvqerg","pricing_plan_id":"cebpf4jnsgd1na2vs0mg"},{"bike_id":"d5b2dc58-a6c3-4ab7-ac98-feb3ccd9e475","system_id":"levelo_inurba_marseille","lat":43.32366,"lon":5.38878,"is_reserved":false,"is_disabled":false,"rental_uris":{"android":"levelo://app?vid=d5b2dc58-a6c3-4ab7-ac98-feb3ccd9e475","ios":"levelo://app?vid=d5b2dc58-a6c3-4ab7-ac98-feb3ccd9e475"},"vehicle_type_id":"4","last_reported":1743332912,"current_range_meters":16400,"station_id":"ce4bhqp2rcd13ifvqhog","pricing_plan_id":"cebpf4jnsgd1na2vs0mg"},{"bike_id":"b498851d-a8bd-42e6-9ac0-ecf776b06751","system_id":"levelo_inurba_marseille","lat":43.28623,"lon":5.35088,"is_reserved":false,"is_disabled":false,"rental_uris":{"android":"levelo://app?vid=b498851d-a8bd-42e6-9ac0-ecf776b06751","ios":"levelo://app?vid=b498851d-a8bd-42e6-9ac0-ecf776b06751"},"vehicle_type_id":"4","last_reported":1743332912,"current_range_meters":16400,"station_id":"ce4bhch2rcd13ifvqeug","pricing_plan_id":"cebpf4jnsgd1na2vs0mg"},{"bike_id":"a4630e69-7185-4c2a-a71a-e0176ccf2bef","system_id":"levelo_inurba_marseille","lat":43.23145,"lon":5.43717,"is_reserved":false,"is_disabled":false,"rental_uris":{"android":"levelo://app?vid=a4630e69-7185-4c2a-a71a-e0176ccf2bef","ios":"levelo://app?vid=a4630e69-7185-4c2a-a71a-e0176ccf2bef"},"vehicle_type_id":"4","last_reported":1743332912,"current_range_meters":16400,"station_id":"ce4bhmp2rcd13ifvqgog","pricing_plan_id":"cebpf4jnsgd1na2vs0mg"},{"bike_id":"8a93de34-e24a-4131-842b-11ea3d50b820","system_id":"levelo_inurba_marseille","lat":43.27213,"lon":5.39179,"is_reserved":false,"is_disabled":true,"rental_uris":{"android":"levelo://app?vid=8a93de34-e24a-4131-842b-11ea3d50b820","ios":"levelo://app?vid=8a93de34-e24a-4131-842b-11ea3d50b820"},"vehicle_type_id":"4","last_reported":1743332912,"current_range_meters":16400,"station_id":"ce4bhhp2rcd13ifvqfm0","pricing_plan_id":"cebpf4jnsgd1na2vs0mg"},{"bike_id":"b568fe9f-6017-4ed1-990e-14e2aea82361","system_id":"levelo_inurba_marseille","lat":43.282603,"lon":5.350611,"is_reserved":false,"is_disabled":false,"rental_uris":{"android":"levelo://app?vid=b568fe9f-6017-4ed1-990e-14e2aea82361","ios":"levelo://app?vid=b568fe9f-6017-4ed1-990e-14e2aea82361"},"vehicle_type_id":"4","last_reported":1743332912,"current_range_meters":16400,"station_id":"ce4bhbp2rcd13ifvqerg","pricing_plan_id":"cebpf4jnsgd1na2vs0mg"},{"bike_id":"37f4161e-7ca6-4a27-a44d-22a17ab647b3","system_id":"levelo_inurba_marseille","lat":43.31327,"lon":5.39691,"is_reserved":false,"is_disabled":false,"rental_uris":{"android":"levelo://app?vid=37f4161e-7ca6-4a27-a44d-22a17ab647b3","ios":"levelo://app?vid=37f4161e-7ca6-4a27-a44d-22a17ab647b3"},"vehicle_type_id":"4","last_reported":1743332912,"current_range_meters":16400,"station_id":"ce4bgvp2rcd13ifvqcu0","pricing_plan_id":"cebpf4jnsgd1na2vs0mg"},{"bike_id":"d6ba702a-5fa0-4f6f-87ff-74741eb1576d","system_id":"levelo_inurba_marseille","lat":43.29269,"lon":5.36843,"is_reserved":false,"is_disabled":false,"rental_uris":{"android":"levelo://app?vid=d6ba702a-5fa0-4f6f-87ff-74741eb1576d","ios":"levelo://app?vid=d6ba702a-5fa0-4f6f-87ff-74741eb1576d"},"vehicle_type_id":"4","last_reported":1743332912,"current_range_meters":16400,"station_id":"ce4bhbp2rcd13ifvqesg","pricing_plan_id":"cebpf4jnsgd1na2vs0mg"},{"bike_id":"f02a4c16-26f6-4a03-bb1a-fb178a208d68","system_id":"levelo_inurba_marseille","lat":43.26556,"lon":5.3728,"is_reserved":false,"is_disabled":false,"rental_uris":{"android":"levelo://app?vid=f02a4c16-26f6-4a03-bb1a-fb178a208d68","ios":"levelo://app?vid=f02a4c16-26f6-4a03-bb1a-fb178a208d68"},"vehicle_type_id":"4","last_reported":1743332912,"current_range_meters":16400,"station_id":"ce4bhg12rcd13ifvqf70","pricing_plan_id":"cebpf4jnsgd1na2vs0mg"},{"bike_id":"eab4b6d6-ba89-4629-bbdd-71f11d2b55bb","system_id":"levelo_inurba_marseille","lat":43.24381,"lon":5.37061,"is_reserved":false,"is_disabled":false,"rental_uris":{"android":"levelo://app?vid=eab4b6d6-ba89-4629-bbdd-71f11d2b55bb","ios":"levelo://app?vid=eab4b6d6-ba89-4629-bbdd-71f11d2b55bb"},"vehicle_type_id":"4","last_reported":1743332912,"current_range_meters":16400,"station_id":"ce4bhhh2rcd13ifvqfk0","pricing_plan_id":"cebpf4jnsgd1na2vs0mg"},{"bike_id":"c3bc841a-a375-4128-bc74-73902f3e8f27","system_id":"levelo_inurba_marseille","lat":43.28459,"lon":5.35899,"is_reserved":false,"is_disabled":false,"rental_uris":{"android":"levelo://app?vid=c3bc841a-a375-4128-bc74-73902f3e8f27","ios":"levelo://app?vid=c3bc841a-a375-4128-bc74-73902f3e8f27"},"vehicle_type_id":"4","last_reported":1743332912,"current_range_meters":16400,"station_id":"ce4bhah2rcd13ifvqei0","pricing_plan_id":"cebpf4jnsgd1na2vs0mg"},{"bike_id":"181272ec-2cf3-4e0a-be63-1025564d60e1","system_id":"levelo_inurba_marseille","lat":43.23061,"lon":5.35465,"is_reserved":false,"is_disabled":false,"rental_uris":{"android":"levelo://app?vid=181272ec-2cf3-4e0a-be63-1025564d60e1","ios":"levelo://app?vid=181272ec-2cf3-4e0a-be63-1025564d60e1"},"vehicle_type_id":"4","last_reported":1743332912,"current_range_meters":16400,"station_id":"cpo3342slgdg3j2ifvpg","pricing_plan_id":"cebpf4jnsgd1na2vs0mg"},{"bike_id":"527eaf6f-9dd4-47f1-8136-298925baea60","system_id":"levelo_inurba_marseille","lat":43.26686,"lon":5.38286,"is_reserved":false,"is_disabled":true,"rental_uris":{"android":"levelo://app?vid=527eaf6f-9dd4-47f1-8136-298925baea60","ios":"levelo://app?vid=527eaf6f-9dd4-47f1-8136-298925baea60"},"vehicle_type_id":"4","last_reported":1743332912,"current_range_meters":16800,"station_id":"ce4bhg92rcd13ifvqf90","pricing_plan_id":"cebpf4jnsgd1na2vs0mg"},{"bike_id":"a6a9dbf1-aa0a-49ea-a471-01a95bba8e72","system_id":"levelo_inurba_marseille","lat":43.28409,"lon":5.3498,"is_reserved":false,"is_disabled":false,"rental_uris":{"android":"levelo://app?vid=a6a9dbf1-aa0a-49ea-a471-01a95bba8e72","ios":"levelo://app?vid=a6a9dbf1-aa0a-49ea-a471-01a95bba8e72"},"vehicle_type_id":"4","last_reported":1743332912,"current_range_meters":16800,"station_id":"ce4bhbh2rcd13ifvqepg","pricing_plan_id":"cebpf4jnsgd1na2vs0mg"},{"bike_id":"dc811744-4db0-4115-abf7-a8bc0c7935f3","system_id":"levelo_inurba_marseille","lat":43.23982,"lon":5.36612,"is_reserved":false,"is_disabled":false,"rental_uris":{"android":"levelo://app?vid=dc811744-4db0-4115-abf7-a8bc0c7935f3","ios":"levelo://app?vid=dc811744-4db0-4115-abf7-a8bc0c7935f3"},"vehicle_type_id":"4","last_reported":1743332912,"current_range_meters":16800,"station_id":"ce4bhi12rcd13ifvqfp0","pricing_plan_id":"cebpf4jnsgd1na2vs0mg"},{"bike_id":"690ac073-8326-443e-95a8-fe8333ae2a5f","system_id":"levelo_inurba_marseille","lat":43.30155,"lon":5.38094,"is_reserved":false,"is_disabled":false,"rental_uris":{"android":"levelo://app?vid=690ac073-8326-443e-95a8-fe8333ae2a5f","ios":"levelo://app?vid=690ac073-8326-443e-95a8-fe8333ae2a5f"},"vehicle_type_id":"4","last_reported":1743332912,"current_range_meters":16800,"station_id":"ce4bgjp2rcd13ifvqbh0","pricing_plan_id":"cebpf4jnsgd1na2vs0mg"},{"bike_id":"a5fabf06-cb0d-469d-bb5f-9b4135e982e9","system_id":"levelo_inurba_marseille","lat":43.3188,"lon":5.40741,"is_reserved":false,"is_disabled":false,"rental_uris":{"android":"levelo://app?vid=a5fabf06-cb0d-469d-bb5f-9b4135e982e9","ios":"levelo://app?vid=a5fabf06-cb0d-469d-bb5f-9b4135e982e9"},"vehicle_type_id":"4","last_reported":1743332912,"current_range_meters":16400,"station_id":"ce4bhq12rcd13ifvqhig","pricing_plan_id":"cebpf4jnsgd1na2vs0mg"},{"bike_id":"d7671a11-d2a9-4c19-b8ab-5839a05a2057","system_id":"levelo_inurba_marseille","lat":43.28153,"lon":5.42627,"is_reserved":false,"is_disabled":false,"rental_uris":{"android":"levelo://app?vid=d7671a11-d2a9-4c19-b8ab-5839a05a2057","ios":"levelo://app?vid=d7671a11-d2a9-4c19-b8ab-5839a05a2057"},"vehicle_type_id":"4","last_reported":1743332912,"current_range_meters":16800,"station_id":"ce4bhnh2rcd13ifvqgug","pricing_plan_id":"cebpf4jnsgd1na2vs0mg"},{"bike_id":"8a49f0c7-0b34-42a0-a6a3-411d856cf2d8","system_id":"levelo_inurba_marseille","lat":43.2439,"lon":5.37057,"is_reserved":false,"is_disabled":false,"rental_uris":{"android":"levelo://app?vid=8a49f0c7-0b34-42a0-a6a3-411d856cf2d8","ios":"levelo://app?vid=8a49f0c7-0b34-42a0-a6a3-411d856cf2d8"},"vehicle_type_id":"4","last_reported":1743332912,"current_range_meters":16800,"station_id":"ce4bhhh2rcd13ifvqfk0","pricing_plan_id":"cebpf4jnsgd1na2vs0mg"},{"bike_id":"af9b69b2-d0fe-4ee5-88a3-222ea8deb5eb","system_id":"levelo_inurba_marseille","lat":43.28633,"lon":5.35066,"is_reserved":false,"is_disabled":false,"rental_uris":{"android":"levelo://app?vid=af9b69b2-d0fe-4ee5-88a3-222ea8deb5eb","ios":"levelo://app?vid=af9b69b2-d0fe-4ee5-88a3-222ea8deb5eb"},"vehicle_type_id":"4","last_reported":1743332912,"current_range_meters":16800,"station_id":"ce4bhch2rcd13ifvqeug","pricing_plan_id":"cebpf4jnsgd1na2vs0mg"},{"bike_id":"29b0d117-591a-4469-8736-b567a2c8f7e2","system_id":"levelo_inurba_marseille","lat":43.28607,"lon":5.3706,"is_reserved":false,"is_disabled":false,"rental_uris":{"android":"levelo://app?vid=29b0d117-591a-4469-8736-b567a2c8f7e2","ios":"levelo://app?vid=29b0d117-591a-4469-8736-b567a2c8f7e2"},"vehicle_type_id":"4","last_reported":1743332912,"current_range_meters":16800,"station_id":"ce4bht12rcd13ifvqi60","pricing_plan_id":"cebpf4jnsgd1na2vs0mg"},{"bike_id":"68862b48-7ae4-4ab8-884c-aa3ee4f82104","system_id":"levelo_inurba_marseille","lat":43.28418,"lon":5.34985,"is_reserved":false,"is_disabled":false,"rental_uris":{"android":"levelo://app?vid=68862b48-7ae4-4ab8-884c-aa3ee4f82104","ios":"levelo://app?vid=68862b48-7ae4-4ab8-884c-aa3ee4f82104"},"vehicle_type_id":"4","last_reported":1743332912,"current_range_meters":16800,"station_id":"ce4bhbh2rcd13ifvqepg","pricing_plan_id":"cebpf4jnsgd1na2vs0mg"},{"bike_id":"63bd693f-45b5-425b-9bd9-4303e8066c9c","system_id":"levelo_inurba_marseille","lat":43.28848,"lon":5.38771,"is_reserved":false,"is_disabled":false,"rental_uris":{"android":"levelo://app?vid=63bd693f-45b5-425b-9bd9-4303e8066c9c","ios":"levelo://app?vid=63bd693f-45b5-425b-9bd9-4303e8066c9c"},"vehicle_type_id":"4","last_reported":1743332912,"current_range_meters":17200,"station_id":"","pricing_plan_id":"cebpf4jnsgd1na2vs0mg"},{"bike_id":"1c741ead-fd69-4caf-89f0-074c722b2f2a","system_id":"levelo_inurba_marseille","lat":43.28265,"lon":5.35062,"is_reserved":false,"is_disabled":false,"rental_uris":{"android":"levelo://app?vid=1c741ead-fd69-4caf-89f0-074c722b2f2a","ios":"levelo://app?vid=1c741ead-fd69-4caf-89f0-074c722b2f2a"},"vehicle_type_id":"4","last_reported":1743332912,"current_range_meters":17200,"station_id":"ce4bhbp2rcd13ifvqerg","pricing_plan_id":"cebpf4jnsgd1na2vs0mg"},{"bike_id":"0f8f638f-6c59-4dfb-ab4f-882d40e453aa","system_id":"levelo_inurba_marseille","lat":43.29278,"lon":5.42807,"is_reserved":false,"is_disabled":false,"rental_uris":{"android":"levelo://app?vid=0f8f638f-6c59-4dfb-ab4f-882d40e453aa","ios":"levelo://app?vid=0f8f638f-6c59-4dfb-ab4f-882d40e453aa"},"vehicle_type_id":"4","last_reported":1743332912,"current_range_meters":17200,"station_id":"","pricing_plan_id":"cebpf4jnsgd1na2vs0mg"},{"bike_id":"a6bad750-3cac-43aa-a27f-f7405de0ada2","system_id":"levelo_inurba_marseille","lat":43.30326,"lon":5.40429,"is_reserved":false,"is_disabled":false,"rental_uris":{"android":"levelo://app?vid=a6bad750-3cac-43aa-a27f-f7405de0ada2","ios":"levelo://app?vid=a6bad750-3cac-43aa-a27f-f7405de0ada2"},"vehicle_type_id":"4","last_reported":1743332912,"current_range_meters":17200,"station_id":"ce4bh012rcd13ifvqd10","pricing_plan_id":"cebpf4jnsgd1na2vs0mg"},{"bike_id":"d36f4685-8950-476c-8008-13fd354ba3c7","system_id":"levelo_inurba_marseille","lat":43.24383,"lon":5.37058,"is_reserved":false,"is_disabled":false,"rental_uris":{"android":"levelo://app?vid=d36f4685-8950-476c-8008-13fd354ba3c7","ios":"levelo://app?vid=d36f4685-8950-476c-8008-13fd354ba3c7"},"vehicle_type_id":"4","last_reported":1743332912,"current_range_meters":17200,"station_id":"ce4bhhh2rcd13ifvqfk0","pricing_plan_id":"cebpf4jnsgd1na2vs0mg"},{"bike_id":"f1628d78-8def-412c-8d9e-7674f8795c3a","system_id":"levelo_inurba_marseille","lat":43.23061,"lon":5.3549,"is_reserved":false,"is_disabled":false,"rental_uris":{"android":"levelo://app?vid=f1628d78-8def-412c-8d9e-7674f8795c3a","ios":"levelo://app?vid=f1628d78-8def-412c-8d9e-7674f8795c3a"},