{"last_updated":1729444110,"ttl":60,"version":"2.2","data":{"bikes":[{"bike_id":"bd23c193-76e8-410f-af7f-3c03064f08b7","system_id":"levelo_inurba_marseille","lat":43.28722,"lon":5.37937,"is_reserved":false,"is_disabled":false,"rental_uris":{"android":"levelo://app?vid=bd23c193-76e8-410f-af7f-3c03064f08b7","ios":"levelo://app?vid=bd23c193-76e8-410f-af7f-3c03064f08b7"},"vehicle_type_id":"4","last_reported":1729444110,"current_range_meters":7200,"station_id":"ce4bh9p2rcd13ifvqec0","pricing_plan_id":"cebpf4jnsgd1na2vs0mg"},{"bike_id":"39974905-0ab5-423c-8901-767f1ea0efd5","system_id":"levelo_inurba_marseille","lat":43.28485,"lon":5.38566,"is_reserved":false,"is_disabled":false,"rental_uris":{"android":"levelo://app?vid=39974905-0ab5-423c-8901-767f1ea0efd5","ios":"levelo://app?vid=39974905-0ab5-423c-8901-767f1ea0efd5"},"vehicle_type_id":"4","last_reported":1729444110,"current_range_meters":10000,"station_id":"ce4bh8p2rcd13ifvqeb0","pricing_plan_id":"cebpf4jnsgd1na2vs0mg"},{"bike_id":"9dc27e45-90bd-47da-ac32-e5c9dd7af9e4","system_id":"levelo_inurba_marseille","lat":43.28355,"lon":5.375107,"is_reserved":false,"is_disabled":false,"rental_uris":{"android":"levelo://app?vid=9dc27e45-90bd-47da-ac32-e5c9dd7af9e4","ios":"levelo://app?vid=9dc27e45-90bd-47da-ac32-e5c9dd7af9e4"},"vehicle_type_id":"4","last_reported":1729444110,"current_range_meters":2800,"station_id":"ce4bh412rcd13ifvqds0","pricing_plan_id":"cebpf4jnsgd1na2vs0mg"},{"bike_id":"f2cf55f4-aa83-4a41-8c86-05d88bb3727e","system_id":"levelo_inurba_marseille","lat":43.3113,"lon":5.37752,"is_reserved":false,"is_disabled":false,"rental_uris":{"android":"levelo://app?vid=f2cf55f4-aa83-4a41-8c86-05d88bb3727e","ios":"levelo://app?vid=f2cf55f4-aa83-4a41-8c86-05d88bb3727e"},"vehicle_type_id":"4","last_reported":1729444110,"current_range_meters":22400,"station_id":"ce4bgt92rcd13ifvqcg0","pricing_plan_id":"cebpf4jnsgd1na2vs0mg"},{"bike_id":"6c45c237-6c77-4b86-b140-e5882609c7ef","system_id":"levelo_inurba_marseille","lat":43.27805,"lon":5.40712,"is_reserved":false,"is_disabled":false,"rental_uris":{"android":"levelo://app?vid=6c45c237-6c77-4b86-b140-e5882609c7ef","ios":"levelo://app?vid=6c45c237-6c77-4b86-b140-e5882609c7ef"},"vehicle_type_id":"4","last_reported":1729444110,"current_range_meters":20400,"station_id":"ce4bhnh2rcd13ifvqgtg","pricing_plan_id":"cebpf4jnsgd1na2vs0mg"},{"bike_id":"e2db4f2c-1898-4641-83a3-ba2aae1ffc5d","system_id":"levelo_inurba_marseille","lat":43.29788,"lon":5.39328,"is_reserved":false,"is_disabled":false,"rental_uris":{"android":"levelo://app?vid=e2db4f2c-1898-4641-83a3-ba2aae1ffc5d","ios":"levelo://app?vid=e2db4f2c-1898-4641-83a3-ba2aae1ffc5d"},"vehicle_type_id":"4","last_reported":1729444110,"current_range_meters":9200,"station_id":"chh1huq6cuj3fo74tm60","pricing_plan_id":"cebpf4jnsgd1na2vs0mg"},{"bike_id":"b453e957-4bee-4d7b-9617-ca1b3e7e4873","system_id":"levelo_inurba_marseille","lat":43.31662,"lon":5.38845,"is_reserved":false,"is_disabled":false,"rental_uris":{"android":"levelo://app?vid=b453e957-4bee-4d7b-9617-ca1b3e7e4873","ios":"levelo://app?vid=b453e957-4bee-4d7b-9617-ca1b3e7e4873"},"vehicle_type_id":"4","last_reported":1729444110,"current_range_meters":14400,"station_id":"","pricing_plan_id":"cebpf4jnsgd1na2vs0mg"},{"bike_id":"7446ed18-4f1e-4da3-bd84-ce586ce95054","system_id":"levelo_inurba_marseille","lat":43.2603,"lon":5.37553,"is_reserved":false,"is_disabled":false,"rental_uris":{"android":"levelo://app?vid=7446ed18-4f1e-4da3-bd84-ce586ce95054","ios":"levelo://app?vid=7446ed18-4f1e-4da3-bd84-ce586ce95054"},"vehicle_type_id":"4","last_reported":1729444110,"current_range_meters":38800,"station_id":"ce4bhgh2rcd13ifvqfa0","pricing_plan_id":"cebpf4jnsgd1na2vs0mg"},{"bike_id":"9d191cdd-f5ef-47d6-9c69-ee202a0c92e4","system_id":"levelo_inurba_marseille","lat":43.25821,"lon":5.39429,"is_reserved":false,"is_disabled":false,"rental_uris":{"android":"levelo://app?vid=9d191cdd-f5ef-47d6-9c69-ee202a0c92e4","ios":"levelo://app?vid=9d191cdd-f5ef-47d6-9c69-ee202a0c92e4"},"vehicle_type_id":"4","last_reported":1729444110,"current_range_meters":18000,"station_id":"ce4bhip2rcd13ifvqft0","pricing_plan_id":"cebpf4jnsgd1na2vs0mg"},{"bike_id":"7a6ba3d7-846e-45d3-92b4-25ce5cda8a53","system_id":"levelo_inurba_marseille","lat":43.33721,"lon":5.39188,"is_reserved":false,"is_disabled":false,"rental_uris":{"android":"levelo://app?vid=7a6ba3d7-846e-45d3-92b4-25ce5cda8a53","ios":"levelo://app?vid=7a6ba3d7-846e-45d3-92b4-25ce5cda8a53"},"vehicle_type_id":"4","last_reported":1729444110,"current_range_meters":11200,"station_id":"ce4bhr92rcd13ifvqhsg","pricing_plan_id":"cebpf4jnsgd1na2vs0mg"},{"bike_id":"d0cd3321-1682-4834-924a-12ab4bee065f","system_id":"levelo_inurba_marseille","lat":43.31545,"lon":5.38949,"is_reserved":false,"is_disabled":false,"rental_uris":{"android":"levelo://app?vid=d0cd3321-1682-4834-924a-12ab4bee065f","ios":"levelo://app?vid=d0cd3321-1682-4834-924a-12ab4bee065f"},"vehicle_type_id":"4","last_reported":1729444110,"current_range_meters":27600,"station_id":"","pricing_plan_id":"cebpf4jnsgd1na2vs0mg"},{"bike_id":"725f45e5-8fe1-4e30-8466-ac97f9f7ecc0","system_id":"levelo_inurba_marseille","lat":43.23961,"lon":5.36636,"is_reserved":false,"is_disabled":false,"rental_uris":{"android":"levelo://app?vid=725f45e5-8fe1-4e30-8466-ac97f9f7ecc0","ios":"levelo://app?vid=725f45e5-8fe1-4e30-8466-ac97f9f7ecc0"},"vehicle_type_id":"4","last_reported":1729444110,"current_range_meters":28000,"station_id":"ce4bhi12rcd13ifvqfp0","pricing_plan_id":"cebpf4jnsgd1na2vs0mg"},{"bike_id":"6220e92b-cae6-40de-a44a-8beee26ed025","system_id":"levelo_inurba_marseille","lat":43.336052,"lon":5.410338,"is_reserved":false,"is_disabled":false,"rental_uris":{"android":"levelo://app?vid=6220e92b-cae6-40de-a44a-8beee26ed025","ios":"levelo://app?vid=6220e92b-cae6-40de-a44a-8beee26ed025"},"vehicle_type_id":"4","last_reported":1729444110,"current_range_meters":8800,"station_id":"ce4bhqh2rcd13ifvqhmg","pricing_plan_id":"cebpf4jnsgd1na2vs0mg"},{"bike_id":"474ccd54-d884-4c48-ac27-1f7190ae4438","system_id":"levelo_inurba_marseille","lat":43.33655,"lon":5.39214,"is_reserved":false,"is_disabled":false,"rental_uris":{"android":"levelo://app?vid=474ccd54-d884-4c48-ac27-1f7190ae4438","ios":"levelo://app?vid=474ccd54-d884-4c48-ac27-1f7190ae4438"},"vehicle_type_id":"4","last_reported":1729444110,"current_range_meters":6400,"station_id":"","pricing_plan_id":"cebpf4jnsgd1na2vs0mg"},{"bike_id":"18c5e602-07df-4ebf-92ed-ad2554f8e3ba","system_id":"levelo_inurba_marseille","lat":43.25001,"lon":5.38929,"is_reserved":false,"is_disabled":false,"rental_uris":{"android":"levelo://app?vid=18c5e602-07df-4ebf-92ed-ad2554f8e3ba","ios":"levelo://app?vid=18c5e602-07df-4ebf-92ed-ad2554f8e3ba"},"vehicle_type_id":"4","last_reported":1729444110,"current_range_meters":15200,"station_id":"ce4bhgp2rcd13ifvqfd0","pricing_plan_id":"cebpf4jnsgd1na2vs0mg"},{"bike_id":"292bd984-b8df-4870-a92d-54a03b0afb56","system_id":"levelo_inurba_marseille","lat":43.3025,"lon":5.40077,"is_reserved":false,"is_disabled":false,"rental_uris":{"android":"levelo://app?vid=292bd984-b8df-4870-a92d-54a03b0afb56","ios":"levelo://app?vid=292bd984-b8df-4870-a92d-54a03b0afb56"},"vehicle_type_id":"4","last_reported":1729444110,"current_range_meters":38800,"station_id":"ce4bgvh2rcd13ifvqcs0","pricing_plan_id":"cebpf4jnsgd1na2vs0mg"},{"bike_id":"27eea6ef-d209-4b4c-9c0d-050b076a96ca","system_id":"levelo_inurba_marseille","lat":43.29037,"lon":5.39977,"is_reserved":false,"is_disabled":false,"rental_uris":{"android":"levelo://app?vid=27eea6ef-d209-4b4c-9c0d-050b076a96ca","ios":"levelo://app?vid=27eea6ef-d209-4b4c-9c0d-050b076a96ca"},"vehicle_type_id":"4","last_reported":1729444110,"current_range_meters":9600,"station_id":"ce4bh392rcd13ifvqdm0","pricing_plan_id":"cebpf4jnsgd1na2vs0mg"},{"bike_id":"87ca1756-39e2-4d75-9ae0-8cfb2f3595df","system_id":"levelo_inurba_marseille","lat":43.294,"lon":5.39662,"is_reserved":false,"is_disabled":false,"rental_uris":{"android":"levelo://app?vid=87ca1756-39e2-4d75-9ae0-8cfb2f3595df","ios":"levelo://app?vid=87ca1756-39e2-4d75-9ae0-8cfb2f3595df"},"vehicle_type_id":"4","last_reported":1729444110,"current_range_meters":17600,"station_id":"","pricing_plan_id":"cebpf4jnsgd1na2vs0mg"},{"bike_id":"30edceef-9b8c-484e-b89c-7f07100fd25b","system_id":"levelo_inurba_marseille","lat":43.32379,"lon":5.38922,"is_reserved":false,"is_disabled":false,"rental_uris":{"android":"levelo://app?vid=30edceef-9b8c-484e-b89c-7f07100fd25b","ios":"levelo://app?vid=30edceef-9b8c-484e-b89c-7f07100fd25b"},"vehicle_type_id":"4","last_reported":1729444110,"current_range_meters":16000,"station_id":"ce4bhqp2rcd13ifvqhog","pricing_plan_id":"cebpf4jnsgd1na2vs0mg"},{"bike_id":"5b47cbfd-3740-4a35-b9bd-478cf093a87d","system_id":"levelo_inurba_marseille","lat":43.23952,"lon":5.36632,"is_reserved":false,"is_disabled":false,"rental_uris":{"android":"levelo://app?vid=5b47cbfd-3740-4a35-b9bd-478cf093a87d","ios":"levelo://app?vid=5b47cbfd-3740-4a35-b9bd-478cf093a87d"},"vehicle_type_id":"4","last_reported":1729444110,"current_range_meters":27200,"station_id":"ce4bhi12rcd13ifvqfp0","pricing_plan_id":"cebpf4jnsgd1na2vs0mg"},{"bike_id":"ab25e50e-031e-49b2-92c3-bc31c1e4e638","system_id":"levelo_inurba_marseille","lat":43.27982,"lon":5.41677,"is_reserved":false,"is_disabled":false,"rental_uris":{"android":"levelo://app?vid=ab25e50e-031e-49b2-92c3-bc31c1e4e638","ios":"levelo://app?vid=ab25e50e-031e-49b2-92c3-bc31c1e4e638"},"vehicle_type_id":"4","last_reported":1729444110,"current_range_meters":8000,"station_id":"ce4bho12rcd13ifvqh1g","pricing_plan_id":"cebpf4jnsgd1na2vs0mg"},{"bike_id":"57dd0012-e7c2-43e3-90a1-087125ac63fa","system_id":"levelo_inurba_marseille","lat":43.33753,"lon":5.37454,"is_reserved":false,"is_disabled":false,"rental_uris":{"android":"levelo://app?vid=57dd0012-e7c2-43e3-90a1-087125ac63fa","ios":"levelo://app?vid=57dd0012-e7c2-43e3-90a1-087125ac63fa"},"vehicle_type_id":"4","last_reported":1729444110,"current_range_meters":34000,"station_id":"","pricing_plan_id":"cebpf4jnsgd1na2vs0mg"},{"bike_id":"ba886e33-f85d-40d2-96a7-654304d73eff","system_id":"levelo_inurba_marseille","lat":43.297,"lon":5.37652,"is_reserved":false,"is_disabled":false,"rental_uris":{"android":"levelo://app?vid=ba886e33-f85d-40d2-96a7-654304d73eff","ios":"levelo://app?vid=ba886e33-f85d-40d2-96a7-654304d73eff"},"vehicle_type_id":"4","last_reported":1729444110,"current_range_meters":38800,"station_id":"ce4bgkh2rcd13ifvqbl0","pricing_plan_id":"cebpf4jnsgd1na2vs0mg"},{"bike_id":"8487e817-4222-41d1-a662-393eeba32830","system_id":"levelo_inurba_marseille","lat":43.30879,"lon":5.39648,"is_reserved":false,"is_disabled":false,"rental_uris":{"android":"levelo://app?vid=8487e817-4222-41d1-a662-393eeba32830","ios":"levelo://app?vid=8487e817-4222-41d1-a662-393eeba32830"},"vehicle_type_id":"4","last_reported":1729444110,"current_range_meters":4800,"station_id":"ce4bh012rcd13ifvqcv0","pricing_plan_id":"cebpf4jnsgd1na2vs0mg"},{"bike_id":"d401a8aa-582c-4aa3-bb5c-ece369e9588d","system_id":"levelo_inurba_marseille","lat":43.28855,"lon":5.3931,"is_reserved":false,"is_disabled":false,"rental_uris":{"android":"levelo://app?vid=d401a8aa-582c-4aa3-bb5c-ece369e9588d","ios":"levelo://app?vid=d401a8aa-582c-4aa3-bb5c-ece369e9588d"},"vehicle_type_id":"4","last_reported":1729444110,"current_range_meters":7200,"station_id":"ce4bh2p2rcd13ifvqdi0","pricing_plan_id":"cebpf4jnsgd1na2vs0mg"},{"bike_id":"25f91457-440e-47f9-92ed-6acee8b789b7","system_id":"levelo_inurba_marseille","lat":43.32379,"lon":5.38914,"is_reserved":false,"is_disabled":false,"rental_uris":{"android":"levelo://app?vid=25f91457-440e-47f9-92ed-6acee8b789b7","ios":"levelo://app?vid=25f91457-440e-47f9-92ed-6acee8b789b7"},"vehicle_type_id":"4","last_reported":1729444110,"current_range_meters":28800,"station_id":"ce4bhqp2rcd13ifvqhog","pricing_plan_id":"cebpf4jnsgd1na2vs0mg"},{"bike_id":"eea5570f-1fe1-4c9d-a58f-70cee264bbfc","system_id":"levelo_inurba_marseille","lat":43.310944,"lon":5.376253,"is_reserved":false,"is_disabled":false,"rental_uris":{"android":"levelo://app?vid=eea5570f-1fe1-4c9d-a58f-70cee264bbfc","ios":"levelo://app?vid=eea5570f-1fe1-4c9d-a58f-70cee264bbfc"},"vehicle_type_id":"4","last_reported":1729444110,"current_range_meters":23200,"station_id":"ce4bgt92rcd13ifvqcg0","pricing_plan_id":"cebpf4jnsgd1na2vs0mg"},{"bike_id":"cd0dce23-200f-416c-916b-7be9d153fea3","system_id":"levelo_inurba_marseille","lat":43.26064,"lon":5.38558,"is_reserved":false,"is_disabled":false,"rental_uris":{"android":"levelo://app?vid=cd0dce23-200f-416c-916b-7be9d153fea3","ios":"levelo://app?vid=cd0dce23-200f-416c-916b-7be9d153fea3"},"vehicle_type_id":"4","last_reported":1729444110,"current_range_meters":19200,"station_id":"","pricing_plan_id":"cebpf4jnsgd1na2vs0mg"},{"bike_id":"ec1b1065-52a5-4d6f-b848-fae0e0631251","system_id":"levelo_inurba_marseille","lat":43.31068,"lon":5.42332,"is_reserved":false,"is_disabled":false,"rental_uris":{"android":"levelo://app?vid=ec1b1065-52a5-4d6f-b848-fae0e0631251","ios":"levelo://app?vid=ec1b1065-52a5-4d6f-b848-fae0e0631251"},"vehicle_type_id":"4","last_reported":1729444110,"current_range_meters":16400,"station_id":"ce4bhp92rcd13ifvqhag","pricing_plan_id":"cebpf4jnsgd1na2vs0mg"},{"bike_id":"c052e5f3-0f87-4988-9be5-74b491b82108","system_id":"levelo_inurba_marseille","lat":43.32475,"lon":5.36574,"is_reserved":false,"is_disabled":false,"rental_uris":{"android":"levelo://app?vid=c052e5f3-0f87-4988-9be5-74b491b82108","ios":"levelo://app?vid=c052e5f3-0f87-4988-9be5-74b491b82108"},"vehicle_type_id":"4","last_reported":1729444110,"current_range_meters":38800,"station_id":"ce4bhs12rcd13ifvqhvg","pricing_plan_id":"cebpf4jnsgd1na2vs0mg"},{"bike_id":"5c556854-4f5f-4f7d-8a13-6ccb11de8085","system_id":"levelo_inurba_marseille","lat":43.29521,"lon":5.39409,"is_reserved":false,"is_disabled":false,"rental_uris":{"android":"levelo://app?vid=5c556854-4f5f-4f7d-8a13-6ccb11de8085","ios":"levelo://app?vid=5c556854-4f5f-4f7d-8a13-6ccb11de8085"},"vehicle_type_id":"4","last_reported":1729444110,"current_range_meters":12800,"station_id":"ce4bh292rcd13ifvqdf0","pricing_plan_id":"cebpf4jnsgd1na2vs0mg"},{"bike_id":"08b1c4d3-cf88-48ea-9c58-cf2a6a1f3cdd","system_id":"levelo_inurba_marseille","lat":43.29023,"lon":5.38655,"is_reserved":false,"is_disabled":false,"rental_uris":{"android":"levelo://app?vid=08b1c4d3-cf88-48ea-9c58-cf2a6a1f3cdd","ios":"levelo://app?vid=08b1c4d3-cf88-48ea-9c58-cf2a6a1f3cdd"},"vehicle_type_id":"4","last_reported":1729444110,"current_range_meters":3600,"station_id":"ce4bh4p2rcd13ifvqe0g","pricing_plan_id":"cebpf4jnsgd1na2vs0mg"},{"bike_id":"ebb841c2-03fd-419e-b682-3ee1f54ef1e2","system_id":"levelo_inurba_marseille","lat":43.29217,"lon":5.40112,"is_reserved":false,"is_disabled":false,"rental_uris":{"android":"levelo://app?vid=ebb841c2-03fd-419e-b682-3ee1f54ef1e2","ios":"levelo://app?vid=ebb841c2-03fd-419e-b682-3ee1f54ef1e2"},"vehicle_type_id":"4","last_reported":1729444110,"current_range_meters":37600,"station_id":"ce4bh3h2rcd13ifvqdo0","pricing_plan_id":"cebpf4jnsgd1na2vs0mg"},{"bike_id":"2cf369a8-d529-458a-be41-396061c4a3e1","system_id":"levelo_inurba_marseille","lat":43.235687,"lon":5.361368,"is_reserved":false,"is_disabled":false,"rental_uris":{"android":"levelo://app?vid=2cf369a8-d529-458a-be41-396061c4a3e1","ios":"levelo://app?vid=2cf369a8-d529-458a-be41-396061c4a3e1"},"vehicle_type_id":"4","last_reported":1729444110,"current_range_meters":32000,"station_id":"ce4bh512rcd13ifvqe3g","pricing_plan_id":"cebpf4jnsgd1na2vs0mg"},{"bike_id":"43d24770-4ece-4a77-a029-fe46e9bde13b","system_id":"levelo_inurba_marseille","lat":43.31572,"lon":5.37428,"is_reserved":false,"is_disabled":false,"rental_uris":{"android":"levelo://app?vid=43d24770-4ece-4a77-a029-fe46e9bde13b","ios":"levelo://app?vid=43d24770-4ece-4a77-a029-fe46e9bde13b"},"vehicle_type_id":"4","last_reported":1729444110,"current_range_meters":36000,"station_id":"","pricing_plan_id":"cebpf4jnsgd1na2vs0mg"},{"bike_id":"766da900-471d-42f5-8cfa-8db494f945d7","system_id":"levelo_inurba_marseille","lat":43.28915,"lon":5.46052,"is_reserved":false,"is_disabled":false,"rental_uris":{"android":"levelo://app?vid=766da900-471d-42f5-8cfa-8db494f945d7","ios":"levelo://app?vid=766da900-471d-42f5-8cfa-8db494f945d7"},"vehicle_type_id":"4","last_reported":1729444110,"current_range_meters":24400,"station_id":"","pricing_plan_id":"cebpf4jnsgd1na2vs0mg"},{"bike_id":"75cbedd4-f0fc-4eb0-be33-3e6a873e2eae","system_id":"levelo_inurba_marseille","lat":43.28698,"lon":5.37391,"is_reserved":false,"is_disabled":false,"rental_uris":{"android":"levelo://app?vid=75cbedd4-f0fc-4eb0-be33-3e6a873e2eae","ios":"levelo://app?vid=75cbedd4-f0fc-4eb0-be33-3e6a873e2eae"},"vehicle_type_id":"4","last_reported":1729444110,"current_range_meters":16800,"station_id":"ce4bh3p2rcd13ifvqdq0","pricing_plan_id":"cebpf4jnsgd1na2vs0mg"},{"bike_id":"05af91a9-40af-492e-8ee5-76801bfc4b0a","system_id":"levelo_inurba_marseille","lat":43.25088,"lon":5.39528,"is_reserved":false,"is_disabled":false,"rental_uris":{"android":"levelo://app?vid=05af91a9-40af-492e-8ee5-76801bfc4b0a","ios":"levelo://app?vid=05af91a9-40af-492e-8ee5-76801bfc4b0a"},"vehicle_type_id":"4","last_reported":1729444110,"current_range_meters":22800,"station_id":"ce4bhm12rcd13ifvqgkg","pricing_plan_id":"cebpf4jnsgd1na2vs0mg"},{"bike_id":"9ac45bbc-3cc2-4c6c-bb4a-435e3c12b994","system_id":"levelo_inurba_marseille","lat":43.2926,"lon":5.40902,"is_reserved":false,"is_disabled":false,"rental_uris":{"android":"levelo://app?vid=9ac45bbc-3cc2-4c6c-bb4a-435e3c12b994","ios":"levelo://app?vid=9ac45bbc-3cc2-4c6c-bb4a-435e3c12b994"},"vehicle_type_id":"4","last_reported":1729444110,"current_range_meters":36800,"station_id":"ce4bh192rcd13ifvqdc0","pricing_plan_id":"cebpf4jnsgd1na2vs0mg"},{"bike_id":"e827f4e2-fd12-42dc-a563-847fb13eba90","system_id":"levelo_inurba_marseille","lat":43.293664,"lon":5.378356,"is_reserved":false,"is_disabled":false,"rental_uris":{"android":"levelo://app?vid=e827f4e2-fd12-42dc-a563-847fb13eba90","ios":"levelo://app?vid=e827f4e2-fd12-42dc-a563-847fb13eba90"},"vehicle_type_id":"4","last_reported":1729444110,"current_range_meters":6800,"station_id":"ce4bgjh2rcd13ifvqbf0","pricing_plan_id":"cebpf4jnsgd1na2vs0mg"},{"bike_id":"546657d3-4325-4c97-9678-51130294ceaf","system_id":"levelo_inurba_marseille","lat":43.30082,"lon":5.39088,"is_reserved":false,"is_disabled":false,"rental_uris":{"android":"levelo://app?vid=546657d3-4325-4c97-9678-51130294ceaf","ios":"levelo://app?vid=546657d3-4325-4c97-9678-51130294ceaf"},"vehicle_type_id":"4","last_reported":1729444110,"current_range_meters":7200,"station_id":"ce4bh192rcd13ifvqdb0","pricing_plan_id":"cebpf4jnsgd1na2vs0mg"},{"bike_id":"7772d39f-5e28-445c-af91-069b0cf63793","system_id":"levelo_inurba_marseille","lat":43.33765,"lon":5.37438,"is_reserved":false,"is_disabled":false,"rental_uris":{"android":"levelo://app?vid=7772d39f-5e28-445c-af91-069b0cf63793","ios":"levelo://app?vid=7772d39f-5e28-445c-af91-069b0cf63793"},"vehicle_type_id":"4","last_reported":1729444110,"current_range_meters":3600,"station_id":"","pricing_plan_id":"cebpf4jnsgd1na2vs0mg"},{"bike_id":"3213665e-989c-4d22-9f5a-31c8522597dd","system_id":"levelo_inurba_marseille","lat":43.296,"lon":5.36142,"is_reserved":false,"is_disabled":false,"rental_uris":{"android":"levelo://app?vid=3213665e-989c-4d22-9f5a-31c8522597dd","ios":"levelo://app?vid=3213665e-989c-4d22-9f5a-31c8522597dd"},"vehicle_type_id":"4","last_reported":1729444110,"current_range_meters":14000,"station_id":"","pricing_plan_id":"cebpf4jnsgd1na2vs0mg"},{"bike_id":"ec34984b-09bd-45d0-9256-b20176829d4d","system_id":"levelo_inurba_marseille","lat":43.29264,"lon":5.40893,"is_reserved":false,"is_disabled":false,"rental_uris":{"android":"levelo://app?vid=ec34984b-09bd-45d0-9256-b20176829d4d","ios":"levelo://app?vid=ec34984b-09bd-45d0-9256-b20176829d4d"},"vehicle_type_id":"4","last_reported":1729444110,"current_range_meters":9200,"station_id":"ce4bh192rcd13ifvqdc0","pricing_plan_id":"cebpf4jnsgd1na2vs0mg"},{"bike_id":"744232a4-1b05-4caf-9f63-e5ce393cd685","system_id":"levelo_inurba_marseille","lat":43.296754,"lon":5.376918,"is_reserved":false,"is_disabled":false,"rental_uris":{"android":"levelo://app?vid=744232a4-1b05-4caf-9f63-e5ce393cd685","ios":"levelo://app?vid=744232a4-1b05-4caf-9f63-e5ce393cd685"},"vehicle_type_id":"4","last_reported":1729444110,"current_range_meters":10800,"station_id":"ce4bgkh2rcd13ifvqbl0","pricing_plan_id":"cebpf4jnsgd1na2vs0mg"},{"bike_id":"9a2117f0-c5b0-4dc2-891b-026a24af23f1","system_id":"levelo_inurba_marseille","lat":43.3105,"lon":5.40092,"is_reserved":false,"is_disabled":false,"rental_uris":{"android":"levelo://app?vid=9a2117f0-c5b0-4dc2-891b-026a24af23f1","ios":"levelo://app?vid=9a2117f0-c5b0-4dc2-891b-026a24af23f1"},"vehicle_type_id":"4","last_reported":1729444110,"current_range_meters":34800,"station_id":"","pricing_plan_id":"cebpf4jnsgd1na2vs0mg"},{"bike_id":"381e893c-0a3b-475b-853a-a76c4e698289","system_id":"levelo_inurba_marseille","lat":43.25489,"lon":5.37647,"is_reserved":false,"is_disabled":false,"rental_uris":{"android":"levelo://app?vid=381e893c-0a3b-475b-853a-a76c4e698289","ios":"levelo://app?vid=381e893c-0a3b-475b-853a-a76c4e698289"},"vehicle_type_id":"4","last_reported":1729444110,"current_range_meters":33600,"station_id":"ce4bhh12rcd13ifvqff0","pricing_plan_id":"cebpf4jnsgd1na2vs0mg"},{"bike_id":"9699d475-988e-4872-92a3-80233b0c79da","system_id":"levelo_inurba_marseille","lat":43.24078,"lon":5.37755,"is_reserved":false,"is_disabled":false,"rental_uris":{"android":"levelo://app?vid=9699d475-988e-4872-92a3-80233b0c79da","ios":"levelo://app?vid=9699d475-988e-4872-92a3-80233b0c79da"},"vehicle_type_id":"4","last_reported":1729444110,"current_range_meters":30000,"station_id":"ce4bhnp2rcd13ifvqgvg","pricing_plan_id":"cebpf4jnsgd1na2vs0mg"},{"bike_id":"3157082d-783f-4b3e-afdd-46f9e5f20c59","system_id":"levelo_inurba_marseille","lat":43.28698,"lon":5.37385,"is_reserved":false,"is_disabled":false,"rental_uris":{"android":"levelo://app?vid=3157082d-783f-4b3e-afdd-46f9e5f20c59","ios":"levelo://app?vid=3157082d-783f-4b3e-afdd-46f9e5f20c59"},"vehicle_type_id":"4","last_reported":1729444110,"current_range_meters":3200,"station_id":"ce4bh3p2rcd13ifvqdq0","pricing_plan_id":"cebpf4jnsgd1na2vs0mg"},{"bike_id":"e1c5e2eb-c736-412a-afb9-ddba14cc76a4","system_id":"levelo_inurba_marseille","lat":43.31219,"lon":5.36853,"is_reserved":false,"is_disabled":false,"rental_uris":{"android":"levelo://app?vid=e1c5e2eb-c736-412a-afb9-ddba14cc76a4","ios":"levelo://app?vid=e1c5e2eb-c736-412a-afb9-ddba14cc76a4"},"vehicle_type_id":"4","last_reported":1729444110,"current_range_meters":19600,"station_id":"ce4bgl92rcd13ifvqbq0","pricing_plan_id":"cebpf4jnsgd1na2vs0mg"},{"bike_id":"fac9a3a2-2dd0-4efd-afd6-73cc4f4edd9a","system_id":"levelo_inurba_marseille","lat":43.24813,"lon":5.37456,"is_reserved":false,"is_disabled":false,"rental_uris":{"android":"levelo://app?vid=fac9a3a2-2dd0-4efd-afd6-73cc4f4edd9a","ios":"levelo://app?vid=fac9a3a2-2dd0-4efd-afd6-73cc4f4edd9a"},"vehicle_type_id":"4","last_reported":1729444110,"current_range_meters":36400,"station_id":"ce4bhgh2rcd13ifvqfb0","pricing_plan_id":"cebpf4jnsgd1na2vs0mg"},{"bike_id":"fc7eabb6-6a84-46fd-acb9-8a1ac1403ed8","system_id":"levelo_inurba_marseille","lat":43.33022,"lon":5.39043,"is_reserved":false,"is_disabled":false,"rental_uris":{"android":"levelo://app?vid=fc7eabb6-6a84-46fd-acb9-8a1ac1403ed8","ios":"levelo://app?vid=fc7eabb6-6a84-46fd-acb9-8a1ac1403ed8"},"vehicle_type_id":"4","last_reported":1729444110,"current_range_meters":3200,"station_id":"ce4bhr92rcd13ifvqhrg","pricing_plan_id":"cebpf4jnsgd1na2vs0mg"},{"bike_id":"c0f02d13-9f06-4e45-8d0d-3ed88424743d","system_id":"levelo_inurba_marseille","lat":43.26186,"lon":5.37458,"is_reserved":false,"is_disabled":false,"rental_uris":{"android":"levelo://app?vid=c0f02d13-9f06-4e45-8d0d-3ed88424743d","ios":"levelo://app?vid=c0f02d13-9f06-4e45-8d0d-3ed88424743d"},"vehicle_type_id":"4","last_reported":1729444110,"current_range_meters":36800,"station_id":"ce4bhgp2rcd13ifvqfc0","pricing_plan_id":"cebpf4jnsgd1na2vs0mg"},{"bike_id":"7bdb739f-ae9e-44e8-8549-168d477d16fe","system_id":"levelo_inurba_marseille","lat":43.30134,"lon":5.39868,"is_reserved":false,"is_disabled":false,"rental_uris":{"android":"levelo://app?vid=7bdb739f-ae9e-44e8-8549-168d477d16fe","ios":"levelo://app?vid=7bdb739f-ae9e-44e8-8549-168d477d16fe"},"vehicle_type_id":"4","last_reported":1729444110,"current_range_meters":3200,"station_id":"ce4bh0h2rcd13ifvqd40","pricing_plan_id":"cebpf4jnsgd1na2vs0mg"},{"bike_id":"fb8cede0-5f49-49e1-aaf1-f97f7864fb33","system_id":"levelo_inurba_marseille","lat":43.32619,"lon":5.38893,"is_reserved":false,"is_disabled":false,"rental_uris":{"android":"levelo://app?vid=fb8cede0-5f49-49e1-aaf1-f97f7864fb33","ios":"levelo://app?vid=fb8cede0-5f49-49e1-aaf1-f97f7864fb33"},"vehicle_type_id":"4","last_reported":1729444110,"current_range_meters":32800,"station_id":"","pricing_plan_id":"cebpf4jnsgd1na2vs0mg"},{"bike_id":"a8604ea8-62b3-4447-892c-22b20c863e24","system_id":"levelo_inurba_marseille","lat":43.3059,"lon":5.39345,"is_reserved":false,"is_disabled":false,"rental_uris":{"android":"levelo://app?vid=a8604ea8-62b3-4447-892c-22b20c863e24","ios":"levelo://app?vid=a8604ea8-62b3-4447-892c-22b20c863e24"},"vehicle_type_id":"4","last_reported":1729444110,"current_range_meters":8800,"station_id":"ce4bh0p2rcd13ifvqd80","pricing_plan_id":"cebpf4jnsgd1na2vs0mg"},{"bike_id":"bf35eb80-26f9-40fa-8679-a947b086492c","system_id":"levelo_inurba_marseille","lat":43.29036,"lon":5.3863,"is_reserved":false,"is_disabled":false,"rental_uris":{"android":"levelo://app?vid=bf35eb80-26f9-40fa-8679-a947b086492c","ios":"levelo://app?vid=bf35eb80-26f9-40fa-8679-a947b086492c"},"vehicle_type_id":"4","last_reported":1729444110,"current_range_meters":6400,"station_id":"ce4bh4p2rcd13ifvqe0g","pricing_plan_id":"cebpf4jnsgd1na2vs0mg"},{"bike_id":"4cf3e5d8-4f9a-4007-b965-622ecd99339e","system_id":"levelo_inurba_marseille","lat":43.31074,"lon":5.40085,"is_reserved":false,"is_disabled":false,"rental_uris":{"android":"levelo://app?vid=4cf3e5d8-4f9a-4007-b965-622ecd99339e","ios":"levelo://app?vid=4cf3e5d8-4f9a-4007-b965-622ecd99339e"},"vehicle_type_id":"4","last_reported":1729444110,"current_range_meters":8000,"station_id":"","pricing_plan_id":"cebpf4jnsgd1na2vs0mg"},{"bike_id":"81ca52a3-f444-4738-9593-619bb0026634","system_id":"levelo_inurba_marseille","lat":43.287,"lon":5.39983,"is_reserved":false,"is_disabled":false,"rental_uris":{"android":"levelo://app?vid=81ca52a3-f444-4738-9593-619bb0026634","ios":"levelo://app?vid=81ca52a3-f444-4738-9593-619bb0026634"},"vehicle_type_id":"4","last_reported":1729444110,"current_range_meters":8800,"station_id":"ce4bho92rcd13ifvqh3g","pricing_plan_id":"cebpf4jnsgd1na2vs0mg"},{"bike_id":"1325c785-9661-47ed-b001-00c57b6259f9","system_id":"levelo_inurba_marseille","lat":43.30931,"lon":5.401397,"is_reserved":false,"is_disabled":false,"rental_uris":{"android":"levelo://app?vid=1325c785-9661-47ed-b001-00c57b6259f9","ios":"levelo://app?vid=1325c785-9661-47ed-b001-00c57b6259f9"},"vehicle_type_id":"4","last_reported":1729444110,"current_range_meters":24800,"station_id":"ce4bh2h2rcd13ifvqdh0","pricing_plan_id":"cebpf4jnsgd1na2vs0mg"},{"bike_id":"524a7e66-fa78-46df-89cc-9e5da393e331","system_id":"levelo_inurba_marseille","lat":43.30636,"lon":5.40072,"is_reserved":false,"is_disabled":false,"rental_uris":{"android":"levelo://app?vid=524a7e66-fa78-46df-89cc-9e5da393e331","ios":"levelo://app?vid=524a7e66-fa78-46df-89cc-9e5da393e331"},"vehicle_type_id":"4","last_reported":1729444110,"current_range_meters":8000,"station_id":"ce4bh112rcd13ifvqda0","pricing_plan_id":"cebpf4jnsgd1na2vs0mg"},{"bike_id":"87c97114-5ea8-45ff-aed4-b1e7b1ef9580","system_id":"levelo_inurba_marseille","lat":43.30306,"lon":5.36889,"is_reserved":false,"is_disabled":false,"rental_uris":{"android":"levelo://app?vid=87c97114-5ea8-45ff-aed4-b1e7b1ef9580","ios":"levelo://app?vid=87c97114-5ea8-45ff-aed4-b1e7b1ef9580"},"vehicle_type_id":"4","last_reported":1729444110,"current_range_meters":25600,"station_id":"ce4bgqh2rcd13ifvqc5g","pricing_plan_id":"cebpf4jnsgd1na2vs0mg"},{"bike_id":"6b578d3c-d134-48e2-9662-c2d97d97ea58","system_id":"levelo_inurba_marseille","lat":43.31999,"lon":5.38168,"is_reserved":false,"is_disabled":false,"rental_uris":{"android":"levelo://app?vid=6b578d3c-d134-48e2-9662-c2d97d97ea58","ios":"levelo://app?vid=6b578d3c-d134-48e2-9662-c2d97d97ea58"},"vehicle_type_id":"4","last_reported":1729444110,"current_range_meters":38000,"station_id":"ce4bhr12rcd13ifvqhpg","pricing_plan_id":"cebpf4jnsgd1na2vs0mg"},{"bike_id":"6a00f9c2-511c-44e1-9077-a902516d7ac7","system_id":"levelo_inurba_marseille","lat":43.26888,"lon":5.3884,"is_reserved":false,"is_disabled":false,"rental_uris":{"android":"levelo://app?vid=6a00f9c2-511c-44e1-9077-a902516d7ac7","ios":"levelo://app?vid=6a00f9c2-511c-44e1-9077-a902516d7ac7"},"vehicle_type_id":"4","last_reported":1729444110,"current_range_meters":3200,"station_id":"","pricing_plan_id":"cebpf4jnsgd1na2vs0mg"},{"bike_id":"3fc5456e-0db1-4b62-a037-567113822e65","system_id":"levelo_inurba_marseille","lat":43.29785,"lon":5.39342,"is_reserved":false,"is_disabled":false,"rental_uris":{"android":"levelo://app?vid=3fc5456e-0db1-4b62-a037-567113822e65","ios":"levelo://app?vid=3fc5456e-0db1-4b62-a037-567113822e65"},"vehicle_type_id":"4","last_reported":1729444110,"current_range_meters":27200,"station_id":"chh1huq6cuj3fo74tm60","pricing_plan_id":"cebpf4jnsgd1na2vs0mg"},{"bike_id":"f3b18d4c-688e-4e02-9104-7f1d559134af","system_id":"levelo_inurba_marseille","lat":43.32107,"lon":5.36773,"is_reserved":false,"is_disabled":false,"rental_uris":{"android":"levelo://app?vid=f3b18d4c-688e-4e02-9104-7f1d559134af","ios":"levelo://app?vid=f3b18d4c-688e-4e02-9104-7f1d559134af"},"vehicle_type_id":"4","last_reported":1729444110,"current_range_meters":36000,"station_id":"ce4bhrh2rcd13ifvqhug","pricing_plan_id":"cebpf4jnsgd1na2vs0mg"},{"bike_id":"8a61b0d3-96ba-49fc-af75-dd8176297036","system_id":"levelo_inurba_marseille","lat":43.23955,"lon":5.36636,"is_reserved":false,"is_disabled":false,"rental_uris":{"android":"levelo://app?vid=8a61b0d3-96ba-49fc-af75-dd8176297036","ios":"levelo://app?vid=8a61b0d3-96ba-49fc-af75-dd8176297036"},"vehicle_type_id":"4","last_reported":1729444110,"current_range_meters":8400,"station_id":"ce4bhi12rcd13ifvqfp0","pricing_plan_id":"cebpf4jnsgd1na2vs0mg"},{"bike_id":"58a2790a-53cc-4844-b355-11214cc2dd5d","system_id":"levelo_inurba_marseille","lat":43.26799,"lon":5.40278,"is_reserved":false,"is_disabled":false,"rental_uris":{"android":"levelo://app?vid=58a2790a-53cc-4844-b355-11214cc2dd5d","ios":"levelo://app?vid=58a2790a-53cc-4844-b355-11214cc2dd5d"},"vehicle_type_id":"4","last_reported":1729444110,"current_range_meters":2800,"station_id":"ce501612rcd8frsf0b60","pricing_plan_id":"cebpf4jnsgd1na2vs0mg"},{"bike_id":"a720d463-aef6-4c5a-8a82-da85da52c38a","system_id":"levelo_inurba_marseille","lat":43.31488,"lon":5.37209,"is_reserved":false,"is_disabled":false,"rental_uris":{"android":"levelo://app?vid=a720d463-aef6-4c5a-8a82-da85da52c38a","ios":"levelo://app?vid=a720d463-aef6-4c5a-8a82-da85da52c38a"},"vehicle_type_id":"4","last_reported":1729444110,"current_range_meters":25600,"station_id":"","pricing_plan_id":"cebpf4jnsgd1na2vs0mg"},{"bike_id":"66018535-28e4-44a6-ae04-1da9137dfae9","system_id":"levelo_inurba_marseille","lat":43.27533,"lon":5.360154,"is_reserved":false,"is_disabled":false,"rental_uris":{"android":"levelo://app?vid=66018535-28e4-44a6-ae04-1da9137dfae9","ios":"levelo://app?vid=66018535-28e4-44a6-ae04-1da9137dfae9"},"vehicle_type_id":"4","last_reported":1729444110,"current_range_meters":12000,"station_id":"ce4bgj92rcd13ifvqbe0","pricing_plan_id":"cebpf4jnsgd1na2vs0mg"},{"bike_id":"9885e003-e45d-479b-aba4-2ff01b888604","system_id":"levelo_inurba_marseille","lat":43.27878,"lon":5.38809,"is_reserved":false,"is_disabled":false,"rental_uris":{"android":"levelo://app?vid=9885e003-e45d-479b-aba4-2ff01b888604","ios":"levelo://app?vid=9885e003-e45d-479b-aba4-2ff01b888604"},"vehicle_type_id":"4","last_reported":1729444110,"current_range_meters":38000,"station_id":"","pricing_plan_id":"cebpf4jnsgd1na2vs0mg"},{"bike_id":"a3de4f22-b243-45da-b96f-f31e8532efe7","system_id":"levelo_inurba_marseille","lat":43.288436,"lon":5.39302,"is_reserved":false,"is_disabled":false,"rental_uris":{"android":"levelo://app?vid=a3de4f22-b243-45da-b96f-f31e8532efe7","ios":"levelo://app?vid=a3de4f22-b243-45da-b96f-f31e8532efe7"},"vehicle_type_id":"4","last_reported":1729444110,"current_range_meters":11600,"station_id":"","pricing_plan_id":"cebpf4jnsgd1na2vs0mg"},{"bike_id":"4d71b1b7-e716-4a00-b568-64bc636151b6","system_id":"levelo_inurba_marseille","lat":43.29032,"lon":5.38642,"is_reserved":false,"is_disabled":false,"rental_uris":{"android":"levelo://app?vid=4d71b1b7-e716-4a00-b568-64bc636151b6","ios":"levelo://app?vid=4d71b1b7-e716-4a00-b568-64bc636151b6"},"vehicle_type_id":"4","last_reported":1729444110,"current_range_meters":29600,"station_id":"ce4bh4p2rcd13ifvqe0g","pricing_plan_id":"cebpf4jnsgd1na2vs0mg"},{"bike_id":"fcecd672-3e95-46c6-abcf-1d6f06ab2109","system_id":"levelo_inurba_marseille","lat":43.29277,"lon":5.36844,"is_reserved":false,"is_disabled":false,"rental_uris":{"android":"levelo://app?vid=fcecd672-3e95-46c6-abcf-1d6f06ab2109","ios":"levelo://app?vid=fcecd672-3e95-46c6-abcf-1d6f06ab2109"},"vehicle_type_id":"4","last_reported":1729444110,"current_range_meters":0,"station_id":"ce4bhbp2rcd13ifvqesg","pricing_plan_id":"cebpf4jnsgd1na2vs0mg"},{"bike_id":"f47b74ed-a900-4a21-b3f9-c730300bcba6","system_id":"levelo_inurba_marseille","lat":43.29715,"lon":5.36614,"is_reserved":false,"is_disabled":false,"rental_uris":{"android":"levelo://app?vid=f47b74ed-a900-4a21-b3f9-c730300bcba6","ios":"levelo://app?vid=f47b74ed-a900-4a21-b3f9-c730300bcba6"},"vehicle_type_id":"4","last_reported":1729444110,"current_range_meters":30000,"station_id":"ce4bgn12rcd13ifvqbt0","pricing_plan_id":"cebpf4jnsgd1na2vs0mg"},{"bike_id":"2962a8ce-47b8-4f94-bc11-5766a96e8153","system_id":"levelo_inurba_marseille","lat":43.27907,"lon":5.39583,"is_reserved":false,"is_disabled":false,"rental_uris":{"android":"levelo://app?vid=2962a8ce-47b8-4f94-bc11-5766a96e8153","ios":"levelo://app?vid=2962a8ce-47b8-4f94-bc11-5766a96e8153"},"vehicle_type_id":"4","last_reported":1729444110,"current_range_meters":38800,"station_id":"ce4bhf92rcd13ifvqf40","pricing_plan_id":"cebpf4jnsgd1na2vs0mg"},{"bike_id":"82195298-3e03-497c-80ca-eb16a692810c","system_id":"levelo_inurba_marseille","lat":43.29894,"lon":5.43679,"is_reserved":false,"is_disabled":false,"rental_uris":{"android":"levelo://app?vid=82195298-3e03-497c-80ca-eb16a692810c","ios":"levelo://app?vid=82195298-3e03-497c-80ca-eb16a692810c"},"vehicle_type_id":"4","last_reported":1729444110,"current_range_meters":30000,"station_id":"ce4bhpp2rcd13ifvqhfg","pricing_plan_id":"cebpf4jnsgd1na2vs0mg"},{"bike_id":"a25ade6d-68cf-4f9a-af18-693934c2fb40","system_id":"levelo_inurba_marseille","lat":43.2766,"lon":5.38903,"is_reserved":false,"is_disabled":false,"rental_uris":{"android":"levelo://app?vid=a25ade6d-68cf-4f9a-af18-693934c2fb40","ios":"levelo://app?vid=a25ade6d-68cf-4f9a-af18-693934c2fb40"},"vehicle_type_id":"4","last_reported":1729444110,"current_range_meters":30800,"station_id":"ce4bhi12rcd13ifvqfo0","pricing_plan_id":"cebpf4jnsgd1na2vs0mg"},{"bike_id":"971f9495-49d8-4587-86d0-762411a58893","system_id":"levelo_inurba_marseille","lat":43.3171,"lon":5.43706,"is_reserved":false,"is_disabled":false,"rental_uris":{"android":"levelo://app?vid=971f9495-49d8-4587-86d0-762411a58893","ios":"levelo://app?vid=971f9495-49d8-4587-86d0-762411a58893"},"vehicle_type_id":"4","last_reported":1729444110,"current_range_meters":4400,"station_id":"ce4bhp92rcd13ifvqhcg","pricing_plan_id":"cebpf4jnsgd1na2vs0mg"},{"bike_id":"fa9d7d01-b955-422a-9caf-4074986b494e","system_id":"levelo_inurba_marseille","lat":43.31709,"lon":5.37736,"is_reserved":false,"is_disabled":false,"rental_uris":{"android":"levelo://app?vid=fa9d7d01-b955-422a-9caf-4074986b494e","ios":"levelo://app?vid=fa9d7d01-b955-422a-9caf-4074986b494e"},"vehicle_type_id":"4","last_reported":1729444110,"current_range_meters":36400,"station_id":"ce4bgth2rcd13ifvqch0","pricing_plan_id":"cebpf4jnsgd1na2vs0mg"},{"bike_id":"75b2884f-9295-41ec-a69e-f7af7b2d9702","system_id":"levelo_inurba_marseille","lat":43.29594,"lon":5.38097,"is_reserved":false,"is_disabled":false,"rental_uris":{"android":"levelo://app?vid=75b2884f-9295-41ec-a69e-f7af7b2d9702","ios":"levelo://app?vid=75b2884f-9295-41ec-a69e-f7af7b2d9702"},"vehicle_type_id":"4","last_reported":1729444110,"current_range_meters":8400,"station_id":"ce4bgl12rcd13ifvqbo0","pricing_plan_id":"cebpf4jnsgd1na2vs0mg"},{"bike_id":"b5614ad2-bd79-4b1f-bad3-0962324c0fc9","system_id":"levelo_inurba_marseille","lat":43.29578,"lon":5.3674,"is_reserved":false,"is_disabled":false,"rental_uris":{"android":"levelo://app?vid=b5614ad2-bd79-4b1f-bad3-0962324c0fc9","ios":"levelo://app?vid=b5614ad2-bd79-4b1f-bad3-0962324c0fc9"},"vehicle_type_id":"4","last_reported":1729444110,"current_range_meters":16800,"station_id":"ce4bgph2rcd13ifvqc2g","pricing_plan_id":"cebpf4jnsgd1na2vs0mg"},{"bike_id":"8274dafe-dbe1-4250-825c-d1313beaccd2","system_id":"levelo_inurba_marseille","lat":43.260278,"lon":5.375498,"is_reserved":false,"is_disabled":false,"rental_uris":{"android":"levelo://app?vid=8274dafe-dbe1-4250-825c-d1313beaccd2","ios":"levelo://app?vid=8274dafe-dbe1-4250-825c-d1313beaccd2"},"vehicle_type_id":"4","last_reported":1729444110,"current_range_meters":27200,"station_id":"ce4bh512rcd13ifvqe3g","pricing_plan_id":"cebpf4jnsgd1na2vs0mg"},{"bike_id":"92f3d4e8-b317-434d-bb63-8e88f2029524","system_id":"levelo_inurba_marseille","lat":43.32282,"lon":5.38282,"is_reserved":false,"is_disabled":false,"rental_uris":{"android":"levelo://app?vid=92f3d4e8-b317-434d-bb63-8e88f2029524","ios":"levelo://app?vid=92f3d4e8-b317-434d-bb63-8e88f2029524"},"vehicle_type_id":"4","last_reported":1729444110,"current_range_meters":4400,"station_id":"ce4bhr12rcd13ifvqhqg","pricing_plan_id":"cebpf4jnsgd1na2vs0mg"},{"bike_id":"f3d1c4f4-21df-4536-bec8-d4ea6be9b780","system_id":"levelo_inurba_marseille","lat":43.28929,"lon":5.38396,"is_reserved":false,"is_disabled":false,"rental_uris":{"android":"levelo://app?vid=f3d1c4f4-21df-4536-bec8-d4ea6be9b780","ios":"levelo://app?vid=f3d1c4f4-21df-4536-bec8-d4ea6be9b780"},"vehicle_type_id":"4","last_reported":1729444110,"current_range_meters":38400,"station_id":"ce4bh612rcd13ifvqe6g","pricing_plan_id":"cebpf4jnsgd1na2vs0mg"},{"bike_id":"bf24d256-8265-4904-871b-7092d76f5df5","system_id":"levelo_inurba_marseille","lat":43.25571,"lon":5.38245,"is_reserved":false,"is_disabled":false,"rental_uris":{"android":"levelo://app?vid=bf24d256-8265-4904-871b-7092d76f5df5","ios":"levelo://app?vid=bf24d256-8265-4904-871b-7092d76f5df5"},"vehicle_type_id":"4","last_reported":1729444110,"current_range_meters":36800,"station_id":"ce4bhih2rcd13ifvqfs0","pricing_plan_id":"cebpf4jnsgd1na2vs0mg"},{"bike_id":"aeaa4f75-fd9b-46e8-8b21-9b41813ed0f0","system_id":"levelo_inurba_marseille","lat":43.2924,"lon":5.38453,"is_reserved":false,"is_disabled":false,"rental_uris":{"android":"levelo://app?vid=aeaa4f75-fd9b-46e8-8b21-9b41813ed0f0","ios":"levelo://app?vid=aeaa4f75-fd9b-46e8-8b21-9b41813ed0f0"},"vehicle_type_id":"4","last_reported":1729444110,"current_range_meters":3600,"station_id":"","pricing_plan_id":"cebpf4jnsgd1na2vs0mg"},{"bike_id":"1d045b29-4da5-4417-9986-d082ac81c662","system_id":"levelo_inurba_marseille","lat":43.29252,"lon":5.38443,"is_reserved":false,"is_disabled":false,"rental_uris":{"android":"levelo://app?vid=1d045b29-4da5-4417-9986-d082ac81c662","ios":"levelo://app?vid=1d045b29-4da5-4417-9986-d082ac81c662"},"vehicle_type_id":"4","last_reported":1729444110,"current_range_meters":25600,"station_id":"","pricing_plan_id":"cebpf4jnsgd1na2vs0mg"},{"bike_id":"304e116c-22b7-4fec-8df3-5316f5ceb0f4","system_id":"levelo_inurba_marseille","lat":43.33729,"lon":5.3919,"is_reserved":false,"is_disabled":false,"rental_uris":{"android":"levelo://app?vid=304e116c-22b7-4fec-8df3-5316f5ceb0f4","ios":"levelo://app?vid=304e116c-22b7-4fec-8df3-5316f5ceb0f4"},"vehicle_type_id":"4","last_reported":1729444110,"current_range_meters":22800,"station_id":"ce4bhr92rcd13ifvqhsg","pricing_plan_id":"cebpf4jnsgd1na2vs0mg"},{"bike_id":"413e3fde-ecb3-4227-8488-9efebed4bcd7","system_id":"levelo_inurba_marseille","lat":43.31534,"lon":5.38041,"is_reserved":false,"is_disabled":false,"rental_uris":{"android":"levelo://app?vid=413e3fde-ecb3-4227-8488-9efebed4bcd7","ios":"levelo://app?vid=413e3fde-ecb3-4227-8488-9efebed4bcd7"},"vehicle_type_id":"4","last_reported":1729444110,"current_range_meters":4400,"station_id":"ce4bhsp2rcd13ifvqi50","pricing_plan_id":"cebpf4jnsgd1na2vs0mg"},{"bike_id":"226ce735-e73e-47f5-bce9-ca4144873c00","system_id":"levelo_inurba_marseille","lat":43.29961,"lon":5.37182,"is_reserved":false,"is_disabled":false,"rental_uris":{"android":"levelo://app?vid=226ce735-e73e-47f5-bce9-ca4144873c00","ios":"levelo://app?vid=226ce735-e73e-47f5-bce9-ca4144873c00"},"vehicle_type_id":"4","last_reported":1729444110,"current_range_meters":38000,"station_id":"ce4bgr92rcd13ifvqc7g","pricing_plan_id":"cebpf4jnsgd1na2vs0mg"},{"bike_id":"e89fa6f1-2be0-45d3-bbcd-2e9187960067","system_id":"levelo_inurba_marseille","lat":43.299713,"lon":5.384946,"is_reserved":false,"is_disabled":false,"rental_uris":{"android":"levelo://app?vid=e89fa6f1-2be0-45d3-bbcd-2e9187960067","ios":"levelo://app?vid=e89fa6f1-2be0-45d3-bbcd-2e9187960067"},"vehicle_type_id":"4","last_reported":1729444110,"current_range_meters":16400,"station_id":"ce4bgj92rcd13ifvqbd0","pricing_plan_id":"cebpf4jnsgd1na2vs0mg"},{"bike_id":"343329d8-0d2a-468d-ab7b-7ad3237461ea","system_id":"levelo_inurba_marseille","lat":43.24661,"lon":5.38162,"is_reserved":false,"is_disabled":false,"rental_uris":{"android":"levelo://app?vid=343329d8-0d2a-468d-ab7b-7ad3237461ea","ios":"levelo://app?vid=343329d8-0d2a-468d-ab7b-7ad3237461ea"},"vehicle_type_id":"4","last_reported":1729444110,"current_range_meters":6400,"station_id":"ce4bhih2rcd13ifvqfr0","pricing_plan_id":"cebpf4jnsgd1na2vs0mg"},{"bike_id":"2a38b3cc-d3e7-4aa6-80f2-c9e5b9ff113e","system_id":"levelo_inurba_marseille","lat":43.29551,"lon":5.42302,"is_reserved":false,"is_disabled":false,"rental_uris":{"android":"levelo://app?vid=2a38b3cc-d3e7-4aa6-80f2-c9e5b9ff113e","ios":"levelo://app?vid=2a38b3cc-d3e7-4aa6-80f2-c9e5b9ff113e"},"vehicle_type_id":"4","last_reported":1729444110,"current_range_meters":20400,"station_id":"ce4bhph2rcd13ifvqhdg","pricing_plan_id":"cebpf4jnsgd1na2vs0mg"},{"bike_id":"584f0b15-c50f-4d64-8080-5191a3e4fcc9","system_id":"levelo_inurba_marseille","lat":43.29517,"lon":5.3905,"is_reserved":false,"is_disabled":false,"rental_uris":{"android":"levelo://app?vid=584f0b15-c50f-4d64-8080-5191a3e4fcc9","ios":"levelo://app?vid=584f0b15-c50f-4d64-8080-5191a3e4fcc9"},"vehicle_type_id":"4","last_reported":1729444110,"current_range_meters":2800,"station_id":"ce4bh3p2rcd13ifvqdp0","pricing_plan_id":"cebpf4jnsgd1na2vs0mg"},{"bike_id":"0acd87fd-f46d-4bbf-a467-4677ce27ee9f","system_id":"levelo_inurba_marseille","lat":43.29842,"lon":5.36275,"is_reserved":false,"is_disabled":false,"rental_uris":{"android":"levelo://app?vid=0acd87fd-f46d-4bbf-a467-4677ce27ee9f","ios":"levelo://app?vid=0acd87fd-f46d-4bbf-a467-4677ce27ee9f"},"vehicle_type_id":"4","last_reported":1729444110,"current_range_meters":11200,"station_id":"ce4bgpp2rcd13ifvqc3g","pricing_plan_id":"cebpf4jnsgd1na2vs0mg"},{"bike_id":"2d79ded6-0242-420c-991a-ea1ce4a6898a","system_id":"levelo_inurba_marseille","lat":43.30291,"lon":5.39202,"is_reserved":false,"is_disabled":false,"rental_uris":{"android":"levelo://app?vid=2d79ded6-0242-420c-991a-ea1ce4a6898a","ios":"levelo://app?vid=2d79ded6-0242-420c-991a-ea1ce4a6898a"},"vehicle_type_id":"4","last_reported":1729444110,"current_range_meters":39200,"station_id":"ce4bgkh2rcd13ifvqbk0","pricing_plan_id":"cebpf4jnsgd1na2vs0mg"},{"bike_id":"4b3496a2-d393-48e7-b24c-bc5f8d6f4d51","system_id":"levelo_inurba_marseille","lat":43.23957,"lon":5.36627,"is_reserved":false,"is_disabled":false,"rental_uris":{"android":"levelo://app?vid=4b3496a2-d393-48e7-b24c-bc5f8d6f4d51","ios":"levelo://app?vid=4b3496a2-d393-48e7-b24c-bc5f8d6f4d51"},"vehicle_type_id":"4","last_reported":1729444110,"current_range_meters":30400,"station_id":"ce4bhi12rcd13ifvqfp0","pricing_plan_id":"cebpf4jnsgd1na2vs0mg"},{"bike_id":"88fd5104-3854-4261-8da2-eff081c29a08","system_id":"levelo_inurba_marseille","lat":43.30208,"lon":5.39474,"is_reserved":false,"is_disabled":false,"rental_uris":{"android":"levelo://app?vid=88fd5104-3854-4261-8da2-eff081c29a08","ios":"levelo://app?vid=88fd5104-3854-4261-8da2-eff081c29a08"},"vehicle_type_id":"4","last_reported":1729444110,"current_range_meters":0,"station_id":"ce4bh0p2rcd13ifvqd70","pricing_plan_id":"cebpf4jnsgd1na2vs0mg"},{"bike_id":"7fb60b8d-d57a-405e-9256-10642f0fd68a","system_id":"levelo_inurba_marseille","lat":43.26506,"lon":5.39531,"is_reserved":false,"is_disabled":false,"rental_uris":{"android":"levelo://app?vid=7fb60b8d-d57a-405e-9256-10642f0fd68a","ios":"levelo://app?vid=7fb60b8d-d57a-405e-9256-10642f0fd68a"},"vehicle_type_id":"4","last_reported":1729444110,"current_range_meters":17200,"station_id":"","pricing_plan_id":"cebpf4jnsgd1na2vs0mg"},{"bike_id":"ce5722ca-97a2-4464-b271-2119bbfeb6a9","system_id":"levelo_inurba_marseille","lat":43.23718,"lon":5.37779,"is_reserved":false,"is_disabled":false,"rental_uris":{"android":"levelo://app?vid=ce5722ca-97a2-4464-b271-2119bbfeb6a9","ios":"levelo://app?vid=ce5722ca-97a2-4464-b271-2119bbfeb6a9"},"vehicle_type_id":"4","last_reported":1729444110,"current_range_meters":14400,"station_id":"","pricing_plan_id":"cebpf4jnsgd1na2vs0mg"},{"bike_id":"4eb2760e-6738-4311-9a75-159c857d0f7d","system_id":"levelo_inurba_marseille","lat":43.25493,"lon":5.3765,"is_reserved":false,"is_disabled":false,"rental_uris":{"android":"levelo://app?vid=4eb2760e-6738-4311-9a75-159c857d0f7d","ios":"levelo://app?vid=4eb2760e-6738-4311-9a75-159c857d0f7d"},"vehicle_type_id":"4","last_reported":1729444110,"current_range_meters":39200,"station_id":"ce4bhh12rcd13ifvqff0","pricing_plan_id":"cebpf4jnsgd1na2vs0mg"},{"bike_id":"e9a6d85d-70e2-402b-90eb-502b3aedbdb3","system_id":"levelo_inurba_marseille","lat":43.29169,"lon":5.37917,"is_reserved":false,"is_disabled":false,"rental_uris":{"android":"levelo://app?vid=e9a6d85d-70e2-402b-90eb-502b3aedbdb3","ios":"levelo://app?vid=e9a6d85d-70e2-402b-90eb-502b3aedbdb3"},"vehicle_type_id":"4","last_reported":1729444110,"current_range_meters":8000,"station_id":"","pricing_plan_id":"cebpf4jnsgd1na2vs0mg"},{"bike_id":"551e4cae-27ad-43f8-bfc5-8e0a93c14612","system_id":"levelo_inurba_marseille","lat":43.32099,"lon":5.36784,"is_reserved":false,"is_disabled":false,"rental_uris":{"android":"levelo://app?vid=551e4cae-27ad-43f8-bfc5-8e0a93c14612","ios":"levelo://app?vid=551e4cae-27ad-43f8-bfc5-8e0a93c14612"},"vehicle_type_id":"4","last_reported":1729444110,"current_range_meters":36800,"station_id":"ce4bhrh2rcd13ifvqhug","pricing_plan_id":"cebpf4jnsgd1na2vs0mg"},{"bike_id":"d6b6d9c6-c04c-44c6-9708-54056b46823b","system_id":"levelo_inurba_marseille","lat":43.24168,"lon":5.38844,"is_reserved":false,"is_disabled":false,"rental_uris":{"android":"levelo://app?vid=d6b6d9c6-c04c-44c6-9708-54056b46823b","ios":"levelo://app?vid=d6b6d9c6-c04c-44c6-9708-54056b46823b"},"vehicle_type_id":"4","last_reported":1729444110,"current_range_meters":13600,"station_id":"","pricing_plan_id":"cebpf4jnsgd1na2vs0mg"},{"bike_id":"5556cdd5-f17d-4d09-bf7c-d991f5dca42e","system_id":"levelo_inurba_marseille","lat":43.26551,"lon":5.3729,"is_reserved":false,"is_disabled":false,"rental_uris":{"android":"levelo://app?vid=5556cdd5-f17d-4d09-bf7c-d991f5dca42e","ios":"levelo://app?vid=5556cdd5-f17d-4d09-bf7c-d991f5dca42e"},"vehicle_type_id":"4","last_reported":1729444110,"current_range_meters":30400,"station_id":"ce4bhg12rcd13ifvqf70","pricing_plan_id":"cebpf4jnsgd1na2vs0mg"},{"bike_id":"0b730720-4322-4276-b0a9-a9a7b7bfeac9","system_id":"levelo_inurba_marseille","lat":43.28655,"lon":5.36344,"is_reserved":false,"is_disabled":false,"rental_uris":{"android":"levelo://app?vid=0b730720-4322-4276-b0a9-a9a7b7bfeac9","ios":"levelo://app?vid=0b730720-4322-4276-b0a9-a9a7b7bfeac9"},"vehicle_type_id":"4","last_reported":1729444110,"current_range_meters":4000,"station_id":"ce4bhah2rcd13ifvqej0","pricing_plan_id":"cebpf4jnsgd1na2vs0mg"},{"bike_id":"4c03f95c-97f9-4532-b7ab-2caad7d7c9da","system_id":"levelo_inurba_marseille","lat":43.28349,"lon":5.38103,"is_reserved":false,"is_disabled":false,"rental_uris":{"android":"levelo://app?vid=4c03f95c-97f9-4532-b7ab-2caad7d7c9da","ios":"levelo://app?vid=4c03f95c-97f9-4532-b7ab-2caad7d7c9da"},"vehicle_type_id":"4","last_reported":1729444110,"current_range_meters":22400,"station_id":"ce4bh412rcd13ifvqdr0","pricing_plan_id":"cebpf4jnsgd1na2vs0mg"},{"bike_id":"21504ae7-1a7e-4aed-ac11-100d5a3be8bc","system_id":"levelo_inurba_marseille","lat":43.26803,"lon":5.40274,"is_reserved":false,"is_disabled":false,"rental_uris":{"android":"levelo://app?vid=21504ae7-1a7e-4aed-ac11-100d5a3be8bc","ios":"levelo://app?vid=21504ae7-1a7e-4aed-ac11-100d5a3be8bc"},"vehicle_type_id":"4","last_reported":1729444110,"current_range_meters":16800,"station_id":"ce501612rcd8frsf0b60","pricing_plan_id":"cebpf4jnsgd1na2vs0mg"},{"bike_id":"edadfb39-392a-41b0-bf98-fee0828a0f2e","system_id":"levelo_inurba_marseille","lat":43.27421,"lon":5.39422,"is_reserved":false,"is_disabled":false,"rental_uris":{"android":"levelo://app?vid=edadfb39-392a-41b0-bf98-fee0828a0f2e","ios":"levelo://app?vid=edadfb39-392a-41b0-bf98-fee0828a0f2e"},"vehicle_type_id":"4","last_reported":1729444110,"current_range_meters":8000,"station_id":"ce4bhdp2rcd13ifvqf20","pricing_plan_id":"cebpf4jnsgd1na2vs0mg"},{"bike_id":"e30a9c24-c473-4853-88d4-9a8e74ccfb53","system_id":"levelo_inurba_marseille","lat":43.25492,"lon":5.37652,"is_reserved":false,"is_disabled":false,"rental_uris":{"android":"levelo://app?vid=e30a9c24-c473-4853-88d4-9a8e74ccfb53","ios":"levelo://app?vid=e30a9c24-c473-4853-88d4-9a8e74ccfb53"},"vehicle_type_id":"4","last_reported":1729444110,"current_range_meters":39200,"station_id":"ce4bhh12rcd13ifvqff0","pricing_plan_id":"cebpf4jnsgd1na2vs0mg"},{"bike_id":"cd73fdb0-4a07-4080-9c02-dbd7870cdcd1","system_id":"levelo_inurba_marseille","lat":43.30903,"lon":5.36848,"is_reserved":false,"is_disabled":false,"rental_uris":{"android":"levelo://app?vid=cd73fdb0-4a07-4080-9c02-dbd7870cdcd1","ios":"levelo://app?vid=cd73fdb0-4a07-4080-9c02-dbd7870cdcd1"},"vehicle_type_id":"4","last_reported":1729444110,"current_range_meters":17600,"station_id":"ce4bgn92rcd13ifvqbvg","pricing_plan_id":"cebpf4jnsgd1na2vs0mg"},{"bike_id":"199797b5-20b0-4823-94b5-89854deed5fd","system_id":"levelo_inurba_marseille","lat":43.24813,"lon":5.37462,"is_reserved":false,"is_disabled":false,"rental_uris":{"android":"levelo://app?vid=199797b5-20b0-4823-94b5-89854deed5fd","ios":"levelo://app?vid=199797b5-20b0-4823-94b5-89854deed5fd"},"vehicle_type_id":"4","last_reported":1729444110,"current_range_meters":9200,"station_id":"ce4bhgh2rcd13ifvqfb0","pricing_plan_id":"cebpf4jnsgd1na2vs0mg"},{"bike_id":"69663e99-fe51-4c5b-876a-882008f8d5d8","system_id":"levelo_inurba_marseille","lat":43.30186,"lon":5.39786,"is_reserved":false,"is_disabled":false,"rental_uris":{"android":"levelo://app?vid=69663e99-fe51-4c5b-876a-882008f8d5d8","ios":"levelo://app?vid=69663e99-fe51-4c5b-876a-882008f8d5d8"},"vehicle_type_id":"4","last_reported":1729444110,"current_range_meters":5600,"station_id":"","pricing_plan_id":"cebpf4jnsgd1na2vs0mg"},{"bike_id":"2fe5f053-d71b-4c1b-85ae-c9a46ab45529","system_id":"levelo_inurba_marseille","lat":43.30949,"lon":5.39025,"is_reserved":false,"is_disabled":false,"rental_uris":{"android":"levelo://app?vid=2fe5f053-d71b-4c1b-85ae-c9a46ab45529","ios":"levelo://app?vid=2fe5f053-d71b-4c1b-85ae-c9a46ab45529"},"vehicle_type_id":"4","last_reported":1729444110,"current_range_meters":22400,"station_id":"ce4bgup2rcd13ifvqco0","pricing_plan_id":"cebpf4jnsgd1na2vs0mg"},{"bike_id":"f36fd4e2-eabb-49a0-8522-09d7ab6b7165","system_id":"levelo_inurba_marseille","lat":43.29701,"lon":5.37706,"is_reserved":false,"is_disabled":false,"rental_uris":{"android":"levelo://app?vid=f36fd4e2-eabb-49a0-8522-09d7ab6b7165","ios":"levelo://app?vid=f36fd4e2-eabb-49a0-8522-09d7ab6b7165"},"vehicle_type_id":"4","last_reported":1729444110,"current_range_meters":20000,"station_id":"ce4bgkh2rcd13ifvqbl0","pricing_plan_id":"cebpf4jnsgd1na2vs0mg"},{"bike_id":"e337664c-10dc-47b8-bbb7-39751e6b652a","system_id":"levelo_inurba_marseille","lat":43.33023,"lon":5.3905,"is_reserved":false,"is_disabled":false,"rental_uris":{"android":"levelo://app?vid=e337664c-10dc-47b8-bbb7-39751e6b652a","ios":"levelo://app?vid=e337664c-10dc-47b8-bbb7-39751e6b652a"},"vehicle_type_id":"4","last_reported":1729444110,"current_range_meters":18800,"station_id":"ce4bh012rcd13ifvqd00","pricing_plan_id":"cebpf4jnsgd1na2vs0mg"},{"bike_id":"f357d317-303f-4db6-a6b2-a7c7395ce5d8","system_id":"levelo_inurba_marseille","lat":43.28099,"lon":5.37853,"is_reserved":false,"is_disabled":false,"rental_uris":{"android":"levelo://app?vid=f357d317-303f-4db6-a6b2-a7c7395ce5d8","ios":"levelo://app?vid=f357d317-303f-4db6-a6b2-a7c7395ce5d8"},"vehicle_type_id":"4","last_reported":1729444110,"current_range_meters":33200,"station_id":"ce4bha12rcd13ifvqee0","pricing_plan_id":"cebpf4jnsgd1na2vs0mg"},{"bike_id":"ee07b9e3-f4db-477f-9e2e-49c0520cc2d0","system_id":"levelo_inurba_marseille","lat":43.29089,"lon":5.38049,"is_reserved":false,"is_disabled":false,"rental_uris":{"android":"levelo://app?vid=ee07b9e3-f4db-477f-9e2e-49c0520cc2d0","ios":"levelo://app?vid=ee07b9e3-f4db-477f-9e2e-49c0520cc2d0"},"vehicle_type_id":"4","last_reported":1729444110,"current_range_meters":20000,"station_id":"ce4bh512rcd13ifvqe2g","pricing_plan_id":"cebpf4jnsgd1na2vs0mg"},{"bike_id":"ba4c07f3-551c-4573-b5a8-0989183ff386","system_id":"levelo_inurba_marseille","lat":43.25493,"lon":5.37652,"is_reserved":false,"is_disabled":false,"rental_uris":{"android":"levelo://app?vid=ba4c07f3-551c-4573-b5a8-0989183ff386","ios":"levelo://app?vid=ba4c07f3-551c-4573-b5a8-0989183ff386"},"vehicle_type_id":"4","last_reported":1729444110,"current_range_meters":38800,"station_id":"ce4bhh12rcd13ifvqff0","pricing_plan_id":"cebpf4jnsgd1na2vs0mg"},{"bike_id":"1f46c17a-4d8f-4722-b44b-d7dfec29dda3","system_id":"levelo_inurba_marseille","lat":43.30531,"lon":5.36556,"is_reserved":false,"is_disabled":false,"rental_uris":{"android":"levelo://app?vid=1f46c17a-4d8f-4722-b44b-d7dfec29dda3","ios":"levelo://app?vid=1f46c17a-4d8f-4722-b44b-d7dfec29dda3"},"vehicle_type_id":"4","last_reported":1729444110,"current_range_meters":20400,"station_id":"ce4bgs12rcd13ifvqcag","pricing_plan_id":"cebpf4jnsgd1na2vs0mg"},{"bike_id":"41efd90b-07bb-4f30-8d1c-20ecd5fd6e5b","system_id":"levelo_inurba_marseille","lat":43.30539,"lon":5.38427,"is_reserved":false,"is_disabled":false,"rental_uris":{"android":"levelo://app?vid=41efd90b-07bb-4f30-8d1c-20ecd5fd6e5b","ios":"levelo://app?vid=41efd90b-07bb-4f30-8d1c-20ecd5fd6e5b"},"vehicle_type_id":"4","last_reported":1729444110,"current_range_meters":18800,"station_id":"ce4bgg92rcd13ifvqb30","pricing_plan_id":"cebpf4jnsgd1na2vs0mg"},{"bike_id":"4fa275f9-75d2-461d-80e5-8f5bf1730be8","system_id":"levelo_inurba_marseille","lat":43.29256,"lon":5.38445,"is_reserved":false,"is_disabled":false,"rental_uris":{"android":"levelo://app?vid=4fa275f9-75d2-461d-80e5-8f5bf1730be8","ios":"levelo://app?vid=4fa275f9-75d2-461d-80e5-8f5bf1730be8"},"vehicle_type_id":"4","last_reported":1729444110,"current_range_meters":10800,"station_id":"","pricing_plan_id":"cebpf4jnsgd1na2vs0mg"},{"bike_id":"54a84c75-4ce9-4f39-a0c2-4f7f3e11eda2","system_id":"levelo_inurba_marseille","lat":43.29526,"lon":5.3904,"is_reserved":false,"is_disabled":false,"rental_uris":{"android":"levelo://app?vid=54a84c75-4ce9-4f39-a0c2-4f7f3e11eda2","ios":"levelo://app?vid=54a84c75-4ce9-4f39-a0c2-4f7f3e11eda2"},"vehicle_type_id":"4","last_reported":1729444110,"current_range_meters":6800,"station_id":"ce4bh3p2rcd13ifvqdp0","pricing_plan_id":"cebpf4jnsgd1na2vs0mg"},{"bike_id":"a1596875-e208-43e5-a90d-2a6e5c9aeefb","system_id":"levelo_inurba_marseille","lat":43.23955,"lon":5.36634,"is_reserved":false,"is_disabled":false,"rental_uris":{"android":"levelo://app?vid=a1596875-e208-43e5-a90d-2a6e5c9aeefb","ios":"levelo://app?vid=a1596875-e208-43e5-a90d-2a6e5c9aeefb"},"vehicle_type_id":"4","last_reported":1729444110,"current_range_meters":36800,"station_id":"ce4bhi12rcd13ifvqfp0","pricing_plan_id":"cebpf4jnsgd1na2vs0mg"},{"bike_id":"2a9f13c8-c789-4cbb-b231-288baea1add8","system_id":"levelo_inurba_marseille","lat":43.31085,"lon":5.42439,"is_reserved":false,"is_disabled":false,"rental_uris":{"android":"levelo://app?vid=2a9f13c8-c789-4cbb-b231-288baea1add8","ios":"levelo://app?vid=2a9f13c8-c789-4cbb-b231-288baea1add8"},"vehicle_type_id":"4","last_reported":1729444110,"current_range_meters":38800,"station_id":"ce4bhp92rcd13ifvqhag","pricing_plan_id":"cebpf4jnsgd1na2vs0mg"},{"bike_id":"3bf115c6-8efa-475f-af9e-5ee9038c1b80","system_id":"levelo_inurba_marseille","lat":43.31065,"lon":5.40095,"is_reserved":false,"is_disabled":false,"rental_uris":{"android":"levelo://app?vid=3bf115c6-8efa-475f-af9e-5ee9038c1b80","ios":"levelo://app?vid=3bf115c6-8efa-475f-af9e-5ee9038c1b80"},"vehicle_type_id":"4","last_reported":1729444110,"current_range_meters":33600,"station_id":"","pricing_plan_id":"cebpf4jnsgd1na2vs0mg"},{"bike_id":"0baa1265-fac6-45b8-b387-54958d2a7085","system_id":"levelo_inurba_marseille","lat":43.29264,"lon":5.36851,"is_reserved":false,"is_disabled":false,"rental_uris":{"android":"levelo://app?vid=0baa1265-fac6-45b8-b387-54958d2a7085","ios":"levelo://app?vid=0baa1265-fac6-45b8-b387-54958d2a7085"},"vehicle_type_id":"4","last_reported":1729444110,"current_range_meters":0,"station_id":"ce4bhbp2rcd13ifvqesg","pricing_plan_id":"cebpf4jnsgd1na2vs0mg"},{"bike_id":"18a473b9-b5ef-44f0-b2fa-db76b2271454","system_id":"levelo_inurba_marseille","lat":43.289886,"lon":5.356199,"is_reserved":false,"is_disabled":false,"rental_uris":{"android":"levelo://app?vid=18a473b9-b5ef-44f0-b2fa-db76b2271454","ios":"levelo://app?vid=18a473b9-b5ef-44f0-b2fa-db76b2271454"},"vehicle_type_id":"4","last_reported":1729444110,"current_range_meters":5600,"station_id":"ce4bh292rcd13ifvqdf0","pricing_plan_id":"cebpf4jnsgd1na2vs0mg"},{"bike_id":"ad5404a5-71d9-41b9-9f21-dcf8d57faf69","system_id":"levelo_inurba_marseille","lat":43.2843,"lon":5.39198,"is_reserved":false,"is_disabled":false,"rental_uris":{"android":"levelo://app?vid=ad5404a5-71d9-41b9-9f21-dcf8d57faf69","ios":"levelo://app?vid=ad5404a5-71d9-41b9-9f21-dcf8d57faf69"},"vehicle_type_id":"4","last_reported":1729444110,"current_range_meters":20000,"station_id":"ce4bhoh2rcd13ifvqh5g","pricing_plan_id":"cebpf4jnsgd1na2vs0mg"},{"bike_id":"ced78d91-9766-4f21-ad00-917f0ec85072","system_id":"levelo_inurba_marseille","lat":43.285814,"lon":5.394877,"is_reserved":false,"is_disabled":false,"rental_uris":{"android":"levelo://app?vid=ced78d91-9766-4f21-ad00-917f0ec85072","ios":"levelo://app?vid=ced78d91-9766-4f21-ad00-917f0ec85072"},"vehicle_type_id":"4","last_reported":1729444110,"current_range_meters":17200,"station_id":"ce4bh292rcd13ifvqdg0","pricing_plan_id":"cebpf4jnsgd1na2vs0mg"},{"bike_id":"551015fc-17df-44f8-8e9b-cb92314ae76a","system_id":"levelo_inurba_marseille","lat":43.29975,"lon":5.37644,"is_reserved":false,"is_disabled":false,"rental_uris":{"android":"levelo://app?vid=551015fc-17df-44f8-8e9b-cb92314ae76a","ios":"levelo://app?vid=551015fc-17df-44f8-8e9b-cb92314ae76a"},"vehicle_type_id":"4","last_reported":1729444110,"current_range_meters":39200,"station_id":"ce4bgs92rcd13ifvqcc0","pricing_plan_id":"cebpf4jnsgd1na2vs0mg"},{"bike_id":"87d4c3f7-8df4-47c9-a408-c87a6ae91fc7","system_id":"levelo_inurba_marseille","lat":43.26926,"lon":5.38921,"is_reserved":false,"is_disabled":false,"rental_uris":{"android":"levelo://app?vid=87d4c3f7-8df4-47c9-a408-c87a6ae91fc7","ios":"levelo://app?vid=87d4c3f7-8df4-47c9-a408-c87a6ae91fc7"},"vehicle_type_id":"4","last_reported":1729444110,"current_range_meters":8000,"station_id":"","pricing_plan_id":"cebpf4jnsgd1na2vs0mg"},{"bike_id":"9028a001-9d66-413d-98ce-30a54b4fd65f","system_id":"levelo_inurba_marseille","lat":43.26021,"lon":5.37554,"is_reserved":false,"is_disabled":false,"rental_uris":{"android":"levelo://app?vid=9028a001-9d66-413d-98ce-30a54b4fd65f","ios":"levelo://app?vid=9028a001-9d66-413d-98ce-30a54b4fd65f"},"vehicle_type_id":"4","last_reported":1729444110,"current_range_meters":25600,"station_id":"ce4bhgh2rcd13ifvqfa0","pricing_plan_id":"cebpf4jnsgd1na2vs0mg"},{"bike_id":"2ac09ecd-d7f3-4a0d-876f-2bb653f1a5d1","system_id":"levelo_inurba_marseille","lat":43.23959,"lon":5.36625,"is_reserved":false,"is_disabled":false,"rental_uris":{"android":"levelo://app?vid=2ac09ecd-d7f3-4a0d-876f-2bb653f1a5d1","ios":"levelo://app?vid=2ac09ecd-d7f3-4a0d-876f-2bb653f1a5d1"},"vehicle_type_id":"4","last_reported":1729444110,"current_range_meters":10000,"station_id":"ce4bhi12rcd13ifvqfp0","pricing_plan_id":"cebpf4jnsgd1na2vs0mg"},{"bike_id":"e04d55d8-61a7-41c0-87ab-13514e4966d0","system_id":"levelo_inurba_marseille","lat":43.28943,"lon":5.39633,"is_reserved":false,"is_disabled":false,"rental_uris":{"android":"levelo://app?vid=e04d55d8-61a7-41c0-87ab-13514e4966d0","ios":"levelo://app?vid=e04d55d8-61a7-41c0-87ab-13514e4966d0"},"vehicle_type_id":"4","last_reported":1729444110,"current_range_meters":13600,"station_id":"ce4bh3h2rcd13ifvqdn0","pricing_plan_id":"cebpf4jnsgd1na2vs0mg"},{"bike_id":"efe3cf88-77ce-427a-83e3-ddeb1b5f32cf","system_id":"levelo_inurba_marseille","lat":43.31039,"lon":5.40094,"is_reserved":false,"is_disabled":false,"rental_uris":{"android":"levelo://app?vid=efe3cf88-77ce-427a-83e3-ddeb1b5f32cf","ios":"levelo://app?vid=efe3cf88-77ce-427a-83e3-ddeb1b5f32cf"},"vehicle_type_id":"4","last_reported":1729444110,"current_range_meters":33600,"station_id":"","pricing_plan_id":"cebpf4jnsgd1na2vs0mg"},{"bike_id":"39a3115d-d59c-48cf-9a3b-f127643f7933","system_id":"levelo_inurba_marseille","lat":43.29838,"lon":5.36266,"is_reserved":false,"is_disabled":false,"rental_uris":{"android":"levelo://app?vid=39a3115d-d59c-48cf-9a3b-f127643f7933","ios":"levelo://app?vid=39a3115d-d59c-48cf-9a3b-f127643f7933"},"vehicle_type_id":"4","last_reported":1729444110,"current_range_meters":6400,"station_id":"ce4bgpp2rcd13ifvqc3g","pricing_plan_id":"cebpf4jnsgd1na2vs0mg"},{"bike_id":"5c6b1573-d925-488d-9c7c-3f1ec7576333","system_id":"levelo_inurba_marseille","lat":43.29262,"lon":5.40907,"is_reserved":false,"is_disabled":false,"rental_uris":{"android":"levelo://app?vid=5c6b1573-d925-488d-9c7c-3f1ec7576333","ios":"levelo://app?vid=5c6b1573-d925-488d-9c7c-3f1ec7576333"},"vehicle_type_id":"4","last_reported":1729444110,"current_range_meters":8800,"station_id":"ce4bh192rcd13ifvqdc0","pricing_plan_id":"cebpf4jnsgd1na2vs0mg"},{"bike_id":"1f04fa80-2d3a-444a-bf6b-0d3f6c649920","system_id":"levelo_inurba_marseille","lat":43.306561,"lon":5.381712,"is_reserved":false,"is_disabled":false,"rental_uris":{"android":"levelo://app?vid=1f04fa80-2d3a-444a-bf6b-0d3f6c649920","ios":"levelo://app?vid=1f04fa80-2d3a-444a-bf6b-0d3f6c649920"},"vehicle_type_id":"4","last_reported":1729444110,"current_range_meters":37600,"station_id":"","pricing_plan_id":"cebpf4jnsgd1na2vs0mg"},{"bike_id":"03f59eda-df62-4f98-9f99-98035b4cd849","system_id":"levelo_inurba_marseille","lat":43.2971,"lon":5.37723,"is_reserved":false,"is_disabled":false,"rental_uris":{"android":"levelo://app?vid=03f59eda-df62-4f98-9f99-98035b4cd849","ios":"levelo://app?vid=03f59eda-df62-4f98-9f99-98035b4cd849"},"vehicle_type_id":"4","last_reported":1729444110,"current_range_meters":38800,"station_id":"ce4bgkh2rcd13ifvqbl0","pricing_plan_id":"cebpf4jnsgd1na2vs0mg"},{"bike_id":"c101fe65-27d9-4a0c-9cfc-9a06b052d26d","system_id":"levelo_inurba_marseille","lat":43.2799,"lon":5.41658,"is_reserved":false,"is_disabled":false,"rental_uris":{"android":"levelo://app?vid=c101fe65-27d9-4a0c-9cfc-9a06b052d26d","ios":"levelo://app?vid=c101fe65-27d9-4a0c-9cfc-9a06b052d26d"},"vehicle_type_id":"4","last_reported":1729444110,"current_range_meters":28400,"station_id":"ce4bho12rcd13ifvqh1g","pricing_plan_id":"cebpf4jnsgd1na2vs0mg"},{"bike_id":"e7966b91-0697-4020-ae05-523388b63a80","system_id":"levelo_inurba_marseille","lat":43.273031,"lon":5.391104,"is_reserved":false,"is_disabled":false,"rental_uris":{"android":"levelo://app?vid=e7966b91-0697-4020-ae05-523388b63a80","ios":"levelo://app?vid=e7966b91-0697-4020-ae05-523388b63a80"},"vehicle_type_id":"4","last_reported":1729444110,"current_range_meters":4400,"station_id":"","pricing_plan_id":"cebpf4jnsgd1na2vs0mg"},{"bike_id":"b6f7ca15-7be7-4de2-8db8-ce581b9bcff1","system_id":"levelo_inurba_marseille","lat":43.30585,"lon":5.39356,"is_reserved":false,"is_disabled":false,"rental_uris":{"android":"levelo://app?vid=b6f7ca15-7be7-4de2-8db8-ce581b9bcff1","ios":"levelo://app?vid=b6f7ca15-7be7-4de2-8db8-ce581b9bcff1"},"vehicle_type_id":"4","last_reported":1729444110,"current_range_meters":6800,"station_id":"ce4bh0p2rcd13ifvqd80","pricing_plan_id":"cebpf4jnsgd1na2vs0mg"},{"bike_id":"d096b140-d7fb-4a10-ae03-8de8301ca62f","system_id":"levelo_inurba_marseille","lat":43.25499,"lon":5.37654,"is_reserved":false,"is_disabled":false,"rental_uris":{"android":"levelo://app?vid=d096b140-d7fb-4a10-ae03-8de8301ca62f","ios":"levelo://app?vid=d096b140-d7fb-4a10-ae03-8de8301ca62f"},"vehicle_type_id":"4","last_reported":1729444110,"current_range_meters":39200,"station_id":"ce4bhh12rcd13ifvqff0","pricing_plan_id":"cebpf4jnsgd1na2vs0mg"},{"bike_id":"3781ffa1-44d3-48c8-8106-c66cc182111a","system_id":"levelo_inurba_marseille","lat":43.29032,"lon":5.3864,"is_reserved":false,"is_disabled":false,"rental_uris":{"android":"levelo://app?vid=3781ffa1-44d3-48c8-8106-c66cc182111a","ios":"levelo://app?vid=3781ffa1-44d3-48c8-8106-c66cc182111a"},"vehicle_type_id":"4","last_reported":1729444110,"current_range_meters":38000,"station_id":"ce4bh4p2rcd13ifvqe0g","pricing_plan_id":"cebpf4jnsgd1na2vs0mg"},{"bike_id":"01ada70b-931b-4dec-a2ef-46d467397a1d","system_id":"levelo_inurba_marseille","lat":43.3095,"lon":5.39031,"is_reserved":false,"is_disabled":false,"rental_uris":{"android":"levelo://app?vid=01ada70b-931b-4dec-a2ef-46d467397a1d","ios":"levelo://app?vid=01ada70b-931b-4dec-a2ef-46d467397a1d"},"vehicle_type_id":"4","last_reported":1729444110,"current_range_meters":28000,"station_id":"ce4bgup2rcd13ifvqco0","pricing_plan_id":"cebpf4jnsgd1na2vs0mg"},{"bike_id":"3683c35f-582a-482f-afab-a2ec969559ee","system_id":"levelo_inurba_marseille","lat":43.258635,"lon":5.398966,"is_reserved":false,"is_disabled":false,"rental_uris":{"android":"levelo://app?vid=3683c35f-582a-482f-afab-a2ec969559ee","ios":"levelo://app?vid=3683c35f-582a-482f-afab-a2ec969559ee"},"vehicle_type_id":"4","last_reported":1729444110,"current_range_meters":38000,"station_id":"ce4bhl92rcd13ifvqghg","pricing_plan_id":"cebpf4jnsgd1na2vs0mg"},{"bike_id":"40870754-868e-4215-a198-6c9849d25116","system_id":"levelo_inurba_marseille","lat":43.28924,"lon":5.38411,"is_reserved":false,"is_disabled":false,"rental_uris":{"android":"levelo://app?vid=40870754-868e-4215-a198-6c9849d25116","ios":"levelo://app?vid=40870754-868e-4215-a198-6c9849d25116"},"vehicle_type_id":"4","last_reported":1729444110,"current_range_meters":10000,"station_id":"ce4bh612rcd13ifvqe6g","pricing_plan_id":"cebpf4jnsgd1na2vs0mg"},{"bike_id":"05d8f56a-f1ac-48ef-a47e-9201bf482ff2","system_id":"levelo_inurba_marseille","lat":43.27069,"lon":5.42281,"is_reserved":false,"is_disabled":false,"rental_uris":{"android":"levelo://app?vid=05d8f56a-f1ac-48ef-a47e-9201bf482ff2","ios":"levelo://app?vid=05d8f56a-f1ac-48ef-a47e-9201bf482ff2"},"vehicle_type_id":"4","last_reported":1729444110,"current_range_meters":16400,"station_id":"ce4bhk92rcd13ifvqgb0","pricing_plan_id":"cebpf4jnsgd1na2vs0mg"},{"bike_id":"8ba7f6d2-b94f-4ffa-bd08-b43b248e57a7","system_id":"levelo_inurba_marseille","lat":43.25725,"lon":5.41104,"is_reserved":false,"is_disabled":false,"rental_uris":{"android":"levelo://app?vid=8ba7f6d2-b94f-4ffa-bd08-b43b248e57a7","ios":"levelo://app?vid=8ba7f6d2-b94f-4ffa-bd08-b43b248e57a7"},"vehicle_type_id":"4","last_reported":1729444110,"current_range_meters":19600,"station_id":"ce4bhkp2rcd13ifvqgd0","pricing_plan_id":"cebpf4jnsgd1na2vs0mg"},{"bike_id":"90122bb4-12c8-47e1-a4d2-34c422cb6f6a","system_id":"levelo_inurba_marseille","lat":43.31073,"lon":5.40079,"is_reserved":false,"is_disabled":false,"rental_uris":{"android":"levelo://app?vid=90122bb4-12c8-47e1-a4d2-34c422cb6f6a","ios":"levelo://app?vid=90122bb4-12c8-47e1-a4d2-34c422cb6f6a"},"vehicle_type_id":"4","last_reported":1729444110,"current_range_meters":16400,"station_id":"","pricing_plan_id":"cebpf4jnsgd1na2vs0mg"},{"bike_id":"3a32c257-9e11-461a-84a7-3d3f916a8d5a","system_id":"levelo_inurba_marseille","lat":43.301605,"lon":5.39838,"is_reserved":false,"is_disabled":false,"rental_uris":{"android":"levelo://app?vid=3a32c257-9e11-461a-84a7-3d3f916a8d5a","ios":"levelo://app?vid=3a32c257-9e11-461a-84a7-3d3f916a8d5a"},"vehicle_type_id":"4","last_reported":1729444110,"current_range_meters":36000,"station_id":"ce4bh0h2rcd13ifvqd40","pricing_plan_id":"cebpf4jnsgd1na2vs0mg"},{"bike_id":"a4f4fd68-a9a9-42db-8017-602a2358fb3c","system_id":"levelo_inurba_marseille","lat":43.29248,"lon":5.38447,"is_reserved":false,"is_disabled":false,"rental_uris":{"android":"levelo://app?vid=a4f4fd68-a9a9-42db-8017-602a2358fb3c","ios":"levelo://app?vid=a4f4fd68-a9a9-42db-8017-602a2358fb3c"},"vehicle_type_id":"4","last_reported":1729444110,"current_range_meters":36000,"station_id":"","pricing_plan_id":"cebpf4jnsgd1na2vs0mg"},{"bike_id":"d89b89ce-60ea-48e5-8b0b-cd3dd91668a5","system_id":"levelo_inurba_marseille","lat":43.29709,"lon":5.36607,"is_reserved":false,"is_disabled":false,"rental_uris":{"android":"levelo://app?vid=d89b89ce-60ea-48e5-8b0b-cd3dd91668a5","ios":"levelo://app?vid=d89b89ce-60ea-48e5-8b0b-cd3dd91668a5"},"vehicle_type_id":"4","last_reported":1729444110,"current_range_meters":22000,"station_id":"ce4bgn12rcd13ifvqbt0","pricing_plan_id":"cebpf4jnsgd1na2vs0mg"},{"bike_id":"4a24307f-7693-45f4-8a61-e6339da1657a","system_id":"levelo_inurba_marseille","lat":43.29189,"lon":5.3932,"is_reserved":false,"is_disabled":false,"rental_uris":{"android":"levelo://app?vid=4a24307f-7693-45f4-8a61-e6339da1657a","ios":"levelo://app?vid=4a24307f-7693-45f4-8a61-e6339da1657a"},"vehicle_type_id":"4","last_reported":1729444110,"current_range_meters":38000,"station_id":"ce4bh192rcd13ifvqdd0","pricing_plan_id":"cebpf4jnsgd1na2vs0mg"},{"bike_id":"ab5217ac-696f-47ea-accf-7f46c4063444","system_id":"levelo_inurba_marseille","lat":43.337444,"lon":5.374475,"is_reserved":false,"is_disabled":false,"rental_uris":{"android":"levelo://app?vid=ab5217ac-696f-47ea-accf-7f46c4063444","ios":"levelo://app?vid=ab5217ac-696f-47ea-accf-7f46c4063444"},"vehicle_type_id":"4","last_reported":1729444110,"current_range_meters":11600,"station_id":"","pricing_plan_id":"cebpf4jnsgd1na2vs0mg"},{"bike_id":"e9f2db6b-182b-4305-b280-50ec9b86f59b","system_id":"levelo_inurba_marseille","lat":43.309,"lon":5.3719,"is_reserved":false,"is_disabled":false,"rental_uris":{"android":"levelo://app?vid=e9f2db6b-182b-4305-b280-50ec9b86f59b","ios":"levelo://app?vid=e9f2db6b-182b-4305-b280-50ec9b86f59b"},"vehicle_type_id":"4","last_reported":1729444110,"current_range_meters":3600,"station_id":"ce4bguh2rcd13ifvqckg","pricing_plan_id":"cebpf4jnsgd1na2vs0mg"},{"bike_id":"a8fd6ad2-c92b-4b5a-8d70-08b01b56b9e8","system_id":"levelo_inurba_marseille","lat":43.33176,"lon":5.41972,"is_reserved":false,"is_disabled":false,"rental_uris":{"android":"levelo://app?vid=a8fd6ad2-c92b-4b5a-8d70-08b01b56b9e8","ios":"levelo://app?vid=a8fd6ad2-c92b-4b5a-8d70-08b01b56b9e8"},"vehicle_type_id":"4","last_reported":1729444110,"current_range_meters":19600,"station_id":"ce4bhq12rcd13ifvqhhg","pricing_plan_id":"cebpf4jnsgd1na2vs0mg"},{"bike_id":"b94a40fc-74ba-493b-8132-4d6d44690820","system_id":"levelo_inurba_marseille","lat":43.23956,"lon":5.36632,"is_reserved":false,"is_disabled":false,"rental_uris":{"android":"levelo://app?vid=b94a40fc-74ba-493b-8132-4d6d44690820","ios":"levelo://app?vid=b94a40fc-74ba-493b-8132-4d6d44690820"},"vehicle_type_id":"4","last_reported":1729444110,"current_range_meters":22800,"station_id":"ce4bhi12rcd13ifvqfp0","pricing_plan_id":"cebpf4jnsgd1na2vs0mg"},{"bike_id":"e647528e-a975-4522-bc1d-330243412624","system_id":"levelo_inurba_marseille","lat":43.23187,"lon":5.39979,"is_reserved":false,"is_disabled":false,"rental_uris":{"android":"levelo://app?vid=e647528e-a975-4522-bc1d-330243412624","ios":"levelo://app?vid=e647528e-a975-4522-bc1d-330243412624"},"vehicle_type_id":"4","last_reported":1729444110,"current_range_meters":6800,"station_id":"ce4bhn12rcd13ifvqgqg","pricing_plan_id":"cebpf4jnsgd1na2vs0mg"},{"bike_id":"b170c69c-4089-4321-bba9-c9612fefa913","system_id":"levelo_inurba_marseille","lat":43.32451,"lon":5.38405,"is_reserved":false,"is_disabled":false,"rental_uris":{"android":"levelo://app?vid=b170c69c-4089-4321-bba9-c9612fefa913","ios":"levelo://app?vid=b170c69c-4089-4321-bba9-c9612fefa913"},"vehicle_type_id":"4","last_reported":1729444110,"current_range_meters":14800,"station_id":"ce4bhr12rcd13ifvqhqg","pricing_plan_id":"cebpf4jnsgd1na2vs0mg"},{"bike_id":"576f4a68-bacc-48de-9aa5-777451d6c7eb","system_id":"levelo_inurba_marseille","lat":43.27809,"lon":5.40716,"is_reserved":false,"is_disabled":false,"rental_uris":{"android":"levelo://app?vid=576f4a68-bacc-48de-9aa5-777451d6c7eb","ios":"levelo://app?vid=576f4a68-bacc-48de-9aa5-777451d6c7eb"},"vehicle_type_id":"4","last_reported":1729444110,"current_range_meters":11200,"station_id":"ce4bhnh2rcd13ifvqgtg","pricing_plan_id":"cebpf4jnsgd1na2vs0mg"},{"bike_id":"e5416da1-3024-451d-af7c-53afac48d957","system_id":"levelo_inurba_marseille","lat":43.25491,"lon":5.37652,"is_reserved":false,"is_disabled":false,"rental_uris":{"android":"levelo://app?vid=e5416da1-3024-451d-af7c-53afac48d957","ios":"levelo://app?vid=e5416da1-3024-451d-af7c-53afac48d957"},"vehicle_type_id":"4","last_reported":1729444110,"current_range_meters":39200,"station_id":"ce4bhh12rcd13ifvqff0","pricing_plan_id":"cebpf4jnsgd1na2vs0mg"},{"bike_id":"81f344c3-c84b-43ae-88b3-da9a4feaf44a","system_id":"levelo_inurba_marseille","lat":43.29607,"lon":5.37701,"is_reserved":false,"is_disabled":false,"rental_uris":{"android":"levelo://app?vid=81f344c3-c84b-43ae-88b3-da9a4feaf44a","ios":"levelo://app?vid=81f344c3-c84b-43ae-88b3-da9a4feaf44a"},"vehicle_type_id":"4","last_reported":1729444110,"current_range_meters":38800,"station_id":"ce4bgi92rcd13ifvqb90","pricing_plan_id":"cebpf4jnsgd1na2vs0mg"},{"bike_id":"dfaa52d8-cb06-46fc-a8e4-c95843a2eca2","system_id":"levelo_inurba_marseille","lat":43.23957,"lon":5.36628,"is_reserved":false,"is_disabled":false,"rental_uris":{"android":"levelo://app?vid=dfaa52d8-cb06-46fc-a8e4-c95843a2eca2","ios":"levelo://app?vid=dfaa52d8-cb06-46fc-a8e4-c95843a2eca2"},"vehicle_type_id":"4","last_reported":1729444110,"current_range_meters":16000,"station_id":"ce4bhi12rcd13ifvqfp0","pricing_plan_id":"cebpf4jnsgd1na2vs0mg"},{"bike_id":"32cf5d38-788d-40c6-b676-3511ce35b5a2","system_id":"levelo_inurba_marseille","lat":43.25722,"lon":5.41112,"is_reserved":false,"is_disabled":false,"rental_uris":{"android":"levelo://app?vid=32cf5d38-788d-40c6-b676-3511ce35b5a2","ios":"levelo://app?vid=32cf5d38-788d-40c6-b676-3511ce35b5a2"},"vehicle_type_id":"4","last_reported":1729444110,"current_range_meters":27600,"station_id":"ce4bhkp2rcd13ifvqgd0","pricing_plan_id":"cebpf4jnsgd1na2vs0mg"},{"bike_id":"f55888e8-f6d5-4eb9-b380-af9b10298dce","system_id":"levelo_inurba_marseille","lat":43.2926,"lon":5.38442,"is_reserved":false,"is_disabled":false,"rental_uris":{"android":"levelo://app?vid=f55888e8-f6d5-4eb9-b380-af9b10298dce","ios":"levelo://app?vid=f55888e8-f6d5-4eb9-b380-af9b10298dce"},"vehicle_type_id":"4","last_reported":1729444110,"current_range_meters":8000,"station_id":"ce4bhbp2rcd13ifvqerg","pricing_plan_id":"cebpf4jnsgd1na2vs0mg"},{"bike_id":"346c0bea-50e5-4208-a02f-a7b52551ab22","system_id":"levelo_inurba_marseille","lat":43.2481,"lon":5.3746,"is_reserved":false,"is_disabled":false,"rental_uris":{"android":"levelo://app?vid=346c0bea-50e5-4208-a02f-a7b52551ab22","ios":"levelo://app?vid=346c0bea-50e5-4208-a02f-a7b52551ab22"},"vehicle_type_id":"4","last_reported":1729444110,"current_range_meters":38800,"station_id":"ce4bhgh2rcd13ifvqfb0","pricing_plan_id":"cebpf4jnsgd1na2vs0mg"},{"bike_id":"b1fe61fb-a4b9-4dd0-ae5c-1ec1111e82d2","system_id":"levelo_inurba_marseille","lat":43.31755,"lon":5.39022,"is_reserved":false,"is_disabled":false,"rental_uris":{"android":"levelo://app?vid=b1fe61fb-a4b9-4dd0-ae5c-1ec1111e82d2","ios":"levelo://app?vid=b1fe61fb-a4b9-4dd0-ae5c-1ec1111e82d2"},"vehicle_type_id":"4","last_reported":1729444110,"current_range_meters":26800,"station_id":"ce4bhqp2rcd13ifvqhng","pricing_plan_id":"cebpf4jnsgd1na2vs0mg"},{"bike_id":"6e259c1a-bca8-4d92-923b-9eb786e5acbf","system_id":"levelo_inurba_marseille","lat":43.29197,"lon":5.39323,"is_reserved":false,"is_disabled":false,"rental_uris":{"android":"levelo://app?vid=6e259c1a-bca8-4d92-923b-9eb786e5acbf","ios":"levelo://app?vid=6e259c1a-bca8-4d92-923b-9eb786e5acbf"},"vehicle_type_id":"4","last_reported":1729444110,"current_range_meters":10000,"station_id":"ce4bh192rcd13ifvqdd0","pricing_plan_id":"cebpf4jnsgd1na2vs0mg"},{"bike_id":"cf110b27-d342-4608-ae1f-7d00bcb1c7d1","system_id":"levelo_inurba_marseille","lat":43.30296,"lon":5.3687,"is_reserved":false,"is_disabled":false,"rental_uris":{"android":"levelo://app?vid=cf110b27-d342-4608-ae1f-7d00bcb1c7d1","ios":"levelo://app?vid=cf110b27-d342-4608-ae1f-7d00bcb1c7d1"},"vehicle_type_id":"4","last_reported":1729444110,"current_range_meters":3600,"station_id":"ce4bgqh2rcd13ifvqc5g","pricing_plan_id":"cebpf4jnsgd1na2vs0mg"},{"bike_id":"eaf9e22f-0453-4bb9-9007-18d640125857","system_id":"levelo_inurba_marseille","lat":43.30517,"lon":5.36714,"is_reserved":false,"is_disabled":false,"rental_uris":{"android":"levelo://app?vid=eaf9e22f-0453-4bb9-9007-18d640125857","ios":"levelo://app?vid=eaf9e22f-0453-4bb9-9007-18d640125857"},"vehicle_type_id":"4","last_reported":1729444110,"current_range_meters":9200,"station_id":"ce4bgrp2rcd13ifvqc9g","pricing_plan_id":"cebpf4jnsgd1na2vs0mg"},{"bike_id":"99784c89-408b-47f1-b49f-58d3ca57068d","system_id":"levelo_inurba_marseille","lat":43.29962,"lon":5.41328,"is_reserved":false,"is_disabled":false,"rental_uris":{"android":"levelo://app?vid=99784c89-408b-47f1-b49f-58d3ca57068d","ios":"levelo://app?vid=99784c89-408b-47f1-b49f-58d3ca57068d"},"vehicle_type_id":"4","last_reported":1729444110,"current_range_meters":33200,"station_id":"ce4bhp12rcd13ifvqh9g","pricing_plan_id":"cebpf4jnsgd1na2vs0mg"},{"bike_id":"a5636be7-2233-44bf-99c9-431d7c311415","system_id":"levelo_inurba_marseille","lat":43.298,"lon":5.38099,"is_reserved":false,"is_disabled":false,"rental_uris":{"android":"levelo://app?vid=a5636be7-2233-44bf-99c9-431d7c311415","ios":"levelo://app?vid=a5636be7-2233-44bf-99c9-431d7c311415"},"vehicle_type_id":"4","last_reported":1729444110,"current_range_meters":6400,"station_id":"ce4bgip2rcd13ifvqbb0","pricing_plan_id":"cebpf4jnsgd1na2vs0mg"},{"bike_id":"67935990-c302-4ed7-9e2a-5051f9eb220f","system_id":"levelo_inurba_marseille","lat":43.23953,"lon":5.36641,"is_reserved":false,"is_disabled":false,"rental_uris":{"android":"levelo://app?vid=67935990-c302-4ed7-9e2a-5051f9eb220f","ios":"levelo://app?vid=67935990-c302-4ed7-9e2a-5051f9eb220f"},"vehicle_type_id":"4","last_reported":1729444110,"current_range_meters":22400,"station_id":"ce4bhi12rcd13ifvqfp0","pricing_plan_id":"cebpf4jnsgd1na2vs0mg"},{"bike_id":"c3d5e128-46e5-457a-9cc5-ec0dd85d845f","system_id":"levelo_inurba_marseille","lat":43.30104,"lon":5.39176,"is_reserved":false,"is_disabled":false,"rental_uris":{"android":"levelo://app?vid=c3d5e128-46e5-457a-9cc5-ec0dd85d845f","ios":"levelo://app?vid=c3d5e128-46e5-457a-9cc5-ec0dd85d845f"},"vehicle_type_id":"4","last_reported":1729444110,"current_range_meters":18800,"station_id":"","pricing_plan_id":"cebpf4jnsgd1na2vs0mg"},{"bike_id":"09aea746-fe64-4fa6-b447-464a281e7fd3","system_id":"levelo_inurba_marseille","lat":43.2549,"lon":5.37647,"is_reserved":false,"is_disabled":false,"rental_uris":{"android":"levelo://app?vid=09aea746-fe64-4fa6-b447-464a281e7fd3","ios":"levelo://app?vid=09aea746-fe64-4fa6-b447-464a281e7fd3"},"vehicle_type_id":"4","last_reported":1729444110,"current_range_meters":39200,"station_id":"ce4bhh12rcd13ifvqff0","pricing_plan_id":"cebpf4jnsgd1na2vs0mg"},{"bike_id":"a4b3cd1f-f147-4339-8cb7-38993704f484","system_id":"levelo_inurba_marseille","lat":43.28367,"lon":5.38634,"is_reserved":false,"is_disabled":false,"rental_uris":{"android":"levelo://app?vid=a4b3cd1f-f147-4339-8cb7-38993704f484","ios":"levelo://app?vid=a4b3cd1f-f147-4339-8cb7-38993704f484"},"vehicle_type_id":"4","last_reported":1729444110,"current_range_meters":6400,"station_id":"ce4bh492rcd13ifvqdvg","pricing_plan_id":"cebpf4jnsgd1na2vs0mg"},{"bike_id":"6311f596-daec-48f5-92e7-240c458db6c9","system_id":"levelo_inurba_marseille","lat":43.31753,"lon":5.39025,"is_reserved":false,"is_disabled":false,"rental_uris":{"android":"levelo://app?vid=6311f596-daec-48f5-92e7-240c458db6c9","ios":"levelo://app?vid=6311f596-daec-48f5-92e7-240c458db6c9"},"vehicle_type_id":"4","last_reported":1729444110,"current_range_meters":33200,"station_id":"ce4bhqp2rcd13ifvqhng","pricing_plan_id":"cebpf4jnsgd1na2vs0mg"},{"bike_id":"5507011e-e136-457a-bc95-160d4e426d20","system_id":"levelo_inurba_marseille","lat":43.27181,"lon":5.40998,"is_reserved":false,"is_disabled":false,"rental_uris":{"android":"levelo://app?vid=5507011e-e136-457a-bc95-160d4e426d20","ios":"levelo://app?vid=5507011e-e136-457a-bc95-160d4e426d20"},"vehicle_type_id":"4","last_reported":1729444110,"current_range_meters":30400,"station_id":"ce4bhl12rcd13ifvqgf0","pricing_plan_id":"cebpf4jnsgd1na2vs0mg"},{"bike_id":"acce8f49-e830-4a1b-b57f-c163fc0244a3","system_id":"levelo_inurba_marseille","lat":43.27494,"lon":5.42458,"is_reserved":false,"is_disabled":false,"rental_uris":{"android":"levelo://app?vid=acce8f49-e830-4a1b-b57f-c163fc0244a3","ios":"levelo://app?vid=acce8f49-e830-4a1b-b57f-c163fc0244a3"},"vehicle_type_id":"4","last_reported":1729444110,"current_range_meters":14000,"station_id":"ce4bhn92rcd13ifvqgrg","pricing_plan_id":"cebpf4jnsgd1na2vs0mg"},{"bike_id":"481bb12a-5f4e-4eec-8cb0-2f68a334e41d","system_id":"levelo_inurba_marseille","lat":43.28351,"lon":5.38115,"is_reserved":false,"is_disabled":false,"rental_uris":{"android":"levelo://app?vid=481bb12a-5f4e-4eec-8cb0-2f68a334e41d","ios":"levelo://app?vid=481bb12a-5f4e-4eec-8cb0-2f68a334e41d"},"vehicle_type_id":"4","last_reported":1729444110,"current_range_meters":25600,"station_id":"ce4bh412rcd13ifvqdr0","pricing_plan_id":"cebpf4jnsgd1na2vs0mg"},{"bike_id":"86f95809-82de-4cba-ab15-4a620d94bd5b","system_id":"levelo_inurba_marseille","lat":43.28609,"lon":5.37062,"is_reserved":false,"is_disabled":false,"rental_uris":{"android":"levelo://app?vid=86f95809-82de-4cba-ab15-4a620d94bd5b","ios":"levelo://app?vid=86f95809-82de-4cba-ab15-4a620d94bd5b"},"vehicle_type_id":"4","last_reported":1729444110,"current_range_meters":8400,"station_id":"ce4bht12rcd13ifvqi60","pricing_plan_id":"cebpf4jnsgd1na2vs0mg"},{"bike_id":"3d496646-7258-4793-b165-defae32cd5d0","system_id":"levelo_inurba_marseille","lat":43.29033,"lon":5.38661,"is_reserved":false,"is_disabled":false,"rental_uris":{"android":"levelo://app?vid=3d496646-7258-4793-b165-defae32cd5d0","ios":"levelo://app?vid=3d496646-7258-4793-b165-defae32cd5d0"},"vehicle_type_id":"4","last_reported":1729444110,"current_range_meters":28400,"station_id":"ce4bh4p2rcd13ifvqe0g","pricing_plan_id":"cebpf4jnsgd1na2vs0mg"},{"bike_id":"9b54ea7d-55db-4ad4-ad81-f3497361ffa6","system_id":"levelo_inurba_marseille","lat":43.27941,"lon":5.41056,"is_reserved":false,"is_disabled":false,"rental_uris":{"android":"levelo://app?vid=9b54ea7d-55db-4ad4-ad81-f3497361ffa6","ios":"levelo://app?vid=9b54ea7d-55db-4ad4-ad81-f3497361ffa6"},"vehicle_type_id":"4","last_reported":1729444110,"current_range_meters":28800,"station_id":"ce4bhnp2rcd13ifvqh0g","pricing_plan_id":"cebpf4jnsgd1na2vs0mg"},{"bike_id":"37fd51a3-e139-4b4d-a6f8-c6c878120739","system_id":"levelo_inurba_marseille","lat":43.23955,"lon":5.36639,"is_reserved":false,"is_disabled":false,"rental_uris":{"android":"levelo://app?vid=37fd51a3-e139-4b4d-a6f8-c6c878120739","ios":"levelo://app?vid=37fd51a3-e139-4b4d-a6f8-c6c878120739"},"vehicle_type_id":"4","last_reported":1729444110,"current_range_meters":32800,"station_id":"ce4bhi12rcd13ifvqfp0","pricing_plan_id":"cebpf4jnsgd1na2vs0mg"},{"bike_id":"281b5b46-ac4c-4730-b7d5-f34e170d968b","system_id":"levelo_inurba_marseille","lat":43.30543,"lon":5.36551,"is_reserved":false,"is_disabled":false,"rental_uris":{"android":"levelo://app?vid=281b5b46-ac4c-4730-b7d5-f34e170d968b","ios":"levelo://app?vid=281b5b46-ac4c-4730-b7d5-f34e170d968b"},"vehicle_type_id":"4","last_reported":1729444110,"current_range_meters":25600,"station_id":"ce4bgs12rcd13ifvqcag","pricing_plan_id":"cebpf4jnsgd1na2vs0mg"},{"bike_id":"01d2312e-6c42-431e-bb41-99f61dd1a0ca","system_id":"levelo_inurba_marseille","lat":43.33656,"lon":5.3921,"is_reserved":false,"is_disabled":false,"rental_uris":{"android":"levelo://app?vid=01d2312e-6c42-431e-bb41-99f61dd1a0ca","ios":"levelo://app?vid=01d2312e-6c42-431e-bb41-99f61dd1a0ca"},"vehicle_type_id":"4","last_reported":1729444110,"current_range_meters":24800,"station_id":"","pricing_plan_id":"cebpf4jnsgd1na2vs0mg"},{"bike_id":"1d26d641-7496-4821-b5a9-625ace6a0900","system_id":"levelo_inurba_marseille","lat":43.32212,"lon":5.3872,"is_reserved":false,"is_disabled":false,"rental_uris":{"android":"levelo://app?vid=1d26d641-7496-4821-b5a9-625ace6a0900","ios":"levelo://app?vid=1d26d641-7496-4821-b5a9-625ace6a0900"},"vehicle_type_id":"4","last_reported":1729444110,"current_range_meters":38000,"station_id":"","pricing_plan_id":"cebpf4jnsgd1na2vs0mg"},{"bike_id":"d2f09abd-3039-48d6-8109-955785fc4a8c","system_id":"levelo_inurba_marseille","lat":43.291992,"lon":5.35797,"is_reserved":false,"is_disabled":false,"rental_uris":{"android":"levelo://app?vid=d2f09abd-3039-48d6-8109-955785fc4a8c","ios":"levelo://app?vid=d2f09abd-3039-48d6-8109-955785fc4a8c"},"vehicle_type_id":"4","last_reported":1729444110,"current_range_meters":24400,"station_id":"","pricing_plan_id":"cebpf4jnsgd1na2vs0mg"},{"bike_id":"5b22c315-431e-486a-b731-c8a793265da3","system_id":"levelo_inurba_marseille","lat":43.28937,"lon":5.39645,"is_reserved":false,"is_disabled":false,"rental_uris":{"android":"levelo://app?vid=5b22c315-431e-486a-b731-c8a793265da3","ios":"levelo://app?vid=5b22c315-431e-486a-b731-c8a793265da3"},"vehicle_type_id":"4","last_reported":1729444110,"current_range_meters":36800,"station_id":"ce4bh3h2rcd13ifvqdn0","pricing_plan_id":"cebpf4jnsgd1na2vs0mg"},{"bike_id":"c395d2db-4fe5-4dce-85e2-7b93b1420be0","system_id":"levelo_inurba_marseille","lat":43.29173,"lon":5.37151,"is_reserved":false,"is_disabled":false,"rental_uris":{"android":"levelo://app?vid=c395d2db-4fe5-4dce-85e2-7b93b1420be0","ios":"levelo://app?vid=c395d2db-4fe5-4dce-85e2-7b93b1420be0"},"vehicle_type_id":"4","last_reported":1729444110,"current_range_meters":19200,"station_id":"ce4bha92rcd13ifvqeh0","pricing_plan_id":"cebpf4jnsgd1na2vs0mg"},{"bike_id":"ff59d581-d920-4cb3-8b01-ea871e89b210","system_id":"levelo_inurba_marseille","lat":43.30097,"lon":5.39069,"is_reserved":false,"is_disabled":false,"rental_uris":{"android":"levelo://app?vid=ff59d581-d920-4cb3-8b01-ea871e89b210","ios":"levelo://app?vid=ff59d581-d920-4cb3-8b01-ea871e89b210"},"vehicle_type_id":"4","last_reported":1729444110,"current_range_meters":6000,"station_id":"ce4bh192rcd13ifvqdb0","pricing_plan_id":"cebpf4jnsgd1na2vs0mg"},{"bike_id":"93c76817-c5c8-4199-a6b2-ab946e8d4944","system_id":"levelo_inurba_marseille","lat":43.25497,"lon":5.37655,"is_reserved":false,"is_disabled":false,"rental_uris":{"android":"levelo://app?vid=93c76817-c5c8-4199-a6b2-ab946e8d4944","ios":"levelo://app?vid=93c76817-c5c8-4199-a6b2-ab946e8d4944"},"vehicle_type_id":"4","last_reported":1729444110,"current_range_meters":39200,"station_id":"ce4bhh12rcd13ifvqff0","pricing_plan_id":"cebpf4jnsgd1na2vs0mg"},{"bike_id":"9a9b8d94-1783-4c4a-91f7-746cb2bb57a9","system_id":"levelo_inurba_marseille","lat":43.30878,"lon":5.39647,"is_reserved":false,"is_disabled":false,"rental_uris":{"android":"levelo://app?vid=9a9b8d94-1783-4c4a-91f7-746cb2bb57a9","ios":"levelo://app?vid=9a9b8d94-1783-4c4a-91f7-746cb2bb57a9"},"vehicle_type_id":"4","last_reported":1729444110,"current_range_meters":9200,"station_id":"ce4bh012rcd13ifvqcv0","pricing_plan_id":"cebpf4jnsgd1na2vs0mg"},{"bike_id":"5242d3ce-b3e1-4736-8933-f4115cf1c5cf","system_id":"levelo_inurba_marseille","lat":43.30882,"lon":5.39648,"is_reserved":false,"is_disabled":false,"rental_uris":{"android":"levelo://app?vid=5242d3ce-b3e1-4736-8933-f4115cf1c5cf","ios":"levelo://app?vid=5242d3ce-b3e1-4736-8933-f4115cf1c5cf"},"vehicle_type_id":"4","last_reported":1729444110,"current_range_meters":11200,"station_id":"ce4bh012rcd13ifvqcv0","pricing_plan_id":"cebpf4jnsgd1na2vs0mg"},{"bike_id":"6e3224dd-8d57-48c6-b977-99396d473280","system_id":"levelo_inurba_marseille","lat":43.29549,"lon":5.42293,"is_reserved":false,"is_disabled":false,"rental_uris":{"android":"levelo://app?vid=6e3224dd-8d57-48c6-b977-99396d473280","ios":"levelo://app?vid=6e3224dd-8d57-48c6-b977-99396d473280"},"vehicle_type_id":"4","last_reported":1729444110,"current_range_meters":6800,"station_id":"ce4bhph2rcd13ifvqhdg","pricing_plan_id":"cebpf4jnsgd1na2vs0mg"},{"bike_id":"198436c0-3a06-4811-927d-f530e0a151d6","system_id":"levelo_inurba_marseille","lat":43.29534,"lon":5.39392,"is_reserved":false,"is_disabled":false,"rental_uris":{"android":"levelo://app?vid=198436c0-3a06-4811-927d-f530e0a151d6","ios":"levelo://app?vid=198436c0-3a06-4811-927d-f530e0a151d6"},"vehicle_type_id":"4","last_reported":1729444110,"current_range_meters":7200,"station_id":"ce4bh292rcd13ifvqdf0","pricing_plan_id":"cebpf4jnsgd1na2vs0mg"},{"bike_id":"6785de35-100b-413f-9d98-d3079b0f22c6","system_id":"levelo_inurba_marseille","lat":43.282379,"lon":5.372973,"is_reserved":false,"is_disabled":false,"rental_uris":{"android":"levelo://app?vid=6785de35-100b-413f-9d98-d3079b0f22c6","ios":"levelo://app?vid=6785de35-100b-413f-9d98-d3079b0f22c6"},"vehicle_type_id":"4","last_reported":1729444110,"current_range_meters":6400,"station_id":"","pricing_plan_id":"cebpf4jnsgd1na2vs0mg"},{"bike_id":"eeb3d1b4-3dd5-4f62-9342-8745fa0cbd97","system_id":"levelo_inurba_marseille","lat":43.24666,"lon":5.3816,"is_reserved":false,"is_disabled":false,"rental_uris":{"android":"levelo://app?vid=eeb3d1b4-3dd5-4f62-9342-8745fa0cbd97","ios":"levelo://app?vid=eeb3d1b4-3dd5-4f62-9342-8745fa0cbd97"},"vehicle_type_id":"4","last_reported":1729444110,"current_range_meters":6800,"station_id":"ce4bhih2rcd13ifvqfr0","pricing_plan_id":"cebpf4jnsgd1na2vs0mg"},{"bike_id":"7c59256a-a539-43f8-8dd2-2116261f86c1","system_id":"levelo_inurba_marseille","lat":43.25292,"lon":5.38002,"is_reserved":false,"is_disabled":false,"rental_uris":{"android":"levelo://app?vid=7c59256a-a539-43f8-8dd2-2116261f86c1","ios":"levelo://app?vid=7c59256a-a539-43f8-8dd2-2116261f86c1"},"vehicle_type_id":"4","last_reported":1729444110,"current_range_meters":19200,"station_id":"ce4bhn12rcd13ifvqgqg","pricing_plan_id":"cebpf4jnsgd1na2vs0mg"},{"bike_id":"ec493958-ec00-487c-9831-0fe861287cbc","system_id":"levelo_inurba_marseille","lat":43.25499,"lon":5.37651,"is_reserved":false,"is_disabled":false,"rental_uris":{"android":"levelo://app?vid=ec493958-ec00-487c-9831-0fe861287cbc","ios":"levelo://app?vid=ec493958-ec00-487c-9831-0fe861287cbc"},"vehicle_type_id":"4","last_reported":1729444110,"current_range_meters":39200,"station_id":"ce4bhh12rcd13ifvqff0","pricing_plan_id":"cebpf4jnsgd1na2vs0mg"},{"bike_id":"7e55846b-7dfd-49fc-a554-7d9409025bb9","system_id":"levelo_inurba_marseille","lat":43.23961,"lon":5.3663,"is_reserved":false,"is_disabled":false,"rental_uris":{"android":"levelo://app?vid=7e55846b-7dfd-49fc-a554-7d9409025bb9","ios":"levelo://app?vid=7e55846b-7dfd-49fc-a554-7d9409025bb9"},"vehicle_type_id":"4","last_reported":1729444110,"current_range_meters":13600,"station_id":"ce4bhi12rcd13ifvqfp0","pricing_plan_id":"cebpf4jnsgd1na2vs0mg"},{"bike_id":"0f9e4464-d06c-4a9f-b826-a80fab94ccfe","system_id":"levelo_inurba_marseille","lat":43.2872,"lon":5.37939,"is_reserved":false,"is_disabled":false,"rental_uris":{"android":"levelo://app?vid=0f9e4464-d06c-4a9f-b826-a80fab94ccfe","ios":"levelo://app?vid=0f9e4464-d06c-4a9f-b826-a80fab94ccfe"},"vehicle_type_id":"4","last_reported":1729444110,"current_range_meters":5600,"station_id":"ce4bh9p2rcd13ifvqec0","pricing_plan_id":"cebpf4jnsgd1na2vs0mg"},{"bike_id":"06efb34a-e166-4ae6-a656-ceedbe5fa8ac","system_id":"levelo_inurba_marseille","lat":43.3377,"lon":5.37448,"is_reserved":false,"is_disabled":false,"rental_uris":{"android":"levelo://app?vid=06efb34a-e166-4ae6-a656-ceedbe5fa8ac","ios":"levelo://app?vid=06efb34a-e166-4ae6-a656-ceedbe5fa8ac"},"vehicle_type_id":"4","last_reported":1729444110,"current_range_meters":23200,"station_id":"","pricing_plan_id":"cebpf4jnsgd1na2vs0mg"},{"bike_id":"56b15704-e193-4a1d-898d-12caa6d0a76c","system_id":"levelo_inurba_marseille","lat":43.29193,"lon":5.39301,"is_reserved":false,"is_disabled":false,"rental_uris":{"android":"levelo://app?vid=56b15704-e193-4a1d-898d-12caa6d0a76c","ios":"levelo://app?vid=56b15704-e193-4a1d-898d-12caa6d0a76c"},"vehicle_type_id":"4","last_reported":1729444110,"current_range_meters":38800,"station_id":"ce4bh192rcd13ifvqdd0","pricing_plan_id":"cebpf4jnsgd1na2vs0mg"},{"bike_id":"6172a986-db19-4612-aec5-cc5e0d44ad76","system_id":"levelo_inurba_marseille","lat":43.284745,"lon":5.384164,"is_reserved":false,"is_disabled":false,"rental_uris":{"android":"levelo://app?vid=6172a986-db19-4612-aec5-cc5e0d44ad76","ios":"levelo://app?vid=6172a986-db19-4612-aec5-cc5e0d44ad76"},"vehicle_type_id":"4","last_reported":1729444110,"current_range_meters":6400,"station_id":"","pricing_plan_id":"cebpf4jnsgd1na2vs0mg"},{"bike_id":"2973020b-455a-408d-bddf-49509f0439b2","system_id":"levelo_inurba_marseille","lat":43.23952,"lon":5.3663,"is_reserved":false,"is_disabled":false,"rental_uris":{"android":"levelo://app?vid=2973020b-455a-408d-bddf-49509f0439b2","ios":"levelo://app?vid=2973020b-455a-408d-bddf-49509f0439b2"},"vehicle_type_id":"4","last_reported":1729444110,"current_range_meters":36400,"station_id":"ce4bhi12rcd13ifvqfp0","pricing_plan_id":"cebpf4jnsgd1na2vs0mg"},{"bike_id":"441982c8-c9d6-4f28-87ef-cc382c34b20a","system_id":"levelo_inurba_marseille","lat":43.28713,"lon":5.37375,"is_reserved":false,"is_disabled":false,"rental_uris":{"android":"levelo://app?vid=441982c8-c9d6-4f28-87ef-cc382c34b20a","ios":"levelo://app?vid=441982c8-c9d6-4f28-87ef-cc382c34b20a"},"vehicle_type_id":"4","last_reported":1729444110,"current_range_meters":8800,"station_id":"ce4bh3p2rcd13ifvqdq0","pricing_plan_id":"cebpf4jnsgd1na2vs0mg"},{"bike_id":"0603020f-409c-4490-8fca-4738e1333eff","system_id":"levelo_inurba_marseille","lat":43.3248,"lon":5.36568,"is_reserved":false,"is_disabled":false,"rental_uris":{"android":"levelo://app?vid=0603020f-409c-4490-8fca-4738e1333eff","ios":"levelo://app?vid=0603020f-409c-4490-8fca-4738e1333eff"},"vehicle_type_id":"4","last_reported":1729444110,"current_range_meters":8000,"station_id":"ce4bhs12rcd13ifvqhvg","pricing_plan_id":"cebpf4jnsgd1na2vs0mg"},{"bike_id":"e72898c9-feef-4f46-9220-279373671054","system_id":"levelo_inurba_marseille","lat":43.29893,"lon":5.43672,"is_reserved":false,"is_disabled":false,"rental_uris":{"android":"levelo://app?vid=e72898c9-feef-4f46-9220-279373671054","ios":"levelo://app?vid=e72898c9-feef-4f46-9220-279373671054"},"vehicle_type_id":"4","last_reported":1729444110,"current_range_meters":24800,"station_id":"ce4bhpp2rcd13ifvqhfg","pricing_plan_id":"cebpf4jnsgd1na2vs0mg"},{"bike_id":"2ab12eda-a4af-4fcf-871f-1560c958dcdf","system_id":"levelo_inurba_marseille","lat":43.25562,"lon":5.38237,"is_reserved":false,"is_disabled":false,"rental_uris":{"android":"levelo://app?vid=2ab12eda-a4af-4fcf-871f-1560c958dcdf","ios":"levelo://app?vid=2ab12eda-a4af-4fcf-871f-1560c958dcdf"},"vehicle_type_id":"4","last_reported":1729444110,"current_range_meters":28800,"station_id":"ce4bhih2rcd13ifvqfs0","pricing_plan_id":"cebpf4jnsgd1na2vs0mg"},{"bike_id":"15d2267f-5a58-4889-81e0-a95f937b748f","system_id":"levelo_inurba_marseille","lat":43.30131,"lon":5.39863,"is_reserved":false,"is_disabled":false,"rental_uris":{"android":"levelo://app?vid=15d2267f-5a58-4889-81e0-a95f937b748f","ios":"levelo://app?vid=15d2267f-5a58-4889-81e0-a95f937b748f"},"vehicle_type_id":"4","last_reported":1729444110,"current_range_meters":12000,"station_id":"ce4bh0h2rcd13ifvqd40","pricing_plan_id":"cebpf4jnsgd1na2vs0mg"},{"bike_id":"0aa7c708-b01e-4e41-8522-b9703fd2b21d","system_id":"levelo_inurba_marseille","lat":43.29259,"lon":5.40896,"is_reserved":false,"is_disabled":false,"rental_uris":{"android":"levelo://app?vid=0aa7c708-b01e-4e41-8522-b9703fd2b21d","ios":"levelo://app?vid=0aa7c708-b01e-4e41-8522-b9703fd2b21d"},"vehicle_type_id":"4","last_reported":1729444110,"current_range_meters":37600,"station_id":"ce4bh192rcd13ifvqdc0","pricing_plan_id":"cebpf4jnsgd1na2vs0mg"},{"bike_id":"7c4c1617-d3c8-4484-a793-b4ff028cf2e8","system_id":"levelo_inurba_marseille","lat":43.284283,"lon":5.375179,"is_reserved":false,"is_disabled":false,"rental_uris":{"android":"levelo://app?vid=7c4c1617-d3c8-4484-a793-b4ff028cf2e8","ios":"levelo://app?vid=7c4c1617-d3c8-4484-a793-b4ff028cf2e8"},"vehicle_type_id":"4","last_reported":1729444110,"current_range_meters":24000,"station_id":"ce4bh412rcd13ifvqds0","pricing_plan_id":"cebpf4jnsgd1na2vs0mg"},{"bike_id":"355fcffb-bf77-4e63-bd2a-003bd6144505","system_id":"levelo_inurba_marseille","lat":43.31989,"lon":5.38152,"is_reserved":false,"is_disabled":false,"rental_uris":{"android":"levelo://app?vid=355fcffb-bf77-4e63-bd2a-003bd6144505","ios":"levelo://app?vid=355fcffb-bf77-4e63-bd2a-003bd6144505"},"vehicle_type_id":"4","last_reported":1729444110,"current_range_meters":38000,"station_id":"ce4bhr12rcd13ifvqhpg","pricing_plan_id":"cebpf4jnsgd1na2vs0mg"},{"bike_id":"b3c03f5b-fdfe-44d8-bfa3-0f39da94ca6a","system_id":"levelo_inurba_marseille","lat":43.28039,"lon":5.3695,"is_reserved":false,"is_disabled":false,"rental_uris":{"android":"levelo://app?vid=b3c03f5b-fdfe-44d8-bfa3-0f39da94ca6a","ios":"levelo://app?vid=b3c03f5b-fdfe-44d8-bfa3-0f39da94ca6a"},"vehicle_type_id":"4","last_reported":1729444110,"current_range_meters":4000,"station_id":"ce4bha12rcd13ifvqef0","pricing_plan_id":"cebpf4jnsgd1na2vs0mg"},{"bike_id":"55115762-549f-49c6-81c9-13306275cc72","system_id":"levelo_inurba_marseille","lat":43.295349,"lon":5.374228,"is_reserved":false,"is_disabled":false,"rental_uris":{"android":"levelo://app?vid=55115762-549f-49c6-81c9-13306275cc72","ios":"levelo://app?vid=55115762-549f-49c6-81c9-13306275cc72"},"vehicle_type_id":"4","last_reported":1729444110,"current_range_meters":21600,"station_id":"ce4bhm12rcd13ifvqgkg","pricing_plan_id":"cebpf4jnsgd1na2vs0mg"},{"bike_id":"41eef0c3-1e49-46e5-8deb-248fc621f8e1","system_id":"levelo_inurba_marseille","lat":43.32656,"lon":5.40999,"is_reserved":false,"is_disabled":false,"rental_uris":{"android":"levelo://app?vid=41eef0c3-1e49-46e5-8deb-248fc621f8e1","ios":"levelo://app?vid=41eef0c3-1e49-46e5-8deb-248fc621f8e1"},"vehicle_type_id":"4","last_reported":1729444110,"current_range_meters":38000,"station_id":"ce4bhpp2rcd13ifvqhgg","pricing_plan_id":"cebpf4jnsgd1na2vs0mg"},