{"last_updated":1725300695,"ttl":30,"version":"2.2","data":{"bikes":[{"bike_id":"67d0c600-186f-4929-b227-2c1e3017b2a2","system_id":"levelo_inurba_marseille","lat":43.312302,"lon":5.368566,"is_reserved":false,"is_disabled":false,"rental_uris":{"android":"levelo://app?vid=67d0c600-186f-4929-b227-2c1e3017b2a2","ios":"levelo://app?vid=67d0c600-186f-4929-b227-2c1e3017b2a2"},"vehicle_type_id":"4","last_reported":1725300695,"current_range_meters":23600,"station_id":"ce4bgl92rcd13ifvqbq0","pricing_plan_id":"cebpf4jnsgd1na2vs0mg"},{"bike_id":"61c4eaf9-6bbe-49fe-86f0-aa9c32041e41","system_id":"levelo_inurba_marseille","lat":43.30916,"lon":5.368475,"is_reserved":false,"is_disabled":false,"rental_uris":{"android":"levelo://app?vid=61c4eaf9-6bbe-49fe-86f0-aa9c32041e41","ios":"levelo://app?vid=61c4eaf9-6bbe-49fe-86f0-aa9c32041e41"},"vehicle_type_id":"4","last_reported":1725300695,"current_range_meters":2400,"station_id":"ce4bgn92rcd13ifvqbvg","pricing_plan_id":"cebpf4jnsgd1na2vs0mg"},{"bike_id":"2bc3d553-6175-42ff-a0c6-4243e2d1f89b","system_id":"levelo_inurba_marseille","lat":43.30911,"lon":5.36849,"is_reserved":false,"is_disabled":false,"rental_uris":{"android":"levelo://app?vid=2bc3d553-6175-42ff-a0c6-4243e2d1f89b","ios":"levelo://app?vid=2bc3d553-6175-42ff-a0c6-4243e2d1f89b"},"vehicle_type_id":"4","last_reported":1725300695,"current_range_meters":0,"station_id":"ce4bgn92rcd13ifvqbvg","pricing_plan_id":"cebpf4jnsgd1na2vs0mg"},{"bike_id":"81b9a505-78b1-48ec-bec3-eca5201dfdf4","system_id":"levelo_inurba_marseille","lat":43.314811,"lon":5.373103,"is_reserved":false,"is_disabled":false,"rental_uris":{"android":"levelo://app?vid=81b9a505-78b1-48ec-bec3-eca5201dfdf4","ios":"levelo://app?vid=81b9a505-78b1-48ec-bec3-eca5201dfdf4"},"vehicle_type_id":"4","last_reported":1725300695,"current_range_meters":27600,"station_id":"ce4bgt12rcd13ifvqcd0","pricing_plan_id":"cebpf4jnsgd1na2vs0mg"},{"bike_id":"d6ded4ea-5f63-4b93-933b-943372d84b78","system_id":"levelo_inurba_marseille","lat":43.314811,"lon":5.373104,"is_reserved":false,"is_disabled":false,"rental_uris":{"android":"levelo://app?vid=d6ded4ea-5f63-4b93-933b-943372d84b78","ios":"levelo://app?vid=d6ded4ea-5f63-4b93-933b-943372d84b78"},"vehicle_type_id":"4","last_reported":1725300695,"current_range_meters":31200,"station_id":"ce4bgt12rcd13ifvqcd0","pricing_plan_id":"cebpf4jnsgd1na2vs0mg"},{"bike_id":"8c1c1afe-c7e7-4111-8aa7-96f5d6510d20","system_id":"levelo_inurba_marseille","lat":43.30564,"lon":5.36558,"is_reserved":false,"is_disabled":false,"rental_uris":{"android":"levelo://app?vid=8c1c1afe-c7e7-4111-8aa7-96f5d6510d20","ios":"levelo://app?vid=8c1c1afe-c7e7-4111-8aa7-96f5d6510d20"},"vehicle_type_id":"4","last_reported":1725300695,"current_range_meters":12400,"station_id":"ce4bgs12rcd13ifvqcag","pricing_plan_id":"cebpf4jnsgd1na2vs0mg"},{"bike_id":"a83f000f-13ab-4897-9b6d-03b1dae46708","system_id":"levelo_inurba_marseille","lat":43.305706,"lon":5.365654,"is_reserved":false,"is_disabled":false,"rental_uris":{"android":"levelo://app?vid=a83f000f-13ab-4897-9b6d-03b1dae46708","ios":"levelo://app?vid=a83f000f-13ab-4897-9b6d-03b1dae46708"},"vehicle_type_id":"4","last_reported":1725300695,"current_range_meters":26400,"station_id":"ce4bgs12rcd13ifvqcag","pricing_plan_id":"cebpf4jnsgd1na2vs0mg"},{"bike_id":"389cb99a-f3fe-4c03-ab87-321c040ad214","system_id":"levelo_inurba_marseille","lat":43.305989,"lon":5.37225,"is_reserved":false,"is_disabled":false,"rental_uris":{"android":"levelo://app?vid=389cb99a-f3fe-4c03-ab87-321c040ad214","ios":"levelo://app?vid=389cb99a-f3fe-4c03-ab87-321c040ad214"},"vehicle_type_id":"4","last_reported":1725300695,"current_range_meters":6000,"station_id":"ce4bgqh2rcd13ifvqc4g","pricing_plan_id":"cebpf4jnsgd1na2vs0mg"},{"bike_id":"97d813bf-45a1-4448-88a5-32abfe7f3f2a","system_id":"levelo_inurba_marseille","lat":43.311125,"lon":5.377624,"is_reserved":false,"is_disabled":false,"rental_uris":{"android":"levelo://app?vid=97d813bf-45a1-4448-88a5-32abfe7f3f2a","ios":"levelo://app?vid=97d813bf-45a1-4448-88a5-32abfe7f3f2a"},"vehicle_type_id":"4","last_reported":1725300695,"current_range_meters":400,"station_id":"ce4bgt92rcd13ifvqcg0","pricing_plan_id":"cebpf4jnsgd1na2vs0mg"},{"bike_id":"a0c40e43-51a0-467d-b856-f57fe7733b7c","system_id":"levelo_inurba_marseille","lat":43.311125,"lon":5.377624,"is_reserved":false,"is_disabled":false,"rental_uris":{"android":"levelo://app?vid=a0c40e43-51a0-467d-b856-f57fe7733b7c","ios":"levelo://app?vid=a0c40e43-51a0-467d-b856-f57fe7733b7c"},"vehicle_type_id":"4","last_reported":1725300695,"current_range_meters":0,"station_id":"ce4bgt92rcd13ifvqcg0","pricing_plan_id":"cebpf4jnsgd1na2vs0mg"},{"bike_id":"315b13cf-5df2-4212-9d83-6b1f658e5700","system_id":"levelo_inurba_marseille","lat":43.317075,"lon":5.377367,"is_reserved":false,"is_disabled":false,"rental_uris":{"android":"levelo://app?vid=315b13cf-5df2-4212-9d83-6b1f658e5700","ios":"levelo://app?vid=315b13cf-5df2-4212-9d83-6b1f658e5700"},"vehicle_type_id":"4","last_reported":1725300695,"current_range_meters":31600,"station_id":"ce4bgth2rcd13ifvqch0","pricing_plan_id":"cebpf4jnsgd1na2vs0mg"},{"bike_id":"b1b5579f-e57a-4138-aa1c-b35f83fafc7c","system_id":"levelo_inurba_marseille","lat":43.317075,"lon":5.377367,"is_reserved":false,"is_disabled":false,"rental_uris":{"android":"levelo://app?vid=b1b5579f-e57a-4138-aa1c-b35f83fafc7c","ios":"levelo://app?vid=b1b5579f-e57a-4138-aa1c-b35f83fafc7c"},"vehicle_type_id":"4","last_reported":1725300695,"current_range_meters":10400,"station_id":"ce4bgth2rcd13ifvqch0","pricing_plan_id":"cebpf4jnsgd1na2vs0mg"},{"bike_id":"fb729676-a00f-4f79-b96a-128f12358f7f","system_id":"levelo_inurba_marseille","lat":43.315289,"lon":5.380349,"is_reserved":false,"is_disabled":false,"rental_uris":{"android":"levelo://app?vid=fb729676-a00f-4f79-b96a-128f12358f7f","ios":"levelo://app?vid=fb729676-a00f-4f79-b96a-128f12358f7f"},"vehicle_type_id":"4","last_reported":1725300695,"current_range_meters":30000,"station_id":"ce4bhsp2rcd13ifvqi50","pricing_plan_id":"cebpf4jnsgd1na2vs0mg"},{"bike_id":"3094c234-380a-4fcd-abed-e9fdfdd250ed","system_id":"levelo_inurba_marseille","lat":43.315255,"lon":5.380316,"is_reserved":false,"is_disabled":false,"rental_uris":{"android":"levelo://app?vid=3094c234-380a-4fcd-abed-e9fdfdd250ed","ios":"levelo://app?vid=3094c234-380a-4fcd-abed-e9fdfdd250ed"},"vehicle_type_id":"4","last_reported":1725300695,"current_range_meters":31200,"station_id":"ce4bhsp2rcd13ifvqi50","pricing_plan_id":"cebpf4jnsgd1na2vs0mg"},{"bike_id":"e8e71965-0a71-4311-b978-463b1ff43a31","system_id":"levelo_inurba_marseille","lat":43.30786,"lon":5.3801,"is_reserved":false,"is_disabled":false,"rental_uris":{"android":"levelo://app?vid=e8e71965-0a71-4311-b978-463b1ff43a31","ios":"levelo://app?vid=e8e71965-0a71-4311-b978-463b1ff43a31"},"vehicle_type_id":"4","last_reported":1725300695,"current_range_meters":5200,"station_id":"","pricing_plan_id":"cebpf4jnsgd1na2vs0mg"},{"bike_id":"f29d3e7f-df13-48e6-bc3a-5f8cce6d99d0","system_id":"levelo_inurba_marseille","lat":43.301939,"lon":5.366286,"is_reserved":false,"is_disabled":false,"rental_uris":{"android":"levelo://app?vid=f29d3e7f-df13-48e6-bc3a-5f8cce6d99d0","ios":"levelo://app?vid=f29d3e7f-df13-48e6-bc3a-5f8cce6d99d0"},"vehicle_type_id":"4","last_reported":1725300695,"current_range_meters":10000,"station_id":"ce4bgrh2rcd13ifvqc8g","pricing_plan_id":"cebpf4jnsgd1na2vs0mg"},{"bike_id":"0cb0bb45-d814-48b0-bf31-3340906be0e4","system_id":"levelo_inurba_marseille","lat":43.301867,"lon":5.366183,"is_reserved":false,"is_disabled":false,"rental_uris":{"android":"levelo://app?vid=0cb0bb45-d814-48b0-bf31-3340906be0e4","ios":"levelo://app?vid=0cb0bb45-d814-48b0-bf31-3340906be0e4"},"vehicle_type_id":"4","last_reported":1725300695,"current_range_meters":3600,"station_id":"ce4bgrh2rcd13ifvqc8g","pricing_plan_id":"cebpf4jnsgd1na2vs0mg"},{"bike_id":"8422f9df-eb81-42e0-9dd4-161af21dbbf3","system_id":"levelo_inurba_marseille","lat":43.308012,"lon":5.381511,"is_reserved":false,"is_disabled":false,"rental_uris":{"android":"levelo://app?vid=8422f9df-eb81-42e0-9dd4-161af21dbbf3","ios":"levelo://app?vid=8422f9df-eb81-42e0-9dd4-161af21dbbf3"},"vehicle_type_id":"4","last_reported":1725300695,"current_range_meters":2800,"station_id":"ce4bgt12rcd13ifvqce0","pricing_plan_id":"cebpf4jnsgd1na2vs0mg"},{"bike_id":"f3e99043-ab5e-4644-88a7-5323b2ffff92","system_id":"levelo_inurba_marseille","lat":43.308,"lon":5.38153,"is_reserved":false,"is_disabled":false,"rental_uris":{"android":"levelo://app?vid=f3e99043-ab5e-4644-88a7-5323b2ffff92","ios":"levelo://app?vid=f3e99043-ab5e-4644-88a7-5323b2ffff92"},"vehicle_type_id":"4","last_reported":1725300695,"current_range_meters":0,"station_id":"ce4bgt12rcd13ifvqce0","pricing_plan_id":"cebpf4jnsgd1na2vs0mg"},{"bike_id":"279d157f-d7d4-43ce-a41c-08a93b2237a4","system_id":"levelo_inurba_marseille","lat":43.304606,"lon":5.379026,"is_reserved":false,"is_disabled":false,"rental_uris":{"android":"levelo://app?vid=279d157f-d7d4-43ce-a41c-08a93b2237a4","ios":"levelo://app?vid=279d157f-d7d4-43ce-a41c-08a93b2237a4"},"vehicle_type_id":"4","last_reported":1725300695,"current_range_meters":31600,"station_id":"ce4bgup2rcd13ifvqcn0","pricing_plan_id":"cebpf4jnsgd1na2vs0mg"},{"bike_id":"3724860a-0e2b-48bd-aa8f-dcb7e9e16e6b","system_id":"levelo_inurba_marseille","lat":43.30466,"lon":5.379,"is_reserved":false,"is_disabled":false,"rental_uris":{"android":"levelo://app?vid=3724860a-0e2b-48bd-aa8f-dcb7e9e16e6b","ios":"levelo://app?vid=3724860a-0e2b-48bd-aa8f-dcb7e9e16e6b"},"vehicle_type_id":"4","last_reported":1725300695,"current_range_meters":30400,"station_id":"ce4bgup2rcd13ifvqcn0","pricing_plan_id":"cebpf4jnsgd1na2vs0mg"},{"bike_id":"8dd2245a-485a-4ba7-bb35-69c5b701d91c","system_id":"levelo_inurba_marseille","lat":43.304606,"lon":5.379026,"is_reserved":false,"is_disabled":false,"rental_uris":{"android":"levelo://app?vid=8dd2245a-485a-4ba7-bb35-69c5b701d91c","ios":"levelo://app?vid=8dd2245a-485a-4ba7-bb35-69c5b701d91c"},"vehicle_type_id":"4","last_reported":1725300695,"current_range_meters":4400,"station_id":"ce4bgup2rcd13ifvqcn0","pricing_plan_id":"cebpf4jnsgd1na2vs0mg"},{"bike_id":"e79ca2d3-7fed-460f-b919-102564c345ab","system_id":"levelo_inurba_marseille","lat":43.304606,"lon":5.379026,"is_reserved":false,"is_disabled":false,"rental_uris":{"android":"levelo://app?vid=e79ca2d3-7fed-460f-b919-102564c345ab","ios":"levelo://app?vid=e79ca2d3-7fed-460f-b919-102564c345ab"},"vehicle_type_id":"4","last_reported":1725300695,"current_range_meters":4400,"station_id":"ce4bgup2rcd13ifvqcn0","pricing_plan_id":"cebpf4jnsgd1na2vs0mg"},{"bike_id":"d978eb55-b5fd-4f08-8e46-5c1aaf1f20b2","system_id":"levelo_inurba_marseille","lat":43.304606,"lon":5.379026,"is_reserved":false,"is_disabled":false,"rental_uris":{"android":"levelo://app?vid=d978eb55-b5fd-4f08-8e46-5c1aaf1f20b2","ios":"levelo://app?vid=d978eb55-b5fd-4f08-8e46-5c1aaf1f20b2"},"vehicle_type_id":"4","last_reported":1725300695,"current_range_meters":25600,"station_id":"ce4bgup2rcd13ifvqcn0","pricing_plan_id":"cebpf4jnsgd1na2vs0mg"},{"bike_id":"aa977d80-4a84-4792-8211-905cb5feab55","system_id":"levelo_inurba_marseille","lat":43.304606,"lon":5.379026,"is_reserved":false,"is_disabled":false,"rental_uris":{"android":"levelo://app?vid=aa977d80-4a84-4792-8211-905cb5feab55","ios":"levelo://app?vid=aa977d80-4a84-4792-8211-905cb5feab55"},"vehicle_type_id":"4","last_reported":1725300695,"current_range_meters":3200,"station_id":"ce4bgup2rcd13ifvqcn0","pricing_plan_id":"cebpf4jnsgd1na2vs0mg"},{"bike_id":"1cdc3e58-3452-4299-b6b7-2a32b5332346","system_id":"levelo_inurba_marseille","lat":43.310804,"lon":5.38359,"is_reserved":false,"is_disabled":false,"rental_uris":{"android":"levelo://app?vid=1cdc3e58-3452-4299-b6b7-2a32b5332346","ios":"levelo://app?vid=1cdc3e58-3452-4299-b6b7-2a32b5332346"},"vehicle_type_id":"4","last_reported":1725300695,"current_range_meters":27200,"station_id":"ce4bgv92rcd13ifvqcr0","pricing_plan_id":"cebpf4jnsgd1na2vs0mg"},{"bike_id":"f46f1be3-8971-4f3f-9d5f-7f451efcce8c","system_id":"levelo_inurba_marseille","lat":43.30143,"lon":5.37413,"is_reserved":false,"is_disabled":false,"rental_uris":{"android":"levelo://app?vid=f46f1be3-8971-4f3f-9d5f-7f451efcce8c","ios":"levelo://app?vid=f46f1be3-8971-4f3f-9d5f-7f451efcce8c"},"vehicle_type_id":"4","last_reported":1725300695,"current_range_meters":0,"station_id":"ce4bgs92rcd13ifvqcc0","pricing_plan_id":"cebpf4jnsgd1na2vs0mg"},{"bike_id":"5de8c012-324f-4dfa-bc95-81448aee1b7c","system_id":"levelo_inurba_marseille","lat":43.30143,"lon":5.37413,"is_reserved":false,"is_disabled":false,"rental_uris":{"android":"levelo://app?vid=5de8c012-324f-4dfa-bc95-81448aee1b7c","ios":"levelo://app?vid=5de8c012-324f-4dfa-bc95-81448aee1b7c"},"vehicle_type_id":"4","last_reported":1725300695,"current_range_meters":27600,"station_id":"ce4bgs92rcd13ifvqcc0","pricing_plan_id":"cebpf4jnsgd1na2vs0mg"},{"bike_id":"ca661003-a3fd-4678-93c0-974d074c5eba","system_id":"levelo_inurba_marseille","lat":43.301429,"lon":5.37413,"is_reserved":false,"is_disabled":false,"rental_uris":{"android":"levelo://app?vid=ca661003-a3fd-4678-93c0-974d074c5eba","ios":"levelo://app?vid=ca661003-a3fd-4678-93c0-974d074c5eba"},"vehicle_type_id":"4","last_reported":1725300695,"current_range_meters":0,"station_id":"ce4bgs92rcd13ifvqcc0","pricing_plan_id":"cebpf4jnsgd1na2vs0mg"},{"bike_id":"6586b1f7-bf00-45ea-ae11-cd2f548048ab","system_id":"levelo_inurba_marseille","lat":43.31989,"lon":5.38136,"is_reserved":false,"is_disabled":false,"rental_uris":{"android":"levelo://app?vid=6586b1f7-bf00-45ea-ae11-cd2f548048ab","ios":"levelo://app?vid=6586b1f7-bf00-45ea-ae11-cd2f548048ab"},"vehicle_type_id":"4","last_reported":1725300695,"current_range_meters":19600,"station_id":"ce4bhr12rcd13ifvqhpg","pricing_plan_id":"cebpf4jnsgd1na2vs0mg"},{"bike_id":"e2eb0dae-f67f-452c-ab85-3dad7daee6f3","system_id":"levelo_inurba_marseille","lat":43.31992,"lon":5.38147,"is_reserved":false,"is_disabled":false,"rental_uris":{"android":"levelo://app?vid=e2eb0dae-f67f-452c-ab85-3dad7daee6f3","ios":"levelo://app?vid=e2eb0dae-f67f-452c-ab85-3dad7daee6f3"},"vehicle_type_id":"4","last_reported":1725300695,"current_range_meters":31200,"station_id":"","pricing_plan_id":"cebpf4jnsgd1na2vs0mg"},{"bike_id":"743c8c87-c1c3-438f-9be4-ea89b9c23645","system_id":"levelo_inurba_marseille","lat":43.31991,"lon":5.3815,"is_reserved":false,"is_disabled":false,"rental_uris":{"android":"levelo://app?vid=743c8c87-c1c3-438f-9be4-ea89b9c23645","ios":"levelo://app?vid=743c8c87-c1c3-438f-9be4-ea89b9c23645"},"vehicle_type_id":"4","last_reported":1725300695,"current_range_meters":14000,"station_id":"ce4bhr12rcd13ifvqhpg","pricing_plan_id":"cebpf4jnsgd1na2vs0mg"},{"bike_id":"fbd96636-3747-4054-8f77-220ea58ea44b","system_id":"levelo_inurba_marseille","lat":43.319935,"lon":5.381699,"is_reserved":false,"is_disabled":false,"rental_uris":{"android":"levelo://app?vid=fbd96636-3747-4054-8f77-220ea58ea44b","ios":"levelo://app?vid=fbd96636-3747-4054-8f77-220ea58ea44b"},"vehicle_type_id":"4","last_reported":1725300695,"current_range_meters":9600,"station_id":"ce4bhr12rcd13ifvqhpg","pricing_plan_id":"cebpf4jnsgd1na2vs0mg"},{"bike_id":"0943fd13-5eaa-4422-92b9-56c4b912699d","system_id":"levelo_inurba_marseille","lat":43.313571,"lon":5.384829,"is_reserved":false,"is_disabled":false,"rental_uris":{"android":"levelo://app?vid=0943fd13-5eaa-4422-92b9-56c4b912699d","ios":"levelo://app?vid=0943fd13-5eaa-4422-92b9-56c4b912699d"},"vehicle_type_id":"4","last_reported":1725300695,"current_range_meters":24800,"station_id":"ce4bgt92rcd13ifvqcf0","pricing_plan_id":"cebpf4jnsgd1na2vs0mg"},{"bike_id":"1b72dac9-3f31-4f4d-9dfe-2d2b0691c9e6","system_id":"levelo_inurba_marseille","lat":43.313571,"lon":5.384829,"is_reserved":false,"is_disabled":false,"rental_uris":{"android":"levelo://app?vid=1b72dac9-3f31-4f4d-9dfe-2d2b0691c9e6","ios":"levelo://app?vid=1b72dac9-3f31-4f4d-9dfe-2d2b0691c9e6"},"vehicle_type_id":"4","last_reported":1725300695,"current_range_meters":1200,"station_id":"ce4bgt92rcd13ifvqcf0","pricing_plan_id":"cebpf4jnsgd1na2vs0mg"},{"bike_id":"11274939-8fa7-494b-aaed-2a5473f852a4","system_id":"levelo_inurba_marseille","lat":43.313571,"lon":5.384829,"is_reserved":false,"is_disabled":false,"rental_uris":{"android":"levelo://app?vid=11274939-8fa7-494b-aaed-2a5473f852a4","ios":"levelo://app?vid=11274939-8fa7-494b-aaed-2a5473f852a4"},"vehicle_type_id":"4","last_reported":1725300695,"current_range_meters":31200,"station_id":"ce4bgt92rcd13ifvqcf0","pricing_plan_id":"cebpf4jnsgd1na2vs0mg"},{"bike_id":"f630a1e3-d152-435e-9587-3b3b573e2089","system_id":"levelo_inurba_marseille","lat":43.299222,"lon":5.365554,"is_reserved":false,"is_disabled":false,"rental_uris":{"android":"levelo://app?vid=f630a1e3-d152-435e-9587-3b3b573e2089","ios":"levelo://app?vid=f630a1e3-d152-435e-9587-3b3b573e2089"},"vehicle_type_id":"4","last_reported":1725300695,"current_range_meters":6800,"station_id":"ce4bgm92rcd13ifvqbr0","pricing_plan_id":"cebpf4jnsgd1na2vs0mg"},{"bike_id":"aad2daa6-2683-4469-81fb-96981f373497","system_id":"levelo_inurba_marseille","lat":43.299222,"lon":5.365554,"is_reserved":false,"is_disabled":false,"rental_uris":{"android":"levelo://app?vid=aad2daa6-2683-4469-81fb-96981f373497","ios":"levelo://app?vid=aad2daa6-2683-4469-81fb-96981f373497"},"vehicle_type_id":"4","last_reported":1725300695,"current_range_meters":24800,"station_id":"ce4bgm92rcd13ifvqbr0","pricing_plan_id":"cebpf4jnsgd1na2vs0mg"},{"bike_id":"97ad49dd-4048-4e83-82ee-2f01ad6ccacf","system_id":"levelo_inurba_marseille","lat":43.299724,"lon":5.371829,"is_reserved":false,"is_disabled":false,"rental_uris":{"android":"levelo://app?vid=97ad49dd-4048-4e83-82ee-2f01ad6ccacf","ios":"levelo://app?vid=97ad49dd-4048-4e83-82ee-2f01ad6ccacf"},"vehicle_type_id":"4","last_reported":1725300695,"current_range_meters":0,"station_id":"ce4bgr92rcd13ifvqc7g","pricing_plan_id":"cebpf4jnsgd1na2vs0mg"},{"bike_id":"196a4d99-b854-4dd6-9237-2f3b47a00f90","system_id":"levelo_inurba_marseille","lat":43.299222,"lon":5.365554,"is_reserved":false,"is_disabled":false,"rental_uris":{"android":"levelo://app?vid=196a4d99-b854-4dd6-9237-2f3b47a00f90","ios":"levelo://app?vid=196a4d99-b854-4dd6-9237-2f3b47a00f90"},"vehicle_type_id":"4","last_reported":1725300695,"current_range_meters":15200,"station_id":"ce4bgm92rcd13ifvqbr0","pricing_plan_id":"cebpf4jnsgd1na2vs0mg"},{"bike_id":"22d368f5-a936-4893-a1f8-7042850b6ed0","system_id":"levelo_inurba_marseille","lat":43.299222,"lon":5.365554,"is_reserved":false,"is_disabled":false,"rental_uris":{"android":"levelo://app?vid=22d368f5-a936-4893-a1f8-7042850b6ed0","ios":"levelo://app?vid=22d368f5-a936-4893-a1f8-7042850b6ed0"},"vehicle_type_id":"4","last_reported":1725300695,"current_range_meters":6800,"station_id":"ce4bgm92rcd13ifvqbr0","pricing_plan_id":"cebpf4jnsgd1na2vs0mg"},{"bike_id":"75b1cf10-bdb0-46d6-9260-c137816b57cf","system_id":"levelo_inurba_marseille","lat":43.299222,"lon":5.365554,"is_reserved":false,"is_disabled":false,"rental_uris":{"android":"levelo://app?vid=75b1cf10-bdb0-46d6-9260-c137816b57cf","ios":"levelo://app?vid=75b1cf10-bdb0-46d6-9260-c137816b57cf"},"vehicle_type_id":"4","last_reported":1725300695,"current_range_meters":14800,"station_id":"ce4bgm92rcd13ifvqbr0","pricing_plan_id":"cebpf4jnsgd1na2vs0mg"},{"bike_id":"d9e78811-ae5a-4076-ac59-44ff557bbf89","system_id":"levelo_inurba_marseille","lat":43.305364,"lon":5.384119,"is_reserved":false,"is_disabled":false,"rental_uris":{"android":"levelo://app?vid=d9e78811-ae5a-4076-ac59-44ff557bbf89","ios":"levelo://app?vid=d9e78811-ae5a-4076-ac59-44ff557bbf89"},"vehicle_type_id":"4","last_reported":1725300695,"current_range_meters":26800,"station_id":"ce4bgg92rcd13ifvqb30","pricing_plan_id":"cebpf4jnsgd1na2vs0mg"},{"bike_id":"e75ed528-0861-4c64-9119-fedfb51f94cd","system_id":"levelo_inurba_marseille","lat":43.299243,"lon":5.37481,"is_reserved":false,"is_disabled":false,"rental_uris":{"android":"levelo://app?vid=e75ed528-0861-4c64-9119-fedfb51f94cd","ios":"levelo://app?vid=e75ed528-0861-4c64-9119-fedfb51f94cd"},"vehicle_type_id":"4","last_reported":1725300695,"current_range_meters":2400,"station_id":"ce4bgjh2rcd13ifvqbg0","pricing_plan_id":"cebpf4jnsgd1na2vs0mg"},{"bike_id":"269543b6-b20b-4f74-b995-517d422f7746","system_id":"levelo_inurba_marseille","lat":43.32294,"lon":5.38253,"is_reserved":false,"is_disabled":false,"rental_uris":{"android":"levelo://app?vid=269543b6-b20b-4f74-b995-517d422f7746","ios":"levelo://app?vid=269543b6-b20b-4f74-b995-517d422f7746"},"vehicle_type_id":"4","last_reported":1725300695,"current_range_meters":30000,"station_id":"ce4bhr12rcd13ifvqhqg","pricing_plan_id":"cebpf4jnsgd1na2vs0mg"},{"bike_id":"4ec0c14b-d0a6-4971-8ca0-dd6797734237","system_id":"levelo_inurba_marseille","lat":43.322872,"lon":5.382756,"is_reserved":false,"is_disabled":false,"rental_uris":{"android":"levelo://app?vid=4ec0c14b-d0a6-4971-8ca0-dd6797734237","ios":"levelo://app?vid=4ec0c14b-d0a6-4971-8ca0-dd6797734237"},"vehicle_type_id":"4","last_reported":1725300695,"current_range_meters":30800,"station_id":"ce4bhr12rcd13ifvqhqg","pricing_plan_id":"cebpf4jnsgd1na2vs0mg"},{"bike_id":"43475821-6cd1-4bb6-9755-393790103167","system_id":"levelo_inurba_marseille","lat":43.322872,"lon":5.382756,"is_reserved":false,"is_disabled":false,"rental_uris":{"android":"levelo://app?vid=43475821-6cd1-4bb6-9755-393790103167","ios":"levelo://app?vid=43475821-6cd1-4bb6-9755-393790103167"},"vehicle_type_id":"4","last_reported":1725300695,"current_range_meters":31200,"station_id":"ce4bhr12rcd13ifvqhqg","pricing_plan_id":"cebpf4jnsgd1na2vs0mg"},{"bike_id":"37b28b65-8f45-47b8-a250-da92c0d2959e","system_id":"levelo_inurba_marseille","lat":43.297794,"lon":5.370888,"is_reserved":false,"is_disabled":false,"rental_uris":{"android":"levelo://app?vid=37b28b65-8f45-47b8-a250-da92c0d2959e","ios":"levelo://app?vid=37b28b65-8f45-47b8-a250-da92c0d2959e"},"vehicle_type_id":"4","last_reported":1725300695,"current_range_meters":21200,"station_id":"ce4bgop2rcd13ifvqc1g","pricing_plan_id":"cebpf4jnsgd1na2vs0mg"},{"bike_id":"a530ea29-7e9f-4e0c-98f5-3232bd4c7b6e","system_id":"levelo_inurba_marseille","lat":43.322872,"lon":5.382756,"is_reserved":false,"is_disabled":false,"rental_uris":{"android":"levelo://app?vid=a530ea29-7e9f-4e0c-98f5-3232bd4c7b6e","ios":"levelo://app?vid=a530ea29-7e9f-4e0c-98f5-3232bd4c7b6e"},"vehicle_type_id":"4","last_reported":1725300695,"current_range_meters":13200,"station_id":"ce4bhr12rcd13ifvqhqg","pricing_plan_id":"cebpf4jnsgd1na2vs0mg"},{"bike_id":"54acaa03-aa7f-4c82-ad04-1b9cb075a15b","system_id":"levelo_inurba_marseille","lat":43.297163,"lon":5.365866,"is_reserved":false,"is_disabled":false,"rental_uris":{"android":"levelo://app?vid=54acaa03-aa7f-4c82-ad04-1b9cb075a15b","ios":"levelo://app?vid=54acaa03-aa7f-4c82-ad04-1b9cb075a15b"},"vehicle_type_id":"4","last_reported":1725300695,"current_range_meters":1200,"station_id":"ce4bgn12rcd13ifvqbt0","pricing_plan_id":"cebpf4jnsgd1na2vs0mg"},{"bike_id":"b6526665-543d-4c7f-a849-6c678ece708a","system_id":"levelo_inurba_marseille","lat":43.31503,"lon":5.38872,"is_reserved":false,"is_disabled":false,"rental_uris":{"android":"levelo://app?vid=b6526665-543d-4c7f-a849-6c678ece708a","ios":"levelo://app?vid=b6526665-543d-4c7f-a849-6c678ece708a"},"vehicle_type_id":"4","last_reported":1725300695,"current_range_meters":1600,"station_id":"","pricing_plan_id":"cebpf4jnsgd1na2vs0mg"},{"bike_id":"8a8887de-5c7d-4b1c-91b2-78e9c920b48d","system_id":"levelo_inurba_marseille","lat":43.2968,"lon":5.37291,"is_reserved":false,"is_disabled":false,"rental_uris":{"android":"levelo://app?vid=8a8887de-5c7d-4b1c-91b2-78e9c920b48d","ios":"levelo://app?vid=8a8887de-5c7d-4b1c-91b2-78e9c920b48d"},"vehicle_type_id":"4","last_reported":1725300695,"current_range_meters":31200,"station_id":"ce4bgk12rcd13ifvqbj0","pricing_plan_id":"cebpf4jnsgd1na2vs0mg"},{"bike_id":"dee6175e-cd0d-4691-a44c-a092974e28b5","system_id":"levelo_inurba_marseille","lat":43.322373,"lon":5.386254,"is_reserved":false,"is_disabled":false,"rental_uris":{"android":"levelo://app?vid=dee6175e-cd0d-4691-a44c-a092974e28b5","ios":"levelo://app?vid=dee6175e-cd0d-4691-a44c-a092974e28b5"},"vehicle_type_id":"4","last_reported":1725300695,"current_range_meters":7200,"station_id":"","pricing_plan_id":"cebpf4jnsgd1na2vs0mg"},{"bike_id":"3fc82fcd-eae8-46c0-b39a-3a53a5b9c96a","system_id":"levelo_inurba_marseille","lat":43.322163,"lon":5.386597,"is_reserved":false,"is_disabled":false,"rental_uris":{"android":"levelo://app?vid=3fc82fcd-eae8-46c0-b39a-3a53a5b9c96a","ios":"levelo://app?vid=3fc82fcd-eae8-46c0-b39a-3a53a5b9c96a"},"vehicle_type_id":"4","last_reported":1725300695,"current_range_meters":20800,"station_id":"","pricing_plan_id":"cebpf4jnsgd1na2vs0mg"},{"bike_id":"cf7f489b-4ea9-4ee2-9c03-d80e58218a81","system_id":"levelo_inurba_marseille","lat":43.322289,"lon":5.386608,"is_reserved":false,"is_disabled":false,"rental_uris":{"android":"levelo://app?vid=cf7f489b-4ea9-4ee2-9c03-d80e58218a81","ios":"levelo://app?vid=cf7f489b-4ea9-4ee2-9c03-d80e58218a81"},"vehicle_type_id":"4","last_reported":1725300695,"current_range_meters":1600,"station_id":"","pricing_plan_id":"cebpf4jnsgd1na2vs0mg"},{"bike_id":"5e3ffda2-b4d6-4967-b3da-3db9157e4549","system_id":"levelo_inurba_marseille","lat":43.29698,"lon":5.37692,"is_reserved":false,"is_disabled":false,"rental_uris":{"android":"levelo://app?vid=5e3ffda2-b4d6-4967-b3da-3db9157e4549","ios":"levelo://app?vid=5e3ffda2-b4d6-4967-b3da-3db9157e4549"},"vehicle_type_id":"4","last_reported":1725300695,"current_range_meters":0,"station_id":"ce4bgkh2rcd13ifvqbl0","pricing_plan_id":"cebpf4jnsgd1na2vs0mg"},{"bike_id":"4206d64e-08ea-4828-826a-dc53157afe27","system_id":"levelo_inurba_marseille","lat":43.31761,"lon":5.39004,"is_reserved":false,"is_disabled":false,"rental_uris":{"android":"levelo://app?vid=4206d64e-08ea-4828-826a-dc53157afe27","ios":"levelo://app?vid=4206d64e-08ea-4828-826a-dc53157afe27"},"vehicle_type_id":"4","last_reported":1725300695,"current_range_meters":0,"station_id":"ce4bhqp2rcd13ifvqhng","pricing_plan_id":"cebpf4jnsgd1na2vs0mg"},{"bike_id":"616c8498-4214-4d7e-91e2-fd9d00e0d9f9","system_id":"levelo_inurba_marseille","lat":43.299095,"lon":5.38205,"is_reserved":false,"is_disabled":false,"rental_uris":{"android":"levelo://app?vid=616c8498-4214-4d7e-91e2-fd9d00e0d9f9","ios":"levelo://app?vid=616c8498-4214-4d7e-91e2-fd9d00e0d9f9"},"vehicle_type_id":"4","last_reported":1725300695,"current_range_meters":25600,"station_id":"ce4bgj12rcd13ifvqbc0","pricing_plan_id":"cebpf4jnsgd1na2vs0mg"},{"bike_id":"435eb7ec-120a-42f4-81b3-2e5341a050a1","system_id":"levelo_inurba_marseille","lat":43.31759,"lon":5.39009,"is_reserved":false,"is_disabled":false,"rental_uris":{"android":"levelo://app?vid=435eb7ec-120a-42f4-81b3-2e5341a050a1","ios":"levelo://app?vid=435eb7ec-120a-42f4-81b3-2e5341a050a1"},"vehicle_type_id":"4","last_reported":1725300695,"current_range_meters":0,"station_id":"ce4bhqp2rcd13ifvqhng","pricing_plan_id":"cebpf4jnsgd1na2vs0mg"},{"bike_id":"b9818215-6293-4b9f-b5ee-a119963062be","system_id":"levelo_inurba_marseille","lat":43.317557,"lon":5.390173,"is_reserved":false,"is_disabled":false,"rental_uris":{"android":"levelo://app?vid=b9818215-6293-4b9f-b5ee-a119963062be","ios":"levelo://app?vid=b9818215-6293-4b9f-b5ee-a119963062be"},"vehicle_type_id":"4","last_reported":1725300695,"current_range_meters":6800,"station_id":"ce4bhqp2rcd13ifvqhng","pricing_plan_id":"cebpf4jnsgd1na2vs0mg"},{"bike_id":"ebf9db15-c8f8-4b5a-89bf-331036f55421","system_id":"levelo_inurba_marseille","lat":43.31758,"lon":5.39017,"is_reserved":false,"is_disabled":false,"rental_uris":{"android":"levelo://app?vid=ebf9db15-c8f8-4b5a-89bf-331036f55421","ios":"levelo://app?vid=ebf9db15-c8f8-4b5a-89bf-331036f55421"},"vehicle_type_id":"4","last_reported":1725300695,"current_range_meters":0,"station_id":"ce4bhqp2rcd13ifvqhng","pricing_plan_id":"cebpf4jnsgd1na2vs0mg"},{"bike_id":"02977fe5-2a38-4d05-980a-72b48f0c0aa5","system_id":"levelo_inurba_marseille","lat":43.317557,"lon":5.390173,"is_reserved":false,"is_disabled":false,"rental_uris":{"android":"levelo://app?vid=02977fe5-2a38-4d05-980a-72b48f0c0aa5","ios":"levelo://app?vid=02977fe5-2a38-4d05-980a-72b48f0c0aa5"},"vehicle_type_id":"4","last_reported":1725300695,"current_range_meters":31600,"station_id":"ce4bhqp2rcd13ifvqhng","pricing_plan_id":"cebpf4jnsgd1na2vs0mg"},{"bike_id":"3f789833-1632-4bb6-9aec-090885950d88","system_id":"levelo_inurba_marseille","lat":43.317557,"lon":5.390173,"is_reserved":false,"is_disabled":false,"rental_uris":{"android":"levelo://app?vid=3f789833-1632-4bb6-9aec-090885950d88","ios":"levelo://app?vid=3f789833-1632-4bb6-9aec-090885950d88"},"vehicle_type_id":"4","last_reported":1725300695,"current_range_meters":14400,"station_id":"ce4bhqp2rcd13ifvqhng","pricing_plan_id":"cebpf4jnsgd1na2vs0mg"},{"bike_id":"b05a3fe5-1524-4c3a-bb09-142a84e2ca56","system_id":"levelo_inurba_marseille","lat":43.322663,"lon":5.3871,"is_reserved":false,"is_disabled":false,"rental_uris":{"android":"levelo://app?vid=b05a3fe5-1524-4c3a-bb09-142a84e2ca56","ios":"levelo://app?vid=b05a3fe5-1524-4c3a-bb09-142a84e2ca56"},"vehicle_type_id":"4","last_reported":1725300695,"current_range_meters":8800,"station_id":"","pricing_plan_id":"cebpf4jnsgd1na2vs0mg"},{"bike_id":"7603bb77-7009-45d8-9f24-b2f6262219da","system_id":"levelo_inurba_marseille","lat":43.304278,"lon":5.388868,"is_reserved":false,"is_disabled":false,"rental_uris":{"android":"levelo://app?vid=7603bb77-7009-45d8-9f24-b2f6262219da","ios":"levelo://app?vid=7603bb77-7009-45d8-9f24-b2f6262219da"},"vehicle_type_id":"4","last_reported":1725300695,"current_range_meters":12000,"station_id":"ce4bgk12rcd13ifvqbi0","pricing_plan_id":"cebpf4jnsgd1na2vs0mg"},{"bike_id":"9f9b0016-acdf-4b81-884a-99c895cb89d1","system_id":"levelo_inurba_marseille","lat":43.30433,"lon":5.38888,"is_reserved":false,"is_disabled":false,"rental_uris":{"android":"levelo://app?vid=9f9b0016-acdf-4b81-884a-99c895cb89d1","ios":"levelo://app?vid=9f9b0016-acdf-4b81-884a-99c895cb89d1"},"vehicle_type_id":"4","last_reported":1725300695,"current_range_meters":26400,"station_id":"ce4bgk12rcd13ifvqbi0","pricing_plan_id":"cebpf4jnsgd1na2vs0mg"},{"bike_id":"84d93bc6-0326-4160-8806-3ad91b71e415","system_id":"levelo_inurba_marseille","lat":43.304278,"lon":5.388868,"is_reserved":false,"is_disabled":false,"rental_uris":{"android":"levelo://app?vid=84d93bc6-0326-4160-8806-3ad91b71e415","ios":"levelo://app?vid=84d93bc6-0326-4160-8806-3ad91b71e415"},"vehicle_type_id":"4","last_reported":1725300695,"current_range_meters":4000,"station_id":"ce4bgk12rcd13ifvqbi0","pricing_plan_id":"cebpf4jnsgd1na2vs0mg"},{"bike_id":"edbad795-64e8-45e5-8758-6679f302f7f4","system_id":"levelo_inurba_marseille","lat":43.298037,"lon":5.381066,"is_reserved":false,"is_disabled":false,"rental_uris":{"android":"levelo://app?vid=edbad795-64e8-45e5-8758-6679f302f7f4","ios":"levelo://app?vid=edbad795-64e8-45e5-8758-6679f302f7f4"},"vehicle_type_id":"4","last_reported":1725300695,"current_range_meters":0,"station_id":"ce4bgip2rcd13ifvqbb0","pricing_plan_id":"cebpf4jnsgd1na2vs0mg"},{"bike_id":"418b3fbb-3506-4f54-9ead-b0f66c5f272f","system_id":"levelo_inurba_marseille","lat":43.304278,"lon":5.388868,"is_reserved":false,"is_disabled":false,"rental_uris":{"android":"levelo://app?vid=418b3fbb-3506-4f54-9ead-b0f66c5f272f","ios":"levelo://app?vid=418b3fbb-3506-4f54-9ead-b0f66c5f272f"},"vehicle_type_id":"4","last_reported":1725300695,"current_range_meters":400,"station_id":"ce4bgk12rcd13ifvqbi0","pricing_plan_id":"cebpf4jnsgd1na2vs0mg"},{"bike_id":"89baf623-822e-457c-8d96-879f6e0a33a9","system_id":"levelo_inurba_marseille","lat":43.304278,"lon":5.388868,"is_reserved":false,"is_disabled":false,"rental_uris":{"android":"levelo://app?vid=89baf623-822e-457c-8d96-879f6e0a33a9","ios":"levelo://app?vid=89baf623-822e-457c-8d96-879f6e0a33a9"},"vehicle_type_id":"4","last_reported":1725300695,"current_range_meters":2800,"station_id":"ce4bgk12rcd13ifvqbi0","pricing_plan_id":"cebpf4jnsgd1na2vs0mg"},{"bike_id":"585b9480-2a2d-4936-ad7c-72e610441190","system_id":"levelo_inurba_marseille","lat":43.296263,"lon":5.377094,"is_reserved":false,"is_disabled":false,"rental_uris":{"android":"levelo://app?vid=585b9480-2a2d-4936-ad7c-72e610441190","ios":"levelo://app?vid=585b9480-2a2d-4936-ad7c-72e610441190"},"vehicle_type_id":"4","last_reported":1725300695,"current_range_meters":12000,"station_id":"ce4bgi92rcd13ifvqb90","pricing_plan_id":"cebpf4jnsgd1na2vs0mg"},{"bike_id":"e1de3c67-f653-4f1e-b24c-bf42f9d3b52a","system_id":"levelo_inurba_marseille","lat":43.29612,"lon":5.37722,"is_reserved":false,"is_disabled":false,"rental_uris":{"android":"levelo://app?vid=e1de3c67-f653-4f1e-b24c-bf42f9d3b52a","ios":"levelo://app?vid=e1de3c67-f653-4f1e-b24c-bf42f9d3b52a"},"vehicle_type_id":"4","last_reported":1725300695,"current_range_meters":0,"station_id":"ce4bgi92rcd13ifvqb90","pricing_plan_id":"cebpf4jnsgd1na2vs0mg"},{"bike_id":"b3808fb6-4786-4e42-b966-107fbbb87042","system_id":"levelo_inurba_marseille","lat":43.295279,"lon":5.375048,"is_reserved":false,"is_disabled":false,"rental_uris":{"android":"levelo://app?vid=b3808fb6-4786-4e42-b966-107fbbb87042","ios":"levelo://app?vid=b3808fb6-4786-4e42-b966-107fbbb87042"},"vehicle_type_id":"4","last_reported":1725300695,"current_range_meters":26400,"station_id":"ce4bgkp2rcd13ifvqbmg","pricing_plan_id":"cebpf4jnsgd1na2vs0mg"},{"bike_id":"6c786fbf-9614-4a9e-90d7-509a6a20d4fa","system_id":"levelo_inurba_marseille","lat":43.322222,"lon":5.389281,"is_reserved":false,"is_disabled":false,"rental_uris":{"android":"levelo://app?vid=6c786fbf-9614-4a9e-90d7-509a6a20d4fa","ios":"levelo://app?vid=6c786fbf-9614-4a9e-90d7-509a6a20d4fa"},"vehicle_type_id":"4","last_reported":1725300695,"current_range_meters":27200,"station_id":"","pricing_plan_id":"cebpf4jnsgd1na2vs0mg"},{"bike_id":"582acf84-966b-4050-9f96-409995521e8b","system_id":"levelo_inurba_marseille","lat":43.301396,"lon":5.387812,"is_reserved":false,"is_disabled":false,"rental_uris":{"android":"levelo://app?vid=582acf84-966b-4050-9f96-409995521e8b","ios":"levelo://app?vid=582acf84-966b-4050-9f96-409995521e8b"},"vehicle_type_id":"4","last_reported":1725300695,"current_range_meters":25200,"station_id":"ce4bghh2rcd13ifvqb60","pricing_plan_id":"cebpf4jnsgd1na2vs0mg"},{"bike_id":"30129218-5e71-43c7-99bc-760a28ccd730","system_id":"levelo_inurba_marseille","lat":43.301396,"lon":5.387812,"is_reserved":false,"is_disabled":false,"rental_uris":{"android":"levelo://app?vid=30129218-5e71-43c7-99bc-760a28ccd730","ios":"levelo://app?vid=30129218-5e71-43c7-99bc-760a28ccd730"},"vehicle_type_id":"4","last_reported":1725300695,"current_range_meters":3600,"station_id":"ce4bghh2rcd13ifvqb60","pricing_plan_id":"cebpf4jnsgd1na2vs0mg"},{"bike_id":"1027f345-0dae-48cd-b8eb-f48d9c10fce1","system_id":"levelo_inurba_marseille","lat":43.29601,"lon":5.381084,"is_reserved":false,"is_disabled":false,"rental_uris":{"android":"levelo://app?vid=1027f345-0dae-48cd-b8eb-f48d9c10fce1","ios":"levelo://app?vid=1027f345-0dae-48cd-b8eb-f48d9c10fce1"},"vehicle_type_id":"4","last_reported":1725300695,"current_range_meters":400,"station_id":"ce4bgl12rcd13ifvqbo0","pricing_plan_id":"cebpf4jnsgd1na2vs0mg"},{"bike_id":"aa6b3c59-2314-4243-89b8-26c6ad361637","system_id":"levelo_inurba_marseille","lat":43.29602,"lon":5.381084,"is_reserved":false,"is_disabled":false,"rental_uris":{"android":"levelo://app?vid=aa6b3c59-2314-4243-89b8-26c6ad361637","ios":"levelo://app?vid=aa6b3c59-2314-4243-89b8-26c6ad361637"},"vehicle_type_id":"4","last_reported":1725300695,"current_range_meters":8800,"station_id":"ce4bgl12rcd13ifvqbo0","pricing_plan_id":"cebpf4jnsgd1na2vs0mg"},{"bike_id":"963229df-e785-4820-a7ac-3dafe95d6e8b","system_id":"levelo_inurba_marseille","lat":43.293249,"lon":5.371578,"is_reserved":false,"is_disabled":false,"rental_uris":{"android":"levelo://app?vid=963229df-e785-4820-a7ac-3dafe95d6e8b","ios":"levelo://app?vid=963229df-e785-4820-a7ac-3dafe95d6e8b"},"vehicle_type_id":"4","last_reported":1725300695,"current_range_meters":0,"station_id":"ce4bgh92rcd13ifvqb40","pricing_plan_id":"cebpf4jnsgd1na2vs0mg"},{"bike_id":"749d33a1-d9c7-4709-b55d-6c19da68509d","system_id":"levelo_inurba_marseille","lat":43.293259,"lon":5.371586,"is_reserved":false,"is_disabled":false,"rental_uris":{"android":"levelo://app?vid=749d33a1-d9c7-4709-b55d-6c19da68509d","ios":"levelo://app?vid=749d33a1-d9c7-4709-b55d-6c19da68509d"},"vehicle_type_id":"4","last_reported":1725300695,"current_range_meters":5600,"station_id":"ce4bgh92rcd13ifvqb40","pricing_plan_id":"cebpf4jnsgd1na2vs0mg"},{"bike_id":"049ee481-e484-4220-b11c-08c2c0266512","system_id":"levelo_inurba_marseille","lat":43.293259,"lon":5.371586,"is_reserved":false,"is_disabled":false,"rental_uris":{"android":"levelo://app?vid=049ee481-e484-4220-b11c-08c2c0266512","ios":"levelo://app?vid=049ee481-e484-4220-b11c-08c2c0266512"},"vehicle_type_id":"4","last_reported":1725300695,"current_range_meters":0,"station_id":"ce4bgh92rcd13ifvqb40","pricing_plan_id":"cebpf4jnsgd1na2vs0mg"},{"bike_id":"d75f4970-2404-4b63-bc9e-9530e1d3f2da","system_id":"levelo_inurba_marseille","lat":43.29276,"lon":5.36842,"is_reserved":false,"is_disabled":false,"rental_uris":{"android":"levelo://app?vid=d75f4970-2404-4b63-bc9e-9530e1d3f2da","ios":"levelo://app?vid=d75f4970-2404-4b63-bc9e-9530e1d3f2da"},"vehicle_type_id":"4","last_reported":1725300695,"current_range_meters":5200,"station_id":"ce4bhbp2rcd13ifvqesg","pricing_plan_id":"cebpf4jnsgd1na2vs0mg"},{"bike_id":"4e9e981e-0ec7-4dec-b5e0-25904f90f5e0","system_id":"levelo_inurba_marseille","lat":43.292749,"lon":5.368398,"is_reserved":false,"is_disabled":false,"rental_uris":{"android":"levelo://app?vid=4e9e981e-0ec7-4dec-b5e0-25904f90f5e0","ios":"levelo://app?vid=4e9e981e-0ec7-4dec-b5e0-25904f90f5e0"},"vehicle_type_id":"4","last_reported":1725300695,"current_range_meters":15200,"station_id":"ce4bhbp2rcd13ifvqesg","pricing_plan_id":"cebpf4jnsgd1na2vs0mg"},{"bike_id":"527707d8-a5b2-4d97-b6d2-2972fed7d287","system_id":"levelo_inurba_marseille","lat":43.29271,"lon":5.36844,"is_reserved":false,"is_disabled":false,"rental_uris":{"android":"levelo://app?vid=527707d8-a5b2-4d97-b6d2-2972fed7d287","ios":"levelo://app?vid=527707d8-a5b2-4d97-b6d2-2972fed7d287"},"vehicle_type_id":"4","last_reported":1725300695,"current_range_meters":0,"station_id":"ce4bhbp2rcd13ifvqesg","pricing_plan_id":"cebpf4jnsgd1na2vs0mg"},{"bike_id":"981e544f-1155-4626-90a0-c4a6f298023b","system_id":"levelo_inurba_marseille","lat":43.292749,"lon":5.368398,"is_reserved":false,"is_disabled":false,"rental_uris":{"android":"levelo://app?vid=981e544f-1155-4626-90a0-c4a6f298023b","ios":"levelo://app?vid=981e544f-1155-4626-90a0-c4a6f298023b"},"vehicle_type_id":"4","last_reported":1725300695,"current_range_meters":0,"station_id":"ce4bhbp2rcd13ifvqesg","pricing_plan_id":"cebpf4jnsgd1na2vs0mg"},{"bike_id":"4d54752b-23de-4310-9403-68b68ced5d30","system_id":"levelo_inurba_marseille","lat":43.293009,"lon":5.374584,"is_reserved":false,"is_disabled":false,"rental_uris":{"android":"levelo://app?vid=4d54752b-23de-4310-9403-68b68ced5d30","ios":"levelo://app?vid=4d54752b-23de-4310-9403-68b68ced5d30"},"vehicle_type_id":"4","last_reported":1725300695,"current_range_meters":1200,"station_id":"ce4bgi12rcd13ifvqb70","pricing_plan_id":"cebpf4jnsgd1na2vs0mg"},{"bike_id":"17de897b-9248-427a-ad4f-33e8f556c56e","system_id":"levelo_inurba_marseille","lat":43.293009,"lon":5.374584,"is_reserved":false,"is_disabled":false,"rental_uris":{"android":"levelo://app?vid=17de897b-9248-427a-ad4f-33e8f556c56e","ios":"levelo://app?vid=17de897b-9248-427a-ad4f-33e8f556c56e"},"vehicle_type_id":"4","last_reported":1725300695,"current_range_meters":16800,"station_id":"ce4bgi12rcd13ifvqb70","pricing_plan_id":"cebpf4jnsgd1na2vs0mg"},{"bike_id":"ded67e17-ce99-4b6e-8b75-e40969dc04a3","system_id":"levelo_inurba_marseille","lat":43.293009,"lon":5.374584,"is_reserved":false,"is_disabled":false,"rental_uris":{"android":"levelo://app?vid=ded67e17-ce99-4b6e-8b75-e40969dc04a3","ios":"levelo://app?vid=ded67e17-ce99-4b6e-8b75-e40969dc04a3"},"vehicle_type_id":"4","last_reported":1725300695,"current_range_meters":1200,"station_id":"ce4bgi12rcd13ifvqb70","pricing_plan_id":"cebpf4jnsgd1na2vs0mg"},{"bike_id":"e9782434-9212-4313-90c1-eb0521bbc11e","system_id":"levelo_inurba_marseille","lat":43.292311,"lon":5.360731,"is_reserved":false,"is_disabled":false,"rental_uris":{"android":"levelo://app?vid=e9782434-9212-4313-90c1-eb0521bbc11e","ios":"levelo://app?vid=e9782434-9212-4313-90c1-eb0521bbc11e"},"vehicle_type_id":"4","last_reported":1725300695,"current_range_meters":0,"station_id":"ce4bhbh2rcd13ifvqeqg","pricing_plan_id":"cebpf4jnsgd1na2vs0mg"},{"bike_id":"b597e4b5-a14c-4de3-9dd8-f4b01462c895","system_id":"levelo_inurba_marseille","lat":43.302992,"lon":5.392136,"is_reserved":false,"is_disabled":false,"rental_uris":{"android":"levelo://app?vid=b597e4b5-a14c-4de3-9dd8-f4b01462c895","ios":"levelo://app?vid=b597e4b5-a14c-4de3-9dd8-f4b01462c895"},"vehicle_type_id":"4","last_reported":1725300695,"current_range_meters":0,"station_id":"ce4bgkh2rcd13ifvqbk0","pricing_plan_id":"cebpf4jnsgd1na2vs0mg"},{"bike_id":"55862d1c-81b2-4282-bb96-b39347e354bb","system_id":"levelo_inurba_marseille","lat":43.29383,"lon":5.3786,"is_reserved":false,"is_disabled":false,"rental_uris":{"android":"levelo://app?vid=55862d1c-81b2-4282-bb96-b39347e354bb","ios":"levelo://app?vid=55862d1c-81b2-4282-bb96-b39347e354bb"},"vehicle_type_id":"4","last_reported":1725300695,"current_range_meters":0,"station_id":"ce4bgjh2rcd13ifvqbf0","pricing_plan_id":"cebpf4jnsgd1na2vs0mg"},{"bike_id":"cc43afe4-d4ea-479e-a384-5bcf7ec7c7d7","system_id":"levelo_inurba_marseille","lat":43.293782,"lon":5.378516,"is_reserved":false,"is_disabled":false,"rental_uris":{"android":"levelo://app?vid=cc43afe4-d4ea-479e-a384-5bcf7ec7c7d7","ios":"levelo://app?vid=cc43afe4-d4ea-479e-a384-5bcf7ec7c7d7"},"vehicle_type_id":"4","last_reported":1725300695,"current_range_meters":17200,"station_id":"","pricing_plan_id":"cebpf4jnsgd1na2vs0mg"},{"bike_id":"d727ebd4-24bf-4db9-aa1a-9297884c3fa0","system_id":"levelo_inurba_marseille","lat":43.29374,"lon":5.378501,"is_reserved":false,"is_disabled":false,"rental_uris":{"android":"levelo://app?vid=d727ebd4-24bf-4db9-aa1a-9297884c3fa0","ios":"levelo://app?vid=d727ebd4-24bf-4db9-aa1a-9297884c3fa0"},"vehicle_type_id":"4","last_reported":1725300695,"current_range_meters":0,"station_id":"ce4bgjh2rcd13ifvqbf0","pricing_plan_id":"cebpf4jnsgd1na2vs0mg"},{"bike_id":"cf1eedaf-d005-4aa1-b2ee-efe07bc27588","system_id":"levelo_inurba_marseille","lat":43.2936,"lon":5.37835,"is_reserved":false,"is_disabled":false,"rental_uris":{"android":"levelo://app?vid=cf1eedaf-d005-4aa1-b2ee-efe07bc27588","ios":"levelo://app?vid=cf1eedaf-d005-4aa1-b2ee-efe07bc27588"},"vehicle_type_id":"4","last_reported":1725300695,"current_range_meters":2800,"station_id":"ce4bgjh2rcd13ifvqbf0","pricing_plan_id":"cebpf4jnsgd1na2vs0mg"},{"bike_id":"cae6d819-18c6-4b1c-a567-5b52a014fffe","system_id":"levelo_inurba_marseille","lat":43.2936,"lon":5.37835,"is_reserved":false,"is_disabled":false,"rental_uris":{"android":"levelo://app?vid=cae6d819-18c6-4b1c-a567-5b52a014fffe","ios":"levelo://app?vid=cae6d819-18c6-4b1c-a567-5b52a014fffe"},"vehicle_type_id":"4","last_reported":1725300695,"current_range_meters":6400,"station_id":"ce4bgjh2rcd13ifvqbf0","pricing_plan_id":"cebpf4jnsgd1na2vs0mg"},{"bike_id":"4436024f-1146-41a9-a6e5-896c09480455","system_id":"levelo_inurba_marseille","lat":43.29232,"lon":5.36069,"is_reserved":false,"is_disabled":false,"rental_uris":{"android":"levelo://app?vid=4436024f-1146-41a9-a6e5-896c09480455","ios":"levelo://app?vid=4436024f-1146-41a9-a6e5-896c09480455"},"vehicle_type_id":"4","last_reported":1725300695,"current_range_meters":0,"station_id":"ce4bhbh2rcd13ifvqeqg","pricing_plan_id":"cebpf4jnsgd1na2vs0mg"},{"bike_id":"731a1a76-b97c-41cb-b928-7d14a3fde1e3","system_id":"levelo_inurba_marseille","lat":43.29232,"lon":5.36053,"is_reserved":false,"is_disabled":false,"rental_uris":{"android":"levelo://app?vid=731a1a76-b97c-41cb-b928-7d14a3fde1e3","ios":"levelo://app?vid=731a1a76-b97c-41cb-b928-7d14a3fde1e3"},"vehicle_type_id":"4","last_reported":1725300695,"current_range_meters":400,"station_id":"ce4bhbh2rcd13ifvqeqg","pricing_plan_id":"cebpf4jnsgd1na2vs0mg"},{"bike_id":"5863e3b7-a1cd-4f0d-baf5-fce67d18e5d4","system_id":"levelo_inurba_marseille","lat":43.29228,"lon":5.36054,"is_reserved":false,"is_disabled":false,"rental_uris":{"android":"levelo://app?vid=5863e3b7-a1cd-4f0d-baf5-fce67d18e5d4","ios":"levelo://app?vid=5863e3b7-a1cd-4f0d-baf5-fce67d18e5d4"},"vehicle_type_id":"4","last_reported":1725300695,"current_range_meters":6400,"station_id":"ce4bhbh2rcd13ifvqeqg","pricing_plan_id":"cebpf4jnsgd1na2vs0mg"},{"bike_id":"85b43ca8-889d-4685-9631-ae09c74bc515","system_id":"levelo_inurba_marseille","lat":43.29228,"lon":5.36052,"is_reserved":false,"is_disabled":false,"rental_uris":{"android":"levelo://app?vid=85b43ca8-889d-4685-9631-ae09c74bc515","ios":"levelo://app?vid=85b43ca8-889d-4685-9631-ae09c74bc515"},"vehicle_type_id":"4","last_reported":1725300695,"current_range_meters":29200,"station_id":"ce4bhbh2rcd13ifvqeqg","pricing_plan_id":"cebpf4jnsgd1na2vs0mg"},{"bike_id":"a7239564-dc16-4834-afdd-33157f842305","system_id":"levelo_inurba_marseille","lat":43.29227,"lon":5.36055,"is_reserved":false,"is_disabled":false,"rental_uris":{"android":"levelo://app?vid=a7239564-dc16-4834-afdd-33157f842305","ios":"levelo://app?vid=a7239564-dc16-4834-afdd-33157f842305"},"vehicle_type_id":"4","last_reported":1725300695,"current_range_meters":0,"station_id":"ce4bhbh2rcd13ifvqeqg","pricing_plan_id":"cebpf4jnsgd1na2vs0mg"},{"bike_id":"ca570f3d-2032-493b-9937-35457b0c7ce9","system_id":"levelo_inurba_marseille","lat":43.2936,"lon":5.37835,"is_reserved":false,"is_disabled":false,"rental_uris":{"android":"levelo://app?vid=ca570f3d-2032-493b-9937-35457b0c7ce9","ios":"levelo://app?vid=ca570f3d-2032-493b-9937-35457b0c7ce9"},"vehicle_type_id":"4","last_reported":1725300695,"current_range_meters":27200,"station_id":"ce4bgjh2rcd13ifvqbf0","pricing_plan_id":"cebpf4jnsgd1na2vs0mg"},{"bike_id":"af6fbb33-9148-48ef-99de-80a6533ea359","system_id":"levelo_inurba_marseille","lat":43.292206,"lon":5.360834,"is_reserved":false,"is_disabled":false,"rental_uris":{"android":"levelo://app?vid=af6fbb33-9148-48ef-99de-80a6533ea359","ios":"levelo://app?vid=af6fbb33-9148-48ef-99de-80a6533ea359"},"vehicle_type_id":"4","last_reported":1725300695,"current_range_meters":0,"station_id":"","pricing_plan_id":"cebpf4jnsgd1na2vs0mg"},{"bike_id":"1869ba5d-bae0-44ed-9944-231144040d95","system_id":"levelo_inurba_marseille","lat":43.291675,"lon":5.371583,"is_reserved":false,"is_disabled":false,"rental_uris":{"android":"levelo://app?vid=1869ba5d-bae0-44ed-9944-231144040d95","ios":"levelo://app?vid=1869ba5d-bae0-44ed-9944-231144040d95"},"vehicle_type_id":"4","last_reported":1725300695,"current_range_meters":0,"station_id":"ce4bha92rcd13ifvqeh0","pricing_plan_id":"cebpf4jnsgd1na2vs0mg"},{"bike_id":"d75942e1-01a4-42b2-bf82-d378efcaa262","system_id":"levelo_inurba_marseille","lat":43.298764,"lon":5.388973,"is_reserved":false,"is_disabled":false,"rental_uris":{"android":"levelo://app?vid=d75942e1-01a4-42b2-bf82-d378efcaa262","ios":"levelo://app?vid=d75942e1-01a4-42b2-bf82-d378efcaa262"},"vehicle_type_id":"4","last_reported":1725300695,"current_range_meters":5600,"station_id":"ce4bh392rcd13ifvqdl0","pricing_plan_id":"cebpf4jnsgd1na2vs0mg"},{"bike_id":"8294ffd4-7da5-4b6d-aa41-66e5e0f6883c","system_id":"levelo_inurba_marseille","lat":43.291675,"lon":5.371583,"is_reserved":false,"is_disabled":false,"rental_uris":{"android":"levelo://app?vid=8294ffd4-7da5-4b6d-aa41-66e5e0f6883c","ios":"levelo://app?vid=8294ffd4-7da5-4b6d-aa41-66e5e0f6883c"},"vehicle_type_id":"4","last_reported":1725300695,"current_range_meters":0,"station_id":"ce4bha92rcd13ifvqeh0","pricing_plan_id":"cebpf4jnsgd1na2vs0mg"},{"bike_id":"adc23889-9ae6-40b0-9bb4-1678b8a614f4","system_id":"levelo_inurba_marseille","lat":43.291671,"lon":5.371575,"is_reserved":false,"is_disabled":false,"rental_uris":{"android":"levelo://app?vid=adc23889-9ae6-40b0-9bb4-1678b8a614f4","ios":"levelo://app?vid=adc23889-9ae6-40b0-9bb4-1678b8a614f4"},"vehicle_type_id":"4","last_reported":1725300695,"current_range_meters":1200,"station_id":"ce4bha92rcd13ifvqeh0","pricing_plan_id":"cebpf4jnsgd1na2vs0mg"},{"bike_id":"9ce78402-befc-4935-9713-cac2c0c44cc2","system_id":"levelo_inurba_marseille","lat":43.29203,"lon":5.35801,"is_reserved":false,"is_disabled":false,"rental_uris":{"android":"levelo://app?vid=9ce78402-befc-4935-9713-cac2c0c44cc2","ios":"levelo://app?vid=9ce78402-befc-4935-9713-cac2c0c44cc2"},"vehicle_type_id":"4","last_reported":1725300695,"current_range_meters":0,"station_id":"ce4bhb12rcd13ifvqel0","pricing_plan_id":"cebpf4jnsgd1na2vs0mg"},{"bike_id":"20ede0bd-f447-40a8-8a03-7cca190dabeb","system_id":"levelo_inurba_marseille","lat":43.29197,"lon":5.35809,"is_reserved":false,"is_disabled":false,"rental_uris":{"android":"levelo://app?vid=20ede0bd-f447-40a8-8a03-7cca190dabeb","ios":"levelo://app?vid=20ede0bd-f447-40a8-8a03-7cca190dabeb"},"vehicle_type_id":"4","last_reported":1725300695,"current_range_meters":0,"station_id":"ce4bhb12rcd13ifvqel0","pricing_plan_id":"cebpf4jnsgd1na2vs0mg"},{"bike_id":"ab5d1280-e2b9-4d62-9f91-ae6f6fb68163","system_id":"levelo_inurba_marseille","lat":43.30888,"lon":5.39643,"is_reserved":false,"is_disabled":false,"rental_uris":{"android":"levelo://app?vid=ab5d1280-e2b9-4d62-9f91-ae6f6fb68163","ios":"levelo://app?vid=ab5d1280-e2b9-4d62-9f91-ae6f6fb68163"},"vehicle_type_id":"4","last_reported":1725300695,"current_range_meters":0,"station_id":"ce4bh012rcd13ifvqcv0","pricing_plan_id":"cebpf4jnsgd1na2vs0mg"},{"bike_id":"872a5c5e-0826-4927-a95e-8083ac61eaa2","system_id":"levelo_inurba_marseille","lat":43.313291,"lon":5.396838,"is_reserved":false,"is_disabled":false,"rental_uris":{"android":"levelo://app?vid=872a5c5e-0826-4927-a95e-8083ac61eaa2","ios":"levelo://app?vid=872a5c5e-0826-4927-a95e-8083ac61eaa2"},"vehicle_type_id":"4","last_reported":1725300695,"current_range_meters":11200,"station_id":"ce4bgvp2rcd13ifvqcu0","pricing_plan_id":"cebpf4jnsgd1na2vs0mg"},{"bike_id":"bd463097-a061-4ce8-a7ba-af0ac2ace5d2","system_id":"levelo_inurba_marseille","lat":43.309047,"lon":5.396551,"is_reserved":false,"is_disabled":false,"rental_uris":{"android":"levelo://app?vid=bd463097-a061-4ce8-a7ba-af0ac2ace5d2","ios":"levelo://app?vid=bd463097-a061-4ce8-a7ba-af0ac2ace5d2"},"vehicle_type_id":"4","last_reported":1725300695,"current_range_meters":0,"station_id":"ce4bh012rcd13ifvqcv0","pricing_plan_id":"cebpf4jnsgd1na2vs0mg"},{"bike_id":"636aea21-6a57-4647-b02b-7d1da1931525","system_id":"levelo_inurba_marseille","lat":43.309047,"lon":5.396551,"is_reserved":false,"is_disabled":false,"rental_uris":{"android":"levelo://app?vid=636aea21-6a57-4647-b02b-7d1da1931525","ios":"levelo://app?vid=636aea21-6a57-4647-b02b-7d1da1931525"},"vehicle_type_id":"4","last_reported":1725300695,"current_range_meters":24800,"station_id":"ce4bh012rcd13ifvqcv0","pricing_plan_id":"cebpf4jnsgd1na2vs0mg"},{"bike_id":"dae401e6-4dac-40d6-b9ac-e24c9d9b958d","system_id":"levelo_inurba_marseille","lat":43.309047,"lon":5.396551,"is_reserved":false,"is_disabled":false,"rental_uris":{"android":"levelo://app?vid=dae401e6-4dac-40d6-b9ac-e24c9d9b958d","ios":"levelo://app?vid=dae401e6-4dac-40d6-b9ac-e24c9d9b958d"},"vehicle_type_id":"4","last_reported":1725300695,"current_range_meters":6800,"station_id":"ce4bh012rcd13ifvqcv0","pricing_plan_id":"cebpf4jnsgd1na2vs0mg"},{"bike_id":"9eb1421c-9dc3-4d27-9e93-ad178d1ad6ef","system_id":"levelo_inurba_marseille","lat":43.299028,"lon":5.381509,"is_reserved":false,"is_disabled":false,"rental_uris":{"android":"levelo://app?vid=9eb1421c-9dc3-4d27-9e93-ad178d1ad6ef","ios":"levelo://app?vid=9eb1421c-9dc3-4d27-9e93-ad178d1ad6ef"},"vehicle_type_id":"4","last_reported":1725300695,"current_range_meters":400,"station_id":"ce4bgj12rcd13ifvqbc0","pricing_plan_id":"cebpf4jnsgd1na2vs0mg"},{"bike_id":"1396191a-64e8-4896-8723-735f245328f0","system_id":"levelo_inurba_marseille","lat":43.302008,"lon":5.394694,"is_reserved":false,"is_disabled":false,"rental_uris":{"android":"levelo://app?vid=1396191a-64e8-4896-8723-735f245328f0","ios":"levelo://app?vid=1396191a-64e8-4896-8723-735f245328f0"},"vehicle_type_id":"4","last_reported":1725300695,"current_range_meters":10000,"station_id":"ce4bh0p2rcd13ifvqd70","pricing_plan_id":"cebpf4jnsgd1na2vs0mg"},{"bike_id":"7906de95-b4eb-4694-8aa2-acc3f51a276d","system_id":"levelo_inurba_marseille","lat":43.294153,"lon":5.386305,"is_reserved":false,"is_disabled":false,"rental_uris":{"android":"levelo://app?vid=7906de95-b4eb-4694-8aa2-acc3f51a276d","ios":"levelo://app?vid=7906de95-b4eb-4694-8aa2-acc3f51a276d"},"vehicle_type_id":"4","last_reported":1725300695,"current_range_meters":0,"station_id":"ce4bh2h2rcd13ifvqdh0","pricing_plan_id":"cebpf4jnsgd1na2vs0mg"},{"bike_id":"b9d7c5eb-618a-4d60-a4e5-be0e7367494a","system_id":"levelo_inurba_marseille","lat":43.290319,"lon":5.375732,"is_reserved":false,"is_disabled":false,"rental_uris":{"android":"levelo://app?vid=b9d7c5eb-618a-4d60-a4e5-be0e7367494a","ios":"levelo://app?vid=b9d7c5eb-618a-4d60-a4e5-be0e7367494a"},"vehicle_type_id":"4","last_reported":1725300695,"current_range_meters":0,"station_id":"ce4bh692rcd13ifvqe90","pricing_plan_id":"cebpf4jnsgd1na2vs0mg"},{"bike_id":"322fec34-e743-458d-a0cf-6cea6984e9a6","system_id":"levelo_inurba_marseille","lat":43.28947,"lon":5.36635,"is_reserved":false,"is_disabled":false,"rental_uris":{"android":"levelo://app?vid=322fec34-e743-458d-a0cf-6cea6984e9a6","ios":"levelo://app?vid=322fec34-e743-458d-a0cf-6cea6984e9a6"},"vehicle_type_id":"4","last_reported":1725300695,"current_range_meters":2000,"station_id":"ce4bhap2rcd13ifvqek0","pricing_plan_id":"cebpf4jnsgd1na2vs0mg"},{"bike_id":"21407fb0-5391-427d-ba75-2babe01aadf1","system_id":"levelo_inurba_marseille","lat":43.28945,"lon":5.36629,"is_reserved":false,"is_disabled":false,"rental_uris":{"android":"levelo://app?vid=21407fb0-5391-427d-ba75-2babe01aadf1","ios":"levelo://app?vid=21407fb0-5391-427d-ba75-2babe01aadf1"},"vehicle_type_id":"4","last_reported":1725300695,"current_range_meters":28800,"station_id":"ce4bhap2rcd13ifvqek0","pricing_plan_id":"cebpf4jnsgd1na2vs0mg"},{"bike_id":"2e09323b-4a8c-487a-a97c-92e0d30d10dc","system_id":"levelo_inurba_marseille","lat":43.29416,"lon":5.38624,"is_reserved":false,"is_disabled":false,"rental_uris":{"android":"levelo://app?vid=2e09323b-4a8c-487a-a97c-92e0d30d10dc","ios":"levelo://app?vid=2e09323b-4a8c-487a-a97c-92e0d30d10dc"},"vehicle_type_id":"4","last_reported":1725300695,"current_range_meters":0,"station_id":"ce4bh2h2rcd13ifvqdh0","pricing_plan_id":"cebpf4jnsgd1na2vs0mg"},{"bike_id":"a976d52c-2523-4cc3-a8d5-8b83d7f58686","system_id":"levelo_inurba_marseille","lat":43.289184,"lon":5.366408,"is_reserved":false,"is_disabled":false,"rental_uris":{"android":"levelo://app?vid=a976d52c-2523-4cc3-a8d5-8b83d7f58686","ios":"levelo://app?vid=a976d52c-2523-4cc3-a8d5-8b83d7f58686"},"vehicle_type_id":"4","last_reported":1725300695,"current_range_meters":2400,"station_id":"ce4bhap2rcd13ifvqek0","pricing_plan_id":"cebpf4jnsgd1na2vs0mg"},{"bike_id":"3883150d-1057-4be0-a70a-337677c75921","system_id":"levelo_inurba_marseille","lat":43.29414,"lon":5.38625,"is_reserved":false,"is_disabled":false,"rental_uris":{"android":"levelo://app?vid=3883150d-1057-4be0-a70a-337677c75921","ios":"levelo://app?vid=3883150d-1057-4be0-a70a-337677c75921"},"vehicle_type_id":"4","last_reported":1725300695,"current_range_meters":0,"station_id":"ce4bh2h2rcd13ifvqdh0","pricing_plan_id":"cebpf4jnsgd1na2vs0mg"},{"bike_id":"0a72fcad-6afe-404a-b5c0-c49739138338","system_id":"levelo_inurba_marseille","lat":43.289468,"lon":5.363719,"is_reserved":false,"is_disabled":false,"rental_uris":{"android":"levelo://app?vid=0a72fcad-6afe-404a-b5c0-c49739138338","ios":"levelo://app?vid=0a72fcad-6afe-404a-b5c0-c49739138338"},"vehicle_type_id":"4","last_reported":1725300695,"current_range_meters":20000,"station_id":"ce4bhc92rcd13ifvqetg","pricing_plan_id":"cebpf4jnsgd1na2vs0mg"},{"bike_id":"847ae628-4a63-4fff-a158-c9abda1e6dbf","system_id":"levelo_inurba_marseille","lat":43.289417,"lon":5.366363,"is_reserved":false,"is_disabled":false,"rental_uris":{"android":"levelo://app?vid=847ae628-4a63-4fff-a158-c9abda1e6dbf","ios":"levelo://app?vid=847ae628-4a63-4fff-a158-c9abda1e6dbf"},"vehicle_type_id":"4","last_reported":1725300695,"current_range_meters":400,"station_id":"ce4bhap2rcd13ifvqek0","pricing_plan_id":"cebpf4jnsgd1na2vs0mg"},{"bike_id":"b836335f-fc85-4628-bd2b-6b091a581d28","system_id":"levelo_inurba_marseille","lat":43.28941,"lon":5.3664,"is_reserved":false,"is_disabled":false,"rental_uris":{"android":"levelo://app?vid=b836335f-fc85-4628-bd2b-6b091a581d28","ios":"levelo://app?vid=b836335f-fc85-4628-bd2b-6b091a581d28"},"vehicle_type_id":"4","last_reported":1725300695,"current_range_meters":18800,"station_id":"ce4bhap2rcd13ifvqek0","pricing_plan_id":"cebpf4jnsgd1na2vs0mg"},{"bike_id":"b4f55523-cfc9-40c2-8e00-02554e479184","system_id":"levelo_inurba_marseille","lat":43.289184,"lon":5.366408,"is_reserved":false,"is_disabled":false,"rental_uris":{"android":"levelo://app?vid=b4f55523-cfc9-40c2-8e00-02554e479184","ios":"levelo://app?vid=b4f55523-cfc9-40c2-8e00-02554e479184"},"vehicle_type_id":"4","last_reported":1725300695,"current_range_meters":0,"station_id":"ce4bhap2rcd13ifvqek0","pricing_plan_id":"cebpf4jnsgd1na2vs0mg"},{"bike_id":"6850eb5b-be01-4222-be46-43e1ceba81fb","system_id":"levelo_inurba_marseille","lat":43.289184,"lon":5.366408,"is_reserved":false,"is_disabled":false,"rental_uris":{"android":"levelo://app?vid=6850eb5b-be01-4222-be46-43e1ceba81fb","ios":"levelo://app?vid=6850eb5b-be01-4222-be46-43e1ceba81fb"},"vehicle_type_id":"4","last_reported":1725300695,"current_range_meters":6000,"station_id":"ce4bhap2rcd13ifvqek0","pricing_plan_id":"cebpf4jnsgd1na2vs0mg"},{"bike_id":"e7b3dd86-aa44-4642-9dbe-94e23e312d2f","system_id":"levelo_inurba_marseille","lat":43.28935,"lon":5.36631,"is_reserved":false,"is_disabled":false,"rental_uris":{"android":"levelo://app?vid=e7b3dd86-aa44-4642-9dbe-94e23e312d2f","ios":"levelo://app?vid=e7b3dd86-aa44-4642-9dbe-94e23e312d2f"},"vehicle_type_id":"4","last_reported":1725300695,"current_range_meters":0,"station_id":"ce4bhap2rcd13ifvqek0","pricing_plan_id":"cebpf4jnsgd1na2vs0mg"},{"bike_id":"232e21e6-8f1e-4f72-8b27-439a780751a1","system_id":"levelo_inurba_marseille","lat":43.289184,"lon":5.366408,"is_reserved":false,"is_disabled":false,"rental_uris":{"android":"levelo://app?vid=232e21e6-8f1e-4f72-8b27-439a780751a1","ios":"levelo://app?vid=232e21e6-8f1e-4f72-8b27-439a780751a1"},"vehicle_type_id":"4","last_reported":1725300695,"current_range_meters":28000,"station_id":"ce4bhap2rcd13ifvqek0","pricing_plan_id":"cebpf4jnsgd1na2vs0mg"},{"bike_id":"1d2aee21-69a9-4052-9a03-b289bce0fd4b","system_id":"levelo_inurba_marseille","lat":43.29255,"lon":5.38432,"is_reserved":false,"is_disabled":false,"rental_uris":{"android":"levelo://app?vid=1d2aee21-69a9-4052-9a03-b289bce0fd4b","ios":"levelo://app?vid=1d2aee21-69a9-4052-9a03-b289bce0fd4b"},"vehicle_type_id":"4","last_reported":1725300695,"current_range_meters":0,"station_id":"ce4bh692rcd13ifvqea0","pricing_plan_id":"cebpf4jnsgd1na2vs0mg"},{"bike_id":"22632ba6-019b-478b-a101-a9e795b92ab0","system_id":"levelo_inurba_marseille","lat":43.2901,"lon":5.35608,"is_reserved":false,"is_disabled":false,"rental_uris":{"android":"levelo://app?vid=22632ba6-019b-478b-a101-a9e795b92ab0","ios":"levelo://app?vid=22632ba6-019b-478b-a101-a9e795b92ab0"},"vehicle_type_id":"4","last_reported":1725300695,"current_range_meters":0,"station_id":"ce4bhb92rcd13ifvqen0","pricing_plan_id":"cebpf4jnsgd1na2vs0mg"},{"bike_id":"f6147a98-c44a-426e-b0a9-405c9392386d","system_id":"levelo_inurba_marseille","lat":43.290995,"lon":5.381361,"is_reserved":false,"is_disabled":false,"rental_uris":{"android":"levelo://app?vid=f6147a98-c44a-426e-b0a9-405c9392386d","ios":"levelo://app?vid=f6147a98-c44a-426e-b0a9-405c9392386d"},"vehicle_type_id":"4","last_reported":1725300695,"current_range_meters":28000,"station_id":"ce4bh512rcd13ifvqe2g","pricing_plan_id":"cebpf4jnsgd1na2vs0mg"},{"bike_id":"a85dfa4d-3a79-4030-9fbf-efa5e20e0200","system_id":"levelo_inurba_marseille","lat":43.29103,"lon":5.3814,"is_reserved":false,"is_disabled":false,"rental_uris":{"android":"levelo://app?vid=a85dfa4d-3a79-4030-9fbf-efa5e20e0200","ios":"levelo://app?vid=a85dfa4d-3a79-4030-9fbf-efa5e20e0200"},"vehicle_type_id":"4","last_reported":1725300695,"current_range_meters":0,"station_id":"ce4bh512rcd13ifvqe2g","pricing_plan_id":"cebpf4jnsgd1na2vs0mg"},{"bike_id":"7343b5aa-50d5-4cd1-9607-3ced302882fc","system_id":"levelo_inurba_marseille","lat":43.290995,"lon":5.381361,"is_reserved":false,"is_disabled":false,"rental_uris":{"android":"levelo://app?vid=7343b5aa-50d5-4cd1-9607-3ced302882fc","ios":"levelo://app?vid=7343b5aa-50d5-4cd1-9607-3ced302882fc"},"vehicle_type_id":"4","last_reported":1725300695,"current_range_meters":2800,"station_id":"ce4bh512rcd13ifvqe2g","pricing_plan_id":"cebpf4jnsgd1na2vs0mg"},{"bike_id":"1e7bbc6c-4d45-4933-8254-bd01dc48599d","system_id":"levelo_inurba_marseille","lat":43.291,"lon":5.38142,"is_reserved":false,"is_disabled":false,"rental_uris":{"android":"levelo://app?vid=1e7bbc6c-4d45-4933-8254-bd01dc48599d","ios":"levelo://app?vid=1e7bbc6c-4d45-4933-8254-bd01dc48599d"},"vehicle_type_id":"4","last_reported":1725300695,"current_range_meters":0,"station_id":"ce4bh512rcd13ifvqe2g","pricing_plan_id":"cebpf4jnsgd1na2vs0mg"},{"bike_id":"2263caed-94e5-40e2-bbe7-4c8df4bb9ce5","system_id":"levelo_inurba_marseille","lat":43.290995,"lon":5.381361,"is_reserved":false,"is_disabled":false,"rental_uris":{"android":"levelo://app?vid=2263caed-94e5-40e2-bbe7-4c8df4bb9ce5","ios":"levelo://app?vid=2263caed-94e5-40e2-bbe7-4c8df4bb9ce5"},"vehicle_type_id":"4","last_reported":1725300695,"current_range_meters":0,"station_id":"ce4bh512rcd13ifvqe2g","pricing_plan_id":"cebpf4jnsgd1na2vs0mg"},{"bike_id":"b6410296-b6fb-4051-b2ff-726195a8690a","system_id":"levelo_inurba_marseille","lat":43.3302,"lon":5.39035,"is_reserved":false,"is_disabled":false,"rental_uris":{"android":"levelo://app?vid=b6410296-b6fb-4051-b2ff-726195a8690a","ios":"levelo://app?vid=b6410296-b6fb-4051-b2ff-726195a8690a"},"vehicle_type_id":"4","last_reported":1725300695,"current_range_meters":8000,"station_id":"ce4bhr92rcd13ifvqhrg","pricing_plan_id":"cebpf4jnsgd1na2vs0mg"},{"bike_id":"5ffd8fdb-f196-4cb0-a5d9-b1f4f51b66a9","system_id":"levelo_inurba_marseille","lat":43.3302,"lon":5.39039,"is_reserved":false,"is_disabled":false,"rental_uris":{"android":"levelo://app?vid=5ffd8fdb-f196-4cb0-a5d9-b1f4f51b66a9","ios":"levelo://app?vid=5ffd8fdb-f196-4cb0-a5d9-b1f4f51b66a9"},"vehicle_type_id":"4","last_reported":1725300695,"current_range_meters":24400,"station_id":"ce4bhr92rcd13ifvqhrg","pricing_plan_id":"cebpf4jnsgd1na2vs0mg"},{"bike_id":"9a73cf14-c7a0-4364-b08c-f1d26a66421f","system_id":"levelo_inurba_marseille","lat":43.289741,"lon":5.378306,"is_reserved":false,"is_disabled":false,"rental_uris":{"android":"levelo://app?vid=9a73cf14-c7a0-4364-b08c-f1d26a66421f","ios":"levelo://app?vid=9a73cf14-c7a0-4364-b08c-f1d26a66421f"},"vehicle_type_id":"4","last_reported":1725300695,"current_range_meters":3600,"station_id":"ce4bh9p2rcd13ifvqed0","pricing_plan_id":"cebpf4jnsgd1na2vs0mg"},{"bike_id":"ae8a7b32-d92e-4cdd-b85a-2e18cdc3e0f2","system_id":"levelo_inurba_marseille","lat":43.330442,"lon":5.389148,"is_reserved":false,"is_disabled":false,"rental_uris":{"android":"levelo://app?vid=ae8a7b32-d92e-4cdd-b85a-2e18cdc3e0f2","ios":"levelo://app?vid=ae8a7b32-d92e-4cdd-b85a-2e18cdc3e0f2"},"vehicle_type_id":"4","last_reported":1725300695,"current_range_meters":26000,"station_id":"ce4bhr92rcd13ifvqhrg","pricing_plan_id":"cebpf4jnsgd1na2vs0mg"},{"bike_id":"fe158b8b-6992-4416-bfbf-9a08611e6a3a","system_id":"levelo_inurba_marseille","lat":43.33019,"lon":5.39043,"is_reserved":false,"is_disabled":false,"rental_uris":{"android":"levelo://app?vid=fe158b8b-6992-4416-bfbf-9a08611e6a3a","ios":"levelo://app?vid=fe158b8b-6992-4416-bfbf-9a08611e6a3a"},"vehicle_type_id":"4","last_reported":1725300695,"current_range_meters":14800,"station_id":"ce4bhr92rcd13ifvqhrg","pricing_plan_id":"cebpf4jnsgd1na2vs0mg"},{"bike_id":"f0916426-5ca2-4daf-bff9-55aaad436ef7","system_id":"levelo_inurba_marseille","lat":43.289741,"lon":5.378306,"is_reserved":false,"is_disabled":false,"rental_uris":{"android":"levelo://app?vid=f0916426-5ca2-4daf-bff9-55aaad436ef7","ios":"levelo://app?vid=f0916426-5ca2-4daf-bff9-55aaad436ef7"},"vehicle_type_id":"4","last_reported":1725300695,"current_range_meters":4000,"station_id":"ce4bh9p2rcd13ifvqed0","pricing_plan_id":"cebpf4jnsgd1na2vs0mg"},{"bike_id":"d08efa48-9a0c-4766-ba89-908ab3df66c2","system_id":"levelo_inurba_marseille","lat":43.33023,"lon":5.39041,"is_reserved":false,"is_disabled":false,"rental_uris":{"android":"levelo://app?vid=d08efa48-9a0c-4766-ba89-908ab3df66c2","ios":"levelo://app?vid=d08efa48-9a0c-4766-ba89-908ab3df66c2"},"vehicle_type_id":"4","last_reported":1725300695,"current_range_meters":4000,"station_id":"ce4bhr92rcd13ifvqhrg","pricing_plan_id":"cebpf4jnsgd1na2vs0mg"},{"bike_id":"d3daf3b2-8126-4f65-89e8-0e5f7710267e","system_id":"levelo_inurba_marseille","lat":43.330442,"lon":5.389148,"is_reserved":false,"is_disabled":false,"rental_uris":{"android":"levelo://app?vid=d3daf3b2-8126-4f65-89e8-0e5f7710267e","ios":"levelo://app?vid=d3daf3b2-8126-4f65-89e8-0e5f7710267e"},"vehicle_type_id":"4","last_reported":1725300695,"current_range_meters":21600,"station_id":"ce4bhr92rcd13ifvqhrg","pricing_plan_id":"cebpf4jnsgd1na2vs0mg"},{"bike_id":"9b3e84d4-924f-40d0-973a-01869b17071b","system_id":"levelo_inurba_marseille","lat":43.33023,"lon":5.39042,"is_reserved":false,"is_disabled":false,"rental_uris":{"android":"levelo://app?vid=9b3e84d4-924f-40d0-973a-01869b17071b","ios":"levelo://app?vid=9b3e84d4-924f-40d0-973a-01869b17071b"},"vehicle_type_id":"4","last_reported":1725300695,"current_range_meters":1200,"station_id":"ce4bhr92rcd13ifvqhrg","pricing_plan_id":"cebpf4jnsgd1na2vs0mg"},{"bike_id":"e74ecfe6-eb2e-4c31-b8da-544da791e5bd","system_id":"levelo_inurba_marseille","lat":43.330442,"lon":5.389148,"is_reserved":false,"is_disabled":false,"rental_uris":{"android":"levelo://app?vid=e74ecfe6-eb2e-4c31-b8da-544da791e5bd","ios":"levelo://app?vid=e74ecfe6-eb2e-4c31-b8da-544da791e5bd"},"vehicle_type_id":"4","last_reported":1725300695,"current_range_meters":31200,"station_id":"ce4bhr92rcd13ifvqhrg","pricing_plan_id":"cebpf4jnsgd1na2vs0mg"},{"bike_id":"4488b4b6-e5fb-4ece-8ba9-335437cf10d5","system_id":"levelo_inurba_marseille","lat":43.33025,"lon":5.39043,"is_reserved":false,"is_disabled":false,"rental_uris":{"android":"levelo://app?vid=4488b4b6-e5fb-4ece-8ba9-335437cf10d5","ios":"levelo://app?vid=4488b4b6-e5fb-4ece-8ba9-335437cf10d5"},"vehicle_type_id":"4","last_reported":1725300695,"current_range_meters":11200,"station_id":"ce4bhr92rcd13ifvqhrg","pricing_plan_id":"cebpf4jnsgd1na2vs0mg"},{"bike_id":"6e51196e-d8f4-4102-9034-57e435fc78b1","system_id":"levelo_inurba_marseille","lat":43.33028,"lon":5.39039,"is_reserved":false,"is_disabled":false,"rental_uris":{"android":"levelo://app?vid=6e51196e-d8f4-4102-9034-57e435fc78b1","ios":"levelo://app?vid=6e51196e-d8f4-4102-9034-57e435fc78b1"},"vehicle_type_id":"4","last_reported":1725300695,"current_range_meters":1200,"station_id":"ce4bhr92rcd13ifvqhrg","pricing_plan_id":"cebpf4jnsgd1na2vs0mg"},{"bike_id":"693ab049-37fa-47c7-bc56-e7d31d402a35","system_id":"levelo_inurba_marseille","lat":43.33025,"lon":5.39044,"is_reserved":false,"is_disabled":false,"rental_uris":{"android":"levelo://app?vid=693ab049-37fa-47c7-bc56-e7d31d402a35","ios":"levelo://app?vid=693ab049-37fa-47c7-bc56-e7d31d402a35"},"vehicle_type_id":"4","last_reported":1725300695,"current_range_meters":31200,"station_id":"ce4bhr92rcd13ifvqhrg","pricing_plan_id":"cebpf4jnsgd1na2vs0mg"},{"bike_id":"859318b7-26b4-47ec-a105-1abbeb82c548","system_id":"levelo_inurba_marseille","lat":43.33027,"lon":5.39042,"is_reserved":false,"is_disabled":false,"rental_uris":{"android":"levelo://app?vid=859318b7-26b4-47ec-a105-1abbeb82c548","ios":"levelo://app?vid=859318b7-26b4-47ec-a105-1abbeb82c548"},"vehicle_type_id":"4","last_reported":1725300695,"current_range_meters":20000,"station_id":"ce4bhr92rcd13ifvqhrg","pricing_plan_id":"cebpf4jnsgd1na2vs0mg"},{"bike_id":"b8b07b57-29a1-4df1-9f82-d47c5502a2d0","system_id":"levelo_inurba_marseille","lat":43.3303,"lon":5.39039,"is_reserved":false,"is_disabled":false,"rental_uris":{"android":"levelo://app?vid=b8b07b57-29a1-4df1-9f82-d47c5502a2d0","ios":"levelo://app?vid=b8b07b57-29a1-4df1-9f82-d47c5502a2d0"},"vehicle_type_id":"4","last_reported":1725300695,"current_range_meters":19600,"station_id":"ce4bhr92rcd13ifvqhrg","pricing_plan_id":"cebpf4jnsgd1na2vs0mg"},{"bike_id":"6a144e36-ead0-4b6f-8c8a-7191d8499cf0","system_id":"levelo_inurba_marseille","lat":43.330442,"lon":5.389148,"is_reserved":false,"is_disabled":false,"rental_uris":{"android":"levelo://app?vid=6a144e36-ead0-4b6f-8c8a-7191d8499cf0","ios":"levelo://app?vid=6a144e36-ead0-4b6f-8c8a-7191d8499cf0"},"vehicle_type_id":"4","last_reported":1725300695,"current_range_meters":31200,"station_id":"ce4bhr92rcd13ifvqhrg","pricing_plan_id":"cebpf4jnsgd1na2vs0mg"},{"bike_id":"3de3106c-d1d2-4c72-bd54-d21e0259395a","system_id":"levelo_inurba_marseille","lat":43.295169,"lon":5.390426,"is_reserved":false,"is_disabled":false,"rental_uris":{"android":"levelo://app?vid=3de3106c-d1d2-4c72-bd54-d21e0259395a","ios":"levelo://app?vid=3de3106c-d1d2-4c72-bd54-d21e0259395a"},"vehicle_type_id":"4","last_reported":1725300695,"current_range_meters":0,"station_id":"ce4bh3p2rcd13ifvqdp0","pricing_plan_id":"cebpf4jnsgd1na2vs0mg"},{"bike_id":"566de7ed-1a61-4ce5-be9c-ed05780477e0","system_id":"levelo_inurba_marseille","lat":43.2901,"lon":5.381269,"is_reserved":false,"is_disabled":false,"rental_uris":{"android":"levelo://app?vid=566de7ed-1a61-4ce5-be9c-ed05780477e0","ios":"levelo://app?vid=566de7ed-1a61-4ce5-be9c-ed05780477e0"},"vehicle_type_id":"4","last_reported":1725300695,"current_range_meters":16400,"station_id":"ce4bh4p2rcd13ifvqe1g","pricing_plan_id":"cebpf4jnsgd1na2vs0mg"},{"bike_id":"d4306b7f-a989-4419-9107-fac763881687","system_id":"levelo_inurba_marseille","lat":43.29025,"lon":5.38142,"is_reserved":false,"is_disabled":false,"rental_uris":{"android":"levelo://app?vid=d4306b7f-a989-4419-9107-fac763881687","ios":"levelo://app?vid=d4306b7f-a989-4419-9107-fac763881687"},"vehicle_type_id":"4","last_reported":1725300695,"current_range_meters":0,"station_id":"ce4bh4p2rcd13ifvqe1g","pricing_plan_id":"cebpf4jnsgd1na2vs0mg"},{"bike_id":"e2f9f783-62f4-43fe-b05e-ac9fe1ae21d4","system_id":"levelo_inurba_marseille","lat":43.290094,"lon":5.381264,"is_reserved":false,"is_disabled":false,"rental_uris":{"android":"levelo://app?vid=e2f9f783-62f4-43fe-b05e-ac9fe1ae21d4","ios":"levelo://app?vid=e2f9f783-62f4-43fe-b05e-ac9fe1ae21d4"},"vehicle_type_id":"4","last_reported":1725300695,"current_range_meters":1200,"station_id":"ce4bh4p2rcd13ifvqe1g","pricing_plan_id":"cebpf4jnsgd1na2vs0mg"},{"bike_id":"a3756710-b36a-42f6-9663-b46643342b07","system_id":"levelo_inurba_marseille","lat":43.28856,"lon":5.358371,"is_reserved":false,"is_disabled":false,"rental_uris":{"android":"levelo://app?vid=a3756710-b36a-42f6-9663-b46643342b07","ios":"levelo://app?vid=a3756710-b36a-42f6-9663-b46643342b07"},"vehicle_type_id":"4","last_reported":1725300695,"current_range_meters":29200,"station_id":"ce4bhb12rcd13ifvqem0","pricing_plan_id":"cebpf4jnsgd1na2vs0mg"},{"bike_id":"7af64523-2923-411e-a462-55af43531544","system_id":"levelo_inurba_marseille","lat":43.28856,"lon":5.358371,"is_reserved":false,"is_disabled":false,"rental_uris":{"android":"levelo://app?vid=7af64523-2923-411e-a462-55af43531544","ios":"levelo://app?vid=7af64523-2923-411e-a462-55af43531544"},"vehicle_type_id":"4","last_reported":1725300695,"current_range_meters":0,"station_id":"ce4bhb12rcd13ifvqem0","pricing_plan_id":"cebpf4jnsgd1na2vs0mg"},{"bike_id":"7c2d198a-b2ba-4b27-a31a-138c5937a655","system_id":"levelo_inurba_marseille","lat":43.312609,"lon":5.401662,"is_reserved":false,"is_disabled":false,"rental_uris":{"android":"levelo://app?vid=7c2d198a-b2ba-4b27-a31a-138c5937a655","ios":"levelo://app?vid=7c2d198a-b2ba-4b27-a31a-138c5937a655"},"vehicle_type_id":"4","last_reported":1725300695,"current_range_meters":25600,"station_id":"ce4bh092rcd13ifvqd30","pricing_plan_id":"cebpf4jnsgd1na2vs0mg"},{"bike_id":"c0aad800-7e31-4292-a7d5-1860631256c0","system_id":"levelo_inurba_marseille","lat":43.312609,"lon":5.401662,"is_reserved":false,"is_disabled":false,"rental_uris":{"android":"levelo://app?vid=c0aad800-7e31-4292-a7d5-1860631256c0","ios":"levelo://app?vid=c0aad800-7e31-4292-a7d5-1860631256c0"},"vehicle_type_id":"4","last_reported":1725300695,"current_range_meters":1600,"station_id":"ce4bh092rcd13ifvqd30","pricing_plan_id":"cebpf4jnsgd1na2vs0mg"},{"bike_id":"9882c9de-9659-4e22-806e-7179067a519f","system_id":"levelo_inurba_marseille","lat":43.312609,"lon":5.401662,"is_reserved":false,"is_disabled":false,"rental_uris":{"android":"levelo://app?vid=9882c9de-9659-4e22-806e-7179067a519f","ios":"levelo://app?vid=9882c9de-9659-4e22-806e-7179067a519f"},"vehicle_type_id":"4","last_reported":1725300695,"current_range_meters":0,"station_id":"ce4bh092rcd13ifvqd30","pricing_plan_id":"cebpf4jnsgd1na2vs0mg"},{"bike_id":"d01a3708-b82e-4752-857d-9dd8beb6bf91","system_id":"levelo_inurba_marseille","lat":43.33751,"lon":5.37459,"is_reserved":false,"is_disabled":false,"rental_uris":{"android":"levelo://app?vid=d01a3708-b82e-4752-857d-9dd8beb6bf91","ios":"levelo://app?vid=d01a3708-b82e-4752-857d-9dd8beb6bf91"},"vehicle_type_id":"4","last_reported":1725300695,"current_range_meters":4800,"station_id":"","pricing_plan_id":"cebpf4jnsgd1na2vs0mg"},{"bike_id":"3cb4fec9-04db-47b7-8a4e-45a5d42e20da","system_id":"levelo_inurba_marseille","lat":43.33755,"lon":5.37448,"is_reserved":false,"is_disabled":false,"rental_uris":{"android":"levelo://app?vid=3cb4fec9-04db-47b7-8a4e-45a5d42e20da","ios":"levelo://app?vid=3cb4fec9-04db-47b7-8a4e-45a5d42e20da"},"vehicle_type_id":"4","last_reported":1725300695,"current_range_meters":17600,"station_id":"","pricing_plan_id":"cebpf4jnsgd1na2vs0mg"},{"bike_id":"17af643b-cdc7-486e-9891-a56a66804d58","system_id":"levelo_inurba_marseille","lat":43.306397,"lon":5.400763,"is_reserved":false,"is_disabled":false,"rental_uris":{"android":"levelo://app?vid=17af643b-cdc7-486e-9891-a56a66804d58","ios":"levelo://app?vid=17af643b-cdc7-486e-9891-a56a66804d58"},"vehicle_type_id":"4","last_reported":1725300695,"current_range_meters":0,"station_id":"ce4bh112rcd13ifvqda0","pricing_plan_id":"cebpf4jnsgd1na2vs0mg"},{"bike_id":"b287d3d4-d2ec-469e-aeb0-4faaa00fda4e","system_id":"levelo_inurba_marseille","lat":43.3064,"lon":5.40081,"is_reserved":false,"is_disabled":false,"rental_uris":{"android":"levelo://app?vid=b287d3d4-d2ec-469e-aeb0-4faaa00fda4e","ios":"levelo://app?vid=b287d3d4-d2ec-469e-aeb0-4faaa00fda4e"},"vehicle_type_id":"4","last_reported":1725300695,"current_range_meters":0,"station_id":"ce4bh112rcd13ifvqda0","pricing_plan_id":"cebpf4jnsgd1na2vs0mg"},{"bike_id":"a3565815-eeed-4fe0-9581-35523d495f48","system_id":"levelo_inurba_marseille","lat":43.30636,"lon":5.40092,"is_reserved":false,"is_disabled":false,"rental_uris":{"android":"levelo://app?vid=a3565815-eeed-4fe0-9581-35523d495f48","ios":"levelo://app?vid=a3565815-eeed-4fe0-9581-35523d495f48"},"vehicle_type_id":"4","last_reported":1725300695,"current_range_meters":800,"station_id":"ce4bh112rcd13ifvqda0","pricing_plan_id":"cebpf4jnsgd1na2vs0mg"},{"bike_id":"85a03a42-ca2d-4a14-b8c8-7096508e42d8","system_id":"levelo_inurba_marseille","lat":43.306412,"lon":5.401035,"is_reserved":false,"is_disabled":false,"rental_uris":{"android":"levelo://app?vid=85a03a42-ca2d-4a14-b8c8-7096508e42d8","ios":"levelo://app?vid=85a03a42-ca2d-4a14-b8c8-7096508e42d8"},"vehicle_type_id":"4","last_reported":1725300695,"current_range_meters":22000,"station_id":"ce4bh112rcd13ifvqda0","pricing_plan_id":"cebpf4jnsgd1na2vs0mg"},{"bike_id":"0f5a7316-8f70-4eb5-9143-776ff1a7a7bb","system_id":"levelo_inurba_marseille","lat":43.28727,"lon":5.36078,"is_reserved":false,"is_disabled":false,"rental_uris":{"android":"levelo://app?vid=0f5a7316-8f70-4eb5-9143-776ff1a7a7bb","ios":"levelo://app?vid=0f5a7316-8f70-4eb5-9143-776ff1a7a7bb"},"vehicle_type_id":"4","last_reported":1725300695,"current_range_meters":2400,"station_id":"cki0cbj6b192h4jlfktg","pricing_plan_id":"cebpf4jnsgd1na2vs0mg"},{"bike_id":"d327599b-675d-45af-8655-1a4721ab3919","system_id":"levelo_inurba_marseille","lat":43.28727,"lon":5.36078,"is_reserved":false,"is_disabled":false,"rental_uris":{"android":"levelo://app?vid=d327599b-675d-45af-8655-1a4721ab3919","ios":"levelo://app?vid=d327599b-675d-45af-8655-1a4721ab3919"},"vehicle_type_id":"4","last_reported":1725300695,"current_range_meters":0,"station_id":"cki0cbj6b192h4jlfktg","pricing_plan_id":"cebpf4jnsgd1na2vs0mg"},{"bike_id":"d20c1efc-be96-4716-a056-534e4a8a4e31","system_id":"levelo_inurba_marseille","lat":43.28727,"lon":5.36078,"is_reserved":false,"is_disabled":false,"rental_uris":{"android":"levelo://app?vid=d20c1efc-be96-4716-a056-534e4a8a4e31","ios":"levelo://app?vid=d20c1efc-be96-4716-a056-534e4a8a4e31"},"vehicle_type_id":"4","last_reported":1725300695,"current_range_meters":400,"station_id":"cki0cbj6b192h4jlfktg","pricing_plan_id":"cebpf4jnsgd1na2vs0mg"},{"bike_id":"1ac7e910-7794-498e-9166-97b02375db8d","system_id":"levelo_inurba_marseille","lat":43.30131,"lon":5.39889,"is_reserved":false,"is_disabled":false,"rental_uris":{"android":"levelo://app?vid=1ac7e910-7794-498e-9166-97b02375db8d","ios":"levelo://app?vid=1ac7e910-7794-498e-9166-97b02375db8d"},"vehicle_type_id":"4","last_reported":1725300695,"current_range_meters":0,"station_id":"ce4bh0h2rcd13ifvqd40","pricing_plan_id":"cebpf4jnsgd1na2vs0mg"},{"bike_id":"b5dad30f-3c1b-4d12-863b-daf478f6c14c","system_id":"levelo_inurba_marseille","lat":43.28712,"lon":5.37385,"is_reserved":false,"is_disabled":false,"rental_uris":{"android":"levelo://app?vid=b5dad30f-3c1b-4d12-863b-daf478f6c14c","ios":"levelo://app?vid=b5dad30f-3c1b-4d12-863b-daf478f6c14c"},"vehicle_type_id":"4","last_reported":1725300695,"current_range_meters":0,"station_id":"ce4bh3p2rcd13ifvqdq0","pricing_plan_id":"cebpf4jnsgd1na2vs0mg"},{"bike_id":"281a3365-e5bc-4702-b5b3-005518ae5fb3","system_id":"levelo_inurba_marseille","lat":43.298681,"lon":5.397225,"is_reserved":false,"is_disabled":false,"rental_uris":{"android":"levelo://app?vid=281a3365-e5bc-4702-b5b3-005518ae5fb3","ios":"levelo://app?vid=281a3365-e5bc-4702-b5b3-005518ae5fb3"},"vehicle_type_id":"4","last_reported":1725300695,"current_range_meters":4000,"station_id":"ce4bh0h2rcd13ifvqd50","pricing_plan_id":"cebpf4jnsgd1na2vs0mg"},{"bike_id":"3f51a656-a29c-4115-b731-e8254f9b8140","system_id":"levelo_inurba_marseille","lat":43.298681,"lon":5.397225,"is_reserved":false,"is_disabled":false,"rental_uris":{"android":"levelo://app?vid=3f51a656-a29c-4115-b731-e8254f9b8140","ios":"levelo://app?vid=3f51a656-a29c-4115-b731-e8254f9b8140"},"vehicle_type_id":"4","last_reported":1725300695,"current_range_meters":22400,"station_id":"ce4bh0h2rcd13ifvqd50","pricing_plan_id":"cebpf4jnsgd1na2vs0mg"},{"bike_id":"6e2379a7-647b-482c-bac3-25915202707a","system_id":"levelo_inurba_marseille","lat":43.286591,"lon":5.363346,"is_reserved":false,"is_disabled":false,"rental_uris":{"android":"levelo://app?vid=6e2379a7-647b-482c-bac3-25915202707a","ios":"levelo://app?vid=6e2379a7-647b-482c-bac3-25915202707a"},"vehicle_type_id":"4","last_reported":1725300695,"current_range_meters":1600,"station_id":"ce4bhah2rcd13ifvqej0","pricing_plan_id":"cebpf4jnsgd1na2vs0mg"},{"bike_id":"f351d701-0ab7-4079-ade9-3222a5a48007","system_id":"levelo_inurba_marseille","lat":43.286591,"lon":5.363346,"is_reserved":false,"is_disabled":false,"rental_uris":{"android":"levelo://app?vid=f351d701-0ab7-4079-ade9-3222a5a48007","ios":"levelo://app?vid=f351d701-0ab7-4079-ade9-3222a5a48007"},"vehicle_type_id":"4","last_reported":1725300695,"current_range_meters":0,"station_id":"ce4bhah2rcd13ifvqej0","pricing_plan_id":"cebpf4jnsgd1na2vs0mg"},{"bike_id":"fef5f5a1-d527-4a62-813e-dba0e7410236","system_id":"levelo_inurba_marseille","lat":43.298681,"lon":5.397225,"is_reserved":false,"is_disabled":false,"rental_uris":{"android":"levelo://app?vid=fef5f5a1-d527-4a62-813e-dba0e7410236","ios":"levelo://app?vid=fef5f5a1-d527-4a62-813e-dba0e7410236"},"vehicle_type_id":"4","last_reported":1725300695,"current_range_meters":9200,"station_id":"ce4bh0h2rcd13ifvqd50","pricing_plan_id":"cebpf4jnsgd1na2vs0mg"},{"bike_id":"6bedcff8-8e6f-4a55-9edd-732f07a77fef","system_id":"levelo_inurba_marseille","lat":43.298681,"lon":5.397225,"is_reserved":false,"is_disabled":false,"rental_uris":{"android":"levelo://app?vid=6bedcff8-8e6f-4a55-9edd-732f07a77fef","ios":"levelo://app?vid=6bedcff8-8e6f-4a55-9edd-732f07a77fef"},"vehicle_type_id":"4","last_reported":1725300695,"current_range_meters":15600,"station_id":"ce4bh0h2rcd13ifvqd50","pricing_plan_id":"cebpf4jnsgd1na2vs0mg"},{"bike_id":"0d8cd3ce-7316-4f45-b1b9-7bf15df3648f","system_id":"levelo_inurba_marseille","lat":43.28704,"lon":5.37393,"is_reserved":false,"is_disabled":false,"rental_uris":{"android":"levelo://app?vid=0d8cd3ce-7316-4f45-b1b9-7bf15df3648f","ios":"levelo://app?vid=0d8cd3ce-7316-4f45-b1b9-7bf15df3648f"},"vehicle_type_id":"4","last_reported":1725300695,"current_range_meters":6800,"station_id":"ce4bh3p2rcd13ifvqdq0","pricing_plan_id":"cebpf4jnsgd1na2vs0mg"},{"bike_id":"552a47c6-49c9-47c8-8ac9-c0d26cd1b19a","system_id":"levelo_inurba_marseille","lat":43.28667,"lon":5.37081,"is_reserved":false,"is_disabled":false,"rental_uris":{"android":"levelo://app?vid=552a47c6-49c9-47c8-8ac9-c0d26cd1b19a","ios":"levelo://app?vid=552a47c6-49c9-47c8-8ac9-c0d26cd1b19a"},"vehicle_type_id":"4","last_reported":1725300695,"current_range_meters":19200,"station_id":"","pricing_plan_id":"cebpf4jnsgd1na2vs0mg"},{"bike_id":"8f22f619-1cc3-493e-b399-3ecd6773d0b9","system_id":"levelo_inurba_marseille","lat":43.28701,"lon":5.37391,"is_reserved":false,"is_disabled":false,"rental_uris":{"android":"levelo://app?vid=8f22f619-1cc3-493e-b399-3ecd6773d0b9","ios":"levelo://app?vid=8f22f619-1cc3-493e-b399-3ecd6773d0b9"},"vehicle_type_id":"4","last_reported":1725300695,"current_range_meters":15600,"station_id":"ce4bh3p2rcd13ifvqdq0","pricing_plan_id":"cebpf4jnsgd1na2vs0mg"},{"bike_id":"a52ee7d2-2011-4e15-8c16-c731b12fda73","system_id":"levelo_inurba_marseille","lat":43.286593,"lon":5.363346,"is_reserved":false,"is_disabled":false,"rental_uris":{"android":"levelo://app?vid=a52ee7d2-2011-4e15-8c16-c731b12fda73","ios":"levelo://app?vid=a52ee7d2-2011-4e15-8c16-c731b12fda73"},"vehicle_type_id":"4","last_reported":1725300695,"current_range_meters":29200,"station_id":"ce4bhah2rcd13ifvqej0","pricing_plan_id":"cebpf4jnsgd1na2vs0mg"},{"bike_id":"611f8f35-2e1d-4940-9560-1d089392cb0a","system_id":"levelo_inurba_marseille","lat":43.28701,"lon":5.37405,"is_reserved":false,"is_disabled":false,"rental_uris":{"android":"levelo://app?vid=611f8f35-2e1d-4940-9560-1d089392cb0a","ios":"levelo://app?vid=611f8f35-2e1d-4940-9560-1d089392cb0a"},"vehicle_type_id":"4","last_reported":1725300695,"current_range_meters":24000,"station_id":"ce4bh3p2rcd13ifvqdq0","pricing_plan_id":"cebpf4jnsgd1na2vs0mg"},{"bike_id":"2cb67b86-06d3-4cef-a327-300aaecf6728","system_id":"levelo_inurba_marseille","lat":43.289307,"lon":5.38406,"is_reserved":false,"is_disabled":false,"rental_uris":{"android":"levelo://app?vid=2cb67b86-06d3-4cef-a327-300aaecf6728","ios":"levelo://app?vid=2cb67b86-06d3-4cef-a327-300aaecf6728"},"vehicle_type_id":"4","last_reported":1725300695,"current_range_meters":400,"station_id":"ce4bh612rcd13ifvqe6g","pricing_plan_id":"cebpf4jnsgd1na2vs0mg"},{"bike_id":"8c8eb066-3b94-447a-ad17-fe9e3772ec16","system_id":"levelo_inurba_marseille","lat":43.2893,"lon":5.38392,"is_reserved":false,"is_disabled":false,"rental_uris":{"android":"levelo://app?vid=8c8eb066-3b94-447a-ad17-fe9e3772ec16","ios":"levelo://app?vid=8c8eb066-3b94-447a-ad17-fe9e3772ec16"},"vehicle_type_id":"4","last_reported":1725300695,"current_range_meters":400,"station_id":"ce4bh612rcd13ifvqe6g","pricing_plan_id":"cebpf4jnsgd1na2vs0mg"},{"bike_id":"9a77d4cc-e177-4b9b-93f1-be123c86b300","system_id":"levelo_inurba_marseille","lat":43.289307,"lon":5.38406,"is_reserved":false,"is_disabled":false,"rental_uris":{"android":"levelo://app?vid=9a77d4cc-e177-4b9b-93f1-be123c86b300","ios":"levelo://app?vid=9a77d4cc-e177-4b9b-93f1-be123c86b300"},"vehicle_type_id":"4","last_reported":1725300695,"current_range_meters":0,"station_id":"ce4bh612rcd13ifvqe6g","pricing_plan_id":"cebpf4jnsgd1na2vs0mg"},{"bike_id":"d2a2d966-799c-45ac-9a76-3e71a0ec01d8","system_id":"levelo_inurba_marseille","lat":43.290336,"lon":5.386425,"is_reserved":false,"is_disabled":false,"rental_uris":{"android":"levelo://app?vid=d2a2d966-799c-45ac-9a76-3e71a0ec01d8","ios":"levelo://app?vid=d2a2d966-799c-45ac-9a76-3e71a0ec01d8"},"vehicle_type_id":"4","last_reported":1725300695,"current_range_meters":0,"station_id":"ce4bh4p2rcd13ifvqe0g","pricing_plan_id":"cebpf4jnsgd1na2vs0mg"},{"bike_id":"a5396006-c6c6-4de4-87dd-e9a1e3b61afc","system_id":"levelo_inurba_marseille","lat":43.29029,"lon":5.38642,"is_reserved":false,"is_disabled":false,"rental_uris":{"android":"levelo://app?vid=a5396006-c6c6-4de4-87dd-e9a1e3b61afc","ios":"levelo://app?vid=a5396006-c6c6-4de4-87dd-e9a1e3b61afc"},"vehicle_type_id":"4","last_reported":1725300695,"current_range_meters":0,"station_id":"ce4bh4p2rcd13ifvqe0g","pricing_plan_id":"cebpf4jnsgd1na2vs0mg"},{"bike_id":"8869ae27-b5fa-4fbe-aa5e-34c97d2eb7e8","system_id":"levelo_inurba_marseille","lat":43.290375,"lon":5.386664,"is_reserved":false,"is_disabled":false,"rental_uris":{"android":"levelo://app?vid=8869ae27-b5fa-4fbe-aa5e-34c97d2eb7e8","ios":"levelo://app?vid=8869ae27-b5fa-4fbe-aa5e-34c97d2eb7e8"},"vehicle_type_id":"4","last_reported":1725300695,"current_range_meters":5200,"station_id":"ce4bh4p2rcd13ifvqe0g","pricing_plan_id":"cebpf4jnsgd1na2vs0mg"},{"bike_id":"33d9ce9f-42bb-49de-9337-d9f8ed1fd3c4","system_id":"levelo_inurba_marseille","lat":43.290336,"lon":5.386425,"is_reserved":false,"is_disabled":false,"rental_uris":{"android":"levelo://app?vid=33d9ce9f-42bb-49de-9337-d9f8ed1fd3c4","ios":"levelo://app?vid=33d9ce9f-42bb-49de-9337-d9f8ed1fd3c4"},"vehicle_type_id":"4","last_reported":1725300695,"current_range_meters":23600,"station_id":"ce4bh4p2rcd13ifvqe0g","pricing_plan_id":"cebpf4jnsgd1na2vs0mg"},{"bike_id":"7e678c1e-b27d-4271-87aa-6d2c9673dd2c","system_id":"levelo_inurba_marseille","lat":43.302759,"lon":5.400793,"is_reserved":false,"is_disabled":false,"rental_uris":{"android":"levelo://app?vid=7e678c1e-b27d-4271-87aa-6d2c9673dd2c","ios":"levelo://app?vid=7e678c1e-b27d-4271-87aa-6d2c9673dd2c"},"vehicle_type_id":"4","last_reported":1725300695,"current_range_meters":0,"station_id":"ce4bgvh2rcd13ifvqcs0","pricing_plan_id":"cebpf4jnsgd1na2vs0mg"},{"bike_id":"828bfed9-b5cd-4f60-b686-83f1ac101110","system_id":"levelo_inurba_marseille","lat":43.302864,"lon":5.400952,"is_reserved":false,"is_disabled":false,"rental_uris":{"android":"levelo://app?vid=828bfed9-b5cd-4f60-b686-83f1ac101110","ios":"levelo://app?vid=828bfed9-b5cd-4f60-b686-83f1ac101110"},"vehicle_type_id":"4","last_reported":1725300695,"current_range_meters":0,"station_id":"ce4bgvh2rcd13ifvqcs0","pricing_plan_id":"cebpf4jnsgd1na2vs0mg"},{"bike_id":"1b8edae1-3e48-4d36-bc25-e1e9bcc8eb7d","system_id":"levelo_inurba_marseille","lat":43.289143,"lon":5.384058,"is_reserved":false,"is_disabled":false,"rental_uris":{"android":"levelo://app?vid=1b8edae1-3e48-4d36-bc25-e1e9bcc8eb7d","ios":"levelo://app?vid=1b8edae1-3e48-4d36-bc25-e1e9bcc8eb7d"},"vehicle_type_id":"4","last_reported":1725300695,"current_range_meters":19200,"station_id":"","pricing_plan_id":"cebpf4jnsgd1na2vs0mg"},{"bike_id":"6687976a-2ab4-403c-896d-1be46d3987c4","system_id":"levelo_inurba_marseille","lat":43.28613,"lon":5.37064,"is_reserved":false,"is_disabled":false,"rental_uris":{"android":"levelo://app?vid=6687976a-2ab4-403c-896d-1be46d3987c4","ios":"levelo://app?vid=6687976a-2ab4-403c-896d-1be46d3987c4"},"vehicle_type_id":"4","last_reported":1725300695,"current_range_meters":1200,"station_id":"ce4bht12rcd13ifvqi60","pricing_plan_id":"cebpf4jnsgd1na2vs0mg"},{"bike_id":"46caea0d-49c9-450f-81ed-8096c53c1758","system_id":"levelo_inurba_marseille","lat":43.286039,"lon":5.370679,"is_reserved":false,"is_disabled":false,"rental_uris":{"android":"levelo://app?vid=46caea0d-49c9-450f-81ed-8096c53c1758","ios":"levelo://app?vid=46caea0d-49c9-450f-81ed-8096c53c1758"},"vehicle_type_id":"4","last_reported":1725300695,"current_range_meters":400,"station_id":"ce4bht12rcd13ifvqi60","pricing_plan_id":"cebpf4jnsgd1na2vs0mg"},{"bike_id":"39edd620-d329-49a8-b61e-3b4f788fd7f0","system_id":"levelo_inurba_marseille","lat":43.286039,"lon":5.370679,"is_reserved":false,"is_disabled":false,"rental_uris":{"android":"levelo://app?vid=39edd620-d329-49a8-b61e-3b4f788fd7f0","ios":"levelo://app?vid=39edd620-d329-49a8-b61e-3b4f788fd7f0"},"vehicle_type_id":"4","last_reported":1725300695,"current_range_meters":26000,"station_id":"ce4bht12rcd13ifvqi60","pricing_plan_id":"cebpf4jnsgd1na2vs0mg"},{"bike_id":"6de6b3f4-681a-45ba-a4e0-e9088855adba","system_id":"levelo_inurba_marseille","lat":43.286039,"lon":5.370679,"is_reserved":false,"is_disabled":false,"rental_uris":{"android":"levelo://app?vid=6de6b3f4-681a-45ba-a4e0-e9088855adba","ios":"levelo://app?vid=6de6b3f4-681a-45ba-a4e0-e9088855adba"},"vehicle_type_id":"4","last_reported":1725300695,"current_range_meters":22000,"station_id":"ce4bht12rcd13ifvqi60","pricing_plan_id":"cebpf4jnsgd1na2vs0mg"},{"bike_id":"d79f480d-819b-4e11-b3f6-7d9f0615ab1f","system_id":"levelo_inurba_marseille","lat":43.28608,"lon":5.37069,"is_reserved":false,"is_disabled":false,"rental_uris":{"android":"levelo://app?vid=d79f480d-819b-4e11-b3f6-7d9f0615ab1f","ios":"levelo://app?vid=d79f480d-819b-4e11-b3f6-7d9f0615ab1f"},"vehicle_type_id":"4","last_reported":1725300695,"current_range_meters":400,"station_id":"ce4bht12rcd13ifvqi60","pricing_plan_id":"cebpf4jnsgd1na2vs0mg"},{"bike_id":"ddc5307c-92f5-47c9-ae4c-d4479c15bdc7","system_id":"levelo_inurba_marseille","lat":43.286039,"lon":5.370679,"is_reserved":false,"is_disabled":false,"rental_uris":{"android":"levelo://app?vid=ddc5307c-92f5-47c9-ae4c-d4479c15bdc7","ios":"levelo://app?vid=ddc5307c-92f5-47c9-ae4c-d4479c15bdc7"},"vehicle_type_id":"4","last_reported":1725300695,"current_range_meters":10000,"station_id":"ce4bht12rcd13ifvqi60","pricing_plan_id":"cebpf4jnsgd1na2vs0mg"},{"bike_id":"598a804c-ba1a-4568-8f41-788cc5262dbc","system_id":"levelo_inurba_marseille","lat":43.286039,"lon":5.370679,"is_reserved":false,"is_disabled":false,"rental_uris":{"android":"levelo://app?vid=598a804c-ba1a-4568-8f41-788cc5262dbc","ios":"levelo://app?vid=598a804c-ba1a-4568-8f41-788cc5262dbc"},"vehicle_type_id":"4","last_reported":1725300695,"current_range_meters":12000,"station_id":"ce4bht12rcd13ifvqi60","pricing_plan_id":"cebpf4jnsgd1na2vs0mg"},{"bike_id":"94ded013-8e10-4452-8bff-d484ff68119e","system_id":"levelo_inurba_marseille","lat":43.286039,"lon":5.370679,"is_reserved":false,"is_disabled":false,"rental_uris":{"android":"levelo://app?vid=94ded013-8e10-4452-8bff-d484ff68119e","ios":"levelo://app?vid=94ded013-8e10-4452-8bff-d484ff68119e"},"vehicle_type_id":"4","last_reported":1725300695,"current_range_meters":1200,"station_id":"ce4bht12rcd13ifvqi60","pricing_plan_id":"cebpf4jnsgd1na2vs0mg"},{"bike_id":"9c22f915-55cc-4813-b705-7dc8daf22c7d","system_id":"levelo_inurba_marseille","lat":43.287184,"lon":5.37937,"is_reserved":false,"is_disabled":false,"rental_uris":{"android":"levelo://app?vid=9c22f915-55cc-4813-b705-7dc8daf22c7d","ios":"levelo://app?vid=9c22f915-55cc-4813-b705-7dc8daf22c7d"},"vehicle_type_id":"4","last_reported":1725300695,"current_range_meters":11200,"station_id":"ce4bh9p2rcd13ifvqec0","pricing_plan_id":"cebpf4jnsgd1na2vs0mg"},{"bike_id":"2be6819c-c632-4162-9d01-083c5272666b","system_id":"levelo_inurba_marseille","lat":43.327407,"lon":5.398751,"is_reserved":false,"is_disabled":false,"rental_uris":{"android":"levelo://app?vid=2be6819c-c632-4162-9d01-083c5272666b","ios":"levelo://app?vid=2be6819c-c632-4162-9d01-083c5272666b"},"vehicle_type_id":"4","last_reported":1725300695,"current_range_meters":10000,"station_id":"","pricing_plan_id":"cebpf4jnsgd1na2vs0mg"},{"bike_id":"befffc49-fcf3-42cc-973c-bb81340bb1ad","system_id":"levelo_inurba_marseille","lat":43.291994,"lon":5.392907,"is_reserved":false,"is_disabled":false,"rental_uris":{"android":"levelo://app?vid=befffc49-fcf3-42cc-973c-bb81340bb1ad","ios":"levelo://app?vid=befffc49-fcf3-42cc-973c-bb81340bb1ad"},"vehicle_type_id":"4","last_reported":1725300695,"current_range_meters":15200,"station_id":"ce4bh192rcd13ifvqdd0","pricing_plan_id":"cebpf4jnsgd1na2vs0mg"},{"bike_id":"24922642-a4b8-45c6-bd68-3facae5cc8a6","system_id":"levelo_inurba_marseille","lat":43.291994,"lon":5.392907,"is_reserved":false,"is_disabled":false,"rental_uris":{"android":"levelo://app?vid=24922642-a4b8-45c6-bd68-3facae5cc8a6","ios":"levelo://app?vid=24922642-a4b8-45c6-bd68-3facae5cc8a6"},"vehicle_type_id":"4","last_reported":1725300695,"current_range_meters":0,"station_id":"ce4bh192rcd13ifvqdd0","pricing_plan_id":"cebpf4jnsgd1na2vs0mg"},{"bike_id":"8d16eaf1-2a9d-4e56-b7e4-8187dea9bdee","system_id":"levelo_inurba_marseille","lat":43.291994,"lon":5.392907,"is_reserved":false,"is_disabled":false,"rental_uris":{"android":"levelo://app?vid=8d16eaf1-2a9d-4e56-b7e4-8187dea9bdee","ios":"levelo://app?vid=8d16eaf1-2a9d-4e56-b7e4-8187dea9bdee"},"vehicle_type_id":"4","last_reported":1725300695,"current_range_meters":0,"station_id":"ce4bh192rcd13ifvqdd0","pricing_plan_id":"cebpf4jnsgd1na2vs0mg"},{"bike_id":"21afeb13-76a8-4f47-b422-818c33c206e8","system_id":"levelo_inurba_marseille","lat":43.291994,"lon":5.392907,"is_reserved":false,"is_disabled":false,"rental_uris":{"android":"levelo://app?vid=21afeb13-76a8-4f47-b422-818c33c206e8","ios":"levelo://app?vid=21afeb13-76a8-4f47-b422-818c33c206e8"},"vehicle_type_id":"4","last_reported":1725300695,"current_range_meters":14800,"station_id":"ce4bh192rcd13ifvqdd0","pricing_plan_id":"cebpf4jnsgd1na2vs0mg"},{"bike_id":"fa9b844d-deb8-4de4-86c0-398bbde9f22f","system_id":"levelo_inurba_marseille","lat":43.291994,"lon":5.392907,"is_reserved":false,"is_disabled":false,"rental_uris":{"android":"levelo://app?vid=fa9b844d-deb8-4de4-86c0-398bbde9f22f","ios":"levelo://app?vid=fa9b844d-deb8-4de4-86c0-398bbde9f22f"},"vehicle_type_id":"4","last_reported":1725300695,"current_range_meters":6000,"station_id":"ce4bh192rcd13ifvqdd0","pricing_plan_id":"cebpf4jnsgd1na2vs0mg"},{"bike_id":"c67aaa22-9271-48e6-8b31-40cbf60a4d66","system_id":"levelo_inurba_marseille","lat":43.284538,"lon":5.358657,"is_reserved":false,"is_disabled":false,"rental_uris":{"android":"levelo://app?vid=c67aaa22-9271-48e6-8b31-40cbf60a4d66","ios":"levelo://app?vid=c67aaa22-9271-48e6-8b31-40cbf60a4d66"},"vehicle_type_id":"4","last_reported":1725300695,"current_range_meters":5600,"station_id":"ce4bhah2rcd13ifvqei0","pricing_plan_id":"cebpf4jnsgd1na2vs0mg"},{"bike_id":"9cc164bb-d113-4900-97e1-080ee8d17c63","system_id":"levelo_inurba_marseille","lat":43.284534,"lon":5.358662,"is_reserved":false,"is_disabled":false,"rental_uris":{"android":"levelo://app?vid=9cc164bb-d113-4900-97e1-080ee8d17c63","ios":"levelo://app?vid=9cc164bb-d113-4900-97e1-080ee8d17c63"},"vehicle_type_id":"4","last_reported":1725300695,"current_range_meters":7200,"station_id":"ce4bhah2rcd13ifvqei0","pricing_plan_id":"cebpf4jnsgd1na2vs0mg"},{"bike_id":"4985d0af-38ae-4466-8ef2-2e71b3449a8a","system_id":"levelo_inurba_marseille","lat":43.284538,"lon":5.358657,"is_reserved":false,"is_disabled":false,"rental_uris":{"android":"levelo://app?vid=4985d0af-38ae-4466-8ef2-2e71b3449a8a","ios":"levelo://app?vid=4985d0af-38ae-4466-8ef2-2e71b3449a8a"},"vehicle_type_id":"4","last_reported":1725300695,"current_range_meters":14800,"station_id":"ce4bhah2rcd13ifvqei0","pricing_plan_id":"cebpf4jnsgd1na2vs0mg"},{"bike_id":"bd8884ed-809a-4b3f-8f82-5d893787ed53","system_id":"levelo_inurba_marseille","lat":43.284538,"lon":5.358657,"is_reserved":false,"is_disabled":false,"rental_uris":{"android":"levelo://app?vid=bd8884ed-809a-4b3f-8f82-5d893787ed53","ios":"levelo://app?vid=bd8884ed-809a-4b3f-8f82-5d893787ed53"},"vehicle_type_id":"4","last_reported":1725300695,"current_range_meters":12400,"station_id":"ce4bhah2rcd13ifvqei0","pricing_plan_id":"cebpf4jnsgd1na2vs0mg"},{"bike_id":"23ba8929-c617-4f7a-9920-54c6706aec2e","system_id":"levelo_inurba_marseille","lat":43.284538,"lon":5.358657,"is_reserved":false,"is_disabled":false,"rental_uris":{"android":"levelo://app?vid=23ba8929-c617-4f7a-9920-54c6706aec2e","ios":"levelo://app?vid=23ba8929-c617-4f7a-9920-54c6706aec2e"},"vehicle_type_id":"4","last_reported":1725300695,"current_range_meters":2400,"station_id":"ce4bhah2rcd13ifvqei0","pricing_plan_id":"cebpf4jnsgd1na2vs0mg"},{"bike_id":"16a4ce74-4ca8-467f-8547-c5390bf29771","system_id":"levelo_inurba_marseille","lat":43.284538,"lon":5.358657,"is_reserved":false,"is_disabled":false,"rental_uris":{"android":"levelo://app?vid=16a4ce74-4ca8-467f-8547-c5390bf29771","ios":"levelo://app?vid=16a4ce74-4ca8-467f-8547-c5390bf29771"},"vehicle_type_id":"4","last_reported":1725300695,"current_range_meters":6800,"station_id":"ce4bhah2rcd13ifvqei0","pricing_plan_id":"cebpf4jnsgd1na2vs0mg"},{"bike_id":"ad70244d-cc54-4039-a8b8-d9f09d73bcad","system_id":"levelo_inurba_marseille","lat":43.30328,"lon":5.40422,"is_reserved":false,"is_disabled":false,"rental_uris":{"android":"levelo://app?vid=ad70244d-cc54-4039-a8b8-d9f09d73bcad","ios":"levelo://app?vid=ad70244d-cc54-4039-a8b8-d9f09d73bcad"},"vehicle_type_id":"4","last_reported":1725300695,"current_range_meters":26800,"station_id":"ce4bh012rcd13ifvqd10","pricing_plan_id":"cebpf4jnsgd1na2vs0mg"},{"bike_id":"e829bcfa-d0b4-4385-8efd-bec7c63504f8","system_id":"levelo_inurba_marseille","lat":43.284593,"lon":5.358897,"is_reserved":false,"is_disabled":false,"rental_uris":{"android":"levelo://app?vid=e829bcfa-d0b4-4385-8efd-bec7c63504f8","ios":"levelo://app?vid=e829bcfa-d0b4-4385-8efd-bec7c63504f8"},"vehicle_type_id":"4","last_reported":1725300695,"current_range_meters":7200,"station_id":"ce4bhah2rcd13ifvqei0","pricing_plan_id":"cebpf4jnsgd1na2vs0mg"},{"bike_id":"604621cb-5ed8-48f8-9231-e4f45a99ac66","system_id":"levelo_inurba_marseille","lat":43.284534,"lon":5.358662,"is_reserved":false,"is_disabled":false,"rental_uris":{"android":"levelo://app?vid=604621cb-5ed8-48f8-9231-e4f45a99ac66","ios":"levelo://app?vid=604621cb-5ed8-48f8-9231-e4f45a99ac66"},"vehicle_type_id":"4","last_reported":1725300695,"current_range_meters":8400,"station_id":"ce4bhah2rcd13ifvqei0","pricing_plan_id":"cebpf4jnsgd1na2vs0mg"},{"bike_id":"b47b658c-9a76-4691-936e-dc119f1fdd8c","system_id":"levelo_inurba_marseille","lat":43.284219,"lon":5.3497,"is_reserved":false,"is_disabled":false,"rental_uris":{"android":"levelo://app?vid=b47b658c-9a76-4691-936e-dc119f1fdd8c","ios":"levelo://app?vid=b47b658c-9a76-4691-936e-dc119f1fdd8c"},"vehicle_type_id":"4","last_reported":1725300695,"current_range_meters":14000,"station_id":"ce4bhbh2rcd13ifvqepg","pricing_plan_id":"cebpf4jnsgd1na2vs0mg"},{"bike_id":"5c69e678-a2db-45ed-a5bb-958b5f42f976","system_id":"levelo_inurba_marseille","lat":43.294314,"lon":5.397498,"is_reserved":false,"is_disabled":false,"rental_uris":{"android":"levelo://app?vid=5c69e678-a2db-45ed-a5bb-958b5f42f976","ios":"levelo://app?vid=5c69e678-a2db-45ed-a5bb-958b5f42f976"},"vehicle_type_id":"4","last_reported":1725300695,"current_range_meters":26000,"station_id":"ce4bh3h2rcd13ifvqdo0","pricing_plan_id":"cebpf4jnsgd1na2vs0mg"},