{"last_updated":1762153871,"ttl":60,"version":"2.2","data":{"bikes":[{"bike_id":"9f97026e-33b8-4463-9c2c-e4bb2915bd50","system_id":"levelo_inurba_marseille","lat":43.30951,"lon":5.39037,"is_reserved":false,"is_disabled":false,"rental_uris":{"android":"levelo://app?vid=9f97026e-33b8-4463-9c2c-e4bb2915bd50","ios":"levelo://app?vid=9f97026e-33b8-4463-9c2c-e4bb2915bd50"},"vehicle_type_id":"4","last_reported":1762153871,"current_range_meters":2800,"station_id":"ce4bgup2rcd13ifvqco0","pricing_plan_id":"cebpf4jnsgd1na2vs0mg"},{"bike_id":"f3aa2b01-0a4c-4939-9943-856a2be759f0","system_id":"levelo_inurba_marseille","lat":43.21752,"lon":5.34612,"is_reserved":false,"is_disabled":false,"rental_uris":{"android":"levelo://app?vid=f3aa2b01-0a4c-4939-9943-856a2be759f0","ios":"levelo://app?vid=f3aa2b01-0a4c-4939-9943-856a2be759f0"},"vehicle_type_id":"4","last_reported":1762153871,"current_range_meters":3200,"station_id":"st_cvj6r9ubvosntc0bgbag","pricing_plan_id":"cebpf4jnsgd1na2vs0mg"},{"bike_id":"84791c8a-6fb3-4b55-aaa6-9c9b09e4d47b","system_id":"levelo_inurba_marseille","lat":43.2904,"lon":5.39972,"is_reserved":false,"is_disabled":false,"rental_uris":{"android":"levelo://app?vid=84791c8a-6fb3-4b55-aaa6-9c9b09e4d47b","ios":"levelo://app?vid=84791c8a-6fb3-4b55-aaa6-9c9b09e4d47b"},"vehicle_type_id":"4","last_reported":1762153871,"current_range_meters":3200,"station_id":"ce4bh392rcd13ifvqdm0","pricing_plan_id":"cebpf4jnsgd1na2vs0mg"},{"bike_id":"60c7e9df-6bcd-4513-82ea-171bc1fa25e5","system_id":"levelo_inurba_marseille","lat":43.29668,"lon":5.3802,"is_reserved":false,"is_disabled":false,"rental_uris":{"android":"levelo://app?vid=60c7e9df-6bcd-4513-82ea-171bc1fa25e5","ios":"levelo://app?vid=60c7e9df-6bcd-4513-82ea-171bc1fa25e5"},"vehicle_type_id":"4","last_reported":1762153871,"current_range_meters":3600,"station_id":"","pricing_plan_id":"cebpf4jnsgd1na2vs0mg"},{"bike_id":"80cebde9-2dd4-4f98-974c-ede46a77b2dd","system_id":"levelo_inurba_marseille","lat":43.29703,"lon":5.37712,"is_reserved":false,"is_disabled":false,"rental_uris":{"android":"levelo://app?vid=80cebde9-2dd4-4f98-974c-ede46a77b2dd","ios":"levelo://app?vid=80cebde9-2dd4-4f98-974c-ede46a77b2dd"},"vehicle_type_id":"4","last_reported":1762153871,"current_range_meters":3600,"station_id":"ce4bgkh2rcd13ifvqbl0","pricing_plan_id":"cebpf4jnsgd1na2vs0mg"},{"bike_id":"a1910bad-9c22-4703-bbc0-d6748898d499","system_id":"levelo_inurba_marseille","lat":43.258175,"lon":5.39436,"is_reserved":false,"is_disabled":false,"rental_uris":{"android":"levelo://app?vid=a1910bad-9c22-4703-bbc0-d6748898d499","ios":"levelo://app?vid=a1910bad-9c22-4703-bbc0-d6748898d499"},"vehicle_type_id":"4","last_reported":1762153871,"current_range_meters":3600,"station_id":"ce4bhip2rcd13ifvqft0","pricing_plan_id":"cebpf4jnsgd1na2vs0mg"},{"bike_id":"b1e81361-2b17-4ef1-8a58-6def5753471b","system_id":"levelo_inurba_marseille","lat":43.33753,"lon":5.37484,"is_reserved":false,"is_disabled":false,"rental_uris":{"android":"levelo://app?vid=b1e81361-2b17-4ef1-8a58-6def5753471b","ios":"levelo://app?vid=b1e81361-2b17-4ef1-8a58-6def5753471b"},"vehicle_type_id":"4","last_reported":1762153871,"current_range_meters":4000,"station_id":"","pricing_plan_id":"cebpf4jnsgd1na2vs0mg"},{"bike_id":"9306d5a9-0443-422a-b7b2-cd471a46a95e","system_id":"levelo_inurba_marseille","lat":43.297626,"lon":5.427801,"is_reserved":false,"is_disabled":false,"rental_uris":{"android":"levelo://app?vid=9306d5a9-0443-422a-b7b2-cd471a46a95e","ios":"levelo://app?vid=9306d5a9-0443-422a-b7b2-cd471a46a95e"},"vehicle_type_id":"4","last_reported":1762153871,"current_range_meters":4000,"station_id":"st_d3md5207bmas73dh9klg","pricing_plan_id":"cebpf4jnsgd1na2vs0mg"},{"bike_id":"4ba9f02a-ceb7-4144-afde-652f12ab2b3d","system_id":"levelo_inurba_marseille","lat":43.30507,"lon":5.36723,"is_reserved":false,"is_disabled":false,"rental_uris":{"android":"levelo://app?vid=4ba9f02a-ceb7-4144-afde-652f12ab2b3d","ios":"levelo://app?vid=4ba9f02a-ceb7-4144-afde-652f12ab2b3d"},"vehicle_type_id":"4","last_reported":1762153871,"current_range_meters":4400,"station_id":"ce4bgrp2rcd13ifvqc9g","pricing_plan_id":"cebpf4jnsgd1na2vs0mg"},{"bike_id":"3d2ac210-d1e5-43ba-b4cc-8cd99b96e0c8","system_id":"levelo_inurba_marseille","lat":43.30615,"lon":5.37428,"is_reserved":false,"is_disabled":false,"rental_uris":{"android":"levelo://app?vid=3d2ac210-d1e5-43ba-b4cc-8cd99b96e0c8","ios":"levelo://app?vid=3d2ac210-d1e5-43ba-b4cc-8cd99b96e0c8"},"vehicle_type_id":"4","last_reported":1762153871,"current_range_meters":4400,"station_id":"","pricing_plan_id":"cebpf4jnsgd1na2vs0mg"},{"bike_id":"ed890a36-02ef-4914-b497-b0b60f616f2a","system_id":"levelo_inurba_marseille","lat":43.28153,"lon":5.42653,"is_reserved":false,"is_disabled":false,"rental_uris":{"android":"levelo://app?vid=ed890a36-02ef-4914-b497-b0b60f616f2a","ios":"levelo://app?vid=ed890a36-02ef-4914-b497-b0b60f616f2a"},"vehicle_type_id":"4","last_reported":1762153871,"current_range_meters":4400,"station_id":"ce4bhnh2rcd13ifvqgug","pricing_plan_id":"cebpf4jnsgd1na2vs0mg"},{"bike_id":"705458c8-8903-4b3d-a2c3-c01b670f0725","system_id":"levelo_inurba_marseille","lat":43.28348,"lon":5.38116,"is_reserved":false,"is_disabled":false,"rental_uris":{"android":"levelo://app?vid=705458c8-8903-4b3d-a2c3-c01b670f0725","ios":"levelo://app?vid=705458c8-8903-4b3d-a2c3-c01b670f0725"},"vehicle_type_id":"4","last_reported":1762153871,"current_range_meters":4400,"station_id":"ce4bh412rcd13ifvqdr0","pricing_plan_id":"cebpf4jnsgd1na2vs0mg"},{"bike_id":"9b0b089e-f7a4-4462-82e3-bbf9995816c9","system_id":"levelo_inurba_marseille","lat":43.27974,"lon":5.38743,"is_reserved":false,"is_disabled":false,"rental_uris":{"android":"levelo://app?vid=9b0b089e-f7a4-4462-82e3-bbf9995816c9","ios":"levelo://app?vid=9b0b089e-f7a4-4462-82e3-bbf9995816c9"},"vehicle_type_id":"4","last_reported":1762153871,"current_range_meters":4400,"station_id":"ce4bhg12rcd13ifvqf80","pricing_plan_id":"cebpf4jnsgd1na2vs0mg"},{"bike_id":"1da56141-654f-442c-b20c-6c2bd52c2965","system_id":"levelo_inurba_marseille","lat":43.312577,"lon":5.382078,"is_reserved":false,"is_disabled":true,"rental_uris":{"android":"levelo://app?vid=1da56141-654f-442c-b20c-6c2bd52c2965","ios":"levelo://app?vid=1da56141-654f-442c-b20c-6c2bd52c2965"},"vehicle_type_id":"4","last_reported":1762153871,"current_range_meters":4800,"station_id":"","pricing_plan_id":"cebpf4jnsgd1na2vs0mg"},{"bike_id":"a8c37853-0b1d-4686-a393-5126f07eea8e","system_id":"levelo_inurba_marseille","lat":43.288147,"lon":5.391652,"is_reserved":false,"is_disabled":false,"rental_uris":{"android":"levelo://app?vid=a8c37853-0b1d-4686-a393-5126f07eea8e","ios":"levelo://app?vid=a8c37853-0b1d-4686-a393-5126f07eea8e"},"vehicle_type_id":"4","last_reported":1762153871,"current_range_meters":4800,"station_id":"","pricing_plan_id":"cebpf4jnsgd1na2vs0mg"},{"bike_id":"41a0e05b-05bf-4f74-92d2-741c85fb6fe4","system_id":"levelo_inurba_marseille","lat":43.25512,"lon":5.37655,"is_reserved":false,"is_disabled":true,"rental_uris":{"android":"levelo://app?vid=41a0e05b-05bf-4f74-92d2-741c85fb6fe4","ios":"levelo://app?vid=41a0e05b-05bf-4f74-92d2-741c85fb6fe4"},"vehicle_type_id":"4","last_reported":1762153871,"current_range_meters":5600,"station_id":"ce4bhh12rcd13ifvqff0","pricing_plan_id":"cebpf4jnsgd1na2vs0mg"},{"bike_id":"7aec6a47-ba31-4135-ae0b-7051d5593433","system_id":"levelo_inurba_marseille","lat":43.28188,"lon":5.42629,"is_reserved":false,"is_disabled":false,"rental_uris":{"android":"levelo://app?vid=7aec6a47-ba31-4135-ae0b-7051d5593433","ios":"levelo://app?vid=7aec6a47-ba31-4135-ae0b-7051d5593433"},"vehicle_type_id":"4","last_reported":1762153871,"current_range_meters":5600,"station_id":"ce4bhnh2rcd13ifvqgug","pricing_plan_id":"cebpf4jnsgd1na2vs0mg"},{"bike_id":"ef4bb5e7-9fea-4aea-9d78-3b7ddf5eaba0","system_id":"levelo_inurba_marseille","lat":43.25115,"lon":5.40323,"is_reserved":false,"is_disabled":false,"rental_uris":{"android":"levelo://app?vid=ef4bb5e7-9fea-4aea-9d78-3b7ddf5eaba0","ios":"levelo://app?vid=ef4bb5e7-9fea-4aea-9d78-3b7ddf5eaba0"},"vehicle_type_id":"4","last_reported":1762153871,"current_range_meters":5600,"station_id":"ce4bhlh2rcd13ifvqgig","pricing_plan_id":"cebpf4jnsgd1na2vs0mg"},{"bike_id":"dc70789f-3aaf-46d3-8c7f-243ef84916ab","system_id":"levelo_inurba_marseille","lat":43.25336,"lon":5.42167,"is_reserved":false,"is_disabled":false,"rental_uris":{"android":"levelo://app?vid=dc70789f-3aaf-46d3-8c7f-243ef84916ab","ios":"levelo://app?vid=dc70789f-3aaf-46d3-8c7f-243ef84916ab"},"vehicle_type_id":"4","last_reported":1762153871,"current_range_meters":5600,"station_id":"st_d2m65c5bi1j21697t3ng","pricing_plan_id":"cebpf4jnsgd1na2vs0mg"},{"bike_id":"059b442e-d040-495a-991c-662b79177c55","system_id":"levelo_inurba_marseille","lat":43.29343,"lon":5.4538,"is_reserved":false,"is_disabled":false,"rental_uris":{"android":"levelo://app?vid=059b442e-d040-495a-991c-662b79177c55","ios":"levelo://app?vid=059b442e-d040-495a-991c-662b79177c55"},"vehicle_type_id":"4","last_reported":1762153871,"current_range_meters":6000,"station_id":"","pricing_plan_id":"cebpf4jnsgd1na2vs0mg"},{"bike_id":"603f84c7-55e1-4d19-8f37-178ddadc668f","system_id":"levelo_inurba_marseille","lat":43.211937,"lon":5.350727,"is_reserved":false,"is_disabled":false,"rental_uris":{"android":"levelo://app?vid=603f84c7-55e1-4d19-8f37-178ddadc668f","ios":"levelo://app?vid=603f84c7-55e1-4d19-8f37-178ddadc668f"},"vehicle_type_id":"4","last_reported":1762153871,"current_range_meters":6000,"station_id":"st_cvj6sg6p6f1abm77japg","pricing_plan_id":"cebpf4jnsgd1na2vs0mg"},{"bike_id":"0ca46a2b-8aad-404c-b828-3c75693a6e60","system_id":"levelo_inurba_marseille","lat":43.3247,"lon":5.3658,"is_reserved":false,"is_disabled":false,"rental_uris":{"android":"levelo://app?vid=0ca46a2b-8aad-404c-b828-3c75693a6e60","ios":"levelo://app?vid=0ca46a2b-8aad-404c-b828-3c75693a6e60"},"vehicle_type_id":"4","last_reported":1762153871,"current_range_meters":6000,"station_id":"ce4bhs12rcd13ifvqhvg","pricing_plan_id":"cebpf4jnsgd1na2vs0mg"},{"bike_id":"6c2a0207-ba16-48d5-8f4e-30aba46e332e","system_id":"levelo_inurba_marseille","lat":43.26564,"lon":5.39031,"is_reserved":false,"is_disabled":false,"rental_uris":{"android":"levelo://app?vid=6c2a0207-ba16-48d5-8f4e-30aba46e332e","ios":"levelo://app?vid=6c2a0207-ba16-48d5-8f4e-30aba46e332e"},"vehicle_type_id":"4","last_reported":1762153871,"current_range_meters":6400,"station_id":"ce4bhe12rcd13ifvqf30","pricing_plan_id":"cebpf4jnsgd1na2vs0mg"},{"bike_id":"f556ad88-b0ef-4d15-8048-f36fbe8e026c","system_id":"levelo_inurba_marseille","lat":43.285364,"lon":5.44103,"is_reserved":false,"is_disabled":false,"rental_uris":{"android":"levelo://app?vid=f556ad88-b0ef-4d15-8048-f36fbe8e026c","ios":"levelo://app?vid=f556ad88-b0ef-4d15-8048-f36fbe8e026c"},"vehicle_type_id":"4","last_reported":1762153871,"current_range_meters":6400,"station_id":"st_d3j3df2ikq2c7380ej80","pricing_plan_id":"cebpf4jnsgd1na2vs0mg"},{"bike_id":"8a759722-19f7-4a56-9646-2c26a5e7e25d","system_id":"levelo_inurba_marseille","lat":43.279821,"lon":5.387392,"is_reserved":false,"is_disabled":true,"rental_uris":{"android":"levelo://app?vid=8a759722-19f7-4a56-9646-2c26a5e7e25d","ios":"levelo://app?vid=8a759722-19f7-4a56-9646-2c26a5e7e25d"},"vehicle_type_id":"4","last_reported":1762153871,"current_range_meters":6400,"station_id":"ce4bhg12rcd13ifvqf80","pricing_plan_id":"cebpf4jnsgd1na2vs0mg"},{"bike_id":"3215137c-f236-4cc4-b31c-0996faebebac","system_id":"levelo_inurba_marseille","lat":43.24052,"lon":5.37794,"is_reserved":false,"is_disabled":false,"rental_uris":{"android":"levelo://app?vid=3215137c-f236-4cc4-b31c-0996faebebac","ios":"levelo://app?vid=3215137c-f236-4cc4-b31c-0996faebebac"},"vehicle_type_id":"4","last_reported":1762153871,"current_range_meters":6400,"station_id":"ce4bhnp2rcd13ifvqgvg","pricing_plan_id":"cebpf4jnsgd1na2vs0mg"},{"bike_id":"9ca5965b-2a3a-4189-abf9-c2f3f99e1969","system_id":"levelo_inurba_marseille","lat":43.24068,"lon":5.37764,"is_reserved":false,"is_disabled":false,"rental_uris":{"android":"levelo://app?vid=9ca5965b-2a3a-4189-abf9-c2f3f99e1969","ios":"levelo://app?vid=9ca5965b-2a3a-4189-abf9-c2f3f99e1969"},"vehicle_type_id":"4","last_reported":1762153871,"current_range_meters":6800,"station_id":"ce4bhnp2rcd13ifvqgvg","pricing_plan_id":"cebpf4jnsgd1na2vs0mg"},{"bike_id":"6395e67f-2f3c-43ca-8b7a-d6049da5c4ea","system_id":"levelo_inurba_marseille","lat":43.30073,"lon":5.39122,"is_reserved":false,"is_disabled":false,"rental_uris":{"android":"levelo://app?vid=6395e67f-2f3c-43ca-8b7a-d6049da5c4ea","ios":"levelo://app?vid=6395e67f-2f3c-43ca-8b7a-d6049da5c4ea"},"vehicle_type_id":"4","last_reported":1762153871,"current_range_meters":7200,"station_id":"ce4bh192rcd13ifvqdb0","pricing_plan_id":"cebpf4jnsgd1na2vs0mg"},{"bike_id":"9587522a-7510-4ff4-9414-e2a752a04cbd","system_id":"levelo_inurba_marseille","lat":43.26928,"lon":5.38937,"is_reserved":false,"is_disabled":false,"rental_uris":{"android":"levelo://app?vid=9587522a-7510-4ff4-9414-e2a752a04cbd","ios":"levelo://app?vid=9587522a-7510-4ff4-9414-e2a752a04cbd"},"vehicle_type_id":"4","last_reported":1762153871,"current_range_meters":7200,"station_id":"ce4bhhh2rcd13ifvqfl0","pricing_plan_id":"cebpf4jnsgd1na2vs0mg"},{"bike_id":"a8f2bbdd-8e46-4128-8d02-8a5cfb133b94","system_id":"levelo_inurba_marseille","lat":43.287117,"lon":5.379431,"is_reserved":false,"is_disabled":false,"rental_uris":{"android":"levelo://app?vid=a8f2bbdd-8e46-4128-8d02-8a5cfb133b94","ios":"levelo://app?vid=a8f2bbdd-8e46-4128-8d02-8a5cfb133b94"},"vehicle_type_id":"4","last_reported":1762153871,"current_range_meters":7200,"station_id":"ce4bh9p2rcd13ifvqec0","pricing_plan_id":"cebpf4jnsgd1na2vs0mg"},{"bike_id":"05108a94-d15f-474a-885d-e0833823b72f","system_id":"levelo_inurba_marseille","lat":43.30478,"lon":5.3792,"is_reserved":false,"is_disabled":false,"rental_uris":{"android":"levelo://app?vid=05108a94-d15f-474a-885d-e0833823b72f","ios":"levelo://app?vid=05108a94-d15f-474a-885d-e0833823b72f"},"vehicle_type_id":"4","last_reported":1762153871,"current_range_meters":7200,"station_id":"ce4bgup2rcd13ifvqcn0","pricing_plan_id":"cebpf4jnsgd1na2vs0mg"},{"bike_id":"098d7ae5-5b2b-4d49-ad2f-d14f29937957","system_id":"levelo_inurba_marseille","lat":43.28972,"lon":5.378431,"is_reserved":false,"is_disabled":true,"rental_uris":{"android":"levelo://app?vid=098d7ae5-5b2b-4d49-ad2f-d14f29937957","ios":"levelo://app?vid=098d7ae5-5b2b-4d49-ad2f-d14f29937957"},"vehicle_type_id":"4","last_reported":1762153871,"current_range_meters":7200,"station_id":"ce4bh9p2rcd13ifvqed0","pricing_plan_id":"cebpf4jnsgd1na2vs0mg"},{"bike_id":"97f1d632-aa8d-425f-80b2-c4ee77b00d93","system_id":"levelo_inurba_marseille","lat":43.23959,"lon":5.36626,"is_reserved":false,"is_disabled":false,"rental_uris":{"android":"levelo://app?vid=97f1d632-aa8d-425f-80b2-c4ee77b00d93","ios":"levelo://app?vid=97f1d632-aa8d-425f-80b2-c4ee77b00d93"},"vehicle_type_id":"4","last_reported":1762153871,"current_range_meters":7200,"station_id":"ce4bhi12rcd13ifvqfp0","pricing_plan_id":"cebpf4jnsgd1na2vs0mg"},{"bike_id":"1d29646a-da1f-4f66-b008-0838ffb2fa84","system_id":"levelo_inurba_marseille","lat":43.30007,"lon":5.37223,"is_reserved":false,"is_disabled":false,"rental_uris":{"android":"levelo://app?vid=1d29646a-da1f-4f66-b008-0838ffb2fa84","ios":"levelo://app?vid=1d29646a-da1f-4f66-b008-0838ffb2fa84"},"vehicle_type_id":"4","last_reported":1762153871,"current_range_meters":7200,"station_id":"","pricing_plan_id":"cebpf4jnsgd1na2vs0mg"},{"bike_id":"52ed0405-5b11-4605-af9f-0c411d763d32","system_id":"levelo_inurba_marseille","lat":43.29201,"lon":5.3932,"is_reserved":false,"is_disabled":false,"rental_uris":{"android":"levelo://app?vid=52ed0405-5b11-4605-af9f-0c411d763d32","ios":"levelo://app?vid=52ed0405-5b11-4605-af9f-0c411d763d32"},"vehicle_type_id":"4","last_reported":1762153871,"current_range_meters":7200,"station_id":"ce4bh192rcd13ifvqdd0","pricing_plan_id":"cebpf4jnsgd1na2vs0mg"},{"bike_id":"ccbb9b89-ebba-4c6c-b9fe-acafe29ddb47","system_id":"levelo_inurba_marseille","lat":43.33602,"lon":5.42707,"is_reserved":false,"is_disabled":false,"rental_uris":{"android":"levelo://app?vid=ccbb9b89-ebba-4c6c-b9fe-acafe29ddb47","ios":"levelo://app?vid=ccbb9b89-ebba-4c6c-b9fe-acafe29ddb47"},"vehicle_type_id":"4","last_reported":1762153871,"current_range_meters":8000,"station_id":"","pricing_plan_id":"cebpf4jnsgd1na2vs0mg"},{"bike_id":"b243c8d5-adba-4140-bdc6-444dd067124b","system_id":"levelo_inurba_marseille","lat":43.24663,"lon":5.38174,"is_reserved":false,"is_disabled":false,"rental_uris":{"android":"levelo://app?vid=b243c8d5-adba-4140-bdc6-444dd067124b","ios":"levelo://app?vid=b243c8d5-adba-4140-bdc6-444dd067124b"},"vehicle_type_id":"4","last_reported":1762153871,"current_range_meters":8000,"station_id":"ce4bhih2rcd13ifvqfr0","pricing_plan_id":"cebpf4jnsgd1na2vs0mg"},{"bike_id":"9fe11b08-4355-4407-b3e1-0ac07c184d16","system_id":"levelo_inurba_marseille","lat":43.25326,"lon":5.42178,"is_reserved":false,"is_disabled":false,"rental_uris":{"android":"levelo://app?vid=9fe11b08-4355-4407-b3e1-0ac07c184d16","ios":"levelo://app?vid=9fe11b08-4355-4407-b3e1-0ac07c184d16"},"vehicle_type_id":"4","last_reported":1762153871,"current_range_meters":8400,"station_id":"st_d2m65c5bi1j21697t3ng","pricing_plan_id":"cebpf4jnsgd1na2vs0mg"},{"bike_id":"503d1816-ab97-444e-a42a-dc94ced163b0","system_id":"levelo_inurba_marseille","lat":43.29784,"lon":5.380968,"is_reserved":false,"is_disabled":false,"rental_uris":{"android":"levelo://app?vid=503d1816-ab97-444e-a42a-dc94ced163b0","ios":"levelo://app?vid=503d1816-ab97-444e-a42a-dc94ced163b0"},"vehicle_type_id":"4","last_reported":1762153871,"current_range_meters":8400,"station_id":"ce4bgip2rcd13ifvqbb0","pricing_plan_id":"cebpf4jnsgd1na2vs0mg"},{"bike_id":"742e4b85-debb-487a-b93d-560b01a45e08","system_id":"levelo_inurba_marseille","lat":43.3016,"lon":5.3809,"is_reserved":false,"is_disabled":false,"rental_uris":{"android":"levelo://app?vid=742e4b85-debb-487a-b93d-560b01a45e08","ios":"levelo://app?vid=742e4b85-debb-487a-b93d-560b01a45e08"},"vehicle_type_id":"4","last_reported":1762153871,"current_range_meters":8400,"station_id":"ce4bgjp2rcd13ifvqbh0","pricing_plan_id":"cebpf4jnsgd1na2vs0mg"},{"bike_id":"de0ca7a8-116a-46c8-8c50-6b445a473423","system_id":"levelo_inurba_marseille","lat":43.28908,"lon":5.42528,"is_reserved":false,"is_disabled":false,"rental_uris":{"android":"levelo://app?vid=de0ca7a8-116a-46c8-8c50-6b445a473423","ios":"levelo://app?vid=de0ca7a8-116a-46c8-8c50-6b445a473423"},"vehicle_type_id":"4","last_reported":1762153871,"current_range_meters":8800,"station_id":"st_d3b462108ojc7389ooeg","pricing_plan_id":"cebpf4jnsgd1na2vs0mg"},{"bike_id":"c4f2ef56-a448-4bb1-9320-6136c50246c9","system_id":"levelo_inurba_marseille","lat":43.24808,"lon":5.37455,"is_reserved":false,"is_disabled":true,"rental_uris":{"android":"levelo://app?vid=c4f2ef56-a448-4bb1-9320-6136c50246c9","ios":"levelo://app?vid=c4f2ef56-a448-4bb1-9320-6136c50246c9"},"vehicle_type_id":"4","last_reported":1762153871,"current_range_meters":8800,"station_id":"ce4bhgh2rcd13ifvqfb0","pricing_plan_id":"cebpf4jnsgd1na2vs0mg"},{"bike_id":"84f1bfac-8d21-499b-b8e1-fdc8049e10ac","system_id":"levelo_inurba_marseille","lat":43.31262,"lon":5.37772,"is_reserved":false,"is_disabled":false,"rental_uris":{"android":"levelo://app?vid=84f1bfac-8d21-499b-b8e1-fdc8049e10ac","ios":"levelo://app?vid=84f1bfac-8d21-499b-b8e1-fdc8049e10ac"},"vehicle_type_id":"4","last_reported":1762153871,"current_range_meters":8800,"station_id":"","pricing_plan_id":"cebpf4jnsgd1na2vs0mg"},{"bike_id":"c4c5d540-caac-4903-aba8-275aa7fb9054","system_id":"levelo_inurba_marseille","lat":43.26565,"lon":5.39913,"is_reserved":false,"is_disabled":false,"rental_uris":{"android":"levelo://app?vid=c4c5d540-caac-4903-aba8-275aa7fb9054","ios":"levelo://app?vid=c4c5d540-caac-4903-aba8-275aa7fb9054"},"vehicle_type_id":"4","last_reported":1762153871,"current_range_meters":8800,"station_id":"","pricing_plan_id":"cebpf4jnsgd1na2vs0mg"},{"bike_id":"0f583a9b-84b4-45e2-a280-f0ff1282968e","system_id":"levelo_inurba_marseille","lat":43.27682,"lon":5.38928,"is_reserved":false,"is_disabled":true,"rental_uris":{"android":"levelo://app?vid=0f583a9b-84b4-45e2-a280-f0ff1282968e","ios":"levelo://app?vid=0f583a9b-84b4-45e2-a280-f0ff1282968e"},"vehicle_type_id":"4","last_reported":1762153871,"current_range_meters":8800,"station_id":"ce4bhi12rcd13ifvqfo0","pricing_plan_id":"cebpf4jnsgd1na2vs0mg"},{"bike_id":"77679107-31f6-4769-888c-bfa8b6d2bccd","system_id":"levelo_inurba_marseille","lat":43.28861,"lon":5.42517,"is_reserved":false,"is_disabled":false,"rental_uris":{"android":"levelo://app?vid=77679107-31f6-4769-888c-bfa8b6d2bccd","ios":"levelo://app?vid=77679107-31f6-4769-888c-bfa8b6d2bccd"},"vehicle_type_id":"4","last_reported":1762153871,"current_range_meters":9200,"station_id":"st_d3b462108ojc7389ooeg","pricing_plan_id":"cebpf4jnsgd1na2vs0mg"},{"bike_id":"0878d4c6-6b1f-4d95-9084-8db9202ec85d","system_id":"levelo_inurba_marseille","lat":43.30144,"lon":5.37411,"is_reserved":false,"is_disabled":false,"rental_uris":{"android":"levelo://app?vid=0878d4c6-6b1f-4d95-9084-8db9202ec85d","ios":"levelo://app?vid=0878d4c6-6b1f-4d95-9084-8db9202ec85d"},"vehicle_type_id":"4","last_reported":1762153871,"current_range_meters":9200,"station_id":"ce4bgs92rcd13ifvqcc0","pricing_plan_id":"cebpf4jnsgd1na2vs0mg"},{"bike_id":"8adef542-af60-4b61-8a5b-4b604c3bcfe4","system_id":"levelo_inurba_marseille","lat":43.24625,"lon":5.43152,"is_reserved":false,"is_disabled":false,"rental_uris":{"android":"levelo://app?vid=8adef542-af60-4b61-8a5b-4b604c3bcfe4","ios":"levelo://app?vid=8adef542-af60-4b61-8a5b-4b604c3bcfe4"},"vehicle_type_id":"4","last_reported":1762153871,"current_range_meters":9200,"station_id":"st_d2m6c4gdas8pm72e190g","pricing_plan_id":"cebpf4jnsgd1na2vs0mg"},{"bike_id":"af79d3f1-ea9f-4c0b-9a2d-782b39386671","system_id":"levelo_inurba_marseille","lat":43.21761,"lon":5.3462,"is_reserved":false,"is_disabled":true,"rental_uris":{"android":"levelo://app?vid=af79d3f1-ea9f-4c0b-9a2d-782b39386671","ios":"levelo://app?vid=af79d3f1-ea9f-4c0b-9a2d-782b39386671"},"vehicle_type_id":"4","last_reported":1762153871,"current_range_meters":9200,"station_id":"st_cvj6r9ubvosntc0bgbag","pricing_plan_id":"cebpf4jnsgd1na2vs0mg"},{"bike_id":"721c632e-cb52-4d62-b0f4-f78059e85aec","system_id":"levelo_inurba_marseille","lat":43.24078,"lon":5.37757,"is_reserved":false,"is_disabled":false,"rental_uris":{"android":"levelo://app?vid=721c632e-cb52-4d62-b0f4-f78059e85aec","ios":"levelo://app?vid=721c632e-cb52-4d62-b0f4-f78059e85aec"},"vehicle_type_id":"4","last_reported":1762153871,"current_range_meters":9200,"station_id":"ce4bhnp2rcd13ifvqgvg","pricing_plan_id":"cebpf4jnsgd1na2vs0mg"},{"bike_id":"99876766-b5f9-4c6c-ae27-9baca83a3ac0","system_id":"levelo_inurba_marseille","lat":43.29028,"lon":5.38629,"is_reserved":false,"is_disabled":false,"rental_uris":{"android":"levelo://app?vid=99876766-b5f9-4c6c-ae27-9baca83a3ac0","ios":"levelo://app?vid=99876766-b5f9-4c6c-ae27-9baca83a3ac0"},"vehicle_type_id":"4","last_reported":1762153871,"current_range_meters":9200,"station_id":"ce4bh4p2rcd13ifvqe0g","pricing_plan_id":"cebpf4jnsgd1na2vs0mg"},{"bike_id":"d87e8435-a903-4228-b33e-bd6d66e6673b","system_id":"levelo_inurba_marseille","lat":43.2464,"lon":5.43148,"is_reserved":false,"is_disabled":false,"rental_uris":{"android":"levelo://app?vid=d87e8435-a903-4228-b33e-bd6d66e6673b","ios":"levelo://app?vid=d87e8435-a903-4228-b33e-bd6d66e6673b"},"vehicle_type_id":"4","last_reported":1762153871,"current_range_meters":9200,"station_id":"st_d2m6c4gdas8pm72e190g","pricing_plan_id":"cebpf4jnsgd1na2vs0mg"},{"bike_id":"26451360-c1c8-464f-a7bf-bc2a31850d65","system_id":"levelo_inurba_marseille","lat":43.22534,"lon":5.34836,"is_reserved":false,"is_disabled":false,"rental_uris":{"android":"levelo://app?vid=26451360-c1c8-464f-a7bf-bc2a31850d65","ios":"levelo://app?vid=26451360-c1c8-464f-a7bf-bc2a31850d65"},"vehicle_type_id":"4","last_reported":1762153871,"current_range_meters":9600,"station_id":"","pricing_plan_id":"cebpf4jnsgd1na2vs0mg"},{"bike_id":"ebf85bdb-1a2b-49af-a88d-03e90d4c31b8","system_id":"levelo_inurba_marseille","lat":43.23955,"lon":5.36633,"is_reserved":false,"is_disabled":true,"rental_uris":{"android":"levelo://app?vid=ebf85bdb-1a2b-49af-a88d-03e90d4c31b8","ios":"levelo://app?vid=ebf85bdb-1a2b-49af-a88d-03e90d4c31b8"},"vehicle_type_id":"4","last_reported":1762153871,"current_range_meters":9600,"station_id":"ce4bhi12rcd13ifvqfp0","pricing_plan_id":"cebpf4jnsgd1na2vs0mg"},{"bike_id":"357784e0-29d7-4db1-8724-5a66c8076e46","system_id":"levelo_inurba_marseille","lat":43.25576,"lon":5.38245,"is_reserved":false,"is_disabled":false,"rental_uris":{"android":"levelo://app?vid=357784e0-29d7-4db1-8724-5a66c8076e46","ios":"levelo://app?vid=357784e0-29d7-4db1-8724-5a66c8076e46"},"vehicle_type_id":"4","last_reported":1762153871,"current_range_meters":9600,"station_id":"ce4bhih2rcd13ifvqfs0","pricing_plan_id":"cebpf4jnsgd1na2vs0mg"},{"bike_id":"14b92a7a-0805-475a-abfd-8c979184b42b","system_id":"levelo_inurba_marseille","lat":43.31008,"lon":5.370415,"is_reserved":false,"is_disabled":false,"rental_uris":{"android":"levelo://app?vid=14b92a7a-0805-475a-abfd-8c979184b42b","ios":"levelo://app?vid=14b92a7a-0805-475a-abfd-8c979184b42b"},"vehicle_type_id":"4","last_reported":1762153871,"current_range_meters":9600,"station_id":"","pricing_plan_id":"cebpf4jnsgd1na2vs0mg"},{"bike_id":"ba541a52-7e4e-4241-9791-ae6f1fb03dcd","system_id":"levelo_inurba_marseille","lat":43.31997,"lon":5.41593,"is_reserved":false,"is_disabled":false,"rental_uris":{"android":"levelo://app?vid=ba541a52-7e4e-4241-9791-ae6f1fb03dcd","ios":"levelo://app?vid=ba541a52-7e4e-4241-9791-ae6f1fb03dcd"},"vehicle_type_id":"4","last_reported":1762153871,"current_range_meters":9600,"station_id":"","pricing_plan_id":"cebpf4jnsgd1na2vs0mg"},{"bike_id":"066ede02-47a2-4c83-bcb1-7eb633a370fb","system_id":"levelo_inurba_marseille","lat":43.31267,"lon":5.37785,"is_reserved":false,"is_disabled":false,"rental_uris":{"android":"levelo://app?vid=066ede02-47a2-4c83-bcb1-7eb633a370fb","ios":"levelo://app?vid=066ede02-47a2-4c83-bcb1-7eb633a370fb"},"vehicle_type_id":"4","last_reported":1762153871,"current_range_meters":10000,"station_id":"","pricing_plan_id":"cebpf4jnsgd1na2vs0mg"},{"bike_id":"7419db87-3322-4dfb-9891-f33725aac996","system_id":"levelo_inurba_marseille","lat":43.27063,"lon":5.42288,"is_reserved":false,"is_disabled":false,"rental_uris":{"android":"levelo://app?vid=7419db87-3322-4dfb-9891-f33725aac996","ios":"levelo://app?vid=7419db87-3322-4dfb-9891-f33725aac996"},"vehicle_type_id":"4","last_reported":1762153871,"current_range_meters":10000,"station_id":"ce4bhk92rcd13ifvqgb0","pricing_plan_id":"cebpf4jnsgd1na2vs0mg"},{"bike_id":"f9b2e450-883a-4a04-a063-fca376a2c55a","system_id":"levelo_inurba_marseille","lat":43.225536,"lon":5.416284,"is_reserved":false,"is_disabled":false,"rental_uris":{"android":"levelo://app?vid=f9b2e450-883a-4a04-a063-fca376a2c55a","ios":"levelo://app?vid=f9b2e450-883a-4a04-a063-fca376a2c55a"},"vehicle_type_id":"4","last_reported":1762153871,"current_range_meters":10000,"station_id":"st_d2o4gvlbi1j2169b742g","pricing_plan_id":"cebpf4jnsgd1na2vs0mg"},{"bike_id":"72b7d3ac-ab16-40a2-907e-1dcd4cfcddb9","system_id":"levelo_inurba_marseille","lat":43.27808,"lon":5.40724,"is_reserved":false,"is_disabled":false,"rental_uris":{"android":"levelo://app?vid=72b7d3ac-ab16-40a2-907e-1dcd4cfcddb9","ios":"levelo://app?vid=72b7d3ac-ab16-40a2-907e-1dcd4cfcddb9"},"vehicle_type_id":"4","last_reported":1762153871,"current_range_meters":10000,"station_id":"ce4bhnh2rcd13ifvqgtg","pricing_plan_id":"cebpf4jnsgd1na2vs0mg"},{"bike_id":"bebae95e-1e51-4e89-9f8b-f413cb5a56ac","system_id":"levelo_inurba_marseille","lat":43.27356,"lon":5.36247,"is_reserved":false,"is_disabled":false,"rental_uris":{"android":"levelo://app?vid=bebae95e-1e51-4e89-9f8b-f413cb5a56ac","ios":"levelo://app?vid=bebae95e-1e51-4e89-9f8b-f413cb5a56ac"},"vehicle_type_id":"4","last_reported":1762153871,"current_range_meters":10000,"station_id":"ce4bhbh2rcd13ifvqeo0","pricing_plan_id":"cebpf4jnsgd1na2vs0mg"},{"bike_id":"423802bb-722e-4533-9018-c0f75cce34a6","system_id":"levelo_inurba_marseille","lat":43.30646,"lon":5.38189,"is_reserved":false,"is_disabled":false,"rental_uris":{"android":"levelo://app?vid=423802bb-722e-4533-9018-c0f75cce34a6","ios":"levelo://app?vid=423802bb-722e-4533-9018-c0f75cce34a6"},"vehicle_type_id":"4","last_reported":1762153871,"current_range_meters":10800,"station_id":"","pricing_plan_id":"cebpf4jnsgd1na2vs0mg"},{"bike_id":"b53ff486-849c-4668-84f1-30d27196f827","system_id":"levelo_inurba_marseille","lat":43.284061,"lon":5.375129,"is_reserved":false,"is_disabled":true,"rental_uris":{"android":"levelo://app?vid=b53ff486-849c-4668-84f1-30d27196f827","ios":"levelo://app?vid=b53ff486-849c-4668-84f1-30d27196f827"},"vehicle_type_id":"4","last_reported":1762153871,"current_range_meters":10800,"station_id":"ce4bh412rcd13ifvqds0","pricing_plan_id":"cebpf4jnsgd1na2vs0mg"},{"bike_id":"aef75ae5-d606-43b6-8ba5-d53a35c16de5","system_id":"levelo_inurba_marseille","lat":43.27433,"lon":5.39369,"is_reserved":false,"is_disabled":true,"rental_uris":{"android":"levelo://app?vid=aef75ae5-d606-43b6-8ba5-d53a35c16de5","ios":"levelo://app?vid=aef75ae5-d606-43b6-8ba5-d53a35c16de5"},"vehicle_type_id":"4","last_reported":1762153871,"current_range_meters":10800,"station_id":"ce4bhdp2rcd13ifvqf20","pricing_plan_id":"cebpf4jnsgd1na2vs0mg"},{"bike_id":"1c7e9560-2754-4a88-b1cb-cdee38fc1289","system_id":"levelo_inurba_marseille","lat":43.26938,"lon":5.40283,"is_reserved":false,"is_disabled":true,"rental_uris":{"android":"levelo://app?vid=1c7e9560-2754-4a88-b1cb-cdee38fc1289","ios":"levelo://app?vid=1c7e9560-2754-4a88-b1cb-cdee38fc1289"},"vehicle_type_id":"4","last_reported":1762153871,"current_range_meters":10800,"station_id":"cjm6bp8fraef2m0cb0m0","pricing_plan_id":"cebpf4jnsgd1na2vs0mg"},{"bike_id":"4782a02a-679d-4284-a946-cc48b0fa4415","system_id":"levelo_inurba_marseille","lat":43.2407,"lon":5.37764,"is_reserved":false,"is_disabled":false,"rental_uris":{"android":"levelo://app?vid=4782a02a-679d-4284-a946-cc48b0fa4415","ios":"levelo://app?vid=4782a02a-679d-4284-a946-cc48b0fa4415"},"vehicle_type_id":"4","last_reported":1762153871,"current_range_meters":10800,"station_id":"ce4bhnp2rcd13ifvqgvg","pricing_plan_id":"cebpf4jnsgd1na2vs0mg"},{"bike_id":"9a8800fa-24be-4848-a250-19e32415acb4","system_id":"levelo_inurba_marseille","lat":43.21198,"lon":5.35063,"is_reserved":false,"is_disabled":false,"rental_uris":{"android":"levelo://app?vid=9a8800fa-24be-4848-a250-19e32415acb4","ios":"levelo://app?vid=9a8800fa-24be-4848-a250-19e32415acb4"},"vehicle_type_id":"4","last_reported":1762153871,"current_range_meters":10800,"station_id":"st_cvj6sg6p6f1abm77japg","pricing_plan_id":"cebpf4jnsgd1na2vs0mg"},{"bike_id":"834ede60-362f-41d9-8a80-7c40980158bf","system_id":"levelo_inurba_marseille","lat":43.27207,"lon":5.39174,"is_reserved":false,"is_disabled":false,"rental_uris":{"android":"levelo://app?vid=834ede60-362f-41d9-8a80-7c40980158bf","ios":"levelo://app?vid=834ede60-362f-41d9-8a80-7c40980158bf"},"vehicle_type_id":"4","last_reported":1762153871,"current_range_meters":10800,"station_id":"ce4bhhp2rcd13ifvqfm0","pricing_plan_id":"cebpf4jnsgd1na2vs0mg"},{"bike_id":"defdb3c1-03e5-4111-85e3-0fcf6a4154b6","system_id":"levelo_inurba_marseille","lat":43.28475,"lon":5.38425,"is_reserved":false,"is_disabled":true,"rental_uris":{"android":"levelo://app?vid=defdb3c1-03e5-4111-85e3-0fcf6a4154b6","ios":"levelo://app?vid=defdb3c1-03e5-4111-85e3-0fcf6a4154b6"},"vehicle_type_id":"4","last_reported":1762153871,"current_range_meters":10800,"station_id":"ce4bh512rcd13ifvqe3g","pricing_plan_id":"cebpf4jnsgd1na2vs0mg"},{"bike_id":"036d1e27-6e5e-4605-a4f0-1182d192479e","system_id":"levelo_inurba_marseille","lat":43.24078,"lon":5.37756,"is_reserved":false,"is_disabled":false,"rental_uris":{"android":"levelo://app?vid=036d1e27-6e5e-4605-a4f0-1182d192479e","ios":"levelo://app?vid=036d1e27-6e5e-4605-a4f0-1182d192479e"},"vehicle_type_id":"4","last_reported":1762153871,"current_range_meters":10800,"station_id":"ce4bhnp2rcd13ifvqgvg","pricing_plan_id":"cebpf4jnsgd1na2vs0mg"},{"bike_id":"af955f97-1344-421e-927d-88f64c2eed9f","system_id":"levelo_inurba_marseille","lat":43.24079,"lon":5.37761,"is_reserved":false,"is_disabled":false,"rental_uris":{"android":"levelo://app?vid=af955f97-1344-421e-927d-88f64c2eed9f","ios":"levelo://app?vid=af955f97-1344-421e-927d-88f64c2eed9f"},"vehicle_type_id":"4","last_reported":1762153871,"current_range_meters":10800,"station_id":"ce4bhnp2rcd13ifvqgvg","pricing_plan_id":"cebpf4jnsgd1na2vs0mg"},{"bike_id":"2ff20ab9-b52b-4e51-beea-738711729e0e","system_id":"levelo_inurba_marseille","lat":43.211913,"lon":5.350663,"is_reserved":false,"is_disabled":false,"rental_uris":{"android":"levelo://app?vid=2ff20ab9-b52b-4e51-beea-738711729e0e","ios":"levelo://app?vid=2ff20ab9-b52b-4e51-beea-738711729e0e"},"vehicle_type_id":"4","last_reported":1762153871,"current_range_meters":10800,"station_id":"st_cvj6sg6p6f1abm77japg","pricing_plan_id":"cebpf4jnsgd1na2vs0mg"},{"bike_id":"02ab0480-1393-487e-95a2-314141ae01bf","system_id":"levelo_inurba_marseille","lat":43.28153,"lon":5.426429,"is_reserved":false,"is_disabled":false,"rental_uris":{"android":"levelo://app?vid=02ab0480-1393-487e-95a2-314141ae01bf","ios":"levelo://app?vid=02ab0480-1393-487e-95a2-314141ae01bf"},"vehicle_type_id":"4","last_reported":1762153871,"current_range_meters":11200,"station_id":"ce4bhnh2rcd13ifvqgug","pricing_plan_id":"cebpf4jnsgd1na2vs0mg"},{"bike_id":"b4c048b9-1823-4e62-ab25-5a91620c3c00","system_id":"levelo_inurba_marseille","lat":43.29798,"lon":5.380876,"is_reserved":false,"is_disabled":true,"rental_uris":{"android":"levelo://app?vid=b4c048b9-1823-4e62-ab25-5a91620c3c00","ios":"levelo://app?vid=b4c048b9-1823-4e62-ab25-5a91620c3c00"},"vehicle_type_id":"4","last_reported":1762153871,"current_range_meters":11200,"station_id":"ce4bgip2rcd13ifvqbb0","pricing_plan_id":"cebpf4jnsgd1na2vs0mg"},{"bike_id":"e69f8bd5-0149-4d61-9765-0c3880e86e54","system_id":"levelo_inurba_marseille","lat":43.24079,"lon":5.37718,"is_reserved":false,"is_disabled":false,"rental_uris":{"android":"levelo://app?vid=e69f8bd5-0149-4d61-9765-0c3880e86e54","ios":"levelo://app?vid=e69f8bd5-0149-4d61-9765-0c3880e86e54"},"vehicle_type_id":"4","last_reported":1762153871,"current_range_meters":11200,"station_id":"ce4bhnp2rcd13ifvqgvg","pricing_plan_id":"cebpf4jnsgd1na2vs0mg"},{"bike_id":"3f947c23-ae34-4c1f-9a5e-d145a37c54c9","system_id":"levelo_inurba_marseille","lat":43.25335,"lon":5.42166,"is_reserved":false,"is_disabled":false,"rental_uris":{"android":"levelo://app?vid=3f947c23-ae34-4c1f-9a5e-d145a37c54c9","ios":"levelo://app?vid=3f947c23-ae34-4c1f-9a5e-d145a37c54c9"},"vehicle_type_id":"4","last_reported":1762153871,"current_range_meters":11200,"station_id":"st_d2m65c5bi1j21697t3ng","pricing_plan_id":"cebpf4jnsgd1na2vs0mg"},{"bike_id":"96abdb62-f48a-4e33-ae81-ce859de36fbd","system_id":"levelo_inurba_marseille","lat":43.28478,"lon":5.38417,"is_reserved":false,"is_disabled":false,"rental_uris":{"android":"levelo://app?vid=96abdb62-f48a-4e33-ae81-ce859de36fbd","ios":"levelo://app?vid=96abdb62-f48a-4e33-ae81-ce859de36fbd"},"vehicle_type_id":"4","last_reported":1762153871,"current_range_meters":11200,"station_id":"ce4bh512rcd13ifvqe3g","pricing_plan_id":"cebpf4jnsgd1na2vs0mg"},{"bike_id":"fe2272ea-7316-4280-b90c-d8c4db7bc73e","system_id":"levelo_inurba_marseille","lat":43.279505,"lon":5.393065,"is_reserved":false,"is_disabled":false,"rental_uris":{"android":"levelo://app?vid=fe2272ea-7316-4280-b90c-d8c4db7bc73e","ios":"levelo://app?vid=fe2272ea-7316-4280-b90c-d8c4db7bc73e"},"vehicle_type_id":"4","last_reported":1762153871,"current_range_meters":11200,"station_id":"","pricing_plan_id":"cebpf4jnsgd1na2vs0mg"},{"bike_id":"62f9cf62-5d06-4dd6-b282-7b747589a777","system_id":"levelo_inurba_marseille","lat":43.28729,"lon":5.400127,"is_reserved":false,"is_disabled":true,"rental_uris":{"android":"levelo://app?vid=62f9cf62-5d06-4dd6-b282-7b747589a777","ios":"levelo://app?vid=62f9cf62-5d06-4dd6-b282-7b747589a777"},"vehicle_type_id":"4","last_reported":1762153871,"current_range_meters":11200,"station_id":"ce4bho92rcd13ifvqh3g","pricing_plan_id":"cebpf4jnsgd1na2vs0mg"},{"bike_id":"06193922-fdf4-438d-bc7c-945799a56899","system_id":"levelo_inurba_marseille","lat":43.23152,"lon":5.43706,"is_reserved":false,"is_disabled":false,"rental_uris":{"android":"levelo://app?vid=06193922-fdf4-438d-bc7c-945799a56899","ios":"levelo://app?vid=06193922-fdf4-438d-bc7c-945799a56899"},"vehicle_type_id":"4","last_reported":1762153871,"current_range_meters":11200,"station_id":"ce4bhmp2rcd13ifvqgog","pricing_plan_id":"cebpf4jnsgd1na2vs0mg"},{"bike_id":"2e3cf598-af65-4baa-94fc-f35c6061045d","system_id":"levelo_inurba_marseille","lat":43.30218,"lon":5.38072,"is_reserved":false,"is_disabled":false,"rental_uris":{"android":"levelo://app?vid=2e3cf598-af65-4baa-94fc-f35c6061045d","ios":"levelo://app?vid=2e3cf598-af65-4baa-94fc-f35c6061045d"},"vehicle_type_id":"4","last_reported":1762153871,"current_range_meters":11600,"station_id":"ce4bgjp2rcd13ifvqbh0","pricing_plan_id":"cebpf4jnsgd1na2vs0mg"},{"bike_id":"0b29fc28-1f0d-4d6c-b71f-627728651ef4","system_id":"levelo_inurba_marseille","lat":43.301347,"lon":5.387769,"is_reserved":false,"is_disabled":false,"rental_uris":{"android":"levelo://app?vid=0b29fc28-1f0d-4d6c-b71f-627728651ef4","ios":"levelo://app?vid=0b29fc28-1f0d-4d6c-b71f-627728651ef4"},"vehicle_type_id":"4","last_reported":1762153871,"current_range_meters":11600,"station_id":"ce4bghh2rcd13ifvqb60","pricing_plan_id":"cebpf4jnsgd1na2vs0mg"},{"bike_id":"f557c786-2345-4ac4-a840-c1dcc726774f","system_id":"levelo_inurba_marseille","lat":43.31067,"lon":5.38345,"is_reserved":false,"is_disabled":true,"rental_uris":{"android":"levelo://app?vid=f557c786-2345-4ac4-a840-c1dcc726774f","ios":"levelo://app?vid=f557c786-2345-4ac4-a840-c1dcc726774f"},"vehicle_type_id":"4","last_reported":1762153871,"current_range_meters":11600,"station_id":"ce4bgv92rcd13ifvqcr0","pricing_plan_id":"cebpf4jnsgd1na2vs0mg"},{"bike_id":"574ccb62-a50d-48bc-bb01-68f2175e79df","system_id":"levelo_inurba_marseille","lat":43.29628,"lon":5.40596,"is_reserved":false,"is_disabled":false,"rental_uris":{"android":"levelo://app?vid=574ccb62-a50d-48bc-bb01-68f2175e79df","ios":"levelo://app?vid=574ccb62-a50d-48bc-bb01-68f2175e79df"},"vehicle_type_id":"4","last_reported":1762153871,"current_range_meters":11600,"station_id":"ce4bh0h2rcd13ifvqd60","pricing_plan_id":"cebpf4jnsgd1na2vs0mg"},{"bike_id":"61a6a505-f092-4794-9aef-784bdf43c4c1","system_id":"levelo_inurba_marseille","lat":43.24075,"lon":5.3774,"is_reserved":false,"is_disabled":false,"rental_uris":{"android":"levelo://app?vid=61a6a505-f092-4794-9aef-784bdf43c4c1","ios":"levelo://app?vid=61a6a505-f092-4794-9aef-784bdf43c4c1"},"vehicle_type_id":"4","last_reported":1762153871,"current_range_meters":11600,"station_id":"ce4bhnp2rcd13ifvqgvg","pricing_plan_id":"cebpf4jnsgd1na2vs0mg"},{"bike_id":"fec5a92b-82bd-48ac-9547-956aa00aec51","system_id":"levelo_inurba_marseille","lat":43.27976,"lon":5.41658,"is_reserved":false,"is_disabled":false,"rental_uris":{"android":"levelo://app?vid=fec5a92b-82bd-48ac-9547-956aa00aec51","ios":"levelo://app?vid=fec5a92b-82bd-48ac-9547-956aa00aec51"},"vehicle_type_id":"4","last_reported":1762153871,"current_range_meters":11600,"station_id":"ce4bho12rcd13ifvqh1g","pricing_plan_id":"cebpf4jnsgd1na2vs0mg"},{"bike_id":"bbfaa054-3bde-4aa6-8d40-ce2fd793f9c3","system_id":"levelo_inurba_marseille","lat":43.24162,"lon":5.36408,"is_reserved":false,"is_disabled":true,"rental_uris":{"android":"levelo://app?vid=bbfaa054-3bde-4aa6-8d40-ce2fd793f9c3","ios":"levelo://app?vid=bbfaa054-3bde-4aa6-8d40-ce2fd793f9c3"},"vehicle_type_id":"4","last_reported":1762153871,"current_range_meters":12000,"station_id":"cpo36qri1sfpv3e86is0","pricing_plan_id":"cebpf4jnsgd1na2vs0mg"},{"bike_id":"5a3b55bf-3980-4469-95ec-f32deb7bdad3","system_id":"levelo_inurba_marseille","lat":43.31458,"lon":5.39247,"is_reserved":false,"is_disabled":false,"rental_uris":{"android":"levelo://app?vid=5a3b55bf-3980-4469-95ec-f32deb7bdad3","ios":"levelo://app?vid=5a3b55bf-3980-4469-95ec-f32deb7bdad3"},"vehicle_type_id":"4","last_reported":1762153871,"current_range_meters":12000,"station_id":"","pricing_plan_id":"cebpf4jnsgd1na2vs0mg"},{"bike_id":"087318f1-a7a1-4006-b2ea-a40b4a5991bf","system_id":"levelo_inurba_marseille","lat":43.31747,"lon":5.39015,"is_reserved":false,"is_disabled":false,"rental_uris":{"android":"levelo://app?vid=087318f1-a7a1-4006-b2ea-a40b4a5991bf","ios":"levelo://app?vid=087318f1-a7a1-4006-b2ea-a40b4a5991bf"},"vehicle_type_id":"4","last_reported":1762153871,"current_range_meters":12000,"station_id":"ce4bhqp2rcd13ifvqhng","pricing_plan_id":"cebpf4jnsgd1na2vs0mg"},{"bike_id":"60bc6e1e-7591-4711-a46b-96d8fc633900","system_id":"levelo_inurba_marseille","lat":43.24072,"lon":5.37767,"is_reserved":false,"is_disabled":false,"rental_uris":{"android":"levelo://app?vid=60bc6e1e-7591-4711-a46b-96d8fc633900","ios":"levelo://app?vid=60bc6e1e-7591-4711-a46b-96d8fc633900"},"vehicle_type_id":"4","last_reported":1762153871,"current_range_meters":12000,"station_id":"ce4bhnp2rcd13ifvqgvg","pricing_plan_id":"cebpf4jnsgd1na2vs0mg"},{"bike_id":"2e92fea8-4cb2-44b2-b951-570ed1e11137","system_id":"levelo_inurba_marseille","lat":43.2314,"lon":5.43721,"is_reserved":false,"is_disabled":false,"rental_uris":{"android":"levelo://app?vid=2e92fea8-4cb2-44b2-b951-570ed1e11137","ios":"levelo://app?vid=2e92fea8-4cb2-44b2-b951-570ed1e11137"},"vehicle_type_id":"4","last_reported":1762153871,"current_range_meters":12000,"station_id":"ce4bhmp2rcd13ifvqgog","pricing_plan_id":"cebpf4jnsgd1na2vs0mg"},{"bike_id":"0a54d18f-fe43-4be5-a009-461a89594788","system_id":"levelo_inurba_marseille","lat":43.28279,"lon":5.35086,"is_reserved":false,"is_disabled":true,"rental_uris":{"android":"levelo://app?vid=0a54d18f-fe43-4be5-a009-461a89594788","ios":"levelo://app?vid=0a54d18f-fe43-4be5-a009-461a89594788"},"vehicle_type_id":"4","last_reported":1762153871,"current_range_meters":12400,"station_id":"ce4bhbp2rcd13ifvqerg","pricing_plan_id":"cebpf4jnsgd1na2vs0mg"},{"bike_id":"e419722c-f733-4d7c-8bee-89e1642e91ec","system_id":"levelo_inurba_marseille","lat":43.31391,"lon":5.3757,"is_reserved":false,"is_disabled":false,"rental_uris":{"android":"levelo://app?vid=e419722c-f733-4d7c-8bee-89e1642e91ec","ios":"levelo://app?vid=e419722c-f733-4d7c-8bee-89e1642e91ec"},"vehicle_type_id":"4","last_reported":1762153871,"current_range_meters":12400,"station_id":"","pricing_plan_id":"cebpf4jnsgd1na2vs0mg"},{"bike_id":"a86e4117-515a-45fd-a9ae-9bf165d5c212","system_id":"levelo_inurba_marseille","lat":43.312823,"lon":5.378362,"is_reserved":false,"is_disabled":false,"rental_uris":{"android":"levelo://app?vid=a86e4117-515a-45fd-a9ae-9bf165d5c212","ios":"levelo://app?vid=a86e4117-515a-45fd-a9ae-9bf165d5c212"},"vehicle_type_id":"4","last_reported":1762153871,"current_range_meters":12400,"station_id":"","pricing_plan_id":"cebpf4jnsgd1na2vs0mg"},{"bike_id":"cb6c36c2-4646-44ee-b9d1-9f2d0dee0a1f","system_id":"levelo_inurba_marseille","lat":43.240706,"lon":5.377632,"is_reserved":false,"is_disabled":false,"rental_uris":{"android":"levelo://app?vid=cb6c36c2-4646-44ee-b9d1-9f2d0dee0a1f","ios":"levelo://app?vid=cb6c36c2-4646-44ee-b9d1-9f2d0dee0a1f"},"vehicle_type_id":"4","last_reported":1762153871,"current_range_meters":12400,"station_id":"ce4bhnp2rcd13ifvqgvg","pricing_plan_id":"cebpf4jnsgd1na2vs0mg"},{"bike_id":"6eb523a4-350d-4959-ac5e-1335d8f70954","system_id":"levelo_inurba_marseille","lat":43.315717,"lon":5.406423,"is_reserved":false,"is_disabled":false,"rental_uris":{"android":"levelo://app?vid=6eb523a4-350d-4959-ac5e-1335d8f70954","ios":"levelo://app?vid=6eb523a4-350d-4959-ac5e-1335d8f70954"},"vehicle_type_id":"4","last_reported":1762153871,"current_range_meters":12400,"station_id":"","pricing_plan_id":"cebpf4jnsgd1na2vs0mg"},{"bike_id":"24c5efd4-8bf7-431e-9ab1-9c829adb2e4b","system_id":"levelo_inurba_marseille","lat":43.28219,"lon":5.39075,"is_reserved":false,"is_disabled":false,"rental_uris":{"android":"levelo://app?vid=24c5efd4-8bf7-431e-9ab1-9c829adb2e4b","ios":"levelo://app?vid=24c5efd4-8bf7-431e-9ab1-9c829adb2e4b"},"vehicle_type_id":"4","last_reported":1762153871,"current_range_meters":12800,"station_id":"ce4bhn92rcd13ifvqgsg","pricing_plan_id":"cebpf4jnsgd1na2vs0mg"},{"bike_id":"d7420e2c-f073-4c34-8c4f-ea109e498c21","system_id":"levelo_inurba_marseille","lat":43.25936,"lon":5.40908,"is_reserved":false,"is_disabled":false,"rental_uris":{"android":"levelo://app?vid=d7420e2c-f073-4c34-8c4f-ea109e498c21","ios":"levelo://app?vid=d7420e2c-f073-4c34-8c4f-ea109e498c21"},"vehicle_type_id":"4","last_reported":1762153871,"current_range_meters":12800,"station_id":"ce4bhm92rcd13ifvqglg","pricing_plan_id":"cebpf4jnsgd1na2vs0mg"},{"bike_id":"8ea74283-4f0a-476f-bfb4-25ba0d614fd7","system_id":"levelo_inurba_marseille","lat":43.285402,"lon":5.395001,"is_reserved":false,"is_disabled":false,"rental_uris":{"android":"levelo://app?vid=8ea74283-4f0a-476f-bfb4-25ba0d614fd7","ios":"levelo://app?vid=8ea74283-4f0a-476f-bfb4-25ba0d614fd7"},"vehicle_type_id":"4","last_reported":1762153871,"current_range_meters":12800,"station_id":"ce4bh292rcd13ifvqdg0","pricing_plan_id":"cebpf4jnsgd1na2vs0mg"},{"bike_id":"b2514755-0f11-4833-b225-7d1f8289efa4","system_id":"levelo_inurba_marseille","lat":43.22944,"lon":5.35369,"is_reserved":false,"is_disabled":false,"rental_uris":{"android":"levelo://app?vid=b2514755-0f11-4833-b225-7d1f8289efa4","ios":"levelo://app?vid=b2514755-0f11-4833-b225-7d1f8289efa4"},"vehicle_type_id":"4","last_reported":1762153871,"current_range_meters":12800,"station_id":"cpo3532slgdg3j2ikp40","pricing_plan_id":"cebpf4jnsgd1na2vs0mg"},{"bike_id":"609aa62b-6b42-43fc-b33d-a59982117e81","system_id":"levelo_inurba_marseille","lat":43.27423,"lon":5.39416,"is_reserved":false,"is_disabled":true,"rental_uris":{"android":"levelo://app?vid=609aa62b-6b42-43fc-b33d-a59982117e81","ios":"levelo://app?vid=609aa62b-6b42-43fc-b33d-a59982117e81"},"vehicle_type_id":"4","last_reported":1762153871,"current_range_meters":12800,"station_id":"ce4bhdp2rcd13ifvqf20","pricing_plan_id":"cebpf4jnsgd1na2vs0mg"},{"bike_id":"af5d5402-e323-4909-a348-6d63798b3cd3","system_id":"levelo_inurba_marseille","lat":43.30138,"lon":5.37421,"is_reserved":false,"is_disabled":false,"rental_uris":{"android":"levelo://app?vid=af5d5402-e323-4909-a348-6d63798b3cd3","ios":"levelo://app?vid=af5d5402-e323-4909-a348-6d63798b3cd3"},"vehicle_type_id":"4","last_reported":1762153871,"current_range_meters":12800,"station_id":"ce4bgs92rcd13ifvqcc0","pricing_plan_id":"cebpf4jnsgd1na2vs0mg"},{"bike_id":"aa56963e-5f6a-4043-b1c7-23e4d9f05d8c","system_id":"levelo_inurba_marseille","lat":43.313499,"lon":5.379119,"is_reserved":false,"is_disabled":false,"rental_uris":{"android":"levelo://app?vid=aa56963e-5f6a-4043-b1c7-23e4d9f05d8c","ios":"levelo://app?vid=aa56963e-5f6a-4043-b1c7-23e4d9f05d8c"},"vehicle_type_id":"4","last_reported":1762153871,"current_range_meters":12800,"station_id":"","pricing_plan_id":"cebpf4jnsgd1na2vs0mg"},{"bike_id":"ec1a2785-e623-4205-ae6b-d306b1402770","system_id":"levelo_inurba_marseille","lat":43.297587,"lon":5.427782,"is_reserved":false,"is_disabled":false,"rental_uris":{"android":"levelo://app?vid=ec1a2785-e623-4205-ae6b-d306b1402770","ios":"levelo://app?vid=ec1a2785-e623-4205-ae6b-d306b1402770"},"vehicle_type_id":"4","last_reported":1762153871,"current_range_meters":12800,"station_id":"ce4bhn12rcd13ifvqgqg","pricing_plan_id":"cebpf4jnsgd1na2vs0mg"},{"bike_id":"c63d01d8-c33e-4c65-8498-c3a461a45b0a","system_id":"levelo_inurba_marseille","lat":43.27042,"lon":5.40266,"is_reserved":false,"is_disabled":false,"rental_uris":{"android":"levelo://app?vid=c63d01d8-c33e-4c65-8498-c3a461a45b0a","ios":"levelo://app?vid=c63d01d8-c33e-4c65-8498-c3a461a45b0a"},"vehicle_type_id":"4","last_reported":1762153871,"current_range_meters":13600,"station_id":"ce4bhk92rcd13ifvqgc0","pricing_plan_id":"cebpf4jnsgd1na2vs0mg"},{"bike_id":"65959e76-2dec-43d3-b15c-b4e7433182fd","system_id":"levelo_inurba_marseille","lat":43.293631,"lon":5.371955,"is_reserved":false,"is_disabled":false,"rental_uris":{"android":"levelo://app?vid=65959e76-2dec-43d3-b15c-b4e7433182fd","ios":"levelo://app?vid=65959e76-2dec-43d3-b15c-b4e7433182fd"},"vehicle_type_id":"4","last_reported":1762153871,"current_range_meters":13600,"station_id":"","pricing_plan_id":"cebpf4jnsgd1na2vs0mg"},{"bike_id":"28f5c609-94bd-4f1d-9186-f66e4c2140b5","system_id":"levelo_inurba_marseille","lat":43.30737,"lon":5.42441,"is_reserved":false,"is_disabled":false,"rental_uris":{"android":"levelo://app?vid=28f5c609-94bd-4f1d-9186-f66e4c2140b5","ios":"levelo://app?vid=28f5c609-94bd-4f1d-9186-f66e4c2140b5"},"vehicle_type_id":"4","last_reported":1762153871,"current_range_meters":13600,"station_id":"st_cvj6ca6bvosntc0bfgr0","pricing_plan_id":"cebpf4jnsgd1na2vs0mg"},{"bike_id":"bc97e72b-f479-4cfb-ba90-458ce1432bd8","system_id":"levelo_inurba_marseille","lat":43.30286,"lon":5.37699,"is_reserved":false,"is_disabled":true,"rental_uris":{"android":"levelo://app?vid=bc97e72b-f479-4cfb-ba90-458ce1432bd8","ios":"levelo://app?vid=bc97e72b-f479-4cfb-ba90-458ce1432bd8"},"vehicle_type_id":"4","last_reported":1762153871,"current_range_meters":13600,"station_id":"ce4bguh2rcd13ifvqcj0","pricing_plan_id":"cebpf4jnsgd1na2vs0mg"},{"bike_id":"f10c1fd0-819c-4bcb-a779-837cb537741a","system_id":"levelo_inurba_marseille","lat":43.29486,"lon":5.37466,"is_reserved":false,"is_disabled":false,"rental_uris":{"android":"levelo://app?vid=f10c1fd0-819c-4bcb-a779-837cb537741a","ios":"levelo://app?vid=f10c1fd0-819c-4bcb-a779-837cb537741a"},"vehicle_type_id":"4","last_reported":1762153871,"current_range_meters":13600,"station_id":"","pricing_plan_id":"cebpf4jnsgd1na2vs0mg"},{"bike_id":"87d9a765-67c4-4e96-a6f5-e0747676f555","system_id":"levelo_inurba_marseille","lat":43.29042,"lon":5.39973,"is_reserved":false,"is_disabled":false,"rental_uris":{"android":"levelo://app?vid=87d9a765-67c4-4e96-a6f5-e0747676f555","ios":"levelo://app?vid=87d9a765-67c4-4e96-a6f5-e0747676f555"},"vehicle_type_id":"4","last_reported":1762153871,"current_range_meters":13600,"station_id":"ce4bh392rcd13ifvqdm0","pricing_plan_id":"cebpf4jnsgd1na2vs0mg"},{"bike_id":"7f4ea1c9-e771-489a-82b2-fae7d0c0a729","system_id":"levelo_inurba_marseille","lat":43.297928,"lon":5.393489,"is_reserved":false,"is_disabled":true,"rental_uris":{"android":"levelo://app?vid=7f4ea1c9-e771-489a-82b2-fae7d0c0a729","ios":"levelo://app?vid=7f4ea1c9-e771-489a-82b2-fae7d0c0a729"},"vehicle_type_id":"4","last_reported":1762153871,"current_range_meters":14000,"station_id":"chh1huq6cuj3fo74tm60","pricing_plan_id":"cebpf4jnsgd1na2vs0mg"},{"bike_id":"ef3051ac-87a4-400e-a432-5bfc2a83a3e3","system_id":"levelo_inurba_marseille","lat":43.32467,"lon":5.36573,"is_reserved":false,"is_disabled":false,"rental_uris":{"android":"levelo://app?vid=ef3051ac-87a4-400e-a432-5bfc2a83a3e3","ios":"levelo://app?vid=ef3051ac-87a4-400e-a432-5bfc2a83a3e3"},"vehicle_type_id":"4","last_reported":1762153871,"current_range_meters":14000,"station_id":"ce4bhs12rcd13ifvqhvg","pricing_plan_id":"cebpf4jnsgd1na2vs0mg"},{"bike_id":"cd577aa1-65af-45be-98e8-5614d5cbf79a","system_id":"levelo_inurba_marseille","lat":43.298051,"lon":5.381212,"is_reserved":false,"is_disabled":false,"rental_uris":{"android":"levelo://app?vid=cd577aa1-65af-45be-98e8-5614d5cbf79a","ios":"levelo://app?vid=cd577aa1-65af-45be-98e8-5614d5cbf79a"},"vehicle_type_id":"4","last_reported":1762153871,"current_range_meters":14000,"station_id":"ce4bgip2rcd13ifvqbb0","pricing_plan_id":"cebpf4jnsgd1na2vs0mg"},{"bike_id":"fa26f30c-f4d8-4ef3-973f-f6b6f33bca8a","system_id":"levelo_inurba_marseille","lat":43.32998,"lon":5.403819,"is_reserved":false,"is_disabled":false,"rental_uris":{"android":"levelo://app?vid=fa26f30c-f4d8-4ef3-973f-f6b6f33bca8a","ios":"levelo://app?vid=fa26f30c-f4d8-4ef3-973f-f6b6f33bca8a"},"vehicle_type_id":"4","last_reported":1762153871,"current_range_meters":14000,"station_id":"","pricing_plan_id":"cebpf4jnsgd1na2vs0mg"},{"bike_id":"e894c9e8-7f1e-4e5b-850e-008cc5de5e6e","system_id":"levelo_inurba_marseille","lat":43.23154,"lon":5.4371,"is_reserved":false,"is_disabled":false,"rental_uris":{"android":"levelo://app?vid=e894c9e8-7f1e-4e5b-850e-008cc5de5e6e","ios":"levelo://app?vid=e894c9e8-7f1e-4e5b-850e-008cc5de5e6e"},"vehicle_type_id":"4","last_reported":1762153871,"current_range_meters":14000,"station_id":"ce4bhmp2rcd13ifvqgog","pricing_plan_id":"cebpf4jnsgd1na2vs0mg"},{"bike_id":"eb37c568-c2ee-4632-9af3-8a2aea623250","system_id":"levelo_inurba_marseille","lat":43.248013,"lon":5.37452,"is_reserved":false,"is_disabled":false,"rental_uris":{"android":"levelo://app?vid=eb37c568-c2ee-4632-9af3-8a2aea623250","ios":"levelo://app?vid=eb37c568-c2ee-4632-9af3-8a2aea623250"},"vehicle_type_id":"4","last_reported":1762153871,"current_range_meters":14400,"station_id":"ce4bhgh2rcd13ifvqfb0","pricing_plan_id":"cebpf4jnsgd1na2vs0mg"},{"bike_id":"c2f7dc92-e67b-4a41-a74e-d1e630d0240f","system_id":"levelo_inurba_marseille","lat":43.2894,"lon":5.36641,"is_reserved":false,"is_disabled":false,"rental_uris":{"android":"levelo://app?vid=c2f7dc92-e67b-4a41-a74e-d1e630d0240f","ios":"levelo://app?vid=c2f7dc92-e67b-4a41-a74e-d1e630d0240f"},"vehicle_type_id":"4","last_reported":1762153871,"current_range_meters":14400,"station_id":"ce4bhap2rcd13ifvqek0","pricing_plan_id":"cebpf4jnsgd1na2vs0mg"},{"bike_id":"1b1e71cc-c221-4e91-89c8-2d987f944d9c","system_id":"levelo_inurba_marseille","lat":43.24171,"lon":5.36397,"is_reserved":false,"is_disabled":true,"rental_uris":{"android":"levelo://app?vid=1b1e71cc-c221-4e91-89c8-2d987f944d9c","ios":"levelo://app?vid=1b1e71cc-c221-4e91-89c8-2d987f944d9c"},"vehicle_type_id":"4","last_reported":1762153871,"current_range_meters":14400,"station_id":"cpo36qri1sfpv3e86is0","pricing_plan_id":"cebpf4jnsgd1na2vs0mg"},{"bike_id":"1a9255c3-f809-427d-b153-cdb99d824189","system_id":"levelo_inurba_marseille","lat":43.24944,"lon":5.40498,"is_reserved":false,"is_disabled":false,"rental_uris":{"android":"levelo://app?vid=1a9255c3-f809-427d-b153-cdb99d824189","ios":"levelo://app?vid=1a9255c3-f809-427d-b153-cdb99d824189"},"vehicle_type_id":"4","last_reported":1762153871,"current_range_meters":14400,"station_id":"st_d2ngiaodas8pm72gd1h0","pricing_plan_id":"cebpf4jnsgd1na2vs0mg"},{"bike_id":"2457a6da-e737-4e7a-9c85-e9723cf378b9","system_id":"levelo_inurba_marseille","lat":43.27199,"lon":5.40961,"is_reserved":false,"is_disabled":false,"rental_uris":{"android":"levelo://app?vid=2457a6da-e737-4e7a-9c85-e9723cf378b9","ios":"levelo://app?vid=2457a6da-e737-4e7a-9c85-e9723cf378b9"},"vehicle_type_id":"4","last_reported":1762153871,"current_range_meters":14800,"station_id":"ce4bhl12rcd13ifvqgf0","pricing_plan_id":"cebpf4jnsgd1na2vs0mg"},{"bike_id":"054e5513-a18a-4fec-bab2-96a168188b7d","system_id":"levelo_inurba_marseille","lat":43.31178,"lon":5.3737,"is_reserved":false,"is_disabled":false,"rental_uris":{"android":"levelo://app?vid=054e5513-a18a-4fec-bab2-96a168188b7d","ios":"levelo://app?vid=054e5513-a18a-4fec-bab2-96a168188b7d"},"vehicle_type_id":"4","last_reported":1762153871,"current_range_meters":14800,"station_id":"","pricing_plan_id":"cebpf4jnsgd1na2vs0mg"},{"bike_id":"32d4a401-7eac-4706-9e22-d4c2a7e55b17","system_id":"levelo_inurba_marseille","lat":43.24634,"lon":5.43164,"is_reserved":false,"is_disabled":false,"rental_uris":{"android":"levelo://app?vid=32d4a401-7eac-4706-9e22-d4c2a7e55b17","ios":"levelo://app?vid=32d4a401-7eac-4706-9e22-d4c2a7e55b17"},"vehicle_type_id":"4","last_reported":1762153871,"current_range_meters":15200,"station_id":"st_d2m6c4gdas8pm72e190g","pricing_plan_id":"cebpf4jnsgd1na2vs0mg"},{"bike_id":"25b8b9c6-92a5-43d3-8767-0700e7c7de1c","system_id":"levelo_inurba_marseille","lat":43.3375,"lon":5.37467,"is_reserved":false,"is_disabled":false,"rental_uris":{"android":"levelo://app?vid=25b8b9c6-92a5-43d3-8767-0700e7c7de1c","ios":"levelo://app?vid=25b8b9c6-92a5-43d3-8767-0700e7c7de1c"},"vehicle_type_id":"4","last_reported":1762153871,"current_range_meters":15200,"station_id":"","pricing_plan_id":"cebpf4jnsgd1na2vs0mg"},{"bike_id":"cfc27691-61f7-4b7d-9c2b-fa331c214f26","system_id":"levelo_inurba_marseille","lat":43.280335,"lon":5.369477,"is_reserved":false,"is_disabled":false,"rental_uris":{"android":"levelo://app?vid=cfc27691-61f7-4b7d-9c2b-fa331c214f26","ios":"levelo://app?vid=cfc27691-61f7-4b7d-9c2b-fa331c214f26"},"vehicle_type_id":"4","last_reported":1762153871,"current_range_meters":15200,"station_id":"ce4bha12rcd13ifvqef0","pricing_plan_id":"cebpf4jnsgd1na2vs0mg"},{"bike_id":"7273bb4c-7b97-46c2-a633-6e5e1fe1f98b","system_id":"levelo_inurba_marseille","lat":43.28527,"lon":5.44106,"is_reserved":false,"is_disabled":false,"rental_uris":{"android":"levelo://app?vid=7273bb4c-7b97-46c2-a633-6e5e1fe1f98b","ios":"levelo://app?vid=7273bb4c-7b97-46c2-a633-6e5e1fe1f98b"},"vehicle_type_id":"4","last_reported":1762153871,"current_range_meters":15200,"station_id":"st_d3j3df2ikq2c7380ej80","pricing_plan_id":"cebpf4jnsgd1na2vs0mg"},{"bike_id":"2027ca7f-2d34-4bbf-9ad0-ab60b2ac1397","system_id":"levelo_inurba_marseille","lat":43.23155,"lon":5.43716,"is_reserved":false,"is_disabled":false,"rental_uris":{"android":"levelo://app?vid=2027ca7f-2d34-4bbf-9ad0-ab60b2ac1397","ios":"levelo://app?vid=2027ca7f-2d34-4bbf-9ad0-ab60b2ac1397"},"vehicle_type_id":"4","last_reported":1762153871,"current_range_meters":15200,"station_id":"ce4bhmp2rcd13ifvqgog","pricing_plan_id":"cebpf4jnsgd1na2vs0mg"},{"bike_id":"88a37c3f-2822-4e65-9019-f92712cd5915","system_id":"levelo_inurba_marseille","lat":43.211986,"lon":5.350797,"is_reserved":false,"is_disabled":true,"rental_uris":{"android":"levelo://app?vid=88a37c3f-2822-4e65-9019-f92712cd5915","ios":"levelo://app?vid=88a37c3f-2822-4e65-9019-f92712cd5915"},"vehicle_type_id":"4","last_reported":1762153871,"current_range_meters":15200,"station_id":"st_cvj6sg6p6f1abm77japg","pricing_plan_id":"cebpf4jnsgd1na2vs0mg"},{"bike_id":"e76b87a5-9393-4b07-847a-8fd9996dc2c1","system_id":"levelo_inurba_marseille","lat":43.27485,"lon":5.42456,"is_reserved":false,"is_disabled":false,"rental_uris":{"android":"levelo://app?vid=e76b87a5-9393-4b07-847a-8fd9996dc2c1","ios":"levelo://app?vid=e76b87a5-9393-4b07-847a-8fd9996dc2c1"},"vehicle_type_id":"4","last_reported":1762153871,"current_range_meters":15200,"station_id":"ce4bhn92rcd13ifvqgrg","pricing_plan_id":"cebpf4jnsgd1na2vs0mg"},{"bike_id":"bb335a03-7df2-4888-8b52-a5b22bc811a1","system_id":"levelo_inurba_marseille","lat":43.32537,"lon":5.41428,"is_reserved":false,"is_disabled":false,"rental_uris":{"android":"levelo://app?vid=bb335a03-7df2-4888-8b52-a5b22bc811a1","ios":"levelo://app?vid=bb335a03-7df2-4888-8b52-a5b22bc811a1"},"vehicle_type_id":"4","last_reported":1762153871,"current_range_meters":15200,"station_id":"ce4bhq12rcd13ifvqhhg","pricing_plan_id":"cebpf4jnsgd1na2vs0mg"},{"bike_id":"5a96cc8c-7aea-4f8c-941f-8c7122bd9517","system_id":"levelo_inurba_marseille","lat":43.284778,"lon":5.483896,"is_reserved":false,"is_disabled":false,"rental_uris":{"android":"levelo://app?vid=5a96cc8c-7aea-4f8c-941f-8c7122bd9517","ios":"levelo://app?vid=5a96cc8c-7aea-4f8c-941f-8c7122bd9517"},"vehicle_type_id":"4","last_reported":1762153871,"current_range_meters":16000,"station_id":"","pricing_plan_id":"cebpf4jnsgd1na2vs0mg"},{"bike_id":"4c4b8bcf-4ef8-4551-8b0c-0892f8af6559","system_id":"levelo_inurba_marseille","lat":43.22561,"lon":5.41647,"is_reserved":false,"is_disabled":false,"rental_uris":{"android":"levelo://app?vid=4c4b8bcf-4ef8-4551-8b0c-0892f8af6559","ios":"levelo://app?vid=4c4b8bcf-4ef8-4551-8b0c-0892f8af6559"},"vehicle_type_id":"4","last_reported":1762153871,"current_range_meters":16000,"station_id":"st_d2o4gvlbi1j2169b742g","pricing_plan_id":"cebpf4jnsgd1na2vs0mg"},{"bike_id":"aad6a064-c048-4ba9-a156-1745b89548aa","system_id":"levelo_inurba_marseille","lat":43.283136,"lon":5.410967,"is_reserved":false,"is_disabled":false,"rental_uris":{"android":"levelo://app?vid=aad6a064-c048-4ba9-a156-1745b89548aa","ios":"levelo://app?vid=aad6a064-c048-4ba9-a156-1745b89548aa"},"vehicle_type_id":"4","last_reported":1762153871,"current_range_meters":16000,"station_id":"","pricing_plan_id":"cebpf4jnsgd1na2vs0mg"},{"bike_id":"ea0e7b6e-1203-4d38-b7f2-fcd5b872d354","system_id":"levelo_inurba_marseille","lat":43.27029,"lon":5.40315,"is_reserved":false,"is_disabled":false,"rental_uris":{"android":"levelo://app?vid=ea0e7b6e-1203-4d38-b7f2-fcd5b872d354","ios":"levelo://app?vid=ea0e7b6e-1203-4d38-b7f2-fcd5b872d354"},"vehicle_type_id":"4","last_reported":1762153871,"current_range_meters":16000,"station_id":"","pricing_plan_id":"cebpf4jnsgd1na2vs0mg"},{"bike_id":"05d6a3f7-b83a-4da1-9593-ef5015b8f8ec","system_id":"levelo_inurba_marseille","lat":43.27992,"lon":5.39981,"is_reserved":false,"is_disabled":false,"rental_uris":{"android":"levelo://app?vid=05d6a3f7-b83a-4da1-9593-ef5015b8f8ec","ios":"levelo://app?vid=05d6a3f7-b83a-4da1-9593-ef5015b8f8ec"},"vehicle_type_id":"4","last_reported":1762153871,"current_range_meters":16000,"station_id":"ce4bho92rcd13ifvqh4g","pricing_plan_id":"cebpf4jnsgd1na2vs0mg"},{"bike_id":"a8ec203b-d616-4825-acb4-ec9a8037e9f2","system_id":"levelo_inurba_marseille","lat":43.28125,"lon":5.38323,"is_reserved":false,"is_disabled":false,"rental_uris":{"android":"levelo://app?vid=a8ec203b-d616-4825-acb4-ec9a8037e9f2","ios":"levelo://app?vid=a8ec203b-d616-4825-acb4-ec9a8037e9f2"},"vehicle_type_id":"4","last_reported":1762153871,"current_range_meters":16000,"station_id":"","pricing_plan_id":"cebpf4jnsgd1na2vs0mg"},{"bike_id":"600594a6-be69-4e43-ad17-c2d891da9a62","system_id":"levelo_inurba_marseille","lat":43.29024,"lon":5.38186,"is_reserved":false,"is_disabled":true,"rental_uris":{"android":"levelo://app?vid=600594a6-be69-4e43-ad17-c2d891da9a62","ios":"levelo://app?vid=600594a6-be69-4e43-ad17-c2d891da9a62"},"vehicle_type_id":"4","last_reported":1762153871,"current_range_meters":16400,"station_id":"ce4bh4p2rcd13ifvqe1g","pricing_plan_id":"cebpf4jnsgd1na2vs0mg"},{"bike_id":"c37decea-906a-43ca-8450-8ed6fad0917a","system_id":"levelo_inurba_marseille","lat":43.21759,"lon":5.34627,"is_reserved":false,"is_disabled":false,"rental_uris":{"android":"levelo://app?vid=c37decea-906a-43ca-8450-8ed6fad0917a","ios":"levelo://app?vid=c37decea-906a-43ca-8450-8ed6fad0917a"},"vehicle_type_id":"4","last_reported":1762153871,"current_range_meters":16400,"station_id":"","pricing_plan_id":"cebpf4jnsgd1na2vs0mg"},{"bike_id":"5eee67bb-3614-4f3b-ab22-554d031d3012","system_id":"levelo_inurba_marseille","lat":43.25722,"lon":5.41132,"is_reserved":false,"is_disabled":false,"rental_uris":{"android":"levelo://app?vid=5eee67bb-3614-4f3b-ab22-554d031d3012","ios":"levelo://app?vid=5eee67bb-3614-4f3b-ab22-554d031d3012"},"vehicle_type_id":"4","last_reported":1762153871,"current_range_meters":16400,"station_id":"ce4bhkp2rcd13ifvqgd0","pricing_plan_id":"cebpf4jnsgd1na2vs0mg"},{"bike_id":"69c1aeeb-9516-4f56-9a6b-c0e80261caaf","system_id":"levelo_inurba_marseille","lat":43.26559,"lon":5.3729,"is_reserved":false,"is_disabled":false,"rental_uris":{"android":"levelo://app?vid=69c1aeeb-9516-4f56-9a6b-c0e80261caaf","ios":"levelo://app?vid=69c1aeeb-9516-4f56-9a6b-c0e80261caaf"},"vehicle_type_id":"4","last_reported":1762153871,"current_range_meters":16400,"station_id":"ce4bhg12rcd13ifvqf70","pricing_plan_id":"cebpf4jnsgd1na2vs0mg"},{"bike_id":"4316ebb6-af9e-414e-ba87-072103d4da75","system_id":"levelo_inurba_marseille","lat":43.335221,"lon":5.39753,"is_reserved":false,"is_disabled":false,"rental_uris":{"android":"levelo://app?vid=4316ebb6-af9e-414e-ba87-072103d4da75","ios":"levelo://app?vid=4316ebb6-af9e-414e-ba87-072103d4da75"},"vehicle_type_id":"4","last_reported":1762153871,"current_range_meters":16400,"station_id":"","pricing_plan_id":"cebpf4jnsgd1na2vs0mg"},{"bike_id":"ac2f2e0c-7f3a-4615-95a9-755ddbeafcff","system_id":"levelo_inurba_marseille","lat":43.27374,"lon":5.36249,"is_reserved":false,"is_disabled":true,"rental_uris":{"android":"levelo://app?vid=ac2f2e0c-7f3a-4615-95a9-755ddbeafcff","ios":"levelo://app?vid=ac2f2e0c-7f3a-4615-95a9-755ddbeafcff"},"vehicle_type_id":"4","last_reported":1762153871,"current_range_meters":16400,"station_id":"ce4bhbh2rcd13ifvqeo0","pricing_plan_id":"cebpf4jnsgd1na2vs0mg"},{"bike_id":"0b0c3ccd-c9f7-42c0-aa5e-7e6469ec820c","system_id":"levelo_inurba_marseille","lat":43.25498,"lon":5.37684,"is_reserved":false,"is_disabled":false,"rental_uris":{"android":"levelo://app?vid=0b0c3ccd-c9f7-42c0-aa5e-7e6469ec820c","ios":"levelo://app?vid=0b0c3ccd-c9f7-42c0-aa5e-7e6469ec820c"},"vehicle_type_id":"4","last_reported":1762153871,"current_range_meters":16400,"station_id":"ce4bhh12rcd13ifvqff0","pricing_plan_id":"cebpf4jnsgd1na2vs0mg"},{"bike_id":"dfafc353-61c4-40ae-835b-c3799534af4a","system_id":"levelo_inurba_marseille","lat":43.2957,"lon":5.37499,"is_reserved":false,"is_disabled":true,"rental_uris":{"android":"levelo://app?vid=dfafc353-61c4-40ae-835b-c3799534af4a","ios":"levelo://app?vid=dfafc353-61c4-40ae-835b-c3799534af4a"},"vehicle_type_id":"4","last_reported":1762153871,"current_range_meters":16400,"station_id":"ce4bgh92rcd13ifvqb50","pricing_plan_id":"cebpf4jnsgd1na2vs0mg"},{"bike_id":"fdfa22f5-dc36-4644-8eb0-e0aa2a1f5c2a","system_id":"levelo_inurba_marseille","lat":43.28471,"lon":5.38574,"is_reserved":false,"is_disabled":false,"rental_uris":{"android":"levelo://app?vid=fdfa22f5-dc36-4644-8eb0-e0aa2a1f5c2a","ios":"levelo://app?vid=fdfa22f5-dc36-4644-8eb0-e0aa2a1f5c2a"},"vehicle_type_id":"4","last_reported":1762153871,"current_range_meters":16400,"station_id":"ce4bh8p2rcd13ifvqeb0","pricing_plan_id":"cebpf4jnsgd1na2vs0mg"},{"bike_id":"87a4a94b-97ae-4ad7-ac15-44fb37281e5e","system_id":"levelo_inurba_marseille","lat":43.30723,"lon":5.4243,"is_reserved":false,"is_disabled":false,"rental_uris":{"android":"levelo://app?vid=87a4a94b-97ae-4ad7-ac15-44fb37281e5e","ios":"levelo://app?vid=87a4a94b-97ae-4ad7-ac15-44fb37281e5e"},"vehicle_type_id":"4","last_reported":1762153871,"current_range_meters":16400,"station_id":"st_cvj6ca6bvosntc0bfgr0","pricing_plan_id":"cebpf4jnsgd1na2vs0mg"},{"bike_id":"8cd698bd-6888-46ab-9c53-8aa2cfb0b689","system_id":"levelo_inurba_marseille","lat":43.240681,"lon":5.377585,"is_reserved":false,"is_disabled":false,"rental_uris":{"android":"levelo://app?vid=8cd698bd-6888-46ab-9c53-8aa2cfb0b689","ios":"levelo://app?vid=8cd698bd-6888-46ab-9c53-8aa2cfb0b689"},"vehicle_type_id":"4","last_reported":1762153871,"current_range_meters":16400,"station_id":"ce4bhnp2rcd13ifvqgvg","pricing_plan_id":"cebpf4jnsgd1na2vs0mg"},{"bike_id":"7aef1029-9880-4ac1-bc62-5df1ae769dad","system_id":"levelo_inurba_marseille","lat":43.31005,"lon":5.37035,"is_reserved":false,"is_disabled":false,"rental_uris":{"android":"levelo://app?vid=7aef1029-9880-4ac1-bc62-5df1ae769dad","ios":"levelo://app?vid=7aef1029-9880-4ac1-bc62-5df1ae769dad"},"vehicle_type_id":"4","last_reported":1762153871,"current_range_meters":16400,"station_id":"","pricing_plan_id":"cebpf4jnsgd1na2vs0mg"},{"bike_id":"d1b7e294-8ae6-48ef-89d0-e05e23f9f8e0","system_id":"levelo_inurba_marseille","lat":43.2954,"lon":5.36115,"is_reserved":false,"is_disabled":true,"rental_uris":{"android":"levelo://app?vid=d1b7e294-8ae6-48ef-89d0-e05e23f9f8e0","ios":"levelo://app?vid=d1b7e294-8ae6-48ef-89d0-e05e23f9f8e0"},"vehicle_type_id":"4","last_reported":1762153871,"current_range_meters":16400,"station_id":"","pricing_plan_id":"cebpf4jnsgd1na2vs0mg"},{"bike_id":"03518348-a473-43a5-aebe-4dbf2f87920e","system_id":"levelo_inurba_marseille","lat":43.28468,"lon":5.37906,"is_reserved":false,"is_disabled":false,"rental_uris":{"android":"levelo://app?vid=03518348-a473-43a5-aebe-4dbf2f87920e","ios":"levelo://app?vid=03518348-a473-43a5-aebe-4dbf2f87920e"},"vehicle_type_id":"4","last_reported":1762153871,"current_range_meters":16400,"station_id":"","pricing_plan_id":"cebpf4jnsgd1na2vs0mg"},{"bike_id":"e7f5bc6d-4c00-409e-904d-e5b750d916a9","system_id":"levelo_inurba_marseille","lat":43.285332,"lon":5.441173,"is_reserved":false,"is_disabled":false,"rental_uris":{"android":"levelo://app?vid=e7f5bc6d-4c00-409e-904d-e5b750d916a9","ios":"levelo://app?vid=e7f5bc6d-4c00-409e-904d-e5b750d916a9"},"vehicle_type_id":"4","last_reported":1762153871,"current_range_meters":16800,"station_id":"st_d3j3df2ikq2c7380ej80","pricing_plan_id":"cebpf4jnsgd1na2vs0mg"},{"bike_id":"782a02c9-f51b-4b61-89b2-ec2ecf7d0e40","system_id":"levelo_inurba_marseille","lat":43.2497,"lon":5.4052,"is_reserved":false,"is_disabled":false,"rental_uris":{"android":"levelo://app?vid=782a02c9-f51b-4b61-89b2-ec2ecf7d0e40","ios":"levelo://app?vid=782a02c9-f51b-4b61-89b2-ec2ecf7d0e40"},"vehicle_type_id":"4","last_reported":1762153871,"current_range_meters":16800,"station_id":"st_d2ngiaodas8pm72gd1h0","pricing_plan_id":"cebpf4jnsgd1na2vs0mg"},{"bike_id":"145adec1-02ad-4d16-a5dd-42bf80721343","system_id":"levelo_inurba_marseille","lat":43.301293,"lon":5.384405,"is_reserved":false,"is_disabled":false,"rental_uris":{"android":"levelo://app?vid=145adec1-02ad-4d16-a5dd-42bf80721343","ios":"levelo://app?vid=145adec1-02ad-4d16-a5dd-42bf80721343"},"vehicle_type_id":"4","last_reported":1762153871,"current_range_meters":16800,"station_id":"","pricing_plan_id":"cebpf4jnsgd1na2vs0mg"},{"bike_id":"5eb9db26-abf8-4b3a-a40c-77af04cc957e","system_id":"levelo_inurba_marseille","lat":43.24163,"lon":5.36406,"is_reserved":false,"is_disabled":false,"rental_uris":{"android":"levelo://app?vid=5eb9db26-abf8-4b3a-a40c-77af04cc957e","ios":"levelo://app?vid=5eb9db26-abf8-4b3a-a40c-77af04cc957e"},"vehicle_type_id":"4","last_reported":1762153871,"current_range_meters":16800,"station_id":"cpo36qri1sfpv3e86is0","pricing_plan_id":"cebpf4jnsgd1na2vs0mg"},{"bike_id":"7697f83b-11c1-4978-89f1-e9d9aca50ac7","system_id":"levelo_inurba_marseille","lat":43.246763,"lon":5.381874,"is_reserved":false,"is_disabled":true,"rental_uris":{"android":"levelo://app?vid=7697f83b-11c1-4978-89f1-e9d9aca50ac7","ios":"levelo://app?vid=7697f83b-11c1-4978-89f1-e9d9aca50ac7"},"vehicle_type_id":"4","last_reported":1762153871,"current_range_meters":16800,"station_id":"ce4bhih2rcd13ifvqfr0","pricing_plan_id":"cebpf4jnsgd1na2vs0mg"},{"bike_id":"685309e2-6f6e-4f2f-b3f7-5a760d5d870b","system_id":"levelo_inurba_marseille","lat":43.297663,"lon":5.393523,"is_reserved":false,"is_disabled":false,"rental_uris":{"android":"levelo://app?vid=685309e2-6f6e-4f2f-b3f7-5a760d5d870b","ios":"levelo://app?vid=685309e2-6f6e-4f2f-b3f7-5a760d5d870b"},"vehicle_type_id":"4","last_reported":1762153871,"current_range_meters":16800,"station_id":"chh1huq6cuj3fo74tm60","pricing_plan_id":"cebpf4jnsgd1na2vs0mg"},{"bike_id":"e8b28a79-d960-431b-99a8-00e81e08fcb5","system_id":"levelo_inurba_marseille","lat":43.24621,"lon":5.43146,"is_reserved":false,"is_disabled":false,"rental_uris":{"android":"levelo://app?vid=e8b28a79-d960-431b-99a8-00e81e08fcb5","ios":"levelo://app?vid=e8b28a79-d960-431b-99a8-00e81e08fcb5"},"vehicle_type_id":"4","last_reported":1762153871,"current_range_meters":16800,"station_id":"st_d2m6c4gdas8pm72e190g","pricing_plan_id":"cebpf4jnsgd1na2vs0mg"},{"bike_id":"bb50bd2a-e9d2-4da1-ba78-7e5b23b1a722","system_id":"levelo_inurba_marseille","lat":43.29973,"lon":5.371769,"is_reserved":false,"is_disabled":false,"rental_uris":{"android":"levelo://app?vid=bb50bd2a-e9d2-4da1-ba78-7e5b23b1a722","ios":"levelo://app?vid=bb50bd2a-e9d2-4da1-ba78-7e5b23b1a722"},"vehicle_type_id":"4","last_reported":1762153871,"current_range_meters":17200,"station_id":"ce4bgr92rcd13ifvqc7g","pricing_plan_id":"cebpf4jnsgd1na2vs0mg"},{"bike_id":"e8adea7e-0a90-49fd-b3a2-32134cae9db0","system_id":"levelo_inurba_marseille","lat":43.211897,"lon":5.350778,"is_reserved":false,"is_disabled":false,"rental_uris":{"android":"levelo://app?vid=e8adea7e-0a90-49fd-b3a2-32134cae9db0","ios":"levelo://app?vid=e8adea7e-0a90-49fd-b3a2-32134cae9db0"},"vehicle_type_id":"4","last_reported":1762153871,"current_range_meters":17200,"station_id":"","pricing_plan_id":"cebpf4jnsgd1na2vs0mg"},{"bike_id":"3cd2f927-0835-42bc-85ad-34491518ef67","system_id":"levelo_inurba_marseille","lat":43.21745,"lon":5.34606,"is_reserved":false,"is_disabled":false,"rental_uris":{"android":"levelo://app?vid=3cd2f927-0835-42bc-85ad-34491518ef67","ios":"levelo://app?vid=3cd2f927-0835-42bc-85ad-34491518ef67"},"vehicle_type_id":"4","last_reported":1762153871,"current_range_meters":17200,"station_id":"","pricing_plan_id":"cebpf4jnsgd1na2vs0mg"},{"bike_id":"baa49b4a-0bfe-4d2f-bbe0-661430ed27c3","system_id":"levelo_inurba_marseille","lat":43.30902,"lon":5.36852,"is_reserved":false,"is_disabled":false,"rental_uris":{"android":"levelo://app?vid=baa49b4a-0bfe-4d2f-bbe0-661430ed27c3","ios":"levelo://app?vid=baa49b4a-0bfe-4d2f-bbe0-661430ed27c3"},"vehicle_type_id":"4","last_reported":1762153871,"current_range_meters":17200,"station_id":"ce4bgn92rcd13ifvqbvg","pricing_plan_id":"cebpf4jnsgd1na2vs0mg"},{"bike_id":"d94ca6ab-7041-4254-b4dd-72eff06311ad","system_id":"levelo_inurba_marseille","lat":43.28481,"lon":5.38422,"is_reserved":false,"is_disabled":false,"rental_uris":{"android":"levelo://app?vid=d94ca6ab-7041-4254-b4dd-72eff06311ad","ios":"levelo://app?vid=d94ca6ab-7041-4254-b4dd-72eff06311ad"},"vehicle_type_id":"4","last_reported":1762153871,"current_range_meters":17200,"station_id":"ce4bh512rcd13ifvqe3g","pricing_plan_id":"cebpf4jnsgd1na2vs0mg"},{"bike_id":"a8d0be4c-3e38-4247-b462-6e35f9043fea","system_id":"levelo_inurba_marseille","lat":43.25702,"lon":5.41128,"is_reserved":false,"is_disabled":true,"rental_uris":{"android":"levelo://app?vid=a8d0be4c-3e38-4247-b462-6e35f9043fea","ios":"levelo://app?vid=a8d0be4c-3e38-4247-b462-6e35f9043fea"},"vehicle_type_id":"4","last_reported":1762153871,"current_range_meters":17200,"station_id":"ce4bhkp2rcd13ifvqgd0","pricing_plan_id":"cebpf4jnsgd1na2vs0mg"},{"bike_id":"37843105-62c4-4d82-bee6-44395fbbf429","system_id":"levelo_inurba_marseille","lat":43.24559,"lon":5.416148,"is_reserved":false,"is_disabled":false,"rental_uris":{"android":"levelo://app?vid=37843105-62c4-4d82-bee6-44395fbbf429","ios":"levelo://app?vid=37843105-62c4-4d82-bee6-44395fbbf429"},"vehicle_type_id":"4","last_reported":1762153871,"current_range_meters":17200,"station_id":"","pricing_plan_id":"cebpf4jnsgd1na2vs0mg"},{"bike_id":"8e743caa-1b36-4f58-88df-2f725434cf78","system_id":"levelo_inurba_marseille","lat":43.26704,"lon":5.41206,"is_reserved":false,"is_disabled":false,"rental_uris":{"android":"levelo://app?vid=8e743caa-1b36-4f58-88df-2f725434cf78","ios":"levelo://app?vid=8e743caa-1b36-4f58-88df-2f725434cf78"},"vehicle_type_id":"4","last_reported":1762153871,"current_range_meters":17200,"station_id":"","pricing_plan_id":"cebpf4jnsgd1na2vs0mg"},{"bike_id":"51bf3cb7-470c-477e-9e73-8c565aae20cb","system_id":"levelo_inurba_marseille","lat":43.29756,"lon":5.42692,"is_reserved":false,"is_disabled":false,"rental_uris":{"android":"levelo://app?vid=51bf3cb7-470c-477e-9e73-8c565aae20cb","ios":"levelo://app?vid=51bf3cb7-470c-477e-9e73-8c565aae20cb"},"vehicle_type_id":"4","last_reported":1762153871,"current_range_meters":17600,"station_id":"","pricing_plan_id":"cebpf4jnsgd1na2vs0mg"},{"bike_id":"13edc904-d156-429d-9c79-1fe14fbd59d0","system_id":"levelo_inurba_marseille","lat":43.23154,"lon":5.43707,"is_reserved":false,"is_disabled":false,"rental_uris":{"android":"levelo://app?vid=13edc904-d156-429d-9c79-1fe14fbd59d0","ios":"levelo://app?vid=13edc904-d156-429d-9c79-1fe14fbd59d0"},"vehicle_type_id":"4","last_reported":1762153871,"current_range_meters":17600,"station_id":"ce4bhmp2rcd13ifvqgog","pricing_plan_id":"cebpf4jnsgd1na2vs0mg"},{"bike_id":"258d165a-449f-4925-b56e-beae8f481fb2","system_id":"levelo_inurba_marseille","lat":43.284004,"lon":5.349923,"is_reserved":false,"is_disabled":true,"rental_uris":{"android":"levelo://app?vid=258d165a-449f-4925-b56e-beae8f481fb2","ios":"levelo://app?vid=258d165a-449f-4925-b56e-beae8f481fb2"},"vehicle_type_id":"4","last_reported":1762153871,"current_range_meters":17600,"station_id":"","pricing_plan_id":"cebpf4jnsgd1na2vs0mg"},{"bike_id":"7b3ada81-0ff3-49e9-8471-eb10e4c9b7f2","system_id":"levelo_inurba_marseille","lat":43.290189,"lon":5.381331,"is_reserved":false,"is_disabled":false,"rental_uris":{"android":"levelo://app?vid=7b3ada81-0ff3-49e9-8471-eb10e4c9b7f2","ios":"levelo://app?vid=7b3ada81-0ff3-49e9-8471-eb10e4c9b7f2"},"vehicle_type_id":"4","last_reported":1762153871,"current_range_meters":17600,"station_id":"ce4bh4p2rcd13ifvqe1g","pricing_plan_id":"cebpf4jnsgd1na2vs0mg"},{"bike_id":"7266ed46-2381-404a-9c13-a92f05fa953b","system_id":"levelo_inurba_marseille","lat":43.337608,"lon":5.374329,"is_reserved":false,"is_disabled":false,"rental_uris":{"android":"levelo://app?vid=7266ed46-2381-404a-9c13-a92f05fa953b","ios":"levelo://app?vid=7266ed46-2381-404a-9c13-a92f05fa953b"},"vehicle_type_id":"4","last_reported":1762153871,"current_range_meters":17600,"station_id":"","pricing_plan_id":"cebpf4jnsgd1na2vs0mg"},{"bike_id":"f234ad47-0901-40bf-a06a-e46adc6b907e","system_id":"levelo_inurba_marseille","lat":43.23161,"lon":5.3562,"is_reserved":false,"is_disabled":true,"rental_uris":{"android":"levelo://app?vid=f234ad47-0901-40bf-a06a-e46adc6b907e","ios":"levelo://app?vid=f234ad47-0901-40bf-a06a-e46adc6b907e"},"vehicle_type_id":"4","last_reported":1762153871,"current_range_meters":17600,"station_id":"","pricing_plan_id":"cebpf4jnsgd1na2vs0mg"},{"bike_id":"06468832-71f8-495e-80da-39ef1deb9d8b","system_id":"levelo_inurba_marseille","lat":43.30235,"lon":5.39466,"is_reserved":false,"is_disabled":false,"rental_uris":{"android":"levelo://app?vid=06468832-71f8-495e-80da-39ef1deb9d8b","ios":"levelo://app?vid=06468832-71f8-495e-80da-39ef1deb9d8b"},"vehicle_type_id":"4","last_reported":1762153871,"current_range_meters":17600,"station_id":"ce4bh0p2rcd13ifvqd70","pricing_plan_id":"cebpf4jnsgd1na2vs0mg"},{"bike_id":"7ee96323-da9c-4c60-bbe4-d1054018acab","system_id":"levelo_inurba_marseille","lat":43.30532,"lon":5.36716,"is_reserved":false,"is_disabled":true,"rental_uris":{"android":"levelo://app?vid=7ee96323-da9c-4c60-bbe4-d1054018acab","ios":"levelo://app?vid=7ee96323-da9c-4c60-bbe4-d1054018acab"},"vehicle_type_id":"4","last_reported":1762153871,"current_range_meters":17600,"station_id":"","pricing_plan_id":"cebpf4jnsgd1na2vs0mg"},{"bike_id":"27ccecc2-04fe-4328-a03e-09458d1cfc0d","system_id":"levelo_inurba_marseille","lat":43.265921,"lon":5.390089,"is_reserved":false,"is_disabled":false,"rental_uris":{"android":"levelo://app?vid=27ccecc2-04fe-4328-a03e-09458d1cfc0d","ios":"levelo://app?vid=27ccecc2-04fe-4328-a03e-09458d1cfc0d"},"vehicle_type_id":"4","last_reported":1762153871,"current_range_meters":18000,"station_id":"ce4bhe12rcd13ifvqf30","pricing_plan_id":"cebpf4jnsgd1na2vs0mg"},{"bike_id":"f88a9c63-abae-4445-82ef-93cc71bc5a70","system_id":"levelo_inurba_marseille","lat":43.277139,"lon":5.388966,"is_reserved":false,"is_disabled":false,"rental_uris":{"android":"levelo://app?vid=f88a9c63-abae-4445-82ef-93cc71bc5a70","ios":"levelo://app?vid=f88a9c63-abae-4445-82ef-93cc71bc5a70"},"vehicle_type_id":"4","last_reported":1762153871,"current_range_meters":18000,"station_id":"ce4bhi12rcd13ifvqfo0","pricing_plan_id":"cebpf4jnsgd1na2vs0mg"},{"bike_id":"e7082184-bbd2-4e79-aba1-51e0892249ea","system_id":"levelo_inurba_marseille","lat":43.27058,"lon":5.42259,"is_reserved":false,"is_disabled":false,"rental_uris":{"android":"levelo://app?vid=e7082184-bbd2-4e79-aba1-51e0892249ea","ios":"levelo://app?vid=e7082184-bbd2-4e79-aba1-51e0892249ea"},"vehicle_type_id":"4","last_reported":1762153871,"current_range_meters":18000,"station_id":"ce4bhk92rcd13ifvqgb0","pricing_plan_id":"cebpf4jnsgd1na2vs0mg"},{"bike_id":"b9b34497-8d5a-4f5c-9b99-770c5f20294b","system_id":"levelo_inurba_marseille","lat":43.30193,"lon":5.36644,"is_reserved":false,"is_disabled":false,"rental_uris":{"android":"levelo://app?vid=b9b34497-8d5a-4f5c-9b99-770c5f20294b","ios":"levelo://app?vid=b9b34497-8d5a-4f5c-9b99-770c5f20294b"},"vehicle_type_id":"4","last_reported":1762153871,"current_range_meters":18000,"station_id":"ce4bgrh2rcd13ifvqc8g","pricing_plan_id":"cebpf4jnsgd1na2vs0mg"},{"bike_id":"484598d9-3fc7-4dd6-8292-f3adcea97683","system_id":"levelo_inurba_marseille","lat":43.32363,"lon":5.36764,"is_reserved":false,"is_disabled":false,"rental_uris":{"android":"levelo://app?vid=484598d9-3fc7-4dd6-8292-f3adcea97683","ios":"levelo://app?vid=484598d9-3fc7-4dd6-8292-f3adcea97683"},"vehicle_type_id":"4","last_reported":1762153871,"current_range_meters":18000,"station_id":"ce4bhsh2rcd13ifvqi2g","pricing_plan_id":"cebpf4jnsgd1na2vs0mg"},{"bike_id":"9c182b54-339d-4510-b32d-4fa9957bf129","system_id":"levelo_inurba_marseille","lat":43.24066,"lon":5.37771,"is_reserved":false,"is_disabled":false,"rental_uris":{"android":"levelo://app?vid=9c182b54-339d-4510-b32d-4fa9957bf129","ios":"levelo://app?vid=9c182b54-339d-4510-b32d-4fa9957bf129"},"vehicle_type_id":"4","last_reported":1762153871,"current_range_meters":18000,"station_id":"ce4bhnp2rcd13ifvqgvg","pricing_plan_id":"cebpf4jnsgd1na2vs0mg"},{"bike_id":"20e70bf0-b6e6-4e7a-add8-8e0c8d57fdb0","system_id":"levelo_inurba_marseille","lat":43.24745,"lon":5.40682,"is_reserved":false,"is_disabled":false,"rental_uris":{"android":"levelo://app?vid=20e70bf0-b6e6-4e7a-add8-8e0c8d57fdb0","ios":"levelo://app?vid=20e70bf0-b6e6-4e7a-add8-8e0c8d57fdb0"},"vehicle_type_id":"4","last_reported":1762153871,"current_range_meters":18800,"station_id":"","pricing_plan_id":"cebpf4jnsgd1na2vs0mg"},{"bike_id":"cba0e3be-ce41-49be-ad90-66c4fd13caf5","system_id":"levelo_inurba_marseille","lat":43.25934,"lon":5.40904,"is_reserved":false,"is_disabled":false,"rental_uris":{"android":"levelo://app?vid=cba0e3be-ce41-49be-ad90-66c4fd13caf5","ios":"levelo://app?vid=cba0e3be-ce41-49be-ad90-66c4fd13caf5"},"vehicle_type_id":"4","last_reported":1762153871,"current_range_meters":18800,"station_id":"ce4bhm92rcd13ifvqglg","pricing_plan_id":"cebpf4jnsgd1na2vs0mg"},{"bike_id":"5cfd3702-7691-45d0-bc4c-dd48583392da","system_id":"levelo_inurba_marseille","lat":43.28949,"lon":5.396356,"is_reserved":false,"is_disabled":true,"rental_uris":{"android":"levelo://app?vid=5cfd3702-7691-45d0-bc4c-dd48583392da","ios":"levelo://app?vid=5cfd3702-7691-45d0-bc4c-dd48583392da"},"vehicle_type_id":"4","last_reported":1762153871,"current_range_meters":18800,"station_id":"ce4bh3h2rcd13ifvqdn0","pricing_plan_id":"cebpf4jnsgd1na2vs0mg"},{"bike_id":"b2737500-4dea-476f-aff3-24f8b3bdd233","system_id":"levelo_inurba_marseille","lat":43.30059,"lon":5.37865,"is_reserved":false,"is_disabled":true,"rental_uris":{"android":"levelo://app?vid=b2737500-4dea-476f-aff3-24f8b3bdd233","ios":"levelo://app?vid=b2737500-4dea-476f-aff3-24f8b3bdd233"},"vehicle_type_id":"4","last_reported":1762153871,"current_range_meters":18800,"station_id":"","pricing_plan_id":"cebpf4jnsgd1na2vs0mg"},{"bike_id":"9aa8e647-5d35-4da4-a0d7-9280e13a02c7","system_id":"levelo_inurba_marseille","lat":43.28149,"lon":5.42656,"is_reserved":false,"is_disabled":false,"rental_uris":{"android":"levelo://app?vid=9aa8e647-5d35-4da4-a0d7-9280e13a02c7","ios":"levelo://app?vid=9aa8e647-5d35-4da4-a0d7-9280e13a02c7"},"vehicle_type_id":"4","last_reported":1762153871,"current_range_meters":18800,"station_id":"ce4bhnh2rcd13ifvqgug","pricing_plan_id":"cebpf4jnsgd1na2vs0mg"},{"bike_id":"e63cb36e-d726-47ba-9669-f6bfde566583","system_id":"levelo_inurba_marseille","lat":43.27992,"lon":5.40025,"is_reserved":false,"is_disabled":false,"rental_uris":{"android":"levelo://app?vid=e63cb36e-d726-47ba-9669-f6bfde566583","ios":"levelo://app?vid=e63cb36e-d726-47ba-9669-f6bfde566583"},"vehicle_type_id":"4","last_reported":1762153871,"current_range_meters":18800,"station_id":"ce4bho92rcd13ifvqh4g","pricing_plan_id":"cebpf4jnsgd1na2vs0mg"},{"bike_id":"45178dd9-b960-4161-871b-52bd5ff2bc66","system_id":"levelo_inurba_marseille","lat":43.25521,"lon":5.37656,"is_reserved":false,"is_disabled":false,"rental_uris":{"android":"levelo://app?vid=45178dd9-b960-4161-871b-52bd5ff2bc66","ios":"levelo://app?vid=45178dd9-b960-4161-871b-52bd5ff2bc66"},"vehicle_type_id":"4","last_reported":1762153871,"current_range_meters":18800,"station_id":"ce4bhh12rcd13ifvqff0","pricing_plan_id":"cebpf4jnsgd1na2vs0mg"},{"bike_id":"9c6ca871-f5b0-414f-a25e-0027df3ab686","system_id":"levelo_inurba_marseille","lat":43.24626,"lon":5.43151,"is_reserved":false,"is_disabled":false,"rental_uris":{"android":"levelo://app?vid=9c6ca871-f5b0-414f-a25e-0027df3ab686","ios":"levelo://app?vid=9c6ca871-f5b0-414f-a25e-0027df3ab686"},"vehicle_type_id":"4","last_reported":1762153871,"current_range_meters":18800,"station_id":"st_d2m6c4gdas8pm72e190g","pricing_plan_id":"cebpf4jnsgd1na2vs0mg"},{"bike_id":"0c8bf455-07de-49e0-947a-3df80e8d46ac","system_id":"levelo_inurba_marseille","lat":43.30549,"lon":5.38427,"is_reserved":false,"is_disabled":false,"rental_uris":{"android":"levelo://app?vid=0c8bf455-07de-49e0-947a-3df80e8d46ac","ios":"levelo://app?vid=0c8bf455-07de-49e0-947a-3df80e8d46ac"},"vehicle_type_id":"4","last_reported":1762153871,"current_range_meters":18800,"station_id":"ce4bgg92rcd13ifvqb30","pricing_plan_id":"cebpf4jnsgd1na2vs0mg"},{"bike_id":"90afe9a9-fc57-4a21-989a-fefb78114232","system_id":"levelo_inurba_marseille","lat":43.30164,"lon":5.38094,"is_reserved":false,"is_disabled":false,"rental_uris":{"android":"levelo://app?vid=90afe9a9-fc57-4a21-989a-fefb78114232","ios":"levelo://app?vid=90afe9a9-fc57-4a21-989a-fefb78114232"},"vehicle_type_id":"4","last_reported":1762153871,"current_range_meters":18800,"station_id":"ce4bgjp2rcd13ifvqbh0","pricing_plan_id":"cebpf4jnsgd1na2vs0mg"},{"bike_id":"b4dde6e3-ddc1-4617-9a9a-ccef2987eb1d","system_id":"levelo_inurba_marseille","lat":43.30163,"lon":5.38093,"is_reserved":false,"is_disabled":false,"rental_uris":{"android":"levelo://app?vid=b4dde6e3-ddc1-4617-9a9a-ccef2987eb1d","ios":"levelo://app?vid=b4dde6e3-ddc1-4617-9a9a-ccef2987eb1d"},"vehicle_type_id":"4","last_reported":1762153871,"current_range_meters":19200,"station_id":"ce4bgjp2rcd13ifvqbh0","pricing_plan_id":"cebpf4jnsgd1na2vs0mg"},{"bike_id":"537853de-5b13-4b31-b77e-2bcf0a337233","system_id":"levelo_inurba_marseille","lat":43.26497,"lon":5.39539,"is_reserved":false,"is_disabled":false,"rental_uris":{"android":"levelo://app?vid=537853de-5b13-4b31-b77e-2bcf0a337233","ios":"levelo://app?vid=537853de-5b13-4b31-b77e-2bcf0a337233"},"vehicle_type_id":"4","last_reported":1762153871,"current_range_meters":19200,"station_id":"ce4bhi12rcd13ifvqfq0","pricing_plan_id":"cebpf4jnsgd1na2vs0mg"},{"bike_id":"c2355dc4-632d-4ba0-8bc2-f0457cf83d4c","system_id":"levelo_inurba_marseille","lat":43.292278,"lon":5.360552,"is_reserved":false,"is_disabled":false,"rental_uris":{"android":"levelo://app?vid=c2355dc4-632d-4ba0-8bc2-f0457cf83d4c","ios":"levelo://app?vid=c2355dc4-632d-4ba0-8bc2-f0457cf83d4c"},"vehicle_type_id":"4","last_reported":1762153871,"current_range_meters":19200,"station_id":"","pricing_plan_id":"cebpf4jnsgd1na2vs0mg"},{"bike_id":"e5b0cdc5-83d2-4169-8762-fec082c6afd4","system_id":"levelo_inurba_marseille","lat":43.288601,"lon":5.4252,"is_reserved":false,"is_disabled":false,"rental_uris":{"android":"levelo://app?vid=e5b0cdc5-83d2-4169-8762-fec082c6afd4","ios":"levelo://app?vid=e5b0cdc5-83d2-4169-8762-fec082c6afd4"},"vehicle_type_id":"4","last_reported":1762153871,"current_range_meters":19200,"station_id":"st_d3b462108ojc7389ooeg","pricing_plan_id":"cebpf4jnsgd1na2vs0mg"},{"bike_id":"b792aa60-3e96-4534-bbc2-bcb4007102ba","system_id":"levelo_inurba_marseille","lat":43.232366,"lon":5.358889,"is_reserved":false,"is_disabled":false,"rental_uris":{"android":"levelo://app?vid=b792aa60-3e96-4534-bbc2-bcb4007102ba","ios":"levelo://app?vid=b792aa60-3e96-4534-bbc2-bcb4007102ba"},"vehicle_type_id":"4","last_reported":1762153871,"current_range_meters":19200,"station_id":"","pricing_plan_id":"cebpf4jnsgd1na2vs0mg"},{"bike_id":"bc49af1b-00fb-458d-a85a-c9d31a51aef1","system_id":"levelo_inurba_marseille","lat":43.30426,"lon":5.39747,"is_reserved":false,"is_disabled":false,"rental_uris":{"android":"levelo://app?vid=bc49af1b-00fb-458d-a85a-c9d31a51aef1","ios":"levelo://app?vid=bc49af1b-00fb-458d-a85a-c9d31a51aef1"},"vehicle_type_id":"4","last_reported":1762153871,"current_range_meters":19200,"station_id":"ce4bh092rcd13ifvqd20","pricing_plan_id":"cebpf4jnsgd1na2vs0mg"},{"bike_id":"e3b21cd4-4b51-47a5-a49c-78c85c27336d","system_id":"levelo_inurba_marseille","lat":43.25938,"lon":5.4089,"is_reserved":false,"is_disabled":false,"rental_uris":{"android":"levelo://app?vid=e3b21cd4-4b51-47a5-a49c-78c85c27336d","ios":"levelo://app?vid=e3b21cd4-4b51-47a5-a49c-78c85c27336d"},"vehicle_type_id":"4","last_reported":1762153871,"current_range_meters":19200,"station_id":"ce4bhm92rcd13ifvqglg","pricing_plan_id":"cebpf4jnsgd1na2vs0mg"},{"bike_id":"c2ee7a70-3faa-4d49-97d9-b5b236d4da19","system_id":"levelo_inurba_marseille","lat":43.28227,"lon":5.39055,"is_reserved":false,"is_disabled":false,"rental_uris":{"android":"levelo://app?vid=c2ee7a70-3faa-4d49-97d9-b5b236d4da19","ios":"levelo://app?vid=c2ee7a70-3faa-4d49-97d9-b5b236d4da19"},"vehicle_type_id":"4","last_reported":1762153871,"current_range_meters":19200,"station_id":"ce4bhn92rcd13ifvqgsg","pricing_plan_id":"cebpf4jnsgd1na2vs0mg"},{"bike_id":"744c9faa-d6dc-43e3-a36e-112e67c000d1","system_id":"levelo_inurba_marseille","lat":43.25724,"lon":5.41101,"is_reserved":false,"is_disabled":true,"rental_uris":{"android":"levelo://app?vid=744c9faa-d6dc-43e3-a36e-112e67c000d1","ios":"levelo://app?vid=744c9faa-d6dc-43e3-a36e-112e67c000d1"},"vehicle_type_id":"4","last_reported":1762153871,"current_range_meters":19200,"station_id":"ce4bhkp2rcd13ifvqgd0","pricing_plan_id":"cebpf4jnsgd1na2vs0mg"},{"bike_id":"f0f240de-3f41-4242-8f07-ff905bd769ec","system_id":"levelo_inurba_marseille","lat":43.30175,"lon":5.38083,"is_reserved":false,"is_disabled":false,"rental_uris":{"android":"levelo://app?vid=f0f240de-3f41-4242-8f07-ff905bd769ec","ios":"levelo://app?vid=f0f240de-3f41-4242-8f07-ff905bd769ec"},"vehicle_type_id":"4","last_reported":1762153871,"current_range_meters":19200,"station_id":"ce4bgjp2rcd13ifvqbh0","pricing_plan_id":"cebpf4jnsgd1na2vs0mg"},{"bike_id":"0e4756ef-8d65-4a4b-b4d1-662246103808","system_id":"levelo_inurba_marseille","lat":43.28407,"lon":5.34986,"is_reserved":false,"is_disabled":true,"rental_uris":{"android":"levelo://app?vid=0e4756ef-8d65-4a4b-b4d1-662246103808","ios":"levelo://app?vid=0e4756ef-8d65-4a4b-b4d1-662246103808"},"vehicle_type_id":"4","last_reported":1762153871,"current_range_meters":19200,"station_id":"ce4bhbh2rcd13ifvqepg","pricing_plan_id":"cebpf4jnsgd1na2vs0mg"},{"bike_id":"aa57417c-8bed-4ac9-901e-05a2c4cc9773","system_id":"levelo_inurba_marseille","lat":43.246317,"lon":5.43142,"is_reserved":false,"is_disabled":false,"rental_uris":{"android":"levelo://app?vid=aa57417c-8bed-4ac9-901e-05a2c4cc9773","ios":"levelo://app?vid=aa57417c-8bed-4ac9-901e-05a2c4cc9773"},"vehicle_type_id":"4","last_reported":1762153871,"current_range_meters":19600,"station_id":"st_d2m6c4gdas8pm72e190g","pricing_plan_id":"cebpf4jnsgd1na2vs0mg"},{"bike_id":"5d9073fa-c98a-4910-aab6-d0d16da730b2","system_id":"levelo_inurba_marseille","lat":43.31753,"lon":5.39048,"is_reserved":false,"is_disabled":false,"rental_uris":{"android":"levelo://app?vid=5d9073fa-c98a-4910-aab6-d0d16da730b2","ios":"levelo://app?vid=5d9073fa-c98a-4910-aab6-d0d16da730b2"},"vehicle_type_id":"4","last_reported":1762153871,"current_range_meters":19600,"station_id":"ce4bhqp2rcd13ifvqhng","pricing_plan_id":"cebpf4jnsgd1na2vs0mg"},{"bike_id":"14b85bc8-e0c7-4f84-9243-26bd3bb154c0","system_id":"levelo_inurba_marseille","lat":43.31161,"lon":5.39342,"is_reserved":false,"is_disabled":false,"rental_uris":{"android":"levelo://app?vid=14b85bc8-e0c7-4f84-9243-26bd3bb154c0","ios":"levelo://app?vid=14b85bc8-e0c7-4f84-9243-26bd3bb154c0"},"vehicle_type_id":"4","last_reported":1762153871,"current_range_meters":19600,"station_id":"","pricing_plan_id":"cebpf4jnsgd1na2vs0mg"},{"bike_id":"978ae0d5-a713-47b7-9ffa-d1a725f0a46f","system_id":"levelo_inurba_marseille","lat":43.30303,"lon":5.36915,"is_reserved":false,"is_disabled":true,"rental_uris":{"android":"levelo://app?vid=978ae0d5-a713-47b7-9ffa-d1a725f0a46f","ios":"levelo://app?vid=978ae0d5-a713-47b7-9ffa-d1a725f0a46f"},"vehicle_type_id":"4","last_reported":1762153871,"current_range_meters":19600,"station_id":"ce4bgqh2rcd13ifvqc5g","pricing_plan_id":"cebpf4jnsgd1na2vs0mg"},{"bike_id":"89cf87b0-cd91-4cff-8d8c-29eff9a2ff58","system_id":"levelo_inurba_marseille","lat":43.30146,"lon":5.38086,"is_reserved":false,"is_disabled":false,"rental_uris":{"android":"levelo://app?vid=89cf87b0-cd91-4cff-8d8c-29eff9a2ff58","ios":"levelo://app?vid=89cf87b0-cd91-4cff-8d8c-29eff9a2ff58"},"vehicle_type_id":"4","last_reported":1762153871,"current_range_meters":19600,"station_id":"ce4bgjp2rcd13ifvqbh0","pricing_plan_id":"cebpf4jnsgd1na2vs0mg"},{"bike_id":"c95db287-9d12-45a9-bfc8-a2dfe95c4ab3","system_id":"levelo_inurba_marseille","lat":43.29488,"lon":5.43307,"is_reserved":false,"is_disabled":false,"rental_uris":{"android":"levelo://app?vid=c95db287-9d12-45a9-bfc8-a2dfe95c4ab3","ios":"levelo://app?vid=c95db287-9d12-45a9-bfc8-a2dfe95c4ab3"},"vehicle_type_id":"4","last_reported":1762153871,"current_range_meters":19600,"station_id":"st_d3j5ugp08ojc73fj9d10","pricing_plan_id":"cebpf4jnsgd1na2vs0mg"},{"bike_id":"f8a00c60-56bb-47f7-ad0c-170f2e65ebf8","system_id":"levelo_inurba_marseille","lat":43.239641,"lon":5.36628,"is_reserved":false,"is_disabled":false,"rental_uris":{"android":"levelo://app?vid=f8a00c60-56bb-47f7-ad0c-170f2e65ebf8","ios":"levelo://app?vid=f8a00c60-56bb-47f7-ad0c-170f2e65ebf8"},"vehicle_type_id":"4","last_reported":1762153871,"current_range_meters":19600,"station_id":"ce4bhi12rcd13ifvqfp0","pricing_plan_id":"cebpf4jnsgd1na2vs0mg"},{"bike_id":"b773bce2-368d-4ff9-99a2-fe4a03716bc0","system_id":"levelo_inurba_marseille","lat":43.32097,"lon":5.36801,"is_reserved":false,"is_disabled":false,"rental_uris":{"android":"levelo://app?vid=b773bce2-368d-4ff9-99a2-fe4a03716bc0","ios":"levelo://app?vid=b773bce2-368d-4ff9-99a2-fe4a03716bc0"},"vehicle_type_id":"4","last_reported":1762153871,"current_range_meters":19600,"station_id":"ce4bhrh2rcd13ifvqhug","pricing_plan_id":"cebpf4jnsgd1na2vs0mg"},{"bike_id":"417f2e6e-1eac-4051-94d3-b7cb95ea1a72","system_id":"levelo_inurba_marseille","lat":43.31999,"lon":5.37631,"is_reserved":false,"is_disabled":false,"rental_uris":{"android":"levelo://app?vid=417f2e6e-1eac-4051-94d3-b7cb95ea1a72","ios":"levelo://app?vid=417f2e6e-1eac-4051-94d3-b7cb95ea1a72"},"vehicle_type_id":"4","last_reported":1762153871,"current_range_meters":19600,"station_id":"","pricing_plan_id":"cebpf4jnsgd1na2vs0mg"},{"bike_id":"c2c41c56-053c-4889-88df-57fa33106c1d","system_id":"levelo_inurba_marseille","lat":43.30797,"lon":5.40591,"is_reserved":false,"is_disabled":false,"rental_uris":{"android":"levelo://app?vid=c2c41c56-053c-4889-88df-57fa33106c1d","ios":"levelo://app?vid=c2c41c56-053c-4889-88df-57fa33106c1d"},"vehicle_type_id":"4","last_reported":1762153871,"current_range_meters":19600,"station_id":"","pricing_plan_id":"cebpf4jnsgd1na2vs0mg"},{"bike_id":"822c328b-6288-4111-8d02-9fd184fd3387","system_id":"levelo_inurba_marseille","lat":43.304649,"lon":5.37893,"is_reserved":false,"is_disabled":false,"rental_uris":{"android":"levelo://app?vid=822c328b-6288-4111-8d02-9fd184fd3387","ios":"levelo://app?vid=822c328b-6288-4111-8d02-9fd184fd3387"},"vehicle_type_id":"4","last_reported":1762153871,"current_range_meters":19600,"station_id":"ce4bgup2rcd13ifvqcn0","pricing_plan_id":"cebpf4jnsgd1na2vs0mg"},{"bike_id":"396983e8-3b9e-4e95-b7ff-907cace2ea18","system_id":"levelo_inurba_marseille","lat":43.24237,"lon":5.39322,"is_reserved":false,"is_disabled":false,"rental_uris":{"android":"levelo://app?vid=396983e8-3b9e-4e95-b7ff-907cace2ea18","ios":"levelo://app?vid=396983e8-3b9e-4e95-b7ff-907cace2ea18"},"vehicle_type_id":"4","last_reported":1762153871,"current_range_meters":20000,"station_id":"","pricing_plan_id":"cebpf4jnsgd1na2vs0mg"},{"bike_id":"9b44adbb-d900-4f74-8654-3c56d1fea0d2","system_id":"levelo_inurba_marseille","lat":43.3254,"lon":5.41428,"is_reserved":false,"is_disabled":false,"rental_uris":{"android":"levelo://app?vid=9b44adbb-d900-4f74-8654-3c56d1fea0d2","ios":"levelo://app?vid=9b44adbb-d900-4f74-8654-3c56d1fea0d2"},"vehicle_type_id":"4","last_reported":1762153871,"current_range_meters":20000,"station_id":"ce4bhq12rcd13ifvqhhg","pricing_plan_id":"cebpf4jnsgd1na2vs0mg"},{"bike_id":"35e36c38-b87c-48cd-a200-236c383b6949","system_id":"levelo_inurba_marseille","lat":43.26227,"lon":5.40451,"is_reserved":false,"is_disabled":false,"rental_uris":{"android":"levelo://app?vid=35e36c38-b87c-48cd-a200-236c383b6949","ios":"levelo://app?vid=35e36c38-b87c-48cd-a200-236c383b6949"},"vehicle_type_id":"4","last_reported":1762153871,"current_range_meters":20400,"station_id":"ce4bhmh2rcd13ifvqgmg","pricing_plan_id":"cebpf4jnsgd1na2vs0mg"},{"bike_id":"7f7e3e83-94f9-421b-9747-b01b8381a93b","system_id":"levelo_inurba_marseille","lat":43.29496,"lon":5.3752,"is_reserved":false,"is_disabled":true,"rental_uris":{"android":"levelo://app?vid=7f7e3e83-94f9-421b-9747-b01b8381a93b","ios":"levelo://app?vid=7f7e3e83-94f9-421b-9747-b01b8381a93b"},"vehicle_type_id":"4","last_reported":1762153871,"current_range_meters":20400,"station_id":"ce4bgkp2rcd13ifvqbmg","pricing_plan_id":"cebpf4jnsgd1na2vs0mg"},{"bike_id":"5d17d995-8733-4614-b7a4-37078653d06e","system_id":"levelo_inurba_marseille","lat":43.2737,"lon":5.36259,"is_reserved":false,"is_disabled":false,"rental_uris":{"android":"levelo://app?vid=5d17d995-8733-4614-b7a4-37078653d06e","ios":"levelo://app?vid=5d17d995-8733-4614-b7a4-37078653d06e"},"vehicle_type_id":"4","last_reported":1762153871,"current_range_meters":20400,"station_id":"ce4bhbh2rcd13ifvqeo0","pricing_plan_id":"cebpf4jnsgd1na2vs0mg"},{"bike_id":"01d1b93a-9231-419c-96d9-c264cb9d81e1","system_id":"levelo_inurba_marseille","lat":43.32086,"lon":5.36776,"is_reserved":false,"is_disabled":false,"rental_uris":{"android":"levelo://app?vid=01d1b93a-9231-419c-96d9-c264cb9d81e1","ios":"levelo://app?vid=01d1b93a-9231-419c-96d9-c264cb9d81e1"},"vehicle_type_id":"4","last_reported":1762153871,"current_range_meters":20400,"station_id":"ce4bhrh2rcd13ifvqhug","pricing_plan_id":"cebpf4jnsgd1na2vs0mg"},{"bike_id":"75214922-1e7d-4be3-84ae-23b8d8279199","system_id":"levelo_inurba_marseille","lat":43.32468,"lon":5.36589,"is_reserved":false,"is_disabled":false,"rental_uris":{"android":"levelo://app?vid=75214922-1e7d-4be3-84ae-23b8d8279199","ios":"levelo://app?vid=75214922-1e7d-4be3-84ae-23b8d8279199"},"vehicle_type_id":"4","last_reported":1762153871,"current_range_meters":20400,"station_id":"ce4bhs12rcd13ifvqhvg","pricing_plan_id":"cebpf4jnsgd1na2vs0mg"},{"bike_id":"493855c2-be51-41c7-9722-c62c137d07ec","system_id":"levelo_inurba_marseille","lat":43.231394,"lon":5.437408,"is_reserved":false,"is_disabled":false,"rental_uris":{"android":"levelo://app?vid=493855c2-be51-41c7-9722-c62c137d07ec","ios":"levelo://app?vid=493855c2-be51-41c7-9722-c62c137d07ec"},"vehicle_type_id":"4","last_reported":1762153871,"current_range_meters":20400,"station_id":"","pricing_plan_id":"cebpf4jnsgd1na2vs0mg"},{"bike_id":"b4d634a7-fd92-4bfd-a3ec-28810093309e","system_id":"levelo_inurba_marseille","lat":43.28176,"lon":5.38966,"is_reserved":false,"is_disabled":false,"rental_uris":{"android":"levelo://app?vid=b4d634a7-fd92-4bfd-a3ec-28810093309e","ios":"levelo://app?vid=b4d634a7-fd92-4bfd-a3ec-28810093309e"},"vehicle_type_id":"4","last_reported":1762153871,"current_range_meters":20400,"station_id":"","pricing_plan_id":"cebpf4jnsgd1na2vs0mg"},{"bike_id":"ca977048-1ab8-4d6a-ad24-c7cde47fb230","system_id":"levelo_inurba_marseille","lat":43.289833,"lon":5.378263,"is_reserved":false,"is_disabled":true,"rental_uris":{"android":"levelo://app?vid=ca977048-1ab8-4d6a-ad24-c7cde47fb230","ios":"levelo://app?vid=ca977048-1ab8-4d6a-ad24-c7cde47fb230"},