{"last_updated":1722168829,"ttl":30,"version":"2.2","data":{"bikes":[{"bike_id":"e3041082-3f0d-4fa1-a4c5-6b138b187c3a","system_id":"levelo_inurba_marseille","lat":43.314811,"lon":5.373103,"is_reserved":false,"is_disabled":false,"rental_uris":{"android":"levelo://app?vid=e3041082-3f0d-4fa1-a4c5-6b138b187c3a","ios":"levelo://app?vid=e3041082-3f0d-4fa1-a4c5-6b138b187c3a"},"vehicle_type_id":"4","last_reported":1722168829,"current_range_meters":15200,"station_id":"ce4bgt12rcd13ifvqcd0","pricing_plan_id":"cebpf4jnsgd1na2vs0mg"},{"bike_id":"978a0795-7438-4c64-9a6a-b1e426d188d6","system_id":"levelo_inurba_marseille","lat":43.317487,"lon":5.368708,"is_reserved":false,"is_disabled":false,"rental_uris":{"android":"levelo://app?vid=978a0795-7438-4c64-9a6a-b1e426d188d6","ios":"levelo://app?vid=978a0795-7438-4c64-9a6a-b1e426d188d6"},"vehicle_type_id":"4","last_reported":1722168829,"current_range_meters":2800,"station_id":"","pricing_plan_id":"cebpf4jnsgd1na2vs0mg"},{"bike_id":"e327e961-3445-4260-891a-aa936c896d28","system_id":"levelo_inurba_marseille","lat":43.314811,"lon":5.373103,"is_reserved":false,"is_disabled":false,"rental_uris":{"android":"levelo://app?vid=e327e961-3445-4260-891a-aa936c896d28","ios":"levelo://app?vid=e327e961-3445-4260-891a-aa936c896d28"},"vehicle_type_id":"4","last_reported":1722168829,"current_range_meters":31200,"station_id":"ce4bgt12rcd13ifvqcd0","pricing_plan_id":"cebpf4jnsgd1na2vs0mg"},{"bike_id":"e252bcc5-f8de-4b6c-8f2a-8f03a55d52d6","system_id":"levelo_inurba_marseille","lat":43.309039,"lon":5.371797,"is_reserved":false,"is_disabled":false,"rental_uris":{"android":"levelo://app?vid=e252bcc5-f8de-4b6c-8f2a-8f03a55d52d6","ios":"levelo://app?vid=e252bcc5-f8de-4b6c-8f2a-8f03a55d52d6"},"vehicle_type_id":"4","last_reported":1722168829,"current_range_meters":16400,"station_id":"ce4bguh2rcd13ifvqckg","pricing_plan_id":"cebpf4jnsgd1na2vs0mg"},{"bike_id":"63ed3249-e978-419b-a282-a6056fe45dff","system_id":"levelo_inurba_marseille","lat":43.305712,"lon":5.365641,"is_reserved":false,"is_disabled":false,"rental_uris":{"android":"levelo://app?vid=63ed3249-e978-419b-a282-a6056fe45dff","ios":"levelo://app?vid=63ed3249-e978-419b-a282-a6056fe45dff"},"vehicle_type_id":"4","last_reported":1722168829,"current_range_meters":19200,"station_id":"ce4bgs12rcd13ifvqcag","pricing_plan_id":"cebpf4jnsgd1na2vs0mg"},{"bike_id":"e31b7490-3e3e-448d-983c-d14bde2bf611","system_id":"levelo_inurba_marseille","lat":43.30706,"lon":5.37307,"is_reserved":false,"is_disabled":false,"rental_uris":{"android":"levelo://app?vid=e31b7490-3e3e-448d-983c-d14bde2bf611","ios":"levelo://app?vid=e31b7490-3e3e-448d-983c-d14bde2bf611"},"vehicle_type_id":"4","last_reported":1722168829,"current_range_meters":3200,"station_id":"","pricing_plan_id":"cebpf4jnsgd1na2vs0mg"},{"bike_id":"2d8fd02b-c68d-484f-9c6a-4923d2a9fd5b","system_id":"levelo_inurba_marseille","lat":43.31669,"lon":5.37528,"is_reserved":false,"is_disabled":false,"rental_uris":{"android":"levelo://app?vid=2d8fd02b-c68d-484f-9c6a-4923d2a9fd5b","ios":"levelo://app?vid=2d8fd02b-c68d-484f-9c6a-4923d2a9fd5b"},"vehicle_type_id":"4","last_reported":1722168829,"current_range_meters":27600,"station_id":"","pricing_plan_id":"cebpf4jnsgd1na2vs0mg"},{"bike_id":"8d0b595d-9383-4e6b-b931-fc1d00b9ca95","system_id":"levelo_inurba_marseille","lat":43.30537,"lon":5.367345,"is_reserved":false,"is_disabled":false,"rental_uris":{"android":"levelo://app?vid=8d0b595d-9383-4e6b-b931-fc1d00b9ca95","ios":"levelo://app?vid=8d0b595d-9383-4e6b-b931-fc1d00b9ca95"},"vehicle_type_id":"4","last_reported":1722168829,"current_range_meters":28400,"station_id":"ce4bgrp2rcd13ifvqc9g","pricing_plan_id":"cebpf4jnsgd1na2vs0mg"},{"bike_id":"153ddae9-53b8-409d-be7e-0fa2dd12168c","system_id":"levelo_inurba_marseille","lat":43.305714,"lon":5.365633,"is_reserved":false,"is_disabled":false,"rental_uris":{"android":"levelo://app?vid=153ddae9-53b8-409d-be7e-0fa2dd12168c","ios":"levelo://app?vid=153ddae9-53b8-409d-be7e-0fa2dd12168c"},"vehicle_type_id":"4","last_reported":1722168829,"current_range_meters":9200,"station_id":"ce4bgs12rcd13ifvqcag","pricing_plan_id":"cebpf4jnsgd1na2vs0mg"},{"bike_id":"f336158b-bb63-46eb-aa7a-5d0eecdea858","system_id":"levelo_inurba_marseille","lat":43.305368,"lon":5.367343,"is_reserved":false,"is_disabled":false,"rental_uris":{"android":"levelo://app?vid=f336158b-bb63-46eb-aa7a-5d0eecdea858","ios":"levelo://app?vid=f336158b-bb63-46eb-aa7a-5d0eecdea858"},"vehicle_type_id":"4","last_reported":1722168829,"current_range_meters":22800,"station_id":"ce4bgrp2rcd13ifvqc9g","pricing_plan_id":"cebpf4jnsgd1na2vs0mg"},{"bike_id":"f195270b-e025-4d92-a2e3-175d750ac64f","system_id":"levelo_inurba_marseille","lat":43.305714,"lon":5.365633,"is_reserved":false,"is_disabled":false,"rental_uris":{"android":"levelo://app?vid=f195270b-e025-4d92-a2e3-175d750ac64f","ios":"levelo://app?vid=f195270b-e025-4d92-a2e3-175d750ac64f"},"vehicle_type_id":"4","last_reported":1722168829,"current_range_meters":1600,"station_id":"ce4bgs12rcd13ifvqcag","pricing_plan_id":"cebpf4jnsgd1na2vs0mg"},{"bike_id":"638f3b41-896a-4789-a0b9-70b47b7144c5","system_id":"levelo_inurba_marseille","lat":43.305368,"lon":5.367343,"is_reserved":false,"is_disabled":false,"rental_uris":{"android":"levelo://app?vid=638f3b41-896a-4789-a0b9-70b47b7144c5","ios":"levelo://app?vid=638f3b41-896a-4789-a0b9-70b47b7144c5"},"vehicle_type_id":"4","last_reported":1722168829,"current_range_meters":18800,"station_id":"ce4bgrp2rcd13ifvqc9g","pricing_plan_id":"cebpf4jnsgd1na2vs0mg"},{"bike_id":"7321ae96-afb2-414f-96bf-46330e33bd08","system_id":"levelo_inurba_marseille","lat":43.307945,"lon":5.376487,"is_reserved":false,"is_disabled":false,"rental_uris":{"android":"levelo://app?vid=7321ae96-afb2-414f-96bf-46330e33bd08","ios":"levelo://app?vid=7321ae96-afb2-414f-96bf-46330e33bd08"},"vehicle_type_id":"4","last_reported":1722168829,"current_range_meters":8800,"station_id":"ce4bgv92rcd13ifvqcq0","pricing_plan_id":"cebpf4jnsgd1na2vs0mg"},{"bike_id":"2ff5e6ba-10fb-4400-8e22-db1ebd422322","system_id":"levelo_inurba_marseille","lat":43.307945,"lon":5.376487,"is_reserved":false,"is_disabled":false,"rental_uris":{"android":"levelo://app?vid=2ff5e6ba-10fb-4400-8e22-db1ebd422322","ios":"levelo://app?vid=2ff5e6ba-10fb-4400-8e22-db1ebd422322"},"vehicle_type_id":"4","last_reported":1722168829,"current_range_meters":3200,"station_id":"ce4bgv92rcd13ifvqcq0","pricing_plan_id":"cebpf4jnsgd1na2vs0mg"},{"bike_id":"860d37f3-1fb4-4fec-a949-6d6437a511d0","system_id":"levelo_inurba_marseille","lat":43.317075,"lon":5.377367,"is_reserved":false,"is_disabled":false,"rental_uris":{"android":"levelo://app?vid=860d37f3-1fb4-4fec-a949-6d6437a511d0","ios":"levelo://app?vid=860d37f3-1fb4-4fec-a949-6d6437a511d0"},"vehicle_type_id":"4","last_reported":1722168829,"current_range_meters":29200,"station_id":"ce4bgth2rcd13ifvqch0","pricing_plan_id":"cebpf4jnsgd1na2vs0mg"},{"bike_id":"1911d356-3f14-4819-8104-7730ab762002","system_id":"levelo_inurba_marseille","lat":43.317075,"lon":5.377367,"is_reserved":false,"is_disabled":false,"rental_uris":{"android":"levelo://app?vid=1911d356-3f14-4819-8104-7730ab762002","ios":"levelo://app?vid=1911d356-3f14-4819-8104-7730ab762002"},"vehicle_type_id":"4","last_reported":1722168829,"current_range_meters":8800,"station_id":"ce4bgth2rcd13ifvqch0","pricing_plan_id":"cebpf4jnsgd1na2vs0mg"},{"bike_id":"758c32af-f175-47ee-abc0-ca267043b1d6","system_id":"levelo_inurba_marseille","lat":43.317075,"lon":5.377367,"is_reserved":false,"is_disabled":false,"rental_uris":{"android":"levelo://app?vid=758c32af-f175-47ee-abc0-ca267043b1d6","ios":"levelo://app?vid=758c32af-f175-47ee-abc0-ca267043b1d6"},"vehicle_type_id":"4","last_reported":1722168829,"current_range_meters":31200,"station_id":"ce4bgth2rcd13ifvqch0","pricing_plan_id":"cebpf4jnsgd1na2vs0mg"},{"bike_id":"ce2623d7-e957-4a2a-b583-e059331a4f65","system_id":"levelo_inurba_marseille","lat":43.317075,"lon":5.377367,"is_reserved":false,"is_disabled":false,"rental_uris":{"android":"levelo://app?vid=ce2623d7-e957-4a2a-b583-e059331a4f65","ios":"levelo://app?vid=ce2623d7-e957-4a2a-b583-e059331a4f65"},"vehicle_type_id":"4","last_reported":1722168829,"current_range_meters":28000,"station_id":"ce4bgth2rcd13ifvqch0","pricing_plan_id":"cebpf4jnsgd1na2vs0mg"},{"bike_id":"335ac510-43da-4036-be34-daeb21912855","system_id":"levelo_inurba_marseille","lat":43.317075,"lon":5.377367,"is_reserved":false,"is_disabled":false,"rental_uris":{"android":"levelo://app?vid=335ac510-43da-4036-be34-daeb21912855","ios":"levelo://app?vid=335ac510-43da-4036-be34-daeb21912855"},"vehicle_type_id":"4","last_reported":1722168829,"current_range_meters":5200,"station_id":"ce4bgth2rcd13ifvqch0","pricing_plan_id":"cebpf4jnsgd1na2vs0mg"},{"bike_id":"1204e455-5931-461e-a908-76b44033a065","system_id":"levelo_inurba_marseille","lat":43.303046,"lon":5.368981,"is_reserved":false,"is_disabled":false,"rental_uris":{"android":"levelo://app?vid=1204e455-5931-461e-a908-76b44033a065","ios":"levelo://app?vid=1204e455-5931-461e-a908-76b44033a065"},"vehicle_type_id":"4","last_reported":1722168829,"current_range_meters":4000,"station_id":"ce4bgqh2rcd13ifvqc5g","pricing_plan_id":"cebpf4jnsgd1na2vs0mg"},{"bike_id":"3c4360f1-4f17-4d9d-a37b-f5a0fdb9a3cd","system_id":"levelo_inurba_marseille","lat":43.30304,"lon":5.368987,"is_reserved":false,"is_disabled":false,"rental_uris":{"android":"levelo://app?vid=3c4360f1-4f17-4d9d-a37b-f5a0fdb9a3cd","ios":"levelo://app?vid=3c4360f1-4f17-4d9d-a37b-f5a0fdb9a3cd"},"vehicle_type_id":"4","last_reported":1722168829,"current_range_meters":3200,"station_id":"ce4bgqh2rcd13ifvqc5g","pricing_plan_id":"cebpf4jnsgd1na2vs0mg"},{"bike_id":"a898e8a0-2d2d-4653-b380-a2e89c8bdbc7","system_id":"levelo_inurba_marseille","lat":43.301939,"lon":5.366286,"is_reserved":false,"is_disabled":false,"rental_uris":{"android":"levelo://app?vid=a898e8a0-2d2d-4653-b380-a2e89c8bdbc7","ios":"levelo://app?vid=a898e8a0-2d2d-4653-b380-a2e89c8bdbc7"},"vehicle_type_id":"4","last_reported":1722168829,"current_range_meters":20000,"station_id":"ce4bgrh2rcd13ifvqc8g","pricing_plan_id":"cebpf4jnsgd1na2vs0mg"},{"bike_id":"0b09caaf-5c73-41fa-9e9b-d9024f705446","system_id":"levelo_inurba_marseille","lat":43.301939,"lon":5.366286,"is_reserved":false,"is_disabled":false,"rental_uris":{"android":"levelo://app?vid=0b09caaf-5c73-41fa-9e9b-d9024f705446","ios":"levelo://app?vid=0b09caaf-5c73-41fa-9e9b-d9024f705446"},"vehicle_type_id":"4","last_reported":1722168829,"current_range_meters":2400,"station_id":"ce4bgrh2rcd13ifvqc8g","pricing_plan_id":"cebpf4jnsgd1na2vs0mg"},{"bike_id":"1adcbb25-dbc1-43a2-a26b-43424b7831ba","system_id":"levelo_inurba_marseille","lat":43.301939,"lon":5.366286,"is_reserved":false,"is_disabled":false,"rental_uris":{"android":"levelo://app?vid=1adcbb25-dbc1-43a2-a26b-43424b7831ba","ios":"levelo://app?vid=1adcbb25-dbc1-43a2-a26b-43424b7831ba"},"vehicle_type_id":"4","last_reported":1722168829,"current_range_meters":0,"station_id":"ce4bgrh2rcd13ifvqc8g","pricing_plan_id":"cebpf4jnsgd1na2vs0mg"},{"bike_id":"da1d50c2-7937-4c08-8d89-c62d27c23f8d","system_id":"levelo_inurba_marseille","lat":43.308012,"lon":5.381511,"is_reserved":false,"is_disabled":false,"rental_uris":{"android":"levelo://app?vid=da1d50c2-7937-4c08-8d89-c62d27c23f8d","ios":"levelo://app?vid=da1d50c2-7937-4c08-8d89-c62d27c23f8d"},"vehicle_type_id":"4","last_reported":1722168829,"current_range_meters":8400,"station_id":"ce4bgt12rcd13ifvqce0","pricing_plan_id":"cebpf4jnsgd1na2vs0mg"},{"bike_id":"56416358-f079-400e-887d-811b8b1020bc","system_id":"levelo_inurba_marseille","lat":43.308012,"lon":5.381511,"is_reserved":false,"is_disabled":false,"rental_uris":{"android":"levelo://app?vid=56416358-f079-400e-887d-811b8b1020bc","ios":"levelo://app?vid=56416358-f079-400e-887d-811b8b1020bc"},"vehicle_type_id":"4","last_reported":1722168829,"current_range_meters":0,"station_id":"ce4bgt12rcd13ifvqce0","pricing_plan_id":"cebpf4jnsgd1na2vs0mg"},{"bike_id":"ed1d5317-1d98-4c38-ba4a-a44f61809b91","system_id":"levelo_inurba_marseille","lat":43.308012,"lon":5.381511,"is_reserved":false,"is_disabled":false,"rental_uris":{"android":"levelo://app?vid=ed1d5317-1d98-4c38-ba4a-a44f61809b91","ios":"levelo://app?vid=ed1d5317-1d98-4c38-ba4a-a44f61809b91"},"vehicle_type_id":"4","last_reported":1722168829,"current_range_meters":31200,"station_id":"ce4bgt12rcd13ifvqce0","pricing_plan_id":"cebpf4jnsgd1na2vs0mg"},{"bike_id":"873443bb-5012-4474-9555-b3b119c84905","system_id":"levelo_inurba_marseille","lat":43.30804,"lon":5.38194,"is_reserved":false,"is_disabled":false,"rental_uris":{"android":"levelo://app?vid=873443bb-5012-4474-9555-b3b119c84905","ios":"levelo://app?vid=873443bb-5012-4474-9555-b3b119c84905"},"vehicle_type_id":"4","last_reported":1722168829,"current_range_meters":22400,"station_id":"ce4bgt12rcd13ifvqce0","pricing_plan_id":"cebpf4jnsgd1na2vs0mg"},{"bike_id":"3f88e2b8-1c53-4f1c-bc82-dd6cba16174d","system_id":"levelo_inurba_marseille","lat":43.30466,"lon":5.379,"is_reserved":false,"is_disabled":false,"rental_uris":{"android":"levelo://app?vid=3f88e2b8-1c53-4f1c-bc82-dd6cba16174d","ios":"levelo://app?vid=3f88e2b8-1c53-4f1c-bc82-dd6cba16174d"},"vehicle_type_id":"4","last_reported":1722168829,"current_range_meters":20400,"station_id":"ce4bgup2rcd13ifvqcn0","pricing_plan_id":"cebpf4jnsgd1na2vs0mg"},{"bike_id":"bd1df3ed-4456-4ade-9022-7f11b82715de","system_id":"levelo_inurba_marseille","lat":43.324771,"lon":5.36557,"is_reserved":false,"is_disabled":false,"rental_uris":{"android":"levelo://app?vid=bd1df3ed-4456-4ade-9022-7f11b82715de","ios":"levelo://app?vid=bd1df3ed-4456-4ade-9022-7f11b82715de"},"vehicle_type_id":"4","last_reported":1722168829,"current_range_meters":27600,"station_id":"ce4bhs12rcd13ifvqhvg","pricing_plan_id":"cebpf4jnsgd1na2vs0mg"},{"bike_id":"74622a59-7c72-416d-b909-98817b7d08b2","system_id":"levelo_inurba_marseille","lat":43.324771,"lon":5.36557,"is_reserved":false,"is_disabled":false,"rental_uris":{"android":"levelo://app?vid=74622a59-7c72-416d-b909-98817b7d08b2","ios":"levelo://app?vid=74622a59-7c72-416d-b909-98817b7d08b2"},"vehicle_type_id":"4","last_reported":1722168829,"current_range_meters":14000,"station_id":"ce4bhs12rcd13ifvqhvg","pricing_plan_id":"cebpf4jnsgd1na2vs0mg"},{"bike_id":"7fc59e34-6f40-4e8f-8e9c-e8bea02bf36c","system_id":"levelo_inurba_marseille","lat":43.324771,"lon":5.36557,"is_reserved":false,"is_disabled":false,"rental_uris":{"android":"levelo://app?vid=7fc59e34-6f40-4e8f-8e9c-e8bea02bf36c","ios":"levelo://app?vid=7fc59e34-6f40-4e8f-8e9c-e8bea02bf36c"},"vehicle_type_id":"4","last_reported":1722168829,"current_range_meters":29600,"station_id":"ce4bhs12rcd13ifvqhvg","pricing_plan_id":"cebpf4jnsgd1na2vs0mg"},{"bike_id":"d5871d69-5fd6-4e86-bd05-9e796d8084e2","system_id":"levelo_inurba_marseille","lat":43.30143,"lon":5.37413,"is_reserved":false,"is_disabled":false,"rental_uris":{"android":"levelo://app?vid=d5871d69-5fd6-4e86-bd05-9e796d8084e2","ios":"levelo://app?vid=d5871d69-5fd6-4e86-bd05-9e796d8084e2"},"vehicle_type_id":"4","last_reported":1722168829,"current_range_meters":25600,"station_id":"ce4bgs92rcd13ifvqcc0","pricing_plan_id":"cebpf4jnsgd1na2vs0mg"},{"bike_id":"1fdb1c3e-d612-4444-84de-d0b8b0b74003","system_id":"levelo_inurba_marseille","lat":43.302784,"lon":5.377158,"is_reserved":false,"is_disabled":false,"rental_uris":{"android":"levelo://app?vid=1fdb1c3e-d612-4444-84de-d0b8b0b74003","ios":"levelo://app?vid=1fdb1c3e-d612-4444-84de-d0b8b0b74003"},"vehicle_type_id":"4","last_reported":1722168829,"current_range_meters":8000,"station_id":"ce4bguh2rcd13ifvqcj0","pricing_plan_id":"cebpf4jnsgd1na2vs0mg"},{"bike_id":"ea1c6237-25f3-4621-be97-55d5d16077d4","system_id":"levelo_inurba_marseille","lat":43.302784,"lon":5.377158,"is_reserved":false,"is_disabled":false,"rental_uris":{"android":"levelo://app?vid=ea1c6237-25f3-4621-be97-55d5d16077d4","ios":"levelo://app?vid=ea1c6237-25f3-4621-be97-55d5d16077d4"},"vehicle_type_id":"4","last_reported":1722168829,"current_range_meters":25200,"station_id":"ce4bguh2rcd13ifvqcj0","pricing_plan_id":"cebpf4jnsgd1na2vs0mg"},{"bike_id":"803e0064-3735-428a-8357-b238431bbb52","system_id":"levelo_inurba_marseille","lat":43.31988,"lon":5.38135,"is_reserved":false,"is_disabled":false,"rental_uris":{"android":"levelo://app?vid=803e0064-3735-428a-8357-b238431bbb52","ios":"levelo://app?vid=803e0064-3735-428a-8357-b238431bbb52"},"vehicle_type_id":"4","last_reported":1722168829,"current_range_meters":17200,"station_id":"ce4bhr12rcd13ifvqhpg","pricing_plan_id":"cebpf4jnsgd1na2vs0mg"},{"bike_id":"1c4555f4-f4d0-4b31-9fdf-0032a11f0fe4","system_id":"levelo_inurba_marseille","lat":43.32292,"lon":5.37735,"is_reserved":false,"is_disabled":false,"rental_uris":{"android":"levelo://app?vid=1c4555f4-f4d0-4b31-9fdf-0032a11f0fe4","ios":"levelo://app?vid=1c4555f4-f4d0-4b31-9fdf-0032a11f0fe4"},"vehicle_type_id":"4","last_reported":1722168829,"current_range_meters":11600,"station_id":"","pricing_plan_id":"cebpf4jnsgd1na2vs0mg"},{"bike_id":"64efb8ba-933f-47fc-b58f-b13d857f90b0","system_id":"levelo_inurba_marseille","lat":43.31618,"lon":5.3839,"is_reserved":false,"is_disabled":false,"rental_uris":{"android":"levelo://app?vid=64efb8ba-933f-47fc-b58f-b13d857f90b0","ios":"levelo://app?vid=64efb8ba-933f-47fc-b58f-b13d857f90b0"},"vehicle_type_id":"4","last_reported":1722168829,"current_range_meters":28800,"station_id":"","pricing_plan_id":"cebpf4jnsgd1na2vs0mg"},{"bike_id":"7aa0a328-dae8-47fe-9606-4472c2728edd","system_id":"levelo_inurba_marseille","lat":43.31997,"lon":5.38149,"is_reserved":false,"is_disabled":false,"rental_uris":{"android":"levelo://app?vid=7aa0a328-dae8-47fe-9606-4472c2728edd","ios":"levelo://app?vid=7aa0a328-dae8-47fe-9606-4472c2728edd"},"vehicle_type_id":"4","last_reported":1722168829,"current_range_meters":31200,"station_id":"ce4bhr12rcd13ifvqhpg","pricing_plan_id":"cebpf4jnsgd1na2vs0mg"},{"bike_id":"ede6e3b8-7e99-49c9-b61f-dc1c45e0f497","system_id":"levelo_inurba_marseille","lat":43.31998,"lon":5.38157,"is_reserved":false,"is_disabled":false,"rental_uris":{"android":"levelo://app?vid=ede6e3b8-7e99-49c9-b61f-dc1c45e0f497","ios":"levelo://app?vid=ede6e3b8-7e99-49c9-b61f-dc1c45e0f497"},"vehicle_type_id":"4","last_reported":1722168829,"current_range_meters":3200,"station_id":"ce4bhr12rcd13ifvqhpg","pricing_plan_id":"cebpf4jnsgd1na2vs0mg"},{"bike_id":"9813f6ac-0edd-49d5-9b60-6817169b8c66","system_id":"levelo_inurba_marseille","lat":43.313571,"lon":5.384829,"is_reserved":false,"is_disabled":false,"rental_uris":{"android":"levelo://app?vid=9813f6ac-0edd-49d5-9b60-6817169b8c66","ios":"levelo://app?vid=9813f6ac-0edd-49d5-9b60-6817169b8c66"},"vehicle_type_id":"4","last_reported":1722168829,"current_range_meters":24400,"station_id":"ce4bgt92rcd13ifvqcf0","pricing_plan_id":"cebpf4jnsgd1na2vs0mg"},{"bike_id":"f0ad6f0a-a17b-4bee-9196-57c4c5a47783","system_id":"levelo_inurba_marseille","lat":43.3001,"lon":5.37233,"is_reserved":false,"is_disabled":false,"rental_uris":{"android":"levelo://app?vid=f0ad6f0a-a17b-4bee-9196-57c4c5a47783","ios":"levelo://app?vid=f0ad6f0a-a17b-4bee-9196-57c4c5a47783"},"vehicle_type_id":"4","last_reported":1722168829,"current_range_meters":6000,"station_id":"","pricing_plan_id":"cebpf4jnsgd1na2vs0mg"},{"bike_id":"149ad317-2977-4c2d-b9af-065d2c29d5b4","system_id":"levelo_inurba_marseille","lat":43.300046,"lon":5.372361,"is_reserved":false,"is_disabled":false,"rental_uris":{"android":"levelo://app?vid=149ad317-2977-4c2d-b9af-065d2c29d5b4","ios":"levelo://app?vid=149ad317-2977-4c2d-b9af-065d2c29d5b4"},"vehicle_type_id":"4","last_reported":1722168829,"current_range_meters":29600,"station_id":"ce4bgr92rcd13ifvqc7g","pricing_plan_id":"cebpf4jnsgd1na2vs0mg"},{"bike_id":"05275602-1a61-4594-b03a-21c9a57a230c","system_id":"levelo_inurba_marseille","lat":43.29853,"lon":5.36298,"is_reserved":false,"is_disabled":false,"rental_uris":{"android":"levelo://app?vid=05275602-1a61-4594-b03a-21c9a57a230c","ios":"levelo://app?vid=05275602-1a61-4594-b03a-21c9a57a230c"},"vehicle_type_id":"4","last_reported":1722168829,"current_range_meters":9200,"station_id":"ce4bgpp2rcd13ifvqc3g","pricing_plan_id":"cebpf4jnsgd1na2vs0mg"},{"bike_id":"4c682264-9c88-4bcd-ab66-d50106df4e89","system_id":"levelo_inurba_marseille","lat":43.298433,"lon":5.362774,"is_reserved":false,"is_disabled":false,"rental_uris":{"android":"levelo://app?vid=4c682264-9c88-4bcd-ab66-d50106df4e89","ios":"levelo://app?vid=4c682264-9c88-4bcd-ab66-d50106df4e89"},"vehicle_type_id":"4","last_reported":1722168829,"current_range_meters":14000,"station_id":"ce4bgpp2rcd13ifvqc3g","pricing_plan_id":"cebpf4jnsgd1na2vs0mg"},{"bike_id":"6e67f336-dab0-494b-9d45-4ba861b65cad","system_id":"levelo_inurba_marseille","lat":43.305364,"lon":5.384119,"is_reserved":false,"is_disabled":false,"rental_uris":{"android":"levelo://app?vid=6e67f336-dab0-494b-9d45-4ba861b65cad","ios":"levelo://app?vid=6e67f336-dab0-494b-9d45-4ba861b65cad"},"vehicle_type_id":"4","last_reported":1722168829,"current_range_meters":28000,"station_id":"ce4bgg92rcd13ifvqb30","pricing_plan_id":"cebpf4jnsgd1na2vs0mg"},{"bike_id":"3e1d6aa7-389d-4d63-aa27-0f43397c29a5","system_id":"levelo_inurba_marseille","lat":43.30145,"lon":5.38067,"is_reserved":false,"is_disabled":false,"rental_uris":{"android":"levelo://app?vid=3e1d6aa7-389d-4d63-aa27-0f43397c29a5","ios":"levelo://app?vid=3e1d6aa7-389d-4d63-aa27-0f43397c29a5"},"vehicle_type_id":"4","last_reported":1722168829,"current_range_meters":1200,"station_id":"","pricing_plan_id":"cebpf4jnsgd1na2vs0mg"},{"bike_id":"0d5cbbaa-634a-4759-b9fb-1a4609708d67","system_id":"levelo_inurba_marseille","lat":43.30147,"lon":5.380841,"is_reserved":false,"is_disabled":false,"rental_uris":{"android":"levelo://app?vid=0d5cbbaa-634a-4759-b9fb-1a4609708d67","ios":"levelo://app?vid=0d5cbbaa-634a-4759-b9fb-1a4609708d67"},"vehicle_type_id":"4","last_reported":1722168829,"current_range_meters":11200,"station_id":"","pricing_plan_id":"cebpf4jnsgd1na2vs0mg"},{"bike_id":"8ad7d1f0-36ba-4891-8a86-274947aa917f","system_id":"levelo_inurba_marseille","lat":43.322872,"lon":5.382756,"is_reserved":false,"is_disabled":false,"rental_uris":{"android":"levelo://app?vid=8ad7d1f0-36ba-4891-8a86-274947aa917f","ios":"levelo://app?vid=8ad7d1f0-36ba-4891-8a86-274947aa917f"},"vehicle_type_id":"4","last_reported":1722168829,"current_range_meters":25200,"station_id":"ce4bhr12rcd13ifvqhqg","pricing_plan_id":"cebpf4jnsgd1na2vs0mg"},{"bike_id":"dce303a6-cd2a-46cc-8179-0244c896ff46","system_id":"levelo_inurba_marseille","lat":43.322872,"lon":5.382756,"is_reserved":false,"is_disabled":false,"rental_uris":{"android":"levelo://app?vid=dce303a6-cd2a-46cc-8179-0244c896ff46","ios":"levelo://app?vid=dce303a6-cd2a-46cc-8179-0244c896ff46"},"vehicle_type_id":"4","last_reported":1722168829,"current_range_meters":26000,"station_id":"ce4bhr12rcd13ifvqhqg","pricing_plan_id":"cebpf4jnsgd1na2vs0mg"},{"bike_id":"22e41778-51bb-4239-91a8-cf2d50ed1db8","system_id":"levelo_inurba_marseille","lat":43.319,"lon":5.38646,"is_reserved":false,"is_disabled":false,"rental_uris":{"android":"levelo://app?vid=22e41778-51bb-4239-91a8-cf2d50ed1db8","ios":"levelo://app?vid=22e41778-51bb-4239-91a8-cf2d50ed1db8"},"vehicle_type_id":"4","last_reported":1722168829,"current_range_meters":28400,"station_id":"","pricing_plan_id":"cebpf4jnsgd1na2vs0mg"},{"bike_id":"77ebd6f7-0e15-4246-8feb-b1d720ac899a","system_id":"levelo_inurba_marseille","lat":43.30059,"lon":5.38222,"is_reserved":false,"is_disabled":false,"rental_uris":{"android":"levelo://app?vid=77ebd6f7-0e15-4246-8feb-b1d720ac899a","ios":"levelo://app?vid=77ebd6f7-0e15-4246-8feb-b1d720ac899a"},"vehicle_type_id":"4","last_reported":1722168829,"current_range_meters":15200,"station_id":"","pricing_plan_id":"cebpf4jnsgd1na2vs0mg"},{"bike_id":"7096ac2a-1c3c-4b88-b37f-e5a4264b4bec","system_id":"levelo_inurba_marseille","lat":43.29585,"lon":5.36756,"is_reserved":false,"is_disabled":false,"rental_uris":{"android":"levelo://app?vid=7096ac2a-1c3c-4b88-b37f-e5a4264b4bec","ios":"levelo://app?vid=7096ac2a-1c3c-4b88-b37f-e5a4264b4bec"},"vehicle_type_id":"4","last_reported":1722168829,"current_range_meters":0,"station_id":"ce4bgph2rcd13ifvqc2g","pricing_plan_id":"cebpf4jnsgd1na2vs0mg"},{"bike_id":"36d32025-f484-422b-8564-a9b164e0eff2","system_id":"levelo_inurba_marseille","lat":43.316196,"lon":5.389769,"is_reserved":false,"is_disabled":false,"rental_uris":{"android":"levelo://app?vid=36d32025-f484-422b-8564-a9b164e0eff2","ios":"levelo://app?vid=36d32025-f484-422b-8564-a9b164e0eff2"},"vehicle_type_id":"4","last_reported":1722168829,"current_range_meters":11600,"station_id":"","pricing_plan_id":"cebpf4jnsgd1na2vs0mg"},{"bike_id":"79bd9aa2-cb9f-4516-b7b9-2340a000eefc","system_id":"levelo_inurba_marseille","lat":43.296921,"lon":5.376579,"is_reserved":false,"is_disabled":false,"rental_uris":{"android":"levelo://app?vid=79bd9aa2-cb9f-4516-b7b9-2340a000eefc","ios":"levelo://app?vid=79bd9aa2-cb9f-4516-b7b9-2340a000eefc"},"vehicle_type_id":"4","last_reported":1722168829,"current_range_meters":31200,"station_id":"ce4bgkh2rcd13ifvqbl0","pricing_plan_id":"cebpf4jnsgd1na2vs0mg"},{"bike_id":"e4ca39fb-a2fc-4c24-b897-eab16b226725","system_id":"levelo_inurba_marseille","lat":43.309589,"lon":5.390258,"is_reserved":false,"is_disabled":false,"rental_uris":{"android":"levelo://app?vid=e4ca39fb-a2fc-4c24-b897-eab16b226725","ios":"levelo://app?vid=e4ca39fb-a2fc-4c24-b897-eab16b226725"},"vehicle_type_id":"4","last_reported":1722168829,"current_range_meters":5200,"station_id":"ce4bgup2rcd13ifvqco0","pricing_plan_id":"cebpf4jnsgd1na2vs0mg"},{"bike_id":"0ac2f83f-5f2e-455a-9111-c59138919212","system_id":"levelo_inurba_marseille","lat":43.309589,"lon":5.390258,"is_reserved":false,"is_disabled":false,"rental_uris":{"android":"levelo://app?vid=0ac2f83f-5f2e-455a-9111-c59138919212","ios":"levelo://app?vid=0ac2f83f-5f2e-455a-9111-c59138919212"},"vehicle_type_id":"4","last_reported":1722168829,"current_range_meters":400,"station_id":"ce4bgup2rcd13ifvqco0","pricing_plan_id":"cebpf4jnsgd1na2vs0mg"},{"bike_id":"4496c404-3c32-4a6a-a8d4-fe28ae420eb9","system_id":"levelo_inurba_marseille","lat":43.317557,"lon":5.390173,"is_reserved":false,"is_disabled":false,"rental_uris":{"android":"levelo://app?vid=4496c404-3c32-4a6a-a8d4-fe28ae420eb9","ios":"levelo://app?vid=4496c404-3c32-4a6a-a8d4-fe28ae420eb9"},"vehicle_type_id":"4","last_reported":1722168829,"current_range_meters":31200,"station_id":"ce4bhqp2rcd13ifvqhng","pricing_plan_id":"cebpf4jnsgd1na2vs0mg"},{"bike_id":"5ec161cf-3f2c-419a-8ba0-907fa69c3c89","system_id":"levelo_inurba_marseille","lat":43.317493,"lon":5.390168,"is_reserved":false,"is_disabled":false,"rental_uris":{"android":"levelo://app?vid=5ec161cf-3f2c-419a-8ba0-907fa69c3c89","ios":"levelo://app?vid=5ec161cf-3f2c-419a-8ba0-907fa69c3c89"},"vehicle_type_id":"4","last_reported":1722168829,"current_range_meters":0,"station_id":"ce4bhqp2rcd13ifvqhng","pricing_plan_id":"cebpf4jnsgd1na2vs0mg"},{"bike_id":"ade024a8-b806-4c65-a0fe-6885f65cca88","system_id":"levelo_inurba_marseille","lat":43.317557,"lon":5.390173,"is_reserved":false,"is_disabled":false,"rental_uris":{"android":"levelo://app?vid=ade024a8-b806-4c65-a0fe-6885f65cca88","ios":"levelo://app?vid=ade024a8-b806-4c65-a0fe-6885f65cca88"},"vehicle_type_id":"4","last_reported":1722168829,"current_range_meters":5600,"station_id":"ce4bhqp2rcd13ifvqhng","pricing_plan_id":"cebpf4jnsgd1na2vs0mg"},{"bike_id":"d80d09e6-8284-4fd1-b732-166755c66349","system_id":"levelo_inurba_marseille","lat":43.295748,"lon":5.37522,"is_reserved":false,"is_disabled":false,"rental_uris":{"android":"levelo://app?vid=d80d09e6-8284-4fd1-b732-166755c66349","ios":"levelo://app?vid=d80d09e6-8284-4fd1-b732-166755c66349"},"vehicle_type_id":"4","last_reported":1722168829,"current_range_meters":13200,"station_id":"ce4bgh92rcd13ifvqb50","pricing_plan_id":"cebpf4jnsgd1na2vs0mg"},{"bike_id":"e8552ad0-ae83-4382-a167-9f874d926db5","system_id":"levelo_inurba_marseille","lat":43.295748,"lon":5.37522,"is_reserved":false,"is_disabled":false,"rental_uris":{"android":"levelo://app?vid=e8552ad0-ae83-4382-a167-9f874d926db5","ios":"levelo://app?vid=e8552ad0-ae83-4382-a167-9f874d926db5"},"vehicle_type_id":"4","last_reported":1722168829,"current_range_meters":24800,"station_id":"ce4bgh92rcd13ifvqb50","pricing_plan_id":"cebpf4jnsgd1na2vs0mg"},{"bike_id":"91660823-2cce-45d7-8a45-fdb8ee32ed5d","system_id":"levelo_inurba_marseille","lat":43.304278,"lon":5.388868,"is_reserved":false,"is_disabled":false,"rental_uris":{"android":"levelo://app?vid=91660823-2cce-45d7-8a45-fdb8ee32ed5d","ios":"levelo://app?vid=91660823-2cce-45d7-8a45-fdb8ee32ed5d"},"vehicle_type_id":"4","last_reported":1722168829,"current_range_meters":20400,"station_id":"ce4bgk12rcd13ifvqbi0","pricing_plan_id":"cebpf4jnsgd1na2vs0mg"},{"bike_id":"1a649d29-b776-4d43-a545-37069b92ef4d","system_id":"levelo_inurba_marseille","lat":43.295748,"lon":5.37522,"is_reserved":false,"is_disabled":false,"rental_uris":{"android":"levelo://app?vid=1a649d29-b776-4d43-a545-37069b92ef4d","ios":"levelo://app?vid=1a649d29-b776-4d43-a545-37069b92ef4d"},"vehicle_type_id":"4","last_reported":1722168829,"current_range_meters":21600,"station_id":"ce4bgh92rcd13ifvqb50","pricing_plan_id":"cebpf4jnsgd1na2vs0mg"},{"bike_id":"e93b7c25-2b98-42bb-94a1-e4fae8f51de7","system_id":"levelo_inurba_marseille","lat":43.295279,"lon":5.375048,"is_reserved":false,"is_disabled":false,"rental_uris":{"android":"levelo://app?vid=e93b7c25-2b98-42bb-94a1-e4fae8f51de7","ios":"levelo://app?vid=e93b7c25-2b98-42bb-94a1-e4fae8f51de7"},"vehicle_type_id":"4","last_reported":1722168829,"current_range_meters":8400,"station_id":"ce4bgkp2rcd13ifvqbmg","pricing_plan_id":"cebpf4jnsgd1na2vs0mg"},{"bike_id":"679aa6dd-5e46-40c1-8425-7322684d502d","system_id":"levelo_inurba_marseille","lat":43.301396,"lon":5.387812,"is_reserved":false,"is_disabled":false,"rental_uris":{"android":"levelo://app?vid=679aa6dd-5e46-40c1-8425-7322684d502d","ios":"levelo://app?vid=679aa6dd-5e46-40c1-8425-7322684d502d"},"vehicle_type_id":"4","last_reported":1722168829,"current_range_meters":31200,"station_id":"ce4bghh2rcd13ifvqb60","pricing_plan_id":"cebpf4jnsgd1na2vs0mg"},{"bike_id":"8a85e68b-c274-4603-b0b0-66cb64a76282","system_id":"levelo_inurba_marseille","lat":43.32367,"lon":5.388836,"is_reserved":false,"is_disabled":false,"rental_uris":{"android":"levelo://app?vid=8a85e68b-c274-4603-b0b0-66cb64a76282","ios":"levelo://app?vid=8a85e68b-c274-4603-b0b0-66cb64a76282"},"vehicle_type_id":"4","last_reported":1722168829,"current_range_meters":29600,"station_id":"ce4bhqp2rcd13ifvqhog","pricing_plan_id":"cebpf4jnsgd1na2vs0mg"},{"bike_id":"6a60a62a-575f-4518-830c-e8e47c8b46dd","system_id":"levelo_inurba_marseille","lat":43.32367,"lon":5.388836,"is_reserved":false,"is_disabled":false,"rental_uris":{"android":"levelo://app?vid=6a60a62a-575f-4518-830c-e8e47c8b46dd","ios":"levelo://app?vid=6a60a62a-575f-4518-830c-e8e47c8b46dd"},"vehicle_type_id":"4","last_reported":1722168829,"current_range_meters":0,"station_id":"ce4bhqp2rcd13ifvqhog","pricing_plan_id":"cebpf4jnsgd1na2vs0mg"},{"bike_id":"a02b2c03-66e7-437f-a700-f25f2b8c5801","system_id":"levelo_inurba_marseille","lat":43.32367,"lon":5.388836,"is_reserved":false,"is_disabled":false,"rental_uris":{"android":"levelo://app?vid=a02b2c03-66e7-437f-a700-f25f2b8c5801","ios":"levelo://app?vid=a02b2c03-66e7-437f-a700-f25f2b8c5801"},"vehicle_type_id":"4","last_reported":1722168829,"current_range_meters":31200,"station_id":"ce4bhqp2rcd13ifvqhog","pricing_plan_id":"cebpf4jnsgd1na2vs0mg"},{"bike_id":"fff9ce80-e3a6-4300-a750-f133cdb858c3","system_id":"levelo_inurba_marseille","lat":43.29351,"lon":5.37132,"is_reserved":false,"is_disabled":false,"rental_uris":{"android":"levelo://app?vid=fff9ce80-e3a6-4300-a750-f133cdb858c3","ios":"levelo://app?vid=fff9ce80-e3a6-4300-a750-f133cdb858c3"},"vehicle_type_id":"4","last_reported":1722168829,"current_range_meters":10800,"station_id":"","pricing_plan_id":"cebpf4jnsgd1na2vs0mg"},{"bike_id":"f0b239ed-3e09-47d8-902d-8929d7be680b","system_id":"levelo_inurba_marseille","lat":43.29316,"lon":5.37074,"is_reserved":false,"is_disabled":false,"rental_uris":{"android":"levelo://app?vid=f0b239ed-3e09-47d8-902d-8929d7be680b","ios":"levelo://app?vid=f0b239ed-3e09-47d8-902d-8929d7be680b"},"vehicle_type_id":"4","last_reported":1722168829,"current_range_meters":10800,"station_id":"","pricing_plan_id":"cebpf4jnsgd1na2vs0mg"},{"bike_id":"cb8e131e-b0f9-490c-9f39-1afa4b253bd2","system_id":"levelo_inurba_marseille","lat":43.29246,"lon":5.36698,"is_reserved":false,"is_disabled":false,"rental_uris":{"android":"levelo://app?vid=cb8e131e-b0f9-490c-9f39-1afa4b253bd2","ios":"levelo://app?vid=cb8e131e-b0f9-490c-9f39-1afa4b253bd2"},"vehicle_type_id":"4","last_reported":1722168829,"current_range_meters":0,"station_id":"","pricing_plan_id":"cebpf4jnsgd1na2vs0mg"},{"bike_id":"3e5b371b-cc50-4ff3-a836-d164397010fc","system_id":"levelo_inurba_marseille","lat":43.292749,"lon":5.368402,"is_reserved":false,"is_disabled":false,"rental_uris":{"android":"levelo://app?vid=3e5b371b-cc50-4ff3-a836-d164397010fc","ios":"levelo://app?vid=3e5b371b-cc50-4ff3-a836-d164397010fc"},"vehicle_type_id":"4","last_reported":1722168829,"current_range_meters":18000,"station_id":"ce4bhbp2rcd13ifvqesg","pricing_plan_id":"cebpf4jnsgd1na2vs0mg"},{"bike_id":"129a8316-77ef-4dda-915a-b966534f6019","system_id":"levelo_inurba_marseille","lat":43.305994,"lon":5.393687,"is_reserved":false,"is_disabled":false,"rental_uris":{"android":"levelo://app?vid=129a8316-77ef-4dda-915a-b966534f6019","ios":"levelo://app?vid=129a8316-77ef-4dda-915a-b966534f6019"},"vehicle_type_id":"4","last_reported":1722168829,"current_range_meters":24800,"station_id":"ce4bh0p2rcd13ifvqd80","pricing_plan_id":"cebpf4jnsgd1na2vs0mg"},{"bike_id":"c35130a0-87db-4207-8e0b-c8a96b3ec31c","system_id":"levelo_inurba_marseille","lat":43.305994,"lon":5.393687,"is_reserved":false,"is_disabled":false,"rental_uris":{"android":"levelo://app?vid=c35130a0-87db-4207-8e0b-c8a96b3ec31c","ios":"levelo://app?vid=c35130a0-87db-4207-8e0b-c8a96b3ec31c"},"vehicle_type_id":"4","last_reported":1722168829,"current_range_meters":31200,"station_id":"ce4bh0p2rcd13ifvqd80","pricing_plan_id":"cebpf4jnsgd1na2vs0mg"},{"bike_id":"522ed81c-60bf-42ad-b6ed-e403652455d2","system_id":"levelo_inurba_marseille","lat":43.293009,"lon":5.374584,"is_reserved":false,"is_disabled":false,"rental_uris":{"android":"levelo://app?vid=522ed81c-60bf-42ad-b6ed-e403652455d2","ios":"levelo://app?vid=522ed81c-60bf-42ad-b6ed-e403652455d2"},"vehicle_type_id":"4","last_reported":1722168829,"current_range_meters":4000,"station_id":"ce4bgi12rcd13ifvqb70","pricing_plan_id":"cebpf4jnsgd1na2vs0mg"},{"bike_id":"0756c436-5875-42a7-8638-1b16e401e96e","system_id":"levelo_inurba_marseille","lat":43.292311,"lon":5.360731,"is_reserved":false,"is_disabled":false,"rental_uris":{"android":"levelo://app?vid=0756c436-5875-42a7-8638-1b16e401e96e","ios":"levelo://app?vid=0756c436-5875-42a7-8638-1b16e401e96e"},"vehicle_type_id":"4","last_reported":1722168829,"current_range_meters":16000,"station_id":"ce4bhbh2rcd13ifvqeqg","pricing_plan_id":"cebpf4jnsgd1na2vs0mg"},{"bike_id":"3df45817-1099-4317-b89b-129e8676a26e","system_id":"levelo_inurba_marseille","lat":43.292311,"lon":5.360731,"is_reserved":false,"is_disabled":false,"rental_uris":{"android":"levelo://app?vid=3df45817-1099-4317-b89b-129e8676a26e","ios":"levelo://app?vid=3df45817-1099-4317-b89b-129e8676a26e"},"vehicle_type_id":"4","last_reported":1722168829,"current_range_meters":26000,"station_id":"ce4bhbh2rcd13ifvqeqg","pricing_plan_id":"cebpf4jnsgd1na2vs0mg"},{"bike_id":"8d68eced-9117-4cfc-946c-09bfb7b06ab4","system_id":"levelo_inurba_marseille","lat":43.292311,"lon":5.360731,"is_reserved":false,"is_disabled":false,"rental_uris":{"android":"levelo://app?vid=8d68eced-9117-4cfc-946c-09bfb7b06ab4","ios":"levelo://app?vid=8d68eced-9117-4cfc-946c-09bfb7b06ab4"},"vehicle_type_id":"4","last_reported":1722168829,"current_range_meters":400,"station_id":"ce4bhbh2rcd13ifvqeqg","pricing_plan_id":"cebpf4jnsgd1na2vs0mg"},{"bike_id":"79e7fe1a-fb5c-4f93-812c-b62891ec7a27","system_id":"levelo_inurba_marseille","lat":43.29223,"lon":5.36045,"is_reserved":false,"is_disabled":false,"rental_uris":{"android":"levelo://app?vid=79e7fe1a-fb5c-4f93-812c-b62891ec7a27","ios":"levelo://app?vid=79e7fe1a-fb5c-4f93-812c-b62891ec7a27"},"vehicle_type_id":"4","last_reported":1722168829,"current_range_meters":28400,"station_id":"ce4bhbh2rcd13ifvqeqg","pricing_plan_id":"cebpf4jnsgd1na2vs0mg"},{"bike_id":"8e83e501-9395-4227-b87e-10a359a30907","system_id":"levelo_inurba_marseille","lat":43.298764,"lon":5.388973,"is_reserved":false,"is_disabled":false,"rental_uris":{"android":"levelo://app?vid=8e83e501-9395-4227-b87e-10a359a30907","ios":"levelo://app?vid=8e83e501-9395-4227-b87e-10a359a30907"},"vehicle_type_id":"4","last_reported":1722168829,"current_range_meters":13200,"station_id":"ce4bh392rcd13ifvqdl0","pricing_plan_id":"cebpf4jnsgd1na2vs0mg"},{"bike_id":"b27a82ad-a505-4b11-a89a-ee05cc727eaa","system_id":"levelo_inurba_marseille","lat":43.313323,"lon":5.396793,"is_reserved":false,"is_disabled":false,"rental_uris":{"android":"levelo://app?vid=b27a82ad-a505-4b11-a89a-ee05cc727eaa","ios":"levelo://app?vid=b27a82ad-a505-4b11-a89a-ee05cc727eaa"},"vehicle_type_id":"4","last_reported":1722168829,"current_range_meters":800,"station_id":"ce4bgvp2rcd13ifvqcu0","pricing_plan_id":"cebpf4jnsgd1na2vs0mg"},{"bike_id":"c9bccb89-034a-44c4-bf01-431b2573e0e0","system_id":"levelo_inurba_marseille","lat":43.29195,"lon":5.35809,"is_reserved":false,"is_disabled":false,"rental_uris":{"android":"levelo://app?vid=c9bccb89-034a-44c4-bf01-431b2573e0e0","ios":"levelo://app?vid=c9bccb89-034a-44c4-bf01-431b2573e0e0"},"vehicle_type_id":"4","last_reported":1722168829,"current_range_meters":0,"station_id":"ce4bhb12rcd13ifvqel0","pricing_plan_id":"cebpf4jnsgd1na2vs0mg"},{"bike_id":"d756be0b-f4c3-4e20-b138-24aa036c7711","system_id":"levelo_inurba_marseille","lat":43.313291,"lon":5.396838,"is_reserved":false,"is_disabled":false,"rental_uris":{"android":"levelo://app?vid=d756be0b-f4c3-4e20-b138-24aa036c7711","ios":"levelo://app?vid=d756be0b-f4c3-4e20-b138-24aa036c7711"},"vehicle_type_id":"4","last_reported":1722168829,"current_range_meters":17600,"station_id":"ce4bgvp2rcd13ifvqcu0","pricing_plan_id":"cebpf4jnsgd1na2vs0mg"},{"bike_id":"0fa7b754-c6cc-4fe7-91d0-161c3182c271","system_id":"levelo_inurba_marseille","lat":43.291994,"lon":5.357886,"is_reserved":false,"is_disabled":false,"rental_uris":{"android":"levelo://app?vid=0fa7b754-c6cc-4fe7-91d0-161c3182c271","ios":"levelo://app?vid=0fa7b754-c6cc-4fe7-91d0-161c3182c271"},"vehicle_type_id":"4","last_reported":1722168829,"current_range_meters":12000,"station_id":"ce4bhb12rcd13ifvqel0","pricing_plan_id":"cebpf4jnsgd1na2vs0mg"},{"bike_id":"fb536382-5af4-4c29-a47f-032526bf4f84","system_id":"levelo_inurba_marseille","lat":43.313291,"lon":5.396838,"is_reserved":false,"is_disabled":false,"rental_uris":{"android":"levelo://app?vid=fb536382-5af4-4c29-a47f-032526bf4f84","ios":"levelo://app?vid=fb536382-5af4-4c29-a47f-032526bf4f84"},"vehicle_type_id":"4","last_reported":1722168829,"current_range_meters":20800,"station_id":"ce4bgvp2rcd13ifvqcu0","pricing_plan_id":"cebpf4jnsgd1na2vs0mg"},{"bike_id":"6f099ac1-bfcb-443b-ab09-689f1afeabe1","system_id":"levelo_inurba_marseille","lat":43.29185,"lon":5.358,"is_reserved":false,"is_disabled":false,"rental_uris":{"android":"levelo://app?vid=6f099ac1-bfcb-443b-ab09-689f1afeabe1","ios":"levelo://app?vid=6f099ac1-bfcb-443b-ab09-689f1afeabe1"},"vehicle_type_id":"4","last_reported":1722168829,"current_range_meters":18000,"station_id":"ce4bhb12rcd13ifvqel0","pricing_plan_id":"cebpf4jnsgd1na2vs0mg"},{"bike_id":"5a2f84ef-4ea8-4e1f-8c6b-954e2be34bd8","system_id":"levelo_inurba_marseille","lat":43.309038,"lon":5.396546,"is_reserved":false,"is_disabled":false,"rental_uris":{"android":"levelo://app?vid=5a2f84ef-4ea8-4e1f-8c6b-954e2be34bd8","ios":"levelo://app?vid=5a2f84ef-4ea8-4e1f-8c6b-954e2be34bd8"},"vehicle_type_id":"4","last_reported":1722168829,"current_range_meters":7200,"station_id":"ce4bh012rcd13ifvqcv0","pricing_plan_id":"cebpf4jnsgd1na2vs0mg"},{"bike_id":"38cc7039-e890-4258-b3e2-869c7e73f018","system_id":"levelo_inurba_marseille","lat":43.309038,"lon":5.396546,"is_reserved":false,"is_disabled":false,"rental_uris":{"android":"levelo://app?vid=38cc7039-e890-4258-b3e2-869c7e73f018","ios":"levelo://app?vid=38cc7039-e890-4258-b3e2-869c7e73f018"},"vehicle_type_id":"4","last_reported":1722168829,"current_range_meters":19600,"station_id":"ce4bh012rcd13ifvqcv0","pricing_plan_id":"cebpf4jnsgd1na2vs0mg"},{"bike_id":"0f9e6b95-a6b5-4342-a76b-aa3eb3d602b0","system_id":"levelo_inurba_marseille","lat":43.309038,"lon":5.396546,"is_reserved":false,"is_disabled":false,"rental_uris":{"android":"levelo://app?vid=0f9e6b95-a6b5-4342-a76b-aa3eb3d602b0","ios":"levelo://app?vid=0f9e6b95-a6b5-4342-a76b-aa3eb3d602b0"},"vehicle_type_id":"4","last_reported":1722168829,"current_range_meters":18000,"station_id":"ce4bh012rcd13ifvqcv0","pricing_plan_id":"cebpf4jnsgd1na2vs0mg"},{"bike_id":"cecd89d4-5d33-4972-b3d2-c4be54a2feaa","system_id":"levelo_inurba_marseille","lat":43.291491,"lon":5.358863,"is_reserved":false,"is_disabled":false,"rental_uris":{"android":"levelo://app?vid=cecd89d4-5d33-4972-b3d2-c4be54a2feaa","ios":"levelo://app?vid=cecd89d4-5d33-4972-b3d2-c4be54a2feaa"},"vehicle_type_id":"4","last_reported":1722168829,"current_range_meters":1200,"station_id":"","pricing_plan_id":"cebpf4jnsgd1na2vs0mg"},{"bike_id":"51305610-32cb-4cf4-addf-f88127765b36","system_id":"levelo_inurba_marseille","lat":43.29421,"lon":5.38626,"is_reserved":false,"is_disabled":false,"rental_uris":{"android":"levelo://app?vid=51305610-32cb-4cf4-addf-f88127765b36","ios":"levelo://app?vid=51305610-32cb-4cf4-addf-f88127765b36"},"vehicle_type_id":"4","last_reported":1722168829,"current_range_meters":0,"station_id":"ce4bh2h2rcd13ifvqdh0","pricing_plan_id":"cebpf4jnsgd1na2vs0mg"},{"bike_id":"6a05463b-9501-4125-897e-fca4cca6ac56","system_id":"levelo_inurba_marseille","lat":43.292642,"lon":5.384254,"is_reserved":false,"is_disabled":false,"rental_uris":{"android":"levelo://app?vid=6a05463b-9501-4125-897e-fca4cca6ac56","ios":"levelo://app?vid=6a05463b-9501-4125-897e-fca4cca6ac56"},"vehicle_type_id":"4","last_reported":1722168829,"current_range_meters":0,"station_id":"ce4bh692rcd13ifvqea0","pricing_plan_id":"cebpf4jnsgd1na2vs0mg"},{"bike_id":"aa3bba0d-70f7-45fa-a0a9-5a571e89e399","system_id":"levelo_inurba_marseille","lat":43.292642,"lon":5.384254,"is_reserved":false,"is_disabled":false,"rental_uris":{"android":"levelo://app?vid=aa3bba0d-70f7-45fa-a0a9-5a571e89e399","ios":"levelo://app?vid=aa3bba0d-70f7-45fa-a0a9-5a571e89e399"},"vehicle_type_id":"4","last_reported":1722168829,"current_range_meters":0,"station_id":"ce4bh692rcd13ifvqea0","pricing_plan_id":"cebpf4jnsgd1na2vs0mg"},{"bike_id":"06429255-f756-489a-9540-1539676c84e6","system_id":"levelo_inurba_marseille","lat":43.292642,"lon":5.384254,"is_reserved":false,"is_disabled":false,"rental_uris":{"android":"levelo://app?vid=06429255-f756-489a-9540-1539676c84e6","ios":"levelo://app?vid=06429255-f756-489a-9540-1539676c84e6"},"vehicle_type_id":"4","last_reported":1722168829,"current_range_meters":30000,"station_id":"ce4bh692rcd13ifvqea0","pricing_plan_id":"cebpf4jnsgd1na2vs0mg"},{"bike_id":"d8a2ad7b-dca1-45aa-a77b-ed5f8680729a","system_id":"levelo_inurba_marseille","lat":43.290104,"lon":5.356111,"is_reserved":false,"is_disabled":false,"rental_uris":{"android":"levelo://app?vid=d8a2ad7b-dca1-45aa-a77b-ed5f8680729a","ios":"levelo://app?vid=d8a2ad7b-dca1-45aa-a77b-ed5f8680729a"},"vehicle_type_id":"4","last_reported":1722168829,"current_range_meters":21200,"station_id":"ce4bhb92rcd13ifvqen0","pricing_plan_id":"cebpf4jnsgd1na2vs0mg"},{"bike_id":"79af1ca6-518d-4f5a-ad1d-9d1f75899591","system_id":"levelo_inurba_marseille","lat":43.290104,"lon":5.356111,"is_reserved":false,"is_disabled":false,"rental_uris":{"android":"levelo://app?vid=79af1ca6-518d-4f5a-ad1d-9d1f75899591","ios":"levelo://app?vid=79af1ca6-518d-4f5a-ad1d-9d1f75899591"},"vehicle_type_id":"4","last_reported":1722168829,"current_range_meters":13200,"station_id":"ce4bhb92rcd13ifvqen0","pricing_plan_id":"cebpf4jnsgd1na2vs0mg"},{"bike_id":"b295bae0-edc7-4c95-a67c-325effda7a19","system_id":"levelo_inurba_marseille","lat":43.29023,"lon":5.35497,"is_reserved":false,"is_disabled":false,"rental_uris":{"android":"levelo://app?vid=b295bae0-edc7-4c95-a67c-325effda7a19","ios":"levelo://app?vid=b295bae0-edc7-4c95-a67c-325effda7a19"},"vehicle_type_id":"4","last_reported":1722168829,"current_range_meters":3200,"station_id":"","pricing_plan_id":"cebpf4jnsgd1na2vs0mg"},{"bike_id":"076e8809-b23a-4672-96b7-edeb061d4381","system_id":"levelo_inurba_marseille","lat":43.297815,"lon":5.393548,"is_reserved":false,"is_disabled":false,"rental_uris":{"android":"levelo://app?vid=076e8809-b23a-4672-96b7-edeb061d4381","ios":"levelo://app?vid=076e8809-b23a-4672-96b7-edeb061d4381"},"vehicle_type_id":"4","last_reported":1722168829,"current_range_meters":4400,"station_id":"chh1huq6cuj3fo74tm60","pricing_plan_id":"cebpf4jnsgd1na2vs0mg"},{"bike_id":"828a0e02-1d28-4a34-9442-cab090f76cb9","system_id":"levelo_inurba_marseille","lat":43.33023,"lon":5.39036,"is_reserved":false,"is_disabled":false,"rental_uris":{"android":"levelo://app?vid=828a0e02-1d28-4a34-9442-cab090f76cb9","ios":"levelo://app?vid=828a0e02-1d28-4a34-9442-cab090f76cb9"},"vehicle_type_id":"4","last_reported":1722168829,"current_range_meters":29200,"station_id":"ce4bhr92rcd13ifvqhrg","pricing_plan_id":"cebpf4jnsgd1na2vs0mg"},{"bike_id":"4bf291e3-3759-4c73-a5db-f99ef7278c19","system_id":"levelo_inurba_marseille","lat":43.330442,"lon":5.389148,"is_reserved":false,"is_disabled":false,"rental_uris":{"android":"levelo://app?vid=4bf291e3-3759-4c73-a5db-f99ef7278c19","ios":"levelo://app?vid=4bf291e3-3759-4c73-a5db-f99ef7278c19"},"vehicle_type_id":"4","last_reported":1722168829,"current_range_meters":10400,"station_id":"ce4bhr92rcd13ifvqhrg","pricing_plan_id":"cebpf4jnsgd1na2vs0mg"},{"bike_id":"f0df78a5-b50c-4261-85df-bdca09e11023","system_id":"levelo_inurba_marseille","lat":43.330442,"lon":5.389148,"is_reserved":false,"is_disabled":false,"rental_uris":{"android":"levelo://app?vid=f0df78a5-b50c-4261-85df-bdca09e11023","ios":"levelo://app?vid=f0df78a5-b50c-4261-85df-bdca09e11023"},"vehicle_type_id":"4","last_reported":1722168829,"current_range_meters":20000,"station_id":"ce4bhr92rcd13ifvqhrg","pricing_plan_id":"cebpf4jnsgd1na2vs0mg"},{"bike_id":"909fb947-55c0-4649-acac-596dbb4e1468","system_id":"levelo_inurba_marseille","lat":43.330442,"lon":5.389148,"is_reserved":false,"is_disabled":false,"rental_uris":{"android":"levelo://app?vid=909fb947-55c0-4649-acac-596dbb4e1468","ios":"levelo://app?vid=909fb947-55c0-4649-acac-596dbb4e1468"},"vehicle_type_id":"4","last_reported":1722168829,"current_range_meters":31600,"station_id":"ce4bhr92rcd13ifvqhrg","pricing_plan_id":"cebpf4jnsgd1na2vs0mg"},{"bike_id":"e10c41d8-6908-42d4-ab91-7f26ca7cd2e2","system_id":"levelo_inurba_marseille","lat":43.31075,"lon":5.40097,"is_reserved":false,"is_disabled":false,"rental_uris":{"android":"levelo://app?vid=e10c41d8-6908-42d4-ab91-7f26ca7cd2e2","ios":"levelo://app?vid=e10c41d8-6908-42d4-ab91-7f26ca7cd2e2"},"vehicle_type_id":"4","last_reported":1722168829,"current_range_meters":0,"station_id":"","pricing_plan_id":"cebpf4jnsgd1na2vs0mg"},{"bike_id":"20a7bf81-31fd-4cb5-b454-68d5314a31b8","system_id":"levelo_inurba_marseille","lat":43.337374,"lon":5.374686,"is_reserved":false,"is_disabled":false,"rental_uris":{"android":"levelo://app?vid=20a7bf81-31fd-4cb5-b454-68d5314a31b8","ios":"levelo://app?vid=20a7bf81-31fd-4cb5-b454-68d5314a31b8"},"vehicle_type_id":"4","last_reported":1722168829,"current_range_meters":27600,"station_id":"","pricing_plan_id":"cebpf4jnsgd1na2vs0mg"},{"bike_id":"3e79250c-7764-488c-b465-61fd16d31170","system_id":"levelo_inurba_marseille","lat":43.33736,"lon":5.37477,"is_reserved":false,"is_disabled":false,"rental_uris":{"android":"levelo://app?vid=3e79250c-7764-488c-b465-61fd16d31170","ios":"levelo://app?vid=3e79250c-7764-488c-b465-61fd16d31170"},"vehicle_type_id":"4","last_reported":1722168829,"current_range_meters":25600,"station_id":"","pricing_plan_id":"cebpf4jnsgd1na2vs0mg"},{"bike_id":"e92bf1d5-b1ca-44cd-9b31-a0496082825d","system_id":"levelo_inurba_marseille","lat":43.33733,"lon":5.37507,"is_reserved":false,"is_disabled":false,"rental_uris":{"android":"levelo://app?vid=e92bf1d5-b1ca-44cd-9b31-a0496082825d","ios":"levelo://app?vid=e92bf1d5-b1ca-44cd-9b31-a0496082825d"},"vehicle_type_id":"4","last_reported":1722168829,"current_range_meters":25600,"station_id":"","pricing_plan_id":"cebpf4jnsgd1na2vs0mg"},{"bike_id":"f8e8dd66-c7d6-4bd0-91ac-ef4274ae24f3","system_id":"levelo_inurba_marseille","lat":43.337412,"lon":5.374667,"is_reserved":false,"is_disabled":false,"rental_uris":{"android":"levelo://app?vid=f8e8dd66-c7d6-4bd0-91ac-ef4274ae24f3","ios":"levelo://app?vid=f8e8dd66-c7d6-4bd0-91ac-ef4274ae24f3"},"vehicle_type_id":"4","last_reported":1722168829,"current_range_meters":16400,"station_id":"","pricing_plan_id":"cebpf4jnsgd1na2vs0mg"},{"bike_id":"0aa226e6-2195-431b-bdc4-34bf44420451","system_id":"levelo_inurba_marseille","lat":43.337467,"lon":5.374397,"is_reserved":false,"is_disabled":false,"rental_uris":{"android":"levelo://app?vid=0aa226e6-2195-431b-bdc4-34bf44420451","ios":"levelo://app?vid=0aa226e6-2195-431b-bdc4-34bf44420451"},"vehicle_type_id":"4","last_reported":1722168829,"current_range_meters":23600,"station_id":"","pricing_plan_id":"cebpf4jnsgd1na2vs0mg"},{"bike_id":"28ff567c-281c-4a43-913e-e1206badf942","system_id":"levelo_inurba_marseille","lat":43.337458,"lon":5.374648,"is_reserved":false,"is_disabled":false,"rental_uris":{"android":"levelo://app?vid=28ff567c-281c-4a43-913e-e1206badf942","ios":"levelo://app?vid=28ff567c-281c-4a43-913e-e1206badf942"},"vehicle_type_id":"4","last_reported":1722168829,"current_range_meters":19200,"station_id":"","pricing_plan_id":"cebpf4jnsgd1na2vs0mg"},{"bike_id":"6cf0c176-f7c0-4e29-a014-f3a3b29e1d2a","system_id":"levelo_inurba_marseille","lat":43.337494,"lon":5.37447,"is_reserved":false,"is_disabled":false,"rental_uris":{"android":"levelo://app?vid=6cf0c176-f7c0-4e29-a014-f3a3b29e1d2a","ios":"levelo://app?vid=6cf0c176-f7c0-4e29-a014-f3a3b29e1d2a"},"vehicle_type_id":"4","last_reported":1722168829,"current_range_meters":24400,"station_id":"","pricing_plan_id":"cebpf4jnsgd1na2vs0mg"},{"bike_id":"6ff48f3c-927a-470d-a08e-7714539082f0","system_id":"levelo_inurba_marseille","lat":43.33746,"lon":5.37471,"is_reserved":false,"is_disabled":false,"rental_uris":{"android":"levelo://app?vid=6ff48f3c-927a-470d-a08e-7714539082f0","ios":"levelo://app?vid=6ff48f3c-927a-470d-a08e-7714539082f0"},"vehicle_type_id":"4","last_reported":1722168829,"current_range_meters":0,"station_id":"","pricing_plan_id":"cebpf4jnsgd1na2vs0mg"},{"bike_id":"ec4f49d2-241d-4de9-bb35-e62af818555b","system_id":"levelo_inurba_marseille","lat":43.309371,"lon":5.401449,"is_reserved":false,"is_disabled":false,"rental_uris":{"android":"levelo://app?vid=ec4f49d2-241d-4de9-bb35-e62af818555b","ios":"levelo://app?vid=ec4f49d2-241d-4de9-bb35-e62af818555b"},"vehicle_type_id":"4","last_reported":1722168829,"current_range_meters":12400,"station_id":"ce4bgvp2rcd13ifvqct0","pricing_plan_id":"cebpf4jnsgd1na2vs0mg"},{"bike_id":"f0338c4f-2f14-449f-abf8-25e44f36ca55","system_id":"levelo_inurba_marseille","lat":43.337503,"lon":5.374507,"is_reserved":false,"is_disabled":false,"rental_uris":{"android":"levelo://app?vid=f0338c4f-2f14-449f-abf8-25e44f36ca55","ios":"levelo://app?vid=f0338c4f-2f14-449f-abf8-25e44f36ca55"},"vehicle_type_id":"4","last_reported":1722168829,"current_range_meters":26000,"station_id":"","pricing_plan_id":"cebpf4jnsgd1na2vs0mg"},{"bike_id":"ce2a281f-6b17-464e-8289-d463ea4cfa07","system_id":"levelo_inurba_marseille","lat":43.337553,"lon":5.374554,"is_reserved":false,"is_disabled":false,"rental_uris":{"android":"levelo://app?vid=ce2a281f-6b17-464e-8289-d463ea4cfa07","ios":"levelo://app?vid=ce2a281f-6b17-464e-8289-d463ea4cfa07"},"vehicle_type_id":"4","last_reported":1722168829,"current_range_meters":26400,"station_id":"","pricing_plan_id":"cebpf4jnsgd1na2vs0mg"},{"bike_id":"baf34265-29f5-4b65-b787-c7872fad7bf2","system_id":"levelo_inurba_marseille","lat":43.30642,"lon":5.401031,"is_reserved":false,"is_disabled":false,"rental_uris":{"android":"levelo://app?vid=baf34265-29f5-4b65-b787-c7872fad7bf2","ios":"levelo://app?vid=baf34265-29f5-4b65-b787-c7872fad7bf2"},"vehicle_type_id":"4","last_reported":1722168829,"current_range_meters":7600,"station_id":"ce4bh112rcd13ifvqda0","pricing_plan_id":"cebpf4jnsgd1na2vs0mg"},{"bike_id":"d6c910bc-3bc0-45ae-a27a-2f727570abd3","system_id":"levelo_inurba_marseille","lat":43.306412,"lon":5.401035,"is_reserved":false,"is_disabled":false,"rental_uris":{"android":"levelo://app?vid=d6c910bc-3bc0-45ae-a27a-2f727570abd3","ios":"levelo://app?vid=d6c910bc-3bc0-45ae-a27a-2f727570abd3"},"vehicle_type_id":"4","last_reported":1722168829,"current_range_meters":3200,"station_id":"ce4bh112rcd13ifvqda0","pricing_plan_id":"cebpf4jnsgd1na2vs0mg"},{"bike_id":"4473ad58-22c7-4eb4-9042-2947509d3f5c","system_id":"levelo_inurba_marseille","lat":43.291994,"lon":5.392907,"is_reserved":false,"is_disabled":false,"rental_uris":{"android":"levelo://app?vid=4473ad58-22c7-4eb4-9042-2947509d3f5c","ios":"levelo://app?vid=4473ad58-22c7-4eb4-9042-2947509d3f5c"},"vehicle_type_id":"4","last_reported":1722168829,"current_range_meters":8000,"station_id":"ce4bh192rcd13ifvqdd0","pricing_plan_id":"cebpf4jnsgd1na2vs0mg"},{"bike_id":"d9e72e2f-5c26-4e96-a338-c5eabee9bba9","system_id":"levelo_inurba_marseille","lat":43.286961,"lon":5.373785,"is_reserved":false,"is_disabled":false,"rental_uris":{"android":"levelo://app?vid=d9e72e2f-5c26-4e96-a338-c5eabee9bba9","ios":"levelo://app?vid=d9e72e2f-5c26-4e96-a338-c5eabee9bba9"},"vehicle_type_id":"4","last_reported":1722168829,"current_range_meters":10000,"station_id":"ce4bh3p2rcd13ifvqdq0","pricing_plan_id":"cebpf4jnsgd1na2vs0mg"},{"bike_id":"10c204a5-9b24-484b-af8a-a8582f140310","system_id":"levelo_inurba_marseille","lat":43.286593,"lon":5.363346,"is_reserved":false,"is_disabled":false,"rental_uris":{"android":"levelo://app?vid=10c204a5-9b24-484b-af8a-a8582f140310","ios":"levelo://app?vid=10c204a5-9b24-484b-af8a-a8582f140310"},"vehicle_type_id":"4","last_reported":1722168829,"current_range_meters":15200,"station_id":"ce4bhah2rcd13ifvqej0","pricing_plan_id":"cebpf4jnsgd1na2vs0mg"},{"bike_id":"c3a5d375-0a3f-48ce-8086-39c0375d8039","system_id":"levelo_inurba_marseille","lat":43.286039,"lon":5.370681,"is_reserved":false,"is_disabled":false,"rental_uris":{"android":"levelo://app?vid=c3a5d375-0a3f-48ce-8086-39c0375d8039","ios":"levelo://app?vid=c3a5d375-0a3f-48ce-8086-39c0375d8039"},"vehicle_type_id":"4","last_reported":1722168829,"current_range_meters":25200,"station_id":"ce4bht12rcd13ifvqi60","pricing_plan_id":"cebpf4jnsgd1na2vs0mg"},{"bike_id":"77d7b40f-9f3a-4407-b63a-e75bceffad82","system_id":"levelo_inurba_marseille","lat":43.316821,"lon":5.404737,"is_reserved":false,"is_disabled":false,"rental_uris":{"android":"levelo://app?vid=77d7b40f-9f3a-4407-b63a-e75bceffad82","ios":"levelo://app?vid=77d7b40f-9f3a-4407-b63a-e75bceffad82"},"vehicle_type_id":"4","last_reported":1722168829,"current_range_meters":4400,"station_id":"ce4bh012rcd13ifvqd00","pricing_plan_id":"cebpf4jnsgd1na2vs0mg"},{"bike_id":"6f81add7-e92d-4ca9-b356-276e2a5c3a73","system_id":"levelo_inurba_marseille","lat":43.291994,"lon":5.392907,"is_reserved":false,"is_disabled":false,"rental_uris":{"android":"levelo://app?vid=6f81add7-e92d-4ca9-b356-276e2a5c3a73","ios":"levelo://app?vid=6f81add7-e92d-4ca9-b356-276e2a5c3a73"},"vehicle_type_id":"4","last_reported":1722168829,"current_range_meters":2800,"station_id":"ce4bh192rcd13ifvqdd0","pricing_plan_id":"cebpf4jnsgd1na2vs0mg"},{"bike_id":"fdc908f5-f122-4f1f-be27-93fb3dd5d79a","system_id":"levelo_inurba_marseille","lat":43.284538,"lon":5.358657,"is_reserved":false,"is_disabled":false,"rental_uris":{"android":"levelo://app?vid=fdc908f5-f122-4f1f-be27-93fb3dd5d79a","ios":"levelo://app?vid=fdc908f5-f122-4f1f-be27-93fb3dd5d79a"},"vehicle_type_id":"4","last_reported":1722168829,"current_range_meters":12800,"station_id":"ce4bhah2rcd13ifvqei0","pricing_plan_id":"cebpf4jnsgd1na2vs0mg"},{"bike_id":"34c1f04b-2a39-4a87-b26c-ea92186562fc","system_id":"levelo_inurba_marseille","lat":43.284534,"lon":5.358662,"is_reserved":false,"is_disabled":false,"rental_uris":{"android":"levelo://app?vid=34c1f04b-2a39-4a87-b26c-ea92186562fc","ios":"levelo://app?vid=34c1f04b-2a39-4a87-b26c-ea92186562fc"},"vehicle_type_id":"4","last_reported":1722168829,"current_range_meters":18800,"station_id":"ce4bhah2rcd13ifvqei0","pricing_plan_id":"cebpf4jnsgd1na2vs0mg"},{"bike_id":"ae7bd0ed-fcf4-45e0-a6d8-d3f286ea100a","system_id":"levelo_inurba_marseille","lat":43.284538,"lon":5.358657,"is_reserved":false,"is_disabled":false,"rental_uris":{"android":"levelo://app?vid=ae7bd0ed-fcf4-45e0-a6d8-d3f286ea100a","ios":"levelo://app?vid=ae7bd0ed-fcf4-45e0-a6d8-d3f286ea100a"},"vehicle_type_id":"4","last_reported":1722168829,"current_range_meters":22400,"station_id":"ce4bhah2rcd13ifvqei0","pricing_plan_id":"cebpf4jnsgd1na2vs0mg"},{"bike_id":"b2f3759b-d39e-43cc-ac2e-2c4e8a13f120","system_id":"levelo_inurba_marseille","lat":43.284538,"lon":5.358657,"is_reserved":false,"is_disabled":false,"rental_uris":{"android":"levelo://app?vid=b2f3759b-d39e-43cc-ac2e-2c4e8a13f120","ios":"levelo://app?vid=b2f3759b-d39e-43cc-ac2e-2c4e8a13f120"},"vehicle_type_id":"4","last_reported":1722168829,"current_range_meters":14000,"station_id":"ce4bhah2rcd13ifvqei0","pricing_plan_id":"cebpf4jnsgd1na2vs0mg"},{"bike_id":"a2f8eb01-5e34-4bc8-ad90-6a861e983e04","system_id":"levelo_inurba_marseille","lat":43.284538,"lon":5.358657,"is_reserved":false,"is_disabled":false,"rental_uris":{"android":"levelo://app?vid=a2f8eb01-5e34-4bc8-ad90-6a861e983e04","ios":"levelo://app?vid=a2f8eb01-5e34-4bc8-ad90-6a861e983e04"},"vehicle_type_id":"4","last_reported":1722168829,"current_range_meters":15600,"station_id":"ce4bhah2rcd13ifvqei0","pricing_plan_id":"cebpf4jnsgd1na2vs0mg"},{"bike_id":"55543480-eb04-4b86-8095-1b28c1e9e888","system_id":"levelo_inurba_marseille","lat":43.284538,"lon":5.358657,"is_reserved":false,"is_disabled":false,"rental_uris":{"android":"levelo://app?vid=55543480-eb04-4b86-8095-1b28c1e9e888","ios":"levelo://app?vid=55543480-eb04-4b86-8095-1b28c1e9e888"},"vehicle_type_id":"4","last_reported":1722168829,"current_range_meters":20800,"station_id":"ce4bhah2rcd13ifvqei0","pricing_plan_id":"cebpf4jnsgd1na2vs0mg"},{"bike_id":"615f008e-7e80-40e7-9d7a-004d25759e0d","system_id":"levelo_inurba_marseille","lat":43.284534,"lon":5.358662,"is_reserved":false,"is_disabled":false,"rental_uris":{"android":"levelo://app?vid=615f008e-7e80-40e7-9d7a-004d25759e0d","ios":"levelo://app?vid=615f008e-7e80-40e7-9d7a-004d25759e0d"},"vehicle_type_id":"4","last_reported":1722168829,"current_range_meters":28400,"station_id":"ce4bhah2rcd13ifvqei0","pricing_plan_id":"cebpf4jnsgd1na2vs0mg"},{"bike_id":"fc99ce9b-be37-4256-992e-7b8b9e6267f3","system_id":"levelo_inurba_marseille","lat":43.284534,"lon":5.358662,"is_reserved":false,"is_disabled":false,"rental_uris":{"android":"levelo://app?vid=fc99ce9b-be37-4256-992e-7b8b9e6267f3","ios":"levelo://app?vid=fc99ce9b-be37-4256-992e-7b8b9e6267f3"},"vehicle_type_id":"4","last_reported":1722168829,"current_range_meters":28000,"station_id":"ce4bhah2rcd13ifvqei0","pricing_plan_id":"cebpf4jnsgd1na2vs0mg"},{"bike_id":"ca383815-d2d8-495c-aac0-279a23b97eee","system_id":"levelo_inurba_marseille","lat":43.294314,"lon":5.397498,"is_reserved":false,"is_disabled":false,"rental_uris":{"android":"levelo://app?vid=ca383815-d2d8-495c-aac0-279a23b97eee","ios":"levelo://app?vid=ca383815-d2d8-495c-aac0-279a23b97eee"},"vehicle_type_id":"4","last_reported":1722168829,"current_range_meters":0,"station_id":"ce4bh3h2rcd13ifvqdo0","pricing_plan_id":"cebpf4jnsgd1na2vs0mg"},{"bike_id":"26d6448b-add6-4e55-bcdf-a2ebd2d2ddca","system_id":"levelo_inurba_marseille","lat":43.28619,"lon":5.35106,"is_reserved":false,"is_disabled":false,"rental_uris":{"android":"levelo://app?vid=26d6448b-add6-4e55-bcdf-a2ebd2d2ddca","ios":"levelo://app?vid=26d6448b-add6-4e55-bcdf-a2ebd2d2ddca"},"vehicle_type_id":"4","last_reported":1722168829,"current_range_meters":3600,"station_id":"ce4bhch2rcd13ifvqeug","pricing_plan_id":"cebpf4jnsgd1na2vs0mg"},{"bike_id":"4016a585-1706-4dfc-ad78-ca4e1c87d761","system_id":"levelo_inurba_marseille","lat":43.28618,"lon":5.35104,"is_reserved":false,"is_disabled":false,"rental_uris":{"android":"levelo://app?vid=4016a585-1706-4dfc-ad78-ca4e1c87d761","ios":"levelo://app?vid=4016a585-1706-4dfc-ad78-ca4e1c87d761"},"vehicle_type_id":"4","last_reported":1722168829,"current_range_meters":16000,"station_id":"ce4bhch2rcd13ifvqeug","pricing_plan_id":"cebpf4jnsgd1na2vs0mg"},{"bike_id":"bb710c1b-2ff2-415e-be34-c1fb5feb91bb","system_id":"levelo_inurba_marseille","lat":43.285856,"lon":5.350771,"is_reserved":false,"is_disabled":false,"rental_uris":{"android":"levelo://app?vid=bb710c1b-2ff2-415e-be34-c1fb5feb91bb","ios":"levelo://app?vid=bb710c1b-2ff2-415e-be34-c1fb5feb91bb"},"vehicle_type_id":"4","last_reported":1722168829,"current_range_meters":10400,"station_id":"ce4bhch2rcd13ifvqeug","pricing_plan_id":"cebpf4jnsgd1na2vs0mg"},{"bike_id":"fc413715-7d9d-4232-baa9-5f3cc708fcbc","system_id":"levelo_inurba_marseille","lat":43.286161,"lon":5.351073,"is_reserved":false,"is_disabled":false,"rental_uris":{"android":"levelo://app?vid=fc413715-7d9d-4232-baa9-5f3cc708fcbc","ios":"levelo://app?vid=fc413715-7d9d-4232-baa9-5f3cc708fcbc"},"vehicle_type_id":"4","last_reported":1722168829,"current_range_meters":0,"station_id":"","pricing_plan_id":"cebpf4jnsgd1na2vs0mg"},{"bike_id":"4236d5c5-f454-47b4-8383-446901ef84b5","system_id":"levelo_inurba_marseille","lat":43.28618,"lon":5.35101,"is_reserved":false,"is_disabled":false,"rental_uris":{"android":"levelo://app?vid=4236d5c5-f454-47b4-8383-446901ef84b5","ios":"levelo://app?vid=4236d5c5-f454-47b4-8383-446901ef84b5"},"vehicle_type_id":"4","last_reported":1722168829,"current_range_meters":19600,"station_id":"ce4bhch2rcd13ifvqeug","pricing_plan_id":"cebpf4jnsgd1na2vs0mg"},{"bike_id":"0a6983a5-5b2b-427f-988d-160fe9ab847f","system_id":"levelo_inurba_marseille","lat":43.28617,"lon":5.35103,"is_reserved":false,"is_disabled":false,"rental_uris":{"android":"levelo://app?vid=0a6983a5-5b2b-427f-988d-160fe9ab847f","ios":"levelo://app?vid=0a6983a5-5b2b-427f-988d-160fe9ab847f"},"vehicle_type_id":"4","last_reported":1722168829,"current_range_meters":7600,"station_id":"ce4bhch2rcd13ifvqeug","pricing_plan_id":"cebpf4jnsgd1na2vs0mg"},{"bike_id":"ec86c6e9-95ae-4718-8b4f-dd7ce1dfbfe4","system_id":"levelo_inurba_marseille","lat":43.28616,"lon":5.35105,"is_reserved":false,"is_disabled":false,"rental_uris":{"android":"levelo://app?vid=ec86c6e9-95ae-4718-8b4f-dd7ce1dfbfe4","ios":"levelo://app?vid=ec86c6e9-95ae-4718-8b4f-dd7ce1dfbfe4"},"vehicle_type_id":"4","last_reported":1722168829,"current_range_meters":6800,"station_id":"ce4bhch2rcd13ifvqeug","pricing_plan_id":"cebpf4jnsgd1na2vs0mg"},{"bike_id":"b4c3b0f3-971b-4d0a-8fa4-2948a2e34b7b","system_id":"levelo_inurba_marseille","lat":43.28615,"lon":5.35107,"is_reserved":false,"is_disabled":false,"rental_uris":{"android":"levelo://app?vid=b4c3b0f3-971b-4d0a-8fa4-2948a2e34b7b","ios":"levelo://app?vid=b4c3b0f3-971b-4d0a-8fa4-2948a2e34b7b"},"vehicle_type_id":"4","last_reported":1722168829,"current_range_meters":0,"station_id":"ce4bhch2rcd13ifvqeug","pricing_plan_id":"cebpf4jnsgd1na2vs0mg"},{"bike_id":"8e8af43b-eb7c-48e7-ab33-14ab35283800","system_id":"levelo_inurba_marseille","lat":43.28617,"lon":5.351,"is_reserved":false,"is_disabled":false,"rental_uris":{"android":"levelo://app?vid=8e8af43b-eb7c-48e7-ab33-14ab35283800","ios":"levelo://app?vid=8e8af43b-eb7c-48e7-ab33-14ab35283800"},"vehicle_type_id":"4","last_reported":1722168829,"current_range_meters":0,"station_id":"ce4bhch2rcd13ifvqeug","pricing_plan_id":"cebpf4jnsgd1na2vs0mg"},{"bike_id":"1435fa2f-e67d-40a2-a10e-75608c2de28b","system_id":"levelo_inurba_marseille","lat":43.28615,"lon":5.35103,"is_reserved":false,"is_disabled":false,"rental_uris":{"android":"levelo://app?vid=1435fa2f-e67d-40a2-a10e-75608c2de28b","ios":"levelo://app?vid=1435fa2f-e67d-40a2-a10e-75608c2de28b"},"vehicle_type_id":"4","last_reported":1722168829,"current_range_meters":27200,"station_id":"ce4bhch2rcd13ifvqeug","pricing_plan_id":"cebpf4jnsgd1na2vs0mg"},{"bike_id":"1d523919-ec2c-40df-902d-ccab4729d7d3","system_id":"levelo_inurba_marseille","lat":43.28615,"lon":5.351,"is_reserved":false,"is_disabled":false,"rental_uris":{"android":"levelo://app?vid=1d523919-ec2c-40df-902d-ccab4729d7d3","ios":"levelo://app?vid=1d523919-ec2c-40df-902d-ccab4729d7d3"},"vehicle_type_id":"4","last_reported":1722168829,"current_range_meters":13200,"station_id":"ce4bhch2rcd13ifvqeug","pricing_plan_id":"cebpf4jnsgd1na2vs0mg"},{"bike_id":"7c09103e-0e5d-482d-be68-b8ee242ba218","system_id":"levelo_inurba_marseille","lat":43.28613,"lon":5.35103,"is_reserved":false,"is_disabled":false,"rental_uris":{"android":"levelo://app?vid=7c09103e-0e5d-482d-be68-b8ee242ba218","ios":"levelo://app?vid=7c09103e-0e5d-482d-be68-b8ee242ba218"},"vehicle_type_id":"4","last_reported":1722168829,"current_range_meters":8000,"station_id":"ce4bhch2rcd13ifvqeug","pricing_plan_id":"cebpf4jnsgd1na2vs0mg"},{"bike_id":"4acef82f-8179-48fd-954b-c5c3be31d421","system_id":"levelo_inurba_marseille","lat":43.28615,"lon":5.35096,"is_reserved":false,"is_disabled":false,"rental_uris":{"android":"levelo://app?vid=4acef82f-8179-48fd-954b-c5c3be31d421","ios":"levelo://app?vid=4acef82f-8179-48fd-954b-c5c3be31d421"},"vehicle_type_id":"4","last_reported":1722168829,"current_range_meters":29600,"station_id":"ce4bhch2rcd13ifvqeug","pricing_plan_id":"cebpf4jnsgd1na2vs0mg"},{"bike_id":"184f59fc-cff5-45ce-9622-4084aa7f68ab","system_id":"levelo_inurba_marseille","lat":43.28613,"lon":5.351,"is_reserved":false,"is_disabled":false,"rental_uris":{"android":"levelo://app?vid=184f59fc-cff5-45ce-9622-4084aa7f68ab","ios":"levelo://app?vid=184f59fc-cff5-45ce-9622-4084aa7f68ab"},"vehicle_type_id":"4","last_reported":1722168829,"current_range_meters":22800,"station_id":"ce4bhch2rcd13ifvqeug","pricing_plan_id":"cebpf4jnsgd1na2vs0mg"},{"bike_id":"fec3a184-2b2f-455b-a5cd-c6b86c2077be","system_id":"levelo_inurba_marseille","lat":43.2861,"lon":5.35105,"is_reserved":false,"is_disabled":false,"rental_uris":{"android":"levelo://app?vid=fec3a184-2b2f-455b-a5cd-c6b86c2077be","ios":"levelo://app?vid=fec3a184-2b2f-455b-a5cd-c6b86c2077be"},"vehicle_type_id":"4","last_reported":1722168829,"current_range_meters":25200,"station_id":"ce4bhch2rcd13ifvqeug","pricing_plan_id":"cebpf4jnsgd1na2vs0mg"},{"bike_id":"28d44d6e-59c1-4352-ac37-50c0a8492a30","system_id":"levelo_inurba_marseille","lat":43.285856,"lon":5.350771,"is_reserved":false,"is_disabled":false,"rental_uris":{"android":"levelo://app?vid=28d44d6e-59c1-4352-ac37-50c0a8492a30","ios":"levelo://app?vid=28d44d6e-59c1-4352-ac37-50c0a8492a30"},"vehicle_type_id":"4","last_reported":1722168829,"current_range_meters":18400,"station_id":"ce4bhch2rcd13ifvqeug","pricing_plan_id":"cebpf4jnsgd1na2vs0mg"},{"bike_id":"94521bc0-0451-49b5-8263-3e146be05b41","system_id":"levelo_inurba_marseille","lat":43.2861,"lon":5.351,"is_reserved":false,"is_disabled":false,"rental_uris":{"android":"levelo://app?vid=94521bc0-0451-49b5-8263-3e146be05b41","ios":"levelo://app?vid=94521bc0-0451-49b5-8263-3e146be05b41"},"vehicle_type_id":"4","last_reported":1722168829,"current_range_meters":18000,"station_id":"ce4bhch2rcd13ifvqeug","pricing_plan_id":"cebpf4jnsgd1na2vs0mg"},{"bike_id":"fa958f03-0bf7-435e-a875-d6e1b3be7f7e","system_id":"levelo_inurba_marseille","lat":43.2868,"lon":5.38652,"is_reserved":false,"is_disabled":false,"rental_uris":{"android":"levelo://app?vid=fa958f03-0bf7-435e-a875-d6e1b3be7f7e","ios":"levelo://app?vid=fa958f03-0bf7-435e-a875-d6e1b3be7f7e"},"vehicle_type_id":"4","last_reported":1722168829,"current_range_meters":0,"station_id":"ce4bh492rcd13ifvqdug","pricing_plan_id":"cebpf4jnsgd1na2vs0mg"},{"bike_id":"dfc993be-216e-470c-a02a-8547c3a7f00b","system_id":"levelo_inurba_marseille","lat":43.319179,"lon":5.407725,"is_reserved":false,"is_disabled":false,"rental_uris":{"android":"levelo://app?vid=dfc993be-216e-470c-a02a-8547c3a7f00b","ios":"levelo://app?vid=dfc993be-216e-470c-a02a-8547c3a7f00b"},"vehicle_type_id":"4","last_reported":1722168829,"current_range_meters":31200,"station_id":"ce4bhq12rcd13ifvqhig","pricing_plan_id":"cebpf4jnsgd1na2vs0mg"},{"bike_id":"228c4b4e-bd25-4727-8075-759a3cf801c7","system_id":"levelo_inurba_marseille","lat":43.319179,"lon":5.407725,"is_reserved":false,"is_disabled":false,"rental_uris":{"android":"levelo://app?vid=228c4b4e-bd25-4727-8075-759a3cf801c7","ios":"levelo://app?vid=228c4b4e-bd25-4727-8075-759a3cf801c7"},"vehicle_type_id":"4","last_reported":1722168829,"current_range_meters":28800,"station_id":"ce4bhq12rcd13ifvqhig","pricing_plan_id":"cebpf4jnsgd1na2vs0mg"},{"bike_id":"b6fad994-a7b8-4b1d-858c-55b8d0701828","system_id":"levelo_inurba_marseille","lat":43.319179,"lon":5.407725,"is_reserved":false,"is_disabled":false,"rental_uris":{"android":"levelo://app?vid=b6fad994-a7b8-4b1d-858c-55b8d0701828","ios":"levelo://app?vid=b6fad994-a7b8-4b1d-858c-55b8d0701828"},"vehicle_type_id":"4","last_reported":1722168829,"current_range_meters":31200,"station_id":"ce4bhq12rcd13ifvqhig","pricing_plan_id":"cebpf4jnsgd1na2vs0mg"},{"bike_id":"6d28b682-8c98-48dd-b70b-dd2af10c1a78","system_id":"levelo_inurba_marseille","lat":43.319179,"lon":5.407725,"is_reserved":false,"is_disabled":false,"rental_uris":{"android":"levelo://app?vid=6d28b682-8c98-48dd-b70b-dd2af10c1a78","ios":"levelo://app?vid=6d28b682-8c98-48dd-b70b-dd2af10c1a78"},"vehicle_type_id":"4","last_reported":1722168829,"current_range_meters":28400,"station_id":"ce4bhq12rcd13ifvqhig","pricing_plan_id":"cebpf4jnsgd1na2vs0mg"},{"bike_id":"c2353a70-f133-443c-aa1c-852598059b05","system_id":"levelo_inurba_marseille","lat":43.319179,"lon":5.407725,"is_reserved":false,"is_disabled":false,"rental_uris":{"android":"levelo://app?vid=c2353a70-f133-443c-aa1c-852598059b05","ios":"levelo://app?vid=c2353a70-f133-443c-aa1c-852598059b05"},"vehicle_type_id":"4","last_reported":1722168829,"current_range_meters":9600,"station_id":"ce4bhq12rcd13ifvqhig","pricing_plan_id":"cebpf4jnsgd1na2vs0mg"},{"bike_id":"ef5ea76f-525e-4895-ae65-b9eba8f3b44d","system_id":"levelo_inurba_marseille","lat":43.28894,"lon":5.39242,"is_reserved":false,"is_disabled":false,"rental_uris":{"android":"levelo://app?vid=ef5ea76f-525e-4895-ae65-b9eba8f3b44d","ios":"levelo://app?vid=ef5ea76f-525e-4895-ae65-b9eba8f3b44d"},"vehicle_type_id":"4","last_reported":1722168829,"current_range_meters":0,"station_id":"","pricing_plan_id":"cebpf4jnsgd1na2vs0mg"},{"bike_id":"fe5c2b27-b79d-47ad-9acd-0ce6a9f756c1","system_id":"levelo_inurba_marseille","lat":43.33717,"lon":5.391857,"is_reserved":false,"is_disabled":false,"rental_uris":{"android":"levelo://app?vid=fe5c2b27-b79d-47ad-9acd-0ce6a9f756c1","ios":"levelo://app?vid=fe5c2b27-b79d-47ad-9acd-0ce6a9f756c1"},"vehicle_type_id":"4","last_reported":1722168829,"current_range_meters":26800,"station_id":"ce4bhr92rcd13ifvqhsg","pricing_plan_id":"cebpf4jnsgd1na2vs0mg"},{"bike_id":"3439f520-7411-4a89-bbd2-a2c4b4d4923d","system_id":"levelo_inurba_marseille","lat":43.337168,"lon":5.391825,"is_reserved":false,"is_disabled":false,"rental_uris":{"android":"levelo://app?vid=3439f520-7411-4a89-bbd2-a2c4b4d4923d","ios":"levelo://app?vid=3439f520-7411-4a89-bbd2-a2c4b4d4923d"},"vehicle_type_id":"4","last_reported":1722168829,"current_range_meters":31600,"station_id":"ce4bhr92rcd13ifvqhsg","pricing_plan_id":"cebpf4jnsgd1na2vs0mg"},{"bike_id":"a750ba14-bb79-4daf-909f-6d7f063560f2","system_id":"levelo_inurba_marseille","lat":43.323464,"lon":5.406297,"is_reserved":false,"is_disabled":false,"rental_uris":{"android":"levelo://app?vid=a750ba14-bb79-4daf-909f-6d7f063560f2","ios":"levelo://app?vid=a750ba14-bb79-4daf-909f-6d7f063560f2"},"vehicle_type_id":"4","last_reported":1722168829,"current_range_meters":14000,"station_id":"ce4bhq92rcd13ifvqhjg","pricing_plan_id":"cebpf4jnsgd1na2vs0mg"},{"bike_id":"e9814d99-d1a3-4363-9963-378ca5e26107","system_id":"levelo_inurba_marseille","lat":43.32335,"lon":5.40619,"is_reserved":false,"is_disabled":false,"rental_uris":{"android":"levelo://app?vid=e9814d99-d1a3-4363-9963-378ca5e26107","ios":"levelo://app?vid=e9814d99-d1a3-4363-9963-378ca5e26107"},"vehicle_type_id":"4","last_reported":1722168829,"current_range_meters":0,"station_id":"ce4bhq92rcd13ifvqhjg","pricing_plan_id":"cebpf4jnsgd1na2vs0mg"},{"bike_id":"0b5d71cd-9849-4000-a489-b0b46962edad","system_id":"levelo_inurba_marseille","lat":43.323464,"lon":5.406297,"is_reserved":false,"is_disabled":false,"rental_uris":{"android":"levelo://app?vid=0b5d71cd-9849-4000-a489-b0b46962edad","ios":"levelo://app?vid=0b5d71cd-9849-4000-a489-b0b46962edad"},"vehicle_type_id":"4","last_reported":1722168829,"current_range_meters":31600,"station_id":"ce4bhq92rcd13ifvqhjg","pricing_plan_id":"cebpf4jnsgd1na2vs0mg"},{"bike_id":"6639e912-9a41-4f55-abd0-28df3423dc1a","system_id":"levelo_inurba_marseille","lat":43.337168,"lon":5.391825,"is_reserved":false,"is_disabled":false,"rental_uris":{"android":"levelo://app?vid=6639e912-9a41-4f55-abd0-28df3423dc1a","ios":"levelo://app?vid=6639e912-9a41-4f55-abd0-28df3423dc1a"},"vehicle_type_id":"4","last_reported":1722168829,"current_range_meters":27600,"station_id":"ce4bhr92rcd13ifvqhsg","pricing_plan_id":"cebpf4jnsgd1na2vs0mg"},{"bike_id":"1b853bc5-e49e-4e81-a558-66ae88b178f5","system_id":"levelo_inurba_marseille","lat":43.323464,"lon":5.406297,"is_reserved":false,"is_disabled":false,"rental_uris":{"android":"levelo://app?vid=1b853bc5-e49e-4e81-a558-66ae88b178f5","ios":"levelo://app?vid=1b853bc5-e49e-4e81-a558-66ae88b178f5"},"vehicle_type_id":"4","last_reported":1722168829,"current_range_meters":20000,"station_id":"ce4bhq92rcd13ifvqhjg","pricing_plan_id":"cebpf4jnsgd1na2vs0mg"},{"bike_id":"88384e0f-bff0-4030-aa91-c1b70b0f1c96","system_id":"levelo_inurba_marseille","lat":43.323464,"lon":5.406297,"is_reserved":false,"is_disabled":false,"rental_uris":{"android":"levelo://app?vid=88384e0f-bff0-4030-aa91-c1b70b0f1c96","ios":"levelo://app?vid=88384e0f-bff0-4030-aa91-c1b70b0f1c96"},"vehicle_type_id":"4","last_reported":1722168829,"current_range_meters":18000,"station_id":"ce4bhq92rcd13ifvqhjg","pricing_plan_id":"cebpf4jnsgd1na2vs0mg"},{"bike_id":"0f1c922d-23b4-4a9f-96d6-c2e2525aa5d8","system_id":"levelo_inurba_marseille","lat":43.323464,"lon":5.406297,"is_reserved":false,"is_disabled":false,"rental_uris":{"android":"levelo://app?vid=0f1c922d-23b4-4a9f-96d6-c2e2525aa5d8","ios":"levelo://app?vid=0f1c922d-23b4-4a9f-96d6-c2e2525aa5d8"},"vehicle_type_id":"4","last_reported":1722168829,"current_range_meters":28800,"station_id":"ce4bhq92rcd13ifvqhjg","pricing_plan_id":"cebpf4jnsgd1na2vs0mg"},{"bike_id":"8af74e9a-15db-483a-83f6-e533ed1bbfb4","system_id":"levelo_inurba_marseille","lat":43.284793,"lon":5.384119,"is_reserved":false,"is_disabled":false,"rental_uris":{"android":"levelo://app?vid=8af74e9a-15db-483a-83f6-e533ed1bbfb4","ios":"levelo://app?vid=8af74e9a-15db-483a-83f6-e533ed1bbfb4"},"vehicle_type_id":"4","last_reported":1722168829,"current_range_meters":15200,"station_id":"ce4bh512rcd13ifvqe3g","pricing_plan_id":"cebpf4jnsgd1na2vs0mg"},{"bike_id":"e5c0d479-3048-46dd-9854-1f599cef54d8","system_id":"levelo_inurba_marseille","lat":43.284219,"lon":5.3497,"is_reserved":false,"is_disabled":false,"rental_uris":{"android":"levelo://app?vid=e5c0d479-3048-46dd-9854-1f599cef54d8","ios":"levelo://app?vid=e5c0d479-3048-46dd-9854-1f599cef54d8"},"vehicle_type_id":"4","last_reported":1722168829,"current_range_meters":31600,"station_id":"ce4bhbh2rcd13ifvqepg","pricing_plan_id":"cebpf4jnsgd1na2vs0mg"},{"bike_id":"fcc3f00e-2ee9-4eb1-ab3f-113f0460f136","system_id":"levelo_inurba_marseille","lat":43.284219,"lon":5.3497,"is_reserved":false,"is_disabled":false,"rental_uris":{"android":"levelo://app?vid=fcc3f00e-2ee9-4eb1-ab3f-113f0460f136","ios":"levelo://app?vid=fcc3f00e-2ee9-4eb1-ab3f-113f0460f136"},"vehicle_type_id":"4","last_reported":1722168829,"current_range_meters":1200,"station_id":"ce4bhbh2rcd13ifvqepg","pricing_plan_id":"cebpf4jnsgd1na2vs0mg"},{"bike_id":"c79c3a3c-1798-416b-b08a-ce321ad222fe","system_id":"levelo_inurba_marseille","lat":43.284219,"lon":5.3497,"is_reserved":false,"is_disabled":false,"rental_uris":{"android":"levelo://app?vid=c79c3a3c-1798-416b-b08a-ce321ad222fe","ios":"levelo://app?vid=c79c3a3c-1798-416b-b08a-ce321ad222fe"},"vehicle_type_id":"4","last_reported":1722168829,"current_range_meters":1600,"station_id":"ce4bhbh2rcd13ifvqepg","pricing_plan_id":"cebpf4jnsgd1na2vs0mg"},{"bike_id":"5ac6faba-d43f-46a1-a00b-7eff25b788c1","system_id":"levelo_inurba_marseille","lat":43.284219,"lon":5.3497,"is_reserved":false,"is_disabled":false,"rental_uris":{"android":"levelo://app?vid=5ac6faba-d43f-46a1-a00b-7eff25b788c1","ios":"levelo://app?vid=5ac6faba-d43f-46a1-a00b-7eff25b788c1"},"vehicle_type_id":"4","last_reported":1722168829,"current_range_meters":13200,"station_id":"ce4bhbh2rcd13ifvqepg","pricing_plan_id":"cebpf4jnsgd1na2vs0mg"},{"bike_id":"595893ca-341b-46e4-afb9-7d49bc8da4a5","system_id":"levelo_inurba_marseille","lat":43.284209,"lon":5.349905,"is_reserved":false,"is_disabled":false,"rental_uris":{"android":"levelo://app?vid=595893ca-341b-46e4-afb9-7d49bc8da4a5","ios":"levelo://app?vid=595893ca-341b-46e4-afb9-7d49bc8da4a5"},"vehicle_type_id":"4","last_reported":1722168829,"current_range_meters":25200,"station_id":"ce4bhbh2rcd13ifvqepg","pricing_plan_id":"cebpf4jnsgd1na2vs0mg"},{"bike_id":"06bd86d5-a9e6-4a16-b30c-33b3e03e7654","system_id":"levelo_inurba_marseille","lat":43.284219,"lon":5.3497,"is_reserved":false,"is_disabled":false,"rental_uris":{"android":"levelo://app?vid=06bd86d5-a9e6-4a16-b30c-33b3e03e7654","ios":"levelo://app?vid=06bd86d5-a9e6-4a16-b30c-33b3e03e7654"},"vehicle_type_id":"4","last_reported":1722168829,"current_range_meters":23200,"station_id":"ce4bhbh2rcd13ifvqepg","pricing_plan_id":"cebpf4jnsgd1na2vs0mg"},{"bike_id":"286e2cd1-9912-4a1f-8197-09ac7f8495a0","system_id":"levelo_inurba_marseille","lat":43.284219,"lon":5.3497,"is_reserved":false,"is_disabled":false,"rental_uris":{"android":"levelo://app?vid=286e2cd1-9912-4a1f-8197-09ac7f8495a0","ios":"levelo://app?vid=286e2cd1-9912-4a1f-8197-09ac7f8495a0"},"vehicle_type_id":"4","last_reported":1722168829,"current_range_meters":15600,"station_id":"ce4bhbh2rcd13ifvqepg","pricing_plan_id":"cebpf4jnsgd1na2vs0mg"},{"bike_id":"9795018c-b75e-4797-b655-c036ff847c2e","system_id":"levelo_inurba_marseille","lat":43.2842,"lon":5.34989,"is_reserved":false,"is_disabled":false,"rental_uris":{"android":"levelo://app?vid=9795018c-b75e-4797-b655-c036ff847c2e","ios":"levelo://app?vid=9795018c-b75e-4797-b655-c036ff847c2e"},"vehicle_type_id":"4","last_reported":1722168829,"current_range_meters":31200,"station_id":"ce4bhbh2rcd13ifvqepg","pricing_plan_id":"cebpf4jnsgd1na2vs0mg"},{"bike_id":"98235f87-4b6a-498c-9724-cf52915d30d3","system_id":"levelo_inurba_marseille","lat":43.28419,"lon":5.34991,"is_reserved":false,"is_disabled":false,"rental_uris":{"android":"levelo://app?vid=98235f87-4b6a-498c-9724-cf52915d30d3","ios":"levelo://app?vid=98235f87-4b6a-498c-9724-cf52915d30d3"},"vehicle_type_id":"4","last_reported":1722168829,"current_range_meters":3600,"station_id":"ce4bhbh2rcd13ifvqepg","pricing_plan_id":"cebpf4jnsgd1na2vs0mg"},{"bike_id":"7002c7f3-d737-47b1-ba14-e92661b02a2e","system_id":"levelo_inurba_marseille","lat":43.284219,"lon":5.3497,"is_reserved":false,"is_disabled":false,"rental_uris":{"android":"levelo://app?vid=7002c7f3-d737-47b1-ba14-e92661b02a2e","ios":"levelo://app?vid=7002c7f3-d737-47b1-ba14-e92661b02a2e"},"vehicle_type_id":"4","last_reported":1722168829,"current_range_meters":17600,"station_id":"ce4bhbh2rcd13ifvqepg","pricing_plan_id":"cebpf4jnsgd1na2vs0mg"},{"bike_id":"915ce34c-76d6-45e2-963e-ea7e65af58ba","system_id":"levelo_inurba_marseille","lat":43.284219,"lon":5.3497,"is_reserved":false,"is_disabled":false,"rental_uris":{"android":"levelo://app?vid=915ce34c-76d6-45e2-963e-ea7e65af58ba","ios":"levelo://app?vid=915ce34c-76d6-45e2-963e-ea7e65af58ba"},"vehicle_type_id":"4","last_reported":1722168829,"current_range_meters":21600,"station_id":"ce4bhbh2rcd13ifvqepg","pricing_plan_id":"cebpf4jnsgd1na2vs0mg"},{"bike_id":"249f36ba-ba94-404f-8ca3-cd10ad5047b9","system_id":"levelo_inurba_marseille","lat":43.284182,"lon":5.349859,"is_reserved":false,"is_disabled":false,"rental_uris":{"android":"levelo://app?vid=249f36ba-ba94-404f-8ca3-cd10ad5047b9","ios":"levelo://app?vid=249f36ba-ba94-404f-8ca3-cd10ad5047b9"},"vehicle_type_id":"4","last_reported":1722168829,"current_range_meters":23600,"station_id":"ce4bhbh2rcd13ifvqepg","pricing_plan_id":"cebpf4jnsgd1na2vs0mg"},{"bike_id":"91080e46-6f22-4e0b-97c9-ba9ba49a512a","system_id":"levelo_inurba_marseille","lat":43.284219,"lon":5.3497,"is_reserved":false,"is_disabled":false,"rental_uris":{"android":"levelo://app?vid=91080e46-6f22-4e0b-97c9-ba9ba49a512a","ios":"levelo://app?vid=91080e46-6f22-4e0b-97c9-ba9ba49a512a"},"vehicle_type_id":"4","last_reported":1722168829,"current_range_meters":18800,"station_id":"ce4bhbh2rcd13ifvqepg","pricing_plan_id":"cebpf4jnsgd1na2vs0mg"},{"bike_id":"9ec9292d-0d58-4da7-a39f-6c7e051a76df","system_id":"levelo_inurba_marseille","lat":43.28417,"lon":5.34983,"is_reserved":false,"is_disabled":false,"rental_uris":{"android":"levelo://app?vid=9ec9292d-0d58-4da7-a39f-6c7e051a76df","ios":"levelo://app?vid=9ec9292d-0d58-4da7-a39f-6c7e051a76df"},"vehicle_type_id":"4","last_reported":1722168829,"current_range_meters":16800,"station_id":"ce4bhbh2rcd13ifvqepg","pricing_plan_id":"cebpf4jnsgd1na2vs0mg"},{"bike_id":"671155c6-d058-4ec5-a697-fb829ce7c1c8","system_id":"levelo_inurba_marseille","lat":43.284137,"lon":5.349903,"is_reserved":false,"is_disabled":false,"rental_uris":{"android":"levelo://app?vid=671155c6-d058-4ec5-a697-fb829ce7c1c8","ios":"levelo://app?vid=671155c6-d058-4ec5-a697-fb829ce7c1c8"},"vehicle_type_id":"4","last_reported":1722168829,"current_range_meters":18000,"station_id":"ce4bhbh2rcd13ifvqepg","pricing_plan_id":"cebpf4jnsgd1na2vs0mg"},{"bike_id":"5bcccf47-68e2-4114-8dcb-586ed3ab51ab","system_id":"levelo_inurba_marseille","lat":43.284219,"lon":5.3497,"is_reserved":false,"is_disabled":false,"rental_uris":{"android":"levelo://app?vid=5bcccf47-68e2-4114-8dcb-586ed3ab51ab","ios":"levelo://app?vid=5bcccf47-68e2-4114-8dcb-586ed3ab51ab"},"vehicle_type_id":"4","last_reported":1722168829,"current_range_meters":9600,"station_id":"ce4bhbh2rcd13ifvqepg","pricing_plan_id":"cebpf4jnsgd1na2vs0mg"},{"bike_id":"f8d1fcdd-3ac5-4f15-becb-8316d463c5ed","system_id":"levelo_inurba_marseille","lat":43.284217,"lon":5.349697,"is_reserved":false,"is_disabled":false,"rental_uris":{"android":"levelo://app?vid=f8d1fcdd-3ac5-4f15-becb-8316d463c5ed","ios":"levelo://app?vid=f8d1fcdd-3ac5-4f15-becb-8316d463c5ed"},"vehicle_type_id":"4","last_reported":1722168829,"current_range_meters":12000,"station_id":"ce4bhbh2rcd13ifvqepg","pricing_plan_id":"cebpf4jnsgd1na2vs0mg"},{"bike_id":"436f6a65-c7c0-46ce-abc3-49683121e043","system_id":"levelo_inurba_marseille","lat":43.284128,"lon":5.349865,"is_reserved":false,"is_disabled":false,"rental_uris":{"android":"levelo://app?vid=436f6a65-c7c0-46ce-abc3-49683121e043","ios":"levelo://app?vid=436f6a65-c7c0-46ce-abc3-49683121e043"},"vehicle_type_id":"4","last_reported":1722168829,"current_range_meters":16000,"station_id":"ce4bhbh2rcd13ifvqepg","pricing_plan_id":"cebpf4jnsgd1na2vs0mg"},{"bike_id":"8664ef68-bf7b-4b6b-9590-384cfbb6d5df","system_id":"levelo_inurba_marseille","lat":43.284219,"lon":5.3497,"is_reserved":false,"is_disabled":false,"rental_uris":{"android":"levelo://app?vid=8664ef68-bf7b-4b6b-9590-384cfbb6d5df","ios":"levelo://app?vid=8664ef68-bf7b-4b6b-9590-384cfbb6d5df"},"vehicle_type_id":"4","last_reported":1722168829,"current_range_meters":0,"station_id":"ce4bhbh2rcd13ifvqepg","pricing_plan_id":"cebpf4jnsgd1na2vs0mg"},{"bike_id":"22652bd1-43e7-4f3b-8639-5b94c3e0ceda","system_id":"levelo_inurba_marseille","lat":43.284097,"lon":5.349933,"is_reserved":false,"is_disabled":false,"rental_uris":{"android":"levelo://app?vid=22652bd1-43e7-4f3b-8639-5b94c3e0ceda","ios":"levelo://app?vid=22652bd1-43e7-4f3b-8639-5b94c3e0ceda"},"vehicle_type_id":"4","last_reported":1722168829,"current_range_meters":22000,"station_id":"ce4bhbh2rcd13ifvqepg","pricing_plan_id":"cebpf4jnsgd1na2vs0mg"},{"bike_id":"1cab26bf-9771-4a67-8fa6-441a4eee3ebd","system_id":"levelo_inurba_marseille","lat":43.284219,"lon":5.3497,"is_reserved":false,"is_disabled":false,"rental_uris":{"android":"levelo://app?vid=1cab26bf-9771-4a67-8fa6-441a4eee3ebd","ios":"levelo://app?vid=1cab26bf-9771-4a67-8fa6-441a4eee3ebd"},"vehicle_type_id":"4","last_reported":1722168829,"current_range_meters":14000,"station_id":"ce4bhbh2rcd13ifvqepg","pricing_plan_id":"cebpf4jnsgd1na2vs0mg"},{"bike_id":"bcf33f10-e71c-4218-a8bf-6ac3f0d0e903","system_id":"levelo_inurba_marseille","lat":43.28413,"lon":5.34977,"is_reserved":false,"is_disabled":false,"rental_uris":{"android":"levelo://app?vid=bcf33f10-e71c-4218-a8bf-6ac3f0d0e903","ios":"levelo://app?vid=bcf33f10-e71c-4218-a8bf-6ac3f0d0e903"},"vehicle_type_id":"4","last_reported":1722168829,"current_range_meters":17200,"station_id":"ce4bhbh2rcd13ifvqepg","pricing_plan_id":"cebpf4jnsgd1na2vs0mg"},{"bike_id":"14ddf4d8-5d3a-4aca-80d3-bbcd673ba22b","system_id":"levelo_inurba_marseille","lat":43.284065,"lon":5.349845,"is_reserved":false,"is_disabled":false,"rental_uris":{"android":"levelo://app?vid=14ddf4d8-5d3a-4aca-80d3-bbcd673ba22b","ios":"levelo://app?vid=14ddf4d8-5d3a-4aca-80d3-bbcd673ba22b"},"vehicle_type_id":"4","last_reported":1722168829,"current_range_meters":12400,"station_id":"ce4bhbh2rcd13ifvqepg","pricing_plan_id":"cebpf4jnsgd1na2vs0mg"},{"bike_id":"21a29958-deac-447d-99e9-1b74537095ea","system_id":"levelo_inurba_marseille","lat":43.28409,"lon":5.34975,"is_reserved":false,"is_disabled":false,"rental_uris":{"android":"levelo://app?vid=21a29958-deac-447d-99e9-1b74537095ea","ios":"levelo://app?vid=21a29958-deac-447d-99e9-1b74537095ea"},"vehicle_type_id":"4","last_reported":1722168829,"current_range_meters":20400,"station_id":"ce4bhbh2rcd13ifvqepg","pricing_plan_id":"cebpf4jnsgd1na2vs0mg"},{"bike_id":"f67cb7dc-3a78-46ef-9cab-00f84ca248ed","system_id":"levelo_inurba_marseille","lat":43.284,"lon":5.34985,"is_reserved":false,"is_disabled":false,"rental_uris":{"android":"levelo://app?vid=f67cb7dc-3a78-46ef-9cab-00f84ca248ed","ios":"levelo://app?vid=f67cb7dc-3a78-46ef-9cab-00f84ca248ed"},"vehicle_type_id":"4","last_reported":1722168829,"current_range_meters":5200,"station_id":"ce4bhbh2rcd13ifvqepg","pricing_plan_id":"cebpf4jnsgd1na2vs0mg"},{"bike_id":"14837622-5efa-41f3-8116-3c45786a05d1","system_id":"levelo_inurba_marseille","lat":43.289363,"lon":5.396322,"is_reserved":false,"is_disabled":false,"rental_uris":{"android":"levelo://app?vid=14837622-5efa-41f3-8116-3c45786a05d1","ios":"levelo://app?vid=14837622-5efa-41f3-8116-3c45786a05d1"},"vehicle_type_id":"4","last_reported":1722168829,"current_range_meters":0,"station_id":"ce4bh3h2rcd13ifvqdn0","pricing_plan_id":"cebpf4jnsgd1na2vs0mg"},{"bike_id":"d18c4f35-a07b-4361-b085-faaafa30b8c9","system_id":"levelo_inurba_marseille","lat":43.289363,"lon":5.396322,"is_reserved":false,"is_disabled":false,"rental_uris":{"android":"levelo://app?vid=d18c4f35-a07b-4361-b085-faaafa30b8c9","ios":"levelo://app?vid=d18c4f35-a07b-4361-b085-faaafa30b8c9"},"vehicle_type_id":"4","last_reported":1722168829,"current_range_meters":4000,"station_id":"ce4bh3h2rcd13ifvqdn0","pricing_plan_id":"cebpf4jnsgd1na2vs0mg"},{"bike_id":"387aa0a4-51b7-41ef-b4a8-ccd5163a63e7","system_id":"levelo_inurba_marseille","lat":43.282744,"lon":5.350533,"is_reserved":false,"is_disabled":false,"rental_uris":{"android":"levelo://app?vid=387aa0a4-51b7-41ef-b4a8-ccd5163a63e7","ios":"levelo://app?vid=387aa0a4-51b7-41ef-b4a8-ccd5163a63e7"},"vehicle_type_id":"4","last_reported":1722168829,"current_range_meters":30800,"station_id":"ce4bhbp2rcd13ifvqerg","pricing_plan_id":"cebpf4jnsgd1na2vs0mg"},{"bike_id":"33dc4b0c-7995-4f04-a850-0046f828c7dd","system_id":"levelo_inurba_marseille","lat":43.282744,"lon":5.350533,"is_reserved":false,"is_disabled":false,"rental_uris":{"android":"levelo://app?vid=33dc4b0c-7995-4f04-a850-0046f828c7dd","ios":"levelo://app?vid=33dc4b0c-7995-4f04-a850-0046f828c7dd"},"vehicle_type_id":"4","last_reported":1722168829,"current_range_meters":28000,"station_id":"ce4bhbp2rcd13ifvqerg","pricing_plan_id":"cebpf4jnsgd1na2vs0mg"},{"bike_id":"8df8e2e1-d280-4a81-aa37-9859f62a19ab","system_id":"levelo_inurba_marseille","lat":43.282744,"lon":5.350533,"is_reserved":false,"is_disabled":false,"rental_uris":{"android":"levelo://app?vid=8df8e2e1-d280-4a81-aa37-9859f62a19ab","ios":"levelo://app?vid=8df8e2e1-d280-4a81-aa37-9859f62a19ab"},"vehicle_type_id":"4","last_reported":1722168829,"current_range_meters":30800,"station_id":"ce4bhbp2rcd13ifvqerg","pricing_plan_id":"cebpf4jnsgd1na2vs0mg"},{"bike_id":"7921d76b-949e-4a39-bcc8-ea0bfda6eb44","system_id":"levelo_inurba_marseille","lat":43.2827,"lon":5.35076,"is_reserved":false,"is_disabled":false,"rental_uris":{"android":"levelo://app?vid=7921d76b-949e-4a39-bcc8-ea0bfda6eb44","ios":"levelo://app?vid=7921d76b-949e-4a39-bcc8-ea0bfda6eb44"},"vehicle_type_id":"4","last_reported":1722168829,"current_range_meters":23600,"station_id":"ce4bhbp2rcd13ifvqerg","pricing_plan_id":"cebpf4jnsgd1na2vs0mg"},{"bike_id":"23316603-37b7-4ab5-8fd5-21c65bb3457f","system_id":"levelo_inurba_marseille","lat":43.282744,"lon":5.350533,"is_reserved":false,"is_disabled":false,"rental_uris":{"android":"levelo://app?vid=23316603-37b7-4ab5-8fd5-21c65bb3457f","ios":"levelo://app?vid=23316603-37b7-4ab5-8fd5-21c65bb3457f"},"vehicle_type_id":"4","last_reported":1722168829,"current_range_meters":29600,"station_id":"ce4bhbp2rcd13ifvqerg","pricing_plan_id":"cebpf4jnsgd1na2vs0mg"},{"bike_id":"871b4ad3-ff50-4a64-bdb0-71fc9f82c719","system_id":"levelo_inurba_marseille","lat":43.28264,"lon":5.35081,"is_reserved":false,"is_disabled":false,"rental_uris":{"android":"levelo://app?vid=871b4ad3-ff50-4a64-bdb0-71fc9f82c719","ios":"levelo://app?vid=871b4ad3-ff50-4a64-bdb0-71fc9f82c719"},"vehicle_type_id":"4","last_reported":1722168829,"current_range_meters":19600,"station_id":"ce4bhbp2rcd13ifvqerg","pricing_plan_id":"cebpf4jnsgd1na2vs0mg"},{"bike_id":"3fdb4621-3b37-4e69-9ef4-7d956cc89ec4","system_id":"levelo_inurba_marseille","lat":43.28263,"lon":5.350785,"is_reserved":false,"is_disabled":false,"rental_uris":{"android":"levelo://app?vid=3fdb4621-3b37-4e69-9ef4-7d956cc89ec4","ios":"levelo://app?vid=3fdb4621-3b37-4e69-9ef4-7d956cc89ec4"},"vehicle_type_id":"4","last_reported":1722168829,"current_range_meters":29600,"station_id":"ce4bhbp2rcd13ifvqerg","pricing_plan_id":"cebpf4jnsgd1na2vs0mg"},{"bike_id":"3d8c6b0c-2b08-4caf-b046-ddc9a89e3610","system_id":"levelo_inurba_marseille","lat":43.282754,"lon":5.350519,"is_reserved":false,"is_disabled":false,"rental_uris":{"android":"levelo://app?vid=3d8c6b0c-2b08-4caf-b046-ddc9a89e3610","ios":"levelo://app?vid=3d8c6b0c-2b08-4caf-b046-ddc9a89e3610"},"vehicle_type_id":"4","last_reported":1722168829,"current_range_meters":17200,"station_id":"ce4bhbp2rcd13ifvqerg","pricing_plan_id":"cebpf4jnsgd1na2vs0mg"},{"bike_id":"b6d63eb8-1dc4-4c90-9459-4efbb47f472b","system_id":"levelo_inurba_marseille","lat":43.282754,"lon":5.350519,"is_reserved":false,"is_disabled":false,"rental_uris":{"android":"levelo://app?vid=b6d63eb8-1dc4-4c90-9459-4efbb47f472b","ios":"levelo://app?vid=b6d63eb8-1dc4-4c90-9459-4efbb47f472b"},"vehicle_type_id":"4","last_reported":1722168829,"current_range_meters":17600,"station_id":"ce4bhbp2rcd13ifvqerg","pricing_plan_id":"cebpf4jnsgd1na2vs0mg"},{"bike_id":"28cfd06a-a19a-4598-a77c-9dc7d3394e06","system_id":"levelo_inurba_marseille","lat":43.282744,"lon":5.350533,"is_reserved":false,"is_disabled":false,"rental_uris":{"android":"levelo://app?vid=28cfd06a-a19a-4598-a77c-9dc7d3394e06","ios":"levelo://app?vid=28cfd06a-a19a-4598-a77c-9dc7d3394e06"},"vehicle_type_id":"4","last_reported":1722168829,"current_range_meters":6800,"station_id":"ce4bhbp2rcd13ifvqerg","pricing_plan_id":"cebpf4jnsgd1na2vs0mg"},{"bike_id":"79f48d6e-8194-43ab-b9a6-e29ed44036e0","system_id":"levelo_inurba_marseille","lat":43.282754,"lon":5.350519,"is_reserved":false,"is_disabled":false,"rental_uris":{"android":"levelo://app?vid=79f48d6e-8194-43ab-b9a6-e29ed44036e0","ios":"levelo://app?vid=79f48d6e-8194-43ab-b9a6-e29ed44036e0"},"vehicle_type_id":"4","last_reported":1722168829,"current_range_meters":2800,"station_id":"ce4bhbp2rcd13ifvqerg","pricing_plan_id":"cebpf4jnsgd1na2vs0mg"},{"bike_id":"1e83e75c-9f99-41e6-840d-1ace419a1008","system_id":"levelo_inurba_marseille","lat":43.28258,"lon":5.3507,"is_reserved":false,"is_disabled":false,"rental_uris":{"android":"levelo://app?vid=1e83e75c-9f99-41e6-840d-1ace419a1008","ios":"levelo://app?vid=1e83e75c-9f99-41e6-840d-1ace419a1008"},"vehicle_type_id":"4","last_reported":1722168829,"current_range_meters":0,"station_id":"ce4bhbp2rcd13ifvqerg","pricing_plan_id":"cebpf4jnsgd1na2vs0mg"},{"bike_id":"9025f48a-a8c6-4afc-8363-4277ed5d126b","system_id":"levelo_inurba_marseille","lat":43.292642,"lon":5.384254,"is_reserved":false,"is_disabled":false,"rental_uris":{"android":"levelo://app?vid=9025f48a-a8c6-4afc-8363-4277ed5d126b","ios":"levelo://app?vid=9025f48a-a8c6-4afc-8363-4277ed5d126b"},"vehicle_type_id":"4","last_reported":1722168829,"current_range_meters":15600,"station_id":"ce4bh692rcd13ifvqea0","pricing_plan_id":"cebpf4jnsgd1na2vs0mg"},{"bike_id":"0621c603-b23d-4f27-8a17-74c1c70c21af","system_id":"levelo_inurba_marseille","lat":43.28039,"lon":5.369297,"is_reserved":false,"is_disabled":false,"rental_uris":{"android":"levelo://app?vid=0621c603-b23d-4f27-8a17-74c1c70c21af","ios":"levelo://app?vid=0621c603-b23d-4f27-8a17-74c1c70c21af"},"vehicle_type_id":"4","last_reported":1722168829,"current_range_meters":18400,"station_id":"ce4bha12rcd13ifvqef0","pricing_plan_id":"cebpf4jnsgd1na2vs0mg"},{"bike_id":"ae3ddd90-4709-4a22-bf67-6254385e0194","system_id":"levelo_inurba_marseille","lat":43.28039,"lon":5.369297,"is_reserved":false,"is_disabled":false,"rental_uris":{"android":"levelo://app?vid=ae3ddd90-4709-4a22-bf67-6254385e0194","ios":"levelo://app?vid=ae3ddd90-4709-4a22-bf67-6254385e0194"},"vehicle_type_id":"4","last_reported":1722168829,"current_range_meters":4000,"station_id":"ce4bha12rcd13ifvqef0","pricing_plan_id":"cebpf4jnsgd1na2vs0mg"},{"bike_id":"2498e8da-dd71-47e2-9194-1cb829d5dd74","system_id":"levelo_inurba_marseille","lat":43.28039,"lon":5.369297,"is_reserved":false,"is_disabled":false,"rental_uris":{"android":"levelo://app?vid=2498e8da-dd71-47e2-9194-1cb829d5dd74","ios":"levelo://app?vid=2498e8da-dd71-47e2-9194-1cb829d5dd74"},"vehicle_type_id":"4","last_reported":1722168829,"current_range_meters":5200,"station_id":"ce4bha12rcd13ifvqef0","pricing_plan_id":"cebpf4jnsgd1na2vs0mg"},{"bike_id":"2b629960-ffb6-4aab-bca2-7df655df9c5d","system_id":"levelo_inurba_marseille","lat":43.280382,"lon":5.369291,"is_reserved":false,"is_disabled":false,"rental_uris":{"android":"levelo://app?vid=2b629960-ffb6-4aab-bca2-7df655df9c5d","ios":"levelo://app?vid=2b629960-ffb6-4aab-bca2-7df655df9c5d"},"vehicle_type_id":"4","last_reported":1722168829,"current_range_meters":14000,"station_id":"ce4bha12rcd13ifvqef0","pricing_plan_id":"cebpf4jnsgd1na2vs0mg"},{"bike_id":"e8080547-572f-47d1-bde8-ffc26f12c275","system_id":"levelo_inurba_marseille","lat":43.34084,"lon":5.39112,"is_reserved":false,"is_disabled":false,"rental_uris":{"android":"levelo://app?vid=e8080547-572f-47d1-bde8-ffc26f12c275","ios":"levelo://app?vid=e8080547-572f-47d1-bde8-ffc26f12c275"},"vehicle_type_id":"4","last_reported":1722168829,"current_range_meters":9200,"station_id":"","pricing_plan_id":"cebpf4jnsgd1na2vs0mg"},{"bike_id":"66027fdf-02b0-4738-ae85-9411c0659a20","system_id":"levelo_inurba_marseille","lat":43.284462,"lon":5.392121,"is_reserved":false,"is_disabled":false,"rental_uris":{"android":"levelo://app?vid=66027fdf-02b0-4738-ae85-9411c0659a20","ios":"levelo://app?vid=66027fdf-02b0-4738-ae85-9411c0659a20"},"vehicle_type_id":"4","last_reported":1722168829,"current_range_meters":0,"station_id":"ce4bhoh2rcd13ifvqh5g","pricing_plan_id":"cebpf4jnsgd1na2vs0mg"},{"bike_id":"ab38ab22-f840-4d51-9715-6b3f88f04ec1","system_id":"levelo_inurba_marseille","lat":43.326605,"lon":5.409903,"is_reserved":false,"is_disabled":false,"rental_uris":{"android":"levelo://app?vid=ab38ab22-f840-4d51-9715-6b3f88f04ec1","ios":"levelo://app?vid=ab38ab22-f840-4d51-9715-6b3f88f04ec1"},"vehicle_type_id":"4","last_reported":1722168829,"current_range_meters":29200,"station_id":"ce4bhpp2rcd13ifvqhgg","pricing_plan_id":"cebpf4jnsgd1na2vs0mg"},{"bike_id":"19ddf04b-cefe-4368-874a-959a4f2d4a48","system_id":"levelo_inurba_marseille","lat":43.326605,"lon":5.409903,"is_reserved":false,"is_disabled":false,"rental_uris":{"android":"levelo://app?vid=19ddf04b-cefe-4368-874a-959a4f2d4a48","ios":"levelo://app?vid=19ddf04b-cefe-4368-874a-959a4f2d4a48"},"vehicle_type_id":"4","last_reported":1722168829,"current_range_meters":11200,"station_id":"ce4bhpp2rcd13ifvqhgg","pricing_plan_id":"cebpf4jnsgd1na2vs0mg"},{"bike_id":"16b1dc76-a31a-4260-bab2-780e6d59a65c","system_id":"levelo_inurba_marseille","lat":43.279087,"lon":5.380114,"is_reserved":false,"is_disabled":false,"rental_uris":{"android":"levelo://app?vid=16b1dc76-a31a-4260-bab2-780e6d59a65c","ios":"levelo://app?vid=16b1dc76-a31a-4260-bab2-780e6d59a65c"},"vehicle_type_id":"4","last_reported":1722168829,"current_range_meters":0,"station_id":"ce4bhf92rcd13ifvqf50","pricing_plan_id":"cebpf4jnsgd1na2vs0mg"},{"bike_id":"3f7d11bf-f0db-477e-be15-7e5cdb80ab50","system_id":"levelo_inurba_marseille","lat":43.279087,"lon":5.380114,"is_reserved":false,"is_disabled":false,"rental_uris":{"android":"levelo://app?vid=3f7d11bf-f0db-477e-be15-7e5cdb80ab50","ios":"levelo://app?vid=3f7d11bf-f0db-477e-be15-7e5cdb80ab50"},"vehicle_type_id":"4","last_reported":1722168829,"current_range_meters":23200,"station_id":"ce4bhf92rcd13ifvqf50","pricing_plan_id":"cebpf4jnsgd1na2vs0mg"},{"bike_id":"48868a67-daba-4d8f-8aef-700d9d70d8f1","system_id":"levelo_inurba_marseille","lat":43.347818,"lon":5.373754,"is_reserved":false,"is_disabled":false,"rental_uris":{"android":"levelo://app?vid=48868a67-daba-4d8f-8aef-700d9d70d8f1","ios":"levelo://app?vid=48868a67-daba-4d8f-8aef-700d9d70d8f1"},"vehicle_type_id":"4","last_reported":1722168829,"current_range_meters":9600,"station_id":"","pricing_plan_id":"cebpf4jnsgd1na2vs0mg"},{"bike_id":"0635bfe8-0527-47e2-9c06-020bb5a0786d","system_id":"levelo_inurba_marseille","lat":43.279742,"lon":5.38744,"is_reserved":false,"is_disabled":false,"rental_uris":{"android":"levelo://app?vid=0635bfe8-0527-47e2-9c06-020bb5a0786d","ios":"levelo://app?vid=0635bfe8-0527-47e2-9c06-020bb5a0786d"},"vehicle_type_id":"4","last_reported":1722168829,"current_range_meters":11200,"station_id":"ce4bhg12rcd13ifvqf80","pricing_plan_id":"cebpf4jnsgd1na2vs0mg"},{"bike_id":"880c3e6f-7adf-4cee-adab-8efa2fcd995c","system_id":"levelo_inurba_marseille","lat":43.320045,"lon":5.415048,"is_reserved":false,"is_disabled":false,"rental_uris":{"android":"levelo://app?vid=880c3e6f-7adf-4cee-adab-8efa2fcd995c","ios":"levelo://app?vid=880c3e6f-7adf-4cee-adab-8efa2fcd995c"},"vehicle_type_id":"4","last_reported":1722168829,"current_range_meters":28400,"station_id":"ce4bhq92rcd13ifvqhkg","pricing_plan_id":"cebpf4jnsgd1na2vs0mg"},{"bike_id":"b327a8de-da20-4122-a020-57bf5e28e317","system_id":"levelo_inurba_marseille","lat":43.279742,"lon":5.38744,"is_reserved":false,"is_disabled":false,"rental_uris":{"android":"levelo://app?vid=b327a8de-da20-4122-a020-57bf5e28e317","ios":"levelo://app?vid=b327a8de-da20-4122-a020-57bf5e28e317"},