{"last_updated":1744387972,"ttl":60,"version":"2.2","data":{"bikes":[{"bike_id":"faa44c05-7dcd-4242-a5a5-85ab0c3dbe77","system_id":"levelo_inurba_marseille","lat":43.26197,"lon":5.37937,"is_reserved":false,"is_disabled":false,"rental_uris":{"android":"levelo://app?vid=faa44c05-7dcd-4242-a5a5-85ab0c3dbe77","ios":"levelo://app?vid=faa44c05-7dcd-4242-a5a5-85ab0c3dbe77"},"vehicle_type_id":"4","last_reported":1744387972,"current_range_meters":2800,"station_id":"ce4bhjp2rcd13ifvqg90","pricing_plan_id":"cebpf4jnsgd1na2vs0mg"},{"bike_id":"fca11f57-b3b3-43e9-a05a-c0ca2d5d606e","system_id":"levelo_inurba_marseille","lat":43.30896,"lon":5.37193,"is_reserved":false,"is_disabled":false,"rental_uris":{"android":"levelo://app?vid=fca11f57-b3b3-43e9-a05a-c0ca2d5d606e","ios":"levelo://app?vid=fca11f57-b3b3-43e9-a05a-c0ca2d5d606e"},"vehicle_type_id":"4","last_reported":1744387972,"current_range_meters":3200,"station_id":"ce4bguh2rcd13ifvqckg","pricing_plan_id":"cebpf4jnsgd1na2vs0mg"},{"bike_id":"c8e39f7e-a85c-4663-b87b-fd056f4d4eb8","system_id":"levelo_inurba_marseille","lat":43.24179,"lon":5.39726,"is_reserved":false,"is_disabled":false,"rental_uris":{"android":"levelo://app?vid=c8e39f7e-a85c-4663-b87b-fd056f4d4eb8","ios":"levelo://app?vid=c8e39f7e-a85c-4663-b87b-fd056f4d4eb8"},"vehicle_type_id":"4","last_reported":1744387972,"current_range_meters":3200,"station_id":"ce4bhn12rcd13ifvqgpg","pricing_plan_id":"cebpf4jnsgd1na2vs0mg"},{"bike_id":"290b84a1-61ce-4e3f-9fd9-bacd6c169852","system_id":"levelo_inurba_marseille","lat":43.27835,"lon":5.39209,"is_reserved":false,"is_disabled":false,"rental_uris":{"android":"levelo://app?vid=290b84a1-61ce-4e3f-9fd9-bacd6c169852","ios":"levelo://app?vid=290b84a1-61ce-4e3f-9fd9-bacd6c169852"},"vehicle_type_id":"4","last_reported":1744387972,"current_range_meters":3200,"station_id":"ce4bhjp2rcd13ifvqga0","pricing_plan_id":"cebpf4jnsgd1na2vs0mg"},{"bike_id":"dde4338b-3dd2-47a2-897d-d309158c9e55","system_id":"levelo_inurba_marseille","lat":43.272105,"lon":5.391799,"is_reserved":false,"is_disabled":false,"rental_uris":{"android":"levelo://app?vid=dde4338b-3dd2-47a2-897d-d309158c9e55","ios":"levelo://app?vid=dde4338b-3dd2-47a2-897d-d309158c9e55"},"vehicle_type_id":"4","last_reported":1744387972,"current_range_meters":2800,"station_id":"ce4bh5p2rcd13ifvqe4g","pricing_plan_id":"cebpf4jnsgd1na2vs0mg"},{"bike_id":"97e8287f-b06f-4433-9af7-6df48161e74f","system_id":"levelo_inurba_marseille","lat":43.27376,"lon":5.36256,"is_reserved":false,"is_disabled":false,"rental_uris":{"android":"levelo://app?vid=97e8287f-b06f-4433-9af7-6df48161e74f","ios":"levelo://app?vid=97e8287f-b06f-4433-9af7-6df48161e74f"},"vehicle_type_id":"4","last_reported":1744387972,"current_range_meters":3600,"station_id":"ce4bhbh2rcd13ifvqeo0","pricing_plan_id":"cebpf4jnsgd1na2vs0mg"},{"bike_id":"e6dcbb1f-77af-4619-a3f2-69f21f038d79","system_id":"levelo_inurba_marseille","lat":43.27679,"lon":5.38864,"is_reserved":false,"is_disabled":false,"rental_uris":{"android":"levelo://app?vid=e6dcbb1f-77af-4619-a3f2-69f21f038d79","ios":"levelo://app?vid=e6dcbb1f-77af-4619-a3f2-69f21f038d79"},"vehicle_type_id":"4","last_reported":1744387972,"current_range_meters":3600,"station_id":"ce4bhi12rcd13ifvqfo0","pricing_plan_id":"cebpf4jnsgd1na2vs0mg"},{"bike_id":"a2464793-2df7-4539-8b0e-17afda879e99","system_id":"levelo_inurba_marseille","lat":43.282666,"lon":5.350594,"is_reserved":false,"is_disabled":false,"rental_uris":{"android":"levelo://app?vid=a2464793-2df7-4539-8b0e-17afda879e99","ios":"levelo://app?vid=a2464793-2df7-4539-8b0e-17afda879e99"},"vehicle_type_id":"4","last_reported":1744387972,"current_range_meters":3600,"station_id":"ce4bhbp2rcd13ifvqerg","pricing_plan_id":"cebpf4jnsgd1na2vs0mg"},{"bike_id":"8876bb6f-718b-4e2b-a641-425e19acc0fc","system_id":"levelo_inurba_marseille","lat":43.27365,"lon":5.42192,"is_reserved":false,"is_disabled":false,"rental_uris":{"android":"levelo://app?vid=8876bb6f-718b-4e2b-a641-425e19acc0fc","ios":"levelo://app?vid=8876bb6f-718b-4e2b-a641-425e19acc0fc"},"vehicle_type_id":"4","last_reported":1744387972,"current_range_meters":3600,"station_id":"","pricing_plan_id":"cebpf4jnsgd1na2vs0mg"},{"bike_id":"d7e7d132-87e3-417a-a5b2-7030ab205f69","system_id":"levelo_inurba_marseille","lat":43.29207,"lon":5.35793,"is_reserved":false,"is_disabled":false,"rental_uris":{"android":"levelo://app?vid=d7e7d132-87e3-417a-a5b2-7030ab205f69","ios":"levelo://app?vid=d7e7d132-87e3-417a-a5b2-7030ab205f69"},"vehicle_type_id":"4","last_reported":1744387972,"current_range_meters":4000,"station_id":"ce4bhb12rcd13ifvqel0","pricing_plan_id":"cebpf4jnsgd1na2vs0mg"},{"bike_id":"83c132b1-a954-4d5a-a32d-9f99af4faa3c","system_id":"levelo_inurba_marseille","lat":43.30929,"lon":5.41526,"is_reserved":false,"is_disabled":false,"rental_uris":{"android":"levelo://app?vid=83c132b1-a954-4d5a-a32d-9f99af4faa3c","ios":"levelo://app?vid=83c132b1-a954-4d5a-a32d-9f99af4faa3c"},"vehicle_type_id":"4","last_reported":1744387972,"current_range_meters":4000,"station_id":"","pricing_plan_id":"cebpf4jnsgd1na2vs0mg"},{"bike_id":"e4dd2cd5-ee4e-442a-ae66-ce9576e0565b","system_id":"levelo_inurba_marseille","lat":43.283457,"lon":5.381113,"is_reserved":false,"is_disabled":false,"rental_uris":{"android":"levelo://app?vid=e4dd2cd5-ee4e-442a-ae66-ce9576e0565b","ios":"levelo://app?vid=e4dd2cd5-ee4e-442a-ae66-ce9576e0565b"},"vehicle_type_id":"4","last_reported":1744387972,"current_range_meters":4000,"station_id":"ce4bh412rcd13ifvqdr0","pricing_plan_id":"cebpf4jnsgd1na2vs0mg"},{"bike_id":"b6b2b6fa-c4d5-4744-9711-fdfa8b664a31","system_id":"levelo_inurba_marseille","lat":43.30431,"lon":5.3889,"is_reserved":false,"is_disabled":false,"rental_uris":{"android":"levelo://app?vid=b6b2b6fa-c4d5-4744-9711-fdfa8b664a31","ios":"levelo://app?vid=b6b2b6fa-c4d5-4744-9711-fdfa8b664a31"},"vehicle_type_id":"4","last_reported":1744387972,"current_range_meters":4000,"station_id":"ce4bgk12rcd13ifvqbi0","pricing_plan_id":"cebpf4jnsgd1na2vs0mg"},{"bike_id":"848957e7-ffeb-439b-8d4a-7a8e788f73ba","system_id":"levelo_inurba_marseille","lat":43.2872,"lon":5.37386,"is_reserved":false,"is_disabled":false,"rental_uris":{"android":"levelo://app?vid=848957e7-ffeb-439b-8d4a-7a8e788f73ba","ios":"levelo://app?vid=848957e7-ffeb-439b-8d4a-7a8e788f73ba"},"vehicle_type_id":"4","last_reported":1744387972,"current_range_meters":4400,"station_id":"ce4bh3p2rcd13ifvqdq0","pricing_plan_id":"cebpf4jnsgd1na2vs0mg"},{"bike_id":"f790917a-f7fa-4e72-a145-5e7ad7a270d8","system_id":"levelo_inurba_marseille","lat":43.29265,"lon":5.38441,"is_reserved":false,"is_disabled":false,"rental_uris":{"android":"levelo://app?vid=f790917a-f7fa-4e72-a145-5e7ad7a270d8","ios":"levelo://app?vid=f790917a-f7fa-4e72-a145-5e7ad7a270d8"},"vehicle_type_id":"4","last_reported":1744387972,"current_range_meters":4400,"station_id":"ce4bh692rcd13ifvqea0","pricing_plan_id":"cebpf4jnsgd1na2vs0mg"},{"bike_id":"a6d4d103-1213-409c-81bf-0b689bf4b8e1","system_id":"levelo_inurba_marseille","lat":43.3025,"lon":5.40075,"is_reserved":false,"is_disabled":false,"rental_uris":{"android":"levelo://app?vid=a6d4d103-1213-409c-81bf-0b689bf4b8e1","ios":"levelo://app?vid=a6d4d103-1213-409c-81bf-0b689bf4b8e1"},"vehicle_type_id":"4","last_reported":1744387972,"current_range_meters":4400,"station_id":"ce4bgvh2rcd13ifvqcs0","pricing_plan_id":"cebpf4jnsgd1na2vs0mg"},{"bike_id":"ba7df716-ad67-4a09-a050-b4c4f95b784a","system_id":"levelo_inurba_marseille","lat":43.29608,"lon":5.38067,"is_reserved":false,"is_disabled":false,"rental_uris":{"android":"levelo://app?vid=ba7df716-ad67-4a09-a050-b4c4f95b784a","ios":"levelo://app?vid=ba7df716-ad67-4a09-a050-b4c4f95b784a"},"vehicle_type_id":"4","last_reported":1744387972,"current_range_meters":4400,"station_id":"ce4bgl12rcd13ifvqbo0","pricing_plan_id":"cebpf4jnsgd1na2vs0mg"},{"bike_id":"350b0853-2947-43f9-896e-041e3261414c","system_id":"levelo_inurba_marseille","lat":43.27207,"lon":5.39177,"is_reserved":false,"is_disabled":false,"rental_uris":{"android":"levelo://app?vid=350b0853-2947-43f9-896e-041e3261414c","ios":"levelo://app?vid=350b0853-2947-43f9-896e-041e3261414c"},"vehicle_type_id":"4","last_reported":1744387972,"current_range_meters":4400,"station_id":"ce4bhhp2rcd13ifvqfm0","pricing_plan_id":"cebpf4jnsgd1na2vs0mg"},{"bike_id":"93290b0c-e87b-408d-9819-285289c26671","system_id":"levelo_inurba_marseille","lat":43.28269,"lon":5.35058,"is_reserved":false,"is_disabled":false,"rental_uris":{"android":"levelo://app?vid=93290b0c-e87b-408d-9819-285289c26671","ios":"levelo://app?vid=93290b0c-e87b-408d-9819-285289c26671"},"vehicle_type_id":"4","last_reported":1744387972,"current_range_meters":4400,"station_id":"ce4bhbp2rcd13ifvqerg","pricing_plan_id":"cebpf4jnsgd1na2vs0mg"},{"bike_id":"bfb4846f-75e2-4413-a3af-3c37afadf969","system_id":"levelo_inurba_marseille","lat":43.29265,"lon":5.3845,"is_reserved":false,"is_disabled":false,"rental_uris":{"android":"levelo://app?vid=bfb4846f-75e2-4413-a3af-3c37afadf969","ios":"levelo://app?vid=bfb4846f-75e2-4413-a3af-3c37afadf969"},"vehicle_type_id":"4","last_reported":1744387972,"current_range_meters":4800,"station_id":"ce4bh692rcd13ifvqea0","pricing_plan_id":"cebpf4jnsgd1na2vs0mg"},{"bike_id":"dd9e4b33-3724-4ca7-8c7b-0dde35ee4aee","system_id":"levelo_inurba_marseille","lat":43.28409,"lon":5.34984,"is_reserved":false,"is_disabled":false,"rental_uris":{"android":"levelo://app?vid=dd9e4b33-3724-4ca7-8c7b-0dde35ee4aee","ios":"levelo://app?vid=dd9e4b33-3724-4ca7-8c7b-0dde35ee4aee"},"vehicle_type_id":"4","last_reported":1744387972,"current_range_meters":4800,"station_id":"ce4bhbh2rcd13ifvqepg","pricing_plan_id":"cebpf4jnsgd1na2vs0mg"},{"bike_id":"c8906e81-19ee-459a-ba4e-5063a6dec7a3","system_id":"levelo_inurba_marseille","lat":43.31116,"lon":5.37774,"is_reserved":false,"is_disabled":false,"rental_uris":{"android":"levelo://app?vid=c8906e81-19ee-459a-ba4e-5063a6dec7a3","ios":"levelo://app?vid=c8906e81-19ee-459a-ba4e-5063a6dec7a3"},"vehicle_type_id":"4","last_reported":1744387972,"current_range_meters":4800,"station_id":"ce4bgt92rcd13ifvqcg0","pricing_plan_id":"cebpf4jnsgd1na2vs0mg"},{"bike_id":"d39530c6-1ef8-4ee7-8500-b809c7b5b967","system_id":"levelo_inurba_marseille","lat":43.24065,"lon":5.37747,"is_reserved":false,"is_disabled":false,"rental_uris":{"android":"levelo://app?vid=d39530c6-1ef8-4ee7-8500-b809c7b5b967","ios":"levelo://app?vid=d39530c6-1ef8-4ee7-8500-b809c7b5b967"},"vehicle_type_id":"4","last_reported":1744387972,"current_range_meters":4800,"station_id":"ce4bhnp2rcd13ifvqgvg","pricing_plan_id":"cebpf4jnsgd1na2vs0mg"},{"bike_id":"08f1667e-107d-48b5-adb4-df7359761c84","system_id":"levelo_inurba_marseille","lat":43.27567,"lon":5.38418,"is_reserved":false,"is_disabled":false,"rental_uris":{"android":"levelo://app?vid=08f1667e-107d-48b5-adb4-df7359761c84","ios":"levelo://app?vid=08f1667e-107d-48b5-adb4-df7359761c84"},"vehicle_type_id":"4","last_reported":1744387972,"current_range_meters":4800,"station_id":"ce4bhh92rcd13ifvqfi0","pricing_plan_id":"cebpf4jnsgd1na2vs0mg"},{"bike_id":"3cc81d4e-a94e-4aaa-a74b-4e92eab78f8e","system_id":"levelo_inurba_marseille","lat":43.28151,"lon":5.42636,"is_reserved":false,"is_disabled":false,"rental_uris":{"android":"levelo://app?vid=3cc81d4e-a94e-4aaa-a74b-4e92eab78f8e","ios":"levelo://app?vid=3cc81d4e-a94e-4aaa-a74b-4e92eab78f8e"},"vehicle_type_id":"4","last_reported":1744387972,"current_range_meters":4800,"station_id":"ce4bhnh2rcd13ifvqgug","pricing_plan_id":"cebpf4jnsgd1na2vs0mg"},{"bike_id":"4a3e0919-27c2-445a-a961-2bd3243a227d","system_id":"levelo_inurba_marseille","lat":43.31634,"lon":5.37342,"is_reserved":false,"is_disabled":false,"rental_uris":{"android":"levelo://app?vid=4a3e0919-27c2-445a-a961-2bd3243a227d","ios":"levelo://app?vid=4a3e0919-27c2-445a-a961-2bd3243a227d"},"vehicle_type_id":"4","last_reported":1744387972,"current_range_meters":5600,"station_id":"","pricing_plan_id":"cebpf4jnsgd1na2vs0mg"},{"bike_id":"2cdf22ce-1d65-47a2-89dc-eae9e7f7e1b3","system_id":"levelo_inurba_marseille","lat":43.30273,"lon":5.37708,"is_reserved":false,"is_disabled":false,"rental_uris":{"android":"levelo://app?vid=2cdf22ce-1d65-47a2-89dc-eae9e7f7e1b3","ios":"levelo://app?vid=2cdf22ce-1d65-47a2-89dc-eae9e7f7e1b3"},"vehicle_type_id":"4","last_reported":1744387972,"current_range_meters":4800,"station_id":"ce4bguh2rcd13ifvqcj0","pricing_plan_id":"cebpf4jnsgd1na2vs0mg"},{"bike_id":"f186b84f-4ea3-47d1-a33c-fc04eb64f036","system_id":"levelo_inurba_marseille","lat":43.309927,"lon":5.400695,"is_reserved":false,"is_disabled":false,"rental_uris":{"android":"levelo://app?vid=f186b84f-4ea3-47d1-a33c-fc04eb64f036","ios":"levelo://app?vid=f186b84f-4ea3-47d1-a33c-fc04eb64f036"},"vehicle_type_id":"4","last_reported":1744387972,"current_range_meters":6000,"station_id":"ce4bhq92rcd13ifvqhjg","pricing_plan_id":"cebpf4jnsgd1na2vs0mg"},{"bike_id":"8fe151cb-2b1d-4125-bde6-f366768a799b","system_id":"levelo_inurba_marseille","lat":43.286102,"lon":5.370622,"is_reserved":false,"is_disabled":false,"rental_uris":{"android":"levelo://app?vid=8fe151cb-2b1d-4125-bde6-f366768a799b","ios":"levelo://app?vid=8fe151cb-2b1d-4125-bde6-f366768a799b"},"vehicle_type_id":"4","last_reported":1744387972,"current_range_meters":6000,"station_id":"","pricing_plan_id":"cebpf4jnsgd1na2vs0mg"},{"bike_id":"3cb3e7f9-d9cd-4014-9c91-0e88c76afc40","system_id":"levelo_inurba_marseille","lat":43.25816,"lon":5.39426,"is_reserved":false,"is_disabled":false,"rental_uris":{"android":"levelo://app?vid=3cb3e7f9-d9cd-4014-9c91-0e88c76afc40","ios":"levelo://app?vid=3cb3e7f9-d9cd-4014-9c91-0e88c76afc40"},"vehicle_type_id":"4","last_reported":1744387972,"current_range_meters":6000,"station_id":"ce4bhip2rcd13ifvqft0","pricing_plan_id":"cebpf4jnsgd1na2vs0mg"},{"bike_id":"0ab2ddea-3fe5-479b-aeb0-9dbfd1b9d44a","system_id":"levelo_inurba_marseille","lat":43.29267,"lon":5.38441,"is_reserved":false,"is_disabled":false,"rental_uris":{"android":"levelo://app?vid=0ab2ddea-3fe5-479b-aeb0-9dbfd1b9d44a","ios":"levelo://app?vid=0ab2ddea-3fe5-479b-aeb0-9dbfd1b9d44a"},"vehicle_type_id":"4","last_reported":1744387972,"current_range_meters":6400,"station_id":"ce4bh692rcd13ifvqea0","pricing_plan_id":"cebpf4jnsgd1na2vs0mg"},{"bike_id":"9310b254-87d7-4f7f-ac39-2c3c00c64e57","system_id":"levelo_inurba_marseille","lat":43.28619,"lon":5.35105,"is_reserved":false,"is_disabled":false,"rental_uris":{"android":"levelo://app?vid=9310b254-87d7-4f7f-ac39-2c3c00c64e57","ios":"levelo://app?vid=9310b254-87d7-4f7f-ac39-2c3c00c64e57"},"vehicle_type_id":"4","last_reported":1744387972,"current_range_meters":6400,"station_id":"ce4bhch2rcd13ifvqeug","pricing_plan_id":"cebpf4jnsgd1na2vs0mg"},{"bike_id":"75e2b980-ba0d-4b2d-9f57-da63b751df22","system_id":"levelo_inurba_marseille","lat":43.29263,"lon":5.38441,"is_reserved":false,"is_disabled":false,"rental_uris":{"android":"levelo://app?vid=75e2b980-ba0d-4b2d-9f57-da63b751df22","ios":"levelo://app?vid=75e2b980-ba0d-4b2d-9f57-da63b751df22"},"vehicle_type_id":"4","last_reported":1744387972,"current_range_meters":6400,"station_id":"ce4bh692rcd13ifvqea0","pricing_plan_id":"cebpf4jnsgd1na2vs0mg"},{"bike_id":"71e17ae5-1f5b-42bc-8775-c938d0a9d7c5","system_id":"levelo_inurba_marseille","lat":43.283,"lon":5.350391,"is_reserved":false,"is_disabled":false,"rental_uris":{"android":"levelo://app?vid=71e17ae5-1f5b-42bc-8775-c938d0a9d7c5","ios":"levelo://app?vid=71e17ae5-1f5b-42bc-8775-c938d0a9d7c5"},"vehicle_type_id":"4","last_reported":1744387972,"current_range_meters":6000,"station_id":"ce4bhbp2rcd13ifvqerg","pricing_plan_id":"cebpf4jnsgd1na2vs0mg"},{"bike_id":"e8ef9665-ed50-42fa-8185-b22f221282fb","system_id":"levelo_inurba_marseille","lat":43.294102,"lon":5.398349,"is_reserved":false,"is_disabled":false,"rental_uris":{"android":"levelo://app?vid=e8ef9665-ed50-42fa-8185-b22f221282fb","ios":"levelo://app?vid=e8ef9665-ed50-42fa-8185-b22f221282fb"},"vehicle_type_id":"4","last_reported":1744387972,"current_range_meters":6400,"station_id":"ce4bh392rcd13ifvqdl0","pricing_plan_id":"cebpf4jnsgd1na2vs0mg"},{"bike_id":"811fbdcb-3204-489b-b737-6d23ef63628e","system_id":"levelo_inurba_marseille","lat":43.30395,"lon":5.42478,"is_reserved":false,"is_disabled":false,"rental_uris":{"android":"levelo://app?vid=811fbdcb-3204-489b-b737-6d23ef63628e","ios":"levelo://app?vid=811fbdcb-3204-489b-b737-6d23ef63628e"},"vehicle_type_id":"4","last_reported":1744387972,"current_range_meters":6400,"station_id":"ce4bghh2rcd13ifvqb60","pricing_plan_id":"cebpf4jnsgd1na2vs0mg"},{"bike_id":"1efa748d-4e01-4463-aab1-ce7e1e6e0644","system_id":"levelo_inurba_marseille","lat":43.24548,"lon":5.39519,"is_reserved":false,"is_disabled":false,"rental_uris":{"android":"levelo://app?vid=1efa748d-4e01-4463-aab1-ce7e1e6e0644","ios":"levelo://app?vid=1efa748d-4e01-4463-aab1-ce7e1e6e0644"},"vehicle_type_id":"4","last_reported":1744387972,"current_range_meters":6400,"station_id":"ce4bhlp2rcd13ifvqgjg","pricing_plan_id":"cebpf4jnsgd1na2vs0mg"},{"bike_id":"7ebd178d-31b4-4dc5-af26-69f56c1e1601","system_id":"levelo_inurba_marseille","lat":43.29607,"lon":5.38105,"is_reserved":false,"is_disabled":false,"rental_uris":{"android":"levelo://app?vid=7ebd178d-31b4-4dc5-af26-69f56c1e1601","ios":"levelo://app?vid=7ebd178d-31b4-4dc5-af26-69f56c1e1601"},"vehicle_type_id":"4","last_reported":1744387972,"current_range_meters":6400,"station_id":"ce4bgl12rcd13ifvqbo0","pricing_plan_id":"cebpf4jnsgd1na2vs0mg"},{"bike_id":"8e801b25-4984-4fb7-9499-b45733f12db8","system_id":"levelo_inurba_marseille","lat":43.28466,"lon":5.35874,"is_reserved":false,"is_disabled":false,"rental_uris":{"android":"levelo://app?vid=8e801b25-4984-4fb7-9499-b45733f12db8","ios":"levelo://app?vid=8e801b25-4984-4fb7-9499-b45733f12db8"},"vehicle_type_id":"4","last_reported":1744387972,"current_range_meters":8000,"station_id":"ce4bhah2rcd13ifvqei0","pricing_plan_id":"cebpf4jnsgd1na2vs0mg"},{"bike_id":"b76ab0b8-39e7-465b-bd61-5c0362af84d1","system_id":"levelo_inurba_marseille","lat":43.29604,"lon":5.38094,"is_reserved":false,"is_disabled":false,"rental_uris":{"android":"levelo://app?vid=b76ab0b8-39e7-465b-bd61-5c0362af84d1","ios":"levelo://app?vid=b76ab0b8-39e7-465b-bd61-5c0362af84d1"},"vehicle_type_id":"4","last_reported":1744387972,"current_range_meters":6400,"station_id":"ce4bgl12rcd13ifvqbo0","pricing_plan_id":"cebpf4jnsgd1na2vs0mg"},{"bike_id":"aab723f3-a939-4a6b-988a-d0ae7d59cd29","system_id":"levelo_inurba_marseille","lat":43.292644,"lon":5.383481,"is_reserved":false,"is_disabled":false,"rental_uris":{"android":"levelo://app?vid=aab723f3-a939-4a6b-988a-d0ae7d59cd29","ios":"levelo://app?vid=aab723f3-a939-4a6b-988a-d0ae7d59cd29"},"vehicle_type_id":"4","last_reported":1744387972,"current_range_meters":6400,"station_id":"ce4bh692rcd13ifvqea0","pricing_plan_id":"cebpf4jnsgd1na2vs0mg"},{"bike_id":"447366c8-aabb-496d-ac5e-a91f4b8779f1","system_id":"levelo_inurba_marseille","lat":43.25002,"lon":5.3893,"is_reserved":false,"is_disabled":false,"rental_uris":{"android":"levelo://app?vid=447366c8-aabb-496d-ac5e-a91f4b8779f1","ios":"levelo://app?vid=447366c8-aabb-496d-ac5e-a91f4b8779f1"},"vehicle_type_id":"4","last_reported":1744387972,"current_range_meters":6400,"station_id":"ce4bhgp2rcd13ifvqfd0","pricing_plan_id":"cebpf4jnsgd1na2vs0mg"},{"bike_id":"d9bef284-a763-45e4-bd39-a7d2870f47f9","system_id":"levelo_inurba_marseille","lat":43.26214,"lon":5.37437,"is_reserved":false,"is_disabled":false,"rental_uris":{"android":"levelo://app?vid=d9bef284-a763-45e4-bd39-a7d2870f47f9","ios":"levelo://app?vid=d9bef284-a763-45e4-bd39-a7d2870f47f9"},"vehicle_type_id":"4","last_reported":1744387972,"current_range_meters":7200,"station_id":"ce4bhgp2rcd13ifvqfc0","pricing_plan_id":"cebpf4jnsgd1na2vs0mg"},{"bike_id":"0e3d9efe-b8f2-41a1-a352-3dd88c835773","system_id":"levelo_inurba_marseille","lat":43.26685,"lon":5.38275,"is_reserved":false,"is_disabled":false,"rental_uris":{"android":"levelo://app?vid=0e3d9efe-b8f2-41a1-a352-3dd88c835773","ios":"levelo://app?vid=0e3d9efe-b8f2-41a1-a352-3dd88c835773"},"vehicle_type_id":"4","last_reported":1744387972,"current_range_meters":7200,"station_id":"ce4bhg92rcd13ifvqf90","pricing_plan_id":"cebpf4jnsgd1na2vs0mg"},{"bike_id":"6ecd3bf6-169c-4eff-a24f-1ebddca29a64","system_id":"levelo_inurba_marseille","lat":43.2784,"lon":5.39206,"is_reserved":false,"is_disabled":false,"rental_uris":{"android":"levelo://app?vid=6ecd3bf6-169c-4eff-a24f-1ebddca29a64","ios":"levelo://app?vid=6ecd3bf6-169c-4eff-a24f-1ebddca29a64"},"vehicle_type_id":"4","last_reported":1744387972,"current_range_meters":7200,"station_id":"ce4bhjp2rcd13ifvqga0","pricing_plan_id":"cebpf4jnsgd1na2vs0mg"},{"bike_id":"9b124832-5aac-48fc-ab26-489a32057271","system_id":"levelo_inurba_marseille","lat":43.2551,"lon":5.37639,"is_reserved":false,"is_disabled":true,"rental_uris":{"android":"levelo://app?vid=9b124832-5aac-48fc-ab26-489a32057271","ios":"levelo://app?vid=9b124832-5aac-48fc-ab26-489a32057271"},"vehicle_type_id":"4","last_reported":1744387972,"current_range_meters":7200,"station_id":"ce4bhh12rcd13ifvqff0","pricing_plan_id":"cebpf4jnsgd1na2vs0mg"},{"bike_id":"fa9e0b1f-08d7-4175-bb75-521c70a352dd","system_id":"levelo_inurba_marseille","lat":43.29778,"lon":5.37113,"is_reserved":false,"is_disabled":false,"rental_uris":{"android":"levelo://app?vid=fa9e0b1f-08d7-4175-bb75-521c70a352dd","ios":"levelo://app?vid=fa9e0b1f-08d7-4175-bb75-521c70a352dd"},"vehicle_type_id":"4","last_reported":1744387972,"current_range_meters":7200,"station_id":"ce4bgop2rcd13ifvqc1g","pricing_plan_id":"cebpf4jnsgd1na2vs0mg"},{"bike_id":"4fbcc9e8-c6e3-46c5-8e1c-0ac57935a480","system_id":"levelo_inurba_marseille","lat":43.261983,"lon":5.37454,"is_reserved":false,"is_disabled":false,"rental_uris":{"android":"levelo://app?vid=4fbcc9e8-c6e3-46c5-8e1c-0ac57935a480","ios":"levelo://app?vid=4fbcc9e8-c6e3-46c5-8e1c-0ac57935a480"},"vehicle_type_id":"4","last_reported":1744387972,"current_range_meters":8000,"station_id":"ce4bhgp2rcd13ifvqfc0","pricing_plan_id":"cebpf4jnsgd1na2vs0mg"},{"bike_id":"4d04ad6e-1f9d-4151-8e36-8fd20c3b1b79","system_id":"levelo_inurba_marseille","lat":43.25723,"lon":5.41109,"is_reserved":false,"is_disabled":false,"rental_uris":{"android":"levelo://app?vid=4d04ad6e-1f9d-4151-8e36-8fd20c3b1b79","ios":"levelo://app?vid=4d04ad6e-1f9d-4151-8e36-8fd20c3b1b79"},"vehicle_type_id":"4","last_reported":1744387972,"current_range_meters":8000,"station_id":"ce4bhkp2rcd13ifvqgd0","pricing_plan_id":"cebpf4jnsgd1na2vs0mg"},{"bike_id":"a8827283-5cb2-4c69-8f92-cabeabffb47c","system_id":"levelo_inurba_marseille","lat":43.24158,"lon":5.36392,"is_reserved":false,"is_disabled":false,"rental_uris":{"android":"levelo://app?vid=a8827283-5cb2-4c69-8f92-cabeabffb47c","ios":"levelo://app?vid=a8827283-5cb2-4c69-8f92-cabeabffb47c"},"vehicle_type_id":"4","last_reported":1744387972,"current_range_meters":8000,"station_id":"cpo36qri1sfpv3e86is0","pricing_plan_id":"cebpf4jnsgd1na2vs0mg"},{"bike_id":"9112ddec-71f0-4041-bfd5-9c7594f0ba6b","system_id":"levelo_inurba_marseille","lat":43.26784,"lon":5.39414,"is_reserved":false,"is_disabled":false,"rental_uris":{"android":"levelo://app?vid=9112ddec-71f0-4041-bfd5-9c7594f0ba6b","ios":"levelo://app?vid=9112ddec-71f0-4041-bfd5-9c7594f0ba6b"},"vehicle_type_id":"4","last_reported":1744387972,"current_range_meters":8000,"station_id":"ce4bhh12rcd13ifvqfg0","pricing_plan_id":"cebpf4jnsgd1na2vs0mg"},{"bike_id":"af0477a4-55e8-40e0-8e8f-5461efb87008","system_id":"levelo_inurba_marseille","lat":43.26214,"lon":5.37442,"is_reserved":false,"is_disabled":false,"rental_uris":{"android":"levelo://app?vid=af0477a4-55e8-40e0-8e8f-5461efb87008","ios":"levelo://app?vid=af0477a4-55e8-40e0-8e8f-5461efb87008"},"vehicle_type_id":"4","last_reported":1744387972,"current_range_meters":8000,"station_id":"ce4bhgp2rcd13ifvqfc0","pricing_plan_id":"cebpf4jnsgd1na2vs0mg"},{"bike_id":"d1de0d02-cad5-473e-84fe-71385aa8dc4b","system_id":"levelo_inurba_marseille","lat":43.27386,"lon":5.36257,"is_reserved":false,"is_disabled":false,"rental_uris":{"android":"levelo://app?vid=d1de0d02-cad5-473e-84fe-71385aa8dc4b","ios":"levelo://app?vid=d1de0d02-cad5-473e-84fe-71385aa8dc4b"},"vehicle_type_id":"4","last_reported":1744387972,"current_range_meters":8400,"station_id":"ce4bhbh2rcd13ifvqeo0","pricing_plan_id":"cebpf4jnsgd1na2vs0mg"},{"bike_id":"07d7c308-d2be-44ca-9458-62a4604653a6","system_id":"levelo_inurba_marseille","lat":43.30605,"lon":5.37236,"is_reserved":false,"is_disabled":false,"rental_uris":{"android":"levelo://app?vid=07d7c308-d2be-44ca-9458-62a4604653a6","ios":"levelo://app?vid=07d7c308-d2be-44ca-9458-62a4604653a6"},"vehicle_type_id":"4","last_reported":1744387972,"current_range_meters":8400,"station_id":"ce4bgqh2rcd13ifvqc4g","pricing_plan_id":"cebpf4jnsgd1na2vs0mg"},{"bike_id":"4342a5c6-e4fa-41d4-a40d-9ba6917f445b","system_id":"levelo_inurba_marseille","lat":43.28674,"lon":5.38666,"is_reserved":false,"is_disabled":false,"rental_uris":{"android":"levelo://app?vid=4342a5c6-e4fa-41d4-a40d-9ba6917f445b","ios":"levelo://app?vid=4342a5c6-e4fa-41d4-a40d-9ba6917f445b"},"vehicle_type_id":"4","last_reported":1744387972,"current_range_meters":8400,"station_id":"ce4bh492rcd13ifvqdug","pricing_plan_id":"cebpf4jnsgd1na2vs0mg"},{"bike_id":"6eedcc86-84d7-4a3a-84bc-07e71a31170c","system_id":"levelo_inurba_marseille","lat":43.31686,"lon":5.40471,"is_reserved":false,"is_disabled":false,"rental_uris":{"android":"levelo://app?vid=6eedcc86-84d7-4a3a-84bc-07e71a31170c","ios":"levelo://app?vid=6eedcc86-84d7-4a3a-84bc-07e71a31170c"},"vehicle_type_id":"4","last_reported":1744387972,"current_range_meters":8400,"station_id":"ce4bh012rcd13ifvqd00","pricing_plan_id":"cebpf4jnsgd1na2vs0mg"},{"bike_id":"a6767b7a-7b60-43a3-a9f9-89d7c8ecb41f","system_id":"levelo_inurba_marseille","lat":43.27385,"lon":5.36251,"is_reserved":false,"is_disabled":false,"rental_uris":{"android":"levelo://app?vid=a6767b7a-7b60-43a3-a9f9-89d7c8ecb41f","ios":"levelo://app?vid=a6767b7a-7b60-43a3-a9f9-89d7c8ecb41f"},"vehicle_type_id":"4","last_reported":1744387972,"current_range_meters":8400,"station_id":"ce4bhbh2rcd13ifvqeo0","pricing_plan_id":"cebpf4jnsgd1na2vs0mg"},{"bike_id":"eb25be38-297f-4bfc-a203-762bfaad14f7","system_id":"levelo_inurba_marseille","lat":43.30436,"lon":5.38901,"is_reserved":false,"is_disabled":false,"rental_uris":{"android":"levelo://app?vid=eb25be38-297f-4bfc-a203-762bfaad14f7","ios":"levelo://app?vid=eb25be38-297f-4bfc-a203-762bfaad14f7"},"vehicle_type_id":"4","last_reported":1744387972,"current_range_meters":8400,"station_id":"ce4bgk12rcd13ifvqbi0","pricing_plan_id":"cebpf4jnsgd1na2vs0mg"},{"bike_id":"2a1d864e-ef70-43f7-b9a6-efe6ce1c1848","system_id":"levelo_inurba_marseille","lat":43.29792,"lon":5.37331,"is_reserved":false,"is_disabled":false,"rental_uris":{"android":"levelo://app?vid=2a1d864e-ef70-43f7-b9a6-efe6ce1c1848","ios":"levelo://app?vid=2a1d864e-ef70-43f7-b9a6-efe6ce1c1848"},"vehicle_type_id":"4","last_reported":1744387972,"current_range_meters":8400,"station_id":"","pricing_plan_id":"cebpf4jnsgd1na2vs0mg"},{"bike_id":"88b2eaf1-112a-481c-b041-643f6fbffd64","system_id":"levelo_inurba_marseille","lat":43.25018,"lon":5.38924,"is_reserved":false,"is_disabled":false,"rental_uris":{"android":"levelo://app?vid=88b2eaf1-112a-481c-b041-643f6fbffd64","ios":"levelo://app?vid=88b2eaf1-112a-481c-b041-643f6fbffd64"},"vehicle_type_id":"4","last_reported":1744387972,"current_range_meters":8400,"station_id":"ce4bhgp2rcd13ifvqfd0","pricing_plan_id":"cebpf4jnsgd1na2vs0mg"},{"bike_id":"b8018453-7746-4f6a-a10a-b7d1dd990f62","system_id":"levelo_inurba_marseille","lat":43.29299,"lon":5.37453,"is_reserved":false,"is_disabled":false,"rental_uris":{"android":"levelo://app?vid=b8018453-7746-4f6a-a10a-b7d1dd990f62","ios":"levelo://app?vid=b8018453-7746-4f6a-a10a-b7d1dd990f62"},"vehicle_type_id":"4","last_reported":1744387972,"current_range_meters":8400,"station_id":"ce4bgi12rcd13ifvqb70","pricing_plan_id":"cebpf4jnsgd1na2vs0mg"},{"bike_id":"4931d550-7e6c-453d-8158-2d3efcfe84d6","system_id":"levelo_inurba_marseille","lat":43.22947,"lon":5.35366,"is_reserved":false,"is_disabled":false,"rental_uris":{"android":"levelo://app?vid=4931d550-7e6c-453d-8158-2d3efcfe84d6","ios":"levelo://app?vid=4931d550-7e6c-453d-8158-2d3efcfe84d6"},"vehicle_type_id":"4","last_reported":1744387972,"current_range_meters":8400,"station_id":"cpo3532slgdg3j2ikp40","pricing_plan_id":"cebpf4jnsgd1na2vs0mg"},{"bike_id":"c1cedc26-5bfc-474a-8134-5ddcc5b978bd","system_id":"levelo_inurba_marseille","lat":43.30318,"lon":5.36898,"is_reserved":false,"is_disabled":false,"rental_uris":{"android":"levelo://app?vid=c1cedc26-5bfc-474a-8134-5ddcc5b978bd","ios":"levelo://app?vid=c1cedc26-5bfc-474a-8134-5ddcc5b978bd"},"vehicle_type_id":"4","last_reported":1744387972,"current_range_meters":8400,"station_id":"ce4bgqh2rcd13ifvqc5g","pricing_plan_id":"cebpf4jnsgd1na2vs0mg"},{"bike_id":"629f5387-f4ea-4ff5-8edc-1026cd3b6fa9","system_id":"levelo_inurba_marseille","lat":43.28021,"lon":5.41678,"is_reserved":false,"is_disabled":false,"rental_uris":{"android":"levelo://app?vid=629f5387-f4ea-4ff5-8edc-1026cd3b6fa9","ios":"levelo://app?vid=629f5387-f4ea-4ff5-8edc-1026cd3b6fa9"},"vehicle_type_id":"4","last_reported":1744387972,"current_range_meters":8400,"station_id":"ce4bho12rcd13ifvqh1g","pricing_plan_id":"cebpf4jnsgd1na2vs0mg"},{"bike_id":"6534ce38-b353-41b5-b2a3-241f97687723","system_id":"levelo_inurba_marseille","lat":43.2925,"lon":5.38472,"is_reserved":false,"is_disabled":false,"rental_uris":{"android":"levelo://app?vid=6534ce38-b353-41b5-b2a3-241f97687723","ios":"levelo://app?vid=6534ce38-b353-41b5-b2a3-241f97687723"},"vehicle_type_id":"4","last_reported":1744387972,"current_range_meters":8800,"station_id":"ce4bh692rcd13ifvqea0","pricing_plan_id":"cebpf4jnsgd1na2vs0mg"},{"bike_id":"4313803f-5d3f-44d9-afb8-3e6e002e0c2c","system_id":"levelo_inurba_marseille","lat":43.27074,"lon":5.42281,"is_reserved":false,"is_disabled":false,"rental_uris":{"android":"levelo://app?vid=4313803f-5d3f-44d9-afb8-3e6e002e0c2c","ios":"levelo://app?vid=4313803f-5d3f-44d9-afb8-3e6e002e0c2c"},"vehicle_type_id":"4","last_reported":1744387972,"current_range_meters":10800,"station_id":"ce4bhk92rcd13ifvqgb0","pricing_plan_id":"cebpf4jnsgd1na2vs0mg"},{"bike_id":"eb4c813d-f8bd-41d6-abd8-b2b1dab6da62","system_id":"levelo_inurba_marseille","lat":43.28436,"lon":5.34994,"is_reserved":false,"is_disabled":false,"rental_uris":{"android":"levelo://app?vid=eb4c813d-f8bd-41d6-abd8-b2b1dab6da62","ios":"levelo://app?vid=eb4c813d-f8bd-41d6-abd8-b2b1dab6da62"},"vehicle_type_id":"4","last_reported":1744387972,"current_range_meters":8800,"station_id":"ce4bhbh2rcd13ifvqepg","pricing_plan_id":"cebpf4jnsgd1na2vs0mg"},{"bike_id":"f500eed3-4805-41df-bc72-1f659f76df3c","system_id":"levelo_inurba_marseille","lat":43.24654,"lon":5.38895,"is_reserved":false,"is_disabled":false,"rental_uris":{"android":"levelo://app?vid=f500eed3-4805-41df-bc72-1f659f76df3c","ios":"levelo://app?vid=f500eed3-4805-41df-bc72-1f659f76df3c"},"vehicle_type_id":"4","last_reported":1744387972,"current_range_meters":8400,"station_id":"ce4bhg12rcd13ifvqf60","pricing_plan_id":"cebpf4jnsgd1na2vs0mg"},{"bike_id":"00056412-f7d0-40d2-8c70-ddd96f23efc7","system_id":"levelo_inurba_marseille","lat":43.28419,"lon":5.34991,"is_reserved":false,"is_disabled":false,"rental_uris":{"android":"levelo://app?vid=00056412-f7d0-40d2-8c70-ddd96f23efc7","ios":"levelo://app?vid=00056412-f7d0-40d2-8c70-ddd96f23efc7"},"vehicle_type_id":"4","last_reported":1744387972,"current_range_meters":8800,"station_id":"ce4bhbh2rcd13ifvqepg","pricing_plan_id":"cebpf4jnsgd1na2vs0mg"},{"bike_id":"036c5657-0bbe-4aeb-a07b-d0f48cef38c7","system_id":"levelo_inurba_marseille","lat":43.28405,"lon":5.34976,"is_reserved":false,"is_disabled":false,"rental_uris":{"android":"levelo://app?vid=036c5657-0bbe-4aeb-a07b-d0f48cef38c7","ios":"levelo://app?vid=036c5657-0bbe-4aeb-a07b-d0f48cef38c7"},"vehicle_type_id":"4","last_reported":1744387972,"current_range_meters":8800,"station_id":"ce4bhbh2rcd13ifvqepg","pricing_plan_id":"cebpf4jnsgd1na2vs0mg"},{"bike_id":"2f1bc8c5-7764-46bf-9c5f-571e1f1a4908","system_id":"levelo_inurba_marseille","lat":43.25819,"lon":5.39428,"is_reserved":false,"is_disabled":false,"rental_uris":{"android":"levelo://app?vid=2f1bc8c5-7764-46bf-9c5f-571e1f1a4908","ios":"levelo://app?vid=2f1bc8c5-7764-46bf-9c5f-571e1f1a4908"},"vehicle_type_id":"4","last_reported":1744387972,"current_range_meters":8800,"station_id":"ce4bhip2rcd13ifvqft0","pricing_plan_id":"cebpf4jnsgd1na2vs0mg"},{"bike_id":"4705fd36-a049-4d2f-9221-0ab1612410ac","system_id":"levelo_inurba_marseille","lat":43.291661,"lon":5.371502,"is_reserved":false,"is_disabled":false,"rental_uris":{"android":"levelo://app?vid=4705fd36-a049-4d2f-9221-0ab1612410ac","ios":"levelo://app?vid=4705fd36-a049-4d2f-9221-0ab1612410ac"},"vehicle_type_id":"4","last_reported":1744387972,"current_range_meters":8800,"station_id":"ce4bhah2rcd13ifvqej0","pricing_plan_id":"cebpf4jnsgd1na2vs0mg"},{"bike_id":"d93fd123-5ec9-4d89-b927-2d77d5634072","system_id":"levelo_inurba_marseille","lat":43.231793,"lon":5.399833,"is_reserved":false,"is_disabled":false,"rental_uris":{"android":"levelo://app?vid=d93fd123-5ec9-4d89-b927-2d77d5634072","ios":"levelo://app?vid=d93fd123-5ec9-4d89-b927-2d77d5634072"},"vehicle_type_id":"4","last_reported":1744387972,"current_range_meters":9200,"station_id":"ce4bhn12rcd13ifvqgqg","pricing_plan_id":"cebpf4jnsgd1na2vs0mg"},{"bike_id":"33a689e0-c0c8-4077-8498-8bbc793e0b01","system_id":"levelo_inurba_marseille","lat":43.27379,"lon":5.36255,"is_reserved":false,"is_disabled":false,"rental_uris":{"android":"levelo://app?vid=33a689e0-c0c8-4077-8498-8bbc793e0b01","ios":"levelo://app?vid=33a689e0-c0c8-4077-8498-8bbc793e0b01"},"vehicle_type_id":"4","last_reported":1744387972,"current_range_meters":9200,"station_id":"ce4bhbh2rcd13ifvqeo0","pricing_plan_id":"cebpf4jnsgd1na2vs0mg"},{"bike_id":"60f696f7-e956-46f9-bb0d-80a2dd4b5164","system_id":"levelo_inurba_marseille","lat":43.284144,"lon":5.349756,"is_reserved":false,"is_disabled":false,"rental_uris":{"android":"levelo://app?vid=60f696f7-e956-46f9-bb0d-80a2dd4b5164","ios":"levelo://app?vid=60f696f7-e956-46f9-bb0d-80a2dd4b5164"},"vehicle_type_id":"4","last_reported":1744387972,"current_range_meters":9200,"station_id":"ce4bhbh2rcd13ifvqepg","pricing_plan_id":"cebpf4jnsgd1na2vs0mg"},{"bike_id":"be144df3-65bc-4d68-911d-ea66a0e8f2cf","system_id":"levelo_inurba_marseille","lat":43.27374,"lon":5.36251,"is_reserved":false,"is_disabled":false,"rental_uris":{"android":"levelo://app?vid=be144df3-65bc-4d68-911d-ea66a0e8f2cf","ios":"levelo://app?vid=be144df3-65bc-4d68-911d-ea66a0e8f2cf"},"vehicle_type_id":"4","last_reported":1744387972,"current_range_meters":9200,"station_id":"ce4bhbh2rcd13ifvqeo0","pricing_plan_id":"cebpf4jnsgd1na2vs0mg"},{"bike_id":"eab6cbfa-cb8e-47d7-b0d6-226ab7facec7","system_id":"levelo_inurba_marseille","lat":43.31707,"lon":5.42427,"is_reserved":false,"is_disabled":true,"rental_uris":{"android":"levelo://app?vid=eab6cbfa-cb8e-47d7-b0d6-226ab7facec7","ios":"levelo://app?vid=eab6cbfa-cb8e-47d7-b0d6-226ab7facec7"},"vehicle_type_id":"4","last_reported":1744387972,"current_range_meters":9200,"station_id":"ce4bhp92rcd13ifvqhbg","pricing_plan_id":"cebpf4jnsgd1na2vs0mg"},{"bike_id":"51a88c0c-c62a-4ab3-9f68-54fe6e4d5498","system_id":"levelo_inurba_marseille","lat":43.29879,"lon":5.38902,"is_reserved":false,"is_disabled":false,"rental_uris":{"android":"levelo://app?vid=51a88c0c-c62a-4ab3-9f68-54fe6e4d5498","ios":"levelo://app?vid=51a88c0c-c62a-4ab3-9f68-54fe6e4d5498"},"vehicle_type_id":"4","last_reported":1744387972,"current_range_meters":9200,"station_id":"ce4bh392rcd13ifvqdl0","pricing_plan_id":"cebpf4jnsgd1na2vs0mg"},{"bike_id":"bc70bcdf-5446-492a-96fe-623fbc775ae8","system_id":"levelo_inurba_marseille","lat":43.28615,"lon":5.35095,"is_reserved":false,"is_disabled":false,"rental_uris":{"android":"levelo://app?vid=bc70bcdf-5446-492a-96fe-623fbc775ae8","ios":"levelo://app?vid=bc70bcdf-5446-492a-96fe-623fbc775ae8"},"vehicle_type_id":"4","last_reported":1744387972,"current_range_meters":9600,"station_id":"ce4bhch2rcd13ifvqeug","pricing_plan_id":"cebpf4jnsgd1na2vs0mg"},{"bike_id":"e6a9ee71-9aa9-40e0-9afe-897c88fa9571","system_id":"levelo_inurba_marseille","lat":43.24165,"lon":5.36398,"is_reserved":false,"is_disabled":false,"rental_uris":{"android":"levelo://app?vid=e6a9ee71-9aa9-40e0-9afe-897c88fa9571","ios":"levelo://app?vid=e6a9ee71-9aa9-40e0-9afe-897c88fa9571"},"vehicle_type_id":"4","last_reported":1744387972,"current_range_meters":9600,"station_id":"cpo36qri1sfpv3e86is0","pricing_plan_id":"cebpf4jnsgd1na2vs0mg"},{"bike_id":"6a8f35d1-ec85-4722-85f8-d3cabc747046","system_id":"levelo_inurba_marseille","lat":43.239674,"lon":5.366254,"is_reserved":false,"is_disabled":false,"rental_uris":{"android":"levelo://app?vid=6a8f35d1-ec85-4722-85f8-d3cabc747046","ios":"levelo://app?vid=6a8f35d1-ec85-4722-85f8-d3cabc747046"},"vehicle_type_id":"4","last_reported":1744387972,"current_range_meters":9200,"station_id":"ce4bhi12rcd13ifvqfp0","pricing_plan_id":"cebpf4jnsgd1na2vs0mg"},{"bike_id":"a25a2e39-2efb-4e26-b3a3-45cabe700f1f","system_id":"levelo_inurba_marseille","lat":43.29598,"lon":5.38101,"is_reserved":false,"is_disabled":false,"rental_uris":{"android":"levelo://app?vid=a25a2e39-2efb-4e26-b3a3-45cabe700f1f","ios":"levelo://app?vid=a25a2e39-2efb-4e26-b3a3-45cabe700f1f"},"vehicle_type_id":"4","last_reported":1744387972,"current_range_meters":9600,"station_id":"ce4bgl12rcd13ifvqbo0","pricing_plan_id":"cebpf4jnsgd1na2vs0mg"},{"bike_id":"1ed511b2-fa8f-4961-b341-ef4a50452b08","system_id":"levelo_inurba_marseille","lat":43.29616,"lon":5.38105,"is_reserved":false,"is_disabled":false,"rental_uris":{"android":"levelo://app?vid=1ed511b2-fa8f-4961-b341-ef4a50452b08","ios":"levelo://app?vid=1ed511b2-fa8f-4961-b341-ef4a50452b08"},"vehicle_type_id":"4","last_reported":1744387972,"current_range_meters":9600,"station_id":"ce4bgl12rcd13ifvqbo0","pricing_plan_id":"cebpf4jnsgd1na2vs0mg"},{"bike_id":"52e0f718-e938-4435-8cd2-02a925563a63","system_id":"levelo_inurba_marseille","lat":43.28616,"lon":5.35089,"is_reserved":false,"is_disabled":false,"rental_uris":{"android":"levelo://app?vid=52e0f718-e938-4435-8cd2-02a925563a63","ios":"levelo://app?vid=52e0f718-e938-4435-8cd2-02a925563a63"},"vehicle_type_id":"4","last_reported":1744387972,"current_range_meters":9600,"station_id":"ce4bhch2rcd13ifvqeug","pricing_plan_id":"cebpf4jnsgd1na2vs0mg"},{"bike_id":"0922821c-4e1d-4817-9469-860e55f8f0d1","system_id":"levelo_inurba_marseille","lat":43.337444,"lon":5.374475,"is_reserved":false,"is_disabled":false,"rental_uris":{"android":"levelo://app?vid=0922821c-4e1d-4817-9469-860e55f8f0d1","ios":"levelo://app?vid=0922821c-4e1d-4817-9469-860e55f8f0d1"},"vehicle_type_id":"4","last_reported":1744387972,"current_range_meters":9600,"station_id":"","pricing_plan_id":"cebpf4jnsgd1na2vs0mg"},{"bike_id":"168f80ff-fdd3-4713-893e-9ecc4c0ffecf","system_id":"levelo_inurba_marseille","lat":43.22948,"lon":5.35398,"is_reserved":false,"is_disabled":false,"rental_uris":{"android":"levelo://app?vid=168f80ff-fdd3-4713-893e-9ecc4c0ffecf","ios":"levelo://app?vid=168f80ff-fdd3-4713-893e-9ecc4c0ffecf"},"vehicle_type_id":"4","last_reported":1744387972,"current_range_meters":10000,"station_id":"cpo3532slgdg3j2ikp40","pricing_plan_id":"cebpf4jnsgd1na2vs0mg"},{"bike_id":"b71c9b0d-fca1-4f64-8381-e00568a10027","system_id":"levelo_inurba_marseille","lat":43.28611,"lon":5.35141,"is_reserved":false,"is_disabled":false,"rental_uris":{"android":"levelo://app?vid=b71c9b0d-fca1-4f64-8381-e00568a10027","ios":"levelo://app?vid=b71c9b0d-fca1-4f64-8381-e00568a10027"},"vehicle_type_id":"4","last_reported":1744387972,"current_range_meters":10000,"station_id":"ce4bhch2rcd13ifvqeug","pricing_plan_id":"cebpf4jnsgd1na2vs0mg"},{"bike_id":"f6b71034-9e88-419d-83ed-da6581d59a90","system_id":"levelo_inurba_marseille","lat":43.27378,"lon":5.36253,"is_reserved":false,"is_disabled":false,"rental_uris":{"android":"levelo://app?vid=f6b71034-9e88-419d-83ed-da6581d59a90","ios":"levelo://app?vid=f6b71034-9e88-419d-83ed-da6581d59a90"},"vehicle_type_id":"4","last_reported":1744387972,"current_range_meters":10000,"station_id":"ce4bhbh2rcd13ifvqeo0","pricing_plan_id":"cebpf4jnsgd1na2vs0mg"},{"bike_id":"6dc9f3fd-7948-439a-9e68-b2485cedbe4d","system_id":"levelo_inurba_marseille","lat":43.25497,"lon":5.37646,"is_reserved":false,"is_disabled":false,"rental_uris":{"android":"levelo://app?vid=6dc9f3fd-7948-439a-9e68-b2485cedbe4d","ios":"levelo://app?vid=6dc9f3fd-7948-439a-9e68-b2485cedbe4d"},"vehicle_type_id":"4","last_reported":1744387972,"current_range_meters":9600,"station_id":"ce4bhh12rcd13ifvqff0","pricing_plan_id":"cebpf4jnsgd1na2vs0mg"},{"bike_id":"053f6aa9-9ead-453a-a693-5000109401a5","system_id":"levelo_inurba_marseille","lat":43.30785,"lon":5.37656,"is_reserved":false,"is_disabled":false,"rental_uris":{"android":"levelo://app?vid=053f6aa9-9ead-453a-a693-5000109401a5","ios":"levelo://app?vid=053f6aa9-9ead-453a-a693-5000109401a5"},"vehicle_type_id":"4","last_reported":1744387972,"current_range_meters":10800,"station_id":"ce4bgv92rcd13ifvqcq0","pricing_plan_id":"cebpf4jnsgd1na2vs0mg"},{"bike_id":"b7298ad5-9873-4e9f-8dc3-8546a67971a3","system_id":"levelo_inurba_marseille","lat":43.2175,"lon":5.34608,"is_reserved":false,"is_disabled":false,"rental_uris":{"android":"levelo://app?vid=b7298ad5-9873-4e9f-8dc3-8546a67971a3","ios":"levelo://app?vid=b7298ad5-9873-4e9f-8dc3-8546a67971a3"},"vehicle_type_id":"4","last_reported":1744387972,"current_range_meters":10800,"station_id":"st_cvj6r9ubvosntc0bgbag","pricing_plan_id":"cebpf4jnsgd1na2vs0mg"},{"bike_id":"f6f82589-fc49-4aaf-bb12-664a93b6cdd6","system_id":"levelo_inurba_marseille","lat":43.254974,"lon":5.376494,"is_reserved":false,"is_disabled":false,"rental_uris":{"android":"levelo://app?vid=f6f82589-fc49-4aaf-bb12-664a93b6cdd6","ios":"levelo://app?vid=f6f82589-fc49-4aaf-bb12-664a93b6cdd6"},"vehicle_type_id":"4","last_reported":1744387972,"current_range_meters":10000,"station_id":"ce4bha12rcd13ifvqef0","pricing_plan_id":"cebpf4jnsgd1na2vs0mg"},{"bike_id":"169c0e96-ba0d-4f67-9e4e-22ccc84b5890","system_id":"levelo_inurba_marseille","lat":43.28379,"lon":5.3863,"is_reserved":false,"is_disabled":false,"rental_uris":{"android":"levelo://app?vid=169c0e96-ba0d-4f67-9e4e-22ccc84b5890","ios":"levelo://app?vid=169c0e96-ba0d-4f67-9e4e-22ccc84b5890"},"vehicle_type_id":"4","last_reported":1744387972,"current_range_meters":10800,"station_id":"ce4bh492rcd13ifvqdvg","pricing_plan_id":"cebpf4jnsgd1na2vs0mg"},{"bike_id":"20eb53d5-dc7b-4fbe-a6da-7e0a348438c0","system_id":"levelo_inurba_marseille","lat":43.27927,"lon":5.39578,"is_reserved":false,"is_disabled":true,"rental_uris":{"android":"levelo://app?vid=20eb53d5-dc7b-4fbe-a6da-7e0a348438c0","ios":"levelo://app?vid=20eb53d5-dc7b-4fbe-a6da-7e0a348438c0"},"vehicle_type_id":"4","last_reported":1744387972,"current_range_meters":10800,"station_id":"ce4bhf92rcd13ifvqf40","pricing_plan_id":"cebpf4jnsgd1na2vs0mg"},{"bike_id":"94455896-0f19-4fae-bd72-9879f01fcd6e","system_id":"levelo_inurba_marseille","lat":43.29563,"lon":5.42287,"is_reserved":false,"is_disabled":true,"rental_uris":{"android":"levelo://app?vid=94455896-0f19-4fae-bd72-9879f01fcd6e","ios":"levelo://app?vid=94455896-0f19-4fae-bd72-9879f01fcd6e"},"vehicle_type_id":"4","last_reported":1744387972,"current_range_meters":10800,"station_id":"ce4bhph2rcd13ifvqhdg","pricing_plan_id":"cebpf4jnsgd1na2vs0mg"},{"bike_id":"67174cdc-e1ce-4fc4-bbea-753b91e8eca9","system_id":"levelo_inurba_marseille","lat":43.28105,"lon":5.37834,"is_reserved":false,"is_disabled":false,"rental_uris":{"android":"levelo://app?vid=67174cdc-e1ce-4fc4-bbea-753b91e8eca9","ios":"levelo://app?vid=67174cdc-e1ce-4fc4-bbea-753b91e8eca9"},"vehicle_type_id":"4","last_reported":1744387972,"current_range_meters":10000,"station_id":"ce4bha12rcd13ifvqee0","pricing_plan_id":"cebpf4jnsgd1na2vs0mg"},{"bike_id":"51b90e50-c3c4-4253-ad43-451b705a1c66","system_id":"levelo_inurba_marseille","lat":43.2997,"lon":5.37178,"is_reserved":false,"is_disabled":false,"rental_uris":{"android":"levelo://app?vid=51b90e50-c3c4-4253-ad43-451b705a1c66","ios":"levelo://app?vid=51b90e50-c3c4-4253-ad43-451b705a1c66"},"vehicle_type_id":"4","last_reported":1744387972,"current_range_meters":11200,"station_id":"ce4bgr92rcd13ifvqc7g","pricing_plan_id":"cebpf4jnsgd1na2vs0mg"},{"bike_id":"dfed5eff-1296-4ad0-b720-942ca331a6e1","system_id":"levelo_inurba_marseille","lat":43.294093,"lon":5.374191,"is_reserved":false,"is_disabled":false,"rental_uris":{"android":"levelo://app?vid=dfed5eff-1296-4ad0-b720-942ca331a6e1","ios":"levelo://app?vid=dfed5eff-1296-4ad0-b720-942ca331a6e1"},"vehicle_type_id":"4","last_reported":1744387972,"current_range_meters":11200,"station_id":"ce4bgm92rcd13ifvqbr0","pricing_plan_id":"cebpf4jnsgd1na2vs0mg"},{"bike_id":"a04aebb0-2b52-489e-9c15-a74c1d2fa1ec","system_id":"levelo_inurba_marseille","lat":43.29544,"lon":5.42276,"is_reserved":false,"is_disabled":false,"rental_uris":{"android":"levelo://app?vid=a04aebb0-2b52-489e-9c15-a74c1d2fa1ec","ios":"levelo://app?vid=a04aebb0-2b52-489e-9c15-a74c1d2fa1ec"},"vehicle_type_id":"4","last_reported":1744387972,"current_range_meters":11200,"station_id":"ce4bhph2rcd13ifvqhdg","pricing_plan_id":"cebpf4jnsgd1na2vs0mg"},{"bike_id":"fd8e6c99-ecc8-4034-b1c4-0baa7c8d18af","system_id":"levelo_inurba_marseille","lat":43.26777,"lon":5.39415,"is_reserved":false,"is_disabled":false,"rental_uris":{"android":"levelo://app?vid=fd8e6c99-ecc8-4034-b1c4-0baa7c8d18af","ios":"levelo://app?vid=fd8e6c99-ecc8-4034-b1c4-0baa7c8d18af"},"vehicle_type_id":"4","last_reported":1744387972,"current_range_meters":11200,"station_id":"ce4bhh12rcd13ifvqfg0","pricing_plan_id":"cebpf4jnsgd1na2vs0mg"},{"bike_id":"cc83a7aa-57a1-4769-9137-8531613b4691","system_id":"levelo_inurba_marseille","lat":43.31244,"lon":5.37299,"is_reserved":false,"is_disabled":false,"rental_uris":{"android":"levelo://app?vid=cc83a7aa-57a1-4769-9137-8531613b4691","ios":"levelo://app?vid=cc83a7aa-57a1-4769-9137-8531613b4691"},"vehicle_type_id":"4","last_reported":1744387972,"current_range_meters":11200,"station_id":"","pricing_plan_id":"cebpf4jnsgd1na2vs0mg"},{"bike_id":"162f13ca-8112-4988-a58c-4ba3fda2f61d","system_id":"levelo_inurba_marseille","lat":43.2862,"lon":5.35102,"is_reserved":false,"is_disabled":false,"rental_uris":{"android":"levelo://app?vid=162f13ca-8112-4988-a58c-4ba3fda2f61d","ios":"levelo://app?vid=162f13ca-8112-4988-a58c-4ba3fda2f61d"},"vehicle_type_id":"4","last_reported":1744387972,"current_range_meters":11200,"station_id":"ce4bhch2rcd13ifvqeug","pricing_plan_id":"cebpf4jnsgd1na2vs0mg"},{"bike_id":"e6ac4af9-2439-47d4-81bd-f356ebc6ff6f","system_id":"levelo_inurba_marseille","lat":43.26928,"lon":5.38919,"is_reserved":false,"is_disabled":false,"rental_uris":{"android":"levelo://app?vid=e6ac4af9-2439-47d4-81bd-f356ebc6ff6f","ios":"levelo://app?vid=e6ac4af9-2439-47d4-81bd-f356ebc6ff6f"},"vehicle_type_id":"4","last_reported":1744387972,"current_range_meters":10800,"station_id":"ce4bhhh2rcd13ifvqfl0","pricing_plan_id":"cebpf4jnsgd1na2vs0mg"},{"bike_id":"01eb27aa-185d-4f49-ab25-d2779096a416","system_id":"levelo_inurba_marseille","lat":43.31331,"lon":5.39694,"is_reserved":false,"is_disabled":false,"rental_uris":{"android":"levelo://app?vid=01eb27aa-185d-4f49-ab25-d2779096a416","ios":"levelo://app?vid=01eb27aa-185d-4f49-ab25-d2779096a416"},"vehicle_type_id":"4","last_reported":1744387972,"current_range_meters":10800,"station_id":"ce4bgvp2rcd13ifvqcu0","pricing_plan_id":"cebpf4jnsgd1na2vs0mg"},{"bike_id":"5cd62575-a5c5-4342-839f-139953cf93b9","system_id":"levelo_inurba_marseille","lat":43.29975,"lon":5.38493,"is_reserved":false,"is_disabled":false,"rental_uris":{"android":"levelo://app?vid=5cd62575-a5c5-4342-839f-139953cf93b9","ios":"levelo://app?vid=5cd62575-a5c5-4342-839f-139953cf93b9"},"vehicle_type_id":"4","last_reported":1744387972,"current_range_meters":11200,"station_id":"ce4bgj92rcd13ifvqbd0","pricing_plan_id":"cebpf4jnsgd1na2vs0mg"},{"bike_id":"5cbd6920-e86e-449a-9470-bc78d120719f","system_id":"levelo_inurba_marseille","lat":43.29268,"lon":5.38435,"is_reserved":false,"is_disabled":false,"rental_uris":{"android":"levelo://app?vid=5cbd6920-e86e-449a-9470-bc78d120719f","ios":"levelo://app?vid=5cbd6920-e86e-449a-9470-bc78d120719f"},"vehicle_type_id":"4","last_reported":1744387972,"current_range_meters":11200,"station_id":"ce4bh692rcd13ifvqea0","pricing_plan_id":"cebpf4jnsgd1na2vs0mg"},{"bike_id":"79385af2-cdf8-4108-b1f7-48e7c3f0f877","system_id":"levelo_inurba_marseille","lat":43.29255,"lon":5.3844,"is_reserved":false,"is_disabled":false,"rental_uris":{"android":"levelo://app?vid=79385af2-cdf8-4108-b1f7-48e7c3f0f877","ios":"levelo://app?vid=79385af2-cdf8-4108-b1f7-48e7c3f0f877"},"vehicle_type_id":"4","last_reported":1744387972,"current_range_meters":11200,"station_id":"ce4bh692rcd13ifvqea0","pricing_plan_id":"cebpf4jnsgd1na2vs0mg"},{"bike_id":"0b3dc0b2-b22d-4b21-94e3-c102d89fee14","system_id":"levelo_inurba_marseille","lat":43.29031,"lon":5.39973,"is_reserved":false,"is_disabled":false,"rental_uris":{"android":"levelo://app?vid=0b3dc0b2-b22d-4b21-94e3-c102d89fee14","ios":"levelo://app?vid=0b3dc0b2-b22d-4b21-94e3-c102d89fee14"},"vehicle_type_id":"4","last_reported":1744387972,"current_range_meters":11600,"station_id":"ce4bh392rcd13ifvqdm0","pricing_plan_id":"cebpf4jnsgd1na2vs0mg"},{"bike_id":"f7f1beb6-7f40-4700-8a9b-e366edf24ac4","system_id":"levelo_inurba_marseille","lat":43.27072,"lon":5.42278,"is_reserved":false,"is_disabled":false,"rental_uris":{"android":"levelo://app?vid=f7f1beb6-7f40-4700-8a9b-e366edf24ac4","ios":"levelo://app?vid=f7f1beb6-7f40-4700-8a9b-e366edf24ac4"},"vehicle_type_id":"4","last_reported":1744387972,"current_range_meters":11600,"station_id":"ce4bhk92rcd13ifvqgb0","pricing_plan_id":"cebpf4jnsgd1na2vs0mg"},{"bike_id":"d99dccde-9ca2-4b8a-8706-9bba96a0e937","system_id":"levelo_inurba_marseille","lat":43.26957,"lon":5.38635,"is_reserved":false,"is_disabled":false,"rental_uris":{"android":"levelo://app?vid=d99dccde-9ca2-4b8a-8706-9bba96a0e937","ios":"levelo://app?vid=d99dccde-9ca2-4b8a-8706-9bba96a0e937"},"vehicle_type_id":"4","last_reported":1744387972,"current_range_meters":11200,"station_id":"ce4bhh92rcd13ifvqfh0","pricing_plan_id":"cebpf4jnsgd1na2vs0mg"},{"bike_id":"f21cce43-7e86-42c4-8a4d-3c922080ab5c","system_id":"levelo_inurba_marseille","lat":43.2895,"lon":5.36642,"is_reserved":false,"is_disabled":true,"rental_uris":{"android":"levelo://app?vid=f21cce43-7e86-42c4-8a4d-3c922080ab5c","ios":"levelo://app?vid=f21cce43-7e86-42c4-8a4d-3c922080ab5c"},"vehicle_type_id":"4","last_reported":1744387972,"current_range_meters":12000,"station_id":"ce4bhap2rcd13ifvqek0","pricing_plan_id":"cebpf4jnsgd1na2vs0mg"},{"bike_id":"463b41fd-37bb-48c0-a6e4-12f737a3d7cf","system_id":"levelo_inurba_marseille","lat":43.26969,"lon":5.40292,"is_reserved":false,"is_disabled":true,"rental_uris":{"android":"levelo://app?vid=463b41fd-37bb-48c0-a6e4-12f737a3d7cf","ios":"levelo://app?vid=463b41fd-37bb-48c0-a6e4-12f737a3d7cf"},"vehicle_type_id":"4","last_reported":1744387972,"current_range_meters":12000,"station_id":"cjm6bp8fraef2m0cb0m0","pricing_plan_id":"cebpf4jnsgd1na2vs0mg"},{"bike_id":"feb04d1c-c2bd-4d38-91ca-a0075a753750","system_id":"levelo_inurba_marseille","lat":43.28431,"lon":5.34991,"is_reserved":false,"is_disabled":false,"rental_uris":{"android":"levelo://app?vid=feb04d1c-c2bd-4d38-91ca-a0075a753750","ios":"levelo://app?vid=feb04d1c-c2bd-4d38-91ca-a0075a753750"},"vehicle_type_id":"4","last_reported":1744387972,"current_range_meters":12000,"station_id":"ce4bhbh2rcd13ifvqepg","pricing_plan_id":"cebpf4jnsgd1na2vs0mg"},{"bike_id":"c1c288c9-99ea-42ac-b8ff-e2b78c790da5","system_id":"levelo_inurba_marseille","lat":43.25724,"lon":5.41105,"is_reserved":false,"is_disabled":false,"rental_uris":{"android":"levelo://app?vid=c1c288c9-99ea-42ac-b8ff-e2b78c790da5","ios":"levelo://app?vid=c1c288c9-99ea-42ac-b8ff-e2b78c790da5"},"vehicle_type_id":"4","last_reported":1744387972,"current_range_meters":11600,"station_id":"ce4bhkp2rcd13ifvqgd0","pricing_plan_id":"cebpf4jnsgd1na2vs0mg"},{"bike_id":"1b2a2f65-3246-46da-a318-10a826df64f2","system_id":"levelo_inurba_marseille","lat":43.33055,"lon":5.39045,"is_reserved":false,"is_disabled":false,"rental_uris":{"android":"levelo://app?vid=1b2a2f65-3246-46da-a318-10a826df64f2","ios":"levelo://app?vid=1b2a2f65-3246-46da-a318-10a826df64f2"},"vehicle_type_id":"4","last_reported":1744387972,"current_range_meters":12000,"station_id":"ce4bhr92rcd13ifvqhrg","pricing_plan_id":"cebpf4jnsgd1na2vs0mg"},{"bike_id":"2d2e31a1-75bd-4ef3-8efc-056c6e4199ac","system_id":"levelo_inurba_marseille","lat":43.28623,"lon":5.35102,"is_reserved":false,"is_disabled":false,"rental_uris":{"android":"levelo://app?vid=2d2e31a1-75bd-4ef3-8efc-056c6e4199ac","ios":"levelo://app?vid=2d2e31a1-75bd-4ef3-8efc-056c6e4199ac"},"vehicle_type_id":"4","last_reported":1744387972,"current_range_meters":12400,"station_id":"ce4bhch2rcd13ifvqeug","pricing_plan_id":"cebpf4jnsgd1na2vs0mg"},{"bike_id":"60e4bd1f-b789-4e3a-ba70-a5d8d260c556","system_id":"levelo_inurba_marseille","lat":43.25084,"lon":5.3952,"is_reserved":false,"is_disabled":false,"rental_uris":{"android":"levelo://app?vid=60e4bd1f-b789-4e3a-ba70-a5d8d260c556","ios":"levelo://app?vid=60e4bd1f-b789-4e3a-ba70-a5d8d260c556"},"vehicle_type_id":"4","last_reported":1744387972,"current_range_meters":12000,"station_id":"ce4bhm12rcd13ifvqgkg","pricing_plan_id":"cebpf4jnsgd1na2vs0mg"},{"bike_id":"2c15eeeb-3562-4455-8f77-bd64fc00b9c6","system_id":"levelo_inurba_marseille","lat":43.24165,"lon":5.36393,"is_reserved":false,"is_disabled":false,"rental_uris":{"android":"levelo://app?vid=2c15eeeb-3562-4455-8f77-bd64fc00b9c6","ios":"levelo://app?vid=2c15eeeb-3562-4455-8f77-bd64fc00b9c6"},"vehicle_type_id":"4","last_reported":1744387972,"current_range_meters":12400,"station_id":"cpo36qri1sfpv3e86is0","pricing_plan_id":"cebpf4jnsgd1na2vs0mg"},{"bike_id":"99af4c1d-78fb-4754-a08d-7e86c6464cbc","system_id":"levelo_inurba_marseille","lat":43.287,"lon":5.37382,"is_reserved":false,"is_disabled":false,"rental_uris":{"android":"levelo://app?vid=99af4c1d-78fb-4754-a08d-7e86c6464cbc","ios":"levelo://app?vid=99af4c1d-78fb-4754-a08d-7e86c6464cbc"},"vehicle_type_id":"4","last_reported":1744387972,"current_range_meters":12400,"station_id":"ce4bh3p2rcd13ifvqdq0","pricing_plan_id":"cebpf4jnsgd1na2vs0mg"},{"bike_id":"72adaa87-94dc-4774-aca0-5147bc57bd16","system_id":"levelo_inurba_marseille","lat":43.26022,"lon":5.41738,"is_reserved":false,"is_disabled":false,"rental_uris":{"android":"levelo://app?vid=72adaa87-94dc-4774-aca0-5147bc57bd16","ios":"levelo://app?vid=72adaa87-94dc-4774-aca0-5147bc57bd16"},"vehicle_type_id":"4","last_reported":1744387972,"current_range_meters":12400,"station_id":"","pricing_plan_id":"cebpf4jnsgd1na2vs0mg"},{"bike_id":"9b0093a9-79e0-4880-82c2-96b353b4de72","system_id":"levelo_inurba_marseille","lat":43.30318,"lon":5.4044,"is_reserved":false,"is_disabled":true,"rental_uris":{"android":"levelo://app?vid=9b0093a9-79e0-4880-82c2-96b353b4de72","ios":"levelo://app?vid=9b0093a9-79e0-4880-82c2-96b353b4de72"},"vehicle_type_id":"4","last_reported":1744387972,"current_range_meters":12400,"station_id":"ce4bh012rcd13ifvqd10","pricing_plan_id":"cebpf4jnsgd1na2vs0mg"},{"bike_id":"f021d2f3-d0b2-4841-86f0-e5d2be7a2683","system_id":"levelo_inurba_marseille","lat":43.32369,"lon":5.38885,"is_reserved":false,"is_disabled":false,"rental_uris":{"android":"levelo://app?vid=f021d2f3-d0b2-4841-86f0-e5d2be7a2683","ios":"levelo://app?vid=f021d2f3-d0b2-4841-86f0-e5d2be7a2683"},"vehicle_type_id":"4","last_reported":1744387972,"current_range_meters":12800,"station_id":"ce4bhqp2rcd13ifvqhog","pricing_plan_id":"cebpf4jnsgd1na2vs0mg"},{"bike_id":"41f8f1e8-7603-4845-b014-fe9ba51c8c39","system_id":"levelo_inurba_marseille","lat":43.28621,"lon":5.35102,"is_reserved":false,"is_disabled":false,"rental_uris":{"android":"levelo://app?vid=41f8f1e8-7603-4845-b014-fe9ba51c8c39","ios":"levelo://app?vid=41f8f1e8-7603-4845-b014-fe9ba51c8c39"},"vehicle_type_id":"4","last_reported":1744387972,"current_range_meters":12800,"station_id":"ce4bhch2rcd13ifvqeug","pricing_plan_id":"cebpf4jnsgd1na2vs0mg"},{"bike_id":"12f552fb-128b-4f39-a171-4a4db7cfeac8","system_id":"levelo_inurba_marseille","lat":43.28466,"lon":5.35051,"is_reserved":false,"is_disabled":false,"rental_uris":{"android":"levelo://app?vid=12f552fb-128b-4f39-a171-4a4db7cfeac8","ios":"levelo://app?vid=12f552fb-128b-4f39-a171-4a4db7cfeac8"},"vehicle_type_id":"4","last_reported":1744387972,"current_range_meters":12800,"station_id":"ce4bhbh2rcd13ifvqepg","pricing_plan_id":"cebpf4jnsgd1na2vs0mg"},{"bike_id":"7c4098af-670b-4422-8f2d-53971a56100f","system_id":"levelo_inurba_marseille","lat":43.30295,"lon":5.39195,"is_reserved":false,"is_disabled":false,"rental_uris":{"android":"levelo://app?vid=7c4098af-670b-4422-8f2d-53971a56100f","ios":"levelo://app?vid=7c4098af-670b-4422-8f2d-53971a56100f"},"vehicle_type_id":"4","last_reported":1744387972,"current_range_meters":12800,"station_id":"ce4bgkh2rcd13ifvqbk0","pricing_plan_id":"cebpf4jnsgd1na2vs0mg"},{"bike_id":"f1849247-1a3b-4eef-b251-a7a4f51ab6d4","system_id":"levelo_inurba_marseille","lat":43.22929,"lon":5.35383,"is_reserved":false,"is_disabled":false,"rental_uris":{"android":"levelo://app?vid=f1849247-1a3b-4eef-b251-a7a4f51ab6d4","ios":"levelo://app?vid=f1849247-1a3b-4eef-b251-a7a4f51ab6d4"},"vehicle_type_id":"4","last_reported":1744387972,"current_range_meters":12800,"station_id":"cpo3532slgdg3j2ikp40","pricing_plan_id":"cebpf4jnsgd1na2vs0mg"},{"bike_id":"9557c5b2-1af2-4f4c-83d5-8462cf232d80","system_id":"levelo_inurba_marseille","lat":43.28417,"lon":5.34993,"is_reserved":false,"is_disabled":false,"rental_uris":{"android":"levelo://app?vid=9557c5b2-1af2-4f4c-83d5-8462cf232d80","ios":"levelo://app?vid=9557c5b2-1af2-4f4c-83d5-8462cf232d80"},"vehicle_type_id":"4","last_reported":1744387972,"current_range_meters":12800,"station_id":"ce4bhbh2rcd13ifvqepg","pricing_plan_id":"cebpf4jnsgd1na2vs0mg"},{"bike_id":"1ab1ff88-5845-4ae7-a84f-e8dd61e8a6a7","system_id":"levelo_inurba_marseille","lat":43.245857,"lon":5.380705,"is_reserved":false,"is_disabled":false,"rental_uris":{"android":"levelo://app?vid=1ab1ff88-5845-4ae7-a84f-e8dd61e8a6a7","ios":"levelo://app?vid=1ab1ff88-5845-4ae7-a84f-e8dd61e8a6a7"},"vehicle_type_id":"4","last_reported":1744387972,"current_range_meters":12400,"station_id":"ce4bhih2rcd13ifvqfr0","pricing_plan_id":"cebpf4jnsgd1na2vs0mg"},{"bike_id":"403c7a5e-d4e0-48a3-90de-0b67e4f1dc22","system_id":"levelo_inurba_marseille","lat":43.27384,"lon":5.3625,"is_reserved":false,"is_disabled":false,"rental_uris":{"android":"levelo://app?vid=403c7a5e-d4e0-48a3-90de-0b67e4f1dc22","ios":"levelo://app?vid=403c7a5e-d4e0-48a3-90de-0b67e4f1dc22"},"vehicle_type_id":"4","last_reported":1744387972,"current_range_meters":12800,"station_id":"ce4bhbh2rcd13ifvqeo0","pricing_plan_id":"cebpf4jnsgd1na2vs0mg"},{"bike_id":"d21733e5-1564-4c3d-8657-463d1eaf61b3","system_id":"levelo_inurba_marseille","lat":43.28427,"lon":5.34991,"is_reserved":false,"is_disabled":false,"rental_uris":{"android":"levelo://app?vid=d21733e5-1564-4c3d-8657-463d1eaf61b3","ios":"levelo://app?vid=d21733e5-1564-4c3d-8657-463d1eaf61b3"},"vehicle_type_id":"4","last_reported":1744387972,"current_range_meters":13600,"station_id":"ce4bhbh2rcd13ifvqepg","pricing_plan_id":"cebpf4jnsgd1na2vs0mg"},{"bike_id":"4bcdcc82-d58d-4172-b626-a8c82408681c","system_id":"levelo_inurba_marseille","lat":43.31213,"lon":5.3689,"is_reserved":false,"is_disabled":true,"rental_uris":{"android":"levelo://app?vid=4bcdcc82-d58d-4172-b626-a8c82408681c","ios":"levelo://app?vid=4bcdcc82-d58d-4172-b626-a8c82408681c"},"vehicle_type_id":"4","last_reported":1744387972,"current_range_meters":13600,"station_id":"ce4bgl92rcd13ifvqbq0","pricing_plan_id":"cebpf4jnsgd1na2vs0mg"},{"bike_id":"4f89bde3-88a0-40e7-ae70-72900e1932b1","system_id":"levelo_inurba_marseille","lat":43.28664,"lon":5.36342,"is_reserved":false,"is_disabled":false,"rental_uris":{"android":"levelo://app?vid=4f89bde3-88a0-40e7-ae70-72900e1932b1","ios":"levelo://app?vid=4f89bde3-88a0-40e7-ae70-72900e1932b1"},"vehicle_type_id":"4","last_reported":1744387972,"current_range_meters":13600,"station_id":"ce4bhah2rcd13ifvqej0","pricing_plan_id":"cebpf4jnsgd1na2vs0mg"},{"bike_id":"c4054aff-33a1-463b-be29-92549b777e12","system_id":"levelo_inurba_marseille","lat":43.2619,"lon":5.37452,"is_reserved":false,"is_disabled":true,"rental_uris":{"android":"levelo://app?vid=c4054aff-33a1-463b-be29-92549b777e12","ios":"levelo://app?vid=c4054aff-33a1-463b-be29-92549b777e12"},"vehicle_type_id":"4","last_reported":1744387972,"current_range_meters":13600,"station_id":"ce4bhgp2rcd13ifvqfc0","pricing_plan_id":"cebpf4jnsgd1na2vs0mg"},{"bike_id":"08ace97c-b787-4453-99a4-e005c250b9c8","system_id":"levelo_inurba_marseille","lat":43.27374,"lon":5.36254,"is_reserved":false,"is_disabled":false,"rental_uris":{"android":"levelo://app?vid=08ace97c-b787-4453-99a4-e005c250b9c8","ios":"levelo://app?vid=08ace97c-b787-4453-99a4-e005c250b9c8"},"vehicle_type_id":"4","last_reported":1744387972,"current_range_meters":13600,"station_id":"ce4bhbh2rcd13ifvqeo0","pricing_plan_id":"cebpf4jnsgd1na2vs0mg"},{"bike_id":"0ddf776c-d331-4742-a390-e261c54b7ae1","system_id":"levelo_inurba_marseille","lat":43.21208,"lon":5.35084,"is_reserved":false,"is_disabled":false,"rental_uris":{"android":"levelo://app?vid=0ddf776c-d331-4742-a390-e261c54b7ae1","ios":"levelo://app?vid=0ddf776c-d331-4742-a390-e261c54b7ae1"},"vehicle_type_id":"4","last_reported":1744387972,"current_range_meters":13600,"station_id":"st_cvj6sg6p6f1abm77japg","pricing_plan_id":"cebpf4jnsgd1na2vs0mg"},{"bike_id":"ed5576e1-e79d-4a0b-8710-564ce8975df8","system_id":"levelo_inurba_marseille","lat":43.23194,"lon":5.35554,"is_reserved":false,"is_disabled":false,"rental_uris":{"android":"levelo://app?vid=ed5576e1-e79d-4a0b-8710-564ce8975df8","ios":"levelo://app?vid=ed5576e1-e79d-4a0b-8710-564ce8975df8"},"vehicle_type_id":"4","last_reported":1744387972,"current_range_meters":13600,"station_id":"ce4bhu92rcd13ifvqi70","pricing_plan_id":"cebpf4jnsgd1na2vs0mg"},{"bike_id":"18cdf79b-64e9-4357-ad7a-f10aa77054e7","system_id":"levelo_inurba_marseille","lat":43.29418,"lon":5.38627,"is_reserved":false,"is_disabled":false,"rental_uris":{"android":"levelo://app?vid=18cdf79b-64e9-4357-ad7a-f10aa77054e7","ios":"levelo://app?vid=18cdf79b-64e9-4357-ad7a-f10aa77054e7"},"vehicle_type_id":"4","last_reported":1744387972,"current_range_meters":13600,"station_id":"ce4bh2h2rcd13ifvqdh0","pricing_plan_id":"cebpf4jnsgd1na2vs0mg"},{"bike_id":"985dcc4b-b5fd-46fb-aa6a-d5c9c9d38e9c","system_id":"levelo_inurba_marseille","lat":43.29265,"lon":5.38435,"is_reserved":false,"is_disabled":false,"rental_uris":{"android":"levelo://app?vid=985dcc4b-b5fd-46fb-aa6a-d5c9c9d38e9c","ios":"levelo://app?vid=985dcc4b-b5fd-46fb-aa6a-d5c9c9d38e9c"},"vehicle_type_id":"4","last_reported":1744387972,"current_range_meters":13600,"station_id":"ce4bh692rcd13ifvqea0","pricing_plan_id":"cebpf4jnsgd1na2vs0mg"},{"bike_id":"f04edbfc-40a3-418f-b801-3f5fa7f25f86","system_id":"levelo_inurba_marseille","lat":43.32657,"lon":5.40995,"is_reserved":false,"is_disabled":false,"rental_uris":{"android":"levelo://app?vid=f04edbfc-40a3-418f-b801-3f5fa7f25f86","ios":"levelo://app?vid=f04edbfc-40a3-418f-b801-3f5fa7f25f86"},"vehicle_type_id":"4","last_reported":1744387972,"current_range_meters":14000,"station_id":"ce4bhpp2rcd13ifvqhgg","pricing_plan_id":"cebpf4jnsgd1na2vs0mg"},{"bike_id":"a00f56f9-84f2-45fd-ab16-7295ae996a09","system_id":"levelo_inurba_marseille","lat":43.32663,"lon":5.40998,"is_reserved":false,"is_disabled":false,"rental_uris":{"android":"levelo://app?vid=a00f56f9-84f2-45fd-ab16-7295ae996a09","ios":"levelo://app?vid=a00f56f9-84f2-45fd-ab16-7295ae996a09"},"vehicle_type_id":"4","last_reported":1744387972,"current_range_meters":14000,"station_id":"ce4bhpp2rcd13ifvqhgg","pricing_plan_id":"cebpf4jnsgd1na2vs0mg"},{"bike_id":"d4ef6244-d8e3-444f-8db6-8d9b306432f3","system_id":"levelo_inurba_marseille","lat":43.28405,"lon":5.34986,"is_reserved":false,"is_disabled":false,"rental_uris":{"android":"levelo://app?vid=d4ef6244-d8e3-444f-8db6-8d9b306432f3","ios":"levelo://app?vid=d4ef6244-d8e3-444f-8db6-8d9b306432f3"},"vehicle_type_id":"4","last_reported":1744387972,"current_range_meters":14400,"station_id":"ce4bhbh2rcd13ifvqepg","pricing_plan_id":"cebpf4jnsgd1na2vs0mg"},{"bike_id":"c26e50aa-24e4-41c1-8995-4a8197de5079","system_id":"levelo_inurba_marseille","lat":43.29637,"lon":5.40588,"is_reserved":false,"is_disabled":false,"rental_uris":{"android":"levelo://app?vid=c26e50aa-24e4-41c1-8995-4a8197de5079","ios":"levelo://app?vid=c26e50aa-24e4-41c1-8995-4a8197de5079"},"vehicle_type_id":"4","last_reported":1744387972,"current_range_meters":14000,"station_id":"ce4bh0h2rcd13ifvqd60","pricing_plan_id":"cebpf4jnsgd1na2vs0mg"},{"bike_id":"4c893399-b4ed-40ed-a49f-713da320f269","system_id":"levelo_inurba_marseille","lat":43.29861,"lon":5.37841,"is_reserved":false,"is_disabled":false,"rental_uris":{"android":"levelo://app?vid=4c893399-b4ed-40ed-a49f-713da320f269","ios":"levelo://app?vid=4c893399-b4ed-40ed-a49f-713da320f269"},"vehicle_type_id":"4","last_reported":1744387972,"current_range_meters":14400,"station_id":"","pricing_plan_id":"cebpf4jnsgd1na2vs0mg"},{"bike_id":"8bdfee6d-eb4a-46a9-b324-4272c2495e78","system_id":"levelo_inurba_marseille","lat":43.26213,"lon":5.37444,"is_reserved":false,"is_disabled":false,"rental_uris":{"android":"levelo://app?vid=8bdfee6d-eb4a-46a9-b324-4272c2495e78","ios":"levelo://app?vid=8bdfee6d-eb4a-46a9-b324-4272c2495e78"},"vehicle_type_id":"4","last_reported":1744387972,"current_range_meters":14400,"station_id":"ce4bhgp2rcd13ifvqfc0","pricing_plan_id":"cebpf4jnsgd1na2vs0mg"},{"bike_id":"97894f9a-dc76-439b-8e40-02c4ee54b277","system_id":"levelo_inurba_marseille","lat":43.29526,"lon":5.39056,"is_reserved":false,"is_disabled":false,"rental_uris":{"android":"levelo://app?vid=97894f9a-dc76-439b-8e40-02c4ee54b277","ios":"levelo://app?vid=97894f9a-dc76-439b-8e40-02c4ee54b277"},"vehicle_type_id":"4","last_reported":1744387972,"current_range_meters":14400,"station_id":"ce4bh3p2rcd13ifvqdp0","pricing_plan_id":"cebpf4jnsgd1na2vs0mg"},{"bike_id":"8c58f2fa-99e1-41f8-bf90-9c1648b679b1","system_id":"levelo_inurba_marseille","lat":43.27302,"lon":5.41464,"is_reserved":false,"is_disabled":false,"rental_uris":{"android":"levelo://app?vid=8c58f2fa-99e1-41f8-bf90-9c1648b679b1","ios":"levelo://app?vid=8c58f2fa-99e1-41f8-bf90-9c1648b679b1"},"vehicle_type_id":"4","last_reported":1744387972,"current_range_meters":14400,"station_id":"","pricing_plan_id":"cebpf4jnsgd1na2vs0mg"},{"bike_id":"0dd30543-da89-4cf8-9d47-cc9ddeb417b7","system_id":"levelo_inurba_marseille","lat":43.27496,"lon":5.42451,"is_reserved":false,"is_disabled":false,"rental_uris":{"android":"levelo://app?vid=0dd30543-da89-4cf8-9d47-cc9ddeb417b7","ios":"levelo://app?vid=0dd30543-da89-4cf8-9d47-cc9ddeb417b7"},"vehicle_type_id":"4","last_reported":1744387972,"current_range_meters":14400,"station_id":"ce4bhn92rcd13ifvqgrg","pricing_plan_id":"cebpf4jnsgd1na2vs0mg"},{"bike_id":"4d8f6908-4e51-46b3-94a1-d362a2e9c3c5","system_id":"levelo_inurba_marseille","lat":43.2957,"lon":5.37524,"is_reserved":false,"is_disabled":false,"rental_uris":{"android":"levelo://app?vid=4d8f6908-4e51-46b3-94a1-d362a2e9c3c5","ios":"levelo://app?vid=4d8f6908-4e51-46b3-94a1-d362a2e9c3c5"},"vehicle_type_id":"4","last_reported":1744387972,"current_range_meters":14800,"station_id":"ce4bgh92rcd13ifvqb50","pricing_plan_id":"cebpf4jnsgd1na2vs0mg"},{"bike_id":"c85e9843-4b43-4f35-98b5-67a198d3cccc","system_id":"levelo_inurba_marseille","lat":43.29534,"lon":5.38536,"is_reserved":false,"is_disabled":false,"rental_uris":{"android":"levelo://app?vid=c85e9843-4b43-4f35-98b5-67a198d3cccc","ios":"levelo://app?vid=c85e9843-4b43-4f35-98b5-67a198d3cccc"},"vehicle_type_id":"4","last_reported":1744387972,"current_range_meters":14800,"station_id":"ce4bgih2rcd13ifvqba0","pricing_plan_id":"cebpf4jnsgd1na2vs0mg"},{"bike_id":"ef291804-1477-432e-b153-82ea15725418","system_id":"levelo_inurba_marseille","lat":43.33742,"lon":5.37454,"is_reserved":false,"is_disabled":false,"rental_uris":{"android":"levelo://app?vid=ef291804-1477-432e-b153-82ea15725418","ios":"levelo://app?vid=ef291804-1477-432e-b153-82ea15725418"},"vehicle_type_id":"4","last_reported":1744387972,"current_range_meters":14800,"station_id":"","pricing_plan_id":"cebpf4jnsgd1na2vs0mg"},{"bike_id":"66947a9a-ebcd-419f-aa69-4049ef57cf83","system_id":"levelo_inurba_marseille","lat":43.286367,"lon":5.383356,"is_reserved":false,"is_disabled":false,"rental_uris":{"android":"levelo://app?vid=66947a9a-ebcd-419f-aa69-4049ef57cf83","ios":"levelo://app?vid=66947a9a-ebcd-419f-aa69-4049ef57cf83"},"vehicle_type_id":"4","last_reported":1744387972,"current_range_meters":14800,"station_id":"ce4bhg12rcd13ifvqf80","pricing_plan_id":"cebpf4jnsgd1na2vs0mg"},{"bike_id":"0e37d482-8240-494f-a2b8-3fda32f118eb","system_id":"levelo_inurba_marseille","lat":43.29534,"lon":5.3855,"is_reserved":false,"is_disabled":false,"rental_uris":{"android":"levelo://app?vid=0e37d482-8240-494f-a2b8-3fda32f118eb","ios":"levelo://app?vid=0e37d482-8240-494f-a2b8-3fda32f118eb"},"vehicle_type_id":"4","last_reported":1744387972,"current_range_meters":15200,"station_id":"ce4bgih2rcd13ifvqba0","pricing_plan_id":"cebpf4jnsgd1na2vs0mg"},{"bike_id":"f4f3fd31-6f23-44f4-b689-6c1215111cdd","system_id":"levelo_inurba_marseille","lat":43.31482,"lon":5.37306,"is_reserved":false,"is_disabled":false,"rental_uris":{"android":"levelo://app?vid=f4f3fd31-6f23-44f4-b689-6c1215111cdd","ios":"levelo://app?vid=f4f3fd31-6f23-44f4-b689-6c1215111cdd"},"vehicle_type_id":"4","last_reported":1744387972,"current_range_meters":15200,"station_id":"ce4bgt12rcd13ifvqcd0","pricing_plan_id":"cebpf4jnsgd1na2vs0mg"},{"bike_id":"c74e523f-b863-41d2-a2d5-9c4c58e63442","system_id":"levelo_inurba_marseille","lat":43.29006,"lon":5.35609,"is_reserved":false,"is_disabled":false,"rental_uris":{"android":"levelo://app?vid=c74e523f-b863-41d2-a2d5-9c4c58e63442","ios":"levelo://app?vid=c74e523f-b863-41d2-a2d5-9c4c58e63442"},"vehicle_type_id":"4","last_reported":1744387972,"current_range_meters":15200,"station_id":"ce4bhb92rcd13ifvqen0","pricing_plan_id":"cebpf4jnsgd1na2vs0mg"},{"bike_id":"4651fc10-fe57-460e-89c6-9ba891098581","system_id":"levelo_inurba_marseille","lat":43.241666,"lon":5.363979,"is_reserved":false,"is_disabled":false,"rental_uris":{"android":"levelo://app?vid=4651fc10-fe57-460e-89c6-9ba891098581","ios":"levelo://app?vid=4651fc10-fe57-460e-89c6-9ba891098581"},"vehicle_type_id":"4","last_reported":1744387972,"current_range_meters":15200,"station_id":"cpo36qri1sfpv3e86is0","pricing_plan_id":"cebpf4jnsgd1na2vs0mg"},{"bike_id":"67c57820-4a14-445d-b387-f740ae9fcd84","system_id":"levelo_inurba_marseille","lat":43.257185,"lon":5.411166,"is_reserved":false,"is_disabled":false,"rental_uris":{"android":"levelo://app?vid=67c57820-4a14-445d-b387-f740ae9fcd84","ios":"levelo://app?vid=67c57820-4a14-445d-b387-f740ae9fcd84"},"vehicle_type_id":"4","last_reported":1744387972,"current_range_meters":14800,"station_id":"ce4bhlh2rcd13ifvqgig","pricing_plan_id":"cebpf4jnsgd1na2vs0mg"},{"bike_id":"a89f6101-f5fe-4c5d-a258-933e3053c089","system_id":"levelo_inurba_marseille","lat":43.250937,"lon":5.403313,"is_reserved":false,"is_disabled":false,"rental_uris":{"android":"levelo://app?vid=a89f6101-f5fe-4c5d-a258-933e3053c089","ios":"levelo://app?vid=a89f6101-f5fe-4c5d-a258-933e3053c089"},"vehicle_type_id":"4","last_reported":1744387972,"current_range_meters":16000,"station_id":"","pricing_plan_id":"cebpf4jnsgd1na2vs0mg"},{"bike_id":"9b69a6bc-21ab-4882-8b56-4ff41bd1cd62","system_id":"levelo_inurba_marseille","lat":43.29425,"lon":5.38651,"is_reserved":false,"is_disabled":false,"rental_uris":{"android":"levelo://app?vid=9b69a6bc-21ab-4882-8b56-4ff41bd1cd62","ios":"levelo://app?vid=9b69a6bc-21ab-4882-8b56-4ff41bd1cd62"},"vehicle_type_id":"4","last_reported":1744387972,"current_range_meters":16000,"station_id":"ce4bh2h2rcd13ifvqdh0","pricing_plan_id":"cebpf4jnsgd1na2vs0mg"},{"bike_id":"762f81af-96a8-4440-a625-30e6682c7a14","system_id":"levelo_inurba_marseille","lat":43.27369,"lon":5.36245,"is_reserved":false,"is_disabled":false,"rental_uris":{"android":"levelo://app?vid=762f81af-96a8-4440-a625-30e6682c7a14","ios":"levelo://app?vid=762f81af-96a8-4440-a625-30e6682c7a14"},"vehicle_type_id":"4","last_reported":1744387972,"current_range_meters":16000,"station_id":"ce4bhbh2rcd13ifvqeo0","pricing_plan_id":"cebpf4jnsgd1na2vs0mg"},{"bike_id":"e9e6b708-9167-4dad-a9c4-62e2efc41bab","system_id":"levelo_inurba_marseille","lat":43.29198,"lon":5.35798,"is_reserved":false,"is_disabled":false,"rental_uris":{"android":"levelo://app?vid=e9e6b708-9167-4dad-a9c4-62e2efc41bab","ios":"levelo://app?vid=e9e6b708-9167-4dad-a9c4-62e2efc41bab"},"vehicle_type_id":"4","last_reported":1744387972,"current_range_meters":16000,"station_id":"ce4bhb12rcd13ifvqel0","pricing_plan_id":"cebpf4jnsgd1na2vs0mg"},{"bike_id":"d3e46b41-640a-4d56-be99-2a54611908c5","system_id":"levelo_inurba_marseille","lat":43.28697,"lon":5.37368,"is_reserved":false,"is_disabled":false,"rental_uris":{"android":"levelo://app?vid=d3e46b41-640a-4d56-be99-2a54611908c5","ios":"levelo://app?vid=d3e46b41-640a-4d56-be99-2a54611908c5"},"vehicle_type_id":"4","last_reported":1744387972,"current_range_meters":15200,"station_id":"ce4bh3p2rcd13ifvqdq0","pricing_plan_id":"cebpf4jnsgd1na2vs0mg"},{"bike_id":"7c873a50-0a5c-4ba6-bd01-c190f37d1a81","system_id":"levelo_inurba_marseille","lat":43.28425,"lon":5.34999,"is_reserved":false,"is_disabled":false,"rental_uris":{"android":"levelo://app?vid=7c873a50-0a5c-4ba6-bd01-c190f37d1a81","ios":"levelo://app?vid=7c873a50-0a5c-4ba6-bd01-c190f37d1a81"},"vehicle_type_id":"4","last_reported":1744387972,"current_range_meters":16000,"station_id":"ce4bhbh2rcd13ifvqepg","pricing_plan_id":"cebpf4jnsgd1na2vs0mg"},{"bike_id":"765e9135-e37f-4972-af69-11accdb00456","system_id":"levelo_inurba_marseille","lat":43.28413,"lon":5.34962,"is_reserved":false,"is_disabled":false,"rental_uris":{"android":"levelo://app?vid=765e9135-e37f-4972-af69-11accdb00456","ios":"levelo://app?vid=765e9135-e37f-4972-af69-11accdb00456"},"vehicle_type_id":"4","last_reported":1744387972,"current_range_meters":16000,"station_id":"ce4bhbh2rcd13ifvqepg","pricing_plan_id":"cebpf4jnsgd1na2vs0mg"},{"bike_id":"2473096a-dfc1-4573-87fc-a0162a53cb4c","system_id":"levelo_inurba_marseille","lat":43.28648,"lon":5.35105,"is_reserved":false,"is_disabled":false,"rental_uris":{"android":"levelo://app?vid=2473096a-dfc1-4573-87fc-a0162a53cb4c","ios":"levelo://app?vid=2473096a-dfc1-4573-87fc-a0162a53cb4c"},"vehicle_type_id":"4","last_reported":1744387972,"current_range_meters":16000,"station_id":"ce4bhch2rcd13ifvqeug","pricing_plan_id":"cebpf4jnsgd1na2vs0mg"},{"bike_id":"f2d51714-6acc-45b0-ad90-03def090f265","system_id":"levelo_inurba_marseille","lat":43.28425,"lon":5.34993,"is_reserved":false,"is_disabled":false,"rental_uris":{"android":"levelo://app?vid=f2d51714-6acc-45b0-ad90-03def090f265","ios":"levelo://app?vid=f2d51714-6acc-45b0-ad90-03def090f265"},"vehicle_type_id":"4","last_reported":1744387972,"current_range_meters":16000,"station_id":"ce4bhbh2rcd13ifvqepg","pricing_plan_id":"cebpf4jnsgd1na2vs0mg"},{"bike_id":"b20e9125-3e45-4b30-b69f-b35eb9cdbfd7","system_id":"levelo_inurba_marseille","lat":43.27383,"lon":5.363,"is_reserved":false,"is_disabled":false,"rental_uris":{"android":"levelo://app?vid=b20e9125-3e45-4b30-b69f-b35eb9cdbfd7","ios":"levelo://app?vid=b20e9125-3e45-4b30-b69f-b35eb9cdbfd7"},"vehicle_type_id":"4","last_reported":1744387972,"current_range_meters":16400,"station_id":"ce4bhbh2rcd13ifvqeo0","pricing_plan_id":"cebpf4jnsgd1na2vs0mg"},{"bike_id":"049b4e34-7d67-4183-a384-e6b3b818af72","system_id":"levelo_inurba_marseille","lat":43.2799,"lon":5.400171,"is_reserved":false,"is_disabled":false,"rental_uris":{"android":"levelo://app?vid=049b4e34-7d67-4183-a384-e6b3b818af72","ios":"levelo://app?vid=049b4e34-7d67-4183-a384-e6b3b818af72"},"vehicle_type_id":"4","last_reported":1744387972,"current_range_meters":16400,"station_id":"ce4bho92rcd13ifvqh4g","pricing_plan_id":"cebpf4jnsgd1na2vs0mg"},{"bike_id":"95873ac2-6fdc-4ddb-b7ab-ceab6fa291da","system_id":"levelo_inurba_marseille","lat":43.294135,"lon":5.386239,"is_reserved":false,"is_disabled":false,"rental_uris":{"android":"levelo://app?vid=95873ac2-6fdc-4ddb-b7ab-ceab6fa291da","ios":"levelo://app?vid=95873ac2-6fdc-4ddb-b7ab-ceab6fa291da"},"vehicle_type_id":"4","last_reported":1744387972,"current_range_meters":16400,"station_id":"ce4bh2h2rcd13ifvqdh0","pricing_plan_id":"cebpf4jnsgd1na2vs0mg"},{"bike_id":"96ef8e48-3630-4a7b-818b-df56f43d7406","system_id":"levelo_inurba_marseille","lat":43.2559,"lon":5.38223,"is_reserved":false,"is_disabled":false,"rental_uris":{"android":"levelo://app?vid=96ef8e48-3630-4a7b-818b-df56f43d7406","ios":"levelo://app?vid=96ef8e48-3630-4a7b-818b-df56f43d7406"},"vehicle_type_id":"4","last_reported":1744387972,"current_range_meters":16400,"station_id":"ce4bhih2rcd13ifvqfs0","pricing_plan_id":"cebpf4jnsgd1na2vs0mg"},{"bike_id":"cf24cdd5-7620-428c-8ab3-e758c60ec6fc","system_id":"levelo_inurba_marseille","lat":43.28424,"lon":5.34981,"is_reserved":false,"is_disabled":false,"rental_uris":{"android":"levelo://app?vid=cf24cdd5-7620-428c-8ab3-e758c60ec6fc","ios":"levelo://app?vid=cf24cdd5-7620-428c-8ab3-e758c60ec6fc"},"vehicle_type_id":"4","last_reported":1744387972,"current_range_meters":16400,"station_id":"ce4bhbh2rcd13ifvqepg","pricing_plan_id":"cebpf4jnsgd1na2vs0mg"},{"bike_id":"0627b9eb-704e-486c-b141-1ea29667c1b7","system_id":"levelo_inurba_marseille","lat":43.29536,"lon":5.39398,"is_reserved":false,"is_disabled":false,"rental_uris":{"android":"levelo://app?vid=0627b9eb-704e-486c-b141-1ea29667c1b7","ios":"levelo://app?vid=0627b9eb-704e-486c-b141-1ea29667c1b7"},"vehicle_type_id":"4","last_reported":1744387972,"current_range_meters":16400,"station_id":"ce4bh292rcd13ifvqdf0","pricing_plan_id":"cebpf4jnsgd1na2vs0mg"},{"bike_id":"70f1a84f-8ace-4205-8031-f072088cffde","system_id":"levelo_inurba_marseille","lat":43.28404,"lon":5.3752,"is_reserved":false,"is_disabled":false,"rental_uris":{"android":"levelo://app?vid=70f1a84f-8ace-4205-8031-f072088cffde","ios":"levelo://app?vid=70f1a84f-8ace-4205-8031-f072088cffde"},"vehicle_type_id":"4","last_reported":1744387972,"current_range_meters":16400,"station_id":"ce4bh412rcd13ifvqds0","pricing_plan_id":"cebpf4jnsgd1na2vs0mg"},{"bike_id":"5b77a833-8185-45c2-9fe3-07eb40df54ca","system_id":"levelo_inurba_marseille","lat":43.33995,"lon":5.38057,"is_reserved":false,"is_disabled":false,"rental_uris":{"android":"levelo://app?vid=5b77a833-8185-45c2-9fe3-07eb40df54ca","ios":"levelo://app?vid=5b77a833-8185-45c2-9fe3-07eb40df54ca"},"vehicle_type_id":"4","last_reported":1744387972,"current_range_meters":16400,"station_id":"","pricing_plan_id":"cebpf4jnsgd1na2vs0mg"},{"bike_id":"cfa05593-02c0-4361-b7cb-d147d92b27a4","system_id":"levelo_inurba_marseille","lat":43.24165,"lon":5.36394,"is_reserved":false,"is_disabled":false,"rental_uris":{"android":"levelo://app?vid=cfa05593-02c0-4361-b7cb-d147d92b27a4","ios":"levelo://app?vid=cfa05593-02c0-4361-b7cb-d147d92b27a4"},"vehicle_type_id":"4","last_reported":1744387972,"current_range_meters":16800,"station_id":"cpo36qri1sfpv3e86is0","pricing_plan_id":"cebpf4jnsgd1na2vs0mg"},{"bike_id":"76504816-eec3-44c1-b95d-980e78fc322a","system_id":"levelo_inurba_marseille","lat":43.281564,"lon":5.426579,"is_reserved":false,"is_disabled":false,"rental_uris":{"android":"levelo://app?vid=76504816-eec3-44c1-b95d-980e78fc322a","ios":"levelo://app?vid=76504816-eec3-44c1-b95d-980e78fc322a"},"vehicle_type_id":"4","last_reported":1744387972,"current_range_meters":16800,"station_id":"ce4bhnh2rcd13ifvqgug","pricing_plan_id":"cebpf4jnsgd1na2vs0mg"},{"bike_id":"87b4fcee-8d0f-461a-bcbd-c8707f107826","system_id":"levelo_inurba_marseille","lat":43.2417,"lon":5.364,"is_reserved":false,"is_disabled":false,"rental_uris":{"android":"levelo://app?vid=87b4fcee-8d0f-461a-bcbd-c8707f107826","ios":"levelo://app?vid=87b4fcee-8d0f-461a-bcbd-c8707f107826"},"vehicle_type_id":"4","last_reported":1744387972,"current_range_meters":16800,"station_id":"cpo36qri1sfpv3e86is0","pricing_plan_id":"cebpf4jnsgd1na2vs0mg"},{"bike_id":"e2216339-5a40-43cf-b9b2-1a0ab5fb4523","system_id":"levelo_inurba_marseille","lat":43.31889,"lon":5.40742,"is_reserved":false,"is_disabled":false,"rental_uris":{"android":"levelo://app?vid=e2216339-5a40-43cf-b9b2-1a0ab5fb4523","ios":"levelo://app?vid=e2216339-5a40-43cf-b9b2-1a0ab5fb4523"},"vehicle_type_id":"4","last_reported":1744387972,"current_range_meters":16400,"station_id":"ce4bhq12rcd13ifvqhig","pricing_plan_id":"cebpf4jnsgd1na2vs0mg"},{"bike_id":"848c5a4d-0d29-4df0-939d-d73ba0fab591","system_id":"levelo_inurba_marseille","lat":43.23976,"lon":5.36627,"is_reserved":false,"is_disabled":false,"rental_uris":{"android":"levelo://app?vid=848c5a4d-0d29-4df0-939d-d73ba0fab591","ios":"levelo://app?vid=848c5a4d-0d29-4df0-939d-d73ba0fab591"},"vehicle_type_id":"4","last_reported":1744387972,"current_range_meters":16800,"station_id":"ce4bhi12rcd13ifvqfp0","pricing_plan_id":"cebpf4jnsgd1na2vs0mg"},{"bike_id":"07529950-68a7-4c4a-ba5a-d65ca64c58f6","system_id":"levelo_inurba_marseille","lat":43.28407,"lon":5.34975,"is_reserved":false,"is_disabled":false,"rental_uris":{"android":"levelo://app?vid=07529950-68a7-4c4a-ba5a-d65ca64c58f6","ios":"levelo://app?vid=07529950-68a7-4c4a-ba5a-d65ca64c58f6"},"vehicle_type_id":"4","last_reported":1744387972,"current_range_meters":16800,"station_id":"ce4bhbh2rcd13ifvqepg","pricing_plan_id":"cebpf4jnsgd1na2vs0mg"},{"bike_id":"0e7bf4ae-5aed-4055-a1f8-96debbb9847e","system_id":"levelo_inurba_marseille","lat":43.24171,"lon":5.36415,"is_reserved":false,"is_disabled":false,"rental_uris":{"android":"levelo://app?vid=0e7bf4ae-5aed-4055-a1f8-96debbb9847e","ios":"levelo://app?vid=0e7bf4ae-5aed-4055-a1f8-96debbb9847e"},"vehicle_type_id":"4","last_reported":1744387972,"current_range_meters":16800,"station_id":"cpo36qri1sfpv3e86is0","pricing_plan_id":"cebpf4jnsgd1na2vs0mg"},{"bike_id":"d47aeed7-8a79-4a9f-abdb-4b09686f97d2","system_id":"levelo_inurba_marseille","lat":43.29616,"lon":5.37719,"is_reserved":false,"is_disabled":false,"rental_uris":{"android":"levelo://app?vid=d47aeed7-8a79-4a9f-abdb-4b09686f97d2","ios":"levelo://app?vid=d47aeed7-8a79-4a9f-abdb-4b09686f97d2"},"vehicle_type_id":"4","last_reported":1744387972,"current_range_meters":17200,"station_id":"ce4bgi92rcd13ifvqb90","pricing_plan_id":"cebpf4jnsgd1na2vs0mg"},{"bike_id":"f2419e6d-db90-4d61-ace1-c9c40c8ae7cb","system_id":"levelo_inurba_marseille","lat":43.292212,"lon":5.360697,"is_reserved":false,"is_disabled":false,"rental_uris":{"android":"levelo://app?vid=f2419e6d-db90-4d61-ace1-c9c40c8ae7cb","ios":"levelo://app?vid=f2419e6d-db90-4d61-ace1-c9c40c8ae7cb"},"vehicle_type_id":"4","last_reported":1744387972,"current_range_meters":17200,"station_id":"ce4bhbh2rcd13ifvqeqg","pricing_plan_id":"cebpf4jnsgd1na2vs0mg"},{"bike_id":"9c926138-5105-445a-8abb-b616aa6d086a","system_id":"levelo_inurba_marseille","lat":43.301882,"lon":5.38198,"is_reserved":false,"is_disabled":false,"rental_uris":{"android":"levelo://app?vid=9c926138-5105-445a-8abb-b616aa6d086a","ios":"levelo://app?vid=9c926138-5105-445a-8abb-b616aa6d086a"},"vehicle_type_id":"4","last_reported":1744387972,"current_range_meters":17200,"station_id":"ce4bgjp2rcd13ifvqbh0","pricing_plan_id":"cebpf4jnsgd1na2vs0mg"},{"bike_id":"7a5c9c76-4e30-46ad-a0c8-64088d059970","system_id":"levelo_inurba_marseille","lat":43.2408,"lon":5.37726,"is_reserved":false,"is_disabled":false,"rental_uris":{"android":"levelo://app?vid=7a5c9c76-4e30-46ad-a0c8-64088d059970","ios":"levelo://app?vid=7a5c9c76-4e30-46ad-a0c8-64088d059970"},"vehicle_type_id":"4","last_reported":1744387972,"current_range_meters":17200,"station_id":"ce4bhnp2rcd13ifvqgvg","pricing_plan_id":"cebpf4jnsgd1na2vs0mg"},{"bike_id":"896d3b5f-ab31-48c8-92dc-50e5bd5335ac","system_id":"levelo_inurba_marseille","lat":43.31771,"lon":5.39021,"is_reserved":false,"is_disabled":false,"rental_uris":{"android":"levelo://app?vid=896d3b5f-ab31-48c8-92dc-50e5bd5335ac","ios":"levelo://app?vid=896d3b5f-ab31-48c8-92dc-50e5bd5335ac"},"vehicle_type_id":"4","last_reported":1744387972,"current_range_meters":17200,"station_id":"ce4bhqp2rcd13ifvqhng","pricing_plan_id":"cebpf4jnsgd1na2vs0mg"},{"bike_id":"adab0148-372e-4fab-980e-7006f1bac408","system_id":"levelo_inurba_marseille","lat":43.273742,"lon":5.362478,"is_reserved":false,"is_disabled":false,"rental_uris":{"android":"levelo://app?vid=adab0148-372e-4fab-980e-7006f1bac408","ios":"levelo://app?vid=adab0148-372e-4fab-980e-7006f1bac408"},"vehicle_type_id":"4","last_reported":1744387972,"current_range_meters":17200,"station_id":"ce4bhbh2rcd13ifvqeo0","pricing_plan_id":"cebpf4jnsgd1na2vs0mg"},{"bike_id":"235376c9-3616-4a6d-a98a-26ddf95b96e9","system_id":"levelo_inurba_marseille","lat":43.29529,"lon":5.38541,"is_reserved":false,"is_disabled":false,"rental_uris":{"android":"levelo://app?vid=235376c9-3616-4a6d-a98a-26ddf95b96e9","ios":"levelo://app?vid=235376c9-3616-4a6d-a98a-26ddf95b96e9"},"vehicle_type_id":"4","last_reported":1744387972,"current_range_meters":17200,"station_id":"ce4bgih2rcd13ifvqba0","pricing_plan_id":"cebpf4jnsgd1na2vs0mg"},{"bike_id":"ea747d2a-66d8-4c91-9ba9-e534c94b4922","system_id":"levelo_inurba_marseille","lat":43.22931,"lon":5.35407,"is_reserved":false,"is_disabled":false,"rental_uris":{"android":"levelo://app?vid=ea747d2a-66d8-4c91-9ba9-e534c94b4922","ios":"levelo://app?vid=ea747d2a-66d8-4c91-9ba9-e534c94b4922"},"vehicle_type_id":"4","last_reported":1744387972,"current_range_meters":17200,"station_id":"cpo3532slgdg3j2ikp40","pricing_plan_id":"cebpf4jnsgd1na2vs0mg"},{"bike_id":"86caf9f2-3ff2-4656-8af3-4fbd4296049b","system_id":"levelo_inurba_marseille","lat":43.28412,"lon":5.34986,"is_reserved":false,"is_disabled":false,"rental_uris":{"android":"levelo://app?vid=86caf9f2-3ff2-4656-8af3-4fbd4296049b","ios":"levelo://app?vid=86caf9f2-3ff2-4656-8af3-4fbd4296049b"},"vehicle_type_id":"4","last_reported":1744387972,"current_range_meters":17200,"station_id":"ce4bhbh2rcd13ifvqepg","pricing_plan_id":"cebpf4jnsgd1na2vs0mg"},{"bike_id":"9031ad53-c0cd-4221-9c0c-85e5e7c4cfa2","system_id":"levelo_inurba_marseille","lat":43.27612,"lon":5.36104,"is_reserved":false,"is_disabled":false,"rental_uris":{"android":"levelo://app?vid=9031ad53-c0cd-4221-9c0c-85e5e7c4cfa2","ios":"levelo://app?vid=9031ad53-c0cd-4221-9c0c-85e5e7c4cfa2"},"vehicle_type_id":"4","last_reported":1744387972,"current_range_meters":17200,"station_id":"ce4bgj92rcd13ifvqbe0","pricing_plan_id":"cebpf4jnsgd1na2vs0mg"},{"bike_id":"560397d4-e1df-4dae-8e7e-64bc658197e6","system_id":"levelo_inurba_marseille","lat":43.23194,"lon":5.35551,"is_reserved":false,"is_disabled":false,"rental_uris":{"android":"levelo://app?vid=560397d4-e1df-4dae-8e7e-64bc658197e6","ios":"levelo://app?vid=560397d4-e1df-4dae-8e7e-64bc658197e6"},"vehicle_type_id":"4","last_reported":1744387972,"current_range_meters":17600,"station_id":"ce4bhu92rcd13ifvqi70","pricing_plan_id":"cebpf4jnsgd1na2vs0mg"},{"bike_id":"277d550a-7aff-4ee4-9385-ca3871a32e3b","system_id":"levelo_inurba_marseille","lat":43.274,"lon":5.36285,"is_reserved":false,"is_disabled":false,"rental_uris":{"android":"levelo://app?vid=277d550a-7aff-4ee4-9385-ca3871a32e3b","ios":"levelo://app?vid=277d550a-7aff-4ee4-9385-ca3871a32e3b"},"vehicle_type_id":"4","last_reported":1744387972,"current_range_meters":17600,"station_id":"ce4bhbh2rcd13ifvqeo0","pricing_plan_id":"cebpf4jnsgd1na2vs0mg"},{"bike_id":"90cddebc-2506-42ee-9df1-36a6154dff75","system_id":"levelo_inurba_marseille","lat":43.24166,"lon":5.36397,"is_reserved":false,"is_disabled":false,"rental_uris":{"android":"levelo://app?vid=90cddebc-2506-42ee-9df1-36a6154dff75","ios":"levelo://app?vid=90cddebc-2506-42ee-9df1-36a6154dff75"},"vehicle_type_id":"4","last_reported":1744387972,"current_range_meters":17600,"station_id":"cpo36qri1sfpv3e86is0","pricing_plan_id":"cebpf4jnsgd1na2vs0mg"},{"bike_id":"eb489c2e-1675-434f-bbfa-6a9ed74fea49","system_id":"levelo_inurba_marseille","lat":43.21232,"lon":5.35083,"is_reserved":false,"is_disabled":false,"rental_uris":{"android":"levelo://app?vid=eb489c2e-1675-434f-bbfa-6a9ed74fea49","ios":"levelo://app?vid=eb489c2e-1675-434f-bbfa-6a9ed74fea49"},"vehicle_type_id":"4","last_reported":1744387972,"current_range_meters":18000,"station_id":"","pricing_plan_id":"cebpf4jnsgd1na2vs0mg"},{"bike_id":"04161492-be6a-48b0-8cd5-6292f041e628","system_id":"levelo_inurba_marseille","lat":43.29035,"lon":5.35628,"is_reserved":false,"is_disabled":false,"rental_uris":{"android":"levelo://app?vid=04161492-be6a-48b0-8cd5-6292f041e628","ios":"levelo://app?vid=04161492-be6a-48b0-8cd5-6292f041e628"},"vehicle_type_id":"4","last_reported":1744387972,"current_range_meters":18000,"station_id":"ce4bhb92rcd13ifvqen0","pricing_plan_id":"cebpf4jnsgd1na2vs0mg"},{"bike_id":"1518266c-bc0c-4dc5-92e2-32256cc663dd","system_id":"levelo_inurba_marseille","lat":43.28419,"lon":5.34985,"is_reserved":false,"is_disabled":false,"rental_uris":{"android":"levelo://app?vid=1518266c-bc0c-4dc5-92e2-32256cc663dd","ios":"levelo://app?vid=1518266c-bc0c-4dc5-92e2-32256cc663dd"},"vehicle_type_id":"4","last_reported":1744387972,"current_range_meters":18000,"station_id":"ce4bhbh2rcd13ifvqepg","pricing_plan_id":"cebpf4jnsgd1na2vs0mg"},{"bike_id":"ade0c10b-0d72-4b97-8da6-3333ba648f21","system_id":"levelo_inurba_marseille","lat":43.31485,"lon":5.37308,"is_reserved":false,"is_disabled":false,"rental_uris":{"android":"levelo://app?vid=ade0c10b-0d72-4b97-8da6-3333ba648f21","ios":"levelo://app?vid=ade0c10b-0d72-4b97-8da6-3333ba648f21"},"vehicle_type_id":"4","last_reported":1744387972,"current_range_meters":17600,"station_id":"ce4bgt12rcd13ifvqcd0","pricing_plan_id":"cebpf4jnsgd1na2vs0mg"},{"bike_id":"4e408b38-a538-497a-b14e-c491a58450ea","system_id":"levelo_inurba_marseille","lat":43.30431,"lon":5.38881,"is_reserved":false,"is_disabled":false,"rental_uris":{"android":"levelo://app?vid=4e408b38-a538-497a-b14e-c491a58450ea","ios":"levelo://app?vid=4e408b38-a538-497a-b14e-c491a58450ea"},"vehicle_type_id":"4","last_reported":1744387972,"current_range_meters":18000,"station_id":"ce4bgk12rcd13ifvqbi0","pricing_plan_id":"cebpf4jnsgd1na2vs0mg"},{"bike_id":"88f5facc-2b5c-473a-b4b7-c4681fe3e17c","system_id":"levelo_inurba_marseille","lat":43.25579,"lon":5.38241,"is_reserved":false,"is_disabled":false,"rental_uris":{"android":"levelo://app?vid=88f5facc-2b5c-473a-b4b7-c4681fe3e17c","ios":"levelo://app?vid=88f5facc-2b5c-473a-b4b7-c4681fe3e17c"},"vehicle_type_id":"4","last_reported":1744387972,"current_range_meters":18800,"station_id":"ce4bhih2rcd13ifvqfs0","pricing_plan_id":"cebpf4jnsgd1na2vs0mg"},{"bike_id":"00a29865-5b37-495a-b6b7-773e460cd60c","system_id":"levelo_inurba_marseille","lat":43.25497,"lon":5.37648,"is_reserved":false,"is_disabled":false,"rental_uris":{"android":"levelo://app?vid=00a29865-5b37-495a-b6b7-773e460cd60c","ios":"levelo://app?vid=00a29865-5b37-495a-b6b7-773e460cd60c"},"vehicle_type_id":"4","last_reported":1744387972,"current_range_meters":18800,"station_id":"ce4bhh12rcd13ifvqff0","pricing_plan_id":"cebpf4jnsgd1na2vs0mg"},{"bike_id":"12b51e77-0645-466a-94ed-625a4159acb7","system_id":"levelo_inurba_marseille","lat":43.293016,"lon":5.374617,"is_reserved":false,"is_disabled":false,"rental_uris":{"android":"levelo://app?vid=12b51e77-0645-466a-94ed-625a4159acb7","ios":"levelo://app?vid=12b51e77-0645-466a-94ed-625a4159acb7"},"vehicle_type_id":"4","last_reported":1744387972,"current_range_meters":18000,"station_id":"ce4bhah2rcd13ifvqei0","pricing_plan_id":"cebpf4jnsgd1na2vs0mg"},{"bike_id":"9a5bd8af-68ae-489b-ab8e-d0731e2a8d0c","system_id":"levelo_inurba_marseille","lat":43.28421,"lon":5.35003,"is_reserved":false,"is_disabled":false,"rental_uris":{"android":"levelo://app?vid=9a5bd8af-68ae-489b-ab8e-d0731e2a8d0c","ios":"levelo://app?vid=9a5bd8af-68ae-489b-ab8e-d0731e2a8d0c"},"vehicle_type_id":"4","last_reported":1744387972,"current_range_meters":18800,"station_id":"ce4bhbh2rcd13ifvqepg","pricing_plan_id":"cebpf4jnsgd1na2vs0mg"},{"bike_id":"5c057558-8199-4791-bf8c-a55a8c3685f4","system_id":"levelo_inurba_marseille","lat":43.29866,"lon":5.39738,"is_reserved":false,"is_disabled":false,"rental_uris":{"android":"levelo://app?vid=5c057558-8199-4791-bf8c-a55a8c3685f4","ios":"levelo://app?vid=5c057558-8199-4791-bf8c-a55a8c3685f4"},"vehicle_type_id":"4","last_reported":1744387972,"current_range_meters":18800,"station_id":"ce4bh0h2rcd13ifvqd50","pricing_plan_id":"cebpf4jnsgd1na2vs0mg"},{"bike_id":"8e49abc0-05bc-4ed5-b241-ffed55da2689","system_id":"levelo_inurba_marseille","lat":43.27371,"lon":5.36258,"is_reserved":false,"is_disabled":false,"rental_uris":{"android":"levelo://app?vid=8e49abc0-05bc-4ed5-b241-ffed55da2689","ios":"levelo://app?vid=8e49abc0-05bc-4ed5-b241-ffed55da2689"},"vehicle_type_id":"4","last_reported":1744387972,"current_range_meters":19200,"station_id":"ce4bhbh2rcd13ifvqeo0","pricing_plan_id":"cebpf4jnsgd1na2vs0mg"},{"bike_id":"e936d672-9dfd-4376-95dc-1ffed3542790","system_id":"levelo_inurba_marseille","lat":43.3108,"lon":5.42428,"is_reserved":false,"is_disabled":false,"rental_uris":{"android":"levelo://app?vid=e936d672-9dfd-4376-95dc-1ffed3542790","ios":"levelo://app?vid=e936d672-9dfd-4376-95dc-1ffed3542790"},"vehicle_type_id":"4","last_reported":1744387972,"current_range_meters":18800,"station_id":"ce4bhp92rcd13ifvqhag","pricing_plan_id":"cebpf4jnsgd1na2vs0mg"},{"bike_id":"74e6b691-213f-4066-88d9-716b0d90ab89","system_id":"levelo_inurba_marseille","lat":43.280803,"lon":5.396581,"is_reserved":false,"is_disabled":false,"rental_uris":{"android":"levelo://app?vid=74e6b691-213f-4066-88d9-716b0d90ab89","ios":"levelo://app?vid=74e6b691-213f-4066-88d9-716b0d90ab89"},"vehicle_type_id":"4","last_reported":1744387972,"current_range_meters":19200,"station_id":"ce4bho12rcd13ifvqh2g","pricing_plan_id":"cebpf4jnsgd1na2vs0mg"},{"bike_id":"b4a4e9e8-6ed9-4ce6-b3a1-cf3877a23037","system_id":"levelo_inurba_marseille","lat":43.29846,"lon":5.3628,"is_reserved":false,"is_disabled":false,"rental_uris":{"android":"levelo://app?vid=b4a4e9e8-6ed9-4ce6-b3a1-cf3877a23037","ios":"levelo://app?vid=b4a4e9e8-6ed9-4ce6-b3a1-cf3877a23037"},"vehicle_type_id":"4","last_reported":1744387972,"current_range_meters":19200,"station_id":"ce4bgpp2rcd13ifvqc3g","pricing_plan_id":"cebpf4jnsgd1na2vs0mg"},{"bike_id":"1fdd851b-4294-48d6-9ead-9b830995fc2e","system_id":"levelo_inurba_marseille","lat":43.23185,"lon":5.39987,"is_reserved":false,"is_disabled":false,"rental_uris":{"android":"levelo://app?vid=1fdd851b-4294-48d6-9ead-9b830995fc2e","ios":"levelo://app?vid=1fdd851b-4294-48d6-9ead-9b830995fc2e"},"vehicle_type_id":"4","last_reported":1744387972,"current_range_meters":19200,"station_id":"ce4bhn12rcd13ifvqgqg","pricing_plan_id":"cebpf4jnsgd1na2vs0mg"},{"bike_id":"aa07e667-a671-4254-b17a-3e8f9c01d4ad","system_id":"levelo_inurba_marseille","lat":43.21753,"lon":5.34605,"is_reserved":false,"is_disabled":false,"rental_uris":{"android":"levelo://app?vid=aa07e667-a671-4254-b17a-3e8f9c01d4ad","ios":"levelo://app?vid=aa07e667-a671-4254-b17a-3e8f9c01d4ad"},"vehicle_type_id":"4","last_reported":1744387972,"current_range_meters":19200,"station_id":"st_cvj6r9ubvosntc0bgbag","pricing_plan_id":"cebpf4jnsgd1na2vs0mg"},{"bike_id":"9f9f73ab-cf7b-4db3-af4c-9bd0559668e6","system_id":"levelo_inurba_marseille","lat":43.29796,"lon":5.37109,"is_reserved":false,"is_disabled":false,"rental_uris":{"android":"levelo://app?vid=9f9f73ab-cf7b-4db3-af4c-9bd0559668e6","ios":"levelo://app?vid=9f9f73ab-cf7b-4db3-af4c-9bd0559668e6"},"vehicle_type_id":"4","last_reported":1744387972,"current_range_meters":19200,"station_id":"ce4bgop2rcd13ifvqc1g","pricing_plan_id":"cebpf4jnsgd1na2vs0mg"},{"bike_id":"f1a81939-e24e-4b4d-bb9f-d960ee871735","system_id":"levelo_inurba_marseille","lat":43.241795,"lon":5.397253,"is_reserved":false,"is_disabled":true,"rental_uris":{"android":"levelo://app?vid=f1a81939-e24e-4b4d-bb9f-d960ee871735","ios":"levelo://app?vid=f1a81939-e24e-4b4d-bb9f-d960ee871735"},"vehicle_type_id":"4","last_reported":1744387972,"current_range_meters":19200,"station_id":"ce4bhn12rcd13ifvqgpg","pricing_plan_id":"cebpf4jnsgd1na2vs0mg"},{"bike_id":"a945cbf3-38e6-4aa3-9aa1-d414d6c834b5","system_id":"levelo_inurba_marseille","lat":43.31897,"lon":5.40762,"is_reserved":false,"is_disabled":true,"rental_uris":{"android":"levelo://app?vid=a945cbf3-38e6-4aa3-9aa1-d414d6c834b5","ios":"levelo://app?vid=a945cbf3-38e6-4aa3-9aa1-d414d6c834b5"},"vehicle_type_id":"4","last_reported":1744387972,"current_range_meters":19600,"station_id":"ce4bhq12rcd13ifvqhig","pricing_plan_id":"cebpf4jnsgd1na2vs0mg"},{"bike_id":"25091798-3c7e-46db-85f5-ecd5885ea642","system_id":"levelo_inurba_marseille","lat":43.30431,"lon":5.38887,"is_reserved":false,"is_disabled":false,"rental_uris":{"android":"levelo://app?vid=25091798-3c7e-46db-85f5-ecd5885ea642","ios":"levelo://app?vid=25091798-3c7e-46db-85f5-ecd5885ea642"},"vehicle_type_id":"4","last_reported":1744387972,"current_range_meters":19600,"station_id":"ce4bgk12rcd13ifvqbi0","pricing_plan_id":"cebpf4jnsgd1na2vs0mg"},{"bike_id":"02d84566-bdb0-4bfc-8e1a-f57e4c3f6581","system_id":"levelo_inurba_marseille","lat":43.25501,"lon":5.37649,"is_reserved":false,"is_disabled":false,"rental_uris":{"android":"levelo://app?vid=02d84566-bdb0-4bfc-8e1a-f57e4c3f6581","ios":"levelo://app?vid=02d84566-bdb0-4bfc-8e1a-f57e4c3f6581"},"vehicle_type_id":"4","last_reported":1744387972,"current_range_meters":19200,"station_id":"ce4bhh12rcd13ifvqff0","pricing_plan_id":"cebpf4jnsgd1na2vs0mg"},{"bike_id":"a7c58a60-a5c5-4a4e-b362-dc7feaea63d7","system_id":"levelo_inurba_marseille","lat":43.31983,"lon":5.38128,"is_reserved":false,"is_disabled":true,"rental_uris":{"android":"levelo://app?vid=a7c58a60-a5c5-4a4e-b362-dc7feaea63d7","ios":"levelo://app?vid=a7c58a60-a5c5-4a4e-b362-dc7feaea63d7"},"vehicle_type_id":"4","last_reported":1744387972,"current_range_meters":19600,"station_id":"ce4bhr12rcd13ifvqhpg","pricing_plan_id":"cebpf4jnsgd1na2vs0mg"},{"bike_id":"44ea3182-88eb-4a7d-bbc8-aa868967f1bc","system_id":"levelo_inurba_marseille","lat":43.31958,"lon":5.37248,"is_reserved":false,"is_disabled":false,"rental_uris":{"android":"levelo://app?vid=44ea3182-88eb-4a7d-bbc8-aa868967f1bc","ios":"levelo://app?vid=44ea3182-88eb-4a7d-bbc8-aa868967f1bc"},"vehicle_type_id":"4","last_reported":1744387972,"current_range_meters":19600,"station_id":"","pricing_plan_id":"cebpf4jnsgd1na2vs0mg"},{"bike_id":"21e011de-b0c7-48e2-9642-a6aa1a916c33","system_id":"levelo_inurba_marseille","lat":43.28276,"lon":5.35066,"is_reserved":false,"is_disabled":false,"rental_uris":{"android":"levelo://app?vid=21e011de-b0c7-48e2-9642-a6aa1a916c33","ios":"levelo://app?vid=21e011de-b0c7-48e2-9642-a6aa1a916c33"},"vehicle_type_id":"4","last_reported":1744387972,"current_range_meters":20000,"station_id":"ce4bgj92rcd13ifvqbd0","pricing_plan_id":"cebpf4jnsgd1na2vs0mg"},{"bike_id":"7bd255d6-9bc7-4c60-9323-9d8cdb5169b5","system_id":"levelo_inurba_marseille","lat":43.273834,"lon":5.362469,"is_reserved":false,"is_disabled":false,"rental_uris":{"android":"levelo://app?vid=7bd255d6-9bc7-4c60-9323-9d8cdb5169b5","ios":"levelo://app?vid=7bd255d6-9bc7-4c60-9323-9d8cdb5169b5"},"vehicle_type_id":"4","last_reported":1744387972,"current_range_meters":20000,"station_id":"ce4bhb92rcd13ifvqen0","pricing_plan_id":"cebpf4jnsgd1na2vs0mg"},{"bike_id":"a22c83b4-53b8-4d33-a66b-04973e9a2aeb","system_id":"levelo_inurba_marseille","lat":43.27622,"lon":5.36134,"is_reserved":false,"is_disabled":false,"rental_uris":{"android":"levelo://app?vid=a22c83b4-53b8-4d33-a66b-04973e9a2aeb","ios":"levelo://app?vid=a22c83b4-53b8-4d33-a66b-04973e9a2aeb"},"vehicle_type_id":"4","last_reported":1744387972,"current_range_meters":20000,"station_id":"ce4bgj92rcd13ifvqbe0","pricing_plan_id":"cebpf4jnsgd1na2vs0mg"},