{"last_updated":1700734049,"ttl":30,"version":"2.2","data":{"bikes":[{"bike_id":"a272bb25-d8ef-4771-bed1-43feefbee660","system_id":"levelo_inurba_marseille","lat":43.31341,"lon":5.367098,"is_reserved":false,"is_disabled":false,"rental_uris":{"android":"levelo://app?vid=a272bb25-d8ef-4771-bed1-43feefbee660","ios":"levelo://app?vid=a272bb25-d8ef-4771-bed1-43feefbee660"},"vehicle_type_id":"4","last_reported":1700734049,"current_range_meters":22400,"station_id":"ce4bgr92rcd13ifvqc6g","pricing_plan_id":"free"},{"bike_id":"6dfe8d99-f77d-474a-a7a4-c9c01d217644","system_id":"levelo_inurba_marseille","lat":43.31341,"lon":5.367098,"is_reserved":false,"is_disabled":false,"rental_uris":{"android":"levelo://app?vid=6dfe8d99-f77d-474a-a7a4-c9c01d217644","ios":"levelo://app?vid=6dfe8d99-f77d-474a-a7a4-c9c01d217644"},"vehicle_type_id":"4","last_reported":1700734049,"current_range_meters":23200,"station_id":"ce4bgr92rcd13ifvqc6g","pricing_plan_id":"free"},{"bike_id":"9a3980be-d337-42db-b09d-4e36bfb8cdac","system_id":"levelo_inurba_marseille","lat":43.313391,"lon":5.36706,"is_reserved":false,"is_disabled":false,"rental_uris":{"android":"levelo://app?vid=9a3980be-d337-42db-b09d-4e36bfb8cdac","ios":"levelo://app?vid=9a3980be-d337-42db-b09d-4e36bfb8cdac"},"vehicle_type_id":"4","last_reported":1700734049,"current_range_meters":31600,"station_id":"ce4bgr92rcd13ifvqc6g","pricing_plan_id":"free"},{"bike_id":"a48cb2d0-bdc8-4d15-9624-9dee459acc40","system_id":"levelo_inurba_marseille","lat":43.31341,"lon":5.367098,"is_reserved":false,"is_disabled":false,"rental_uris":{"android":"levelo://app?vid=a48cb2d0-bdc8-4d15-9624-9dee459acc40","ios":"levelo://app?vid=a48cb2d0-bdc8-4d15-9624-9dee459acc40"},"vehicle_type_id":"4","last_reported":1700734049,"current_range_meters":22800,"station_id":"ce4bgr92rcd13ifvqc6g","pricing_plan_id":"free"},{"bike_id":"47de29ff-386d-4cef-8374-5733c872ffb2","system_id":"levelo_inurba_marseille","lat":43.31341,"lon":5.367098,"is_reserved":false,"is_disabled":false,"rental_uris":{"android":"levelo://app?vid=47de29ff-386d-4cef-8374-5733c872ffb2","ios":"levelo://app?vid=47de29ff-386d-4cef-8374-5733c872ffb2"},"vehicle_type_id":"4","last_reported":1700734049,"current_range_meters":16000,"station_id":"ce4bgr92rcd13ifvqc6g","pricing_plan_id":"free"},{"bike_id":"aa3ae5eb-9179-4636-a2fb-b54647cc9fc7","system_id":"levelo_inurba_marseille","lat":43.31341,"lon":5.367098,"is_reserved":false,"is_disabled":false,"rental_uris":{"android":"levelo://app?vid=aa3ae5eb-9179-4636-a2fb-b54647cc9fc7","ios":"levelo://app?vid=aa3ae5eb-9179-4636-a2fb-b54647cc9fc7"},"vehicle_type_id":"4","last_reported":1700734049,"current_range_meters":13600,"station_id":"ce4bgr92rcd13ifvqc6g","pricing_plan_id":"free"},{"bike_id":"8ed74204-3ba6-46f7-b2e2-df18e64b6292","system_id":"levelo_inurba_marseille","lat":43.313391,"lon":5.36706,"is_reserved":false,"is_disabled":false,"rental_uris":{"android":"levelo://app?vid=8ed74204-3ba6-46f7-b2e2-df18e64b6292","ios":"levelo://app?vid=8ed74204-3ba6-46f7-b2e2-df18e64b6292"},"vehicle_type_id":"4","last_reported":1700734049,"current_range_meters":21600,"station_id":"ce4bgr92rcd13ifvqc6g","pricing_plan_id":"free"},{"bike_id":"74bd4cbe-c558-46c0-bd30-c944aadabae6","system_id":"levelo_inurba_marseille","lat":43.31341,"lon":5.367098,"is_reserved":false,"is_disabled":false,"rental_uris":{"android":"levelo://app?vid=74bd4cbe-c558-46c0-bd30-c944aadabae6","ios":"levelo://app?vid=74bd4cbe-c558-46c0-bd30-c944aadabae6"},"vehicle_type_id":"4","last_reported":1700734049,"current_range_meters":22000,"station_id":"ce4bgr92rcd13ifvqc6g","pricing_plan_id":"free"},{"bike_id":"7d1d94d7-3202-42e5-a490-97bedc4238b2","system_id":"levelo_inurba_marseille","lat":43.313391,"lon":5.36706,"is_reserved":false,"is_disabled":false,"rental_uris":{"android":"levelo://app?vid=7d1d94d7-3202-42e5-a490-97bedc4238b2","ios":"levelo://app?vid=7d1d94d7-3202-42e5-a490-97bedc4238b2"},"vehicle_type_id":"4","last_reported":1700734049,"current_range_meters":17200,"station_id":"ce4bgr92rcd13ifvqc6g","pricing_plan_id":"free"},{"bike_id":"ae9507c3-66a7-442c-bde5-723ffc6996f5","system_id":"levelo_inurba_marseille","lat":43.31341,"lon":5.367098,"is_reserved":false,"is_disabled":false,"rental_uris":{"android":"levelo://app?vid=ae9507c3-66a7-442c-bde5-723ffc6996f5","ios":"levelo://app?vid=ae9507c3-66a7-442c-bde5-723ffc6996f5"},"vehicle_type_id":"4","last_reported":1700734049,"current_range_meters":1200,"station_id":"ce4bgr92rcd13ifvqc6g","pricing_plan_id":"free"},{"bike_id":"b778cdf8-2ec0-403e-a159-8656a9e63d54","system_id":"levelo_inurba_marseille","lat":43.31341,"lon":5.367098,"is_reserved":false,"is_disabled":false,"rental_uris":{"android":"levelo://app?vid=b778cdf8-2ec0-403e-a159-8656a9e63d54","ios":"levelo://app?vid=b778cdf8-2ec0-403e-a159-8656a9e63d54"},"vehicle_type_id":"4","last_reported":1700734049,"current_range_meters":19200,"station_id":"ce4bgr92rcd13ifvqc6g","pricing_plan_id":"free"},{"bike_id":"1b4f0ad4-3c00-4fb8-869a-855be304d4e3","system_id":"levelo_inurba_marseille","lat":43.313391,"lon":5.36706,"is_reserved":false,"is_disabled":false,"rental_uris":{"android":"levelo://app?vid=1b4f0ad4-3c00-4fb8-869a-855be304d4e3","ios":"levelo://app?vid=1b4f0ad4-3c00-4fb8-869a-855be304d4e3"},"vehicle_type_id":"4","last_reported":1700734049,"current_range_meters":22800,"station_id":"ce4bgr92rcd13ifvqc6g","pricing_plan_id":"free"},{"bike_id":"1768f595-fab9-431e-a005-e0909aaa484b","system_id":"levelo_inurba_marseille","lat":43.31341,"lon":5.367098,"is_reserved":false,"is_disabled":false,"rental_uris":{"android":"levelo://app?vid=1768f595-fab9-431e-a005-e0909aaa484b","ios":"levelo://app?vid=1768f595-fab9-431e-a005-e0909aaa484b"},"vehicle_type_id":"4","last_reported":1700734049,"current_range_meters":31200,"station_id":"ce4bgr92rcd13ifvqc6g","pricing_plan_id":"free"},{"bike_id":"1a0199c5-52a4-47c9-92ed-5704e34c51cd","system_id":"levelo_inurba_marseille","lat":43.31341,"lon":5.367098,"is_reserved":false,"is_disabled":false,"rental_uris":{"android":"levelo://app?vid=1a0199c5-52a4-47c9-92ed-5704e34c51cd","ios":"levelo://app?vid=1a0199c5-52a4-47c9-92ed-5704e34c51cd"},"vehicle_type_id":"4","last_reported":1700734049,"current_range_meters":24800,"station_id":"ce4bgr92rcd13ifvqc6g","pricing_plan_id":"free"},{"bike_id":"6ca02a09-3472-4ea9-97c5-64c4dd1892a4","system_id":"levelo_inurba_marseille","lat":43.313391,"lon":5.36706,"is_reserved":false,"is_disabled":false,"rental_uris":{"android":"levelo://app?vid=6ca02a09-3472-4ea9-97c5-64c4dd1892a4","ios":"levelo://app?vid=6ca02a09-3472-4ea9-97c5-64c4dd1892a4"},"vehicle_type_id":"4","last_reported":1700734049,"current_range_meters":16400,"station_id":"ce4bgr92rcd13ifvqc6g","pricing_plan_id":"free"},{"bike_id":"c63eb744-082f-4c2e-9683-90cdb399b7de","system_id":"levelo_inurba_marseille","lat":43.313391,"lon":5.36706,"is_reserved":false,"is_disabled":false,"rental_uris":{"android":"levelo://app?vid=c63eb744-082f-4c2e-9683-90cdb399b7de","ios":"levelo://app?vid=c63eb744-082f-4c2e-9683-90cdb399b7de"},"vehicle_type_id":"4","last_reported":1700734049,"current_range_meters":16400,"station_id":"ce4bgr92rcd13ifvqc6g","pricing_plan_id":"free"},{"bike_id":"0eec4992-cde7-4672-8e7d-91177ad861f7","system_id":"levelo_inurba_marseille","lat":43.313391,"lon":5.36706,"is_reserved":false,"is_disabled":false,"rental_uris":{"android":"levelo://app?vid=0eec4992-cde7-4672-8e7d-91177ad861f7","ios":"levelo://app?vid=0eec4992-cde7-4672-8e7d-91177ad861f7"},"vehicle_type_id":"4","last_reported":1700734049,"current_range_meters":22400,"station_id":"ce4bgr92rcd13ifvqc6g","pricing_plan_id":"free"},{"bike_id":"c8a49c93-342c-4f8f-aadc-c1f6b650fa60","system_id":"levelo_inurba_marseille","lat":43.313391,"lon":5.36706,"is_reserved":false,"is_disabled":false,"rental_uris":{"android":"levelo://app?vid=c8a49c93-342c-4f8f-aadc-c1f6b650fa60","ios":"levelo://app?vid=c8a49c93-342c-4f8f-aadc-c1f6b650fa60"},"vehicle_type_id":"4","last_reported":1700734049,"current_range_meters":24800,"station_id":"ce4bgr92rcd13ifvqc6g","pricing_plan_id":"free"},{"bike_id":"c2783c8c-2b0d-4782-ad5f-adbedbf7fc0a","system_id":"levelo_inurba_marseille","lat":43.31341,"lon":5.367098,"is_reserved":false,"is_disabled":false,"rental_uris":{"android":"levelo://app?vid=c2783c8c-2b0d-4782-ad5f-adbedbf7fc0a","ios":"levelo://app?vid=c2783c8c-2b0d-4782-ad5f-adbedbf7fc0a"},"vehicle_type_id":"4","last_reported":1700734049,"current_range_meters":20400,"station_id":"ce4bgr92rcd13ifvqc6g","pricing_plan_id":"free"},{"bike_id":"bbd7fa7a-696d-4228-b5f0-d08d1b92d001","system_id":"levelo_inurba_marseille","lat":43.313391,"lon":5.36706,"is_reserved":false,"is_disabled":false,"rental_uris":{"android":"levelo://app?vid=bbd7fa7a-696d-4228-b5f0-d08d1b92d001","ios":"levelo://app?vid=bbd7fa7a-696d-4228-b5f0-d08d1b92d001"},"vehicle_type_id":"4","last_reported":1700734049,"current_range_meters":16800,"station_id":"ce4bgr92rcd13ifvqc6g","pricing_plan_id":"free"},{"bike_id":"f7ba1e0c-2f07-479d-ba2a-35e46b1a5424","system_id":"levelo_inurba_marseille","lat":43.312239,"lon":5.368562,"is_reserved":false,"is_disabled":false,"rental_uris":{"android":"levelo://app?vid=f7ba1e0c-2f07-479d-ba2a-35e46b1a5424","ios":"levelo://app?vid=f7ba1e0c-2f07-479d-ba2a-35e46b1a5424"},"vehicle_type_id":"4","last_reported":1700734049,"current_range_meters":26800,"station_id":"ce4bgl92rcd13ifvqbq0","pricing_plan_id":"free"},{"bike_id":"8f3e7336-7acd-4591-a9dc-1700a9cdfab4","system_id":"levelo_inurba_marseille","lat":43.312239,"lon":5.368562,"is_reserved":false,"is_disabled":false,"rental_uris":{"android":"levelo://app?vid=8f3e7336-7acd-4591-a9dc-1700a9cdfab4","ios":"levelo://app?vid=8f3e7336-7acd-4591-a9dc-1700a9cdfab4"},"vehicle_type_id":"4","last_reported":1700734049,"current_range_meters":21600,"station_id":"ce4bgl92rcd13ifvqbq0","pricing_plan_id":"free"},{"bike_id":"fa0e1f8e-2228-4bc0-8874-b34e1c6e757a","system_id":"levelo_inurba_marseille","lat":43.312239,"lon":5.368562,"is_reserved":false,"is_disabled":false,"rental_uris":{"android":"levelo://app?vid=fa0e1f8e-2228-4bc0-8874-b34e1c6e757a","ios":"levelo://app?vid=fa0e1f8e-2228-4bc0-8874-b34e1c6e757a"},"vehicle_type_id":"4","last_reported":1700734049,"current_range_meters":31600,"station_id":"ce4bgl92rcd13ifvqbq0","pricing_plan_id":"free"},{"bike_id":"11e4c34e-2094-4cc9-b500-97e6e514daa3","system_id":"levelo_inurba_marseille","lat":43.31159,"lon":5.36883,"is_reserved":false,"is_disabled":false,"rental_uris":{"android":"levelo://app?vid=11e4c34e-2094-4cc9-b500-97e6e514daa3","ios":"levelo://app?vid=11e4c34e-2094-4cc9-b500-97e6e514daa3"},"vehicle_type_id":"4","last_reported":1700734049,"current_range_meters":0,"station_id":"","pricing_plan_id":"free"},{"bike_id":"932c5e31-9940-41fb-aeaa-2f5cca9a238e","system_id":"levelo_inurba_marseille","lat":43.309076,"lon":5.368465,"is_reserved":false,"is_disabled":false,"rental_uris":{"android":"levelo://app?vid=932c5e31-9940-41fb-aeaa-2f5cca9a238e","ios":"levelo://app?vid=932c5e31-9940-41fb-aeaa-2f5cca9a238e"},"vehicle_type_id":"4","last_reported":1700734049,"current_range_meters":31200,"station_id":"ce4bgn92rcd13ifvqbvg","pricing_plan_id":"free"},{"bike_id":"6c5f5226-9a76-4a6b-a1cb-ffaf9c4ef38d","system_id":"levelo_inurba_marseille","lat":43.309076,"lon":5.368465,"is_reserved":false,"is_disabled":false,"rental_uris":{"android":"levelo://app?vid=6c5f5226-9a76-4a6b-a1cb-ffaf9c4ef38d","ios":"levelo://app?vid=6c5f5226-9a76-4a6b-a1cb-ffaf9c4ef38d"},"vehicle_type_id":"4","last_reported":1700734049,"current_range_meters":30400,"station_id":"ce4bgn92rcd13ifvqbvg","pricing_plan_id":"free"},{"bike_id":"681bca94-8996-4388-8d89-f620fd5cd16a","system_id":"levelo_inurba_marseille","lat":43.309076,"lon":5.368465,"is_reserved":false,"is_disabled":false,"rental_uris":{"android":"levelo://app?vid=681bca94-8996-4388-8d89-f620fd5cd16a","ios":"levelo://app?vid=681bca94-8996-4388-8d89-f620fd5cd16a"},"vehicle_type_id":"4","last_reported":1700734049,"current_range_meters":23200,"station_id":"ce4bgn92rcd13ifvqbvg","pricing_plan_id":"free"},{"bike_id":"bb641a84-10da-4c6e-96a8-16b2bbba2e15","system_id":"levelo_inurba_marseille","lat":43.314811,"lon":5.373103,"is_reserved":false,"is_disabled":false,"rental_uris":{"android":"levelo://app?vid=bb641a84-10da-4c6e-96a8-16b2bbba2e15","ios":"levelo://app?vid=bb641a84-10da-4c6e-96a8-16b2bbba2e15"},"vehicle_type_id":"4","last_reported":1700734049,"current_range_meters":21200,"station_id":"ce4bgt12rcd13ifvqcd0","pricing_plan_id":"free"},{"bike_id":"a2ee28dc-ce7e-4463-bf48-025161c4f045","system_id":"levelo_inurba_marseille","lat":43.305712,"lon":5.365641,"is_reserved":false,"is_disabled":false,"rental_uris":{"android":"levelo://app?vid=a2ee28dc-ce7e-4463-bf48-025161c4f045","ios":"levelo://app?vid=a2ee28dc-ce7e-4463-bf48-025161c4f045"},"vehicle_type_id":"4","last_reported":1700734049,"current_range_meters":28400,"station_id":"ce4bgs12rcd13ifvqcag","pricing_plan_id":"free"},{"bike_id":"e4fe96d4-5cf6-4407-8f4f-2527a1085d54","system_id":"levelo_inurba_marseille","lat":43.30545,"lon":5.36707,"is_reserved":false,"is_disabled":false,"rental_uris":{"android":"levelo://app?vid=e4fe96d4-5cf6-4407-8f4f-2527a1085d54","ios":"levelo://app?vid=e4fe96d4-5cf6-4407-8f4f-2527a1085d54"},"vehicle_type_id":"4","last_reported":1700734049,"current_range_meters":28400,"station_id":"ce4bgrp2rcd13ifvqc9g","pricing_plan_id":"free"},{"bike_id":"d46ccb7b-e9db-405f-b12e-8b51ff57e3a2","system_id":"levelo_inurba_marseille","lat":43.30549,"lon":5.36559,"is_reserved":false,"is_disabled":false,"rental_uris":{"android":"levelo://app?vid=d46ccb7b-e9db-405f-b12e-8b51ff57e3a2","ios":"levelo://app?vid=d46ccb7b-e9db-405f-b12e-8b51ff57e3a2"},"vehicle_type_id":"4","last_reported":1700734049,"current_range_meters":26000,"station_id":"","pricing_plan_id":"free"},{"bike_id":"ceca2d77-406e-464d-9a34-af446e822842","system_id":"levelo_inurba_marseille","lat":43.305368,"lon":5.367343,"is_reserved":false,"is_disabled":false,"rental_uris":{"android":"levelo://app?vid=ceca2d77-406e-464d-9a34-af446e822842","ios":"levelo://app?vid=ceca2d77-406e-464d-9a34-af446e822842"},"vehicle_type_id":"4","last_reported":1700734049,"current_range_meters":2000,"station_id":"ce4bgrp2rcd13ifvqc9g","pricing_plan_id":"free"},{"bike_id":"e9631f1a-f688-4427-a041-f3892ba4f594","system_id":"levelo_inurba_marseille","lat":43.305714,"lon":5.365633,"is_reserved":false,"is_disabled":false,"rental_uris":{"android":"levelo://app?vid=e9631f1a-f688-4427-a041-f3892ba4f594","ios":"levelo://app?vid=e9631f1a-f688-4427-a041-f3892ba4f594"},"vehicle_type_id":"4","last_reported":1700734049,"current_range_meters":7600,"station_id":"ce4bgs12rcd13ifvqcag","pricing_plan_id":"free"},{"bike_id":"bea5083a-51b1-44ad-8002-1d84d523aa6e","system_id":"levelo_inurba_marseille","lat":43.305373,"lon":5.366953,"is_reserved":false,"is_disabled":false,"rental_uris":{"android":"levelo://app?vid=bea5083a-51b1-44ad-8002-1d84d523aa6e","ios":"levelo://app?vid=bea5083a-51b1-44ad-8002-1d84d523aa6e"},"vehicle_type_id":"4","last_reported":1700734049,"current_range_meters":31200,"station_id":"ce4bgrp2rcd13ifvqc9g","pricing_plan_id":"free"},{"bike_id":"aa25cb8a-f8b0-415c-b685-cdb802492706","system_id":"levelo_inurba_marseille","lat":43.305714,"lon":5.365633,"is_reserved":false,"is_disabled":false,"rental_uris":{"android":"levelo://app?vid=aa25cb8a-f8b0-415c-b685-cdb802492706","ios":"levelo://app?vid=aa25cb8a-f8b0-415c-b685-cdb802492706"},"vehicle_type_id":"4","last_reported":1700734049,"current_range_meters":16400,"station_id":"ce4bgs12rcd13ifvqcag","pricing_plan_id":"free"},{"bike_id":"c780ec70-d519-4d78-ad78-8cca7b7090f5","system_id":"levelo_inurba_marseille","lat":43.305706,"lon":5.365654,"is_reserved":false,"is_disabled":false,"rental_uris":{"android":"levelo://app?vid=c780ec70-d519-4d78-ad78-8cca7b7090f5","ios":"levelo://app?vid=c780ec70-d519-4d78-ad78-8cca7b7090f5"},"vehicle_type_id":"4","last_reported":1700734049,"current_range_meters":12800,"station_id":"ce4bgs12rcd13ifvqcag","pricing_plan_id":"free"},{"bike_id":"9c4c2c80-89b9-439d-9583-b0fd7dd33ef6","system_id":"levelo_inurba_marseille","lat":43.305714,"lon":5.365633,"is_reserved":false,"is_disabled":false,"rental_uris":{"android":"levelo://app?vid=9c4c2c80-89b9-439d-9583-b0fd7dd33ef6","ios":"levelo://app?vid=9c4c2c80-89b9-439d-9583-b0fd7dd33ef6"},"vehicle_type_id":"4","last_reported":1700734049,"current_range_meters":22400,"station_id":"ce4bgs12rcd13ifvqcag","pricing_plan_id":"free"},{"bike_id":"ecc947fa-e4ca-410f-ac57-cc00d3258f88","system_id":"levelo_inurba_marseille","lat":43.305368,"lon":5.367343,"is_reserved":false,"is_disabled":false,"rental_uris":{"android":"levelo://app?vid=ecc947fa-e4ca-410f-ac57-cc00d3258f88","ios":"levelo://app?vid=ecc947fa-e4ca-410f-ac57-cc00d3258f88"},"vehicle_type_id":"4","last_reported":1700734049,"current_range_meters":10000,"station_id":"ce4bgrp2rcd13ifvqc9g","pricing_plan_id":"free"},{"bike_id":"054dd655-3b02-4b62-a5c9-99c4e6d36b8c","system_id":"levelo_inurba_marseille","lat":43.305706,"lon":5.365654,"is_reserved":false,"is_disabled":false,"rental_uris":{"android":"levelo://app?vid=054dd655-3b02-4b62-a5c9-99c4e6d36b8c","ios":"levelo://app?vid=054dd655-3b02-4b62-a5c9-99c4e6d36b8c"},"vehicle_type_id":"4","last_reported":1700734049,"current_range_meters":21200,"station_id":"ce4bgs12rcd13ifvqcag","pricing_plan_id":"free"},{"bike_id":"1a8fa7f0-f496-4843-9340-ef17ff6ccfd9","system_id":"levelo_inurba_marseille","lat":43.305706,"lon":5.365654,"is_reserved":false,"is_disabled":false,"rental_uris":{"android":"levelo://app?vid=1a8fa7f0-f496-4843-9340-ef17ff6ccfd9","ios":"levelo://app?vid=1a8fa7f0-f496-4843-9340-ef17ff6ccfd9"},"vehicle_type_id":"4","last_reported":1700734049,"current_range_meters":25200,"station_id":"ce4bgs12rcd13ifvqcag","pricing_plan_id":"free"},{"bike_id":"f4911bce-ba81-4913-9505-fba168095d04","system_id":"levelo_inurba_marseille","lat":43.305368,"lon":5.367343,"is_reserved":false,"is_disabled":false,"rental_uris":{"android":"levelo://app?vid=f4911bce-ba81-4913-9505-fba168095d04","ios":"levelo://app?vid=f4911bce-ba81-4913-9505-fba168095d04"},"vehicle_type_id":"4","last_reported":1700734049,"current_range_meters":30800,"station_id":"ce4bgrp2rcd13ifvqc9g","pricing_plan_id":"free"},{"bike_id":"dc09ca6b-5726-4d67-90e0-550ef514ffac","system_id":"levelo_inurba_marseille","lat":43.305706,"lon":5.365654,"is_reserved":false,"is_disabled":false,"rental_uris":{"android":"levelo://app?vid=dc09ca6b-5726-4d67-90e0-550ef514ffac","ios":"levelo://app?vid=dc09ca6b-5726-4d67-90e0-550ef514ffac"},"vehicle_type_id":"4","last_reported":1700734049,"current_range_meters":26000,"station_id":"ce4bgs12rcd13ifvqcag","pricing_plan_id":"free"},{"bike_id":"ccf87354-e17d-4e9d-9d65-627b26828219","system_id":"levelo_inurba_marseille","lat":43.305706,"lon":5.365654,"is_reserved":false,"is_disabled":false,"rental_uris":{"android":"levelo://app?vid=ccf87354-e17d-4e9d-9d65-627b26828219","ios":"levelo://app?vid=ccf87354-e17d-4e9d-9d65-627b26828219"},"vehicle_type_id":"4","last_reported":1700734049,"current_range_meters":24400,"station_id":"ce4bgs12rcd13ifvqcag","pricing_plan_id":"free"},{"bike_id":"54b2b2b1-0d2a-4a33-8c7b-28d131713dd0","system_id":"levelo_inurba_marseille","lat":43.305706,"lon":5.365654,"is_reserved":false,"is_disabled":false,"rental_uris":{"android":"levelo://app?vid=54b2b2b1-0d2a-4a33-8c7b-28d131713dd0","ios":"levelo://app?vid=54b2b2b1-0d2a-4a33-8c7b-28d131713dd0"},"vehicle_type_id":"4","last_reported":1700734049,"current_range_meters":16800,"station_id":"ce4bgs12rcd13ifvqcag","pricing_plan_id":"free"},{"bike_id":"9ad8ace3-ce0a-4bb1-8dfe-7967ca850548","system_id":"levelo_inurba_marseille","lat":43.305706,"lon":5.365654,"is_reserved":false,"is_disabled":false,"rental_uris":{"android":"levelo://app?vid=9ad8ace3-ce0a-4bb1-8dfe-7967ca850548","ios":"levelo://app?vid=9ad8ace3-ce0a-4bb1-8dfe-7967ca850548"},"vehicle_type_id":"4","last_reported":1700734049,"current_range_meters":4400,"station_id":"ce4bgs12rcd13ifvqcag","pricing_plan_id":"free"},{"bike_id":"f3bab41c-f299-4685-84e4-f987bf5cf1b7","system_id":"levelo_inurba_marseille","lat":43.30511,"lon":5.36707,"is_reserved":false,"is_disabled":false,"rental_uris":{"android":"levelo://app?vid=f3bab41c-f299-4685-84e4-f987bf5cf1b7","ios":"levelo://app?vid=f3bab41c-f299-4685-84e4-f987bf5cf1b7"},"vehicle_type_id":"4","last_reported":1700734049,"current_range_meters":16000,"station_id":"ce4bgrp2rcd13ifvqc9g","pricing_plan_id":"free"},{"bike_id":"be1b1d29-4976-4ec7-b6c0-5951f64b5b46","system_id":"levelo_inurba_marseille","lat":43.306023,"lon":5.372267,"is_reserved":false,"is_disabled":false,"rental_uris":{"android":"levelo://app?vid=be1b1d29-4976-4ec7-b6c0-5951f64b5b46","ios":"levelo://app?vid=be1b1d29-4976-4ec7-b6c0-5951f64b5b46"},"vehicle_type_id":"4","last_reported":1700734049,"current_range_meters":18800,"station_id":"ce4bgqh2rcd13ifvqc4g","pricing_plan_id":"free"},{"bike_id":"2ac52611-aa38-4341-8fb6-c5856cafa971","system_id":"levelo_inurba_marseille","lat":43.3079,"lon":5.3764,"is_reserved":false,"is_disabled":false,"rental_uris":{"android":"levelo://app?vid=2ac52611-aa38-4341-8fb6-c5856cafa971","ios":"levelo://app?vid=2ac52611-aa38-4341-8fb6-c5856cafa971"},"vehicle_type_id":"4","last_reported":1700734049,"current_range_meters":6400,"station_id":"ce4bgv92rcd13ifvqcq0","pricing_plan_id":"free"},{"bike_id":"78293569-fc2d-4600-bc25-a9fd6bf6ca9f","system_id":"levelo_inurba_marseille","lat":43.303219,"lon":5.366225,"is_reserved":false,"is_disabled":false,"rental_uris":{"android":"levelo://app?vid=78293569-fc2d-4600-bc25-a9fd6bf6ca9f","ios":"levelo://app?vid=78293569-fc2d-4600-bc25-a9fd6bf6ca9f"},"vehicle_type_id":"4","last_reported":1700734049,"current_range_meters":0,"station_id":"","pricing_plan_id":"free"},{"bike_id":"f280b91d-24b0-4930-94d9-e7a9dd8cfa9b","system_id":"levelo_inurba_marseille","lat":43.301939,"lon":5.366286,"is_reserved":false,"is_disabled":false,"rental_uris":{"android":"levelo://app?vid=f280b91d-24b0-4930-94d9-e7a9dd8cfa9b","ios":"levelo://app?vid=f280b91d-24b0-4930-94d9-e7a9dd8cfa9b"},"vehicle_type_id":"4","last_reported":1700734049,"current_range_meters":30000,"station_id":"ce4bgrh2rcd13ifvqc8g","pricing_plan_id":"free"},{"bike_id":"0e754b0b-7b3f-4654-a6fe-1c886763baad","system_id":"levelo_inurba_marseille","lat":43.301939,"lon":5.366286,"is_reserved":false,"is_disabled":false,"rental_uris":{"android":"levelo://app?vid=0e754b0b-7b3f-4654-a6fe-1c886763baad","ios":"levelo://app?vid=0e754b0b-7b3f-4654-a6fe-1c886763baad"},"vehicle_type_id":"4","last_reported":1700734049,"current_range_meters":25600,"station_id":"ce4bgrh2rcd13ifvqc8g","pricing_plan_id":"free"},{"bike_id":"0327687b-f51e-4077-bf49-2ec73a6de092","system_id":"levelo_inurba_marseille","lat":43.322348,"lon":5.375604,"is_reserved":false,"is_disabled":false,"rental_uris":{"android":"levelo://app?vid=0327687b-f51e-4077-bf49-2ec73a6de092","ios":"levelo://app?vid=0327687b-f51e-4077-bf49-2ec73a6de092"},"vehicle_type_id":"4","last_reported":1700734049,"current_range_meters":12000,"station_id":"","pricing_plan_id":"free"},{"bike_id":"4af4e87e-9c3d-47ce-a8c1-e1691eaa8a21","system_id":"levelo_inurba_marseille","lat":43.304606,"lon":5.379026,"is_reserved":false,"is_disabled":false,"rental_uris":{"android":"levelo://app?vid=4af4e87e-9c3d-47ce-a8c1-e1691eaa8a21","ios":"levelo://app?vid=4af4e87e-9c3d-47ce-a8c1-e1691eaa8a21"},"vehicle_type_id":"4","last_reported":1700734049,"current_range_meters":30800,"station_id":"ce4bgup2rcd13ifvqcn0","pricing_plan_id":"free"},{"bike_id":"fc911f67-fc4a-4da6-aa7f-5d0b581c6c7b","system_id":"levelo_inurba_marseille","lat":43.304606,"lon":5.379026,"is_reserved":false,"is_disabled":false,"rental_uris":{"android":"levelo://app?vid=fc911f67-fc4a-4da6-aa7f-5d0b581c6c7b","ios":"levelo://app?vid=fc911f67-fc4a-4da6-aa7f-5d0b581c6c7b"},"vehicle_type_id":"4","last_reported":1700734049,"current_range_meters":28800,"station_id":"ce4bgup2rcd13ifvqcn0","pricing_plan_id":"free"},{"bike_id":"e8dd5d72-0dc4-4055-b2ea-19fd16ce1392","system_id":"levelo_inurba_marseille","lat":43.304606,"lon":5.379026,"is_reserved":false,"is_disabled":false,"rental_uris":{"android":"levelo://app?vid=e8dd5d72-0dc4-4055-b2ea-19fd16ce1392","ios":"levelo://app?vid=e8dd5d72-0dc4-4055-b2ea-19fd16ce1392"},"vehicle_type_id":"4","last_reported":1700734049,"current_range_meters":27200,"station_id":"ce4bgup2rcd13ifvqcn0","pricing_plan_id":"free"},{"bike_id":"b5c77145-637e-49ed-a8b3-83dc3a752ec2","system_id":"levelo_inurba_marseille","lat":43.304606,"lon":5.379026,"is_reserved":false,"is_disabled":false,"rental_uris":{"android":"levelo://app?vid=b5c77145-637e-49ed-a8b3-83dc3a752ec2","ios":"levelo://app?vid=b5c77145-637e-49ed-a8b3-83dc3a752ec2"},"vehicle_type_id":"4","last_reported":1700734049,"current_range_meters":21600,"station_id":"ce4bgup2rcd13ifvqcn0","pricing_plan_id":"free"},{"bike_id":"3ce49fac-1ed0-458d-b3ad-2eb39ff12e71","system_id":"levelo_inurba_marseille","lat":43.304606,"lon":5.379026,"is_reserved":false,"is_disabled":false,"rental_uris":{"android":"levelo://app?vid=3ce49fac-1ed0-458d-b3ad-2eb39ff12e71","ios":"levelo://app?vid=3ce49fac-1ed0-458d-b3ad-2eb39ff12e71"},"vehicle_type_id":"4","last_reported":1700734049,"current_range_meters":29600,"station_id":"ce4bgup2rcd13ifvqcn0","pricing_plan_id":"free"},{"bike_id":"6dfdef78-ce45-4d5b-9d48-f864ec3fd7b1","system_id":"levelo_inurba_marseille","lat":43.304606,"lon":5.379026,"is_reserved":false,"is_disabled":false,"rental_uris":{"android":"levelo://app?vid=6dfdef78-ce45-4d5b-9d48-f864ec3fd7b1","ios":"levelo://app?vid=6dfdef78-ce45-4d5b-9d48-f864ec3fd7b1"},"vehicle_type_id":"4","last_reported":1700734049,"current_range_meters":28400,"station_id":"ce4bgup2rcd13ifvqcn0","pricing_plan_id":"free"},{"bike_id":"854d3862-6a94-453e-ab6d-5448b820672f","system_id":"levelo_inurba_marseille","lat":43.304606,"lon":5.379026,"is_reserved":false,"is_disabled":false,"rental_uris":{"android":"levelo://app?vid=854d3862-6a94-453e-ab6d-5448b820672f","ios":"levelo://app?vid=854d3862-6a94-453e-ab6d-5448b820672f"},"vehicle_type_id":"4","last_reported":1700734049,"current_range_meters":30800,"station_id":"ce4bgup2rcd13ifvqcn0","pricing_plan_id":"free"},{"bike_id":"f3284485-3bc0-43ff-bbe6-8daf493ac314","system_id":"levelo_inurba_marseille","lat":43.302864,"lon":5.376926,"is_reserved":false,"is_disabled":false,"rental_uris":{"android":"levelo://app?vid=f3284485-3bc0-43ff-bbe6-8daf493ac314","ios":"levelo://app?vid=f3284485-3bc0-43ff-bbe6-8daf493ac314"},"vehicle_type_id":"4","last_reported":1700734049,"current_range_meters":18400,"station_id":"ce4bguh2rcd13ifvqcj0","pricing_plan_id":"free"},{"bike_id":"03292337-33ed-4e9b-b8e0-d0373eb1e73a","system_id":"levelo_inurba_marseille","lat":43.302784,"lon":5.377158,"is_reserved":false,"is_disabled":false,"rental_uris":{"android":"levelo://app?vid=03292337-33ed-4e9b-b8e0-d0373eb1e73a","ios":"levelo://app?vid=03292337-33ed-4e9b-b8e0-d0373eb1e73a"},"vehicle_type_id":"4","last_reported":1700734049,"current_range_meters":21600,"station_id":"ce4bguh2rcd13ifvqcj0","pricing_plan_id":"free"},{"bike_id":"adf057e9-413b-4aae-8d3b-2a25d3a65d35","system_id":"levelo_inurba_marseille","lat":43.298433,"lon":5.362774,"is_reserved":false,"is_disabled":false,"rental_uris":{"android":"levelo://app?vid=adf057e9-413b-4aae-8d3b-2a25d3a65d35","ios":"levelo://app?vid=adf057e9-413b-4aae-8d3b-2a25d3a65d35"},"vehicle_type_id":"4","last_reported":1700734049,"current_range_meters":22400,"station_id":"ce4bgpp2rcd13ifvqc3g","pricing_plan_id":"free"},{"bike_id":"47426855-20a4-4f91-b86e-154b78259341","system_id":"levelo_inurba_marseille","lat":43.298433,"lon":5.362774,"is_reserved":false,"is_disabled":false,"rental_uris":{"android":"levelo://app?vid=47426855-20a4-4f91-b86e-154b78259341","ios":"levelo://app?vid=47426855-20a4-4f91-b86e-154b78259341"},"vehicle_type_id":"4","last_reported":1700734049,"current_range_meters":25600,"station_id":"ce4bgpp2rcd13ifvqc3g","pricing_plan_id":"free"},{"bike_id":"99051a99-dffd-4890-9de1-8bcdc4d80092","system_id":"levelo_inurba_marseille","lat":43.298433,"lon":5.362774,"is_reserved":false,"is_disabled":false,"rental_uris":{"android":"levelo://app?vid=99051a99-dffd-4890-9de1-8bcdc4d80092","ios":"levelo://app?vid=99051a99-dffd-4890-9de1-8bcdc4d80092"},"vehicle_type_id":"4","last_reported":1700734049,"current_range_meters":22000,"station_id":"ce4bgpp2rcd13ifvqc3g","pricing_plan_id":"free"},{"bike_id":"ecdd082c-8b3b-4507-8e29-667bdf0c263a","system_id":"levelo_inurba_marseille","lat":43.298433,"lon":5.362774,"is_reserved":false,"is_disabled":false,"rental_uris":{"android":"levelo://app?vid=ecdd082c-8b3b-4507-8e29-667bdf0c263a","ios":"levelo://app?vid=ecdd082c-8b3b-4507-8e29-667bdf0c263a"},"vehicle_type_id":"4","last_reported":1700734049,"current_range_meters":31200,"station_id":"ce4bgpp2rcd13ifvqc3g","pricing_plan_id":"free"},{"bike_id":"28913845-39d8-41bd-b764-e0515bb232b2","system_id":"levelo_inurba_marseille","lat":43.328371,"lon":5.366912,"is_reserved":false,"is_disabled":false,"rental_uris":{"android":"levelo://app?vid=28913845-39d8-41bd-b764-e0515bb232b2","ios":"levelo://app?vid=28913845-39d8-41bd-b764-e0515bb232b2"},"vehicle_type_id":"4","last_reported":1700734049,"current_range_meters":12000,"station_id":"ce4bhs92rcd13ifvqi0g","pricing_plan_id":"free"},{"bike_id":"4b0ea304-94db-4722-863f-214ff0a51e0d","system_id":"levelo_inurba_marseille","lat":43.297163,"lon":5.365866,"is_reserved":false,"is_disabled":false,"rental_uris":{"android":"levelo://app?vid=4b0ea304-94db-4722-863f-214ff0a51e0d","ios":"levelo://app?vid=4b0ea304-94db-4722-863f-214ff0a51e0d"},"vehicle_type_id":"4","last_reported":1700734049,"current_range_meters":26000,"station_id":"ce4bgn12rcd13ifvqbt0","pricing_plan_id":"free"},{"bike_id":"d79d2acc-8daf-4642-aa6b-0800b79698f3","system_id":"levelo_inurba_marseille","lat":43.297163,"lon":5.365866,"is_reserved":false,"is_disabled":false,"rental_uris":{"android":"levelo://app?vid=d79d2acc-8daf-4642-aa6b-0800b79698f3","ios":"levelo://app?vid=d79d2acc-8daf-4642-aa6b-0800b79698f3"},"vehicle_type_id":"4","last_reported":1700734049,"current_range_meters":14400,"station_id":"ce4bgn12rcd13ifvqbt0","pricing_plan_id":"free"},{"bike_id":"e1d80247-a9b9-4a49-a254-4a3c34ad73f0","system_id":"levelo_inurba_marseille","lat":43.297163,"lon":5.365866,"is_reserved":false,"is_disabled":false,"rental_uris":{"android":"levelo://app?vid=e1d80247-a9b9-4a49-a254-4a3c34ad73f0","ios":"levelo://app?vid=e1d80247-a9b9-4a49-a254-4a3c34ad73f0"},"vehicle_type_id":"4","last_reported":1700734049,"current_range_meters":17200,"station_id":"ce4bgn12rcd13ifvqbt0","pricing_plan_id":"free"},{"bike_id":"4d7509f5-9559-42ca-a60d-bef9e80f0981","system_id":"levelo_inurba_marseille","lat":43.299632,"lon":5.37924,"is_reserved":false,"is_disabled":false,"rental_uris":{"android":"levelo://app?vid=4d7509f5-9559-42ca-a60d-bef9e80f0981","ios":"levelo://app?vid=4d7509f5-9559-42ca-a60d-bef9e80f0981"},"vehicle_type_id":"4","last_reported":1700734049,"current_range_meters":0,"station_id":"","pricing_plan_id":"free"},{"bike_id":"f2e29894-d678-42aa-87e5-1b70dec5c0b1","system_id":"levelo_inurba_marseille","lat":43.29639,"lon":5.36238,"is_reserved":false,"is_disabled":false,"rental_uris":{"android":"levelo://app?vid=f2e29894-d678-42aa-87e5-1b70dec5c0b1","ios":"levelo://app?vid=f2e29894-d678-42aa-87e5-1b70dec5c0b1"},"vehicle_type_id":"4","last_reported":1700734049,"current_range_meters":0,"station_id":"","pricing_plan_id":"free"},{"bike_id":"bf27aa9e-82c4-48f9-a906-2c5859fee0f8","system_id":"levelo_inurba_marseille","lat":43.296131,"lon":5.370773,"is_reserved":false,"is_disabled":false,"rental_uris":{"android":"levelo://app?vid=bf27aa9e-82c4-48f9-a906-2c5859fee0f8","ios":"levelo://app?vid=bf27aa9e-82c4-48f9-a906-2c5859fee0f8"},"vehicle_type_id":"4","last_reported":1700734049,"current_range_meters":7200,"station_id":"ce4bgnh2rcd13ifvqc0g","pricing_plan_id":"free"},{"bike_id":"135231e0-af33-4186-818b-8c98cab23adf","system_id":"levelo_inurba_marseille","lat":43.296935,"lon":5.376544,"is_reserved":false,"is_disabled":false,"rental_uris":{"android":"levelo://app?vid=135231e0-af33-4186-818b-8c98cab23adf","ios":"levelo://app?vid=135231e0-af33-4186-818b-8c98cab23adf"},"vehicle_type_id":"4","last_reported":1700734049,"current_range_meters":28800,"station_id":"ce4bgkh2rcd13ifvqbl0","pricing_plan_id":"free"},{"bike_id":"9ca33437-b819-4e75-9b25-6135a09a46f2","system_id":"levelo_inurba_marseille","lat":43.297165,"lon":5.377008,"is_reserved":false,"is_disabled":false,"rental_uris":{"android":"levelo://app?vid=9ca33437-b819-4e75-9b25-6135a09a46f2","ios":"levelo://app?vid=9ca33437-b819-4e75-9b25-6135a09a46f2"},"vehicle_type_id":"4","last_reported":1700734049,"current_range_meters":19600,"station_id":"","pricing_plan_id":"free"},{"bike_id":"5e149bb4-f290-4578-baf7-e759bec8243b","system_id":"levelo_inurba_marseille","lat":43.299233,"lon":5.381605,"is_reserved":false,"is_disabled":false,"rental_uris":{"android":"levelo://app?vid=5e149bb4-f290-4578-baf7-e759bec8243b","ios":"levelo://app?vid=5e149bb4-f290-4578-baf7-e759bec8243b"},"vehicle_type_id":"4","last_reported":1700734049,"current_range_meters":4800,"station_id":"","pricing_plan_id":"free"},{"bike_id":"4434d729-4f9f-41be-a1ef-7c0946c9e1ad","system_id":"levelo_inurba_marseille","lat":43.299028,"lon":5.381509,"is_reserved":false,"is_disabled":false,"rental_uris":{"android":"levelo://app?vid=4434d729-4f9f-41be-a1ef-7c0946c9e1ad","ios":"levelo://app?vid=4434d729-4f9f-41be-a1ef-7c0946c9e1ad"},"vehicle_type_id":"4","last_reported":1700734049,"current_range_meters":23200,"station_id":"ce4bgj12rcd13ifvqbc0","pricing_plan_id":"free"},{"bike_id":"1d0b745a-0e4d-424e-9a3e-93241cfa93a9","system_id":"levelo_inurba_marseille","lat":43.299028,"lon":5.381509,"is_reserved":false,"is_disabled":false,"rental_uris":{"android":"levelo://app?vid=1d0b745a-0e4d-424e-9a3e-93241cfa93a9","ios":"levelo://app?vid=1d0b745a-0e4d-424e-9a3e-93241cfa93a9"},"vehicle_type_id":"4","last_reported":1700734049,"current_range_meters":18000,"station_id":"ce4bgj12rcd13ifvqbc0","pricing_plan_id":"free"},{"bike_id":"9fb402a7-7a41-4473-81d2-1fec663a6035","system_id":"levelo_inurba_marseille","lat":43.305543,"lon":5.388718,"is_reserved":false,"is_disabled":false,"rental_uris":{"android":"levelo://app?vid=9fb402a7-7a41-4473-81d2-1fec663a6035","ios":"levelo://app?vid=9fb402a7-7a41-4473-81d2-1fec663a6035"},"vehicle_type_id":"4","last_reported":1700734049,"current_range_meters":20800,"station_id":"","pricing_plan_id":"free"},{"bike_id":"03d9ab88-da5e-449e-a841-4c6bc1bda00b","system_id":"levelo_inurba_marseille","lat":43.309589,"lon":5.390258,"is_reserved":false,"is_disabled":false,"rental_uris":{"android":"levelo://app?vid=03d9ab88-da5e-449e-a841-4c6bc1bda00b","ios":"levelo://app?vid=03d9ab88-da5e-449e-a841-4c6bc1bda00b"},"vehicle_type_id":"4","last_reported":1700734049,"current_range_meters":21600,"station_id":"ce4bgup2rcd13ifvqco0","pricing_plan_id":"free"},{"bike_id":"c41cffe9-7c04-4247-9cdc-1d061214a659","system_id":"levelo_inurba_marseille","lat":43.29788,"lon":5.3811,"is_reserved":false,"is_disabled":false,"rental_uris":{"android":"levelo://app?vid=c41cffe9-7c04-4247-9cdc-1d061214a659","ios":"levelo://app?vid=c41cffe9-7c04-4247-9cdc-1d061214a659"},"vehicle_type_id":"4","last_reported":1700734049,"current_range_meters":19200,"station_id":"ce4bgip2rcd13ifvqbb0","pricing_plan_id":"free"},{"bike_id":"3724c3cb-cda9-41d5-97d6-d6c4adacce5b","system_id":"levelo_inurba_marseille","lat":43.304278,"lon":5.388868,"is_reserved":false,"is_disabled":false,"rental_uris":{"android":"levelo://app?vid=3724c3cb-cda9-41d5-97d6-d6c4adacce5b","ios":"levelo://app?vid=3724c3cb-cda9-41d5-97d6-d6c4adacce5b"},"vehicle_type_id":"4","last_reported":1700734049,"current_range_meters":18800,"station_id":"ce4bgk12rcd13ifvqbi0","pricing_plan_id":"free"},{"bike_id":"063f0da7-fbaf-4a3b-8139-1d7232b09b3c","system_id":"levelo_inurba_marseille","lat":43.298037,"lon":5.381066,"is_reserved":false,"is_disabled":false,"rental_uris":{"android":"levelo://app?vid=063f0da7-fbaf-4a3b-8139-1d7232b09b3c","ios":"levelo://app?vid=063f0da7-fbaf-4a3b-8139-1d7232b09b3c"},"vehicle_type_id":"4","last_reported":1700734049,"current_range_meters":29600,"station_id":"ce4bgip2rcd13ifvqbb0","pricing_plan_id":"free"},{"bike_id":"6be1a9f3-16c0-4ae9-9199-de2c03c6c564","system_id":"levelo_inurba_marseille","lat":43.295279,"lon":5.375048,"is_reserved":false,"is_disabled":false,"rental_uris":{"android":"levelo://app?vid=6be1a9f3-16c0-4ae9-9199-de2c03c6c564","ios":"levelo://app?vid=6be1a9f3-16c0-4ae9-9199-de2c03c6c564"},"vehicle_type_id":"4","last_reported":1700734049,"current_range_meters":27600,"station_id":"ce4bgkp2rcd13ifvqbmg","pricing_plan_id":"free"},{"bike_id":"ede72798-0ff8-4868-b6d5-ccf4d8003990","system_id":"levelo_inurba_marseille","lat":43.295279,"lon":5.375048,"is_reserved":false,"is_disabled":false,"rental_uris":{"android":"levelo://app?vid=ede72798-0ff8-4868-b6d5-ccf4d8003990","ios":"levelo://app?vid=ede72798-0ff8-4868-b6d5-ccf4d8003990"},"vehicle_type_id":"4","last_reported":1700734049,"current_range_meters":22400,"station_id":"ce4bgkp2rcd13ifvqbmg","pricing_plan_id":"free"},{"bike_id":"6b621983-5e9e-42f7-990d-ad5a093820d2","system_id":"levelo_inurba_marseille","lat":43.293801,"lon":5.363066,"is_reserved":false,"is_disabled":false,"rental_uris":{"android":"levelo://app?vid=6b621983-5e9e-42f7-990d-ad5a093820d2","ios":"levelo://app?vid=6b621983-5e9e-42f7-990d-ad5a093820d2"},"vehicle_type_id":"4","last_reported":1700734049,"current_range_meters":8800,"station_id":"","pricing_plan_id":"free"},{"bike_id":"a4126061-09a2-4a27-88df-f690ba5f395a","system_id":"levelo_inurba_marseille","lat":43.32361,"lon":5.38885,"is_reserved":false,"is_disabled":false,"rental_uris":{"android":"levelo://app?vid=a4126061-09a2-4a27-88df-f690ba5f395a","ios":"levelo://app?vid=a4126061-09a2-4a27-88df-f690ba5f395a"},"vehicle_type_id":"4","last_reported":1700734049,"current_range_meters":16400,"station_id":"ce4bhqp2rcd13ifvqhog","pricing_plan_id":"free"},{"bike_id":"8dc5cade-25e6-43aa-98b5-83b2481d8330","system_id":"levelo_inurba_marseille","lat":43.296,"lon":5.38085,"is_reserved":false,"is_disabled":false,"rental_uris":{"android":"levelo://app?vid=8dc5cade-25e6-43aa-98b5-83b2481d8330","ios":"levelo://app?vid=8dc5cade-25e6-43aa-98b5-83b2481d8330"},"vehicle_type_id":"4","last_reported":1700734049,"current_range_meters":0,"station_id":"ce4bgl12rcd13ifvqbo0","pricing_plan_id":"free"},{"bike_id":"eed09e8a-bafc-435b-b1e9-699d07141005","system_id":"levelo_inurba_marseille","lat":43.293249,"lon":5.371578,"is_reserved":false,"is_disabled":false,"rental_uris":{"android":"levelo://app?vid=eed09e8a-bafc-435b-b1e9-699d07141005","ios":"levelo://app?vid=eed09e8a-bafc-435b-b1e9-699d07141005"},"vehicle_type_id":"4","last_reported":1700734049,"current_range_meters":18000,"station_id":"ce4bgh92rcd13ifvqb40","pricing_plan_id":"free"},{"bike_id":"9f7a6a75-2ede-44e3-a251-77e3fff2682b","system_id":"levelo_inurba_marseille","lat":43.2936,"lon":5.37835,"is_reserved":false,"is_disabled":false,"rental_uris":{"android":"levelo://app?vid=9f7a6a75-2ede-44e3-a251-77e3fff2682b","ios":"levelo://app?vid=9f7a6a75-2ede-44e3-a251-77e3fff2682b"},"vehicle_type_id":"4","last_reported":1700734049,"current_range_meters":25200,"station_id":"ce4bgjh2rcd13ifvqbf0","pricing_plan_id":"free"},{"bike_id":"06bb9847-e204-4728-86b7-bc88ba6056ef","system_id":"levelo_inurba_marseille","lat":43.2936,"lon":5.37835,"is_reserved":false,"is_disabled":false,"rental_uris":{"android":"levelo://app?vid=06bb9847-e204-4728-86b7-bc88ba6056ef","ios":"levelo://app?vid=06bb9847-e204-4728-86b7-bc88ba6056ef"},"vehicle_type_id":"4","last_reported":1700734049,"current_range_meters":21200,"station_id":"ce4bgjh2rcd13ifvqbf0","pricing_plan_id":"free"},{"bike_id":"4a62a2ab-1205-4be5-88bd-a9298be4f222","system_id":"levelo_inurba_marseille","lat":43.2936,"lon":5.37835,"is_reserved":false,"is_disabled":false,"rental_uris":{"android":"levelo://app?vid=4a62a2ab-1205-4be5-88bd-a9298be4f222","ios":"levelo://app?vid=4a62a2ab-1205-4be5-88bd-a9298be4f222"},"vehicle_type_id":"4","last_reported":1700734049,"current_range_meters":8400,"station_id":"ce4bgjh2rcd13ifvqbf0","pricing_plan_id":"free"},{"bike_id":"22c63060-a85a-4f37-9503-fcb90c13917f","system_id":"levelo_inurba_marseille","lat":43.292311,"lon":5.360731,"is_reserved":false,"is_disabled":false,"rental_uris":{"android":"levelo://app?vid=22c63060-a85a-4f37-9503-fcb90c13917f","ios":"levelo://app?vid=22c63060-a85a-4f37-9503-fcb90c13917f"},"vehicle_type_id":"4","last_reported":1700734049,"current_range_meters":19200,"station_id":"ce4bhbh2rcd13ifvqeqg","pricing_plan_id":"free"},{"bike_id":"d4c9d019-f6a4-44bf-911b-ff97061fc756","system_id":"levelo_inurba_marseille","lat":43.313291,"lon":5.396838,"is_reserved":false,"is_disabled":false,"rental_uris":{"android":"levelo://app?vid=d4c9d019-f6a4-44bf-911b-ff97061fc756","ios":"levelo://app?vid=d4c9d019-f6a4-44bf-911b-ff97061fc756"},"vehicle_type_id":"4","last_reported":1700734049,"current_range_meters":26000,"station_id":"ce4bgvp2rcd13ifvqcu0","pricing_plan_id":"free"},{"bike_id":"1d10a1b1-d55f-4279-928a-9c6858f32ca9","system_id":"levelo_inurba_marseille","lat":43.33211,"lon":5.38112,"is_reserved":false,"is_disabled":false,"rental_uris":{"android":"levelo://app?vid=1d10a1b1-d55f-4279-928a-9c6858f32ca9","ios":"levelo://app?vid=1d10a1b1-d55f-4279-928a-9c6858f32ca9"},"vehicle_type_id":"4","last_reported":1700734049,"current_range_meters":400,"station_id":"","pricing_plan_id":"free"},{"bike_id":"ec0f0c08-7ca4-4e30-adae-b66bea7781af","system_id":"levelo_inurba_marseille","lat":43.290779,"lon":5.371482,"is_reserved":false,"is_disabled":false,"rental_uris":{"android":"levelo://app?vid=ec0f0c08-7ca4-4e30-adae-b66bea7781af","ios":"levelo://app?vid=ec0f0c08-7ca4-4e30-adae-b66bea7781af"},"vehicle_type_id":"4","last_reported":1700734049,"current_range_meters":30800,"station_id":"ce4bh5p2rcd13ifvqe4g","pricing_plan_id":"free"},{"bike_id":"9d4272e5-ef3d-4ced-8261-3bcf8609e899","system_id":"levelo_inurba_marseille","lat":43.294153,"lon":5.386305,"is_reserved":false,"is_disabled":false,"rental_uris":{"android":"levelo://app?vid=9d4272e5-ef3d-4ced-8261-3bcf8609e899","ios":"levelo://app?vid=9d4272e5-ef3d-4ced-8261-3bcf8609e899"},"vehicle_type_id":"4","last_reported":1700734049,"current_range_meters":14000,"station_id":"ce4bh2h2rcd13ifvqdh0","pricing_plan_id":"free"},{"bike_id":"d10bfeca-830b-43ba-8799-7fb6a5520f44","system_id":"levelo_inurba_marseille","lat":43.290327,"lon":5.375711,"is_reserved":false,"is_disabled":false,"rental_uris":{"android":"levelo://app?vid=d10bfeca-830b-43ba-8799-7fb6a5520f44","ios":"levelo://app?vid=d10bfeca-830b-43ba-8799-7fb6a5520f44"},"vehicle_type_id":"4","last_reported":1700734049,"current_range_meters":22800,"station_id":"ce4bh692rcd13ifvqe90","pricing_plan_id":"free"},{"bike_id":"6d4cabf5-eb7f-494a-8ff1-deb18c03a53f","system_id":"levelo_inurba_marseille","lat":43.290631,"lon":5.359244,"is_reserved":false,"is_disabled":false,"rental_uris":{"android":"levelo://app?vid=6d4cabf5-eb7f-494a-8ff1-deb18c03a53f","ios":"levelo://app?vid=6d4cabf5-eb7f-494a-8ff1-deb18c03a53f"},"vehicle_type_id":"4","last_reported":1700734049,"current_range_meters":19600,"station_id":"ce4bha92rcd13ifvqeg0","pricing_plan_id":"free"},{"bike_id":"91f43715-e29c-420b-86ac-1e6c1a18d185","system_id":"levelo_inurba_marseille","lat":43.310023,"lon":5.399314,"is_reserved":false,"is_disabled":false,"rental_uris":{"android":"levelo://app?vid=91f43715-e29c-420b-86ac-1e6c1a18d185","ios":"levelo://app?vid=91f43715-e29c-420b-86ac-1e6c1a18d185"},"vehicle_type_id":"4","last_reported":1700734049,"current_range_meters":0,"station_id":"","pricing_plan_id":"free"},{"bike_id":"08dc0632-a025-484c-84fa-2e5b9eae5f7b","system_id":"levelo_inurba_marseille","lat":43.304296,"lon":5.397513,"is_reserved":false,"is_disabled":false,"rental_uris":{"android":"levelo://app?vid=08dc0632-a025-484c-84fa-2e5b9eae5f7b","ios":"levelo://app?vid=08dc0632-a025-484c-84fa-2e5b9eae5f7b"},"vehicle_type_id":"4","last_reported":1700734049,"current_range_meters":14400,"station_id":"ce4bh092rcd13ifvqd20","pricing_plan_id":"free"},{"bike_id":"3955e61f-9ea1-4f1a-b6bb-a5a7a70a7686","system_id":"levelo_inurba_marseille","lat":43.33041,"lon":5.38919,"is_reserved":false,"is_disabled":false,"rental_uris":{"android":"levelo://app?vid=3955e61f-9ea1-4f1a-b6bb-a5a7a70a7686","ios":"levelo://app?vid=3955e61f-9ea1-4f1a-b6bb-a5a7a70a7686"},"vehicle_type_id":"4","last_reported":1700734049,"current_range_meters":16800,"station_id":"ce4bhr92rcd13ifvqhrg","pricing_plan_id":"free"},{"bike_id":"a986a98e-db7c-4101-bab1-96a228331c73","system_id":"levelo_inurba_marseille","lat":43.290104,"lon":5.356111,"is_reserved":false,"is_disabled":false,"rental_uris":{"android":"levelo://app?vid=a986a98e-db7c-4101-bab1-96a228331c73","ios":"levelo://app?vid=a986a98e-db7c-4101-bab1-96a228331c73"},"vehicle_type_id":"4","last_reported":1700734049,"current_range_meters":31200,"station_id":"ce4bhb92rcd13ifvqen0","pricing_plan_id":"free"},{"bike_id":"23a2c037-22a5-4269-b130-4aca64d07eaa","system_id":"levelo_inurba_marseille","lat":43.290995,"lon":5.381361,"is_reserved":false,"is_disabled":false,"rental_uris":{"android":"levelo://app?vid=23a2c037-22a5-4269-b130-4aca64d07eaa","ios":"levelo://app?vid=23a2c037-22a5-4269-b130-4aca64d07eaa"},"vehicle_type_id":"4","last_reported":1700734049,"current_range_meters":4400,"station_id":"ce4bh512rcd13ifvqe2g","pricing_plan_id":"free"},{"bike_id":"cfd2b2b8-056a-4ffa-96ab-4bc84dc36916","system_id":"levelo_inurba_marseille","lat":43.289743,"lon":5.378304,"is_reserved":false,"is_disabled":false,"rental_uris":{"android":"levelo://app?vid=cfd2b2b8-056a-4ffa-96ab-4bc84dc36916","ios":"levelo://app?vid=cfd2b2b8-056a-4ffa-96ab-4bc84dc36916"},"vehicle_type_id":"4","last_reported":1700734049,"current_range_meters":20800,"station_id":"ce4bh9p2rcd13ifvqed0","pricing_plan_id":"free"},{"bike_id":"257b6297-c687-4899-aa43-250c006bf27c","system_id":"levelo_inurba_marseille","lat":43.29783,"lon":5.39345,"is_reserved":false,"is_disabled":false,"rental_uris":{"android":"levelo://app?vid=257b6297-c687-4899-aa43-250c006bf27c","ios":"levelo://app?vid=257b6297-c687-4899-aa43-250c006bf27c"},"vehicle_type_id":"4","last_reported":1700734049,"current_range_meters":6400,"station_id":"chh1huq6cuj3fo74tm60","pricing_plan_id":"free"},{"bike_id":"61585b5c-701b-4c6f-ae1a-f6585fdd9f9f","system_id":"levelo_inurba_marseille","lat":43.297815,"lon":5.393548,"is_reserved":false,"is_disabled":false,"rental_uris":{"android":"levelo://app?vid=61585b5c-701b-4c6f-ae1a-f6585fdd9f9f","ios":"levelo://app?vid=61585b5c-701b-4c6f-ae1a-f6585fdd9f9f"},"vehicle_type_id":"4","last_reported":1700734049,"current_range_meters":14000,"station_id":"chh1huq6cuj3fo74tm60","pricing_plan_id":"free"},{"bike_id":"c515262b-42bf-43bf-87e0-71b0896d6e46","system_id":"levelo_inurba_marseille","lat":43.289741,"lon":5.378306,"is_reserved":false,"is_disabled":false,"rental_uris":{"android":"levelo://app?vid=c515262b-42bf-43bf-87e0-71b0896d6e46","ios":"levelo://app?vid=c515262b-42bf-43bf-87e0-71b0896d6e46"},"vehicle_type_id":"4","last_reported":1700734049,"current_range_meters":25600,"station_id":"ce4bh9p2rcd13ifvqed0","pricing_plan_id":"free"},{"bike_id":"2f48ed0e-ed72-4412-8a66-1fc0a85652ec","system_id":"levelo_inurba_marseille","lat":43.290094,"lon":5.381264,"is_reserved":false,"is_disabled":false,"rental_uris":{"android":"levelo://app?vid=2f48ed0e-ed72-4412-8a66-1fc0a85652ec","ios":"levelo://app?vid=2f48ed0e-ed72-4412-8a66-1fc0a85652ec"},"vehicle_type_id":"4","last_reported":1700734049,"current_range_meters":16800,"station_id":"ce4bh4p2rcd13ifvqe1g","pricing_plan_id":"free"},{"bike_id":"b3341d00-73ff-4122-a276-ba9355cae8f2","system_id":"levelo_inurba_marseille","lat":43.28856,"lon":5.358371,"is_reserved":false,"is_disabled":false,"rental_uris":{"android":"levelo://app?vid=b3341d00-73ff-4122-a276-ba9355cae8f2","ios":"levelo://app?vid=b3341d00-73ff-4122-a276-ba9355cae8f2"},"vehicle_type_id":"4","last_reported":1700734049,"current_range_meters":31200,"station_id":"ce4bhb12rcd13ifvqem0","pricing_plan_id":"free"},{"bike_id":"08d49d48-3896-4f4d-9e7e-3b61182b41e6","system_id":"levelo_inurba_marseille","lat":43.28722,"lon":5.36682,"is_reserved":false,"is_disabled":false,"rental_uris":{"android":"levelo://app?vid=08d49d48-3896-4f4d-9e7e-3b61182b41e6","ios":"levelo://app?vid=08d49d48-3896-4f4d-9e7e-3b61182b41e6"},"vehicle_type_id":"4","last_reported":1700734049,"current_range_meters":23600,"station_id":"","pricing_plan_id":"free"},{"bike_id":"f5d87260-1fa0-4605-97ba-2b51c889a6b7","system_id":"levelo_inurba_marseille","lat":43.301117,"lon":5.398795,"is_reserved":false,"is_disabled":false,"rental_uris":{"android":"levelo://app?vid=f5d87260-1fa0-4605-97ba-2b51c889a6b7","ios":"levelo://app?vid=f5d87260-1fa0-4605-97ba-2b51c889a6b7"},"vehicle_type_id":"4","last_reported":1700734049,"current_range_meters":22800,"station_id":"ce4bh0h2rcd13ifvqd40","pricing_plan_id":"free"},{"bike_id":"2f751b19-d231-4674-ae4d-1aaf3dfa6482","system_id":"levelo_inurba_marseille","lat":43.28718,"lon":5.36094,"is_reserved":false,"is_disabled":false,"rental_uris":{"android":"levelo://app?vid=2f751b19-d231-4674-ae4d-1aaf3dfa6482","ios":"levelo://app?vid=2f751b19-d231-4674-ae4d-1aaf3dfa6482"},"vehicle_type_id":"4","last_reported":1700734049,"current_range_meters":26800,"station_id":"cki0cbj6b192h4jlfktg","pricing_plan_id":"free"},{"bike_id":"bb7215bd-a2cd-4085-a41f-78babc341a7f","system_id":"levelo_inurba_marseille","lat":43.286593,"lon":5.363346,"is_reserved":false,"is_disabled":false,"rental_uris":{"android":"levelo://app?vid=bb7215bd-a2cd-4085-a41f-78babc341a7f","ios":"levelo://app?vid=bb7215bd-a2cd-4085-a41f-78babc341a7f"},"vehicle_type_id":"4","last_reported":1700734049,"current_range_meters":26800,"station_id":"ce4bhah2rcd13ifvqej0","pricing_plan_id":"free"},{"bike_id":"30dbbd83-23f6-48ca-b8dc-ebc8a9904505","system_id":"levelo_inurba_marseille","lat":43.286961,"lon":5.373785,"is_reserved":false,"is_disabled":false,"rental_uris":{"android":"levelo://app?vid=30dbbd83-23f6-48ca-b8dc-ebc8a9904505","ios":"levelo://app?vid=30dbbd83-23f6-48ca-b8dc-ebc8a9904505"},"vehicle_type_id":"4","last_reported":1700734049,"current_range_meters":18000,"station_id":"ce4bh3p2rcd13ifvqdq0","pricing_plan_id":"free"},{"bike_id":"77b91254-4355-4107-af11-d921591368e5","system_id":"levelo_inurba_marseille","lat":43.287185,"lon":5.379373,"is_reserved":false,"is_disabled":false,"rental_uris":{"android":"levelo://app?vid=77b91254-4355-4107-af11-d921591368e5","ios":"levelo://app?vid=77b91254-4355-4107-af11-d921591368e5"},"vehicle_type_id":"4","last_reported":1700734049,"current_range_meters":26800,"station_id":"ce4bh9p2rcd13ifvqec0","pricing_plan_id":"free"},{"bike_id":"cb673b3e-9dc4-4ed7-b4ab-c927bddbd96c","system_id":"levelo_inurba_marseille","lat":43.287184,"lon":5.37937,"is_reserved":false,"is_disabled":false,"rental_uris":{"android":"levelo://app?vid=cb673b3e-9dc4-4ed7-b4ab-c927bddbd96c","ios":"levelo://app?vid=cb673b3e-9dc4-4ed7-b4ab-c927bddbd96c"},"vehicle_type_id":"4","last_reported":1700734049,"current_range_meters":22800,"station_id":"ce4bh9p2rcd13ifvqec0","pricing_plan_id":"free"},{"bike_id":"47e7f824-ffc7-4f4f-bf6c-5977b74f27b7","system_id":"levelo_inurba_marseille","lat":43.287185,"lon":5.379373,"is_reserved":false,"is_disabled":false,"rental_uris":{"android":"levelo://app?vid=47e7f824-ffc7-4f4f-bf6c-5977b74f27b7","ios":"levelo://app?vid=47e7f824-ffc7-4f4f-bf6c-5977b74f27b7"},"vehicle_type_id":"4","last_reported":1700734049,"current_range_meters":29600,"station_id":"ce4bh9p2rcd13ifvqec0","pricing_plan_id":"free"},{"bike_id":"adbd441f-44c4-4168-877a-9278b4bd7ceb","system_id":"levelo_inurba_marseille","lat":43.33103,"lon":5.39774,"is_reserved":false,"is_disabled":false,"rental_uris":{"android":"levelo://app?vid=adbd441f-44c4-4168-877a-9278b4bd7ceb","ios":"levelo://app?vid=adbd441f-44c4-4168-877a-9278b4bd7ceb"},"vehicle_type_id":"4","last_reported":1700734049,"current_range_meters":18000,"station_id":"","pricing_plan_id":"free"},{"bike_id":"1a5d79da-9fa8-473d-9715-848a96481b6c","system_id":"levelo_inurba_marseille","lat":43.319179,"lon":5.407725,"is_reserved":false,"is_disabled":false,"rental_uris":{"android":"levelo://app?vid=1a5d79da-9fa8-473d-9715-848a96481b6c","ios":"levelo://app?vid=1a5d79da-9fa8-473d-9715-848a96481b6c"},"vehicle_type_id":"4","last_reported":1700734049,"current_range_meters":21600,"station_id":"ce4bhq12rcd13ifvqhig","pricing_plan_id":"free"},{"bike_id":"3c3a0589-7ae6-4658-a95f-5b2c53ebe3b0","system_id":"levelo_inurba_marseille","lat":43.284736,"lon":5.384255,"is_reserved":false,"is_disabled":false,"rental_uris":{"android":"levelo://app?vid=3c3a0589-7ae6-4658-a95f-5b2c53ebe3b0","ios":"levelo://app?vid=3c3a0589-7ae6-4658-a95f-5b2c53ebe3b0"},"vehicle_type_id":"4","last_reported":1700734049,"current_range_meters":25600,"station_id":"","pricing_plan_id":"free"},{"bike_id":"cc0f85f0-abf1-44bd-828b-7c64b12efc7b","system_id":"levelo_inurba_marseille","lat":43.288501,"lon":5.393087,"is_reserved":false,"is_disabled":false,"rental_uris":{"android":"levelo://app?vid=cc0f85f0-abf1-44bd-828b-7c64b12efc7b","ios":"levelo://app?vid=cc0f85f0-abf1-44bd-828b-7c64b12efc7b"},"vehicle_type_id":"4","last_reported":1700734049,"current_range_meters":15600,"station_id":"ce4bh2p2rcd13ifvqdi0","pricing_plan_id":"free"},{"bike_id":"c524b6f0-d300-4d7f-8b05-7ab70115f61e","system_id":"levelo_inurba_marseille","lat":43.288501,"lon":5.393087,"is_reserved":false,"is_disabled":false,"rental_uris":{"android":"levelo://app?vid=c524b6f0-d300-4d7f-8b05-7ab70115f61e","ios":"levelo://app?vid=c524b6f0-d300-4d7f-8b05-7ab70115f61e"},"vehicle_type_id":"4","last_reported":1700734049,"current_range_meters":26000,"station_id":"ce4bh2p2rcd13ifvqdi0","pricing_plan_id":"free"},{"bike_id":"212b4031-198d-4773-9724-cbf6afd79985","system_id":"levelo_inurba_marseille","lat":43.288501,"lon":5.393087,"is_reserved":false,"is_disabled":false,"rental_uris":{"android":"levelo://app?vid=212b4031-198d-4773-9724-cbf6afd79985","ios":"levelo://app?vid=212b4031-198d-4773-9724-cbf6afd79985"},"vehicle_type_id":"4","last_reported":1700734049,"current_range_meters":29600,"station_id":"ce4bh2p2rcd13ifvqdi0","pricing_plan_id":"free"},{"bike_id":"1c15e00d-1486-4912-98d9-0f92a21b3743","system_id":"levelo_inurba_marseille","lat":43.288501,"lon":5.393087,"is_reserved":false,"is_disabled":false,"rental_uris":{"android":"levelo://app?vid=1c15e00d-1486-4912-98d9-0f92a21b3743","ios":"levelo://app?vid=1c15e00d-1486-4912-98d9-0f92a21b3743"},"vehicle_type_id":"4","last_reported":1700734049,"current_range_meters":20400,"station_id":"ce4bh2p2rcd13ifvqdi0","pricing_plan_id":"free"},{"bike_id":"e2284003-4e46-4e0a-93e7-73d05c3666d9","system_id":"levelo_inurba_marseille","lat":43.334934,"lon":5.398005,"is_reserved":false,"is_disabled":false,"rental_uris":{"android":"levelo://app?vid=e2284003-4e46-4e0a-93e7-73d05c3666d9","ios":"levelo://app?vid=e2284003-4e46-4e0a-93e7-73d05c3666d9"},"vehicle_type_id":"4","last_reported":1700734049,"current_range_meters":26400,"station_id":"","pricing_plan_id":"free"},{"bike_id":"9b25b224-ad2f-47dc-b4c4-f7ab33644d0e","system_id":"levelo_inurba_marseille","lat":43.292724,"lon":5.401131,"is_reserved":false,"is_disabled":false,"rental_uris":{"android":"levelo://app?vid=9b25b224-ad2f-47dc-b4c4-f7ab33644d0e","ios":"levelo://app?vid=9b25b224-ad2f-47dc-b4c4-f7ab33644d0e"},"vehicle_type_id":"4","last_reported":1700734049,"current_range_meters":0,"station_id":"ce4bh312rcd13ifvqdk0","pricing_plan_id":"free"},{"bike_id":"9f406700-c6fa-44c2-b209-2e781c68762e","system_id":"levelo_inurba_marseille","lat":43.28627,"lon":5.39143,"is_reserved":false,"is_disabled":false,"rental_uris":{"android":"levelo://app?vid=9f406700-c6fa-44c2-b209-2e781c68762e","ios":"levelo://app?vid=9f406700-c6fa-44c2-b209-2e781c68762e"},"vehicle_type_id":"4","last_reported":1700734049,"current_range_meters":8800,"station_id":"","pricing_plan_id":"free"},{"bike_id":"a687bf07-1144-4dcd-bdca-9fc12299255f","system_id":"levelo_inurba_marseille","lat":43.282754,"lon":5.350519,"is_reserved":false,"is_disabled":false,"rental_uris":{"android":"levelo://app?vid=a687bf07-1144-4dcd-bdca-9fc12299255f","ios":"levelo://app?vid=a687bf07-1144-4dcd-bdca-9fc12299255f"},"vehicle_type_id":"4","last_reported":1700734049,"current_range_meters":28800,"station_id":"ce4bhbp2rcd13ifvqerg","pricing_plan_id":"free"},{"bike_id":"a9f32973-6256-4e9b-92a5-86f5846d85b0","system_id":"levelo_inurba_marseille","lat":43.282754,"lon":5.350519,"is_reserved":false,"is_disabled":false,"rental_uris":{"android":"levelo://app?vid=a9f32973-6256-4e9b-92a5-86f5846d85b0","ios":"levelo://app?vid=a9f32973-6256-4e9b-92a5-86f5846d85b0"},"vehicle_type_id":"4","last_reported":1700734049,"current_range_meters":11200,"station_id":"ce4bhbp2rcd13ifvqerg","pricing_plan_id":"free"},{"bike_id":"cd525202-7bd9-4c01-98c0-68cc35c70a90","system_id":"levelo_inurba_marseille","lat":43.282744,"lon":5.350533,"is_reserved":false,"is_disabled":false,"rental_uris":{"android":"levelo://app?vid=cd525202-7bd9-4c01-98c0-68cc35c70a90","ios":"levelo://app?vid=cd525202-7bd9-4c01-98c0-68cc35c70a90"},"vehicle_type_id":"4","last_reported":1700734049,"current_range_meters":20400,"station_id":"ce4bhbp2rcd13ifvqerg","pricing_plan_id":"free"},{"bike_id":"4b9bb41f-07c6-4545-9a61-0c6ac84adcdc","system_id":"levelo_inurba_marseille","lat":43.281044,"lon":5.378308,"is_reserved":false,"is_disabled":false,"rental_uris":{"android":"levelo://app?vid=4b9bb41f-07c6-4545-9a61-0c6ac84adcdc","ios":"levelo://app?vid=4b9bb41f-07c6-4545-9a61-0c6ac84adcdc"},"vehicle_type_id":"4","last_reported":1700734049,"current_range_meters":26800,"station_id":"ce4bha12rcd13ifvqee0","pricing_plan_id":"free"},{"bike_id":"18eaedb5-f484-4a44-9a0f-3fea79f015f0","system_id":"levelo_inurba_marseille","lat":43.296263,"lon":5.40601,"is_reserved":false,"is_disabled":false,"rental_uris":{"android":"levelo://app?vid=18eaedb5-f484-4a44-9a0f-3fea79f015f0","ios":"levelo://app?vid=18eaedb5-f484-4a44-9a0f-3fea79f015f0"},"vehicle_type_id":"4","last_reported":1700734049,"current_range_meters":28000,"station_id":"ce4bh0h2rcd13ifvqd60","pricing_plan_id":"free"},{"bike_id":"d143d593-6fb6-4797-85e9-31921309f6ba","system_id":"levelo_inurba_marseille","lat":43.284462,"lon":5.392121,"is_reserved":false,"is_disabled":false,"rental_uris":{"android":"levelo://app?vid=d143d593-6fb6-4797-85e9-31921309f6ba","ios":"levelo://app?vid=d143d593-6fb6-4797-85e9-31921309f6ba"},"vehicle_type_id":"4","last_reported":1700734049,"current_range_meters":27200,"station_id":"ce4bhoh2rcd13ifvqh5g","pricing_plan_id":"free"},{"bike_id":"6e2c2465-4e40-4aae-912b-ca1fbcdf1978","system_id":"levelo_inurba_marseille","lat":43.327331,"lon":5.409331,"is_reserved":false,"is_disabled":false,"rental_uris":{"android":"levelo://app?vid=6e2c2465-4e40-4aae-912b-ca1fbcdf1978","ios":"levelo://app?vid=6e2c2465-4e40-4aae-912b-ca1fbcdf1978"},"vehicle_type_id":"4","last_reported":1700734049,"current_range_meters":0,"station_id":"","pricing_plan_id":"free"},{"bike_id":"8e360a99-579d-498b-8373-2b154126c995","system_id":"levelo_inurba_marseille","lat":43.304188,"lon":5.412904,"is_reserved":false,"is_disabled":false,"rental_uris":{"android":"levelo://app?vid=8e360a99-579d-498b-8373-2b154126c995","ios":"levelo://app?vid=8e360a99-579d-498b-8373-2b154126c995"},"vehicle_type_id":"4","last_reported":1700734049,"current_range_meters":0,"station_id":"ce4bhop2rcd13ifvqh8g","pricing_plan_id":"free"},{"bike_id":"3366fe4e-572e-4d14-ab3d-e1330212dcd9","system_id":"levelo_inurba_marseille","lat":43.30412,"lon":5.412803,"is_reserved":false,"is_disabled":false,"rental_uris":{"android":"levelo://app?vid=3366fe4e-572e-4d14-ab3d-e1330212dcd9","ios":"levelo://app?vid=3366fe4e-572e-4d14-ab3d-e1330212dcd9"},"vehicle_type_id":"4","last_reported":1700734049,"current_range_meters":21600,"station_id":"ce4bhop2rcd13ifvqh8g","pricing_plan_id":"free"},{"bike_id":"f5c7335e-1eb9-4fde-af62-59c5fe511547","system_id":"levelo_inurba_marseille","lat":43.279087,"lon":5.380114,"is_reserved":false,"is_disabled":false,"rental_uris":{"android":"levelo://app?vid=f5c7335e-1eb9-4fde-af62-59c5fe511547","ios":"levelo://app?vid=f5c7335e-1eb9-4fde-af62-59c5fe511547"},"vehicle_type_id":"4","last_reported":1700734049,"current_range_meters":27200,"station_id":"ce4bhf92rcd13ifvqf50","pricing_plan_id":"free"},{"bike_id":"fab00a4d-6022-47e0-96e1-29e9fd808385","system_id":"levelo_inurba_marseille","lat":43.287154,"lon":5.399979,"is_reserved":false,"is_disabled":false,"rental_uris":{"android":"levelo://app?vid=fab00a4d-6022-47e0-96e1-29e9fd808385","ios":"levelo://app?vid=fab00a4d-6022-47e0-96e1-29e9fd808385"},"vehicle_type_id":"4","last_reported":1700734049,"current_range_meters":14400,"station_id":"ce4bho92rcd13ifvqh3g","pricing_plan_id":"free"},{"bike_id":"b1300429-6a20-4968-b3fa-8733204674c4","system_id":"levelo_inurba_marseille","lat":43.287154,"lon":5.399979,"is_reserved":false,"is_disabled":false,"rental_uris":{"android":"levelo://app?vid=b1300429-6a20-4968-b3fa-8733204674c4","ios":"levelo://app?vid=b1300429-6a20-4968-b3fa-8733204674c4"},"vehicle_type_id":"4","last_reported":1700734049,"current_range_meters":6400,"station_id":"ce4bho92rcd13ifvqh3g","pricing_plan_id":"free"},{"bike_id":"a8e2b52b-9ba9-4b70-bcb4-1e1ad46ab6fe","system_id":"levelo_inurba_marseille","lat":43.299579,"lon":5.413255,"is_reserved":false,"is_disabled":false,"rental_uris":{"android":"levelo://app?vid=a8e2b52b-9ba9-4b70-bcb4-1e1ad46ab6fe","ios":"levelo://app?vid=a8e2b52b-9ba9-4b70-bcb4-1e1ad46ab6fe"},"vehicle_type_id":"4","last_reported":1700734049,"current_range_meters":30800,"station_id":"ce4bhp12rcd13ifvqh9g","pricing_plan_id":"free"},{"bike_id":"90a4c456-c89c-48be-ab71-5a1c414e6be5","system_id":"levelo_inurba_marseille","lat":43.320045,"lon":5.415046,"is_reserved":false,"is_disabled":false,"rental_uris":{"android":"levelo://app?vid=90a4c456-c89c-48be-ab71-5a1c414e6be5","ios":"levelo://app?vid=90a4c456-c89c-48be-ab71-5a1c414e6be5"},"vehicle_type_id":"4","last_reported":1700734049,"current_range_meters":26800,"station_id":"ce4bhq92rcd13ifvqhkg","pricing_plan_id":"free"},{"bike_id":"cf7c6503-d761-4e4a-b826-f55f74848caf","system_id":"levelo_inurba_marseille","lat":43.34881,"lon":5.37504,"is_reserved":false,"is_disabled":false,"rental_uris":{"android":"levelo://app?vid=cf7c6503-d761-4e4a-b826-f55f74848caf","ios":"levelo://app?vid=cf7c6503-d761-4e4a-b826-f55f74848caf"},"vehicle_type_id":"4","last_reported":1700734049,"current_range_meters":2000,"station_id":"","pricing_plan_id":"free"},{"bike_id":"04f843cd-71af-4fe8-9edb-4ef523337c4d","system_id":"levelo_inurba_marseille","lat":43.325233,"lon":5.414318,"is_reserved":false,"is_disabled":false,"rental_uris":{"android":"levelo://app?vid=04f843cd-71af-4fe8-9edb-4ef523337c4d","ios":"levelo://app?vid=04f843cd-71af-4fe8-9edb-4ef523337c4d"},"vehicle_type_id":"4","last_reported":1700734049,"current_range_meters":31200,"station_id":"ce4bhq12rcd13ifvqhhg","pricing_plan_id":"free"},{"bike_id":"289c6197-1401-41ea-8f4d-d8cecf043038","system_id":"levelo_inurba_marseille","lat":43.32548,"lon":5.41431,"is_reserved":false,"is_disabled":false,"rental_uris":{"android":"levelo://app?vid=289c6197-1401-41ea-8f4d-d8cecf043038","ios":"levelo://app?vid=289c6197-1401-41ea-8f4d-d8cecf043038"},"vehicle_type_id":"4","last_reported":1700734049,"current_range_meters":13200,"station_id":"ce4bhq12rcd13ifvqhhg","pricing_plan_id":"free"},{"bike_id":"7346f08b-f154-454c-bf68-309edcc3cb5f","system_id":"levelo_inurba_marseille","lat":43.325243,"lon":5.414326,"is_reserved":false,"is_disabled":false,"rental_uris":{"android":"levelo://app?vid=7346f08b-f154-454c-bf68-309edcc3cb5f","ios":"levelo://app?vid=7346f08b-f154-454c-bf68-309edcc3cb5f"},"vehicle_type_id":"4","last_reported":1700734049,"current_range_meters":30400,"station_id":"ce4bhq12rcd13ifvqhhg","pricing_plan_id":"free"},{"bike_id":"ebf10906-3358-4ea1-9acd-7d3a235e122b","system_id":"levelo_inurba_marseille","lat":43.325243,"lon":5.414326,"is_reserved":false,"is_disabled":false,"rental_uris":{"android":"levelo://app?vid=ebf10906-3358-4ea1-9acd-7d3a235e122b","ios":"levelo://app?vid=ebf10906-3358-4ea1-9acd-7d3a235e122b"},"vehicle_type_id":"4","last_reported":1700734049,"current_range_meters":31200,"station_id":"ce4bhq12rcd13ifvqhhg","pricing_plan_id":"free"},{"bike_id":"2b58ba04-70de-4c10-8688-6782d259c560","system_id":"levelo_inurba_marseille","lat":43.325243,"lon":5.414326,"is_reserved":false,"is_disabled":false,"rental_uris":{"android":"levelo://app?vid=2b58ba04-70de-4c10-8688-6782d259c560","ios":"levelo://app?vid=2b58ba04-70de-4c10-8688-6782d259c560"},"vehicle_type_id":"4","last_reported":1700734049,"current_range_meters":28400,"station_id":"ce4bhq12rcd13ifvqhhg","pricing_plan_id":"free"},{"bike_id":"6ee5427f-4b11-4b07-a305-7c673444c240","system_id":"levelo_inurba_marseille","lat":43.2762,"lon":5.3611,"is_reserved":false,"is_disabled":false,"rental_uris":{"android":"levelo://app?vid=6ee5427f-4b11-4b07-a305-7c673444c240","ios":"levelo://app?vid=6ee5427f-4b11-4b07-a305-7c673444c240"},"vehicle_type_id":"4","last_reported":1700734049,"current_range_meters":19600,"station_id":"ce4bgj92rcd13ifvqbe0","pricing_plan_id":"free"},{"bike_id":"95815a27-75f6-4541-ac79-90529f69fee9","system_id":"levelo_inurba_marseille","lat":43.325243,"lon":5.414326,"is_reserved":false,"is_disabled":false,"rental_uris":{"android":"levelo://app?vid=95815a27-75f6-4541-ac79-90529f69fee9","ios":"levelo://app?vid=95815a27-75f6-4541-ac79-90529f69fee9"},"vehicle_type_id":"4","last_reported":1700734049,"current_range_meters":29200,"station_id":"ce4bhq12rcd13ifvqhhg","pricing_plan_id":"free"},{"bike_id":"c7eaa0f5-fd2d-4444-b91b-0eae32b686a1","system_id":"levelo_inurba_marseille","lat":43.325233,"lon":5.414318,"is_reserved":false,"is_disabled":false,"rental_uris":{"android":"levelo://app?vid=c7eaa0f5-fd2d-4444-b91b-0eae32b686a1","ios":"levelo://app?vid=c7eaa0f5-fd2d-4444-b91b-0eae32b686a1"},"vehicle_type_id":"4","last_reported":1700734049,"current_range_meters":24400,"station_id":"ce4bhq12rcd13ifvqhhg","pricing_plan_id":"free"},{"bike_id":"b323615d-e00c-48a6-ae08-035c9129cc4a","system_id":"levelo_inurba_marseille","lat":43.32554,"lon":5.41444,"is_reserved":false,"is_disabled":false,"rental_uris":{"android":"levelo://app?vid=b323615d-e00c-48a6-ae08-035c9129cc4a","ios":"levelo://app?vid=b323615d-e00c-48a6-ae08-035c9129cc4a"},"vehicle_type_id":"4","last_reported":1700734049,"current_range_meters":4800,"station_id":"ce4bhq12rcd13ifvqhhg","pricing_plan_id":"free"},{"bike_id":"2164bddd-b380-4f61-a2ee-3c39ae1b373d","system_id":"levelo_inurba_marseille","lat":43.280784,"lon":5.396622,"is_reserved":false,"is_disabled":false,"rental_uris":{"android":"levelo://app?vid=2164bddd-b380-4f61-a2ee-3c39ae1b373d","ios":"levelo://app?vid=2164bddd-b380-4f61-a2ee-3c39ae1b373d"},"vehicle_type_id":"4","last_reported":1700734049,"current_range_meters":22400,"station_id":"ce4bho12rcd13ifvqh2g","pricing_plan_id":"free"},{"bike_id":"391cce6b-5234-4d9f-9613-ee6d4c8ad557","system_id":"levelo_inurba_marseille","lat":43.273613,"lon":5.362705,"is_reserved":false,"is_disabled":false,"rental_uris":{"android":"levelo://app?vid=391cce6b-5234-4d9f-9613-ee6d4c8ad557","ios":"levelo://app?vid=391cce6b-5234-4d9f-9613-ee6d4c8ad557"},"vehicle_type_id":"4","last_reported":1700734049,"current_range_meters":10000,"station_id":"ce4bhbh2rcd13ifvqeo0","pricing_plan_id":"free"},{"bike_id":"7d57aa56-50d4-4350-9910-302dea93bce6","system_id":"levelo_inurba_marseille","lat":43.273613,"lon":5.362705,"is_reserved":false,"is_disabled":false,"rental_uris":{"android":"levelo://app?vid=7d57aa56-50d4-4350-9910-302dea93bce6","ios":"levelo://app?vid=7d57aa56-50d4-4350-9910-302dea93bce6"},"vehicle_type_id":"4","last_reported":1700734049,"current_range_meters":16400,"station_id":"ce4bhbh2rcd13ifvqeo0","pricing_plan_id":"free"},{"bike_id":"9f91e871-4209-4062-bb25-86623a9f6858","system_id":"levelo_inurba_marseille","lat":43.27373,"lon":5.36258,"is_reserved":false,"is_disabled":false,"rental_uris":{"android":"levelo://app?vid=9f91e871-4209-4062-bb25-86623a9f6858","ios":"levelo://app?vid=9f91e871-4209-4062-bb25-86623a9f6858"},"vehicle_type_id":"4","last_reported":1700734049,"current_range_meters":10000,"station_id":"ce4bhbh2rcd13ifvqeo0","pricing_plan_id":"free"},{"bike_id":"efde4b18-b55f-49f4-8653-0eea2a382185","system_id":"levelo_inurba_marseille","lat":43.275625,"lon":5.384392,"is_reserved":false,"is_disabled":false,"rental_uris":{"android":"levelo://app?vid=efde4b18-b55f-49f4-8653-0eea2a382185","ios":"levelo://app?vid=efde4b18-b55f-49f4-8653-0eea2a382185"},"vehicle_type_id":"4","last_reported":1700734049,"current_range_meters":13200,"station_id":"ce4bhh92rcd13ifvqfi0","pricing_plan_id":"free"},{"bike_id":"e4f4e7cb-aa3b-4ff4-91f7-eddb4e28d105","system_id":"levelo_inurba_marseille","lat":43.273609,"lon":5.362708,"is_reserved":false,"is_disabled":false,"rental_uris":{"android":"levelo://app?vid=e4f4e7cb-aa3b-4ff4-91f7-eddb4e28d105","ios":"levelo://app?vid=e4f4e7cb-aa3b-4ff4-91f7-eddb4e28d105"},"vehicle_type_id":"4","last_reported":1700734049,"current_range_meters":16800,"station_id":"ce4bhbh2rcd13ifvqeo0","pricing_plan_id":"free"},{"bike_id":"72f1e63d-9821-4311-81f5-6894e167dd33","system_id":"levelo_inurba_marseille","lat":43.275625,"lon":5.384392,"is_reserved":false,"is_disabled":false,"rental_uris":{"android":"levelo://app?vid=72f1e63d-9821-4311-81f5-6894e167dd33","ios":"levelo://app?vid=72f1e63d-9821-4311-81f5-6894e167dd33"},"vehicle_type_id":"4","last_reported":1700734049,"current_range_meters":27600,"station_id":"ce4bhh92rcd13ifvqfi0","pricing_plan_id":"free"},{"bike_id":"b8054c6c-29d8-4c47-993f-956c05419bb2","system_id":"levelo_inurba_marseille","lat":43.275625,"lon":5.384392,"is_reserved":false,"is_disabled":false,"rental_uris":{"android":"levelo://app?vid=b8054c6c-29d8-4c47-993f-956c05419bb2","ios":"levelo://app?vid=b8054c6c-29d8-4c47-993f-956c05419bb2"},"vehicle_type_id":"4","last_reported":1700734049,"current_range_meters":28000,"station_id":"ce4bhh92rcd13ifvqfi0","pricing_plan_id":"free"},{"bike_id":"8bae305a-d4be-4734-9596-8c17df6179e3","system_id":"levelo_inurba_marseille","lat":43.275625,"lon":5.384392,"is_reserved":false,"is_disabled":false,"rental_uris":{"android":"levelo://app?vid=8bae305a-d4be-4734-9596-8c17df6179e3","ios":"levelo://app?vid=8bae305a-d4be-4734-9596-8c17df6179e3"},"vehicle_type_id":"4","last_reported":1700734049,"current_range_meters":29200,"station_id":"ce4bhh92rcd13ifvqfi0","pricing_plan_id":"free"},{"bike_id":"93117cd2-2a28-4573-ae09-21f973054cbc","system_id":"levelo_inurba_marseille","lat":43.336134,"lon":5.410341,"is_reserved":false,"is_disabled":false,"rental_uris":{"android":"levelo://app?vid=93117cd2-2a28-4573-ae09-21f973054cbc","ios":"levelo://app?vid=93117cd2-2a28-4573-ae09-21f973054cbc"},"vehicle_type_id":"4","last_reported":1700734049,"current_range_meters":31200,"station_id":"ce4bhqh2rcd13ifvqhmg","pricing_plan_id":"free"},{"bike_id":"f6b922f6-0559-442d-beba-c71a093820cd","system_id":"levelo_inurba_marseille","lat":43.336148,"lon":5.410349,"is_reserved":false,"is_disabled":false,"rental_uris":{"android":"levelo://app?vid=f6b922f6-0559-442d-beba-c71a093820cd","ios":"levelo://app?vid=f6b922f6-0559-442d-beba-c71a093820cd"},"vehicle_type_id":"4","last_reported":1700734049,"current_range_meters":12400,"station_id":"ce4bhqh2rcd13ifvqhmg","pricing_plan_id":"free"},{"bike_id":"36935c13-219f-4767-a1d6-385115a28e5a","system_id":"levelo_inurba_marseille","lat":43.336148,"lon":5.410349,"is_reserved":false,"is_disabled":false,"rental_uris":{"android":"levelo://app?vid=36935c13-219f-4767-a1d6-385115a28e5a","ios":"levelo://app?vid=36935c13-219f-4767-a1d6-385115a28e5a"},"vehicle_type_id":"4","last_reported":1700734049,"current_range_meters":31200,"station_id":"ce4bhqh2rcd13ifvqhmg","pricing_plan_id":"free"},{"bike_id":"95f281ee-80d3-4cdb-953c-5c1c504ed022","system_id":"levelo_inurba_marseille","lat":43.279952,"lon":5.400085,"is_reserved":false,"is_disabled":false,"rental_uris":{"android":"levelo://app?vid=95f281ee-80d3-4cdb-953c-5c1c504ed022","ios":"levelo://app?vid=95f281ee-80d3-4cdb-953c-5c1c504ed022"},"vehicle_type_id":"4","last_reported":1700734049,"current_range_meters":25200,"station_id":"ce4bho92rcd13ifvqh4g","pricing_plan_id":"free"},{"bike_id":"354b9ddc-e602-489c-a4d8-aad3ec754a7a","system_id":"levelo_inurba_marseille","lat":43.31079,"lon":5.42434,"is_reserved":false,"is_disabled":false,"rental_uris":{"android":"levelo://app?vid=354b9ddc-e602-489c-a4d8-aad3ec754a7a","ios":"levelo://app?vid=354b9ddc-e602-489c-a4d8-aad3ec754a7a"},"vehicle_type_id":"4","last_reported":1700734049,"current_range_meters":0,"station_id":"ce4bhp92rcd13ifvqhag","pricing_plan_id":"free"},{"bike_id":"53f83617-2581-46fb-84d9-ddbbc155dbf0","system_id":"levelo_inurba_marseille","lat":43.340804,"lon":5.410219,"is_reserved":false,"is_disabled":false,"rental_uris":{"android":"levelo://app?vid=53f83617-2581-46fb-84d9-ddbbc155dbf0","ios":"levelo://app?vid=53f83617-2581-46fb-84d9-ddbbc155dbf0"},"vehicle_type_id":"4","last_reported":1700734049,"current_range_meters":18800,"station_id":"ce4bhqh2rcd13ifvqhlg","pricing_plan_id":"free"},{"bike_id":"76fa5abf-79a2-4464-8bb6-5e54d877e56d","system_id":"levelo_inurba_marseille","lat":43.340804,"lon":5.410219,"is_reserved":false,"is_disabled":false,"rental_uris":{"android":"levelo://app?vid=76fa5abf-79a2-4464-8bb6-5e54d877e56d","ios":"levelo://app?vid=76fa5abf-79a2-4464-8bb6-5e54d877e56d"},"vehicle_type_id":"4","last_reported":1700734049,"current_range_meters":21200,"station_id":"ce4bhqh2rcd13ifvqhlg","pricing_plan_id":"free"},{"bike_id":"03ebf63d-8006-4f9c-8659-41fb9f27cef7","system_id":"levelo_inurba_marseille","lat":43.340804,"lon":5.410219,"is_reserved":false,"is_disabled":false,"rental_uris":{"android":"levelo://app?vid=03ebf63d-8006-4f9c-8659-41fb9f27cef7","ios":"levelo://app?vid=03ebf63d-8006-4f9c-8659-41fb9f27cef7"},"vehicle_type_id":"4","last_reported":1700734049,"current_range_meters":13200,"station_id":"ce4bhqh2rcd13ifvqhlg","pricing_plan_id":"free"},{"bike_id":"4764a987-9566-4d87-9428-2c8a7a0f362a","system_id":"levelo_inurba_marseille","lat":43.340804,"lon":5.410219,"is_reserved":false,"is_disabled":false,"rental_uris":{"android":"levelo://app?vid=4764a987-9566-4d87-9428-2c8a7a0f362a","ios":"levelo://app?vid=4764a987-9566-4d87-9428-2c8a7a0f362a"},"vehicle_type_id":"4","last_reported":1700734049,"current_range_meters":18000,"station_id":"ce4bhqh2rcd13ifvqhlg","pricing_plan_id":"free"},{"bike_id":"2d000dd4-4316-4444-ac5d-97705b475726","system_id":"levelo_inurba_marseille","lat":43.274099,"lon":5.394019,"is_reserved":false,"is_disabled":false,"rental_uris":{"android":"levelo://app?vid=2d000dd4-4316-4444-ac5d-97705b475726","ios":"levelo://app?vid=2d000dd4-4316-4444-ac5d-97705b475726"},"vehicle_type_id":"4","last_reported":1700734049,"current_range_meters":31200,"station_id":"ce4bhdp2rcd13ifvqf20","pricing_plan_id":"free"},{"bike_id":"aa74c0db-0b71-480d-a0b8-b3dbff53f755","system_id":"levelo_inurba_marseille","lat":43.273129,"lon":5.390725,"is_reserved":false,"is_disabled":false,"rental_uris":{"android":"levelo://app?vid=aa74c0db-0b71-480d-a0b8-b3dbff53f755","ios":"levelo://app?vid=aa74c0db-0b71-480d-a0b8-b3dbff53f755"},"vehicle_type_id":"4","last_reported":1700734049,"current_range_meters":8400,"station_id":"ce4bhgp2rcd13ifvqfe0","pricing_plan_id":"free"},{"bike_id":"db0391d8-7990-45f1-937e-df14d65304fc","system_id":"levelo_inurba_marseille","lat":43.295511,"lon":5.422926,"is_reserved":false,"is_disabled":false,"rental_uris":{"android":"levelo://app?vid=db0391d8-7990-45f1-937e-df14d65304fc","ios":"levelo://app?vid=db0391d8-7990-45f1-937e-df14d65304fc"},"vehicle_type_id":"4","last_reported":1700734049,"current_range_meters":21200,"station_id":"ce4bhph2rcd13ifvqhdg","pricing_plan_id":"free"},{"bike_id":"d1820a73-c82c-4548-962d-9a3cf1995750","system_id":"levelo_inurba_marseille","lat":43.295511,"lon":5.422926,"is_reserved":false,"is_disabled":false,"rental_uris":{"android":"levelo://app?vid=d1820a73-c82c-4548-962d-9a3cf1995750","ios":"levelo://app?vid=d1820a73-c82c-4548-962d-9a3cf1995750"},"vehicle_type_id":"4","last_reported":1700734049,"current_range_meters":24800,"station_id":"ce4bhph2rcd13ifvqhdg","pricing_plan_id":"free"},{"bike_id":"7a645326-08b7-4bf7-b467-7e5ae048a4f8","system_id":"levelo_inurba_marseille","lat":43.272116,"lon":5.391763,"is_reserved":false,"is_disabled":false,"rental_uris":{"android":"levelo://app?vid=7a645326-08b7-4bf7-b467-7e5ae048a4f8","ios":"levelo://app?vid=7a645326-08b7-4bf7-b467-7e5ae048a4f8"},"vehicle_type_id":"4","last_reported":1700734049,"current_range_meters":19200,"station_id":"ce4bhhp2rcd13ifvqfm0","pricing_plan_id":"free"},{"bike_id":"d0bb53f7-f1b8-4609-a668-27efdac67f66","system_id":"levelo_inurba_marseille","lat":43.27191,"lon":5.39245,"is_reserved":false,"is_disabled":false,"rental_uris":{"android":"levelo://app?vid=d0bb53f7-f1b8-4609-a668-27efdac67f66","ios":"levelo://app?vid=d0bb53f7-f1b8-4609-a668-27efdac67f66"},"vehicle_type_id":"4","last_reported":1700734049,"current_range_meters":0,"station_id":"","pricing_plan_id":"free"},{"bike_id":"2cb1361c-c2fb-4220-aea3-8ac642213548","system_id":"levelo_inurba_marseille","lat":43.278083,"lon":5.407089,"is_reserved":false,"is_disabled":false,"rental_uris":{"android":"levelo://app?vid=2cb1361c-c2fb-4220-aea3-8ac642213548","ios":"levelo://app?vid=2cb1361c-c2fb-4220-aea3-8ac642213548"},"vehicle_type_id":"4","last_reported":1700734049,"current_range_meters":19200,"station_id":"ce4bhnh2rcd13ifvqgtg","pricing_plan_id":"free"},{"bike_id":"bbcc153a-9992-465e-959f-f3cca6a8d274","system_id":"levelo_inurba_marseille","lat":43.269467,"lon":5.386439,"is_reserved":false,"is_disabled":false,"rental_uris":{"android":"levelo://app?vid=bbcc153a-9992-465e-959f-f3cca6a8d274","ios":"levelo://app?vid=bbcc153a-9992-465e-959f-f3cca6a8d274"},"vehicle_type_id":"4","last_reported":1700734049,"current_range_meters":26800,"station_id":"ce4bhh92rcd13ifvqfh0","pricing_plan_id":"free"},{"bike_id":"a02378dd-96d2-4550-9b05-47f9dcaf090d","system_id":"levelo_inurba_marseille","lat":43.269467,"lon":5.386439,"is_reserved":false,"is_disabled":false,"rental_uris":{"android":"levelo://app?vid=a02378dd-96d2-4550-9b05-47f9dcaf090d","ios":"levelo://app?vid=a02378dd-96d2-4550-9b05-47f9dcaf090d"},"vehicle_type_id":"4","last_reported":1700734049,"current_range_meters":18000,"station_id":"ce4bhh92rcd13ifvqfh0","pricing_plan_id":"free"},{"bike_id":"eadab77d-198c-4530-9af6-df6b5bed584e","system_id":"levelo_inurba_marseille","lat":43.269467,"lon":5.386439,"is_reserved":false,"is_disabled":false,"rental_uris":{"android":"levelo://app?vid=eadab77d-198c-4530-9af6-df6b5bed584e","ios":"levelo://app?vid=eadab77d-198c-4530-9af6-df6b5bed584e"},"vehicle_type_id":"4","last_reported":1700734049,"current_range_meters":2000,"station_id":"ce4bhh92rcd13ifvqfh0","pricing_plan_id":"free"},{"bike_id":"0eb62063-80c5-43ac-b393-0b5c91d8a3d1","system_id":"levelo_inurba_marseille","lat":43.269467,"lon":5.386439,"is_reserved":false,"is_disabled":false,"rental_uris":{"android":"levelo://app?vid=0eb62063-80c5-43ac-b393-0b5c91d8a3d1","ios":"levelo://app?vid=0eb62063-80c5-43ac-b393-0b5c91d8a3d1"},"vehicle_type_id":"4","last_reported":1700734049,"current_range_meters":26800,"station_id":"ce4bhh92rcd13ifvqfh0","pricing_plan_id":"free"},{"bike_id":"726331a5-381b-412f-81a3-73fe2711066a","system_id":"levelo_inurba_marseille","lat":43.269467,"lon":5.386439,"is_reserved":false,"is_disabled":false,"rental_uris":{"android":"levelo://app?vid=726331a5-381b-412f-81a3-73fe2711066a","ios":"levelo://app?vid=726331a5-381b-412f-81a3-73fe2711066a"},"vehicle_type_id":"4","last_reported":1700734049,"current_range_meters":31200,"station_id":"ce4bhh92rcd13ifvqfh0","pricing_plan_id":"free"},{"bike_id":"f0336b8e-a305-4012-997b-1b0b7500cb9a","system_id":"levelo_inurba_marseille","lat":43.26942,"lon":5.38634,"is_reserved":false,"is_disabled":false,"rental_uris":{"android":"levelo://app?vid=f0336b8e-a305-4012-997b-1b0b7500cb9a","ios":"levelo://app?vid=f0336b8e-a305-4012-997b-1b0b7500cb9a"},"vehicle_type_id":"4","last_reported":1700734049,"current_range_meters":23600,"station_id":"ce4bhh92rcd13ifvqfh0","pricing_plan_id":"free"},{"bike_id":"964667e6-f8e8-42b8-b3c4-a46a34dc2a14","system_id":"levelo_inurba_marseille","lat":43.26963,"lon":5.39256,"is_reserved":false,"is_disabled":false,"rental_uris":{"android":"levelo://app?vid=964667e6-f8e8-42b8-b3c4-a46a34dc2a14","ios":"levelo://app?vid=964667e6-f8e8-42b8-b3c4-a46a34dc2a14"},"vehicle_type_id":"4","last_reported":1700734049,"current_range_meters":12400,"station_id":"","pricing_plan_id":"free"},{"bike_id":"5bef9d0c-1e7e-4847-a32b-8337639c3ca5","system_id":"levelo_inurba_marseille","lat":43.26681,"lon":5.382694,"is_reserved":false,"is_disabled":false,"rental_uris":{"android":"levelo://app?vid=5bef9d0c-1e7e-4847-a32b-8337639c3ca5","ios":"levelo://app?vid=5bef9d0c-1e7e-4847-a32b-8337639c3ca5"},"vehicle_type_id":"4","last_reported":1700734049,"current_range_meters":12000,"station_id":"ce4bhg92rcd13ifvqf90","pricing_plan_id":"free"},{"bike_id":"6c18f74c-e868-4917-8901-ea7e8581741d","system_id":"levelo_inurba_marseille","lat":43.26684,"lon":5.38267,"is_reserved":false,"is_disabled":false,"rental_uris":{"android":"levelo://app?vid=6c18f74c-e868-4917-8901-ea7e8581741d","ios":"levelo://app?vid=6c18f74c-e868-4917-8901-ea7e8581741d"},"vehicle_type_id":"4","last_reported":1700734049,"current_range_meters":18000,"station_id":"ce4bhg92rcd13ifvqf90","pricing_plan_id":"free"},{"bike_id":"31ae49ee-3978-4e05-b73b-c913a6b7b1c1","system_id":"levelo_inurba_marseille","lat":43.26683,"lon":5.3827,"is_reserved":false,"is_disabled":false,"rental_uris":{"android":"levelo://app?vid=31ae49ee-3978-4e05-b73b-c913a6b7b1c1","ios":"levelo://app?vid=31ae49ee-3978-4e05-b73b-c913a6b7b1c1"},"vehicle_type_id":"4","last_reported":1700734049,"current_range_meters":18400,"station_id":"ce4bhg92rcd13ifvqf90","pricing_plan_id":"free"},{"bike_id":"05d8b925-327c-4f31-b490-e7b302c89651","system_id":"levelo_inurba_marseille","lat":43.26683,"lon":5.38271,"is_reserved":false,"is_disabled":false,"rental_uris":{"android":"levelo://app?vid=05d8b925-327c-4f31-b490-e7b302c89651","ios":"levelo://app?vid=05d8b925-327c-4f31-b490-e7b302c89651"},"vehicle_type_id":"4","last_reported":1700734049,"current_range_meters":20000,"station_id":"ce4bhg92rcd13ifvqf90","pricing_plan_id":"free"},{"bike_id":"7e30e4e7-3220-436a-9c85-43c6731c0ca3","system_id":"levelo_inurba_marseille","lat":43.26683,"lon":5.38271,"is_reserved":false,"is_disabled":false,"rental_uris":{"android":"levelo://app?vid=7e30e4e7-3220-436a-9c85-43c6731c0ca3","ios":"levelo://app?vid=7e30e4e7-3220-436a-9c85-43c6731c0ca3"},"vehicle_type_id":"4","last_reported":1700734049,"current_range_meters":20000,"station_id":"ce4bhg92rcd13ifvqf90","pricing_plan_id":"free"},{"bike_id":"27ce5d61-ee73-4565-bdf0-5f8f3201a5e6","system_id":"levelo_inurba_marseille","lat":43.26683,"lon":5.38274,"is_reserved":false,"is_disabled":false,"rental_uris":{"android":"levelo://app?vid=27ce5d61-ee73-4565-bdf0-5f8f3201a5e6","ios":"levelo://app?vid=27ce5d61-ee73-4565-bdf0-5f8f3201a5e6"},"vehicle_type_id":"4","last_reported":1700734049,"current_range_meters":2800,"station_id":"ce4bhg92rcd13ifvqf90","pricing_plan_id":"free"},{"bike_id":"8db7c29e-7357-42df-9373-8c7381809241","system_id":"levelo_inurba_marseille","lat":43.26682,"lon":5.38272,"is_reserved":false,"is_disabled":false,"rental_uris":{"android":"levelo://app?vid=8db7c29e-7357-42df-9373-8c7381809241","ios":"levelo://app?vid=8db7c29e-7357-42df-9373-8c7381809241"},"vehicle_type_id":"4","last_reported":1700734049,"current_range_meters":0,"station_id":"ce4bhg92rcd13ifvqf90","pricing_plan_id":"free"},{"bike_id":"526cd2a2-37f8-45eb-9c91-6a71b182c84f","system_id":"levelo_inurba_marseille","lat":43.2668,"lon":5.38268,"is_reserved":false,"is_disabled":false,"rental_uris":{"android":"levelo://app?vid=526cd2a2-37f8-45eb-9c91-6a71b182c84f","ios":"levelo://app?vid=526cd2a2-37f8-45eb-9c91-6a71b182c84f"},"vehicle_type_id":"4","last_reported":1700734049,"current_range_meters":24400,"station_id":"ce4bhg92rcd13ifvqf90","pricing_plan_id":"free"},{"bike_id":"ec9bb202-232b-4ca7-8388-6ca6f3ab3904","system_id":"levelo_inurba_marseille","lat":43.2668,"lon":5.3827,"is_reserved":false,"is_disabled":false,"rental_uris":{"android":"levelo://app?vid=ec9bb202-232b-4ca7-8388-6ca6f3ab3904","ios":"levelo://app?vid=ec9bb202-232b-4ca7-8388-6ca6f3ab3904"},"vehicle_type_id":"4","last_reported":1700734049,"current_range_meters":29200,"station_id":"ce4bhg92rcd13ifvqf90","pricing_plan_id":"free"},{"bike_id":"1d100b09-c198-44de-a313-73f119100c42","system_id":"levelo_inurba_marseille","lat":43.2668,"lon":5.38276,"is_reserved":false,"is_disabled":false,"rental_uris":{"android":"levelo://app?vid=1d100b09-c198-44de-a313-73f119100c42","ios":"levelo://app?vid=1d100b09-c198-44de-a313-73f119100c42"},"vehicle_type_id":"4","last_reported":1700734049,"current_range_meters":18800,"station_id":"ce4bhg92rcd13ifvqf90","pricing_plan_id":"free"},{"bike_id":"ab1ecf2e-d30a-4376-b39d-d3a4d73d26f5","system_id":"levelo_inurba_marseille","lat":43.26557,"lon":5.37283,"is_reserved":false,"is_disabled":false,"rental_uris":{"android":"levelo://app?vid=ab1ecf2e-d30a-4376-b39d-d3a4d73d26f5","ios":"levelo://app?vid=ab1ecf2e-d30a-4376-b39d-d3a4d73d26f5"},"vehicle_type_id":"4","last_reported":1700734049,"current_range_meters":7200,"station_id":"ce4bhg12rcd13ifvqf70","pricing_plan_id":"free"},{"bike_id":"8ad24fb6-7255-4f55-987d-f912c5ab4fd6","system_id":"levelo_inurba_marseille","lat":43.26681,"lon":5.382694,"is_reserved":false,"is_disabled":false,"rental_uris":{"android":"levelo://app?vid=8ad24fb6-7255-4f55-987d-f912c5ab4fd6","ios":"levelo://app?vid=8ad24fb6-7255-4f55-987d-f912c5ab4fd6"},"vehicle_type_id":"4","last_reported":1700734049,"current_range_meters":29600,"station_id":"ce4bhg92rcd13ifvqf90","pricing_plan_id":"free"},{"bike_id":"4585e029-de4f-4767-8a55-b83e77ddd939","system_id":"levelo_inurba_marseille","lat":43.26556,"lon":5.37283,"is_reserved":false,"is_disabled":false,"rental_uris":{"android":"levelo://app?vid=4585e029-de4f-4767-8a55-b83e77ddd939","ios":"levelo://app?vid=4585e029-de4f-4767-8a55-b83e77ddd939"},"vehicle_type_id":"4","last_reported":1700734049,"current_range_meters":7200,"station_id":"ce4bhg12rcd13ifvqf70","pricing_plan_id":"free"},{"bike_id":"5f6fe231-8687-402c-960d-790de758e194","system_id":"levelo_inurba_marseille","lat":43.26681,"lon":5.382694,"is_reserved":false,"is_disabled":false,"rental_uris":{"android":"levelo://app?vid=5f6fe231-8687-402c-960d-790de758e194","ios":"levelo://app?vid=5f6fe231-8687-402c-960d-790de758e194"},"vehicle_type_id":"4","last_reported":1700734049,"current_range_meters":29600,"station_id":"ce4bhg92rcd13ifvqf90","pricing_plan_id":"free"},{"bike_id":"6d80c712-2bde-477a-8a83-9927cec74d54","system_id":"levelo_inurba_marseille","lat":43.26677,"lon":5.38272,"is_reserved":false,"is_disabled":false,"rental_uris":{"android":"levelo://app?vid=6d80c712-2bde-477a-8a83-9927cec74d54","ios":"levelo://app?vid=6d80c712-2bde-477a-8a83-9927cec74d54"},"vehicle_type_id":"4","last_reported":1700734049,"current_range_meters":28400,"station_id":"ce4bhg92rcd13ifvqf90","pricing_plan_id":"free"},{"bike_id":"34e0b902-2791-4cc7-a869-9055f7c3d80f","system_id":"levelo_inurba_marseille","lat":43.26554,"lon":5.37282,"is_reserved":false,"is_disabled":false,"rental_uris":{"android":"levelo://app?vid=34e0b902-2791-4cc7-a869-9055f7c3d80f","ios":"levelo://app?vid=34e0b902-2791-4cc7-a869-9055f7c3d80f"},"vehicle_type_id":"4","last_reported":1700734049,"current_range_meters":1200,"station_id":"ce4bhg12rcd13ifvqf70","pricing_plan_id":"free"},{"bike_id":"da14e602-6430-4002-9a7a-4cfd35f92ce5","system_id":"levelo_inurba_marseille","lat":43.26554,"lon":5.37285,"is_reserved":false,"is_disabled":false,"rental_uris":{"android":"levelo://app?vid=da14e602-6430-4002-9a7a-4cfd35f92ce5","ios":"levelo://app?vid=da14e602-6430-4002-9a7a-4cfd35f92ce5"},"vehicle_type_id":"4","last_reported":1700734049,"current_range_meters":10800,"station_id":"ce4bhg12rcd13ifvqf70","pricing_plan_id":"free"},{"bike_id":"d9fbc303-21b7-4aef-8b3a-ce653f6e42c0","system_id":"levelo_inurba_marseille","lat":43.265714,"lon":5.372891,"is_reserved":false,"is_disabled":false,"rental_uris":{"android":"levelo://app?vid=d9fbc303-21b7-4aef-8b3a-ce653f6e42c0","ios":"levelo://app?vid=d9fbc303-21b7-4aef-8b3a-ce653f6e42c0"},"vehicle_type_id":"4","last_reported":1700734049,"current_range_meters":14000,"station_id":"ce4bhg12rcd13ifvqf70","pricing_plan_id":"free"},{"bike_id":"28e8ce00-6b21-4e06-9930-c7c4408cc650","system_id":"levelo_inurba_marseille","lat":43.326174,"lon":5.430584,"is_reserved":false,"is_disabled":false,"rental_uris":{"android":"levelo://app?vid=28e8ce00-6b21-4e06-9930-c7c4408cc650","ios":"levelo://app?vid=28e8ce00-6b21-4e06-9930-c7c4408cc650"},"vehicle_type_id":"4","last_reported":1700734049,"current_range_meters":3200,"station_id":"","pricing_plan_id":"free"},{"bike_id":"644427a7-da99-441a-bc9c-0f2cff0bd648","system_id":"levelo_inurba_marseille","lat":43.265714,"lon":5.372891,"is_reserved":false,"is_disabled":false,"rental_uris":{"android":"levelo://app?vid=644427a7-da99-441a-bc9c-0f2cff0bd648","ios":"levelo://app?vid=644427a7-da99-441a-bc9c-0f2cff0bd648"},"vehicle_type_id":"4","last_reported":1700734049,"current_range_meters":28800,"station_id":"ce4bhg12rcd13ifvqf70","pricing_plan_id":"free"},{"bike_id":"2b5f0b27-ae58-4e9e-bd76-c585f78e8a73","system_id":"levelo_inurba_marseille","lat":43.26386,"lon":5.37454,"is_reserved":false,"is_disabled":false,"rental_uris":{"android":"levelo://app?vid=2b5f0b27-ae58-4e9e-bd76-c585f78e8a73","ios":"levelo://app?vid=2b5f0b27-ae58-4e9e-bd76-c585f78e8a73"},"vehicle_type_id":"4","last_reported":1700734049,"current_range_meters":18800,"station_id":"","pricing_plan_id":"free"},{"bike_id":"0f179b60-e300-426b-a461-889fc348eec7","system_id":"levelo_inurba_marseille","lat":43.27001,"lon":5.40113,"is_reserved":false,"is_disabled":false,"rental_uris":{"android":"levelo://app?vid=0f179b60-e300-426b-a461-889fc348eec7","ios":"levelo://app?vid=0f179b60-e300-426b-a461-889fc348eec7"},"vehicle_type_id":"4","last_reported":1700734049,"current_range_meters":26800,"station_id":"cjm6bp8fraef2m0cb0m0","pricing_plan_id":"free"},{"bike_id":"a2efd416-c1ad-4525-85ea-da7decf8aee4","system_id":"levelo_inurba_marseille","lat":43.265876,"lon":5.390509,"is_reserved":false,"is_disabled":false,"rental_uris":{"android":"levelo://app?vid=a2efd416-c1ad-4525-85ea-da7decf8aee4","ios":"levelo://app?vid=a2efd416-c1ad-4525-85ea-da7decf8aee4"},"vehicle_type_id":"4","last_reported":1700734049,"current_range_meters":400,"station_id":"ce4bhe12rcd13ifvqf30","pricing_plan_id":"free"},{"bike_id":"10434b81-71d5-4dcf-af52-cbec2cc92cf8","system_id":"levelo_inurba_marseille","lat":43.261782,"lon":5.374515,"is_reserved":false,"is_disabled":false,"rental_uris":{"android":"levelo://app?vid=10434b81-71d5-4dcf-af52-cbec2cc92cf8","ios":"levelo://app?vid=10434b81-71d5-4dcf-af52-cbec2cc92cf8"},"vehicle_type_id":"4","last_reported":1700734049,"current_range_meters":28400,"station_id":"ce4bhgp2rcd13ifvqfc0","pricing_plan_id":"free"},{"bike_id":"861e94e2-982b-4215-a671-df650b5b6578","system_id":"levelo_inurba_marseille","lat":43.271368,"lon":5.40928,"is_reserved":false,"is_disabled":false,"rental_uris":{"android":"levelo://app?vid=861e94e2-982b-4215-a671-df650b5b6578","ios":"levelo://app?vid=861e94e2-982b-4215-a671-df650b5b6578"},"vehicle_type_id":"4","last_reported":1700734049,"current_range_meters":30400,"station_id":"ce4bhl12rcd13ifvqgf0","pricing_plan_id":"free"},{"bike_id":"860103e4-b3a2-49bf-a852-14e4f54ff085","system_id":"levelo_inurba_marseille","lat":43.27178,"lon":5.40996,"is_reserved":false,"is_disabled":false,"rental_uris":{"android":"levelo://app?vid=860103e4-b3a2-49bf-a852-14e4f54ff085","ios":"levelo://app?vid=860103e4-b3a2-49bf-a852-14e4f54ff085"},"vehicle_type_id":"4","last_reported":1700734049,"current_range_meters":27600,"station_id":"ce4bhl12rcd13ifvqgf0","pricing_plan_id":"free"},{"bike_id":"52b55dc8-c8cc-4913-b197-75376bf1030b","system_id":"levelo_inurba_marseille","lat":43.271388,"lon":5.409269,"is_reserved":false,"is_disabled":false,"rental_uris":{"android":"levelo://app?vid=52b55dc8-c8cc-4913-b197-75376bf1030b","ios":"levelo://app?vid=52b55dc8-c8cc-4913-b197-75376bf1030b"},"vehicle_type_id":"4","last_reported":1700734049,"current_range_meters":28400,"station_id":"ce4bhl12rcd13ifvqgf0","pricing_plan_id":"free"},{"bike_id":"de76b742-87dc-4574-b9f8-fc9a63dfe8c6","system_id":"levelo_inurba_marseille","lat":43.271744,"lon":5.409995,"is_reserved":false,"is_disabled":false,"rental_uris":{"android":"levelo://app?vid=de76b742-87dc-4574-b9f8-fc9a63dfe8c6","ios":"levelo://app?vid=de76b742-87dc-4574-b9f8-fc9a63dfe8c6"},"vehicle_type_id":"4","last_reported":1700734049,"current_range_meters":26800,"station_id":"ce4bhl12rcd13ifvqgf0","pricing_plan_id":"free"},{"bike_id":"c005214f-ef37-42c7-8047-fdaa33a085c7","system_id":"levelo_inurba_marseille","lat":43.271368,"lon":5.40928,"is_reserved":false,"is_disabled":false,"rental_uris":{"android":"levelo://app?vid=c005214f-ef37-42c7-8047-fdaa33a085c7","ios":"levelo://app?vid=c005214f-ef37-42c7-8047-fdaa33a085c7"},"vehicle_type_id":"4","last_reported":1700734049,"current_range_meters":27600,"station_id":"ce4bhl12rcd13ifvqgf0","pricing_plan_id":"free"},{"bike_id":"cb16d7ee-4d8d-44c4-bc7a-142b1234ab63","system_id":"levelo_inurba_marseille","lat":43.31725,"lon":5.43786,"is_reserved":false,"is_disabled":false,"rental_uris":{"android":"levelo://app?vid=cb16d7ee-4d8d-44c4-bc7a-142b1234ab63","ios":"levelo://app?vid=cb16d7ee-4d8d-44c4-bc7a-142b1234ab63"},"vehicle_type_id":"4","last_reported":1700734049,"current_range_meters":0,"station_id":"","pricing_plan_id":"free"},{"bike_id":"81269fc0-b290-46df-9c0f-1be945470061","system_id":"levelo_inurba_marseille","lat":43.260225,"lon":5.375455,"is_reserved":false,"is_disabled":false,"rental_uris":{"android":"levelo://app?vid=81269fc0-b290-46df-9c0f-1be945470061","ios":"levelo://app?vid=81269fc0-b290-46df-9c0f-1be945470061"},"vehicle_type_id":"4","last_reported":1700734049,"current_range_meters":30000,"station_id":"ce4bhgh2rcd13ifvqfa0","pricing_plan_id":"free"},{"bike_id":"f8092372-9b7d-407a-992f-b10f307ff72e","system_id":"levelo_inurba_marseille","lat":43.260219,"lon":5.37546,"is_reserved":false,"is_disabled":false,"rental_uris":{"android":"levelo://app?vid=f8092372-9b7d-407a-992f-b10f307ff72e","ios":"levelo://app?vid=f8092372-9b7d-407a-992f-b10f307ff72e"},"vehicle_type_id":"4","last_reported":1700734049,"current_range_meters":27600,"station_id":"ce4bhgh2rcd13ifvqfa0","pricing_plan_id":"free"},{"bike_id":"0b653533-6355-4edd-a380-94fa4a174998","system_id":"levelo_inurba_marseille","lat":43.260225,"lon":5.375455,"is_reserved":false,"is_disabled":false,"rental_uris":{"android":"levelo://app?vid=0b653533-6355-4edd-a380-94fa4a174998","ios":"levelo://app?vid=0b653533-6355-4edd-a380-94fa4a174998"},"vehicle_type_id":"4","last_reported":1700734049,"current_range_meters":1200,"station_id":"ce4bhgh2rcd13ifvqfa0","pricing_plan_id":"free"},{"bike_id":"b3f610bc-642e-4970-aac1-60f0cfd1d9c7","system_id":"levelo_inurba_marseille","lat":43.260219,"lon":5.37546,"is_reserved":false,"is_disabled":false,"rental_uris":{"android":"levelo://app?vid=b3f610bc-642e-4970-aac1-60f0cfd1d9c7","ios":"levelo://app?vid=b3f610bc-642e-4970-aac1-60f0cfd1d9c7"},"vehicle_type_id":"4","last_reported":1700734049,"current_range_meters":31200,"station_id":"ce4bhgh2rcd13ifvqfa0","pricing_plan_id":"free"},{"bike_id":"1e9cb695-42eb-4b5e-8388-26154ce9fc52","system_id":"levelo_inurba_marseille","lat":43.260219,"lon":5.37546,"is_reserved":false,"is_disabled":false,"rental_uris":{"android":"levelo://app?vid=1e9cb695-42eb-4b5e-8388-26154ce9fc52","ios":"levelo://app?vid=1e9cb695-42eb-4b5e-8388-26154ce9fc52"},"vehicle_type_id":"4","last_reported":1700734049,"current_range_meters":15200,"station_id":"ce4bhgh2rcd13ifvqfa0","pricing_plan_id":"free"},{"bike_id":"0d12e84c-f9d7-4691-b4b4-e2f9dd52370c","system_id":"levelo_inurba_marseille","lat":43.2607,"lon":5.393983,"is_reserved":false,"is_disabled":false,"rental_uris":{"android":"levelo://app?vid=0d12e84c-f9d7-4691-b4b4-e2f9dd52370c","ios":"levelo://app?vid=0d12e84c-f9d7-4691-b4b4-e2f9dd52370c"},"vehicle_type_id":"4","last_reported":1700734049,"current_range_meters":14000,"station_id":"ce4bhh92rcd13ifvqfj0","pricing_plan_id":"free"},{"bike_id":"4089c0fd-abcc-4017-8069-a09b41ffc9ed","system_id":"levelo_inurba_marseille","lat":43.275028,"lon":5.424534,"is_reserved":false,"is_disabled":false,"rental_uris":{"android":"levelo://app?vid=4089c0fd-abcc-4017-8069-a09b41ffc9ed","ios":"levelo://app?vid=4089c0fd-abcc-4017-8069-a09b41ffc9ed"},"vehicle_type_id":"4","last_reported":1700734049,"current_range_meters":22000,"station_id":"ce4bhn92rcd13ifvqgrg","pricing_plan_id":"free"},{"bike_id":"87e2af8b-d138-4539-882a-885a80840281","system_id":"levelo_inurba_marseille","lat":43.275028,"lon":5.424534,"is_reserved":false,"is_disabled":false,"rental_uris":{"android":"levelo://app?vid=87e2af8b-d138-4539-882a-885a80840281","ios":"levelo://app?vid=87e2af8b-d138-4539-882a-885a80840281"},"vehicle_type_id":"4","last_reported":1700734049,"current_range_meters":400,"station_id":"ce4bhn92rcd13ifvqgrg","pricing_plan_id":"free"},{"bike_id":"7371b4a1-8251-4e69-849c-dce668ffc81f","system_id":"levelo_inurba_marseille","lat":43.275028,"lon":5.424534,"is_reserved":false,"is_disabled":false,"rental_uris":{"android":"levelo://app?vid=7371b4a1-8251-4e69-849c-dce668ffc81f","ios":"levelo://app?vid=7371b4a1-8251-4e69-849c-dce668ffc81f"},"vehicle_type_id":"4","last_reported":1700734049,"current_range_meters":22800,"station_id":"ce4bhn92rcd13ifvqgrg","pricing_plan_id":"free"},{"bike_id":"05e3f246-14c4-42ea-94f0-7f5edda1edc8","system_id":"levelo_inurba_marseille","lat":43.275028,"lon":5.424534,"is_reserved":false,"is_disabled":false,"rental_uris":{"android":"levelo://app?vid=05e3f246-14c4-42ea-94f0-7f5edda1edc8","ios":"levelo://app?vid=05e3f246-14c4-42ea-94f0-7f5edda1edc8"},"vehicle_type_id":"4","last_reported":1700734049,"current_range_meters":10400,"station_id":"ce4bhn92rcd13ifvqgrg","pricing_plan_id":"free"},{"bike_id":"4929c3f9-28dd-448f-8dcb-c2828ff58157","system_id":"levelo_inurba_marseille","lat":43.275028,"lon":5.424534,"is_reserved":false,"is_disabled":false,"rental_uris":{"android":"levelo://app?vid=4929c3f9-28dd-448f-8dcb-c2828ff58157","ios":"levelo://app?vid=4929c3f9-28dd-448f-8dcb-c2828ff58157"},"vehicle_type_id":"4","last_reported":1700734049,"current_range_meters":23600,"station_id":"ce4bhn92rcd13ifvqgrg","pricing_plan_id":"free"},{"bike_id":"8892a09c-3cd4-4bf8-8dc3-aa211792adec","system_id":"levelo_inurba_marseille","lat":43.275028,"lon":5.424534,"is_reserved":false,"is_disabled":false,"rental_uris":{"android":"levelo://app?vid=8892a09c-3cd4-4bf8-8dc3-aa211792adec","ios":"levelo://app?vid=8892a09c-3cd4-4bf8-8dc3-aa211792adec"},"vehicle_type_id":"4","last_reported":1700734049,"current_range_meters":22000,"station_id":"ce4bhn92rcd13ifvqgrg","pricing_plan_id":"free"},{"bike_id":"0b943efe-8fc7-4591-97cf-7ac81ccc7892","system_id":"levelo_inurba_marseille","lat":43.275028,"lon":5.424534,"is_reserved":false,"is_disabled":false,"rental_uris":{"android":"levelo://app?vid=0b943efe-8fc7-4591-97cf-7ac81ccc7892","ios":"levelo://app?vid=0b943efe-8fc7-4591-97cf-7ac81ccc7892"},"vehicle_type_id":"4","last_reported":1700734049,"current_range_meters":27600,"station_id":"ce4bhn92rcd13ifvqgrg","pricing_plan_id":"free"},{"bike_id":"6e7613d8-87ad-44c3-aa6f-2d6c01c9bbb0","system_id":"levelo_inurba_marseille","lat":43.275028,"lon":5.424534,"is_reserved":false,"is_disabled":false,"rental_uris":{"android":"levelo://app?vid=6e7613d8-87ad-44c3-aa6f-2d6c01c9bbb0","ios":"levelo://app?vid=6e7613d8-87ad-44c3-aa6f-2d6c01c9bbb0"},"vehicle_type_id":"4","last_reported":1700734049,"current_range_meters":20000,"station_id":"ce4bhn92rcd13ifvqgrg","pricing_plan_id":"free"},