{"last_updated":1743879986,"ttl":60,"version":"2.2","data":{"bikes":[{"bike_id":"a456bd07-02b6-493a-9cae-b8d506cf202a","system_id":"levelo_inurba_marseille","lat":43.29864,"lon":5.39724,"is_reserved":false,"is_disabled":false,"rental_uris":{"android":"levelo://app?vid=a456bd07-02b6-493a-9cae-b8d506cf202a","ios":"levelo://app?vid=a456bd07-02b6-493a-9cae-b8d506cf202a"},"vehicle_type_id":"4","last_reported":1743879987,"current_range_meters":2800,"station_id":"ce4bh0h2rcd13ifvqd50","pricing_plan_id":"cebpf4jnsgd1na2vs0mg"},{"bike_id":"2947ce29-c55a-4f00-b57b-cb647d290c55","system_id":"levelo_inurba_marseille","lat":43.24819,"lon":5.37456,"is_reserved":false,"is_disabled":true,"rental_uris":{"android":"levelo://app?vid=2947ce29-c55a-4f00-b57b-cb647d290c55","ios":"levelo://app?vid=2947ce29-c55a-4f00-b57b-cb647d290c55"},"vehicle_type_id":"4","last_reported":1743879987,"current_range_meters":2800,"station_id":"ce4bhgh2rcd13ifvqfb0","pricing_plan_id":"cebpf4jnsgd1na2vs0mg"},{"bike_id":"a59df794-1317-4271-bff0-e726ed93a0d6","system_id":"levelo_inurba_marseille","lat":43.30662,"lon":5.4009,"is_reserved":false,"is_disabled":false,"rental_uris":{"android":"levelo://app?vid=a59df794-1317-4271-bff0-e726ed93a0d6","ios":"levelo://app?vid=a59df794-1317-4271-bff0-e726ed93a0d6"},"vehicle_type_id":"4","last_reported":1743879987,"current_range_meters":2800,"station_id":"ce4bh112rcd13ifvqda0","pricing_plan_id":"cebpf4jnsgd1na2vs0mg"},{"bike_id":"ac2c70e4-85e0-48f2-8e15-e23e948cc8ee","system_id":"levelo_inurba_marseille","lat":43.2847,"lon":5.38416,"is_reserved":false,"is_disabled":false,"rental_uris":{"android":"levelo://app?vid=ac2c70e4-85e0-48f2-8e15-e23e948cc8ee","ios":"levelo://app?vid=ac2c70e4-85e0-48f2-8e15-e23e948cc8ee"},"vehicle_type_id":"4","last_reported":1743879987,"current_range_meters":2800,"station_id":"ce4bh512rcd13ifvqe3g","pricing_plan_id":"cebpf4jnsgd1na2vs0mg"},{"bike_id":"4475fc07-06c7-4833-8221-0ef2fb7f4872","system_id":"levelo_inurba_marseille","lat":43.27999,"lon":5.400143,"is_reserved":false,"is_disabled":false,"rental_uris":{"android":"levelo://app?vid=4475fc07-06c7-4833-8221-0ef2fb7f4872","ios":"levelo://app?vid=4475fc07-06c7-4833-8221-0ef2fb7f4872"},"vehicle_type_id":"4","last_reported":1743879987,"current_range_meters":2800,"station_id":"","pricing_plan_id":"cebpf4jnsgd1na2vs0mg"},{"bike_id":"0f3f1e7e-3afe-4ea2-9d0e-6a9dda0edd3d","system_id":"levelo_inurba_marseille","lat":43.28418,"lon":5.37529,"is_reserved":false,"is_disabled":false,"rental_uris":{"android":"levelo://app?vid=0f3f1e7e-3afe-4ea2-9d0e-6a9dda0edd3d","ios":"levelo://app?vid=0f3f1e7e-3afe-4ea2-9d0e-6a9dda0edd3d"},"vehicle_type_id":"4","last_reported":1743879987,"current_range_meters":2800,"station_id":"ce4bh412rcd13ifvqds0","pricing_plan_id":"cebpf4jnsgd1na2vs0mg"},{"bike_id":"76792c4e-bf7b-44b6-9778-c278d5b3c934","system_id":"levelo_inurba_marseille","lat":43.290405,"lon":5.35678,"is_reserved":false,"is_disabled":false,"rental_uris":{"android":"levelo://app?vid=76792c4e-bf7b-44b6-9778-c278d5b3c934","ios":"levelo://app?vid=76792c4e-bf7b-44b6-9778-c278d5b3c934"},"vehicle_type_id":"4","last_reported":1743879987,"current_range_meters":2000,"station_id":"ce4bh9p2rcd13ifvqed0","pricing_plan_id":"cebpf4jnsgd1na2vs0mg"},{"bike_id":"9363101d-8942-48f6-a4a9-4c2d66b77061","system_id":"levelo_inurba_marseille","lat":43.292674,"lon":5.384498,"is_reserved":false,"is_disabled":false,"rental_uris":{"android":"levelo://app?vid=9363101d-8942-48f6-a4a9-4c2d66b77061","ios":"levelo://app?vid=9363101d-8942-48f6-a4a9-4c2d66b77061"},"vehicle_type_id":"4","last_reported":1743879987,"current_range_meters":2800,"station_id":"ce4bh692rcd13ifvqea0","pricing_plan_id":"cebpf4jnsgd1na2vs0mg"},{"bike_id":"f7369515-3bb9-444d-ab7f-458606ef5c15","system_id":"levelo_inurba_marseille","lat":43.30094,"lon":5.39075,"is_reserved":false,"is_disabled":false,"rental_uris":{"android":"levelo://app?vid=f7369515-3bb9-444d-ab7f-458606ef5c15","ios":"levelo://app?vid=f7369515-3bb9-444d-ab7f-458606ef5c15"},"vehicle_type_id":"4","last_reported":1743879987,"current_range_meters":2800,"station_id":"ce4bh192rcd13ifvqdb0","pricing_plan_id":"cebpf4jnsgd1na2vs0mg"},{"bike_id":"00696f69-728d-4a97-aa42-ca5cb2fccef2","system_id":"levelo_inurba_marseille","lat":43.26677,"lon":5.38268,"is_reserved":false,"is_disabled":false,"rental_uris":{"android":"levelo://app?vid=00696f69-728d-4a97-aa42-ca5cb2fccef2","ios":"levelo://app?vid=00696f69-728d-4a97-aa42-ca5cb2fccef2"},"vehicle_type_id":"4","last_reported":1743879987,"current_range_meters":2800,"station_id":"ce4bhg92rcd13ifvqf90","pricing_plan_id":"cebpf4jnsgd1na2vs0mg"},{"bike_id":"b21f9fa2-c836-438e-873f-1ff321a5d147","system_id":"levelo_inurba_marseille","lat":43.31683,"lon":5.40466,"is_reserved":false,"is_disabled":false,"rental_uris":{"android":"levelo://app?vid=b21f9fa2-c836-438e-873f-1ff321a5d147","ios":"levelo://app?vid=b21f9fa2-c836-438e-873f-1ff321a5d147"},"vehicle_type_id":"4","last_reported":1743879987,"current_range_meters":2800,"station_id":"ce4bh012rcd13ifvqd00","pricing_plan_id":"cebpf4jnsgd1na2vs0mg"},{"bike_id":"e0683499-ce1c-4302-b97d-87ed014c111c","system_id":"levelo_inurba_marseille","lat":43.25506,"lon":5.37659,"is_reserved":false,"is_disabled":false,"rental_uris":{"android":"levelo://app?vid=e0683499-ce1c-4302-b97d-87ed014c111c","ios":"levelo://app?vid=e0683499-ce1c-4302-b97d-87ed014c111c"},"vehicle_type_id":"4","last_reported":1743879987,"current_range_meters":2800,"station_id":"ce4bhh12rcd13ifvqff0","pricing_plan_id":"cebpf4jnsgd1na2vs0mg"},{"bike_id":"b1175266-a766-4f74-89fa-42782a5acf60","system_id":"levelo_inurba_marseille","lat":43.29417,"lon":5.38627,"is_reserved":false,"is_disabled":false,"rental_uris":{"android":"levelo://app?vid=b1175266-a766-4f74-89fa-42782a5acf60","ios":"levelo://app?vid=b1175266-a766-4f74-89fa-42782a5acf60"},"vehicle_type_id":"4","last_reported":1743879987,"current_range_meters":3200,"station_id":"ce4bh2h2rcd13ifvqdh0","pricing_plan_id":"cebpf4jnsgd1na2vs0mg"},{"bike_id":"b62e109c-cada-4115-9923-c6260cc139c3","system_id":"levelo_inurba_marseille","lat":43.28564,"lon":5.39492,"is_reserved":false,"is_disabled":false,"rental_uris":{"android":"levelo://app?vid=b62e109c-cada-4115-9923-c6260cc139c3","ios":"levelo://app?vid=b62e109c-cada-4115-9923-c6260cc139c3"},"vehicle_type_id":"4","last_reported":1743879987,"current_range_meters":3200,"station_id":"ce4bh292rcd13ifvqdg0","pricing_plan_id":"cebpf4jnsgd1na2vs0mg"},{"bike_id":"53333ec4-6f4a-40c8-9e09-05a6b6dda7a8","system_id":"levelo_inurba_marseille","lat":43.24817,"lon":5.37462,"is_reserved":false,"is_disabled":false,"rental_uris":{"android":"levelo://app?vid=53333ec4-6f4a-40c8-9e09-05a6b6dda7a8","ios":"levelo://app?vid=53333ec4-6f4a-40c8-9e09-05a6b6dda7a8"},"vehicle_type_id":"4","last_reported":1743879987,"current_range_meters":3200,"station_id":"ce4bhgh2rcd13ifvqfb0","pricing_plan_id":"cebpf4jnsgd1na2vs0mg"},{"bike_id":"e7f90cba-219a-4c12-800a-229dd7f06b7d","system_id":"levelo_inurba_marseille","lat":43.25113,"lon":5.40321,"is_reserved":false,"is_disabled":false,"rental_uris":{"android":"levelo://app?vid=e7f90cba-219a-4c12-800a-229dd7f06b7d","ios":"levelo://app?vid=e7f90cba-219a-4c12-800a-229dd7f06b7d"},"vehicle_type_id":"4","last_reported":1743879987,"current_range_meters":3200,"station_id":"ce4bhlh2rcd13ifvqgig","pricing_plan_id":"cebpf4jnsgd1na2vs0mg"},{"bike_id":"6d605c61-05c9-4c92-892c-0bd54fbaee0e","system_id":"levelo_inurba_marseille","lat":43.27173,"lon":5.40991,"is_reserved":false,"is_disabled":false,"rental_uris":{"android":"levelo://app?vid=6d605c61-05c9-4c92-892c-0bd54fbaee0e","ios":"levelo://app?vid=6d605c61-05c9-4c92-892c-0bd54fbaee0e"},"vehicle_type_id":"4","last_reported":1743879987,"current_range_meters":3200,"station_id":"ce4bhl12rcd13ifvqgf0","pricing_plan_id":"cebpf4jnsgd1na2vs0mg"},{"bike_id":"2dd2ca3d-4991-4739-a46f-831a32895452","system_id":"levelo_inurba_marseille","lat":43.29126,"lon":5.35573,"is_reserved":false,"is_disabled":true,"rental_uris":{"android":"levelo://app?vid=2dd2ca3d-4991-4739-a46f-831a32895452","ios":"levelo://app?vid=2dd2ca3d-4991-4739-a46f-831a32895452"},"vehicle_type_id":"4","last_reported":1743879987,"current_range_meters":3200,"station_id":"","pricing_plan_id":"cebpf4jnsgd1na2vs0mg"},{"bike_id":"694c2e4b-ec0f-48df-b949-bdc6b246fff5","system_id":"levelo_inurba_marseille","lat":43.29871,"lon":5.38846,"is_reserved":false,"is_disabled":false,"rental_uris":{"android":"levelo://app?vid=694c2e4b-ec0f-48df-b949-bdc6b246fff5","ios":"levelo://app?vid=694c2e4b-ec0f-48df-b949-bdc6b246fff5"},"vehicle_type_id":"4","last_reported":1743879987,"current_range_meters":3200,"station_id":"ce4bh392rcd13ifvqdl0","pricing_plan_id":"cebpf4jnsgd1na2vs0mg"},{"bike_id":"11e8aaf4-958e-4859-a1f2-0cb935b6b604","system_id":"levelo_inurba_marseille","lat":43.29553,"lon":5.42294,"is_reserved":false,"is_disabled":false,"rental_uris":{"android":"levelo://app?vid=11e8aaf4-958e-4859-a1f2-0cb935b6b604","ios":"levelo://app?vid=11e8aaf4-958e-4859-a1f2-0cb935b6b604"},"vehicle_type_id":"4","last_reported":1743879987,"current_range_meters":2800,"station_id":"ce4bhph2rcd13ifvqhdg","pricing_plan_id":"cebpf4jnsgd1na2vs0mg"},{"bike_id":"fed25cf4-7be8-408e-848d-a778b08cb7e9","system_id":"levelo_inurba_marseille","lat":43.29896,"lon":5.43661,"is_reserved":false,"is_disabled":false,"rental_uris":{"android":"levelo://app?vid=fed25cf4-7be8-408e-848d-a778b08cb7e9","ios":"levelo://app?vid=fed25cf4-7be8-408e-848d-a778b08cb7e9"},"vehicle_type_id":"4","last_reported":1743879987,"current_range_meters":3200,"station_id":"ce4bhpp2rcd13ifvqhfg","pricing_plan_id":"cebpf4jnsgd1na2vs0mg"},{"bike_id":"fccdc390-177d-4d65-ad1d-6a4ce9edd117","system_id":"levelo_inurba_marseille","lat":43.278348,"lon":5.392134,"is_reserved":false,"is_disabled":false,"rental_uris":{"android":"levelo://app?vid=fccdc390-177d-4d65-ad1d-6a4ce9edd117","ios":"levelo://app?vid=fccdc390-177d-4d65-ad1d-6a4ce9edd117"},"vehicle_type_id":"4","last_reported":1743879987,"current_range_meters":3200,"station_id":"ce4bhjp2rcd13ifvqga0","pricing_plan_id":"cebpf4jnsgd1na2vs0mg"},{"bike_id":"03aa64df-a702-470e-b415-3d3db662f499","system_id":"levelo_inurba_marseille","lat":43.2989,"lon":5.38891,"is_reserved":false,"is_disabled":false,"rental_uris":{"android":"levelo://app?vid=03aa64df-a702-470e-b415-3d3db662f499","ios":"levelo://app?vid=03aa64df-a702-470e-b415-3d3db662f499"},"vehicle_type_id":"4","last_reported":1743879987,"current_range_meters":3200,"station_id":"ce4bh392rcd13ifvqdl0","pricing_plan_id":"cebpf4jnsgd1na2vs0mg"},{"bike_id":"779d062d-0026-4168-88e3-d88b9438c33b","system_id":"levelo_inurba_marseille","lat":43.26569,"lon":5.39,"is_reserved":false,"is_disabled":false,"rental_uris":{"android":"levelo://app?vid=779d062d-0026-4168-88e3-d88b9438c33b","ios":"levelo://app?vid=779d062d-0026-4168-88e3-d88b9438c33b"},"vehicle_type_id":"4","last_reported":1743879987,"current_range_meters":3200,"station_id":"ce4bhe12rcd13ifvqf30","pricing_plan_id":"cebpf4jnsgd1na2vs0mg"},{"bike_id":"69a3087e-9787-491f-ab96-6653116743ae","system_id":"levelo_inurba_marseille","lat":43.29984,"lon":5.37184,"is_reserved":false,"is_disabled":false,"rental_uris":{"android":"levelo://app?vid=69a3087e-9787-491f-ab96-6653116743ae","ios":"levelo://app?vid=69a3087e-9787-491f-ab96-6653116743ae"},"vehicle_type_id":"4","last_reported":1743879987,"current_range_meters":3600,"station_id":"ce4bgr92rcd13ifvqc7g","pricing_plan_id":"cebpf4jnsgd1na2vs0mg"},{"bike_id":"30dce79f-4f22-43a8-b4f5-6561b6e81cc5","system_id":"levelo_inurba_marseille","lat":43.31269,"lon":5.40162,"is_reserved":false,"is_disabled":false,"rental_uris":{"android":"levelo://app?vid=30dce79f-4f22-43a8-b4f5-6561b6e81cc5","ios":"levelo://app?vid=30dce79f-4f22-43a8-b4f5-6561b6e81cc5"},"vehicle_type_id":"4","last_reported":1743879987,"current_range_meters":3600,"station_id":"ce4bh092rcd13ifvqd30","pricing_plan_id":"cebpf4jnsgd1na2vs0mg"},{"bike_id":"88a9d37f-fd8f-44ca-9617-df8990416c5d","system_id":"levelo_inurba_marseille","lat":43.28459,"lon":5.38578,"is_reserved":false,"is_disabled":false,"rental_uris":{"android":"levelo://app?vid=88a9d37f-fd8f-44ca-9617-df8990416c5d","ios":"levelo://app?vid=88a9d37f-fd8f-44ca-9617-df8990416c5d"},"vehicle_type_id":"4","last_reported":1743879987,"current_range_meters":3600,"station_id":"ce4bh8p2rcd13ifvqeb0","pricing_plan_id":"cebpf4jnsgd1na2vs0mg"},{"bike_id":"86895fcb-42a7-4019-892c-3e27366266f1","system_id":"levelo_inurba_marseille","lat":43.25009,"lon":5.38912,"is_reserved":false,"is_disabled":false,"rental_uris":{"android":"levelo://app?vid=86895fcb-42a7-4019-892c-3e27366266f1","ios":"levelo://app?vid=86895fcb-42a7-4019-892c-3e27366266f1"},"vehicle_type_id":"4","last_reported":1743879987,"current_range_meters":3600,"station_id":"ce4bhgp2rcd13ifvqfd0","pricing_plan_id":"cebpf4jnsgd1na2vs0mg"},{"bike_id":"9aa37857-bb73-4e83-9644-913bdd187f4f","system_id":"levelo_inurba_marseille","lat":43.31734,"lon":5.40388,"is_reserved":false,"is_disabled":false,"rental_uris":{"android":"levelo://app?vid=9aa37857-bb73-4e83-9644-913bdd187f4f","ios":"levelo://app?vid=9aa37857-bb73-4e83-9644-913bdd187f4f"},"vehicle_type_id":"4","last_reported":1743879987,"current_range_meters":3600,"station_id":"","pricing_plan_id":"cebpf4jnsgd1na2vs0mg"},{"bike_id":"9afb3cfb-3b7c-44be-a311-f0ffb827c807","system_id":"levelo_inurba_marseille","lat":43.24805,"lon":5.37457,"is_reserved":false,"is_disabled":false,"rental_uris":{"android":"levelo://app?vid=9afb3cfb-3b7c-44be-a311-f0ffb827c807","ios":"levelo://app?vid=9afb3cfb-3b7c-44be-a311-f0ffb827c807"},"vehicle_type_id":"4","last_reported":1743879987,"current_range_meters":3600,"station_id":"ce4bhgh2rcd13ifvqfb0","pricing_plan_id":"cebpf4jnsgd1na2vs0mg"},{"bike_id":"47527809-fe89-4ffe-9f71-306032e5010b","system_id":"levelo_inurba_marseille","lat":43.30868,"lon":5.39645,"is_reserved":false,"is_disabled":false,"rental_uris":{"android":"levelo://app?vid=47527809-fe89-4ffe-9f71-306032e5010b","ios":"levelo://app?vid=47527809-fe89-4ffe-9f71-306032e5010b"},"vehicle_type_id":"4","last_reported":1743879987,"current_range_meters":3600,"station_id":"ce4bh012rcd13ifvqcv0","pricing_plan_id":"cebpf4jnsgd1na2vs0mg"},{"bike_id":"6750b0ef-859d-4ecf-9437-1109239d7b08","system_id":"levelo_inurba_marseille","lat":43.28701,"lon":5.37409,"is_reserved":false,"is_disabled":false,"rental_uris":{"android":"levelo://app?vid=6750b0ef-859d-4ecf-9437-1109239d7b08","ios":"levelo://app?vid=6750b0ef-859d-4ecf-9437-1109239d7b08"},"vehicle_type_id":"4","last_reported":1743879987,"current_range_meters":3600,"station_id":"ce4bh3p2rcd13ifvqdq0","pricing_plan_id":"cebpf4jnsgd1na2vs0mg"},{"bike_id":"ff4b6b05-2d89-43ed-b4a9-d26a3fa632fb","system_id":"levelo_inurba_marseille","lat":43.30424,"lon":5.38884,"is_reserved":false,"is_disabled":false,"rental_uris":{"android":"levelo://app?vid=ff4b6b05-2d89-43ed-b4a9-d26a3fa632fb","ios":"levelo://app?vid=ff4b6b05-2d89-43ed-b4a9-d26a3fa632fb"},"vehicle_type_id":"4","last_reported":1743879987,"current_range_meters":3200,"station_id":"ce4bgk12rcd13ifvqbi0","pricing_plan_id":"cebpf4jnsgd1na2vs0mg"},{"bike_id":"ae40b1e0-6383-4acf-8389-5599dc54e4ce","system_id":"levelo_inurba_marseille","lat":43.23962,"lon":5.36638,"is_reserved":false,"is_disabled":false,"rental_uris":{"android":"levelo://app?vid=ae40b1e0-6383-4acf-8389-5599dc54e4ce","ios":"levelo://app?vid=ae40b1e0-6383-4acf-8389-5599dc54e4ce"},"vehicle_type_id":"4","last_reported":1743879987,"current_range_meters":4000,"station_id":"ce4bhi12rcd13ifvqfp0","pricing_plan_id":"cebpf4jnsgd1na2vs0mg"},{"bike_id":"752cdfbf-acc6-41c2-9220-4c6355bacca6","system_id":"levelo_inurba_marseille","lat":43.28457,"lon":5.35887,"is_reserved":false,"is_disabled":false,"rental_uris":{"android":"levelo://app?vid=752cdfbf-acc6-41c2-9220-4c6355bacca6","ios":"levelo://app?vid=752cdfbf-acc6-41c2-9220-4c6355bacca6"},"vehicle_type_id":"4","last_reported":1743879987,"current_range_meters":4000,"station_id":"ce4bhah2rcd13ifvqei0","pricing_plan_id":"cebpf4jnsgd1na2vs0mg"},{"bike_id":"84bc21c6-655f-4fe0-a1e6-5a0c80a18209","system_id":"levelo_inurba_marseille","lat":43.28571,"lon":5.39499,"is_reserved":false,"is_disabled":false,"rental_uris":{"android":"levelo://app?vid=84bc21c6-655f-4fe0-a1e6-5a0c80a18209","ios":"levelo://app?vid=84bc21c6-655f-4fe0-a1e6-5a0c80a18209"},"vehicle_type_id":"4","last_reported":1743879987,"current_range_meters":4000,"station_id":"ce4bh292rcd13ifvqdg0","pricing_plan_id":"cebpf4jnsgd1na2vs0mg"},{"bike_id":"ffa5a895-b02f-4e76-bfe8-29bf3d4945be","system_id":"levelo_inurba_marseille","lat":43.26062,"lon":5.39391,"is_reserved":false,"is_disabled":false,"rental_uris":{"android":"levelo://app?vid=ffa5a895-b02f-4e76-bfe8-29bf3d4945be","ios":"levelo://app?vid=ffa5a895-b02f-4e76-bfe8-29bf3d4945be"},"vehicle_type_id":"4","last_reported":1743879987,"current_range_meters":4000,"station_id":"ce4bhh92rcd13ifvqfj0","pricing_plan_id":"cebpf4jnsgd1na2vs0mg"},{"bike_id":"e2d4509a-ffdf-4198-820c-e19e853c7a14","system_id":"levelo_inurba_marseille","lat":43.30527,"lon":5.384327,"is_reserved":false,"is_disabled":false,"rental_uris":{"android":"levelo://app?vid=e2d4509a-ffdf-4198-820c-e19e853c7a14","ios":"levelo://app?vid=e2d4509a-ffdf-4198-820c-e19e853c7a14"},"vehicle_type_id":"4","last_reported":1743879987,"current_range_meters":4000,"station_id":"ce4bgg92rcd13ifvqb30","pricing_plan_id":"cebpf4jnsgd1na2vs0mg"},{"bike_id":"41119615-acbf-47dc-b837-0033f33159de","system_id":"levelo_inurba_marseille","lat":43.29415,"lon":5.38609,"is_reserved":false,"is_disabled":false,"rental_uris":{"android":"levelo://app?vid=41119615-acbf-47dc-b837-0033f33159de","ios":"levelo://app?vid=41119615-acbf-47dc-b837-0033f33159de"},"vehicle_type_id":"4","last_reported":1743879987,"current_range_meters":4000,"station_id":"ce4bh2h2rcd13ifvqdh0","pricing_plan_id":"cebpf4jnsgd1na2vs0mg"},{"bike_id":"9e698f0e-11b5-45be-b276-701c288c40a5","system_id":"levelo_inurba_marseille","lat":43.29094,"lon":5.38143,"is_reserved":false,"is_disabled":false,"rental_uris":{"android":"levelo://app?vid=9e698f0e-11b5-45be-b276-701c288c40a5","ios":"levelo://app?vid=9e698f0e-11b5-45be-b276-701c288c40a5"},"vehicle_type_id":"4","last_reported":1743879987,"current_range_meters":4000,"station_id":"ce4bh512rcd13ifvqe2g","pricing_plan_id":"cebpf4jnsgd1na2vs0mg"},{"bike_id":"e0450956-9eb4-47a6-8935-29c136ccd077","system_id":"levelo_inurba_marseille","lat":43.29574,"lon":5.39978,"is_reserved":false,"is_disabled":false,"rental_uris":{"android":"levelo://app?vid=e0450956-9eb4-47a6-8935-29c136ccd077","ios":"levelo://app?vid=e0450956-9eb4-47a6-8935-29c136ccd077"},"vehicle_type_id":"4","last_reported":1743879987,"current_range_meters":4000,"station_id":"ce4bh312rcd13ifvqdj0","pricing_plan_id":"cebpf4jnsgd1na2vs0mg"},{"bike_id":"6d0a793c-f5ac-4aca-afbd-66cb10fcaf56","system_id":"levelo_inurba_marseille","lat":43.29533,"lon":5.37503,"is_reserved":false,"is_disabled":false,"rental_uris":{"android":"levelo://app?vid=6d0a793c-f5ac-4aca-afbd-66cb10fcaf56","ios":"levelo://app?vid=6d0a793c-f5ac-4aca-afbd-66cb10fcaf56"},"vehicle_type_id":"4","last_reported":1743879987,"current_range_meters":4400,"station_id":"ce4bgkp2rcd13ifvqbmg","pricing_plan_id":"cebpf4jnsgd1na2vs0mg"},{"bike_id":"74626af7-a634-43e6-a496-f948ded49646","system_id":"levelo_inurba_marseille","lat":43.28354,"lon":5.38638,"is_reserved":false,"is_disabled":false,"rental_uris":{"android":"levelo://app?vid=74626af7-a634-43e6-a496-f948ded49646","ios":"levelo://app?vid=74626af7-a634-43e6-a496-f948ded49646"},"vehicle_type_id":"4","last_reported":1743879987,"current_range_meters":4000,"station_id":"ce4bh492rcd13ifvqdvg","pricing_plan_id":"cebpf4jnsgd1na2vs0mg"},{"bike_id":"ff615c99-2b51-4c2c-81e4-3dfd4294542d","system_id":"levelo_inurba_marseille","lat":43.29986,"lon":5.37182,"is_reserved":false,"is_disabled":false,"rental_uris":{"android":"levelo://app?vid=ff615c99-2b51-4c2c-81e4-3dfd4294542d","ios":"levelo://app?vid=ff615c99-2b51-4c2c-81e4-3dfd4294542d"},"vehicle_type_id":"4","last_reported":1743879987,"current_range_meters":4400,"station_id":"ce4bgr92rcd13ifvqc7g","pricing_plan_id":"cebpf4jnsgd1na2vs0mg"},{"bike_id":"d424906f-5e35-447d-b987-dff9c7ac69c2","system_id":"levelo_inurba_marseille","lat":43.29576,"lon":5.37533,"is_reserved":false,"is_disabled":false,"rental_uris":{"android":"levelo://app?vid=d424906f-5e35-447d-b987-dff9c7ac69c2","ios":"levelo://app?vid=d424906f-5e35-447d-b987-dff9c7ac69c2"},"vehicle_type_id":"4","last_reported":1743879987,"current_range_meters":6000,"station_id":"ce4bgh92rcd13ifvqb50","pricing_plan_id":"cebpf4jnsgd1na2vs0mg"},{"bike_id":"c4862769-6f86-4ff4-ae8e-f2740ce3cce5","system_id":"levelo_inurba_marseille","lat":43.24802,"lon":5.37457,"is_reserved":false,"is_disabled":false,"rental_uris":{"android":"levelo://app?vid=c4862769-6f86-4ff4-ae8e-f2740ce3cce5","ios":"levelo://app?vid=c4862769-6f86-4ff4-ae8e-f2740ce3cce5"},"vehicle_type_id":"4","last_reported":1743879987,"current_range_meters":4400,"station_id":"ce4bhgh2rcd13ifvqfb0","pricing_plan_id":"cebpf4jnsgd1na2vs0mg"},{"bike_id":"0c648af4-d50b-4ac7-b094-efe36dc68fcb","system_id":"levelo_inurba_marseille","lat":43.290665,"lon":5.371675,"is_reserved":false,"is_disabled":false,"rental_uris":{"android":"levelo://app?vid=0c648af4-d50b-4ac7-b094-efe36dc68fcb","ios":"levelo://app?vid=0c648af4-d50b-4ac7-b094-efe36dc68fcb"},"vehicle_type_id":"4","last_reported":1743879987,"current_range_meters":4400,"station_id":"ce4bh5p2rcd13ifvqe4g","pricing_plan_id":"cebpf4jnsgd1na2vs0mg"},{"bike_id":"3868b9bf-0d1c-4e72-91fa-b4abcf5a3b1a","system_id":"levelo_inurba_marseille","lat":43.29934,"lon":5.36554,"is_reserved":false,"is_disabled":false,"rental_uris":{"android":"levelo://app?vid=3868b9bf-0d1c-4e72-91fa-b4abcf5a3b1a","ios":"levelo://app?vid=3868b9bf-0d1c-4e72-91fa-b4abcf5a3b1a"},"vehicle_type_id":"4","last_reported":1743879987,"current_range_meters":4400,"station_id":"ce4bgm92rcd13ifvqbr0","pricing_plan_id":"cebpf4jnsgd1na2vs0mg"},{"bike_id":"38cf11b4-df8b-4973-963f-18b04c34bea5","system_id":"levelo_inurba_marseille","lat":43.29791,"lon":5.393497,"is_reserved":false,"is_disabled":false,"rental_uris":{"android":"levelo://app?vid=38cf11b4-df8b-4973-963f-18b04c34bea5","ios":"levelo://app?vid=38cf11b4-df8b-4973-963f-18b04c34bea5"},"vehicle_type_id":"4","last_reported":1743879987,"current_range_meters":4400,"station_id":"chh1huq6cuj3fo74tm60","pricing_plan_id":"cebpf4jnsgd1na2vs0mg"},{"bike_id":"900cc1f8-7651-4113-8058-69adfe25a0d3","system_id":"levelo_inurba_marseille","lat":43.29911,"lon":5.37459,"is_reserved":false,"is_disabled":false,"rental_uris":{"android":"levelo://app?vid=900cc1f8-7651-4113-8058-69adfe25a0d3","ios":"levelo://app?vid=900cc1f8-7651-4113-8058-69adfe25a0d3"},"vehicle_type_id":"4","last_reported":1743879987,"current_range_meters":4800,"station_id":"ce4bgjh2rcd13ifvqbg0","pricing_plan_id":"cebpf4jnsgd1na2vs0mg"},{"bike_id":"6c9f99f2-5588-4faa-84c1-35040a40f41d","system_id":"levelo_inurba_marseille","lat":43.28454,"lon":5.39195,"is_reserved":false,"is_disabled":false,"rental_uris":{"android":"levelo://app?vid=6c9f99f2-5588-4faa-84c1-35040a40f41d","ios":"levelo://app?vid=6c9f99f2-5588-4faa-84c1-35040a40f41d"},"vehicle_type_id":"4","last_reported":1743879987,"current_range_meters":4800,"station_id":"ce4bhoh2rcd13ifvqh5g","pricing_plan_id":"cebpf4jnsgd1na2vs0mg"},{"bike_id":"3180bb7a-7b0d-4f56-8174-0abdd247f6b9","system_id":"levelo_inurba_marseille","lat":43.2835,"lon":5.38111,"is_reserved":false,"is_disabled":false,"rental_uris":{"android":"levelo://app?vid=3180bb7a-7b0d-4f56-8174-0abdd247f6b9","ios":"levelo://app?vid=3180bb7a-7b0d-4f56-8174-0abdd247f6b9"},"vehicle_type_id":"4","last_reported":1743879987,"current_range_meters":4800,"station_id":"ce4bh412rcd13ifvqdr0","pricing_plan_id":"cebpf4jnsgd1na2vs0mg"},{"bike_id":"91be1dea-0c1a-4e53-a62f-e2f0ba94c085","system_id":"levelo_inurba_marseille","lat":43.3043,"lon":5.39747,"is_reserved":false,"is_disabled":false,"rental_uris":{"android":"levelo://app?vid=91be1dea-0c1a-4e53-a62f-e2f0ba94c085","ios":"levelo://app?vid=91be1dea-0c1a-4e53-a62f-e2f0ba94c085"},"vehicle_type_id":"4","last_reported":1743879987,"current_range_meters":4800,"station_id":"ce4bh092rcd13ifvqd20","pricing_plan_id":"cebpf4jnsgd1na2vs0mg"},{"bike_id":"1bc2ec8f-e585-4646-a049-63dc1b97ec56","system_id":"levelo_inurba_marseille","lat":43.26058,"lon":5.39398,"is_reserved":false,"is_disabled":false,"rental_uris":{"android":"levelo://app?vid=1bc2ec8f-e585-4646-a049-63dc1b97ec56","ios":"levelo://app?vid=1bc2ec8f-e585-4646-a049-63dc1b97ec56"},"vehicle_type_id":"4","last_reported":1743879987,"current_range_meters":4400,"station_id":"ce4bhh92rcd13ifvqfj0","pricing_plan_id":"cebpf4jnsgd1na2vs0mg"},{"bike_id":"d4135585-dc05-4a5b-be98-dfc6f3f11980","system_id":"levelo_inurba_marseille","lat":43.30791,"lon":5.38154,"is_reserved":false,"is_disabled":false,"rental_uris":{"android":"levelo://app?vid=d4135585-dc05-4a5b-be98-dfc6f3f11980","ios":"levelo://app?vid=d4135585-dc05-4a5b-be98-dfc6f3f11980"},"vehicle_type_id":"4","last_reported":1743879987,"current_range_meters":4800,"station_id":"ce4bgt12rcd13ifvqce0","pricing_plan_id":"cebpf4jnsgd1na2vs0mg"},{"bike_id":"392bab13-99db-4538-944b-dee6c39bc607","system_id":"levelo_inurba_marseille","lat":43.29305,"lon":5.37177,"is_reserved":false,"is_disabled":false,"rental_uris":{"android":"levelo://app?vid=392bab13-99db-4538-944b-dee6c39bc607","ios":"levelo://app?vid=392bab13-99db-4538-944b-dee6c39bc607"},"vehicle_type_id":"4","last_reported":1743879987,"current_range_meters":5600,"station_id":"ce4bgh92rcd13ifvqb40","pricing_plan_id":"cebpf4jnsgd1na2vs0mg"},{"bike_id":"498ad0d3-a25c-44fd-be38-1d6943b69582","system_id":"levelo_inurba_marseille","lat":43.2952,"lon":5.39038,"is_reserved":false,"is_disabled":false,"rental_uris":{"android":"levelo://app?vid=498ad0d3-a25c-44fd-be38-1d6943b69582","ios":"levelo://app?vid=498ad0d3-a25c-44fd-be38-1d6943b69582"},"vehicle_type_id":"4","last_reported":1743879987,"current_range_meters":4800,"station_id":"ce4bh3p2rcd13ifvqdp0","pricing_plan_id":"cebpf4jnsgd1na2vs0mg"},{"bike_id":"f92d8689-11f7-4557-a4ef-8726306a7703","system_id":"levelo_inurba_marseille","lat":43.29855,"lon":5.39733,"is_reserved":false,"is_disabled":false,"rental_uris":{"android":"levelo://app?vid=f92d8689-11f7-4557-a4ef-8726306a7703","ios":"levelo://app?vid=f92d8689-11f7-4557-a4ef-8726306a7703"},"vehicle_type_id":"4","last_reported":1743879987,"current_range_meters":5600,"station_id":"ce4bh0h2rcd13ifvqd50","pricing_plan_id":"cebpf4jnsgd1na2vs0mg"},{"bike_id":"037a3688-1113-4c7f-803b-25f60b7d4e3b","system_id":"levelo_inurba_marseille","lat":43.24799,"lon":5.37472,"is_reserved":false,"is_disabled":false,"rental_uris":{"android":"levelo://app?vid=037a3688-1113-4c7f-803b-25f60b7d4e3b","ios":"levelo://app?vid=037a3688-1113-4c7f-803b-25f60b7d4e3b"},"vehicle_type_id":"4","last_reported":1743879987,"current_range_meters":5600,"station_id":"ce4bhgh2rcd13ifvqfb0","pricing_plan_id":"cebpf4jnsgd1na2vs0mg"},{"bike_id":"7efb6c36-0412-4454-8b25-b702dd56d376","system_id":"levelo_inurba_marseille","lat":43.27805,"lon":5.40707,"is_reserved":false,"is_disabled":false,"rental_uris":{"android":"levelo://app?vid=7efb6c36-0412-4454-8b25-b702dd56d376","ios":"levelo://app?vid=7efb6c36-0412-4454-8b25-b702dd56d376"},"vehicle_type_id":"4","last_reported":1743879987,"current_range_meters":5600,"station_id":"ce4bhnh2rcd13ifvqgtg","pricing_plan_id":"cebpf4jnsgd1na2vs0mg"},{"bike_id":"b991118a-b3fd-4081-a6c6-23b69168496a","system_id":"levelo_inurba_marseille","lat":43.21766,"lon":5.3462,"is_reserved":false,"is_disabled":true,"rental_uris":{"android":"levelo://app?vid=b991118a-b3fd-4081-a6c6-23b69168496a","ios":"levelo://app?vid=b991118a-b3fd-4081-a6c6-23b69168496a"},"vehicle_type_id":"4","last_reported":1743879987,"current_range_meters":5600,"station_id":"st_cvj6r9ubvosntc0bgbag","pricing_plan_id":"cebpf4jnsgd1na2vs0mg"},{"bike_id":"4a75282a-c1b8-40b9-80c3-f87aa7ad2f01","system_id":"levelo_inurba_marseille","lat":43.29439,"lon":5.39751,"is_reserved":false,"is_disabled":false,"rental_uris":{"android":"levelo://app?vid=4a75282a-c1b8-40b9-80c3-f87aa7ad2f01","ios":"levelo://app?vid=4a75282a-c1b8-40b9-80c3-f87aa7ad2f01"},"vehicle_type_id":"4","last_reported":1743879987,"current_range_meters":5600,"station_id":"ce4bh3h2rcd13ifvqdo0","pricing_plan_id":"cebpf4jnsgd1na2vs0mg"},{"bike_id":"9f11ddad-f9cf-432b-8e0c-b6536f5e7092","system_id":"levelo_inurba_marseille","lat":43.27947,"lon":5.41051,"is_reserved":false,"is_disabled":false,"rental_uris":{"android":"levelo://app?vid=9f11ddad-f9cf-432b-8e0c-b6536f5e7092","ios":"levelo://app?vid=9f11ddad-f9cf-432b-8e0c-b6536f5e7092"},"vehicle_type_id":"4","last_reported":1743879987,"current_range_meters":5600,"station_id":"ce4bhnp2rcd13ifvqh0g","pricing_plan_id":"cebpf4jnsgd1na2vs0mg"},{"bike_id":"e79c887f-e981-4b22-9a05-4792cbcb5740","system_id":"levelo_inurba_marseille","lat":43.28946,"lon":5.36656,"is_reserved":false,"is_disabled":false,"rental_uris":{"android":"levelo://app?vid=e79c887f-e981-4b22-9a05-4792cbcb5740","ios":"levelo://app?vid=e79c887f-e981-4b22-9a05-4792cbcb5740"},"vehicle_type_id":"4","last_reported":1743879987,"current_range_meters":5600,"station_id":"ce4bhap2rcd13ifvqek0","pricing_plan_id":"cebpf4jnsgd1na2vs0mg"},{"bike_id":"50297066-959d-45c5-a71e-b062cc3724ec","system_id":"levelo_inurba_marseille","lat":43.30779,"lon":5.37329,"is_reserved":false,"is_disabled":false,"rental_uris":{"android":"levelo://app?vid=50297066-959d-45c5-a71e-b062cc3724ec","ios":"levelo://app?vid=50297066-959d-45c5-a71e-b062cc3724ec"},"vehicle_type_id":"4","last_reported":1743879987,"current_range_meters":5600,"station_id":"","pricing_plan_id":"cebpf4jnsgd1na2vs0mg"},{"bike_id":"d7054c40-0d1d-4b9d-a359-6974e255768c","system_id":"levelo_inurba_marseille","lat":43.29258,"lon":5.38439,"is_reserved":false,"is_disabled":false,"rental_uris":{"android":"levelo://app?vid=d7054c40-0d1d-4b9d-a359-6974e255768c","ios":"levelo://app?vid=d7054c40-0d1d-4b9d-a359-6974e255768c"},"vehicle_type_id":"4","last_reported":1743879987,"current_range_meters":5600,"station_id":"ce4bh692rcd13ifvqea0","pricing_plan_id":"cebpf4jnsgd1na2vs0mg"},{"bike_id":"ab5da591-5b61-4f80-ad90-a25c3a89264f","system_id":"levelo_inurba_marseille","lat":43.29423,"lon":5.38618,"is_reserved":false,"is_disabled":false,"rental_uris":{"android":"levelo://app?vid=ab5da591-5b61-4f80-ad90-a25c3a89264f","ios":"levelo://app?vid=ab5da591-5b61-4f80-ad90-a25c3a89264f"},"vehicle_type_id":"4","last_reported":1743879987,"current_range_meters":5600,"station_id":"ce4bh2h2rcd13ifvqdh0","pricing_plan_id":"cebpf4jnsgd1na2vs0mg"},{"bike_id":"c73a85e2-fb2d-4d21-bea0-c717ffa7bb89","system_id":"levelo_inurba_marseille","lat":43.30482,"lon":5.36723,"is_reserved":false,"is_disabled":true,"rental_uris":{"android":"levelo://app?vid=c73a85e2-fb2d-4d21-bea0-c717ffa7bb89","ios":"levelo://app?vid=c73a85e2-fb2d-4d21-bea0-c717ffa7bb89"},"vehicle_type_id":"4","last_reported":1743879987,"current_range_meters":6000,"station_id":"","pricing_plan_id":"cebpf4jnsgd1na2vs0mg"},{"bike_id":"eb1099fb-29c4-4fb7-b020-4d31e0150ff9","system_id":"levelo_inurba_marseille","lat":43.281561,"lon":5.426386,"is_reserved":false,"is_disabled":false,"rental_uris":{"android":"levelo://app?vid=eb1099fb-29c4-4fb7-b020-4d31e0150ff9","ios":"levelo://app?vid=eb1099fb-29c4-4fb7-b020-4d31e0150ff9"},"vehicle_type_id":"4","last_reported":1743879987,"current_range_meters":6000,"station_id":"ce4bhnh2rcd13ifvqgug","pricing_plan_id":"cebpf4jnsgd1na2vs0mg"},{"bike_id":"b5dad066-7526-4efc-8832-7b86629824cc","system_id":"levelo_inurba_marseille","lat":43.30215,"lon":5.39473,"is_reserved":false,"is_disabled":false,"rental_uris":{"android":"levelo://app?vid=b5dad066-7526-4efc-8832-7b86629824cc","ios":"levelo://app?vid=b5dad066-7526-4efc-8832-7b86629824cc"},"vehicle_type_id":"4","last_reported":1743879987,"current_range_meters":6000,"station_id":"ce4bh0p2rcd13ifvqd70","pricing_plan_id":"cebpf4jnsgd1na2vs0mg"},{"bike_id":"6ea6e92e-1292-4c08-a967-942b78033e2c","system_id":"levelo_inurba_marseille","lat":43.2954,"lon":5.38551,"is_reserved":false,"is_disabled":false,"rental_uris":{"android":"levelo://app?vid=6ea6e92e-1292-4c08-a967-942b78033e2c","ios":"levelo://app?vid=6ea6e92e-1292-4c08-a967-942b78033e2c"},"vehicle_type_id":"4","last_reported":1743879987,"current_range_meters":6000,"station_id":"ce4bgih2rcd13ifvqba0","pricing_plan_id":"cebpf4jnsgd1na2vs0mg"},{"bike_id":"4106477e-8c8e-4253-96d0-01cf9c4352a3","system_id":"levelo_inurba_marseille","lat":43.29311,"lon":5.37152,"is_reserved":false,"is_disabled":false,"rental_uris":{"android":"levelo://app?vid=4106477e-8c8e-4253-96d0-01cf9c4352a3","ios":"levelo://app?vid=4106477e-8c8e-4253-96d0-01cf9c4352a3"},"vehicle_type_id":"4","last_reported":1743879987,"current_range_meters":6000,"station_id":"ce4bgh92rcd13ifvqb40","pricing_plan_id":"cebpf4jnsgd1na2vs0mg"},{"bike_id":"efc90fae-7f0f-489e-802b-b2158e88d143","system_id":"levelo_inurba_marseille","lat":43.25726,"lon":5.41112,"is_reserved":false,"is_disabled":false,"rental_uris":{"android":"levelo://app?vid=efc90fae-7f0f-489e-802b-b2158e88d143","ios":"levelo://app?vid=efc90fae-7f0f-489e-802b-b2158e88d143"},"vehicle_type_id":"4","last_reported":1743879987,"current_range_meters":6000,"station_id":"ce4bhkp2rcd13ifvqgd0","pricing_plan_id":"cebpf4jnsgd1na2vs0mg"},{"bike_id":"3ddf3cf5-0c75-458d-8968-26b00882bde7","system_id":"levelo_inurba_marseille","lat":43.26788,"lon":5.39415,"is_reserved":false,"is_disabled":false,"rental_uris":{"android":"levelo://app?vid=3ddf3cf5-0c75-458d-8968-26b00882bde7","ios":"levelo://app?vid=3ddf3cf5-0c75-458d-8968-26b00882bde7"},"vehicle_type_id":"4","last_reported":1743879987,"current_range_meters":6000,"station_id":"ce4bhh12rcd13ifvqfg0","pricing_plan_id":"cebpf4jnsgd1na2vs0mg"},{"bike_id":"5eeaee7a-36ab-4806-922d-b761407bc2a5","system_id":"levelo_inurba_marseille","lat":43.29278,"lon":5.36853,"is_reserved":false,"is_disabled":false,"rental_uris":{"android":"levelo://app?vid=5eeaee7a-36ab-4806-922d-b761407bc2a5","ios":"levelo://app?vid=5eeaee7a-36ab-4806-922d-b761407bc2a5"},"vehicle_type_id":"4","last_reported":1743879987,"current_range_meters":6000,"station_id":"ce4bhbp2rcd13ifvqesg","pricing_plan_id":"cebpf4jnsgd1na2vs0mg"},{"bike_id":"2434a316-80cf-4203-a383-f0ef595141b9","system_id":"levelo_inurba_marseille","lat":43.29024,"lon":5.3814,"is_reserved":false,"is_disabled":false,"rental_uris":{"android":"levelo://app?vid=2434a316-80cf-4203-a383-f0ef595141b9","ios":"levelo://app?vid=2434a316-80cf-4203-a383-f0ef595141b9"},"vehicle_type_id":"4","last_reported":1743879987,"current_range_meters":5600,"station_id":"ce4bh4p2rcd13ifvqe1g","pricing_plan_id":"cebpf4jnsgd1na2vs0mg"},{"bike_id":"02dd5f37-e4ce-4efc-9ce6-2776472fc632","system_id":"levelo_inurba_marseille","lat":43.2514,"lon":5.40318,"is_reserved":false,"is_disabled":false,"rental_uris":{"android":"levelo://app?vid=02dd5f37-e4ce-4efc-9ce6-2776472fc632","ios":"levelo://app?vid=02dd5f37-e4ce-4efc-9ce6-2776472fc632"},"vehicle_type_id":"4","last_reported":1743879987,"current_range_meters":6000,"station_id":"ce4bhlh2rcd13ifvqgig","pricing_plan_id":"cebpf4jnsgd1na2vs0mg"},{"bike_id":"27387a09-89c2-450c-8862-76ee51786aaa","system_id":"levelo_inurba_marseille","lat":43.29161,"lon":5.37165,"is_reserved":false,"is_disabled":false,"rental_uris":{"android":"levelo://app?vid=27387a09-89c2-450c-8862-76ee51786aaa","ios":"levelo://app?vid=27387a09-89c2-450c-8862-76ee51786aaa"},"vehicle_type_id":"4","last_reported":1743879987,"current_range_meters":5600,"station_id":"ce4bha92rcd13ifvqeh0","pricing_plan_id":"cebpf4jnsgd1na2vs0mg"},{"bike_id":"c6b4a1e6-b828-431c-bf4d-dd3af55ef6a7","system_id":"levelo_inurba_marseille","lat":43.27423,"lon":5.39413,"is_reserved":false,"is_disabled":false,"rental_uris":{"android":"levelo://app?vid=c6b4a1e6-b828-431c-bf4d-dd3af55ef6a7","ios":"levelo://app?vid=c6b4a1e6-b828-431c-bf4d-dd3af55ef6a7"},"vehicle_type_id":"4","last_reported":1743879987,"current_range_meters":5600,"station_id":"ce4bhdp2rcd13ifvqf20","pricing_plan_id":"cebpf4jnsgd1na2vs0mg"},{"bike_id":"e5a270cd-9938-41b4-8727-89b7405be007","system_id":"levelo_inurba_marseille","lat":43.29521,"lon":5.37525,"is_reserved":false,"is_disabled":false,"rental_uris":{"android":"levelo://app?vid=e5a270cd-9938-41b4-8727-89b7405be007","ios":"levelo://app?vid=e5a270cd-9938-41b4-8727-89b7405be007"},"vehicle_type_id":"4","last_reported":1743879987,"current_range_meters":6000,"station_id":"ce4bgkp2rcd13ifvqbmg","pricing_plan_id":"cebpf4jnsgd1na2vs0mg"},{"bike_id":"d2ff9114-efec-4ddc-b00a-7c77a0d5dcfa","system_id":"levelo_inurba_marseille","lat":43.29519,"lon":5.39047,"is_reserved":false,"is_disabled":false,"rental_uris":{"android":"levelo://app?vid=d2ff9114-efec-4ddc-b00a-7c77a0d5dcfa","ios":"levelo://app?vid=d2ff9114-efec-4ddc-b00a-7c77a0d5dcfa"},"vehicle_type_id":"4","last_reported":1743879987,"current_range_meters":6400,"station_id":"ce4bh3p2rcd13ifvqdp0","pricing_plan_id":"cebpf4jnsgd1na2vs0mg"},{"bike_id":"9e5b14b8-1de5-49d5-829a-2ac119492a70","system_id":"levelo_inurba_marseille","lat":43.29255,"lon":5.40905,"is_reserved":false,"is_disabled":false,"rental_uris":{"android":"levelo://app?vid=9e5b14b8-1de5-49d5-829a-2ac119492a70","ios":"levelo://app?vid=9e5b14b8-1de5-49d5-829a-2ac119492a70"},"vehicle_type_id":"4","last_reported":1743879987,"current_range_meters":6400,"station_id":"ce4bh192rcd13ifvqdc0","pricing_plan_id":"cebpf4jnsgd1na2vs0mg"},{"bike_id":"b42cbf10-ce2c-4ae3-9cd7-f78623f5c3e0","system_id":"levelo_inurba_marseille","lat":43.31273,"lon":5.4017,"is_reserved":false,"is_disabled":false,"rental_uris":{"android":"levelo://app?vid=b42cbf10-ce2c-4ae3-9cd7-f78623f5c3e0","ios":"levelo://app?vid=b42cbf10-ce2c-4ae3-9cd7-f78623f5c3e0"},"vehicle_type_id":"4","last_reported":1743879987,"current_range_meters":6400,"station_id":"ce4bh092rcd13ifvqd30","pricing_plan_id":"cebpf4jnsgd1na2vs0mg"},{"bike_id":"8a83f64d-6e46-4d26-a684-f00dd70a6d02","system_id":"levelo_inurba_marseille","lat":43.29707,"lon":5.37707,"is_reserved":false,"is_disabled":false,"rental_uris":{"android":"levelo://app?vid=8a83f64d-6e46-4d26-a684-f00dd70a6d02","ios":"levelo://app?vid=8a83f64d-6e46-4d26-a684-f00dd70a6d02"},"vehicle_type_id":"4","last_reported":1743879987,"current_range_meters":6000,"station_id":"ce4bgkh2rcd13ifvqbl0","pricing_plan_id":"cebpf4jnsgd1na2vs0mg"},{"bike_id":"4ae5b43c-22d0-4c80-860c-4a0cd31e64d8","system_id":"levelo_inurba_marseille","lat":43.2848,"lon":5.38414,"is_reserved":false,"is_disabled":false,"rental_uris":{"android":"levelo://app?vid=4ae5b43c-22d0-4c80-860c-4a0cd31e64d8","ios":"levelo://app?vid=4ae5b43c-22d0-4c80-860c-4a0cd31e64d8"},"vehicle_type_id":"4","last_reported":1743879987,"current_range_meters":6400,"station_id":"ce4bh512rcd13ifvqe3g","pricing_plan_id":"cebpf4jnsgd1na2vs0mg"},{"bike_id":"1f864d68-3251-49ff-bdb3-722ed10ca571","system_id":"levelo_inurba_marseille","lat":43.30418,"lon":5.41285,"is_reserved":false,"is_disabled":false,"rental_uris":{"android":"levelo://app?vid=1f864d68-3251-49ff-bdb3-722ed10ca571","ios":"levelo://app?vid=1f864d68-3251-49ff-bdb3-722ed10ca571"},"vehicle_type_id":"4","last_reported":1743879987,"current_range_meters":6400,"station_id":"ce4bhop2rcd13ifvqh8g","pricing_plan_id":"cebpf4jnsgd1na2vs0mg"},{"bike_id":"d144cdeb-94c3-4a1d-92d5-9d5462e2a94e","system_id":"levelo_inurba_marseille","lat":43.28024,"lon":5.36944,"is_reserved":false,"is_disabled":false,"rental_uris":{"android":"levelo://app?vid=d144cdeb-94c3-4a1d-92d5-9d5462e2a94e","ios":"levelo://app?vid=d144cdeb-94c3-4a1d-92d5-9d5462e2a94e"},"vehicle_type_id":"4","last_reported":1743879987,"current_range_meters":6400,"station_id":"ce4bha12rcd13ifvqef0","pricing_plan_id":"cebpf4jnsgd1na2vs0mg"},{"bike_id":"b7e6ba5e-3e02-480a-94ed-38d81f7018a3","system_id":"levelo_inurba_marseille","lat":43.25507,"lon":5.37656,"is_reserved":false,"is_disabled":false,"rental_uris":{"android":"levelo://app?vid=b7e6ba5e-3e02-480a-94ed-38d81f7018a3","ios":"levelo://app?vid=b7e6ba5e-3e02-480a-94ed-38d81f7018a3"},"vehicle_type_id":"4","last_reported":1743879987,"current_range_meters":6400,"station_id":"ce4bhh12rcd13ifvqff0","pricing_plan_id":"cebpf4jnsgd1na2vs0mg"},{"bike_id":"43fe2ba1-31d3-42fc-b0e3-8377005f35b2","system_id":"levelo_inurba_marseille","lat":43.29264,"lon":5.37624,"is_reserved":false,"is_disabled":false,"rental_uris":{"android":"levelo://app?vid=43fe2ba1-31d3-42fc-b0e3-8377005f35b2","ios":"levelo://app?vid=43fe2ba1-31d3-42fc-b0e3-8377005f35b2"},"vehicle_type_id":"4","last_reported":1743879987,"current_range_meters":6400,"station_id":"ce4bgi12rcd13ifvqb80","pricing_plan_id":"cebpf4jnsgd1na2vs0mg"},{"bike_id":"95ebc31d-ba2c-4855-9413-141191b5e202","system_id":"levelo_inurba_marseille","lat":43.292731,"lon":5.401173,"is_reserved":false,"is_disabled":true,"rental_uris":{"android":"levelo://app?vid=95ebc31d-ba2c-4855-9413-141191b5e202","ios":"levelo://app?vid=95ebc31d-ba2c-4855-9413-141191b5e202"},"vehicle_type_id":"4","last_reported":1743879987,"current_range_meters":6400,"station_id":"ce4bh312rcd13ifvqdk0","pricing_plan_id":"cebpf4jnsgd1na2vs0mg"},{"bike_id":"6847ef93-24cb-4717-81ac-eb1646d04969","system_id":"levelo_inurba_marseille","lat":43.28033,"lon":5.36948,"is_reserved":false,"is_disabled":false,"rental_uris":{"android":"levelo://app?vid=6847ef93-24cb-4717-81ac-eb1646d04969","ios":"levelo://app?vid=6847ef93-24cb-4717-81ac-eb1646d04969"},"vehicle_type_id":"4","last_reported":1743879987,"current_range_meters":6800,"station_id":"ce4bha12rcd13ifvqef0","pricing_plan_id":"cebpf4jnsgd1na2vs0mg"},{"bike_id":"597e3cb0-7bf1-4c5c-814c-bff699977597","system_id":"levelo_inurba_marseille","lat":43.33148,"lon":5.38201,"is_reserved":false,"is_disabled":false,"rental_uris":{"android":"levelo://app?vid=597e3cb0-7bf1-4c5c-814c-bff699977597","ios":"levelo://app?vid=597e3cb0-7bf1-4c5c-814c-bff699977597"},"vehicle_type_id":"4","last_reported":1743879987,"current_range_meters":6800,"station_id":"","pricing_plan_id":"cebpf4jnsgd1na2vs0mg"},{"bike_id":"45343cba-f296-49e5-a5e5-28aefc24f75d","system_id":"levelo_inurba_marseille","lat":43.29278,"lon":5.401156,"is_reserved":false,"is_disabled":false,"rental_uris":{"android":"levelo://app?vid=45343cba-f296-49e5-a5e5-28aefc24f75d","ios":"levelo://app?vid=45343cba-f296-49e5-a5e5-28aefc24f75d"},"vehicle_type_id":"4","last_reported":1743879987,"current_range_meters":6800,"station_id":"ce4bh012rcd13ifvqd10","pricing_plan_id":"cebpf4jnsgd1na2vs0mg"},{"bike_id":"a4d2c98f-6cdc-4d59-a681-294db74d27dd","system_id":"levelo_inurba_marseille","lat":43.29277,"lon":5.38447,"is_reserved":false,"is_disabled":false,"rental_uris":{"android":"levelo://app?vid=a4d2c98f-6cdc-4d59-a681-294db74d27dd","ios":"levelo://app?vid=a4d2c98f-6cdc-4d59-a681-294db74d27dd"},"vehicle_type_id":"4","last_reported":1743879987,"current_range_meters":6800,"station_id":"ce4bh692rcd13ifvqea0","pricing_plan_id":"cebpf4jnsgd1na2vs0mg"},{"bike_id":"628641b2-22f4-4abd-ad7c-419826a6a164","system_id":"levelo_inurba_marseille","lat":43.3025,"lon":5.40045,"is_reserved":false,"is_disabled":false,"rental_uris":{"android":"levelo://app?vid=628641b2-22f4-4abd-ad7c-419826a6a164","ios":"levelo://app?vid=628641b2-22f4-4abd-ad7c-419826a6a164"},"vehicle_type_id":"4","last_reported":1743879987,"current_range_meters":6800,"station_id":"ce4bgvh2rcd13ifvqcs0","pricing_plan_id":"cebpf4jnsgd1na2vs0mg"},{"bike_id":"6caa9fdd-9f3c-4bc4-b75b-ac87fc400cd6","system_id":"levelo_inurba_marseille","lat":43.26929,"lon":5.38911,"is_reserved":false,"is_disabled":false,"rental_uris":{"android":"levelo://app?vid=6caa9fdd-9f3c-4bc4-b75b-ac87fc400cd6","ios":"levelo://app?vid=6caa9fdd-9f3c-4bc4-b75b-ac87fc400cd6"},"vehicle_type_id":"4","last_reported":1743879987,"current_range_meters":6800,"station_id":"ce4bhhh2rcd13ifvqfl0","pricing_plan_id":"cebpf4jnsgd1na2vs0mg"},{"bike_id":"5fe2d280-b6d7-49eb-9cc3-3d3e1f41a97a","system_id":"levelo_inurba_marseille","lat":43.28464,"lon":5.38407,"is_reserved":false,"is_disabled":false,"rental_uris":{"android":"levelo://app?vid=5fe2d280-b6d7-49eb-9cc3-3d3e1f41a97a","ios":"levelo://app?vid=5fe2d280-b6d7-49eb-9cc3-3d3e1f41a97a"},"vehicle_type_id":"4","last_reported":1743879987,"current_range_meters":6800,"station_id":"ce4bh512rcd13ifvqe3g","pricing_plan_id":"cebpf4jnsgd1na2vs0mg"},{"bike_id":"49b52119-fa14-4c06-bcd6-4b86d6232be9","system_id":"levelo_inurba_marseille","lat":43.29267,"lon":5.38451,"is_reserved":false,"is_disabled":false,"rental_uris":{"android":"levelo://app?vid=49b52119-fa14-4c06-bcd6-4b86d6232be9","ios":"levelo://app?vid=49b52119-fa14-4c06-bcd6-4b86d6232be9"},"vehicle_type_id":"4","last_reported":1743879987,"current_range_meters":6800,"station_id":"ce4bh692rcd13ifvqea0","pricing_plan_id":"cebpf4jnsgd1na2vs0mg"},{"bike_id":"fa550e5d-f8a6-4f7e-86c7-e04ab163d525","system_id":"levelo_inurba_marseille","lat":43.30811,"lon":5.43529,"is_reserved":false,"is_disabled":false,"rental_uris":{"android":"levelo://app?vid=fa550e5d-f8a6-4f7e-86c7-e04ab163d525","ios":"levelo://app?vid=fa550e5d-f8a6-4f7e-86c7-e04ab163d525"},"vehicle_type_id":"4","last_reported":1743879987,"current_range_meters":6800,"station_id":"ce4bhph2rcd13ifvqheg","pricing_plan_id":"cebpf4jnsgd1na2vs0mg"},{"bike_id":"11101b03-02c0-4bb4-a9dc-326497f91f4e","system_id":"levelo_inurba_marseille","lat":43.29258,"lon":5.40914,"is_reserved":false,"is_disabled":true,"rental_uris":{"android":"levelo://app?vid=11101b03-02c0-4bb4-a9dc-326497f91f4e","ios":"levelo://app?vid=11101b03-02c0-4bb4-a9dc-326497f91f4e"},"vehicle_type_id":"4","last_reported":1743879987,"current_range_meters":6800,"station_id":"ce4bh192rcd13ifvqdc0","pricing_plan_id":"cebpf4jnsgd1na2vs0mg"},{"bike_id":"0f40a6a8-a2df-45c0-bf09-77c66b10cd2d","system_id":"levelo_inurba_marseille","lat":43.29167,"lon":5.37158,"is_reserved":false,"is_disabled":false,"rental_uris":{"android":"levelo://app?vid=0f40a6a8-a2df-45c0-bf09-77c66b10cd2d","ios":"levelo://app?vid=0f40a6a8-a2df-45c0-bf09-77c66b10cd2d"},"vehicle_type_id":"4","last_reported":1743879987,"current_range_meters":6800,"station_id":"ce4bha92rcd13ifvqeh0","pricing_plan_id":"cebpf4jnsgd1na2vs0mg"},{"bike_id":"962776e6-1660-41a5-9082-9334ede4dd93","system_id":"levelo_inurba_marseille","lat":43.29097,"lon":5.38153,"is_reserved":false,"is_disabled":false,"rental_uris":{"android":"levelo://app?vid=962776e6-1660-41a5-9082-9334ede4dd93","ios":"levelo://app?vid=962776e6-1660-41a5-9082-9334ede4dd93"},"vehicle_type_id":"4","last_reported":1743879987,"current_range_meters":6800,"station_id":"ce4bh512rcd13ifvqe2g","pricing_plan_id":"cebpf4jnsgd1na2vs0mg"},{"bike_id":"2148bd29-323e-49b7-945c-369e0ae50c2c","system_id":"levelo_inurba_marseille","lat":43.30043,"lon":5.38936,"is_reserved":false,"is_disabled":false,"rental_uris":{"android":"levelo://app?vid=2148bd29-323e-49b7-945c-369e0ae50c2c","ios":"levelo://app?vid=2148bd29-323e-49b7-945c-369e0ae50c2c"},"vehicle_type_id":"4","last_reported":1743879987,"current_range_meters":7200,"station_id":"ce4bh192rcd13ifvqdb0","pricing_plan_id":"cebpf4jnsgd1na2vs0mg"},{"bike_id":"592b60c0-b8ac-4b03-aa21-649bff32b1fc","system_id":"levelo_inurba_marseille","lat":43.29367,"lon":5.37841,"is_reserved":false,"is_disabled":false,"rental_uris":{"android":"levelo://app?vid=592b60c0-b8ac-4b03-aa21-649bff32b1fc","ios":"levelo://app?vid=592b60c0-b8ac-4b03-aa21-649bff32b1fc"},"vehicle_type_id":"4","last_reported":1743879987,"current_range_meters":7200,"station_id":"ce4bgjh2rcd13ifvqbf0","pricing_plan_id":"cebpf4jnsgd1na2vs0mg"},{"bike_id":"fdf66eb6-5fc4-4a94-bfb7-8d0f9b76aa8a","system_id":"levelo_inurba_marseille","lat":43.29276,"lon":5.40114,"is_reserved":false,"is_disabled":false,"rental_uris":{"android":"levelo://app?vid=fdf66eb6-5fc4-4a94-bfb7-8d0f9b76aa8a","ios":"levelo://app?vid=fdf66eb6-5fc4-4a94-bfb7-8d0f9b76aa8a"},"vehicle_type_id":"4","last_reported":1743879987,"current_range_meters":7200,"station_id":"ce4bh312rcd13ifvqdk0","pricing_plan_id":"cebpf4jnsgd1na2vs0mg"},{"bike_id":"8fa92ff1-c2cb-4fa2-b3ce-e14c12ce1bf4","system_id":"levelo_inurba_marseille","lat":43.28167,"lon":5.42631,"is_reserved":false,"is_disabled":false,"rental_uris":{"android":"levelo://app?vid=8fa92ff1-c2cb-4fa2-b3ce-e14c12ce1bf4","ios":"levelo://app?vid=8fa92ff1-c2cb-4fa2-b3ce-e14c12ce1bf4"},"vehicle_type_id":"4","last_reported":1743879987,"current_range_meters":7200,"station_id":"ce4bhnh2rcd13ifvqgug","pricing_plan_id":"cebpf4jnsgd1na2vs0mg"},{"bike_id":"726b9a0d-2d1a-45a9-863e-0210783ee593","system_id":"levelo_inurba_marseille","lat":43.29517,"lon":5.39399,"is_reserved":false,"is_disabled":false,"rental_uris":{"android":"levelo://app?vid=726b9a0d-2d1a-45a9-863e-0210783ee593","ios":"levelo://app?vid=726b9a0d-2d1a-45a9-863e-0210783ee593"},"vehicle_type_id":"4","last_reported":1743879987,"current_range_meters":7200,"station_id":"ce4bh292rcd13ifvqdf0","pricing_plan_id":"cebpf4jnsgd1na2vs0mg"},{"bike_id":"fd368e52-28cf-414d-a46d-b367645ec73e","system_id":"levelo_inurba_marseille","lat":43.29245,"lon":5.38441,"is_reserved":false,"is_disabled":false,"rental_uris":{"android":"levelo://app?vid=fd368e52-28cf-414d-a46d-b367645ec73e","ios":"levelo://app?vid=fd368e52-28cf-414d-a46d-b367645ec73e"},"vehicle_type_id":"4","last_reported":1743879987,"current_range_meters":7200,"station_id":"ce4bh692rcd13ifvqea0","pricing_plan_id":"cebpf4jnsgd1na2vs0mg"},{"bike_id":"93fa688b-057e-40a5-8796-625eac323f8b","system_id":"levelo_inurba_marseille","lat":43.28927,"lon":5.38396,"is_reserved":false,"is_disabled":false,"rental_uris":{"android":"levelo://app?vid=93fa688b-057e-40a5-8796-625eac323f8b","ios":"levelo://app?vid=93fa688b-057e-40a5-8796-625eac323f8b"},"vehicle_type_id":"4","last_reported":1743879987,"current_range_meters":7200,"station_id":"ce4bh612rcd13ifvqe6g","pricing_plan_id":"cebpf4jnsgd1na2vs0mg"},{"bike_id":"e7b956ce-2ab2-4301-8fd3-6312d753e8f6","system_id":"levelo_inurba_marseille","lat":43.24653,"lon":5.38159,"is_reserved":false,"is_disabled":true,"rental_uris":{"android":"levelo://app?vid=e7b956ce-2ab2-4301-8fd3-6312d753e8f6","ios":"levelo://app?vid=e7b956ce-2ab2-4301-8fd3-6312d753e8f6"},"vehicle_type_id":"4","last_reported":1743879987,"current_range_meters":7200,"station_id":"ce4bhih2rcd13ifvqfr0","pricing_plan_id":"cebpf4jnsgd1na2vs0mg"},{"bike_id":"783ef245-163c-4c81-b038-df23059b7c57","system_id":"levelo_inurba_marseille","lat":43.310755,"lon":5.383546,"is_reserved":false,"is_disabled":false,"rental_uris":{"android":"levelo://app?vid=783ef245-163c-4c81-b038-df23059b7c57","ios":"levelo://app?vid=783ef245-163c-4c81-b038-df23059b7c57"},"vehicle_type_id":"4","last_reported":1743879987,"current_range_meters":7200,"station_id":"","pricing_plan_id":"cebpf4jnsgd1na2vs0mg"},{"bike_id":"6c6ee60d-f888-40cb-80ea-148fe4a497c9","system_id":"levelo_inurba_marseille","lat":43.29373,"lon":5.37845,"is_reserved":false,"is_disabled":false,"rental_uris":{"android":"levelo://app?vid=6c6ee60d-f888-40cb-80ea-148fe4a497c9","ios":"levelo://app?vid=6c6ee60d-f888-40cb-80ea-148fe4a497c9"},"vehicle_type_id":"4","last_reported":1743879987,"current_range_meters":7200,"station_id":"ce4bgjh2rcd13ifvqbf0","pricing_plan_id":"cebpf4jnsgd1na2vs0mg"},{"bike_id":"b8ea7543-4f4d-43dd-964e-6d7060acec98","system_id":"levelo_inurba_marseille","lat":43.29308,"lon":5.3718,"is_reserved":false,"is_disabled":false,"rental_uris":{"android":"levelo://app?vid=b8ea7543-4f4d-43dd-964e-6d7060acec98","ios":"levelo://app?vid=b8ea7543-4f4d-43dd-964e-6d7060acec98"},"vehicle_type_id":"4","last_reported":1743879987,"current_range_meters":7200,"station_id":"ce4bgh92rcd13ifvqb40","pricing_plan_id":"cebpf4jnsgd1na2vs0mg"},{"bike_id":"608c97a4-61d0-4b3d-9964-9bde4fb0e2e3","system_id":"levelo_inurba_marseille","lat":43.23954,"lon":5.36631,"is_reserved":false,"is_disabled":false,"rental_uris":{"android":"levelo://app?vid=608c97a4-61d0-4b3d-9964-9bde4fb0e2e3","ios":"levelo://app?vid=608c97a4-61d0-4b3d-9964-9bde4fb0e2e3"},"vehicle_type_id":"4","last_reported":1743879987,"current_range_meters":7200,"station_id":"ce4bhi12rcd13ifvqfp0","pricing_plan_id":"cebpf4jnsgd1na2vs0mg"},{"bike_id":"c028564b-dd93-484a-8f41-5b40f3b67039","system_id":"levelo_inurba_marseille","lat":43.28933,"lon":5.3664,"is_reserved":false,"is_disabled":false,"rental_uris":{"android":"levelo://app?vid=c028564b-dd93-484a-8f41-5b40f3b67039","ios":"levelo://app?vid=c028564b-dd93-484a-8f41-5b40f3b67039"},"vehicle_type_id":"4","last_reported":1743879987,"current_range_meters":7200,"station_id":"ce4bhap2rcd13ifvqek0","pricing_plan_id":"cebpf4jnsgd1na2vs0mg"},{"bike_id":"4c0b495e-9d1e-4797-8730-03f3e98218a3","system_id":"levelo_inurba_marseille","lat":43.29564,"lon":5.3751,"is_reserved":false,"is_disabled":false,"rental_uris":{"android":"levelo://app?vid=4c0b495e-9d1e-4797-8730-03f3e98218a3","ios":"levelo://app?vid=4c0b495e-9d1e-4797-8730-03f3e98218a3"},"vehicle_type_id":"4","last_reported":1743879987,"current_range_meters":7200,"station_id":"ce4bgh92rcd13ifvqb50","pricing_plan_id":"cebpf4jnsgd1na2vs0mg"},{"bike_id":"dcb3bde2-257c-4352-a361-bd53150773b3","system_id":"levelo_inurba_marseille","lat":43.288544,"lon":5.3585,"is_reserved":false,"is_disabled":false,"rental_uris":{"android":"levelo://app?vid=dcb3bde2-257c-4352-a361-bd53150773b3","ios":"levelo://app?vid=dcb3bde2-257c-4352-a361-bd53150773b3"},"vehicle_type_id":"4","last_reported":1743879987,"current_range_meters":7200,"station_id":"ce4bhb12rcd13ifvqem0","pricing_plan_id":"cebpf4jnsgd1na2vs0mg"},{"bike_id":"2782db46-64a8-4ead-92a3-b9ebf8a79a9d","system_id":"levelo_inurba_marseille","lat":43.29566,"lon":5.37522,"is_reserved":false,"is_disabled":false,"rental_uris":{"android":"levelo://app?vid=2782db46-64a8-4ead-92a3-b9ebf8a79a9d","ios":"levelo://app?vid=2782db46-64a8-4ead-92a3-b9ebf8a79a9d"},"vehicle_type_id":"4","last_reported":1743879987,"current_range_meters":7200,"station_id":"ce4bgh92rcd13ifvqb50","pricing_plan_id":"cebpf4jnsgd1na2vs0mg"},{"bike_id":"fcc9abbd-dfa8-4c21-91c3-36ed1013a60b","system_id":"levelo_inurba_marseille","lat":43.29272,"lon":5.40127,"is_reserved":false,"is_disabled":false,"rental_uris":{"android":"levelo://app?vid=fcc9abbd-dfa8-4c21-91c3-36ed1013a60b","ios":"levelo://app?vid=fcc9abbd-dfa8-4c21-91c3-36ed1013a60b"},"vehicle_type_id":"4","last_reported":1743879987,"current_range_meters":7200,"station_id":"ce4bh312rcd13ifvqdk0","pricing_plan_id":"cebpf4jnsgd1na2vs0mg"},{"bike_id":"b84264c4-8104-49ae-a897-a40e315a30ec","system_id":"levelo_inurba_marseille","lat":43.294179,"lon":5.386233,"is_reserved":false,"is_disabled":false,"rental_uris":{"android":"levelo://app?vid=b84264c4-8104-49ae-a897-a40e315a30ec","ios":"levelo://app?vid=b84264c4-8104-49ae-a897-a40e315a30ec"},"vehicle_type_id":"4","last_reported":1743879987,"current_range_meters":7200,"station_id":"ce4bh2h2rcd13ifvqdh0","pricing_plan_id":"cebpf4jnsgd1na2vs0mg"},{"bike_id":"ff969cf2-5db3-472d-a168-94891dca9ae0","system_id":"levelo_inurba_marseille","lat":43.29884,"lon":5.38903,"is_reserved":false,"is_disabled":false,"rental_uris":{"android":"levelo://app?vid=ff969cf2-5db3-472d-a168-94891dca9ae0","ios":"levelo://app?vid=ff969cf2-5db3-472d-a168-94891dca9ae0"},"vehicle_type_id":"4","last_reported":1743879987,"current_range_meters":7200,"station_id":"ce4bh392rcd13ifvqdl0","pricing_plan_id":"cebpf4jnsgd1na2vs0mg"},{"bike_id":"9a36e749-313f-43fc-ac90-b52b5015306e","system_id":"levelo_inurba_marseille","lat":43.21195,"lon":5.35072,"is_reserved":false,"is_disabled":false,"rental_uris":{"android":"levelo://app?vid=9a36e749-313f-43fc-ac90-b52b5015306e","ios":"levelo://app?vid=9a36e749-313f-43fc-ac90-b52b5015306e"},"vehicle_type_id":"4","last_reported":1743879987,"current_range_meters":8000,"station_id":"st_cvj6sg6p6f1abm77japg","pricing_plan_id":"cebpf4jnsgd1na2vs0mg"},{"bike_id":"ef57254c-68b9-422d-8695-4b00a526f15b","system_id":"levelo_inurba_marseille","lat":43.27609,"lon":5.36098,"is_reserved":false,"is_disabled":false,"rental_uris":{"android":"levelo://app?vid=ef57254c-68b9-422d-8695-4b00a526f15b","ios":"levelo://app?vid=ef57254c-68b9-422d-8695-4b00a526f15b"},"vehicle_type_id":"4","last_reported":1743879987,"current_range_meters":8000,"station_id":"ce4bgj92rcd13ifvqbe0","pricing_plan_id":"cebpf4jnsgd1na2vs0mg"},{"bike_id":"5ca6e8c5-294b-49bb-b113-a9faee54bd52","system_id":"levelo_inurba_marseille","lat":43.29276,"lon":5.38449,"is_reserved":false,"is_disabled":false,"rental_uris":{"android":"levelo://app?vid=5ca6e8c5-294b-49bb-b113-a9faee54bd52","ios":"levelo://app?vid=5ca6e8c5-294b-49bb-b113-a9faee54bd52"},"vehicle_type_id":"4","last_reported":1743879987,"current_range_meters":8000,"station_id":"ce4bh692rcd13ifvqea0","pricing_plan_id":"cebpf4jnsgd1na2vs0mg"},{"bike_id":"d043da4c-8593-477c-a3f7-8e7748e47725","system_id":"levelo_inurba_marseille","lat":43.325097,"lon":5.390153,"is_reserved":false,"is_disabled":false,"rental_uris":{"android":"levelo://app?vid=d043da4c-8593-477c-a3f7-8e7748e47725","ios":"levelo://app?vid=d043da4c-8593-477c-a3f7-8e7748e47725"},"vehicle_type_id":"4","last_reported":1743879987,"current_range_meters":8000,"station_id":"","pricing_plan_id":"cebpf4jnsgd1na2vs0mg"},{"bike_id":"f7f054b4-53e0-4767-85dd-4bcc79b99670","system_id":"levelo_inurba_marseille","lat":43.32481,"lon":5.36571,"is_reserved":false,"is_disabled":false,"rental_uris":{"android":"levelo://app?vid=f7f054b4-53e0-4767-85dd-4bcc79b99670","ios":"levelo://app?vid=f7f054b4-53e0-4767-85dd-4bcc79b99670"},"vehicle_type_id":"4","last_reported":1743879987,"current_range_meters":8000,"station_id":"ce4bhs12rcd13ifvqhvg","pricing_plan_id":"cebpf4jnsgd1na2vs0mg"},{"bike_id":"828c42f8-dcf0-48af-b560-6ad33f8a5e15","system_id":"levelo_inurba_marseille","lat":43.30908,"lon":5.3686,"is_reserved":false,"is_disabled":false,"rental_uris":{"android":"levelo://app?vid=828c42f8-dcf0-48af-b560-6ad33f8a5e15","ios":"levelo://app?vid=828c42f8-dcf0-48af-b560-6ad33f8a5e15"},"vehicle_type_id":"4","last_reported":1743879987,"current_range_meters":7200,"station_id":"ce4bgn92rcd13ifvqbvg","pricing_plan_id":"cebpf4jnsgd1na2vs0mg"},{"bike_id":"82e42512-0143-41e9-8304-aae55767297b","system_id":"levelo_inurba_marseille","lat":43.29259,"lon":5.38447,"is_reserved":false,"is_disabled":false,"rental_uris":{"android":"levelo://app?vid=82e42512-0143-41e9-8304-aae55767297b","ios":"levelo://app?vid=82e42512-0143-41e9-8304-aae55767297b"},"vehicle_type_id":"4","last_reported":1743879987,"current_range_meters":8000,"station_id":"ce4bh692rcd13ifvqea0","pricing_plan_id":"cebpf4jnsgd1na2vs0mg"},{"bike_id":"feb6e46c-3fb2-45a9-a2fb-22ac62feb505","system_id":"levelo_inurba_marseille","lat":43.23077,"lon":5.35489,"is_reserved":false,"is_disabled":true,"rental_uris":{"android":"levelo://app?vid=feb6e46c-3fb2-45a9-a2fb-22ac62feb505","ios":"levelo://app?vid=feb6e46c-3fb2-45a9-a2fb-22ac62feb505"},"vehicle_type_id":"4","last_reported":1743879987,"current_range_meters":8000,"station_id":"cpo3342slgdg3j2ifvpg","pricing_plan_id":"cebpf4jnsgd1na2vs0mg"},{"bike_id":"715a61f4-d158-4bf6-bd64-6b1334d47d91","system_id":"levelo_inurba_marseille","lat":43.30587,"lon":5.39336,"is_reserved":false,"is_disabled":false,"rental_uris":{"android":"levelo://app?vid=715a61f4-d158-4bf6-bd64-6b1334d47d91","ios":"levelo://app?vid=715a61f4-d158-4bf6-bd64-6b1334d47d91"},"vehicle_type_id":"4","last_reported":1743879987,"current_range_meters":8400,"station_id":"ce4bh0p2rcd13ifvqd80","pricing_plan_id":"cebpf4jnsgd1na2vs0mg"},{"bike_id":"83498215-ef33-4d86-ae0e-50adbeec420b","system_id":"levelo_inurba_marseille","lat":43.29865,"lon":5.39731,"is_reserved":false,"is_disabled":false,"rental_uris":{"android":"levelo://app?vid=83498215-ef33-4d86-ae0e-50adbeec420b","ios":"levelo://app?vid=83498215-ef33-4d86-ae0e-50adbeec420b"},"vehicle_type_id":"4","last_reported":1743879987,"current_range_meters":8400,"station_id":"ce4bh0h2rcd13ifvqd50","pricing_plan_id":"cebpf4jnsgd1na2vs0mg"},{"bike_id":"fb0d4993-67fa-4314-9525-ef2ba9197c72","system_id":"levelo_inurba_marseille","lat":43.30321,"lon":5.4059,"is_reserved":false,"is_disabled":false,"rental_uris":{"android":"levelo://app?vid=fb0d4993-67fa-4314-9525-ef2ba9197c72","ios":"levelo://app?vid=fb0d4993-67fa-4314-9525-ef2ba9197c72"},"vehicle_type_id":"4","last_reported":1743879987,"current_range_meters":8400,"station_id":"","pricing_plan_id":"cebpf4jnsgd1na2vs0mg"},{"bike_id":"c3da230f-b1cd-4c60-afdc-862e2979b486","system_id":"levelo_inurba_marseille","lat":43.29415,"lon":5.38629,"is_reserved":false,"is_disabled":false,"rental_uris":{"android":"levelo://app?vid=c3da230f-b1cd-4c60-afdc-862e2979b486","ios":"levelo://app?vid=c3da230f-b1cd-4c60-afdc-862e2979b486"},"vehicle_type_id":"4","last_reported":1743879987,"current_range_meters":8400,"station_id":"ce4bh2h2rcd13ifvqdh0","pricing_plan_id":"cebpf4jnsgd1na2vs0mg"},{"bike_id":"ae79c1bf-8717-47e8-aea3-c60d1cef4eb3","system_id":"levelo_inurba_marseille","lat":43.272,"lon":5.39187,"is_reserved":false,"is_disabled":false,"rental_uris":{"android":"levelo://app?vid=ae79c1bf-8717-47e8-aea3-c60d1cef4eb3","ios":"levelo://app?vid=ae79c1bf-8717-47e8-aea3-c60d1cef4eb3"},"vehicle_type_id":"4","last_reported":1743879987,"current_range_meters":8400,"station_id":"ce4bhhp2rcd13ifvqfm0","pricing_plan_id":"cebpf4jnsgd1na2vs0mg"},{"bike_id":"66d400ad-6758-4a6c-818d-a2b07155543f","system_id":"levelo_inurba_marseille","lat":43.2997,"lon":5.3717,"is_reserved":false,"is_disabled":false,"rental_uris":{"android":"levelo://app?vid=66d400ad-6758-4a6c-818d-a2b07155543f","ios":"levelo://app?vid=66d400ad-6758-4a6c-818d-a2b07155543f"},"vehicle_type_id":"4","last_reported":1743879987,"current_range_meters":8400,"station_id":"ce4bgr92rcd13ifvqc7g","pricing_plan_id":"cebpf4jnsgd1na2vs0mg"},{"bike_id":"ac7a85da-6a1d-42f4-b3e0-decaec458451","system_id":"levelo_inurba_marseille","lat":43.22919,"lon":5.35387,"is_reserved":false,"is_disabled":true,"rental_uris":{"android":"levelo://app?vid=ac7a85da-6a1d-42f4-b3e0-decaec458451","ios":"levelo://app?vid=ac7a85da-6a1d-42f4-b3e0-decaec458451"},"vehicle_type_id":"4","last_reported":1743879987,"current_range_meters":8400,"station_id":"cpo3532slgdg3j2ikp40","pricing_plan_id":"cebpf4jnsgd1na2vs0mg"},{"bike_id":"05c5cd56-cf8d-4ac4-9357-91daa8c7e175","system_id":"levelo_inurba_marseille","lat":43.27174,"lon":5.40998,"is_reserved":false,"is_disabled":false,"rental_uris":{"android":"levelo://app?vid=05c5cd56-cf8d-4ac4-9357-91daa8c7e175","ios":"levelo://app?vid=05c5cd56-cf8d-4ac4-9357-91daa8c7e175"},"vehicle_type_id":"4","last_reported":1743879987,"current_range_meters":8400,"station_id":"ce4bhl12rcd13ifvqgf0","pricing_plan_id":"cebpf4jnsgd1na2vs0mg"},{"bike_id":"66b14ad6-0def-4b23-976b-6d33d29ea53a","system_id":"levelo_inurba_marseille","lat":43.28051,"lon":5.34818,"is_reserved":false,"is_disabled":false,"rental_uris":{"android":"levelo://app?vid=66b14ad6-0def-4b23-976b-6d33d29ea53a","ios":"levelo://app?vid=66b14ad6-0def-4b23-976b-6d33d29ea53a"},"vehicle_type_id":"4","last_reported":1743879987,"current_range_meters":8400,"station_id":"","pricing_plan_id":"cebpf4jnsgd1na2vs0mg"},{"bike_id":"020181d2-31a5-4ed0-9ac7-23a9efb5c985","system_id":"levelo_inurba_marseille","lat":43.26956,"lon":5.386339,"is_reserved":false,"is_disabled":false,"rental_uris":{"android":"levelo://app?vid=020181d2-31a5-4ed0-9ac7-23a9efb5c985","ios":"levelo://app?vid=020181d2-31a5-4ed0-9ac7-23a9efb5c985"},"vehicle_type_id":"4","last_reported":1743879987,"current_range_meters":8400,"station_id":"ce4bhh92rcd13ifvqfh0","pricing_plan_id":"cebpf4jnsgd1na2vs0mg"},{"bike_id":"1fcbf131-28eb-49f6-9c47-b10310236fae","system_id":"levelo_inurba_marseille","lat":43.30928,"lon":5.40139,"is_reserved":false,"is_disabled":false,"rental_uris":{"android":"levelo://app?vid=1fcbf131-28eb-49f6-9c47-b10310236fae","ios":"levelo://app?vid=1fcbf131-28eb-49f6-9c47-b10310236fae"},"vehicle_type_id":"4","last_reported":1743879987,"current_range_meters":8000,"station_id":"ce4bgvp2rcd13ifvqct0","pricing_plan_id":"cebpf4jnsgd1na2vs0mg"},{"bike_id":"831af6d8-f807-4ce8-9f99-a2a24b8049e5","system_id":"levelo_inurba_marseille","lat":43.27947,"lon":5.41044,"is_reserved":false,"is_disabled":false,"rental_uris":{"android":"levelo://app?vid=831af6d8-f807-4ce8-9f99-a2a24b8049e5","ios":"levelo://app?vid=831af6d8-f807-4ce8-9f99-a2a24b8049e5"},"vehicle_type_id":"4","last_reported":1743879987,"current_range_meters":8400,"station_id":"ce4bhnp2rcd13ifvqh0g","pricing_plan_id":"cebpf4jnsgd1na2vs0mg"},{"bike_id":"bef052f2-2d3a-4b9f-a5db-0df626e48d8a","system_id":"levelo_inurba_marseille","lat":43.29418,"lon":5.38627,"is_reserved":false,"is_disabled":false,"rental_uris":{"android":"levelo://app?vid=bef052f2-2d3a-4b9f-a5db-0df626e48d8a","ios":"levelo://app?vid=bef052f2-2d3a-4b9f-a5db-0df626e48d8a"},"vehicle_type_id":"4","last_reported":1743879987,"current_range_meters":8400,"station_id":"ce4bh2h2rcd13ifvqdh0","pricing_plan_id":"cebpf4jnsgd1na2vs0mg"},{"bike_id":"86950742-2a83-439a-b6d7-c0601bd4f799","system_id":"levelo_inurba_marseille","lat":43.28035,"lon":5.36944,"is_reserved":false,"is_disabled":false,"rental_uris":{"android":"levelo://app?vid=86950742-2a83-439a-b6d7-c0601bd4f799","ios":"levelo://app?vid=86950742-2a83-439a-b6d7-c0601bd4f799"},"vehicle_type_id":"4","last_reported":1743879987,"current_range_meters":8400,"station_id":"ce4bha12rcd13ifvqef0","pricing_plan_id":"cebpf4jnsgd1na2vs0mg"},{"bike_id":"58f2ce45-fc04-4c4b-9865-0e114db3c331","system_id":"levelo_inurba_marseille","lat":43.248074,"lon":5.374586,"is_reserved":false,"is_disabled":false,"rental_uris":{"android":"levelo://app?vid=58f2ce45-fc04-4c4b-9865-0e114db3c331","ios":"levelo://app?vid=58f2ce45-fc04-4c4b-9865-0e114db3c331"},"vehicle_type_id":"4","last_reported":1743879987,"current_range_meters":8400,"station_id":"ce4bhgh2rcd13ifvqfb0","pricing_plan_id":"cebpf4jnsgd1na2vs0mg"},{"bike_id":"eb79d1f9-7c91-4ea2-b5f8-796189743e1a","system_id":"levelo_inurba_marseille","lat":43.33732,"lon":5.39188,"is_reserved":false,"is_disabled":false,"rental_uris":{"android":"levelo://app?vid=eb79d1f9-7c91-4ea2-b5f8-796189743e1a","ios":"levelo://app?vid=eb79d1f9-7c91-4ea2-b5f8-796189743e1a"},"vehicle_type_id":"4","last_reported":1743879987,"current_range_meters":8800,"station_id":"ce4bhr92rcd13ifvqhsg","pricing_plan_id":"cebpf4jnsgd1na2vs0mg"},{"bike_id":"f917f609-5a32-4424-a82b-a6fd6f815fb0","system_id":"levelo_inurba_marseille","lat":43.28936,"lon":5.36633,"is_reserved":false,"is_disabled":false,"rental_uris":{"android":"levelo://app?vid=f917f609-5a32-4424-a82b-a6fd6f815fb0","ios":"levelo://app?vid=f917f609-5a32-4424-a82b-a6fd6f815fb0"},"vehicle_type_id":"4","last_reported":1743879987,"current_range_meters":8800,"station_id":"ce4bhap2rcd13ifvqek0","pricing_plan_id":"cebpf4jnsgd1na2vs0mg"},{"bike_id":"ed33f895-d65e-495f-abb8-b8f6df67f426","system_id":"levelo_inurba_marseille","lat":43.29271,"lon":5.38449,"is_reserved":false,"is_disabled":false,"rental_uris":{"android":"levelo://app?vid=ed33f895-d65e-495f-abb8-b8f6df67f426","ios":"levelo://app?vid=ed33f895-d65e-495f-abb8-b8f6df67f426"},"vehicle_type_id":"4","last_reported":1743879987,"current_range_meters":8800,"station_id":"ce4bh692rcd13ifvqea0","pricing_plan_id":"cebpf4jnsgd1na2vs0mg"},{"bike_id":"36cc4f1e-b88d-49bc-b899-3666e553e556","system_id":"levelo_inurba_marseille","lat":43.29053,"lon":5.35919,"is_reserved":false,"is_disabled":false,"rental_uris":{"android":"levelo://app?vid=36cc4f1e-b88d-49bc-b899-3666e553e556","ios":"levelo://app?vid=36cc4f1e-b88d-49bc-b899-3666e553e556"},"vehicle_type_id":"4","last_reported":1743879987,"current_range_meters":8800,"station_id":"ce4bha92rcd13ifvqeg0","pricing_plan_id":"cebpf4jnsgd1na2vs0mg"},{"bike_id":"3a45d79d-f040-4d44-b43c-a5960338e178","system_id":"levelo_inurba_marseille","lat":43.28932,"lon":5.36621,"is_reserved":false,"is_disabled":false,"rental_uris":{"android":"levelo://app?vid=3a45d79d-f040-4d44-b43c-a5960338e178","ios":"levelo://app?vid=3a45d79d-f040-4d44-b43c-a5960338e178"},"vehicle_type_id":"4","last_reported":1743879987,"current_range_meters":8800,"station_id":"ce4bhap2rcd13ifvqek0","pricing_plan_id":"cebpf4jnsgd1na2vs0mg"},{"bike_id":"fdad6e5e-1467-4616-9d72-68b29d343e00","system_id":"levelo_inurba_marseille","lat":43.32281,"lon":5.38318,"is_reserved":false,"is_disabled":false,"rental_uris":{"android":"levelo://app?vid=fdad6e5e-1467-4616-9d72-68b29d343e00","ios":"levelo://app?vid=fdad6e5e-1467-4616-9d72-68b29d343e00"},"vehicle_type_id":"4","last_reported":1743879987,"current_range_meters":8800,"station_id":"ce4bhr12rcd13ifvqhqg","pricing_plan_id":"cebpf4jnsgd1na2vs0mg"},{"bike_id":"01e2454a-b794-4ef0-ab24-a4075be75791","system_id":"levelo_inurba_marseille","lat":43.29619,"lon":5.37733,"is_reserved":false,"is_disabled":false,"rental_uris":{"android":"levelo://app?vid=01e2454a-b794-4ef0-ab24-a4075be75791","ios":"levelo://app?vid=01e2454a-b794-4ef0-ab24-a4075be75791"},"vehicle_type_id":"4","last_reported":1743879987,"current_range_meters":8800,"station_id":"ce4bgi92rcd13ifvqb90","pricing_plan_id":"cebpf4jnsgd1na2vs0mg"},{"bike_id":"98ae1625-5525-4f4f-a797-475706529a8d","system_id":"levelo_inurba_marseille","lat":43.274231,"lon":5.393656,"is_reserved":false,"is_disabled":false,"rental_uris":{"android":"levelo://app?vid=98ae1625-5525-4f4f-a797-475706529a8d","ios":"levelo://app?vid=98ae1625-5525-4f4f-a797-475706529a8d"},"vehicle_type_id":"4","last_reported":1743879987,"current_range_meters":8800,"station_id":"ce4bhdp2rcd13ifvqf20","pricing_plan_id":"cebpf4jnsgd1na2vs0mg"},{"bike_id":"932cc725-1be2-4328-94d3-cfba6becf588","system_id":"levelo_inurba_marseille","lat":43.28409,"lon":5.37521,"is_reserved":false,"is_disabled":false,"rental_uris":{"android":"levelo://app?vid=932cc725-1be2-4328-94d3-cfba6becf588","ios":"levelo://app?vid=932cc725-1be2-4328-94d3-cfba6becf588"},"vehicle_type_id":"4","last_reported":1743879987,"current_range_meters":8800,"station_id":"ce4bh412rcd13ifvqds0","pricing_plan_id":"cebpf4jnsgd1na2vs0mg"},{"bike_id":"80ea1bb0-32e0-4e3d-a8a3-f124120dc5ec","system_id":"levelo_inurba_marseille","lat":43.2927,"lon":5.38424,"is_reserved":false,"is_disabled":false,"rental_uris":{"android":"levelo://app?vid=80ea1bb0-32e0-4e3d-a8a3-f124120dc5ec","ios":"levelo://app?vid=80ea1bb0-32e0-4e3d-a8a3-f124120dc5ec"},"vehicle_type_id":"4","last_reported":1743879987,"current_range_meters":8800,"station_id":"ce4bh692rcd13ifvqea0","pricing_plan_id":"cebpf4jnsgd1na2vs0mg"},{"bike_id":"036d07ea-6ab3-4fb2-95f7-8dc2d9cbe8e6","system_id":"levelo_inurba_marseille","lat":43.29248,"lon":5.36874,"is_reserved":false,"is_disabled":false,"rental_uris":{"android":"levelo://app?vid=036d07ea-6ab3-4fb2-95f7-8dc2d9cbe8e6","ios":"levelo://app?vid=036d07ea-6ab3-4fb2-95f7-8dc2d9cbe8e6"},"vehicle_type_id":"4","last_reported":1743879987,"current_range_meters":9200,"station_id":"ce4bhbp2rcd13ifvqesg","pricing_plan_id":"cebpf4jnsgd1na2vs0mg"},{"bike_id":"8c04198a-2755-4dcf-8ee9-98900092ba78","system_id":"levelo_inurba_marseille","lat":43.27375,"lon":5.36262,"is_reserved":false,"is_disabled":false,"rental_uris":{"android":"levelo://app?vid=8c04198a-2755-4dcf-8ee9-98900092ba78","ios":"levelo://app?vid=8c04198a-2755-4dcf-8ee9-98900092ba78"},"vehicle_type_id":"4","last_reported":1743879987,"current_range_meters":9200,"station_id":"ce4bhbh2rcd13ifvqeo0","pricing_plan_id":"cebpf4jnsgd1na2vs0mg"},{"bike_id":"dbd8fe7c-ac98-4d0c-88b3-a42651eb56f0","system_id":"levelo_inurba_marseille","lat":43.27953,"lon":5.38747,"is_reserved":false,"is_disabled":false,"rental_uris":{"android":"levelo://app?vid=dbd8fe7c-ac98-4d0c-88b3-a42651eb56f0","ios":"levelo://app?vid=dbd8fe7c-ac98-4d0c-88b3-a42651eb56f0"},"vehicle_type_id":"4","last_reported":1743879987,"current_range_meters":9200,"station_id":"ce4bhg12rcd13ifvqf80","pricing_plan_id":"cebpf4jnsgd1na2vs0mg"},{"bike_id":"f7ed8f9f-08ba-43a2-8fa1-b91f250b7b84","system_id":"levelo_inurba_marseille","lat":43.31693,"lon":5.40465,"is_reserved":false,"is_disabled":false,"rental_uris":{"android":"levelo://app?vid=f7ed8f9f-08ba-43a2-8fa1-b91f250b7b84","ios":"levelo://app?vid=f7ed8f9f-08ba-43a2-8fa1-b91f250b7b84"},"vehicle_type_id":"4","last_reported":1743879987,"current_range_meters":9200,"station_id":"ce4bh012rcd13ifvqd00","pricing_plan_id":"cebpf4jnsgd1na2vs0mg"},{"bike_id":"c2701643-f413-412e-ae38-f0fec5def7c8","system_id":"levelo_inurba_marseille","lat":43.29299,"lon":5.37165,"is_reserved":false,"is_disabled":false,"rental_uris":{"android":"levelo://app?vid=c2701643-f413-412e-ae38-f0fec5def7c8","ios":"levelo://app?vid=c2701643-f413-412e-ae38-f0fec5def7c8"},"vehicle_type_id":"4","last_reported":1743879987,"current_range_meters":9200,"station_id":"ce4bgh92rcd13ifvqb40","pricing_plan_id":"cebpf4jnsgd1na2vs0mg"},{"bike_id":"fe0a042b-8767-479a-bfef-94033efb9ac4","system_id":"levelo_inurba_marseille","lat":43.29596,"lon":5.38102,"is_reserved":false,"is_disabled":false,"rental_uris":{"android":"levelo://app?vid=fe0a042b-8767-479a-bfef-94033efb9ac4","ios":"levelo://app?vid=fe0a042b-8767-479a-bfef-94033efb9ac4"},"vehicle_type_id":"4","last_reported":1743879987,"current_range_meters":9200,"station_id":"ce4bgl12rcd13ifvqbo0","pricing_plan_id":"cebpf4jnsgd1na2vs0mg"},{"bike_id":"74ef1c0d-1d19-416b-8098-d6f16b2af396","system_id":"levelo_inurba_marseille","lat":43.28031,"lon":5.36946,"is_reserved":false,"is_disabled":false,"rental_uris":{"android":"levelo://app?vid=74ef1c0d-1d19-416b-8098-d6f16b2af396","ios":"levelo://app?vid=74ef1c0d-1d19-416b-8098-d6f16b2af396"},"vehicle_type_id":"4","last_reported":1743879987,"current_range_meters":9200,"station_id":"ce4bha12rcd13ifvqef0","pricing_plan_id":"cebpf4jnsgd1na2vs0mg"},{"bike_id":"1c600046-fb8a-47c3-8c47-03c4e2502051","system_id":"levelo_inurba_marseille","lat":43.29028,"lon":5.38628,"is_reserved":false,"is_disabled":false,"rental_uris":{"android":"levelo://app?vid=1c600046-fb8a-47c3-8c47-03c4e2502051","ios":"levelo://app?vid=1c600046-fb8a-47c3-8c47-03c4e2502051"},"vehicle_type_id":"4","last_reported":1743879987,"current_range_meters":9200,"station_id":"ce4bh4p2rcd13ifvqe0g","pricing_plan_id":"cebpf4jnsgd1na2vs0mg"},{"bike_id":"c38496df-4bf6-4c97-91c3-17abcf370a7f","system_id":"levelo_inurba_marseille","lat":43.29308,"lon":5.38473,"is_reserved":false,"is_disabled":false,"rental_uris":{"android":"levelo://app?vid=c38496df-4bf6-4c97-91c3-17abcf370a7f","ios":"levelo://app?vid=c38496df-4bf6-4c97-91c3-17abcf370a7f"},"vehicle_type_id":"4","last_reported":1743879987,"current_range_meters":9200,"station_id":"","pricing_plan_id":"cebpf4jnsgd1na2vs0mg"},{"bike_id":"8e8105ce-63e2-4441-9ebe-d6a09a08a22e","system_id":"levelo_inurba_marseille","lat":43.29668,"lon":5.36204,"is_reserved":false,"is_disabled":false,"rental_uris":{"android":"levelo://app?vid=8e8105ce-63e2-4441-9ebe-d6a09a08a22e","ios":"levelo://app?vid=8e8105ce-63e2-4441-9ebe-d6a09a08a22e"},"vehicle_type_id":"4","last_reported":1743879987,"current_range_meters":9200,"station_id":"","pricing_plan_id":"cebpf4jnsgd1na2vs0mg"},{"bike_id":"e29cf6ea-fbad-46c8-8f2d-eeb22bcc87e4","system_id":"levelo_inurba_marseille","lat":43.2942,"lon":5.38615,"is_reserved":false,"is_disabled":false,"rental_uris":{"android":"levelo://app?vid=e29cf6ea-fbad-46c8-8f2d-eeb22bcc87e4","ios":"levelo://app?vid=e29cf6ea-fbad-46c8-8f2d-eeb22bcc87e4"},"vehicle_type_id":"4","last_reported":1743879987,"current_range_meters":9200,"station_id":"ce4bh2h2rcd13ifvqdh0","pricing_plan_id":"cebpf4jnsgd1na2vs0mg"},{"bike_id":"984800c8-d9c0-4b8a-a266-958225451f23","system_id":"levelo_inurba_marseille","lat":43.28929,"lon":5.38395,"is_reserved":false,"is_disabled":false,"rental_uris":{"android":"levelo://app?vid=984800c8-d9c0-4b8a-a266-958225451f23","ios":"levelo://app?vid=984800c8-d9c0-4b8a-a266-958225451f23"},"vehicle_type_id":"4","last_reported":1743879987,"current_range_meters":9200,"station_id":"ce4bh612rcd13ifvqe6g","pricing_plan_id":"cebpf4jnsgd1na2vs0mg"},{"bike_id":"5ae0306c-64e9-417b-97b1-b4e8180ecc54","system_id":"levelo_inurba_marseille","lat":43.29512,"lon":5.37502,"is_reserved":false,"is_disabled":false,"rental_uris":{"android":"levelo://app?vid=5ae0306c-64e9-417b-97b1-b4e8180ecc54","ios":"levelo://app?vid=5ae0306c-64e9-417b-97b1-b4e8180ecc54"},"vehicle_type_id":"4","last_reported":1743879987,"current_range_meters":9200,"station_id":"ce4bgkp2rcd13ifvqbmg","pricing_plan_id":"cebpf4jnsgd1na2vs0mg"},{"bike_id":"4fe58138-60b4-4d45-a746-cf71d1b18f1e","system_id":"levelo_inurba_marseille","lat":43.29255,"lon":5.38454,"is_reserved":false,"is_disabled":false,"rental_uris":{"android":"levelo://app?vid=4fe58138-60b4-4d45-a746-cf71d1b18f1e","ios":"levelo://app?vid=4fe58138-60b4-4d45-a746-cf71d1b18f1e"},"vehicle_type_id":"4","last_reported":1743879987,"current_range_meters":9200,"station_id":"ce4bh692rcd13ifvqea0","pricing_plan_id":"cebpf4jnsgd1na2vs0mg"},{"bike_id":"d5e984d3-343e-4e16-bd54-bc3ebbd48639","system_id":"levelo_inurba_marseille","lat":43.3013,"lon":5.38749,"is_reserved":false,"is_disabled":true,"rental_uris":{"android":"levelo://app?vid=d5e984d3-343e-4e16-bd54-bc3ebbd48639","ios":"levelo://app?vid=d5e984d3-343e-4e16-bd54-bc3ebbd48639"},"vehicle_type_id":"4","last_reported":1743879987,"current_range_meters":9600,"station_id":"ce4bghh2rcd13ifvqb60","pricing_plan_id":"cebpf4jnsgd1na2vs0mg"},{"bike_id":"db5b074a-d935-442f-b4d3-96df771d91d1","system_id":"levelo_inurba_marseille","lat":43.24831,"lon":5.37455,"is_reserved":false,"is_disabled":false,"rental_uris":{"android":"levelo://app?vid=db5b074a-d935-442f-b4d3-96df771d91d1","ios":"levelo://app?vid=db5b074a-d935-442f-b4d3-96df771d91d1"},"vehicle_type_id":"4","last_reported":1743879987,"current_range_meters":9600,"station_id":"ce4bhgh2rcd13ifvqfb0","pricing_plan_id":"cebpf4jnsgd1na2vs0mg"},{"bike_id":"1622461e-25a5-4ec6-9188-643400d8cf0e","system_id":"levelo_inurba_marseille","lat":43.30799,"lon":5.4353,"is_reserved":false,"is_disabled":false,"rental_uris":{"android":"levelo://app?vid=1622461e-25a5-4ec6-9188-643400d8cf0e","ios":"levelo://app?vid=1622461e-25a5-4ec6-9188-643400d8cf0e"},"vehicle_type_id":"4","last_reported":1743879987,"current_range_meters":9600,"station_id":"ce4bhph2rcd13ifvqheg","pricing_plan_id":"cebpf4jnsgd1na2vs0mg"},{"bike_id":"0f84880d-5dd5-442b-ae38-272926285766","system_id":"levelo_inurba_marseille","lat":43.28931,"lon":5.38397,"is_reserved":false,"is_disabled":false,"rental_uris":{"android":"levelo://app?vid=0f84880d-5dd5-442b-ae38-272926285766","ios":"levelo://app?vid=0f84880d-5dd5-442b-ae38-272926285766"},"vehicle_type_id":"4","last_reported":1743879987,"current_range_meters":9600,"station_id":"ce4bh612rcd13ifvqe6g","pricing_plan_id":"cebpf4jnsgd1na2vs0mg"},{"bike_id":"049f0823-1d72-41b6-bfcf-512682065c64","system_id":"levelo_inurba_marseille","lat":43.28047,"lon":5.36949,"is_reserved":false,"is_disabled":false,"rental_uris":{"android":"levelo://app?vid=049f0823-1d72-41b6-bfcf-512682065c64","ios":"levelo://app?vid=049f0823-1d72-41b6-bfcf-512682065c64"},"vehicle_type_id":"4","last_reported":1743879987,"current_range_meters":9600,"station_id":"ce4bha12rcd13ifvqef0","pricing_plan_id":"cebpf4jnsgd1na2vs0mg"},{"bike_id":"1e72d3fb-accb-4636-a1fd-813f0b952e02","system_id":"levelo_inurba_marseille","lat":43.309,"lon":5.39678,"is_reserved":false,"is_disabled":false,"rental_uris":{"android":"levelo://app?vid=1e72d3fb-accb-4636-a1fd-813f0b952e02","ios":"levelo://app?vid=1e72d3fb-accb-4636-a1fd-813f0b952e02"},"vehicle_type_id":"4","last_reported":1743879987,"current_range_meters":9600,"station_id":"ce4bh012rcd13ifvqcv0","pricing_plan_id":"cebpf4jnsgd1na2vs0mg"},{"bike_id":"dc320289-9ef1-4a76-9633-b19a7c7ae263","system_id":"levelo_inurba_marseille","lat":43.29096,"lon":5.38149,"is_reserved":false,"is_disabled":false,"rental_uris":{"android":"levelo://app?vid=dc320289-9ef1-4a76-9633-b19a7c7ae263","ios":"levelo://app?vid=dc320289-9ef1-4a76-9633-b19a7c7ae263"},"vehicle_type_id":"4","last_reported":1743879987,"current_range_meters":9200,"station_id":"ce4bh512rcd13ifvqe2g","pricing_plan_id":"cebpf4jnsgd1na2vs0mg"},{"bike_id":"f026eb80-b911-4274-bb5d-af622566135d","system_id":"levelo_inurba_marseille","lat":43.29277,"lon":5.38437,"is_reserved":false,"is_disabled":false,"rental_uris":{"android":"levelo://app?vid=f026eb80-b911-4274-bb5d-af622566135d","ios":"levelo://app?vid=f026eb80-b911-4274-bb5d-af622566135d"},"vehicle_type_id":"4","last_reported":1743879987,"current_range_meters":10000,"station_id":"ce4bh692rcd13ifvqea0","pricing_plan_id":"cebpf4jnsgd1na2vs0mg"},{"bike_id":"ae2491ec-6c71-4a54-8266-8b04f74c4c6b","system_id":"levelo_inurba_marseille","lat":43.31993,"lon":5.38163,"is_reserved":false,"is_disabled":false,"rental_uris":{"android":"levelo://app?vid=ae2491ec-6c71-4a54-8266-8b04f74c4c6b","ios":"levelo://app?vid=ae2491ec-6c71-4a54-8266-8b04f74c4c6b"},"vehicle_type_id":"4","last_reported":1743879987,"current_range_meters":10000,"station_id":"","pricing_plan_id":"cebpf4jnsgd1na2vs0mg"},{"bike_id":"db29433a-c7f6-40d6-b0e1-3a1f0abf15ab","system_id":"levelo_inurba_marseille","lat":43.241712,"lon":5.364041,"is_reserved":false,"is_disabled":true,"rental_uris":{"android":"levelo://app?vid=db29433a-c7f6-40d6-b0e1-3a1f0abf15ab","ios":"levelo://app?vid=db29433a-c7f6-40d6-b0e1-3a1f0abf15ab"},"vehicle_type_id":"4","last_reported":1743879987,"current_range_meters":10000,"station_id":"ce4bh412rcd13ifvqdr0","pricing_plan_id":"cebpf4jnsgd1na2vs0mg"},{"bike_id":"fdfd01fc-093d-4c48-8c80-06fe1b4633e3","system_id":"levelo_inurba_marseille","lat":43.29288,"lon":5.38458,"is_reserved":false,"is_disabled":true,"rental_uris":{"android":"levelo://app?vid=fdfd01fc-093d-4c48-8c80-06fe1b4633e3","ios":"levelo://app?vid=fdfd01fc-093d-4c48-8c80-06fe1b4633e3"},"vehicle_type_id":"4","last_reported":1743879987,"current_range_meters":10000,"station_id":"ce4bh692rcd13ifvqea0","pricing_plan_id":"cebpf4jnsgd1na2vs0mg"},{"bike_id":"301b6729-c45c-4915-8ef6-dadde3959d3d","system_id":"levelo_inurba_marseille","lat":43.26561,"lon":5.39013,"is_reserved":false,"is_disabled":true,"rental_uris":{"android":"levelo://app?vid=301b6729-c45c-4915-8ef6-dadde3959d3d","ios":"levelo://app?vid=301b6729-c45c-4915-8ef6-dadde3959d3d"},"vehicle_type_id":"4","last_reported":1743879987,"current_range_meters":10000,"station_id":"ce4bhe12rcd13ifvqf30","pricing_plan_id":"cebpf4jnsgd1na2vs0mg"},{"bike_id":"990da929-1cb7-46ce-a5e3-a46343bfffe7","system_id":"levelo_inurba_marseille","lat":43.29795,"lon":5.38105,"is_reserved":false,"is_disabled":true,"rental_uris":{"android":"levelo://app?vid=990da929-1cb7-46ce-a5e3-a46343bfffe7","ios":"levelo://app?vid=990da929-1cb7-46ce-a5e3-a46343bfffe7"},"vehicle_type_id":"4","last_reported":1743879987,"current_range_meters":10000,"station_id":"ce4bgip2rcd13ifvqbb0","pricing_plan_id":"cebpf4jnsgd1na2vs0mg"},{"bike_id":"f7d40d3a-a62c-4970-9c15-8fcde1b94b2b","system_id":"levelo_inurba_marseille","lat":43.27997,"lon":5.4166,"is_reserved":false,"is_disabled":false,"rental_uris":{"android":"levelo://app?vid=f7d40d3a-a62c-4970-9c15-8fcde1b94b2b","ios":"levelo://app?vid=f7d40d3a-a62c-4970-9c15-8fcde1b94b2b"},"vehicle_type_id":"4","last_reported":1743879987,"current_range_meters":9600,"station_id":"ce4bho12rcd13ifvqh1g","pricing_plan_id":"cebpf4jnsgd1na2vs0mg"},{"bike_id":"55b2137c-4300-4c8c-b2c2-3a6cc10bd746","system_id":"levelo_inurba_marseille","lat":43.28457,"lon":5.35894,"is_reserved":false,"is_disabled":false,"rental_uris":{"android":"levelo://app?vid=55b2137c-4300-4c8c-b2c2-3a6cc10bd746","ios":"levelo://app?vid=55b2137c-4300-4c8c-b2c2-3a6cc10bd746"},"vehicle_type_id":"4","last_reported":1743879987,"current_range_meters":10000,"station_id":"ce4bhah2rcd13ifvqei0","pricing_plan_id":"cebpf4jnsgd1na2vs0mg"},{"bike_id":"30b57730-cb66-4122-bd93-7dabcaba84e7","system_id":"levelo_inurba_marseille","lat":43.24902,"lon":5.40686,"is_reserved":false,"is_disabled":false,"rental_uris":{"android":"levelo://app?vid=30b57730-cb66-4122-bd93-7dabcaba84e7","ios":"levelo://app?vid=30b57730-cb66-4122-bd93-7dabcaba84e7"},"vehicle_type_id":"4","last_reported":1743879987,"current_range_meters":10000,"station_id":"","pricing_plan_id":"cebpf4jnsgd1na2vs0mg"},{"bike_id":"faadc67d-9c71-4157-910d-f09910705e78","system_id":"levelo_inurba_marseille","lat":43.27211,"lon":5.39178,"is_reserved":false,"is_disabled":false,"rental_uris":{"android":"levelo://app?vid=faadc67d-9c71-4157-910d-f09910705e78","ios":"levelo://app?vid=faadc67d-9c71-4157-910d-f09910705e78"},"vehicle_type_id":"4","last_reported":1743879987,"current_range_meters":10000,"station_id":"ce4bhhp2rcd13ifvqfm0","pricing_plan_id":"cebpf4jnsgd1na2vs0mg"},{"bike_id":"c89a749e-492a-4edb-8fe9-5254d4113a2d","system_id":"levelo_inurba_marseille","lat":43.27988,"lon":5.41664,"is_reserved":false,"is_disabled":false,"rental_uris":{"android":"levelo://app?vid=c89a749e-492a-4edb-8fe9-5254d4113a2d","ios":"levelo://app?vid=c89a749e-492a-4edb-8fe9-5254d4113a2d"},"vehicle_type_id":"4","last_reported":1743879987,"current_range_meters":10000,"station_id":"ce4bho12rcd13ifvqh1g","pricing_plan_id":"cebpf4jnsgd1na2vs0mg"},{"bike_id":"fb7a6658-65a4-4af9-acc1-679ce624548f","system_id":"levelo_inurba_marseille","lat":43.26252,"lon":5.40457,"is_reserved":false,"is_disabled":false,"rental_uris":{"android":"levelo://app?vid=fb7a6658-65a4-4af9-acc1-679ce624548f","ios":"levelo://app?vid=fb7a6658-65a4-4af9-acc1-679ce624548f"},"vehicle_type_id":"4","last_reported":1743879987,"current_range_meters":10800,"station_id":"ce4bhmh2rcd13ifvqgmg","pricing_plan_id":"cebpf4jnsgd1na2vs0mg"},{"bike_id":"58b17406-9bc6-4a67-b002-5d6db4195932","system_id":"levelo_inurba_marseille","lat":43.26217,"lon":5.40418,"is_reserved":false,"is_disabled":false,"rental_uris":{"android":"levelo://app?vid=58b17406-9bc6-4a67-b002-5d6db4195932","ios":"levelo://app?vid=58b17406-9bc6-4a67-b002-5d6db4195932"},"vehicle_type_id":"4","last_reported":1743879987,"current_range_meters":10800,"station_id":"ce4bhmh2rcd13ifvqgmg","pricing_plan_id":"cebpf4jnsgd1na2vs0mg"},{"bike_id":"a6a4aada-4dec-4c66-9029-bd9ebff46b38","system_id":"levelo_inurba_marseille","lat":43.31333,"lon":5.39724,"is_reserved":false,"is_disabled":false,"rental_uris":{"android":"levelo://app?vid=a6a4aada-4dec-4c66-9029-bd9ebff46b38","ios":"levelo://app?vid=a6a4aada-4dec-4c66-9029-bd9ebff46b38"},"vehicle_type_id":"4","last_reported":1743879987,"current_range_meters":10800,"station_id":"ce4bgvp2rcd13ifvqcu0","pricing_plan_id":"cebpf4jnsgd1na2vs0mg"},{"bike_id":"c9bcb9ed-89fa-4f1d-bf29-12fb5d644696","system_id":"levelo_inurba_marseille","lat":43.27997,"lon":5.41659,"is_reserved":false,"is_disabled":false,"rental_uris":{"android":"levelo://app?vid=c9bcb9ed-89fa-4f1d-bf29-12fb5d644696","ios":"levelo://app?vid=c9bcb9ed-89fa-4f1d-bf29-12fb5d644696"},"vehicle_type_id":"4","last_reported":1743879987,"current_range_meters":10800,"station_id":"ce4bho12rcd13ifvqh1g","pricing_plan_id":"cebpf4jnsgd1na2vs0mg"},{"bike_id":"25314db0-1249-4b49-9956-f519e7c8e80f","system_id":"levelo_inurba_marseille","lat":43.32105,"lon":5.36769,"is_reserved":false,"is_disabled":false,"rental_uris":{"android":"levelo://app?vid=25314db0-1249-4b49-9956-f519e7c8e80f","ios":"levelo://app?vid=25314db0-1249-4b49-9956-f519e7c8e80f"},"vehicle_type_id":"4","last_reported":1743879987,"current_range_meters":10800,"station_id":"ce4bhrh2rcd13ifvqhug","pricing_plan_id":"cebpf4jnsgd1na2vs0mg"},{"bike_id":"4c25fb76-cd0e-4544-8837-d2585ee48375","system_id":"levelo_inurba_marseille","lat":43.29895,"lon":5.43664,"is_reserved":false,"is_disabled":false,"rental_uris":{"android":"levelo://app?vid=4c25fb76-cd0e-4544-8837-d2585ee48375","ios":"levelo://app?vid=4c25fb76-cd0e-4544-8837-d2585ee48375"},"vehicle_type_id":"4","last_reported":1743879987,"current_range_meters":10800,"station_id":"ce4bhpp2rcd13ifvqhfg","pricing_plan_id":"cebpf4jnsgd1na2vs0mg"},{"bike_id":"4df08736-2512-479a-aabb-870c8623e6de","system_id":"levelo_inurba_marseille","lat":43.26225,"lon":5.40453,"is_reserved":false,"is_disabled":false,"rental_uris":{"android":"levelo://app?vid=4df08736-2512-479a-aabb-870c8623e6de","ios":"levelo://app?vid=4df08736-2512-479a-aabb-870c8623e6de"},"vehicle_type_id":"4","last_reported":1743879987,"current_range_meters":10800,"station_id":"ce4bhmh2rcd13ifvqgmg","pricing_plan_id":"cebpf4jnsgd1na2vs0mg"},{"bike_id":"7a935817-47e2-4cb3-8324-a647fdf3a140","system_id":"levelo_inurba_marseille","lat":43.295327,"lon":5.385486,"is_reserved":false,"is_disabled":true,"rental_uris":{"android":"levelo://app?vid=7a935817-47e2-4cb3-8324-a647fdf3a140","ios":"levelo://app?vid=7a935817-47e2-4cb3-8324-a647fdf3a140"},"vehicle_type_id":"4","last_reported":1743879987,"current_range_meters":10800,"station_id":"ce4bgih2rcd13ifvqba0","pricing_plan_id":"cebpf4jnsgd1na2vs0mg"},{"bike_id":"aa7351d5-118d-4a95-8b3d-89d2baa224a0","system_id":"levelo_inurba_marseille","lat":43.29307,"lon":5.37161,"is_reserved":false,"is_disabled":false,"rental_uris":{"android":"levelo://app?vid=aa7351d5-118d-4a95-8b3d-89d2baa224a0","ios":"levelo://app?vid=aa7351d5-118d-4a95-8b3d-89d2baa224a0"},"vehicle_type_id":"4","last_reported":1743879987,"current_range_meters":10800,"station_id":"ce4bgh92rcd13ifvqb40","pricing_plan_id":"cebpf4jnsgd1na2vs0mg"},{"bike_id":"e32906f6-3c77-463b-867c-a6eae03c2435","system_id":"levelo_inurba_marseille","lat":43.312383,"lon":5.401575,"is_reserved":false,"is_disabled":false,"rental_uris":{"android":"levelo://app?vid=e32906f6-3c77-463b-867c-a6eae03c2435","ios":"levelo://app?vid=e32906f6-3c77-463b-867c-a6eae03c2435"},"vehicle_type_id":"4","last_reported":1743879987,"current_range_meters":11200,"station_id":"ce4bh092rcd13ifvqd30","pricing_plan_id":"cebpf4jnsgd1na2vs0mg"},{"bike_id":"62d88273-ce24-4f8b-9e1f-69da1b1a0828","system_id":"levelo_inurba_marseille","lat":43.26494,"lon":5.39547,"is_reserved":false,"is_disabled":false,"rental_uris":{"android":"levelo://app?vid=62d88273-ce24-4f8b-9e1f-69da1b1a0828","ios":"levelo://app?vid=62d88273-ce24-4f8b-9e1f-69da1b1a0828"},"vehicle_type_id":"4","last_reported":1743879987,"current_range_meters":11200,"station_id":"ce4bhi12rcd13ifvqfq0","pricing_plan_id":"cebpf4jnsgd1na2vs0mg"},{"bike_id":"a6ba87f3-77e7-4e71-8233-f3c7a7039e6c","system_id":"levelo_inurba_marseille","lat":43.2942,"lon":5.38615,"is_reserved":false,"is_disabled":false,"rental_uris":{"android":"levelo://app?vid=a6ba87f3-77e7-4e71-8233-f3c7a7039e6c","ios":"levelo://app?vid=a6ba87f3-77e7-4e71-8233-f3c7a7039e6c"},"vehicle_type_id":"4","last_reported":1743879987,"current_range_meters":11200,"station_id":"ce4bh2h2rcd13ifvqdh0","pricing_plan_id":"cebpf4jnsgd1na2vs0mg"},{"bike_id":"d75b7b3c-294d-44f6-87e9-4123badd28f8","system_id":"levelo_inurba_marseille","lat":43.27575,"lon":5.38415,"is_reserved":false,"is_disabled":false,"rental_uris":{"android":"levelo://app?vid=d75b7b3c-294d-44f6-87e9-4123badd28f8","ios":"levelo://app?vid=d75b7b3c-294d-44f6-87e9-4123badd28f8"},"vehicle_type_id":"4","last_reported":1743879987,"current_range_meters":11200,"station_id":"ce4bhh92rcd13ifvqfi0","pricing_plan_id":"cebpf4jnsgd1na2vs0mg"},{"bike_id":"b70cced5-dc6e-4ac4-aef4-4cfbee9a2e11","system_id":"levelo_inurba_marseille","lat":43.29609,"lon":5.37725,"is_reserved":false,"is_disabled":true,"rental_uris":{"android":"levelo://app?vid=b70cced5-dc6e-4ac4-aef4-4cfbee9a2e11","ios":"levelo://app?vid=b70cced5-dc6e-4ac4-aef4-4cfbee9a2e11"},"vehicle_type_id":"4","last_reported":1743879987,"current_range_meters":11200,"station_id":"ce4bgi92rcd13ifvqb90","pricing_plan_id":"cebpf4jnsgd1na2vs0mg"},{"bike_id":"8715d464-859c-428e-a962-971c7d26020b","system_id":"levelo_inurba_marseille","lat":43.28081,"lon":5.3966,"is_reserved":false,"is_disabled":false,"rental_uris":{"android":"levelo://app?vid=8715d464-859c-428e-a962-971c7d26020b","ios":"levelo://app?vid=8715d464-859c-428e-a962-971c7d26020b"},"vehicle_type_id":"4","last_reported":1743879987,"current_range_meters":11200,"station_id":"ce4bho12rcd13ifvqh2g","pricing_plan_id":"cebpf4jnsgd1na2vs0mg"},{"bike_id":"e6d904ae-6e56-4fc6-b350-3dd0026002cc","system_id":"levelo_inurba_marseille","lat":43.32487,"lon":5.36565,"is_reserved":false,"is_disabled":false,"rental_uris":{"android":"levelo://app?vid=e6d904ae-6e56-4fc6-b350-3dd0026002cc","ios":"levelo://app?vid=e6d904ae-6e56-4fc6-b350-3dd0026002cc"},"vehicle_type_id":"4","last_reported":1743879987,"current_range_meters":11200,"station_id":"ce4bhs12rcd13ifvqhvg","pricing_plan_id":"cebpf4jnsgd1na2vs0mg"},{"bike_id":"25ab24b5-b311-4a08-b362-36380a20f6db","system_id":"levelo_inurba_marseille","lat":43.29257,"lon":5.38444,"is_reserved":false,"is_disabled":false,"rental_uris":{"android":"levelo://app?vid=25ab24b5-b311-4a08-b362-36380a20f6db","ios":"levelo://app?vid=25ab24b5-b311-4a08-b362-36380a20f6db"},"vehicle_type_id":"4","last_reported":1743879987,"current_range_meters":11200,"station_id":"ce4bh692rcd13ifvqea0","pricing_plan_id":"cebpf4jnsgd1na2vs0mg"},{"bike_id":"741ce7f8-845d-4b0f-9d44-aeb10e4c4b8c","system_id":"levelo_inurba_marseille","lat":43.28072,"lon":5.3965,"is_reserved":false,"is_disabled":false,"rental_uris":{"android":"levelo://app?vid=741ce7f8-845d-4b0f-9d44-aeb10e4c4b8c","ios":"levelo://app?vid=741ce7f8-845d-4b0f-9d44-aeb10e4c4b8c"},"vehicle_type_id":"4","last_reported":1743879987,"current_range_meters":9200,"station_id":"ce4bho12rcd13ifvqh2g","pricing_plan_id":"cebpf4jnsgd1na2vs0mg"},{"bike_id":"254fd9b3-1419-4c64-b708-ed09bd8c40e4","system_id":"levelo_inurba_marseille","lat":43.31709,"lon":5.37753,"is_reserved":false,"is_disabled":false,"rental_uris":{"android":"levelo://app?vid=254fd9b3-1419-4c64-b708-ed09bd8c40e4","ios":"levelo://app?vid=254fd9b3-1419-4c64-b708-ed09bd8c40e4"},"vehicle_type_id":"4","last_reported":1743879987,"current_range_meters":11600,"station_id":"ce4bgth2rcd13ifvqch0","pricing_plan_id":"cebpf4jnsgd1na2vs0mg"},{"bike_id":"61e926fe-3dd1-4572-9b21-809d24ca6684","system_id":"levelo_inurba_marseille","lat":43.3041,"lon":5.41296,"is_reserved":false,"is_disabled":false,"rental_uris":{"android":"levelo://app?vid=61e926fe-3dd1-4572-9b21-809d24ca6684","ios":"levelo://app?vid=61e926fe-3dd1-4572-9b21-809d24ca6684"},"vehicle_type_id":"4","last_reported":1743879987,"current_range_meters":11600,"station_id":"ce4bhop2rcd13ifvqh8g","pricing_plan_id":"cebpf4jnsgd1na2vs0mg"},{"bike_id":"0f3d6cb8-7efe-42ee-ab50-2a663f90e5af","system_id":"levelo_inurba_marseille","lat":43.27622,"lon":5.36127,"is_reserved":false,"is_disabled":false,"rental_uris":{"android":"levelo://app?vid=0f3d6cb8-7efe-42ee-ab50-2a663f90e5af","ios":"levelo://app?vid=0f3d6cb8-7efe-42ee-ab50-2a663f90e5af"},"vehicle_type_id":"4","last_reported":1743879987,"current_range_meters":11600,"station_id":"ce4bgj92rcd13ifvqbe0","pricing_plan_id":"cebpf4jnsgd1na2vs0mg"},{"bike_id":"019c0950-d706-45fd-b002-02f0a47de25f","system_id":"levelo_inurba_marseille","lat":43.2997,"lon":5.37175,"is_reserved":false,"is_disabled":false,"rental_uris":{"android":"levelo://app?vid=019c0950-d706-45fd-b002-02f0a47de25f","ios":"levelo://app?vid=019c0950-d706-45fd-b002-02f0a47de25f"},"vehicle_type_id":"4","last_reported":1743879987,"current_range_meters":11600,"station_id":"ce4bgr92rcd13ifvqc7g","pricing_plan_id":"cebpf4jnsgd1na2vs0mg"},{"bike_id":"0d5f1e9f-07aa-4e1e-8cc1-cb9a9a7687f2","system_id":"levelo_inurba_marseille","lat":43.29459,"lon":5.38644,"is_reserved":false,"is_disabled":false,"rental_uris":{"android":"levelo://app?vid=0d5f1e9f-07aa-4e1e-8cc1-cb9a9a7687f2","ios":"levelo://app?vid=0d5f1e9f-07aa-4e1e-8cc1-cb9a9a7687f2"},"vehicle_type_id":"4","last_reported":1743879987,"current_range_meters":11600,"station_id":"ce4bh2h2rcd13ifvqdh0","pricing_plan_id":"cebpf4jnsgd1na2vs0mg"},{"bike_id":"21a49a35-60ed-415f-b631-4e9a5295ff32","system_id":"levelo_inurba_marseille","lat":43.29273,"lon":5.36844,"is_reserved":false,"is_disabled":false,"rental_uris":{"android":"levelo://app?vid=21a49a35-60ed-415f-b631-4e9a5295ff32","ios":"levelo://app?vid=21a49a35-60ed-415f-b631-4e9a5295ff32"},"vehicle_type_id":"4","last_reported":1743879987,"current_range_meters":12000,"station_id":"ce4bhbp2rcd13ifvqesg","pricing_plan_id":"cebpf4jnsgd1na2vs0mg"},{"bike_id":"74aa386e-40bb-4033-8cf4-8be7f9c96b67","system_id":"levelo_inurba_marseille","lat":43.26221,"lon":5.37922,"is_reserved":false,"is_disabled":true,"rental_uris":{"android":"levelo://app?vid=74aa386e-40bb-4033-8cf4-8be7f9c96b67","ios":"levelo://app?vid=74aa386e-40bb-4033-8cf4-8be7f9c96b67"},"vehicle_type_id":"4","last_reported":1743879987,"current_range_meters":12000,"station_id":"","pricing_plan_id":"cebpf4jnsgd1na2vs0mg"},{"bike_id":"12095ccb-6f38-4ea3-8f75-94bec0f83432","system_id":"levelo_inurba_marseille","lat":43.29254,"lon":5.38442,"is_reserved":false,"is_disabled":false,"rental_uris":{"android":"levelo://app?vid=12095ccb-6f38-4ea3-8f75-94bec0f83432","ios":"levelo://app?vid=12095ccb-6f38-4ea3-8f75-94bec0f83432"},"vehicle_type_id":"4","last_reported":1743879987,"current_range_meters":12000,"station_id":"ce4bh692rcd13ifvqea0","pricing_plan_id":"cebpf4jnsgd1na2vs0mg"},{"bike_id":"ddbb0423-eba8-4c3e-964d-8438743f2ba1","system_id":"levelo_inurba_marseille","lat":43.29412,"lon":5.38628,"is_reserved":false,"is_disabled":false,"rental_uris":{"android":"levelo://app?vid=ddbb0423-eba8-4c3e-964d-8438743f2ba1","ios":"levelo://app?vid=ddbb0423-eba8-4c3e-964d-8438743f2ba1"},"vehicle_type_id":"4","last_reported":1743879987,"current_range_meters":12000,"station_id":"ce4bh2h2rcd13ifvqdh0","pricing_plan_id":"cebpf4jnsgd1na2vs0mg"},{"bike_id":"09b65bd7-ade1-44ba-b768-34e98f4f0d73","system_id":"levelo_inurba_marseille","lat":43.30736,"lon":5.42451,"is_reserved":false,"is_disabled":false,"rental_uris":{"android":"levelo://app?vid=09b65bd7-ade1-44ba-b768-34e98f4f0d73","ios":"levelo://app?vid=09b65bd7-ade1-44ba-b768-34e98f4f0d73"},"vehicle_type_id":"4","last_reported":1743879987,"current_range_meters":12000,"station_id":"st_cvj6ca6bvosntc0bfgr0","pricing_plan_id":"cebpf4jnsgd1na2vs0mg"},{"bike_id":"149ff4f3-db74-4bc0-bf74-2079dc16b144","system_id":"levelo_inurba_marseille","lat":43.31327,"lon":5.39692,"is_reserved":false,"is_disabled":false,"rental_uris":{"android":"levelo://app?vid=149ff4f3-db74-4bc0-bf74-2079dc16b144","ios":"levelo://app?vid=149ff4f3-db74-4bc0-bf74-2079dc16b144"},"vehicle_type_id":"4","last_reported":1743879987,"current_range_meters":12000,"station_id":"ce4bgvp2rcd13ifvqcu0","pricing_plan_id":"cebpf4jnsgd1na2vs0mg"},{"bike_id":"6c9dc075-4316-43ae-8688-67ee4641a7f4","system_id":"levelo_inurba_marseille","lat":43.28404,"lon":5.37512,"is_reserved":false,"is_disabled":false,"rental_uris":{"android":"levelo://app?vid=6c9dc075-4316-43ae-8688-67ee4641a7f4","ios":"levelo://app?vid=6c9dc075-4316-43ae-8688-67ee4641a7f4"},"vehicle_type_id":"4","last_reported":1743879987,"current_range_meters":12000,"station_id":"ce4bh412rcd13ifvqds0","pricing_plan_id":"cebpf4jnsgd1na2vs0mg"},{"bike_id":"b09119e2-1ccc-4d66-8841-2e09458b0749","system_id":"levelo_inurba_marseille","lat":43.293742,"lon":5.378416,"is_reserved":false,"is_disabled":false,"rental_uris":{"android":"levelo://app?vid=b09119e2-1ccc-4d66-8841-2e09458b0749","ios":"levelo://app?vid=b09119e2-1ccc-4d66-8841-2e09458b0749"},"vehicle_type_id":"4","last_reported":1743879987,"current_range_meters":12000,"station_id":"ce4bgjh2rcd13ifvqbf0","pricing_plan_id":"cebpf4jnsgd1na2vs0mg"},{"bike_id":"f0f70cce-e30f-4598-847a-1169acd674aa","system_id":"levelo_inurba_marseille","lat":43.28514,"lon":5.391602,"is_reserved":false,"is_disabled":false,"rental_uris":{"android":"levelo://app?vid=f0f70cce-e30f-4598-847a-1169acd674aa","ios":"levelo://app?vid=f0f70cce-e30f-4598-847a-1169acd674aa"},"vehicle_type_id":"4","last_reported":1743879987,"current_range_meters":12000,"station_id":"ce4bhoh2rcd13ifvqh5g","pricing_plan_id":"cebpf4jnsgd1na2vs0mg"},{"bike_id":"6023584e-870f-454d-88b0-bf3dc0e21fbe","system_id":"levelo_inurba_marseille","lat":43.24387,"lon":5.37059,"is_reserved":false,"is_disabled":true,"rental_uris":{"android":"levelo://app?vid=6023584e-870f-454d-88b0-bf3dc0e21fbe","ios":"levelo://app?vid=6023584e-870f-454d-88b0-bf3dc0e21fbe"},"vehicle_type_id":"4","last_reported":1743879987,"current_range_meters":12000,"station_id":"ce4bhhh2rcd13ifvqfk0","pricing_plan_id":"cebpf4jnsgd1na2vs0mg"},{"bike_id":"1181d79f-f8b8-4e13-91da-039d9774f899","system_id":"levelo_inurba_marseille","lat":43.301852,"lon":5.366279,"is_reserved":false,"is_disabled":false,"rental_uris":{"android":"levelo://app?vid=1181d79f-f8b8-4e13-91da-039d9774f899","ios":"levelo://app?vid=1181d79f-f8b8-4e13-91da-039d9774f899"},