{"last_updated":1753878265,"ttl":60,"version":"2.2","data":{"bikes":[{"bike_id":"87c073a6-ae04-49db-b7ad-4e45b5ee377d","system_id":"levelo_inurba_marseille","lat":43.23963,"lon":5.36627,"is_reserved":false,"is_disabled":false,"rental_uris":{"android":"levelo://app?vid=87c073a6-ae04-49db-b7ad-4e45b5ee377d","ios":"levelo://app?vid=87c073a6-ae04-49db-b7ad-4e45b5ee377d"},"vehicle_type_id":"4","last_reported":1753878265,"current_range_meters":2800,"station_id":"ce4bhi12rcd13ifvqfp0","pricing_plan_id":"cebpf4jnsgd1na2vs0mg"},{"bike_id":"fba9cdeb-9f19-43c4-9805-d58b4b65c51b","system_id":"levelo_inurba_marseille","lat":43.293106,"lon":5.371791,"is_reserved":false,"is_disabled":true,"rental_uris":{"android":"levelo://app?vid=fba9cdeb-9f19-43c4-9805-d58b4b65c51b","ios":"levelo://app?vid=fba9cdeb-9f19-43c4-9805-d58b4b65c51b"},"vehicle_type_id":"4","last_reported":1753878265,"current_range_meters":2000,"station_id":"ce4bgh92rcd13ifvqb40","pricing_plan_id":"cebpf4jnsgd1na2vs0mg"},{"bike_id":"92970e44-abdf-4331-9161-6ef73a42dfac","system_id":"levelo_inurba_marseille","lat":43.30903,"lon":5.37172,"is_reserved":false,"is_disabled":false,"rental_uris":{"android":"levelo://app?vid=92970e44-abdf-4331-9161-6ef73a42dfac","ios":"levelo://app?vid=92970e44-abdf-4331-9161-6ef73a42dfac"},"vehicle_type_id":"4","last_reported":1753878265,"current_range_meters":3200,"station_id":"","pricing_plan_id":"cebpf4jnsgd1na2vs0mg"},{"bike_id":"4ccadc9b-51e7-4cd3-9d7a-492d9fe74f74","system_id":"levelo_inurba_marseille","lat":43.28417,"lon":5.34976,"is_reserved":false,"is_disabled":false,"rental_uris":{"android":"levelo://app?vid=4ccadc9b-51e7-4cd3-9d7a-492d9fe74f74","ios":"levelo://app?vid=4ccadc9b-51e7-4cd3-9d7a-492d9fe74f74"},"vehicle_type_id":"4","last_reported":1753878265,"current_range_meters":3200,"station_id":"ce4bhbh2rcd13ifvqepg","pricing_plan_id":"cebpf4jnsgd1na2vs0mg"},{"bike_id":"f2ed36f9-0f01-4b33-af18-8a277c95e69c","system_id":"levelo_inurba_marseille","lat":43.30902,"lon":5.37175,"is_reserved":false,"is_disabled":false,"rental_uris":{"android":"levelo://app?vid=f2ed36f9-0f01-4b33-af18-8a277c95e69c","ios":"levelo://app?vid=f2ed36f9-0f01-4b33-af18-8a277c95e69c"},"vehicle_type_id":"4","last_reported":1753878265,"current_range_meters":3600,"station_id":"ce4bguh2rcd13ifvqckg","pricing_plan_id":"cebpf4jnsgd1na2vs0mg"},{"bike_id":"7cc1da72-5a84-4656-af48-1b30d4971806","system_id":"levelo_inurba_marseille","lat":43.26244,"lon":5.39772,"is_reserved":false,"is_disabled":false,"rental_uris":{"android":"levelo://app?vid=7cc1da72-5a84-4656-af48-1b30d4971806","ios":"levelo://app?vid=7cc1da72-5a84-4656-af48-1b30d4971806"},"vehicle_type_id":"4","last_reported":1753878265,"current_range_meters":3600,"station_id":"","pricing_plan_id":"cebpf4jnsgd1na2vs0mg"},{"bike_id":"1e83b6e6-a762-4496-a8a4-e7fdd35a70d9","system_id":"levelo_inurba_marseille","lat":43.27371,"lon":5.36261,"is_reserved":false,"is_disabled":false,"rental_uris":{"android":"levelo://app?vid=1e83b6e6-a762-4496-a8a4-e7fdd35a70d9","ios":"levelo://app?vid=1e83b6e6-a762-4496-a8a4-e7fdd35a70d9"},"vehicle_type_id":"4","last_reported":1753878265,"current_range_meters":3600,"station_id":"ce4bhbh2rcd13ifvqeo0","pricing_plan_id":"cebpf4jnsgd1na2vs0mg"},{"bike_id":"9cf9ff1c-570a-45b3-8228-6f607dbfe87f","system_id":"levelo_inurba_marseille","lat":43.24997,"lon":5.38925,"is_reserved":false,"is_disabled":false,"rental_uris":{"android":"levelo://app?vid=9cf9ff1c-570a-45b3-8228-6f607dbfe87f","ios":"levelo://app?vid=9cf9ff1c-570a-45b3-8228-6f607dbfe87f"},"vehicle_type_id":"4","last_reported":1753878265,"current_range_meters":3600,"station_id":"ce4bhgp2rcd13ifvqfd0","pricing_plan_id":"cebpf4jnsgd1na2vs0mg"},{"bike_id":"80915a30-ef88-4d81-b5d1-969d1c17a42d","system_id":"levelo_inurba_marseille","lat":43.30408,"lon":5.40828,"is_reserved":false,"is_disabled":false,"rental_uris":{"android":"levelo://app?vid=80915a30-ef88-4d81-b5d1-969d1c17a42d","ios":"levelo://app?vid=80915a30-ef88-4d81-b5d1-969d1c17a42d"},"vehicle_type_id":"4","last_reported":1753878265,"current_range_meters":4000,"station_id":"","pricing_plan_id":"cebpf4jnsgd1na2vs0mg"},{"bike_id":"8a569b31-55c0-441f-9435-5ac594ac9c22","system_id":"levelo_inurba_marseille","lat":43.297302,"lon":5.374166,"is_reserved":false,"is_disabled":false,"rental_uris":{"android":"levelo://app?vid=8a569b31-55c0-441f-9435-5ac594ac9c22","ios":"levelo://app?vid=8a569b31-55c0-441f-9435-5ac594ac9c22"},"vehicle_type_id":"4","last_reported":1753878265,"current_range_meters":4000,"station_id":"","pricing_plan_id":"cebpf4jnsgd1na2vs0mg"},{"bike_id":"209c73e6-1f69-4d13-9fed-77cb46eecd05","system_id":"levelo_inurba_marseille","lat":43.34681,"lon":5.38065,"is_reserved":false,"is_disabled":false,"rental_uris":{"android":"levelo://app?vid=209c73e6-1f69-4d13-9fed-77cb46eecd05","ios":"levelo://app?vid=209c73e6-1f69-4d13-9fed-77cb46eecd05"},"vehicle_type_id":"4","last_reported":1753878265,"current_range_meters":4000,"station_id":"","pricing_plan_id":"cebpf4jnsgd1na2vs0mg"},{"bike_id":"181c8049-4fb7-4c27-a6b2-7bb8fea4f09f","system_id":"levelo_inurba_marseille","lat":43.29532,"lon":5.39268,"is_reserved":false,"is_disabled":false,"rental_uris":{"android":"levelo://app?vid=181c8049-4fb7-4c27-a6b2-7bb8fea4f09f","ios":"levelo://app?vid=181c8049-4fb7-4c27-a6b2-7bb8fea4f09f"},"vehicle_type_id":"4","last_reported":1753878265,"current_range_meters":4400,"station_id":"","pricing_plan_id":"cebpf4jnsgd1na2vs0mg"},{"bike_id":"95dd70e4-879c-49e7-b318-a6c71b22a43e","system_id":"levelo_inurba_marseille","lat":43.2703,"lon":5.39295,"is_reserved":false,"is_disabled":false,"rental_uris":{"android":"levelo://app?vid=95dd70e4-879c-49e7-b318-a6c71b22a43e","ios":"levelo://app?vid=95dd70e4-879c-49e7-b318-a6c71b22a43e"},"vehicle_type_id":"4","last_reported":1753878265,"current_range_meters":4400,"station_id":"","pricing_plan_id":"cebpf4jnsgd1na2vs0mg"},{"bike_id":"d15966c6-fb1e-443b-8f39-994cac772e2e","system_id":"levelo_inurba_marseille","lat":43.29782,"lon":5.39341,"is_reserved":false,"is_disabled":false,"rental_uris":{"android":"levelo://app?vid=d15966c6-fb1e-443b-8f39-994cac772e2e","ios":"levelo://app?vid=d15966c6-fb1e-443b-8f39-994cac772e2e"},"vehicle_type_id":"4","last_reported":1753878265,"current_range_meters":4400,"station_id":"chh1huq6cuj3fo74tm60","pricing_plan_id":"cebpf4jnsgd1na2vs0mg"},{"bike_id":"535431be-39af-4cac-a096-25d9d90f4d96","system_id":"levelo_inurba_marseille","lat":43.28616,"lon":5.35117,"is_reserved":false,"is_disabled":false,"rental_uris":{"android":"levelo://app?vid=535431be-39af-4cac-a096-25d9d90f4d96","ios":"levelo://app?vid=535431be-39af-4cac-a096-25d9d90f4d96"},"vehicle_type_id":"4","last_reported":1753878265,"current_range_meters":4800,"station_id":"ce4bhch2rcd13ifvqeug","pricing_plan_id":"cebpf4jnsgd1na2vs0mg"},{"bike_id":"5a5bf982-f9b0-4735-acd8-25a2e78d0320","system_id":"levelo_inurba_marseille","lat":43.28607,"lon":5.35114,"is_reserved":false,"is_disabled":false,"rental_uris":{"android":"levelo://app?vid=5a5bf982-f9b0-4735-acd8-25a2e78d0320","ios":"levelo://app?vid=5a5bf982-f9b0-4735-acd8-25a2e78d0320"},"vehicle_type_id":"4","last_reported":1753878265,"current_range_meters":4800,"station_id":"ce4bhch2rcd13ifvqeug","pricing_plan_id":"cebpf4jnsgd1na2vs0mg"},{"bike_id":"f3cd8bd7-5ed3-441e-aadf-3e0748188c02","system_id":"levelo_inurba_marseille","lat":43.30898,"lon":5.36859,"is_reserved":false,"is_disabled":false,"rental_uris":{"android":"levelo://app?vid=f3cd8bd7-5ed3-441e-aadf-3e0748188c02","ios":"levelo://app?vid=f3cd8bd7-5ed3-441e-aadf-3e0748188c02"},"vehicle_type_id":"4","last_reported":1753878265,"current_range_meters":4800,"station_id":"ce4bgn92rcd13ifvqbvg","pricing_plan_id":"cebpf4jnsgd1na2vs0mg"},{"bike_id":"e1d2c123-3ea2-412a-8864-0774306bd742","system_id":"levelo_inurba_marseille","lat":43.29583,"lon":5.38116,"is_reserved":false,"is_disabled":false,"rental_uris":{"android":"levelo://app?vid=e1d2c123-3ea2-412a-8864-0774306bd742","ios":"levelo://app?vid=e1d2c123-3ea2-412a-8864-0774306bd742"},"vehicle_type_id":"4","last_reported":1753878265,"current_range_meters":5600,"station_id":"ce4bgl12rcd13ifvqbo0","pricing_plan_id":"cebpf4jnsgd1na2vs0mg"},{"bike_id":"07f16b19-484b-4447-82ca-c14e44591a7d","system_id":"levelo_inurba_marseille","lat":43.25932,"lon":5.40914,"is_reserved":false,"is_disabled":false,"rental_uris":{"android":"levelo://app?vid=07f16b19-484b-4447-82ca-c14e44591a7d","ios":"levelo://app?vid=07f16b19-484b-4447-82ca-c14e44591a7d"},"vehicle_type_id":"4","last_reported":1753878265,"current_range_meters":5600,"station_id":"ce4bhm92rcd13ifvqglg","pricing_plan_id":"cebpf4jnsgd1na2vs0mg"},{"bike_id":"3d89c699-98ab-4114-9b70-742b70e37d8c","system_id":"levelo_inurba_marseille","lat":43.29274,"lon":5.36849,"is_reserved":false,"is_disabled":false,"rental_uris":{"android":"levelo://app?vid=3d89c699-98ab-4114-9b70-742b70e37d8c","ios":"levelo://app?vid=3d89c699-98ab-4114-9b70-742b70e37d8c"},"vehicle_type_id":"4","last_reported":1753878265,"current_range_meters":5600,"station_id":"ce4bhbp2rcd13ifvqesg","pricing_plan_id":"cebpf4jnsgd1na2vs0mg"},{"bike_id":"ca538d06-b8c5-4455-acd3-aa1ee1f57388","system_id":"levelo_inurba_marseille","lat":43.217491,"lon":5.346044,"is_reserved":false,"is_disabled":false,"rental_uris":{"android":"levelo://app?vid=ca538d06-b8c5-4455-acd3-aa1ee1f57388","ios":"levelo://app?vid=ca538d06-b8c5-4455-acd3-aa1ee1f57388"},"vehicle_type_id":"4","last_reported":1753878265,"current_range_meters":5600,"station_id":"","pricing_plan_id":"cebpf4jnsgd1na2vs0mg"},{"bike_id":"7e7b6163-513a-4347-8135-9b6e73c6a8aa","system_id":"levelo_inurba_marseille","lat":43.26676,"lon":5.38271,"is_reserved":false,"is_disabled":false,"rental_uris":{"android":"levelo://app?vid=7e7b6163-513a-4347-8135-9b6e73c6a8aa","ios":"levelo://app?vid=7e7b6163-513a-4347-8135-9b6e73c6a8aa"},"vehicle_type_id":"4","last_reported":1753878265,"current_range_meters":4800,"station_id":"ce4bhg92rcd13ifvqf90","pricing_plan_id":"cebpf4jnsgd1na2vs0mg"},{"bike_id":"1dc3f058-b499-4a71-890c-0492cdb7c3da","system_id":"levelo_inurba_marseille","lat":43.309081,"lon":5.368467,"is_reserved":false,"is_disabled":false,"rental_uris":{"android":"levelo://app?vid=1dc3f058-b499-4a71-890c-0492cdb7c3da","ios":"levelo://app?vid=1dc3f058-b499-4a71-890c-0492cdb7c3da"},"vehicle_type_id":"4","last_reported":1753878265,"current_range_meters":6000,"station_id":"ce4bgn92rcd13ifvqbvg","pricing_plan_id":"cebpf4jnsgd1na2vs0mg"},{"bike_id":"02f211d8-3ef0-45d9-870e-4bd3137fb635","system_id":"levelo_inurba_marseille","lat":43.27808,"lon":5.40705,"is_reserved":false,"is_disabled":false,"rental_uris":{"android":"levelo://app?vid=02f211d8-3ef0-45d9-870e-4bd3137fb635","ios":"levelo://app?vid=02f211d8-3ef0-45d9-870e-4bd3137fb635"},"vehicle_type_id":"4","last_reported":1753878265,"current_range_meters":6000,"station_id":"ce4bhnh2rcd13ifvqgtg","pricing_plan_id":"cebpf4jnsgd1na2vs0mg"},{"bike_id":"7ead535a-e7f2-4489-9051-59e4f5eeec8a","system_id":"levelo_inurba_marseille","lat":43.306731,"lon":5.373618,"is_reserved":false,"is_disabled":false,"rental_uris":{"android":"levelo://app?vid=7ead535a-e7f2-4489-9051-59e4f5eeec8a","ios":"levelo://app?vid=7ead535a-e7f2-4489-9051-59e4f5eeec8a"},"vehicle_type_id":"4","last_reported":1753878265,"current_range_meters":6000,"station_id":"","pricing_plan_id":"cebpf4jnsgd1na2vs0mg"},{"bike_id":"149fbe11-3bce-47a0-b584-c7c7bd6bb12f","system_id":"levelo_inurba_marseille","lat":43.216242,"lon":5.344481,"is_reserved":false,"is_disabled":false,"rental_uris":{"android":"levelo://app?vid=149fbe11-3bce-47a0-b584-c7c7bd6bb12f","ios":"levelo://app?vid=149fbe11-3bce-47a0-b584-c7c7bd6bb12f"},"vehicle_type_id":"4","last_reported":1753878265,"current_range_meters":6000,"station_id":"","pricing_plan_id":"cebpf4jnsgd1na2vs0mg"},{"bike_id":"882bdff1-651a-41c1-9ab0-596f43205cf1","system_id":"levelo_inurba_marseille","lat":43.337444,"lon":5.374475,"is_reserved":false,"is_disabled":false,"rental_uris":{"android":"levelo://app?vid=882bdff1-651a-41c1-9ab0-596f43205cf1","ios":"levelo://app?vid=882bdff1-651a-41c1-9ab0-596f43205cf1"},"vehicle_type_id":"4","last_reported":1753878265,"current_range_meters":6400,"station_id":"ce4bgkp2rcd13ifvqbmg","pricing_plan_id":"cebpf4jnsgd1na2vs0mg"},{"bike_id":"79d9b86b-08ee-4c52-99e5-090bb8e2d740","system_id":"levelo_inurba_marseille","lat":43.23219,"lon":5.39947,"is_reserved":false,"is_disabled":false,"rental_uris":{"android":"levelo://app?vid=79d9b86b-08ee-4c52-99e5-090bb8e2d740","ios":"levelo://app?vid=79d9b86b-08ee-4c52-99e5-090bb8e2d740"},"vehicle_type_id":"4","last_reported":1753878265,"current_range_meters":6400,"station_id":"","pricing_plan_id":"cebpf4jnsgd1na2vs0mg"},{"bike_id":"2a3a9f20-00d1-4c95-a093-ba8e28724bc0","system_id":"levelo_inurba_marseille","lat":43.30693,"lon":5.37568,"is_reserved":false,"is_disabled":false,"rental_uris":{"android":"levelo://app?vid=2a3a9f20-00d1-4c95-a093-ba8e28724bc0","ios":"levelo://app?vid=2a3a9f20-00d1-4c95-a093-ba8e28724bc0"},"vehicle_type_id":"4","last_reported":1753878265,"current_range_meters":6400,"station_id":"","pricing_plan_id":"cebpf4jnsgd1na2vs0mg"},{"bike_id":"d4b0442d-37e3-4887-8827-87b59f4e9086","system_id":"levelo_inurba_marseille","lat":43.2977,"lon":5.38108,"is_reserved":false,"is_disabled":false,"rental_uris":{"android":"levelo://app?vid=d4b0442d-37e3-4887-8827-87b59f4e9086","ios":"levelo://app?vid=d4b0442d-37e3-4887-8827-87b59f4e9086"},"vehicle_type_id":"4","last_reported":1753878265,"current_range_meters":6800,"station_id":"","pricing_plan_id":"cebpf4jnsgd1na2vs0mg"},{"bike_id":"27594e5a-add9-4326-8db9-e82aaa328799","system_id":"levelo_inurba_marseille","lat":43.27614,"lon":5.36108,"is_reserved":false,"is_disabled":false,"rental_uris":{"android":"levelo://app?vid=27594e5a-add9-4326-8db9-e82aaa328799","ios":"levelo://app?vid=27594e5a-add9-4326-8db9-e82aaa328799"},"vehicle_type_id":"4","last_reported":1753878265,"current_range_meters":6800,"station_id":"ce4bgj92rcd13ifvqbe0","pricing_plan_id":"cebpf4jnsgd1na2vs0mg"},{"bike_id":"bb650ed0-d989-4f7c-9fda-1512931e29aa","system_id":"levelo_inurba_marseille","lat":43.29984,"lon":5.37183,"is_reserved":false,"is_disabled":false,"rental_uris":{"android":"levelo://app?vid=bb650ed0-d989-4f7c-9fda-1512931e29aa","ios":"levelo://app?vid=bb650ed0-d989-4f7c-9fda-1512931e29aa"},"vehicle_type_id":"4","last_reported":1753878265,"current_range_meters":6800,"station_id":"ce4bgr92rcd13ifvqc7g","pricing_plan_id":"cebpf4jnsgd1na2vs0mg"},{"bike_id":"37fcf059-83b8-4b6e-bc28-0c83f77e3c05","system_id":"levelo_inurba_marseille","lat":43.22557,"lon":5.34759,"is_reserved":false,"is_disabled":false,"rental_uris":{"android":"levelo://app?vid=37fcf059-83b8-4b6e-bc28-0c83f77e3c05","ios":"levelo://app?vid=37fcf059-83b8-4b6e-bc28-0c83f77e3c05"},"vehicle_type_id":"4","last_reported":1753878265,"current_range_meters":7200,"station_id":"","pricing_plan_id":"cebpf4jnsgd1na2vs0mg"},{"bike_id":"1995d3bb-4239-4977-925b-f77ada161cd7","system_id":"levelo_inurba_marseille","lat":43.31476,"lon":5.3731,"is_reserved":false,"is_disabled":false,"rental_uris":{"android":"levelo://app?vid=1995d3bb-4239-4977-925b-f77ada161cd7","ios":"levelo://app?vid=1995d3bb-4239-4977-925b-f77ada161cd7"},"vehicle_type_id":"4","last_reported":1753878265,"current_range_meters":6800,"station_id":"ce4bgt12rcd13ifvqcd0","pricing_plan_id":"cebpf4jnsgd1na2vs0mg"},{"bike_id":"46327a3a-b112-4747-b636-17ebf6146226","system_id":"levelo_inurba_marseille","lat":43.30901,"lon":5.37164,"is_reserved":false,"is_disabled":false,"rental_uris":{"android":"levelo://app?vid=46327a3a-b112-4747-b636-17ebf6146226","ios":"levelo://app?vid=46327a3a-b112-4747-b636-17ebf6146226"},"vehicle_type_id":"4","last_reported":1753878265,"current_range_meters":8000,"station_id":"","pricing_plan_id":"cebpf4jnsgd1na2vs0mg"},{"bike_id":"04f3fa98-76e7-4089-a607-3285f2f0781f","system_id":"levelo_inurba_marseille","lat":43.25821,"lon":5.39439,"is_reserved":false,"is_disabled":false,"rental_uris":{"android":"levelo://app?vid=04f3fa98-76e7-4089-a607-3285f2f0781f","ios":"levelo://app?vid=04f3fa98-76e7-4089-a607-3285f2f0781f"},"vehicle_type_id":"4","last_reported":1753878265,"current_range_meters":8000,"station_id":"ce4bhip2rcd13ifvqft0","pricing_plan_id":"cebpf4jnsgd1na2vs0mg"},{"bike_id":"c9e5cf98-36fd-4b86-b6b1-31cf99619f3e","system_id":"levelo_inurba_marseille","lat":43.23181,"lon":5.400041,"is_reserved":false,"is_disabled":true,"rental_uris":{"android":"levelo://app?vid=c9e5cf98-36fd-4b86-b6b1-31cf99619f3e","ios":"levelo://app?vid=c9e5cf98-36fd-4b86-b6b1-31cf99619f3e"},"vehicle_type_id":"4","last_reported":1753878265,"current_range_meters":8000,"station_id":"ce4bhn12rcd13ifvqgqg","pricing_plan_id":"cebpf4jnsgd1na2vs0mg"},{"bike_id":"773a2503-609f-4bad-a1c3-11c97bbd6d39","system_id":"levelo_inurba_marseille","lat":43.21745,"lon":5.34607,"is_reserved":false,"is_disabled":false,"rental_uris":{"android":"levelo://app?vid=773a2503-609f-4bad-a1c3-11c97bbd6d39","ios":"levelo://app?vid=773a2503-609f-4bad-a1c3-11c97bbd6d39"},"vehicle_type_id":"4","last_reported":1753878265,"current_range_meters":8000,"station_id":"","pricing_plan_id":"cebpf4jnsgd1na2vs0mg"},{"bike_id":"6a658749-032c-41f8-aa88-30c94cacac1a","system_id":"levelo_inurba_marseille","lat":43.248057,"lon":5.37457,"is_reserved":false,"is_disabled":false,"rental_uris":{"android":"levelo://app?vid=6a658749-032c-41f8-aa88-30c94cacac1a","ios":"levelo://app?vid=6a658749-032c-41f8-aa88-30c94cacac1a"},"vehicle_type_id":"4","last_reported":1753878265,"current_range_meters":8000,"station_id":"ce4bhgh2rcd13ifvqfb0","pricing_plan_id":"cebpf4jnsgd1na2vs0mg"},{"bike_id":"d05f3b93-cd71-4d55-85a7-ab24dcfd7ea9","system_id":"levelo_inurba_marseille","lat":43.2962,"lon":5.371485,"is_reserved":false,"is_disabled":false,"rental_uris":{"android":"levelo://app?vid=d05f3b93-cd71-4d55-85a7-ab24dcfd7ea9","ios":"levelo://app?vid=d05f3b93-cd71-4d55-85a7-ab24dcfd7ea9"},"vehicle_type_id":"4","last_reported":1753878265,"current_range_meters":8400,"station_id":"ce4bgnh2rcd13ifvqc0g","pricing_plan_id":"cebpf4jnsgd1na2vs0mg"},{"bike_id":"b5e469a6-8e8f-4b1a-91cc-e9f6f04151ad","system_id":"levelo_inurba_marseille","lat":43.29585,"lon":5.43685,"is_reserved":false,"is_disabled":false,"rental_uris":{"android":"levelo://app?vid=b5e469a6-8e8f-4b1a-91cc-e9f6f04151ad","ios":"levelo://app?vid=b5e469a6-8e8f-4b1a-91cc-e9f6f04151ad"},"vehicle_type_id":"4","last_reported":1753878265,"current_range_meters":8400,"station_id":"","pricing_plan_id":"cebpf4jnsgd1na2vs0mg"},{"bike_id":"56713d84-812e-49c0-a1b8-5def6684db86","system_id":"levelo_inurba_marseille","lat":43.26807,"lon":5.39395,"is_reserved":false,"is_disabled":false,"rental_uris":{"android":"levelo://app?vid=56713d84-812e-49c0-a1b8-5def6684db86","ios":"levelo://app?vid=56713d84-812e-49c0-a1b8-5def6684db86"},"vehicle_type_id":"4","last_reported":1753878265,"current_range_meters":8400,"station_id":"ce4bhh12rcd13ifvqfg0","pricing_plan_id":"cebpf4jnsgd1na2vs0mg"},{"bike_id":"cf923961-8452-4f01-b4e6-5e2e2e1dc425","system_id":"levelo_inurba_marseille","lat":43.28207,"lon":5.39072,"is_reserved":false,"is_disabled":false,"rental_uris":{"android":"levelo://app?vid=cf923961-8452-4f01-b4e6-5e2e2e1dc425","ios":"levelo://app?vid=cf923961-8452-4f01-b4e6-5e2e2e1dc425"},"vehicle_type_id":"4","last_reported":1753878265,"current_range_meters":8400,"station_id":"ce4bhn92rcd13ifvqgsg","pricing_plan_id":"cebpf4jnsgd1na2vs0mg"},{"bike_id":"2f49fb08-f899-4232-8952-3ce7ca5c0e54","system_id":"levelo_inurba_marseille","lat":43.30141,"lon":5.38076,"is_reserved":false,"is_disabled":false,"rental_uris":{"android":"levelo://app?vid=2f49fb08-f899-4232-8952-3ce7ca5c0e54","ios":"levelo://app?vid=2f49fb08-f899-4232-8952-3ce7ca5c0e54"},"vehicle_type_id":"4","last_reported":1753878265,"current_range_meters":8800,"station_id":"ce4bgjp2rcd13ifvqbh0","pricing_plan_id":"cebpf4jnsgd1na2vs0mg"},{"bike_id":"80d1a5c7-a35b-49ec-90ae-45fb54d84292","system_id":"levelo_inurba_marseille","lat":43.30644,"lon":5.40103,"is_reserved":false,"is_disabled":false,"rental_uris":{"android":"levelo://app?vid=80d1a5c7-a35b-49ec-90ae-45fb54d84292","ios":"levelo://app?vid=80d1a5c7-a35b-49ec-90ae-45fb54d84292"},"vehicle_type_id":"4","last_reported":1753878265,"current_range_meters":8800,"station_id":"ce4bh112rcd13ifvqda0","pricing_plan_id":"cebpf4jnsgd1na2vs0mg"},{"bike_id":"c7d9ceda-0335-44f5-bbd2-5294cbdc687c","system_id":"levelo_inurba_marseille","lat":43.25565,"lon":5.38249,"is_reserved":false,"is_disabled":false,"rental_uris":{"android":"levelo://app?vid=c7d9ceda-0335-44f5-bbd2-5294cbdc687c","ios":"levelo://app?vid=c7d9ceda-0335-44f5-bbd2-5294cbdc687c"},"vehicle_type_id":"4","last_reported":1753878265,"current_range_meters":9200,"station_id":"ce4bhih2rcd13ifvqfs0","pricing_plan_id":"cebpf4jnsgd1na2vs0mg"},{"bike_id":"b0f2b2c1-b378-4164-a22b-6eceaa434acc","system_id":"levelo_inurba_marseille","lat":43.29208,"lon":5.42679,"is_reserved":false,"is_disabled":false,"rental_uris":{"android":"levelo://app?vid=b0f2b2c1-b378-4164-a22b-6eceaa434acc","ios":"levelo://app?vid=b0f2b2c1-b378-4164-a22b-6eceaa434acc"},"vehicle_type_id":"4","last_reported":1753878265,"current_range_meters":9200,"station_id":"","pricing_plan_id":"cebpf4jnsgd1na2vs0mg"},{"bike_id":"0dc99cab-1546-4588-8ef9-e9c6ae8e0a6f","system_id":"levelo_inurba_marseille","lat":43.23053,"lon":5.35499,"is_reserved":false,"is_disabled":true,"rental_uris":{"android":"levelo://app?vid=0dc99cab-1546-4588-8ef9-e9c6ae8e0a6f","ios":"levelo://app?vid=0dc99cab-1546-4588-8ef9-e9c6ae8e0a6f"},"vehicle_type_id":"4","last_reported":1753878265,"current_range_meters":9200,"station_id":"cpo3342slgdg3j2ifvpg","pricing_plan_id":"cebpf4jnsgd1na2vs0mg"},{"bike_id":"7b571614-c1cf-4a4b-895f-1f8d71e7851c","system_id":"levelo_inurba_marseille","lat":43.26934,"lon":5.38912,"is_reserved":false,"is_disabled":false,"rental_uris":{"android":"levelo://app?vid=7b571614-c1cf-4a4b-895f-1f8d71e7851c","ios":"levelo://app?vid=7b571614-c1cf-4a4b-895f-1f8d71e7851c"},"vehicle_type_id":"4","last_reported":1753878265,"current_range_meters":9200,"station_id":"ce4bhhh2rcd13ifvqfl0","pricing_plan_id":"cebpf4jnsgd1na2vs0mg"},{"bike_id":"24347ab0-fa6c-4740-8fea-61b9e669f2cf","system_id":"levelo_inurba_marseille","lat":43.26553,"lon":5.37275,"is_reserved":false,"is_disabled":false,"rental_uris":{"android":"levelo://app?vid=24347ab0-fa6c-4740-8fea-61b9e669f2cf","ios":"levelo://app?vid=24347ab0-fa6c-4740-8fea-61b9e669f2cf"},"vehicle_type_id":"4","last_reported":1753878265,"current_range_meters":9600,"station_id":"ce4bhg12rcd13ifvqf70","pricing_plan_id":"cebpf4jnsgd1na2vs0mg"},{"bike_id":"b879b8fc-7c17-42d7-b1e3-d28ef5c9d887","system_id":"levelo_inurba_marseille","lat":43.30906,"lon":5.37175,"is_reserved":false,"is_disabled":false,"rental_uris":{"android":"levelo://app?vid=b879b8fc-7c17-42d7-b1e3-d28ef5c9d887","ios":"levelo://app?vid=b879b8fc-7c17-42d7-b1e3-d28ef5c9d887"},"vehicle_type_id":"4","last_reported":1753878265,"current_range_meters":9600,"station_id":"","pricing_plan_id":"cebpf4jnsgd1na2vs0mg"},{"bike_id":"cee2abda-2220-403d-9367-89bd2a15b0d5","system_id":"levelo_inurba_marseille","lat":43.26197,"lon":5.37467,"is_reserved":false,"is_disabled":false,"rental_uris":{"android":"levelo://app?vid=cee2abda-2220-403d-9367-89bd2a15b0d5","ios":"levelo://app?vid=cee2abda-2220-403d-9367-89bd2a15b0d5"},"vehicle_type_id":"4","last_reported":1753878265,"current_range_meters":9600,"station_id":"ce4bhgp2rcd13ifvqfc0","pricing_plan_id":"cebpf4jnsgd1na2vs0mg"},{"bike_id":"e137dc03-26cf-440c-b3ea-1ea522645199","system_id":"levelo_inurba_marseille","lat":43.280815,"lon":5.396626,"is_reserved":false,"is_disabled":false,"rental_uris":{"android":"levelo://app?vid=e137dc03-26cf-440c-b3ea-1ea522645199","ios":"levelo://app?vid=e137dc03-26cf-440c-b3ea-1ea522645199"},"vehicle_type_id":"4","last_reported":1753878265,"current_range_meters":9600,"station_id":"","pricing_plan_id":"cebpf4jnsgd1na2vs0mg"},{"bike_id":"a43789ca-fe0e-4f7e-8cbb-a5df3995098c","system_id":"levelo_inurba_marseille","lat":43.25714,"lon":5.41117,"is_reserved":false,"is_disabled":false,"rental_uris":{"android":"levelo://app?vid=a43789ca-fe0e-4f7e-8cbb-a5df3995098c","ios":"levelo://app?vid=a43789ca-fe0e-4f7e-8cbb-a5df3995098c"},"vehicle_type_id":"4","last_reported":1753878265,"current_range_meters":9600,"station_id":"ce4bhkp2rcd13ifvqgd0","pricing_plan_id":"cebpf4jnsgd1na2vs0mg"},{"bike_id":"673c0125-c4e4-4b4b-95c0-046678c3673f","system_id":"levelo_inurba_marseille","lat":43.2862,"lon":5.35117,"is_reserved":false,"is_disabled":false,"rental_uris":{"android":"levelo://app?vid=673c0125-c4e4-4b4b-95c0-046678c3673f","ios":"levelo://app?vid=673c0125-c4e4-4b4b-95c0-046678c3673f"},"vehicle_type_id":"4","last_reported":1753878265,"current_range_meters":9600,"station_id":"ce4bhch2rcd13ifvqeug","pricing_plan_id":"cebpf4jnsgd1na2vs0mg"},{"bike_id":"a475f921-33f9-4cfe-a46d-32e1a5e7bc05","system_id":"levelo_inurba_marseille","lat":43.30639,"lon":5.40094,"is_reserved":false,"is_disabled":false,"rental_uris":{"android":"levelo://app?vid=a475f921-33f9-4cfe-a46d-32e1a5e7bc05","ios":"levelo://app?vid=a475f921-33f9-4cfe-a46d-32e1a5e7bc05"},"vehicle_type_id":"4","last_reported":1753878265,"current_range_meters":9600,"station_id":"ce4bh112rcd13ifvqda0","pricing_plan_id":"cebpf4jnsgd1na2vs0mg"},{"bike_id":"459d4ba4-c4df-4996-9ed0-55b6aa49cef3","system_id":"levelo_inurba_marseille","lat":43.30541,"lon":5.36674,"is_reserved":false,"is_disabled":false,"rental_uris":{"android":"levelo://app?vid=459d4ba4-c4df-4996-9ed0-55b6aa49cef3","ios":"levelo://app?vid=459d4ba4-c4df-4996-9ed0-55b6aa49cef3"},"vehicle_type_id":"4","last_reported":1753878265,"current_range_meters":10000,"station_id":"ce4bgrp2rcd13ifvqc9g","pricing_plan_id":"cebpf4jnsgd1na2vs0mg"},{"bike_id":"48143474-bf4a-4079-b5dd-c7c9a912b647","system_id":"levelo_inurba_marseille","lat":43.30424,"lon":5.3976,"is_reserved":false,"is_disabled":false,"rental_uris":{"android":"levelo://app?vid=48143474-bf4a-4079-b5dd-c7c9a912b647","ios":"levelo://app?vid=48143474-bf4a-4079-b5dd-c7c9a912b647"},"vehicle_type_id":"4","last_reported":1753878265,"current_range_meters":10000,"station_id":"ce4bh092rcd13ifvqd20","pricing_plan_id":"cebpf4jnsgd1na2vs0mg"},{"bike_id":"6793fd22-6975-49c2-bc53-f3fa121750ce","system_id":"levelo_inurba_marseille","lat":43.28403,"lon":5.34998,"is_reserved":false,"is_disabled":false,"rental_uris":{"android":"levelo://app?vid=6793fd22-6975-49c2-bc53-f3fa121750ce","ios":"levelo://app?vid=6793fd22-6975-49c2-bc53-f3fa121750ce"},"vehicle_type_id":"4","last_reported":1753878265,"current_range_meters":10000,"station_id":"ce4bhbh2rcd13ifvqepg","pricing_plan_id":"cebpf4jnsgd1na2vs0mg"},{"bike_id":"3d9a7770-709e-456c-abcc-673c82ffa24e","system_id":"levelo_inurba_marseille","lat":43.28222,"lon":5.3907,"is_reserved":false,"is_disabled":false,"rental_uris":{"android":"levelo://app?vid=3d9a7770-709e-456c-abcc-673c82ffa24e","ios":"levelo://app?vid=3d9a7770-709e-456c-abcc-673c82ffa24e"},"vehicle_type_id":"4","last_reported":1753878265,"current_range_meters":10800,"station_id":"ce4bhn92rcd13ifvqgsg","pricing_plan_id":"cebpf4jnsgd1na2vs0mg"},{"bike_id":"6a413449-73a9-4547-ac97-05db0314d4f4","system_id":"levelo_inurba_marseille","lat":43.29967,"lon":5.37195,"is_reserved":false,"is_disabled":false,"rental_uris":{"android":"levelo://app?vid=6a413449-73a9-4547-ac97-05db0314d4f4","ios":"levelo://app?vid=6a413449-73a9-4547-ac97-05db0314d4f4"},"vehicle_type_id":"4","last_reported":1753878265,"current_range_meters":10800,"station_id":"ce4bgr92rcd13ifvqc7g","pricing_plan_id":"cebpf4jnsgd1na2vs0mg"},{"bike_id":"f20aee6c-2a6c-4bd7-ba2d-4f059f18e677","system_id":"levelo_inurba_marseille","lat":43.23962,"lon":5.36627,"is_reserved":false,"is_disabled":false,"rental_uris":{"android":"levelo://app?vid=f20aee6c-2a6c-4bd7-ba2d-4f059f18e677","ios":"levelo://app?vid=f20aee6c-2a6c-4bd7-ba2d-4f059f18e677"},"vehicle_type_id":"4","last_reported":1753878265,"current_range_meters":10800,"station_id":"ce4bhi12rcd13ifvqfp0","pricing_plan_id":"cebpf4jnsgd1na2vs0mg"},{"bike_id":"565b1d90-7163-48a5-bcd7-56b9fcdcfda5","system_id":"levelo_inurba_marseille","lat":43.22501,"lon":5.34795,"is_reserved":false,"is_disabled":false,"rental_uris":{"android":"levelo://app?vid=565b1d90-7163-48a5-bcd7-56b9fcdcfda5","ios":"levelo://app?vid=565b1d90-7163-48a5-bcd7-56b9fcdcfda5"},"vehicle_type_id":"4","last_reported":1753878265,"current_range_meters":10800,"station_id":"st_cvj5dfep6f1abm77gieg","pricing_plan_id":"cebpf4jnsgd1na2vs0mg"},{"bike_id":"e680bf01-c66a-4827-b1a5-7511ac682538","system_id":"levelo_inurba_marseille","lat":43.28154,"lon":5.42645,"is_reserved":false,"is_disabled":false,"rental_uris":{"android":"levelo://app?vid=e680bf01-c66a-4827-b1a5-7511ac682538","ios":"levelo://app?vid=e680bf01-c66a-4827-b1a5-7511ac682538"},"vehicle_type_id":"4","last_reported":1753878265,"current_range_meters":10800,"station_id":"ce4bhnh2rcd13ifvqgug","pricing_plan_id":"cebpf4jnsgd1na2vs0mg"},{"bike_id":"00de3457-bb26-4f86-be97-d29604933a4d","system_id":"levelo_inurba_marseille","lat":43.28626,"lon":5.37196,"is_reserved":false,"is_disabled":false,"rental_uris":{"android":"levelo://app?vid=00de3457-bb26-4f86-be97-d29604933a4d","ios":"levelo://app?vid=00de3457-bb26-4f86-be97-d29604933a4d"},"vehicle_type_id":"4","last_reported":1753878265,"current_range_meters":10800,"station_id":"","pricing_plan_id":"cebpf4jnsgd1na2vs0mg"},{"bike_id":"32dd21b7-3cb0-4c60-b860-15c8fc8d479b","system_id":"levelo_inurba_marseille","lat":43.24171,"lon":5.36398,"is_reserved":false,"is_disabled":true,"rental_uris":{"android":"levelo://app?vid=32dd21b7-3cb0-4c60-b860-15c8fc8d479b","ios":"levelo://app?vid=32dd21b7-3cb0-4c60-b860-15c8fc8d479b"},"vehicle_type_id":"4","last_reported":1753878265,"current_range_meters":11200,"station_id":"cpo36qri1sfpv3e86is0","pricing_plan_id":"cebpf4jnsgd1na2vs0mg"},{"bike_id":"b0235855-3433-40c6-9b44-ce01a73120bd","system_id":"levelo_inurba_marseille","lat":43.2416,"lon":5.3639,"is_reserved":false,"is_disabled":false,"rental_uris":{"android":"levelo://app?vid=b0235855-3433-40c6-9b44-ce01a73120bd","ios":"levelo://app?vid=b0235855-3433-40c6-9b44-ce01a73120bd"},"vehicle_type_id":"4","last_reported":1753878265,"current_range_meters":11600,"station_id":"cpo36qri1sfpv3e86is0","pricing_plan_id":"cebpf4jnsgd1na2vs0mg"},{"bike_id":"c20b0e63-9b3e-4b98-a321-7a09cecccd35","system_id":"levelo_inurba_marseille","lat":43.24163,"lon":5.36388,"is_reserved":false,"is_disabled":false,"rental_uris":{"android":"levelo://app?vid=c20b0e63-9b3e-4b98-a321-7a09cecccd35","ios":"levelo://app?vid=c20b0e63-9b3e-4b98-a321-7a09cecccd35"},"vehicle_type_id":"4","last_reported":1753878265,"current_range_meters":11600,"station_id":"cpo36qri1sfpv3e86is0","pricing_plan_id":"cebpf4jnsgd1na2vs0mg"},{"bike_id":"b48f5dd0-6dba-4454-bab2-8fe0e77c0439","system_id":"levelo_inurba_marseille","lat":43.24158,"lon":5.36414,"is_reserved":false,"is_disabled":false,"rental_uris":{"android":"levelo://app?vid=b48f5dd0-6dba-4454-bab2-8fe0e77c0439","ios":"levelo://app?vid=b48f5dd0-6dba-4454-bab2-8fe0e77c0439"},"vehicle_type_id":"4","last_reported":1753878265,"current_range_meters":12000,"station_id":"cpo36qri1sfpv3e86is0","pricing_plan_id":"cebpf4jnsgd1na2vs0mg"},{"bike_id":"e04978f3-d665-4a61-ae50-6a07923d04b6","system_id":"levelo_inurba_marseille","lat":43.28407,"lon":5.34992,"is_reserved":false,"is_disabled":false,"rental_uris":{"android":"levelo://app?vid=e04978f3-d665-4a61-ae50-6a07923d04b6","ios":"levelo://app?vid=e04978f3-d665-4a61-ae50-6a07923d04b6"},"vehicle_type_id":"4","last_reported":1753878265,"current_range_meters":12000,"station_id":"ce4bhbh2rcd13ifvqepg","pricing_plan_id":"cebpf4jnsgd1na2vs0mg"},{"bike_id":"12ba8816-1c32-4cf1-b068-dabcee1f50cf","system_id":"levelo_inurba_marseille","lat":43.30509,"lon":5.36714,"is_reserved":false,"is_disabled":false,"rental_uris":{"android":"levelo://app?vid=12ba8816-1c32-4cf1-b068-dabcee1f50cf","ios":"levelo://app?vid=12ba8816-1c32-4cf1-b068-dabcee1f50cf"},"vehicle_type_id":"4","last_reported":1753878265,"current_range_meters":12000,"station_id":"ce4bgrp2rcd13ifvqc9g","pricing_plan_id":"cebpf4jnsgd1na2vs0mg"},{"bike_id":"58d60ef7-501e-48a0-a97f-c0e09ff3aab0","system_id":"levelo_inurba_marseille","lat":43.222792,"lon":5.345958,"is_reserved":false,"is_disabled":false,"rental_uris":{"android":"levelo://app?vid=58d60ef7-501e-48a0-a97f-c0e09ff3aab0","ios":"levelo://app?vid=58d60ef7-501e-48a0-a97f-c0e09ff3aab0"},"vehicle_type_id":"4","last_reported":1753878265,"current_range_meters":12000,"station_id":"ce4bhp92rcd13ifvqhag","pricing_plan_id":"cebpf4jnsgd1na2vs0mg"},{"bike_id":"47e8dd91-4efa-46a8-b97e-aacbde187593","system_id":"levelo_inurba_marseille","lat":43.29781,"lon":5.37103,"is_reserved":false,"is_disabled":false,"rental_uris":{"android":"levelo://app?vid=47e8dd91-4efa-46a8-b97e-aacbde187593","ios":"levelo://app?vid=47e8dd91-4efa-46a8-b97e-aacbde187593"},"vehicle_type_id":"4","last_reported":1753878265,"current_range_meters":12000,"station_id":"ce4bgop2rcd13ifvqc1g","pricing_plan_id":"cebpf4jnsgd1na2vs0mg"},{"bike_id":"d60dda89-c0bc-4a57-980c-b141d854df20","system_id":"levelo_inurba_marseille","lat":43.31113,"lon":5.37772,"is_reserved":false,"is_disabled":false,"rental_uris":{"android":"levelo://app?vid=d60dda89-c0bc-4a57-980c-b141d854df20","ios":"levelo://app?vid=d60dda89-c0bc-4a57-980c-b141d854df20"},"vehicle_type_id":"4","last_reported":1753878265,"current_range_meters":12400,"station_id":"ce4bgt92rcd13ifvqcg0","pricing_plan_id":"cebpf4jnsgd1na2vs0mg"},{"bike_id":"135ab1ea-fc9a-4785-9240-6bfa3adf7c7c","system_id":"levelo_inurba_marseille","lat":43.32357,"lon":5.36747,"is_reserved":false,"is_disabled":false,"rental_uris":{"android":"levelo://app?vid=135ab1ea-fc9a-4785-9240-6bfa3adf7c7c","ios":"levelo://app?vid=135ab1ea-fc9a-4785-9240-6bfa3adf7c7c"},"vehicle_type_id":"4","last_reported":1753878265,"current_range_meters":12400,"station_id":"ce4bhsh2rcd13ifvqi2g","pricing_plan_id":"cebpf4jnsgd1na2vs0mg"},{"bike_id":"d755b3fe-26af-4154-ad7e-c24f2c6a00e5","system_id":"levelo_inurba_marseille","lat":43.24811,"lon":5.37458,"is_reserved":false,"is_disabled":false,"rental_uris":{"android":"levelo://app?vid=d755b3fe-26af-4154-ad7e-c24f2c6a00e5","ios":"levelo://app?vid=d755b3fe-26af-4154-ad7e-c24f2c6a00e5"},"vehicle_type_id":"4","last_reported":1753878265,"current_range_meters":12400,"station_id":"ce4bhgh2rcd13ifvqfb0","pricing_plan_id":"cebpf4jnsgd1na2vs0mg"},{"bike_id":"ef2aa117-54b8-4dd5-99db-520996e8bff9","system_id":"levelo_inurba_marseille","lat":43.291063,"lon":5.382334,"is_reserved":false,"is_disabled":false,"rental_uris":{"android":"levelo://app?vid=ef2aa117-54b8-4dd5-99db-520996e8bff9","ios":"levelo://app?vid=ef2aa117-54b8-4dd5-99db-520996e8bff9"},"vehicle_type_id":"4","last_reported":1753878265,"current_range_meters":12400,"station_id":"ce4bh512rcd13ifvqe2g","pricing_plan_id":"cebpf4jnsgd1na2vs0mg"},{"bike_id":"0569760a-f748-4bd7-863f-279bd7fcdc8b","system_id":"levelo_inurba_marseille","lat":43.29593,"lon":5.36701,"is_reserved":false,"is_disabled":false,"rental_uris":{"android":"levelo://app?vid=0569760a-f748-4bd7-863f-279bd7fcdc8b","ios":"levelo://app?vid=0569760a-f748-4bd7-863f-279bd7fcdc8b"},"vehicle_type_id":"4","last_reported":1753878265,"current_range_meters":12400,"station_id":"ce4bgph2rcd13ifvqc2g","pricing_plan_id":"cebpf4jnsgd1na2vs0mg"},{"bike_id":"9a10c8aa-92ef-40bc-955d-f947ae5fe07c","system_id":"levelo_inurba_marseille","lat":43.29308,"lon":5.37171,"is_reserved":false,"is_disabled":false,"rental_uris":{"android":"levelo://app?vid=9a10c8aa-92ef-40bc-955d-f947ae5fe07c","ios":"levelo://app?vid=9a10c8aa-92ef-40bc-955d-f947ae5fe07c"},"vehicle_type_id":"4","last_reported":1753878265,"current_range_meters":12400,"station_id":"ce4bgh92rcd13ifvqb40","pricing_plan_id":"cebpf4jnsgd1na2vs0mg"},{"bike_id":"f129605f-c561-462b-9dd8-38b1fae764e6","system_id":"levelo_inurba_marseille","lat":43.32362,"lon":5.36742,"is_reserved":false,"is_disabled":false,"rental_uris":{"android":"levelo://app?vid=f129605f-c561-462b-9dd8-38b1fae764e6","ios":"levelo://app?vid=f129605f-c561-462b-9dd8-38b1fae764e6"},"vehicle_type_id":"4","last_reported":1753878265,"current_range_meters":12400,"station_id":"ce4bhsh2rcd13ifvqi2g","pricing_plan_id":"cebpf4jnsgd1na2vs0mg"},{"bike_id":"8f41ed9d-1778-4af7-b2ad-fd1607beff4e","system_id":"levelo_inurba_marseille","lat":43.22496,"lon":5.34793,"is_reserved":false,"is_disabled":false,"rental_uris":{"android":"levelo://app?vid=8f41ed9d-1778-4af7-b2ad-fd1607beff4e","ios":"levelo://app?vid=8f41ed9d-1778-4af7-b2ad-fd1607beff4e"},"vehicle_type_id":"4","last_reported":1753878265,"current_range_meters":12400,"station_id":"st_cvj5dfep6f1abm77gieg","pricing_plan_id":"cebpf4jnsgd1na2vs0mg"},{"bike_id":"6ad60170-ca1d-414b-bdb6-add96b0268af","system_id":"levelo_inurba_marseille","lat":43.26927,"lon":5.40255,"is_reserved":false,"is_disabled":false,"rental_uris":{"android":"levelo://app?vid=6ad60170-ca1d-414b-bdb6-add96b0268af","ios":"levelo://app?vid=6ad60170-ca1d-414b-bdb6-add96b0268af"},"vehicle_type_id":"4","last_reported":1753878265,"current_range_meters":12800,"station_id":"cjm6bp8fraef2m0cb0m0","pricing_plan_id":"cebpf4jnsgd1na2vs0mg"},{"bike_id":"27121016-03d3-4670-9ce6-a156435b86ae","system_id":"levelo_inurba_marseille","lat":43.32335,"lon":5.40611,"is_reserved":false,"is_disabled":false,"rental_uris":{"android":"levelo://app?vid=27121016-03d3-4670-9ce6-a156435b86ae","ios":"levelo://app?vid=27121016-03d3-4670-9ce6-a156435b86ae"},"vehicle_type_id":"4","last_reported":1753878265,"current_range_meters":12800,"station_id":"ce4bhq92rcd13ifvqhjg","pricing_plan_id":"cebpf4jnsgd1na2vs0mg"},{"bike_id":"23cb5642-15b1-4dff-8751-77349dab4204","system_id":"levelo_inurba_marseille","lat":43.22985,"lon":5.35362,"is_reserved":false,"is_disabled":false,"rental_uris":{"android":"levelo://app?vid=23cb5642-15b1-4dff-8751-77349dab4204","ios":"levelo://app?vid=23cb5642-15b1-4dff-8751-77349dab4204"},"vehicle_type_id":"4","last_reported":1753878265,"current_range_meters":12800,"station_id":"","pricing_plan_id":"cebpf4jnsgd1na2vs0mg"},{"bike_id":"9fdacbc9-3ab3-489c-a147-d673414b31f6","system_id":"levelo_inurba_marseille","lat":43.29628,"lon":5.40589,"is_reserved":false,"is_disabled":false,"rental_uris":{"android":"levelo://app?vid=9fdacbc9-3ab3-489c-a147-d673414b31f6","ios":"levelo://app?vid=9fdacbc9-3ab3-489c-a147-d673414b31f6"},"vehicle_type_id":"4","last_reported":1753878265,"current_range_meters":12400,"station_id":"ce4bh0h2rcd13ifvqd60","pricing_plan_id":"cebpf4jnsgd1na2vs0mg"},{"bike_id":"24ddc855-9db1-447b-8cc7-fb33f85a47fb","system_id":"levelo_inurba_marseille","lat":43.30595,"lon":5.37213,"is_reserved":false,"is_disabled":false,"rental_uris":{"android":"levelo://app?vid=24ddc855-9db1-447b-8cc7-fb33f85a47fb","ios":"levelo://app?vid=24ddc855-9db1-447b-8cc7-fb33f85a47fb"},"vehicle_type_id":"4","last_reported":1753878265,"current_range_meters":12800,"station_id":"ce4bgqh2rcd13ifvqc4g","pricing_plan_id":"cebpf4jnsgd1na2vs0mg"},{"bike_id":"4b27bc1a-5d09-489f-8428-5ea3d442f87a","system_id":"levelo_inurba_marseille","lat":43.27966,"lon":5.38751,"is_reserved":false,"is_disabled":false,"rental_uris":{"android":"levelo://app?vid=4b27bc1a-5d09-489f-8428-5ea3d442f87a","ios":"levelo://app?vid=4b27bc1a-5d09-489f-8428-5ea3d442f87a"},"vehicle_type_id":"4","last_reported":1753878265,"current_range_meters":12400,"station_id":"ce4bhg12rcd13ifvqf80","pricing_plan_id":"cebpf4jnsgd1na2vs0mg"},{"bike_id":"056e4f3d-4ab7-42da-9834-2ca05b8a0f52","system_id":"levelo_inurba_marseille","lat":43.31484,"lon":5.36844,"is_reserved":false,"is_disabled":false,"rental_uris":{"android":"levelo://app?vid=056e4f3d-4ab7-42da-9834-2ca05b8a0f52","ios":"levelo://app?vid=056e4f3d-4ab7-42da-9834-2ca05b8a0f52"},"vehicle_type_id":"4","last_reported":1753878265,"current_range_meters":12800,"station_id":"","pricing_plan_id":"cebpf4jnsgd1na2vs0mg"},{"bike_id":"13d8dd9f-61db-44e7-9418-606a756fb09d","system_id":"levelo_inurba_marseille","lat":43.268389,"lon":5.396414,"is_reserved":false,"is_disabled":false,"rental_uris":{"android":"levelo://app?vid=13d8dd9f-61db-44e7-9418-606a756fb09d","ios":"levelo://app?vid=13d8dd9f-61db-44e7-9418-606a756fb09d"},"vehicle_type_id":"4","last_reported":1753878265,"current_range_meters":13600,"station_id":"ce4bhh12rcd13ifvqfg0","pricing_plan_id":"cebpf4jnsgd1na2vs0mg"},{"bike_id":"887f6f93-0eac-4bcd-a75b-a8c98047a14d","system_id":"levelo_inurba_marseille","lat":43.21185,"lon":5.35068,"is_reserved":false,"is_disabled":false,"rental_uris":{"android":"levelo://app?vid=887f6f93-0eac-4bcd-a75b-a8c98047a14d","ios":"levelo://app?vid=887f6f93-0eac-4bcd-a75b-a8c98047a14d"},"vehicle_type_id":"4","last_reported":1753878265,"current_range_meters":13600,"station_id":"","pricing_plan_id":"cebpf4jnsgd1na2vs0mg"},{"bike_id":"a8cb0696-e3c5-42bf-8e8b-31897b360093","system_id":"levelo_inurba_marseille","lat":43.29868,"lon":5.363,"is_reserved":false,"is_disabled":false,"rental_uris":{"android":"levelo://app?vid=a8cb0696-e3c5-42bf-8e8b-31897b360093","ios":"levelo://app?vid=a8cb0696-e3c5-42bf-8e8b-31897b360093"},"vehicle_type_id":"4","last_reported":1753878265,"current_range_meters":13600,"station_id":"ce4bgpp2rcd13ifvqc3g","pricing_plan_id":"cebpf4jnsgd1na2vs0mg"},{"bike_id":"85d95a9a-bae1-4127-a50f-dff98ce29fd5","system_id":"levelo_inurba_marseille","lat":43.32477,"lon":5.37416,"is_reserved":false,"is_disabled":false,"rental_uris":{"android":"levelo://app?vid=85d95a9a-bae1-4127-a50f-dff98ce29fd5","ios":"levelo://app?vid=85d95a9a-bae1-4127-a50f-dff98ce29fd5"},"vehicle_type_id":"4","last_reported":1753878265,"current_range_meters":13600,"station_id":"","pricing_plan_id":"cebpf4jnsgd1na2vs0mg"},{"bike_id":"38e48d4c-a6be-439f-af8c-c573badbf015","system_id":"levelo_inurba_marseille","lat":43.281004,"lon":5.378307,"is_reserved":false,"is_disabled":false,"rental_uris":{"android":"levelo://app?vid=38e48d4c-a6be-439f-af8c-c573badbf015","ios":"levelo://app?vid=38e48d4c-a6be-439f-af8c-c573badbf015"},"vehicle_type_id":"4","last_reported":1753878265,"current_range_meters":12800,"station_id":"ce4bha12rcd13ifvqee0","pricing_plan_id":"cebpf4jnsgd1na2vs0mg"},{"bike_id":"23cedc1f-6383-40c6-bcbe-95afbca1fe97","system_id":"levelo_inurba_marseille","lat":43.30882,"lon":5.39651,"is_reserved":false,"is_disabled":false,"rental_uris":{"android":"levelo://app?vid=23cedc1f-6383-40c6-bcbe-95afbca1fe97","ios":"levelo://app?vid=23cedc1f-6383-40c6-bcbe-95afbca1fe97"},"vehicle_type_id":"4","last_reported":1753878265,"current_range_meters":13600,"station_id":"ce4bh012rcd13ifvqcv0","pricing_plan_id":"cebpf4jnsgd1na2vs0mg"},{"bike_id":"2de31979-0f4f-45c7-bc08-9c3b8a499e75","system_id":"levelo_inurba_marseille","lat":43.29572,"lon":5.39968,"is_reserved":false,"is_disabled":false,"rental_uris":{"android":"levelo://app?vid=2de31979-0f4f-45c7-bc08-9c3b8a499e75","ios":"levelo://app?vid=2de31979-0f4f-45c7-bc08-9c3b8a499e75"},"vehicle_type_id":"4","last_reported":1753878265,"current_range_meters":12800,"station_id":"ce4bh312rcd13ifvqdj0","pricing_plan_id":"cebpf4jnsgd1na2vs0mg"},{"bike_id":"66e4c1c1-6cb9-4a91-95df-289f558cacaa","system_id":"levelo_inurba_marseille","lat":43.32367,"lon":5.38882,"is_reserved":false,"is_disabled":false,"rental_uris":{"android":"levelo://app?vid=66e4c1c1-6cb9-4a91-95df-289f558cacaa","ios":"levelo://app?vid=66e4c1c1-6cb9-4a91-95df-289f558cacaa"},"vehicle_type_id":"4","last_reported":1753878265,"current_range_meters":13600,"station_id":"ce4bhqp2rcd13ifvqhog","pricing_plan_id":"cebpf4jnsgd1na2vs0mg"},{"bike_id":"a6a46ae2-d764-44ee-baf2-a76e49bd9084","system_id":"levelo_inurba_marseille","lat":43.269868,"lon":5.403022,"is_reserved":false,"is_disabled":false,"rental_uris":{"android":"levelo://app?vid=a6a46ae2-d764-44ee-baf2-a76e49bd9084","ios":"levelo://app?vid=a6a46ae2-d764-44ee-baf2-a76e49bd9084"},"vehicle_type_id":"4","last_reported":1753878265,"current_range_meters":13600,"station_id":"","pricing_plan_id":"cebpf4jnsgd1na2vs0mg"},{"bike_id":"c686771c-e4d6-4ee5-934b-f3ca190b833e","system_id":"levelo_inurba_marseille","lat":43.32765,"lon":5.39204,"is_reserved":false,"is_disabled":false,"rental_uris":{"android":"levelo://app?vid=c686771c-e4d6-4ee5-934b-f3ca190b833e","ios":"levelo://app?vid=c686771c-e4d6-4ee5-934b-f3ca190b833e"},"vehicle_type_id":"4","last_reported":1753878265,"current_range_meters":13600,"station_id":"","pricing_plan_id":"cebpf4jnsgd1na2vs0mg"},{"bike_id":"5ff7b424-be72-460e-9279-c80ac3b388ac","system_id":"levelo_inurba_marseille","lat":43.23196,"lon":5.39979,"is_reserved":false,"is_disabled":false,"rental_uris":{"android":"levelo://app?vid=5ff7b424-be72-460e-9279-c80ac3b388ac","ios":"levelo://app?vid=5ff7b424-be72-460e-9279-c80ac3b388ac"},"vehicle_type_id":"4","last_reported":1753878265,"current_range_meters":13600,"station_id":"ce4bhn12rcd13ifvqgqg","pricing_plan_id":"cebpf4jnsgd1na2vs0mg"},{"bike_id":"2fad1b6f-d0b7-4211-9b9d-661d7c090096","system_id":"levelo_inurba_marseille","lat":43.298127,"lon":5.433409,"is_reserved":false,"is_disabled":false,"rental_uris":{"android":"levelo://app?vid=2fad1b6f-d0b7-4211-9b9d-661d7c090096","ios":"levelo://app?vid=2fad1b6f-d0b7-4211-9b9d-661d7c090096"},"vehicle_type_id":"4","last_reported":1753878265,"current_range_meters":14000,"station_id":"","pricing_plan_id":"cebpf4jnsgd1na2vs0mg"},{"bike_id":"0d928f60-6905-499a-b3b8-42870d7a54b7","system_id":"levelo_inurba_marseille","lat":43.28853,"lon":5.39308,"is_reserved":false,"is_disabled":false,"rental_uris":{"android":"levelo://app?vid=0d928f60-6905-499a-b3b8-42870d7a54b7","ios":"levelo://app?vid=0d928f60-6905-499a-b3b8-42870d7a54b7"},"vehicle_type_id":"4","last_reported":1753878265,"current_range_meters":14000,"station_id":"ce4bh2p2rcd13ifvqdi0","pricing_plan_id":"cebpf4jnsgd1na2vs0mg"},{"bike_id":"671701a9-7243-46ba-9df9-fa49b6935265","system_id":"levelo_inurba_marseille","lat":43.25981,"lon":5.3724,"is_reserved":false,"is_disabled":false,"rental_uris":{"android":"levelo://app?vid=671701a9-7243-46ba-9df9-fa49b6935265","ios":"levelo://app?vid=671701a9-7243-46ba-9df9-fa49b6935265"},"vehicle_type_id":"4","last_reported":1753878265,"current_range_meters":14000,"station_id":"","pricing_plan_id":"cebpf4jnsgd1na2vs0mg"},{"bike_id":"58393c2c-caac-478a-92a7-0dad0c9ca20d","system_id":"levelo_inurba_marseille","lat":43.26795,"lon":5.39433,"is_reserved":false,"is_disabled":false,"rental_uris":{"android":"levelo://app?vid=58393c2c-caac-478a-92a7-0dad0c9ca20d","ios":"levelo://app?vid=58393c2c-caac-478a-92a7-0dad0c9ca20d"},"vehicle_type_id":"4","last_reported":1753878265,"current_range_meters":14000,"station_id":"ce4bhh12rcd13ifvqfg0","pricing_plan_id":"cebpf4jnsgd1na2vs0mg"},{"bike_id":"10be896f-dd4f-471f-b0af-519797cebbcc","system_id":"levelo_inurba_marseille","lat":43.30886,"lon":5.37202,"is_reserved":false,"is_disabled":false,"rental_uris":{"android":"levelo://app?vid=10be896f-dd4f-471f-b0af-519797cebbcc","ios":"levelo://app?vid=10be896f-dd4f-471f-b0af-519797cebbcc"},"vehicle_type_id":"4","last_reported":1753878265,"current_range_meters":14000,"station_id":"ce4bguh2rcd13ifvqckg","pricing_plan_id":"cebpf4jnsgd1na2vs0mg"},{"bike_id":"3d60e95a-8706-4e13-b31f-ac7a913f607a","system_id":"levelo_inurba_marseille","lat":43.2293,"lon":5.35394,"is_reserved":false,"is_disabled":false,"rental_uris":{"android":"levelo://app?vid=3d60e95a-8706-4e13-b31f-ac7a913f607a","ios":"levelo://app?vid=3d60e95a-8706-4e13-b31f-ac7a913f607a"},"vehicle_type_id":"4","last_reported":1753878265,"current_range_meters":14400,"station_id":"cpo3532slgdg3j2ikp40","pricing_plan_id":"cebpf4jnsgd1na2vs0mg"},{"bike_id":"55108425-41fa-4001-b08d-c37462ba217e","system_id":"levelo_inurba_marseille","lat":43.31083,"lon":5.42433,"is_reserved":false,"is_disabled":false,"rental_uris":{"android":"levelo://app?vid=55108425-41fa-4001-b08d-c37462ba217e","ios":"levelo://app?vid=55108425-41fa-4001-b08d-c37462ba217e"},"vehicle_type_id":"4","last_reported":1753878265,"current_range_meters":14400,"station_id":"ce4bhp92rcd13ifvqhag","pricing_plan_id":"cebpf4jnsgd1na2vs0mg"},{"bike_id":"b44d763b-4f92-4731-b76a-85ebcd91acd5","system_id":"levelo_inurba_marseille","lat":43.30159,"lon":5.37146,"is_reserved":false,"is_disabled":false,"rental_uris":{"android":"levelo://app?vid=b44d763b-4f92-4731-b76a-85ebcd91acd5","ios":"levelo://app?vid=b44d763b-4f92-4731-b76a-85ebcd91acd5"},"vehicle_type_id":"4","last_reported":1753878265,"current_range_meters":14400,"station_id":"","pricing_plan_id":"cebpf4jnsgd1na2vs0mg"},{"bike_id":"ae6c8428-e39e-40be-9df7-f418521aa777","system_id":"levelo_inurba_marseille","lat":43.22921,"lon":5.35372,"is_reserved":false,"is_disabled":false,"rental_uris":{"android":"levelo://app?vid=ae6c8428-e39e-40be-9df7-f418521aa777","ios":"levelo://app?vid=ae6c8428-e39e-40be-9df7-f418521aa777"},"vehicle_type_id":"4","last_reported":1753878265,"current_range_meters":14400,"station_id":"cpo3532slgdg3j2ikp40","pricing_plan_id":"cebpf4jnsgd1na2vs0mg"},{"bike_id":"b8f54638-91a0-4cec-9e64-ab593c86e67d","system_id":"levelo_inurba_marseille","lat":43.304467,"lon":5.378869,"is_reserved":false,"is_disabled":false,"rental_uris":{"android":"levelo://app?vid=b8f54638-91a0-4cec-9e64-ab593c86e67d","ios":"levelo://app?vid=b8f54638-91a0-4cec-9e64-ab593c86e67d"},"vehicle_type_id":"4","last_reported":1753878265,"current_range_meters":14400,"station_id":"ce4bgup2rcd13ifvqcn0","pricing_plan_id":"cebpf4jnsgd1na2vs0mg"},{"bike_id":"0f86517d-ec42-4ff4-be4e-d82d5b316896","system_id":"levelo_inurba_marseille","lat":43.30432,"lon":5.38895,"is_reserved":false,"is_disabled":false,"rental_uris":{"android":"levelo://app?vid=0f86517d-ec42-4ff4-be4e-d82d5b316896","ios":"levelo://app?vid=0f86517d-ec42-4ff4-be4e-d82d5b316896"},"vehicle_type_id":"4","last_reported":1753878265,"current_range_meters":14400,"station_id":"ce4bgk12rcd13ifvqbi0","pricing_plan_id":"cebpf4jnsgd1na2vs0mg"},{"bike_id":"116d91c8-22c6-44b9-ad68-dfbfbe9e23dc","system_id":"levelo_inurba_marseille","lat":43.32486,"lon":5.36588,"is_reserved":false,"is_disabled":false,"rental_uris":{"android":"levelo://app?vid=116d91c8-22c6-44b9-ad68-dfbfbe9e23dc","ios":"levelo://app?vid=116d91c8-22c6-44b9-ad68-dfbfbe9e23dc"},"vehicle_type_id":"4","last_reported":1753878265,"current_range_meters":14400,"station_id":"ce4bhs12rcd13ifvqhvg","pricing_plan_id":"cebpf4jnsgd1na2vs0mg"},{"bike_id":"3dc94204-2f3e-4b8d-a98a-2eebdfcaff10","system_id":"levelo_inurba_marseille","lat":43.22505,"lon":5.34776,"is_reserved":false,"is_disabled":false,"rental_uris":{"android":"levelo://app?vid=3dc94204-2f3e-4b8d-a98a-2eebdfcaff10","ios":"levelo://app?vid=3dc94204-2f3e-4b8d-a98a-2eebdfcaff10"},"vehicle_type_id":"4","last_reported":1753878265,"current_range_meters":14400,"station_id":"st_cvj5dfep6f1abm77gieg","pricing_plan_id":"cebpf4jnsgd1na2vs0mg"},{"bike_id":"19295018-235d-4f62-9c12-0203c908e699","system_id":"levelo_inurba_marseille","lat":43.22928,"lon":5.35373,"is_reserved":false,"is_disabled":false,"rental_uris":{"android":"levelo://app?vid=19295018-235d-4f62-9c12-0203c908e699","ios":"levelo://app?vid=19295018-235d-4f62-9c12-0203c908e699"},"vehicle_type_id":"4","last_reported":1753878265,"current_range_meters":14800,"station_id":"cpo3532slgdg3j2ikp40","pricing_plan_id":"cebpf4jnsgd1na2vs0mg"},{"bike_id":"fea5ec1b-f797-4a6b-a649-4890481ac22d","system_id":"levelo_inurba_marseille","lat":43.3015,"lon":5.38085,"is_reserved":false,"is_disabled":false,"rental_uris":{"android":"levelo://app?vid=fea5ec1b-f797-4a6b-a649-4890481ac22d","ios":"levelo://app?vid=fea5ec1b-f797-4a6b-a649-4890481ac22d"},"vehicle_type_id":"4","last_reported":1753878265,"current_range_meters":14800,"station_id":"ce4bgjp2rcd13ifvqbh0","pricing_plan_id":"cebpf4jnsgd1na2vs0mg"},{"bike_id":"97e0cc1c-fa5d-41b9-8b72-3eed848ec1f7","system_id":"levelo_inurba_marseille","lat":43.330295,"lon":5.390706,"is_reserved":false,"is_disabled":false,"rental_uris":{"android":"levelo://app?vid=97e0cc1c-fa5d-41b9-8b72-3eed848ec1f7","ios":"levelo://app?vid=97e0cc1c-fa5d-41b9-8b72-3eed848ec1f7"},"vehicle_type_id":"4","last_reported":1753878265,"current_range_meters":14800,"station_id":"ce4bhr92rcd13ifvqhrg","pricing_plan_id":"cebpf4jnsgd1na2vs0mg"},{"bike_id":"667d9776-4d0b-4ea0-ab5a-e8ea025b761b","system_id":"levelo_inurba_marseille","lat":43.31072,"lon":5.38356,"is_reserved":false,"is_disabled":false,"rental_uris":{"android":"levelo://app?vid=667d9776-4d0b-4ea0-ab5a-e8ea025b761b","ios":"levelo://app?vid=667d9776-4d0b-4ea0-ab5a-e8ea025b761b"},"vehicle_type_id":"4","last_reported":1753878265,"current_range_meters":14800,"station_id":"ce4bgv92rcd13ifvqcr0","pricing_plan_id":"cebpf4jnsgd1na2vs0mg"},{"bike_id":"daabd21d-fe72-4bef-9caa-c5886e1b6fe4","system_id":"levelo_inurba_marseille","lat":43.319953,"lon":5.374468,"is_reserved":false,"is_disabled":false,"rental_uris":{"android":"levelo://app?vid=daabd21d-fe72-4bef-9caa-c5886e1b6fe4","ios":"levelo://app?vid=daabd21d-fe72-4bef-9caa-c5886e1b6fe4"},"vehicle_type_id":"4","last_reported":1753878265,"current_range_meters":14800,"station_id":"","pricing_plan_id":"cebpf4jnsgd1na2vs0mg"},{"bike_id":"a05992f6-1f51-4dbf-8921-4ad77bab57e9","system_id":"levelo_inurba_marseille","lat":43.24163,"lon":5.36394,"is_reserved":false,"is_disabled":false,"rental_uris":{"android":"levelo://app?vid=a05992f6-1f51-4dbf-8921-4ad77bab57e9","ios":"levelo://app?vid=a05992f6-1f51-4dbf-8921-4ad77bab57e9"},"vehicle_type_id":"4","last_reported":1753878265,"current_range_meters":14800,"station_id":"cpo36qri1sfpv3e86is0","pricing_plan_id":"cebpf4jnsgd1na2vs0mg"},{"bike_id":"9e9911bf-5f12-4bb1-bac5-bcf9795621d2","system_id":"levelo_inurba_marseille","lat":43.26009,"lon":5.3754,"is_reserved":false,"is_disabled":false,"rental_uris":{"android":"levelo://app?vid=9e9911bf-5f12-4bb1-bac5-bcf9795621d2","ios":"levelo://app?vid=9e9911bf-5f12-4bb1-bac5-bcf9795621d2"},"vehicle_type_id":"4","last_reported":1753878265,"current_range_meters":14800,"station_id":"ce4bhgh2rcd13ifvqfa0","pricing_plan_id":"cebpf4jnsgd1na2vs0mg"},{"bike_id":"49ac42e3-46a9-464c-add5-aa76569577fd","system_id":"levelo_inurba_marseille","lat":43.26206,"lon":5.37441,"is_reserved":false,"is_disabled":false,"rental_uris":{"android":"levelo://app?vid=49ac42e3-46a9-464c-add5-aa76569577fd","ios":"levelo://app?vid=49ac42e3-46a9-464c-add5-aa76569577fd"},"vehicle_type_id":"4","last_reported":1753878265,"current_range_meters":15200,"station_id":"ce4bhgp2rcd13ifvqfc0","pricing_plan_id":"cebpf4jnsgd1na2vs0mg"},{"bike_id":"da913aa8-3d8c-4ab2-b48f-187998fd2a99","system_id":"levelo_inurba_marseille","lat":43.30906,"lon":5.3717,"is_reserved":false,"is_disabled":false,"rental_uris":{"android":"levelo://app?vid=da913aa8-3d8c-4ab2-b48f-187998fd2a99","ios":"levelo://app?vid=da913aa8-3d8c-4ab2-b48f-187998fd2a99"},"vehicle_type_id":"4","last_reported":1753878265,"current_range_meters":16000,"station_id":"","pricing_plan_id":"cebpf4jnsgd1na2vs0mg"},{"bike_id":"5f72df66-2d68-4c6e-a917-44e1dcfede98","system_id":"levelo_inurba_marseille","lat":43.22927,"lon":5.35388,"is_reserved":false,"is_disabled":false,"rental_uris":{"android":"levelo://app?vid=5f72df66-2d68-4c6e-a917-44e1dcfede98","ios":"levelo://app?vid=5f72df66-2d68-4c6e-a917-44e1dcfede98"},"vehicle_type_id":"4","last_reported":1753878265,"current_range_meters":15200,"station_id":"cpo3532slgdg3j2ikp40","pricing_plan_id":"cebpf4jnsgd1na2vs0mg"},{"bike_id":"c4f379e0-f05d-411b-8863-6924fb8900f8","system_id":"levelo_inurba_marseille","lat":43.29303,"lon":5.37464,"is_reserved":false,"is_disabled":false,"rental_uris":{"android":"levelo://app?vid=c4f379e0-f05d-411b-8863-6924fb8900f8","ios":"levelo://app?vid=c4f379e0-f05d-411b-8863-6924fb8900f8"},"vehicle_type_id":"4","last_reported":1753878265,"current_range_meters":15200,"station_id":"ce4bgi12rcd13ifvqb70","pricing_plan_id":"cebpf4jnsgd1na2vs0mg"},{"bike_id":"6b5a8423-59e6-41e0-9800-c3f91ce1824a","system_id":"levelo_inurba_marseille","lat":43.24697,"lon":5.38153,"is_reserved":false,"is_disabled":true,"rental_uris":{"android":"levelo://app?vid=6b5a8423-59e6-41e0-9800-c3f91ce1824a","ios":"levelo://app?vid=6b5a8423-59e6-41e0-9800-c3f91ce1824a"},"vehicle_type_id":"4","last_reported":1753878265,"current_range_meters":15200,"station_id":"ce4bhih2rcd13ifvqfr0","pricing_plan_id":"cebpf4jnsgd1na2vs0mg"},{"bike_id":"55736d86-3b8a-46fa-a866-19efef32ba8d","system_id":"levelo_inurba_marseille","lat":43.308,"lon":5.38164,"is_reserved":false,"is_disabled":true,"rental_uris":{"android":"levelo://app?vid=55736d86-3b8a-46fa-a866-19efef32ba8d","ios":"levelo://app?vid=55736d86-3b8a-46fa-a866-19efef32ba8d"},"vehicle_type_id":"4","last_reported":1753878265,"current_range_meters":15200,"station_id":"ce4bgt12rcd13ifvqce0","pricing_plan_id":"cebpf4jnsgd1na2vs0mg"},{"bike_id":"f4dd1d6b-69f7-4979-8b59-33b6c8a3403c","system_id":"levelo_inurba_marseille","lat":43.27372,"lon":5.36256,"is_reserved":false,"is_disabled":false,"rental_uris":{"android":"levelo://app?vid=f4dd1d6b-69f7-4979-8b59-33b6c8a3403c","ios":"levelo://app?vid=f4dd1d6b-69f7-4979-8b59-33b6c8a3403c"},"vehicle_type_id":"4","last_reported":1753878265,"current_range_meters":16000,"station_id":"ce4bhbh2rcd13ifvqeo0","pricing_plan_id":"cebpf4jnsgd1na2vs0mg"},{"bike_id":"59a6b5a4-98f4-449c-9f08-0a39f974a7a5","system_id":"levelo_inurba_marseille","lat":43.22494,"lon":5.34781,"is_reserved":false,"is_disabled":false,"rental_uris":{"android":"levelo://app?vid=59a6b5a4-98f4-449c-9f08-0a39f974a7a5","ios":"levelo://app?vid=59a6b5a4-98f4-449c-9f08-0a39f974a7a5"},"vehicle_type_id":"4","last_reported":1753878265,"current_range_meters":16000,"station_id":"st_cvj5dfep6f1abm77gieg","pricing_plan_id":"cebpf4jnsgd1na2vs0mg"},{"bike_id":"e3ba3c7f-2f0d-45ce-a6ae-f5e7179418bc","system_id":"levelo_inurba_marseille","lat":43.30889,"lon":5.37213,"is_reserved":false,"is_disabled":false,"rental_uris":{"android":"levelo://app?vid=e3ba3c7f-2f0d-45ce-a6ae-f5e7179418bc","ios":"levelo://app?vid=e3ba3c7f-2f0d-45ce-a6ae-f5e7179418bc"},"vehicle_type_id":"4","last_reported":1753878265,"current_range_meters":12800,"station_id":"ce4bguh2rcd13ifvqckg","pricing_plan_id":"cebpf4jnsgd1na2vs0mg"},{"bike_id":"08a4daad-92c6-4c11-9b37-74d84de06af8","system_id":"levelo_inurba_marseille","lat":43.30303,"lon":5.36928,"is_reserved":false,"is_disabled":false,"rental_uris":{"android":"levelo://app?vid=08a4daad-92c6-4c11-9b37-74d84de06af8","ios":"levelo://app?vid=08a4daad-92c6-4c11-9b37-74d84de06af8"},"vehicle_type_id":"4","last_reported":1753878265,"current_range_meters":16000,"station_id":"ce4bgqh2rcd13ifvqc5g","pricing_plan_id":"cebpf4jnsgd1na2vs0mg"},{"bike_id":"30697f94-bac6-41b5-805d-205e2b7442f0","system_id":"levelo_inurba_marseille","lat":43.27428,"lon":5.39409,"is_reserved":false,"is_disabled":false,"rental_uris":{"android":"levelo://app?vid=30697f94-bac6-41b5-805d-205e2b7442f0","ios":"levelo://app?vid=30697f94-bac6-41b5-805d-205e2b7442f0"},"vehicle_type_id":"4","last_reported":1753878265,"current_range_meters":16000,"station_id":"ce4bhdp2rcd13ifvqf20","pricing_plan_id":"cebpf4jnsgd1na2vs0mg"},{"bike_id":"924d8e8c-f25c-4d83-8c6c-10308c8f159b","system_id":"levelo_inurba_marseille","lat":43.3055,"lon":5.36697,"is_reserved":false,"is_disabled":false,"rental_uris":{"android":"levelo://app?vid=924d8e8c-f25c-4d83-8c6c-10308c8f159b","ios":"levelo://app?vid=924d8e8c-f25c-4d83-8c6c-10308c8f159b"},"vehicle_type_id":"4","last_reported":1753878265,"current_range_meters":15200,"station_id":"ce4bgrp2rcd13ifvqc9g","pricing_plan_id":"cebpf4jnsgd1na2vs0mg"},{"bike_id":"b6ac990f-f37b-4014-b136-316bdbae02d1","system_id":"levelo_inurba_marseille","lat":43.26679,"lon":5.3826,"is_reserved":false,"is_disabled":false,"rental_uris":{"android":"levelo://app?vid=b6ac990f-f37b-4014-b136-316bdbae02d1","ios":"levelo://app?vid=b6ac990f-f37b-4014-b136-316bdbae02d1"},"vehicle_type_id":"4","last_reported":1753878265,"current_range_meters":16000,"station_id":"ce4bhg92rcd13ifvqf90","pricing_plan_id":"cebpf4jnsgd1na2vs0mg"},{"bike_id":"2e1bdbd1-042c-4bf4-b623-908b6301c20d","system_id":"levelo_inurba_marseille","lat":43.2813,"lon":5.44195,"is_reserved":false,"is_disabled":false,"rental_uris":{"android":"levelo://app?vid=2e1bdbd1-042c-4bf4-b623-908b6301c20d","ios":"levelo://app?vid=2e1bdbd1-042c-4bf4-b623-908b6301c20d"},"vehicle_type_id":"4","last_reported":1753878265,"current_range_meters":16000,"station_id":"","pricing_plan_id":"cebpf4jnsgd1na2vs0mg"},{"bike_id":"6ebd9bfc-35e6-4377-be14-f37979461732","system_id":"levelo_inurba_marseille","lat":43.2781,"lon":5.40714,"is_reserved":false,"is_disabled":false,"rental_uris":{"android":"levelo://app?vid=6ebd9bfc-35e6-4377-be14-f37979461732","ios":"levelo://app?vid=6ebd9bfc-35e6-4377-be14-f37979461732"},"vehicle_type_id":"4","last_reported":1753878265,"current_range_meters":15200,"station_id":"ce4bhnh2rcd13ifvqgtg","pricing_plan_id":"cebpf4jnsgd1na2vs0mg"},{"bike_id":"373c6184-4b92-4e83-b39f-f5469fa80295","system_id":"levelo_inurba_marseille","lat":43.30944,"lon":5.39034,"is_reserved":false,"is_disabled":false,"rental_uris":{"android":"levelo://app?vid=373c6184-4b92-4e83-b39f-f5469fa80295","ios":"levelo://app?vid=373c6184-4b92-4e83-b39f-f5469fa80295"},"vehicle_type_id":"4","last_reported":1753878265,"current_range_meters":16400,"station_id":"ce4bgup2rcd13ifvqco0","pricing_plan_id":"cebpf4jnsgd1na2vs0mg"},{"bike_id":"fc72750c-8629-412d-8606-ffe7b2eda556","system_id":"levelo_inurba_marseille","lat":43.2747,"lon":5.42544,"is_reserved":false,"is_disabled":false,"rental_uris":{"android":"levelo://app?vid=fc72750c-8629-412d-8606-ffe7b2eda556","ios":"levelo://app?vid=fc72750c-8629-412d-8606-ffe7b2eda556"},"vehicle_type_id":"4","last_reported":1753878265,"current_range_meters":16400,"station_id":"","pricing_plan_id":"cebpf4jnsgd1na2vs0mg"},{"bike_id":"3e8122e0-364e-4231-8b02-eed1a2921818","system_id":"levelo_inurba_marseille","lat":43.22506,"lon":5.34784,"is_reserved":false,"is_disabled":false,"rental_uris":{"android":"levelo://app?vid=3e8122e0-364e-4231-8b02-eed1a2921818","ios":"levelo://app?vid=3e8122e0-364e-4231-8b02-eed1a2921818"},"vehicle_type_id":"4","last_reported":1753878265,"current_range_meters":16400,"station_id":"st_cvj5dfep6f1abm77gieg","pricing_plan_id":"cebpf4jnsgd1na2vs0mg"},{"bike_id":"6590494b-43e7-43e0-b312-c754fd5ea433","system_id":"levelo_inurba_marseille","lat":43.29056,"lon":5.42997,"is_reserved":false,"is_disabled":false,"rental_uris":{"android":"levelo://app?vid=6590494b-43e7-43e0-b312-c754fd5ea433","ios":"levelo://app?vid=6590494b-43e7-43e0-b312-c754fd5ea433"},"vehicle_type_id":"4","last_reported":1753878265,"current_range_meters":16400,"station_id":"","pricing_plan_id":"cebpf4jnsgd1na2vs0mg"},{"bike_id":"2c4400c7-2bd6-4d8f-805d-b1037b3fe518","system_id":"levelo_inurba_marseille","lat":43.22498,"lon":5.34776,"is_reserved":false,"is_disabled":false,"rental_uris":{"android":"levelo://app?vid=2c4400c7-2bd6-4d8f-805d-b1037b3fe518","ios":"levelo://app?vid=2c4400c7-2bd6-4d8f-805d-b1037b3fe518"},"vehicle_type_id":"4","last_reported":1753878265,"current_range_meters":16400,"station_id":"st_cvj5dfep6f1abm77gieg","pricing_plan_id":"cebpf4jnsgd1na2vs0mg"},{"bike_id":"1a0ca16f-4b93-4052-acd5-440501907ad3","system_id":"levelo_inurba_marseille","lat":43.23184,"lon":5.35569,"is_reserved":false,"is_disabled":false,"rental_uris":{"android":"levelo://app?vid=1a0ca16f-4b93-4052-acd5-440501907ad3","ios":"levelo://app?vid=1a0ca16f-4b93-4052-acd5-440501907ad3"},"vehicle_type_id":"4","last_reported":1753878265,"current_range_meters":16400,"station_id":"ce4bhu92rcd13ifvqi70","pricing_plan_id":"cebpf4jnsgd1na2vs0mg"},{"bike_id":"d076e265-2a54-4297-9670-5745543050ab","system_id":"levelo_inurba_marseille","lat":43.284,"lon":5.35002,"is_reserved":false,"is_disabled":false,"rental_uris":{"android":"levelo://app?vid=d076e265-2a54-4297-9670-5745543050ab","ios":"levelo://app?vid=d076e265-2a54-4297-9670-5745543050ab"},"vehicle_type_id":"4","last_reported":1753878265,"current_range_meters":16400,"station_id":"ce4bhbh2rcd13ifvqepg","pricing_plan_id":"cebpf4jnsgd1na2vs0mg"},{"bike_id":"e25c07d2-8ffc-4a48-b3a4-c1cf623509e3","system_id":"levelo_inurba_marseille","lat":43.31363,"lon":5.36721,"is_reserved":false,"is_disabled":false,"rental_uris":{"android":"levelo://app?vid=e25c07d2-8ffc-4a48-b3a4-c1cf623509e3","ios":"levelo://app?vid=e25c07d2-8ffc-4a48-b3a4-c1cf623509e3"},"vehicle_type_id":"4","last_reported":1753878265,"current_range_meters":16400,"station_id":"ce4bgr92rcd13ifvqc6g","pricing_plan_id":"cebpf4jnsgd1na2vs0mg"},{"bike_id":"6edee4fe-46f2-43ea-a18a-6ec975f8373c","system_id":"levelo_inurba_marseille","lat":43.28853,"lon":5.358465,"is_reserved":false,"is_disabled":false,"rental_uris":{"android":"levelo://app?vid=6edee4fe-46f2-43ea-a18a-6ec975f8373c","ios":"levelo://app?vid=6edee4fe-46f2-43ea-a18a-6ec975f8373c"},"vehicle_type_id":"4","last_reported":1753878265,"current_range_meters":16400,"station_id":"","pricing_plan_id":"cebpf4jnsgd1na2vs0mg"},{"bike_id":"b89ad748-f7c1-4685-8c85-3009b186b7d0","system_id":"levelo_inurba_marseille","lat":43.24829,"lon":5.37453,"is_reserved":false,"is_disabled":false,"rental_uris":{"android":"levelo://app?vid=b89ad748-f7c1-4685-8c85-3009b186b7d0","ios":"levelo://app?vid=b89ad748-f7c1-4685-8c85-3009b186b7d0"},"vehicle_type_id":"4","last_reported":1753878265,"current_range_meters":16400,"station_id":"ce4bhgh2rcd13ifvqfb0","pricing_plan_id":"cebpf4jnsgd1na2vs0mg"},{"bike_id":"30d425b9-6532-4584-ae56-a015f4c9f632","system_id":"levelo_inurba_marseille","lat":43.29206,"lon":5.36069,"is_reserved":false,"is_disabled":false,"rental_uris":{"android":"levelo://app?vid=30d425b9-6532-4584-ae56-a015f4c9f632","ios":"levelo://app?vid=30d425b9-6532-4584-ae56-a015f4c9f632"},"vehicle_type_id":"4","last_reported":1753878265,"current_range_meters":16800,"station_id":"ce4bhbh2rcd13ifvqeqg","pricing_plan_id":"cebpf4jnsgd1na2vs0mg"},{"bike_id":"a1ff8abf-b48c-40cc-80da-1aa4ddcb27ff","system_id":"levelo_inurba_marseille","lat":43.26954,"lon":5.38625,"is_reserved":false,"is_disabled":false,"rental_uris":{"android":"levelo://app?vid=a1ff8abf-b48c-40cc-80da-1aa4ddcb27ff","ios":"levelo://app?vid=a1ff8abf-b48c-40cc-80da-1aa4ddcb27ff"},"vehicle_type_id":"4","last_reported":1753878265,"current_range_meters":16800,"station_id":"ce4bhh92rcd13ifvqfh0","pricing_plan_id":"cebpf4jnsgd1na2vs0mg"},{"bike_id":"36c11242-6e7f-4d89-97be-c2933f4606a5","system_id":"levelo_inurba_marseille","lat":43.26206,"lon":5.37436,"is_reserved":false,"is_disabled":false,"rental_uris":{"android":"levelo://app?vid=36c11242-6e7f-4d89-97be-c2933f4606a5","ios":"levelo://app?vid=36c11242-6e7f-4d89-97be-c2933f4606a5"},"vehicle_type_id":"4","last_reported":1753878265,"current_range_meters":16800,"station_id":"ce4bhgp2rcd13ifvqfc0","pricing_plan_id":"cebpf4jnsgd1na2vs0mg"},{"bike_id":"52aa1d0d-4466-44b5-a116-ec1102c8f422","system_id":"levelo_inurba_marseille","lat":43.3288,"lon":5.36046,"is_reserved":false,"is_disabled":false,"rental_uris":{"android":"levelo://app?vid=52aa1d0d-4466-44b5-a116-ec1102c8f422","ios":"levelo://app?vid=52aa1d0d-4466-44b5-a116-ec1102c8f422"},"vehicle_type_id":"4","last_reported":1753878265,"current_range_meters":16800,"station_id":"","pricing_plan_id":"cebpf4jnsgd1na2vs0mg"},{"bike_id":"39d30381-5d5f-4cb4-b5a2-c9e5f33f2cad","system_id":"levelo_inurba_marseille","lat":43.25496,"lon":5.37649,"is_reserved":false,"is_disabled":false,"rental_uris":{"android":"levelo://app?vid=39d30381-5d5f-4cb4-b5a2-c9e5f33f2cad","ios":"levelo://app?vid=39d30381-5d5f-4cb4-b5a2-c9e5f33f2cad"},"vehicle_type_id":"4","last_reported":1753878265,"current_range_meters":16800,"station_id":"ce4bhh12rcd13ifvqff0","pricing_plan_id":"cebpf4jnsgd1na2vs0mg"},{"bike_id":"552baf4f-a6b8-4ebf-9439-a0ea73ddc336","system_id":"levelo_inurba_marseille","lat":43.29273,"lon":5.36852,"is_reserved":false,"is_disabled":false,"rental_uris":{"android":"levelo://app?vid=552baf4f-a6b8-4ebf-9439-a0ea73ddc336","ios":"levelo://app?vid=552baf4f-a6b8-4ebf-9439-a0ea73ddc336"},"vehicle_type_id":"4","last_reported":1753878265,"current_range_meters":17200,"station_id":"ce4bhbp2rcd13ifvqesg","pricing_plan_id":"cebpf4jnsgd1na2vs0mg"},{"bike_id":"1dd4e7fd-10ad-40ea-b1ea-61c0d44f770e","system_id":"levelo_inurba_marseille","lat":43.28076,"lon":5.39657,"is_reserved":false,"is_disabled":false,"rental_uris":{"android":"levelo://app?vid=1dd4e7fd-10ad-40ea-b1ea-61c0d44f770e","ios":"levelo://app?vid=1dd4e7fd-10ad-40ea-b1ea-61c0d44f770e"},"vehicle_type_id":"4","last_reported":1753878265,"current_range_meters":17200,"station_id":"ce4bho12rcd13ifvqh2g","pricing_plan_id":"cebpf4jnsgd1na2vs0mg"},{"bike_id":"27e3af3a-615b-4cc9-8468-7f9a0e895f93","system_id":"levelo_inurba_marseille","lat":43.30545,"lon":5.36707,"is_reserved":false,"is_disabled":false,"rental_uris":{"android":"levelo://app?vid=27e3af3a-615b-4cc9-8468-7f9a0e895f93","ios":"levelo://app?vid=27e3af3a-615b-4cc9-8468-7f9a0e895f93"},"vehicle_type_id":"4","last_reported":1753878265,"current_range_meters":17200,"station_id":"ce4bgrp2rcd13ifvqc9g","pricing_plan_id":"cebpf4jnsgd1na2vs0mg"},{"bike_id":"2d0348b7-44ae-481a-8d3f-a3fc9edf8c06","system_id":"levelo_inurba_marseille","lat":43.31082,"lon":5.42428,"is_reserved":false,"is_disabled":false,"rental_uris":{"android":"levelo://app?vid=2d0348b7-44ae-481a-8d3f-a3fc9edf8c06","ios":"levelo://app?vid=2d0348b7-44ae-481a-8d3f-a3fc9edf8c06"},"vehicle_type_id":"4","last_reported":1753878265,"current_range_meters":17200,"station_id":"ce4bhp92rcd13ifvqhag","pricing_plan_id":"cebpf4jnsgd1na2vs0mg"},{"bike_id":"cd135ec5-1f0e-488f-a7bf-0e94c2e06e6f","system_id":"levelo_inurba_marseille","lat":43.21195,"lon":5.35082,"is_reserved":false,"is_disabled":false,"rental_uris":{"android":"levelo://app?vid=cd135ec5-1f0e-488f-a7bf-0e94c2e06e6f","ios":"levelo://app?vid=cd135ec5-1f0e-488f-a7bf-0e94c2e06e6f"},"vehicle_type_id":"4","last_reported":1753878265,"current_range_meters":17200,"station_id":"st_cvj6sg6p6f1abm77japg","pricing_plan_id":"cebpf4jnsgd1na2vs0mg"},{"bike_id":"fa3aaadb-2999-4c99-ad0b-eff3f9ff3b2b","system_id":"levelo_inurba_marseille","lat":43.30294,"lon":5.36927,"is_reserved":false,"is_disabled":false,"rental_uris":{"android":"levelo://app?vid=fa3aaadb-2999-4c99-ad0b-eff3f9ff3b2b","ios":"levelo://app?vid=fa3aaadb-2999-4c99-ad0b-eff3f9ff3b2b"},"vehicle_type_id":"4","last_reported":1753878265,"current_range_meters":17200,"station_id":"ce4bgqh2rcd13ifvqc5g","pricing_plan_id":"cebpf4jnsgd1na2vs0mg"},{"bike_id":"85571ceb-5dfe-407f-a57f-e3e4a5c0e31a","system_id":"levelo_inurba_marseille","lat":43.24142,"lon":5.39687,"is_reserved":false,"is_disabled":false,"rental_uris":{"android":"levelo://app?vid=85571ceb-5dfe-407f-a57f-e3e4a5c0e31a","ios":"levelo://app?vid=85571ceb-5dfe-407f-a57f-e3e4a5c0e31a"},"vehicle_type_id":"4","last_reported":1753878265,"current_range_meters":17600,"station_id":"ce4bhn12rcd13ifvqgpg","pricing_plan_id":"cebpf4jnsgd1na2vs0mg"},{"bike_id":"12a220c8-0b1b-4330-8cc1-7ededba84a81","system_id":"levelo_inurba_marseille","lat":43.23154,"lon":5.4371,"is_reserved":false,"is_disabled":false,"rental_uris":{"android":"levelo://app?vid=12a220c8-0b1b-4330-8cc1-7ededba84a81","ios":"levelo://app?vid=12a220c8-0b1b-4330-8cc1-7ededba84a81"},"vehicle_type_id":"4","last_reported":1753878265,"current_range_meters":17600,"station_id":"ce4bhmp2rcd13ifvqgog","pricing_plan_id":"cebpf4jnsgd1na2vs0mg"},{"bike_id":"c0f79c06-a6f9-4ccd-a3d4-8f842d0ee933","system_id":"levelo_inurba_marseille","lat":43.30591,"lon":5.39361,"is_reserved":false,"is_disabled":false,"rental_uris":{"android":"levelo://app?vid=c0f79c06-a6f9-4ccd-a3d4-8f842d0ee933","ios":"levelo://app?vid=c0f79c06-a6f9-4ccd-a3d4-8f842d0ee933"},"vehicle_type_id":"4","last_reported":1753878265,"current_range_meters":17600,"station_id":"ce4bh0p2rcd13ifvqd80","pricing_plan_id":"cebpf4jnsgd1na2vs0mg"},{"bike_id":"0d773846-2344-4475-acec-d5bd9a391a0d","system_id":"levelo_inurba_marseille","lat":43.26557,"lon":5.37281,"is_reserved":false,"is_disabled":false,"rental_uris":{"android":"levelo://app?vid=0d773846-2344-4475-acec-d5bd9a391a0d","ios":"levelo://app?vid=0d773846-2344-4475-acec-d5bd9a391a0d"},"vehicle_type_id":"4","last_reported":1753878265,"current_range_meters":17600,"station_id":"ce4bhg12rcd13ifvqf70","pricing_plan_id":"cebpf4jnsgd1na2vs0mg"},{"bike_id":"e9345274-dd89-47b5-8eb7-1a14c9381856","system_id":"levelo_inurba_marseille","lat":43.29913,"lon":5.37473,"is_reserved":false,"is_disabled":false,"rental_uris":{"android":"levelo://app?vid=e9345274-dd89-47b5-8eb7-1a14c9381856","ios":"levelo://app?vid=e9345274-dd89-47b5-8eb7-1a14c9381856"},"vehicle_type_id":"4","last_reported":1753878265,"current_range_meters":17600,"station_id":"ce4bgjh2rcd13ifvqbg0","pricing_plan_id":"cebpf4jnsgd1na2vs0mg"},{"bike_id":"08ca8ae8-b77c-49d8-b9a3-9de07830275f","system_id":"levelo_inurba_marseille","lat":43.27488,"lon":5.42465,"is_reserved":false,"is_disabled":false,"rental_uris":{"android":"levelo://app?vid=08ca8ae8-b77c-49d8-b9a3-9de07830275f","ios":"levelo://app?vid=08ca8ae8-b77c-49d8-b9a3-9de07830275f"},"vehicle_type_id":"4","last_reported":1753878265,"current_range_meters":17600,"station_id":"ce4bhn92rcd13ifvqgrg","pricing_plan_id":"cebpf4jnsgd1na2vs0mg"},{"bike_id":"1de08a7d-1fb5-4cda-a8c7-813ae1c5c81b","system_id":"levelo_inurba_marseille","lat":43.26502,"lon":5.3954,"is_reserved":false,"is_disabled":false,"rental_uris":{"android":"levelo://app?vid=1de08a7d-1fb5-4cda-a8c7-813ae1c5c81b","ios":"levelo://app?vid=1de08a7d-1fb5-4cda-a8c7-813ae1c5c81b"},"vehicle_type_id":"4","last_reported":1753878265,"current_range_meters":17600,"station_id":"ce4bhi12rcd13ifvqfq0","pricing_plan_id":"cebpf4jnsgd1na2vs0mg"},{"bike_id":"44786710-2f9d-4778-9229-1cf5d1720546","system_id":"levelo_inurba_marseille","lat":43.21756,"lon":5.34598,"is_reserved":false,"is_disabled":false,"rental_uris":{"android":"levelo://app?vid=44786710-2f9d-4778-9229-1cf5d1720546","ios":"levelo://app?vid=44786710-2f9d-4778-9229-1cf5d1720546"},"vehicle_type_id":"4","last_reported":1753878265,"current_range_meters":17600,"station_id":"","pricing_plan_id":"cebpf4jnsgd1na2vs0mg"},{"bike_id":"d1ef298e-87b7-47a5-aaec-79fd9c0baa71","system_id":"levelo_inurba_marseille","lat":43.248139,"lon":5.374574,"is_reserved":false,"is_disabled":false,"rental_uris":{"android":"levelo://app?vid=d1ef298e-87b7-47a5-aaec-79fd9c0baa71","ios":"levelo://app?vid=d1ef298e-87b7-47a5-aaec-79fd9c0baa71"},"vehicle_type_id":"4","last_reported":1753878265,"current_range_meters":17600,"station_id":"ce4bhgh2rcd13ifvqfb0","pricing_plan_id":"cebpf4jnsgd1na2vs0mg"},{"bike_id":"2093a2b7-8bbc-4356-896c-88cd021ab676","system_id":"levelo_inurba_marseille","lat":43.28607,"lon":5.35118,"is_reserved":false,"is_disabled":false,"rental_uris":{"android":"levelo://app?vid=2093a2b7-8bbc-4356-896c-88cd021ab676","ios":"levelo://app?vid=2093a2b7-8bbc-4356-896c-88cd021ab676"},"vehicle_type_id":"4","last_reported":1753878265,"current_range_meters":18000,"station_id":"ce4bhch2rcd13ifvqeug","pricing_plan_id":"cebpf4jnsgd1na2vs0mg"},{"bike_id":"367d2ed8-80f3-47ea-b681-410415ab4606","system_id":"levelo_inurba_marseille","lat":43.29181,"lon":5.35799,"is_reserved":false,"is_disabled":false,"rental_uris":{"android":"levelo://app?vid=367d2ed8-80f3-47ea-b681-410415ab4606","ios":"levelo://app?vid=367d2ed8-80f3-47ea-b681-410415ab4606"},"vehicle_type_id":"4","last_reported":1753878265,"current_range_meters":17600,"station_id":"ce4bhb12rcd13ifvqel0","pricing_plan_id":"cebpf4jnsgd1na2vs0mg"},{"bike_id":"005d0f37-bdce-449f-aa9a-9ed57a25b3db","system_id":"levelo_inurba_marseille","lat":43.31689,"lon":5.40444,"is_reserved":false,"is_disabled":false,"rental_uris":{"android":"levelo://app?vid=005d0f37-bdce-449f-aa9a-9ed57a25b3db","ios":"levelo://app?vid=005d0f37-bdce-449f-aa9a-9ed57a25b3db"},"vehicle_type_id":"4","last_reported":1753878265,"current_range_meters":17600,"station_id":"ce4bh012rcd13ifvqd00","pricing_plan_id":"cebpf4jnsgd1na2vs0mg"},{"bike_id":"181b5419-3dd3-4509-9012-6ba2492ecb05","system_id":"levelo_inurba_marseille","lat":43.262135,"lon":5.374482,"is_reserved":false,"is_disabled":false,"rental_uris":{"android":"levelo://app?vid=181b5419-3dd3-4509-9012-6ba2492ecb05","ios":"levelo://app?vid=181b5419-3dd3-4509-9012-6ba2492ecb05"},"vehicle_type_id":"4","last_reported":1753878265,"current_range_meters":17600,"station_id":"ce4bhgp2rcd13ifvqfc0","pricing_plan_id":"cebpf4jnsgd1na2vs0mg"},{"bike_id":"34be742c-6e59-4c4c-a509-950f8293f589","system_id":"levelo_inurba_marseille","lat":43.22919,"lon":5.35403,"is_reserved":false,"is_disabled":false,"rental_uris":{"android":"levelo://app?vid=34be742c-6e59-4c4c-a509-950f8293f589","ios":"levelo://app?vid=34be742c-6e59-4c4c-a509-950f8293f589"},"vehicle_type_id":"4","last_reported":1753878265,"current_range_meters":17600,"station_id":"cpo3532slgdg3j2ikp40","pricing_plan_id":"cebpf4jnsgd1na2vs0mg"},{"bike_id":"82421548-9820-4ad4-b3c2-dfb64180eb25","system_id":"levelo_inurba_marseille","lat":43.21207,"lon":5.35069,"is_reserved":false,"is_disabled":false,"rental_uris":{"android":"levelo://app?vid=82421548-9820-4ad4-b3c2-dfb64180eb25","ios":"levelo://app?vid=82421548-9820-4ad4-b3c2-dfb64180eb25"},"vehicle_type_id":"4","last_reported":1753878265,"current_range_meters":17600,"station_id":"st_cvj6sg6p6f1abm77japg","pricing_plan_id":"cebpf4jnsgd1na2vs0mg"},{"bike_id":"61ce16ec-9adf-465d-b350-68a3ac024d37","system_id":"levelo_inurba_marseille","lat":43.24166,"lon":5.39727,"is_reserved":false,"is_disabled":false,"rental_uris":{"android":"levelo://app?vid=61ce16ec-9adf-465d-b350-68a3ac024d37","ios":"levelo://app?vid=61ce16ec-9adf-465d-b350-68a3ac024d37"},"vehicle_type_id":"4","last_reported":1753878265,"current_range_meters":17600,"station_id":"ce4bhn12rcd13ifvqgpg","pricing_plan_id":"cebpf4jnsgd1na2vs0mg"},{"bike_id":"b7e63ea0-539d-443d-ab1d-49b82a6a1b6b","system_id":"levelo_inurba_marseille","lat":43.23144,"lon":5.43719,"is_reserved":false,"is_disabled":false,"rental_uris":{"android":"levelo://app?vid=b7e63ea0-539d-443d-ab1d-49b82a6a1b6b","ios":"levelo://app?vid=b7e63ea0-539d-443d-ab1d-49b82a6a1b6b"},"vehicle_type_id":"4","last_reported":1753878265,"current_range_meters":18000,"station_id":"ce4bhmp2rcd13ifvqgog","pricing_plan_id":"cebpf4jnsgd1na2vs0mg"},{"bike_id":"3ab9598e-ab44-4997-b739-8974a16db7bb","system_id":"levelo_inurba_marseille","lat":43.24163,"lon":5.36391,"is_reserved":false,"is_disabled":false,"rental_uris":{"android":"levelo://app?vid=3ab9598e-ab44-4997-b739-8974a16db7bb","ios":"levelo://app?vid=3ab9598e-ab44-4997-b739-8974a16db7bb"},"vehicle_type_id":"4","last_reported":1753878265,"current_range_meters":18000,"station_id":"cpo36qri1sfpv3e86is0","pricing_plan_id":"cebpf4jnsgd1na2vs0mg"},{"bike_id":"3b8a84ec-1ab9-4f1e-b363-72b212050c0b","system_id":"levelo_inurba_marseille","lat":43.28489,"lon":5.44043,"is_reserved":false,"is_disabled":false,"rental_uris":{"android":"levelo://app?vid=3b8a84ec-1ab9-4f1e-b363-72b212050c0b","ios":"levelo://app?vid=3b8a84ec-1ab9-4f1e-b363-72b212050c0b"},"vehicle_type_id":"4","last_reported":1753878265,"current_range_meters":18000,"station_id":"","pricing_plan_id":"cebpf4jnsgd1na2vs0mg"},{"bike_id":"e0b7cca9-a1e4-4c41-8dd5-0c08c31f86d8","system_id":"levelo_inurba_marseille","lat":43.2737,"lon":5.36258,"is_reserved":false,"is_disabled":false,"rental_uris":{"android":"levelo://app?vid=e0b7cca9-a1e4-4c41-8dd5-0c08c31f86d8","ios":"levelo://app?vid=e0b7cca9-a1e4-4c41-8dd5-0c08c31f86d8"},"vehicle_type_id":"4","last_reported":1753878265,"current_range_meters":18000,"station_id":"ce4bhbh2rcd13ifvqeo0","pricing_plan_id":"cebpf4jnsgd1na2vs0mg"},{"bike_id":"0e6b811a-dda8-43a2-819b-6465c4b4934a","system_id":"levelo_inurba_marseille","lat":43.2696,"lon":5.40248,"is_reserved":false,"is_disabled":false,"rental_uris":{"android":"levelo://app?vid=0e6b811a-dda8-43a2-819b-6465c4b4934a","ios":"levelo://app?vid=0e6b811a-dda8-43a2-819b-6465c4b4934a"},"vehicle_type_id":"4","last_reported":1753878265,"current_range_meters":18000,"station_id":"cjm6bp8fraef2m0cb0m0","pricing_plan_id":"cebpf4jnsgd1na2vs0mg"},{"bike_id":"972575cd-e8ee-48c1-9fd0-61adb5c35c7b","system_id":"levelo_inurba_marseille","lat":43.2621,"lon":5.3744,"is_reserved":false,"is_disabled":false,"rental_uris":{"android":"levelo://app?vid=972575cd-e8ee-48c1-9fd0-61adb5c35c7b","ios":"levelo://app?vid=972575cd-e8ee-48c1-9fd0-61adb5c35c7b"},"vehicle_type_id":"4","last_reported":1753878265,"current_range_meters":18000,"station_id":"ce4bhgp2rcd13ifvqfc0","pricing_plan_id":"cebpf4jnsgd1na2vs0mg"},{"bike_id":"b87e25eb-cc4e-4664-9288-4d7139ab674e","system_id":"levelo_inurba_marseille","lat":43.30428,"lon":5.39748,"is_reserved":false,"is_disabled":false,"rental_uris":{"android":"levelo://app?vid=b87e25eb-cc4e-4664-9288-4d7139ab674e","ios":"levelo://app?vid=b87e25eb-cc4e-4664-9288-4d7139ab674e"},"vehicle_type_id":"4","last_reported":1753878265,"current_range_meters":18000,"station_id":"ce4bh092rcd13ifvqd20","pricing_plan_id":"cebpf4jnsgd1na2vs0mg"},{"bike_id":"23c5ff6b-8cac-4dff-9b59-ceed36159023","system_id":"levelo_inurba_marseille","lat":43.23065,"lon":5.35491,"is_reserved":false,"is_disabled":false,"rental_uris":{"android":"levelo://app?vid=23c5ff6b-8cac-4dff-9b59-ceed36159023","ios":"levelo://app?vid=23c5ff6b-8cac-4dff-9b59-ceed36159023"},"vehicle_type_id":"4","last_reported":1753878265,"current_range_meters":18000,"station_id":"cpo3342slgdg3j2ifvpg","pricing_plan_id":"cebpf4jnsgd1na2vs0mg"},{"bike_id":"5e10717d-bfb3-436c-8301-31623326034d","system_id":"levelo_inurba_marseille","lat":43.29968,"lon":5.37179,"is_reserved":false,"is_disabled":false,"rental_uris":{"android":"levelo://app?vid=5e10717d-bfb3-436c-8301-31623326034d","ios":"levelo://app?vid=5e10717d-bfb3-436c-8301-31623326034d"},"vehicle_type_id":"4","last_reported":1753878265,"current_range_meters":18000,"station_id":"ce4bgr92rcd13ifvqc7g","pricing_plan_id":"cebpf4jnsgd1na2vs0mg"},{"bike_id":"6f945904-e30e-4baa-be01-1bd0424776dc","system_id":"levelo_inurba_marseille","lat":43.23188,"lon":5.35579,"is_reserved":false,"is_disabled":false,"rental_uris":{"android":"levelo://app?vid=6f945904-e30e-4baa-be01-1bd0424776dc","ios":"levelo://app?vid=6f945904-e30e-4baa-be01-1bd0424776dc"},"vehicle_type_id":"4","last_reported":1753878265,"current_range_meters":18000,"station_id":"ce4bhu92rcd13ifvqi70","pricing_plan_id":"cebpf4jnsgd1na2vs0mg"},{"bike_id":"0975a158-91a0-4f03-8ac1-7939a109541f","system_id":"levelo_inurba_marseille","lat":43.2558,"lon":5.38223,"is_reserved":false,"is_disabled":false,"rental_uris":{"android":"levelo://app?vid=0975a158-91a0-4f03-8ac1-7939a109541f","ios":"levelo://app?vid=0975a158-91a0-4f03-8ac1-7939a109541f"},"vehicle_type_id":"4","last_reported":1753878265,"current_range_meters":18000,"station_id":"ce4bhih2rcd13ifvqfs0","pricing_plan_id":"cebpf4jnsgd1na2vs0mg"},{"bike_id":"ae9b0dc1-8464-425a-ada5-b8d7aa445a9f","system_id":"levelo_inurba_marseille","lat":43.22501,"lon":5.34777,"is_reserved":false,"is_disabled":false,"rental_uris":{"android":"levelo://app?vid=ae9b0dc1-8464-425a-ada5-b8d7aa445a9f","ios":"levelo://app?vid=ae9b0dc1-8464-425a-ada5-b8d7aa445a9f"},"vehicle_type_id":"4","last_reported":1753878265,"current_range_meters":18000,"station_id":"st_cvj5dfep6f1abm77gieg","pricing_plan_id":"cebpf4jnsgd1na2vs0mg"},{"bike_id":"6d4a8c8c-d8c5-4215-a06a-7475cf4d5132","system_id":"levelo_inurba_marseille","lat":43.28046,"lon":5.3693,"is_reserved":false,"is_disabled":false,"rental_uris":{"android":"levelo://app?vid=6d4a8c8c-d8c5-4215-a06a-7475cf4d5132","ios":"levelo://app?vid=6d4a8c8c-d8c5-4215-a06a-7475cf4d5132"},"vehicle_type_id":"4","last_reported":1753878265,"current_range_meters":18800,"station_id":"ce4bha12rcd13ifvqef0","pricing_plan_id":"cebpf4jnsgd1na2vs0mg"},{"bike_id":"c48e6e64-9d08-4fca-a774-7cc6169cfde3","system_id":"levelo_inurba_marseille","lat":43.2983,"lon":5.38297,"is_reserved":false,"is_disabled":false,"rental_uris":{"android":"levelo://app?vid=c48e6e64-9d08-4fca-a774-7cc6169cfde3","ios":"levelo://app?vid=c48e6e64-9d08-4fca-a774-7cc6169cfde3"},"vehicle_type_id":"4","last_reported":1753878265,"current_range_meters":18800,"station_id":"","pricing_plan_id":"cebpf4jnsgd1na2vs0mg"},{"bike_id":"f605ff71-c624-4936-a518-95ee9acc86fd","system_id":"levelo_inurba_marseille","lat":43.22494,"lon":5.34821,"is_reserved":false,"is_disabled":false,"rental_uris":{"android":"levelo://app?vid=f605ff71-c624-4936-a518-95ee9acc86fd","ios":"levelo://app?vid=f605ff71-c624-4936-a518-95ee9acc86fd"},"vehicle_type_id":"4","last_reported":1753878265,"current_range_meters":18800,"station_id":"st_cvj5dfep6f1abm77gieg","pricing_plan_id":"cebpf4jnsgd1na2vs0mg"},{"bike_id":"b565b853-9616-4ab3-9cae-8b1d09dd4831","system_id":"levelo_inurba_marseille","lat":43.225,"lon":5.34776,"is_reserved":false,"is_disabled":false,"rental_uris":{"android":"levelo://app?vid=b565b853-9616-4ab3-9cae-8b1d09dd4831","ios":"levelo://app?vid=b565b853-9616-4ab3-9cae-8b1d09dd4831"},"vehicle_type_id":"4","last_reported":1753878265,"current_range_meters":18800,"station_id":"st_cvj5dfep6f1abm77gieg","pricing_plan_id":"cebpf4jnsgd1na2vs0mg"},{"bike_id":"9f5fba08-5d1a-4a60-9f27-a4f6e760f703","system_id":"levelo_inurba_marseille","lat":43.323471,"lon":5.367432,"is_reserved":false,"is_disabled":false,"rental_uris":{"android":"levelo://app?vid=9f5fba08-5d1a-4a60-9f27-a4f6e760f703","ios":"levelo://app?vid=9f5fba08-5d1a-4a60-9f27-a4f6e760f703"},"vehicle_type_id":"4","last_reported":1753878265,"current_range_meters":18800,"station_id":"ce4bhsh2rcd13ifvqi2g","pricing_plan_id":"cebpf4jnsgd1na2vs0mg"},{"bike_id":"5bcc6201-37e1-4cdf-a867-1e0c8e34de63","system_id":"levelo_inurba_marseille","lat":43.292781,"lon":5.368435,"is_reserved":false,"is_disabled":false,"rental_uris":{"android":"levelo://app?vid=5bcc6201-37e1-4cdf-a867-1e0c8e34de63","ios":"levelo://app?vid=5bcc6201-37e1-4cdf-a867-1e0c8e34de63"},"vehicle_type_id":"4","last_reported":1753878265,"current_range_meters":18800,"station_id":"ce4bhbp2rcd13ifvqesg","pricing_plan_id":"cebpf4jnsgd1na2vs0mg"},{"bike_id":"47de1220-3e6a-426f-b45e-8c42842237fa","system_id":"levelo_inurba_marseille","lat":43.25112,"lon":5.40319,"is_reserved":false,"is_disabled":false,"rental_uris":{"android":"levelo://app?vid=47de1220-3e6a-426f-b45e-8c42842237fa","ios":"levelo://app?vid=47de1220-3e6a-426f-b45e-8c42842237fa"},"vehicle_type_id":"4","last_reported":1753878265,"current_range_meters":18800,"station_id":"ce4bhlh2rcd13ifvqgig","pricing_plan_id":"cebpf4jnsgd1na2vs0mg"},{"bike_id":"b1ee4acc-5b6f-42ea-b95b-d1c9730d14e8","system_id":"levelo_inurba_marseille","lat":43.21748,"lon":5.346,"is_reserved":false,"is_disabled":false,"rental_uris":{"android":"levelo://app?vid=b1ee4acc-5b6f-42ea-b95b-d1c9730d14e8","ios":"levelo://app?vid=b1ee4acc-5b6f-42ea-b95b-d1c9730d14e8"},"vehicle_type_id":"4","last_reported":1753878265,"current_range_meters":18800,"station_id":"","pricing_plan_id":"cebpf4jnsgd1na2vs0mg"},{"bike_id":"656d384a-25fd-42e3-a8d2-666eb1f0991a","system_id":"levelo_inurba_marseille","lat":43.282695,"lon":5.350587,"is_reserved":false,"is_disabled":false,"rental_uris":{"android":"levelo://app?vid=656d384a-25fd-42e3-a8d2-666eb1f0991a","ios":"levelo://app?vid=656d384a-25fd-42e3-a8d2-666eb1f0991a"},"vehicle_type_id":"4","last_reported":1753878265,"current_range_meters":18800,"station_id":"ce4bhbp2rcd13ifvqerg","pricing_plan_id":"cebpf4jnsgd1na2vs0mg"},{"bike_id":"55bf355c-8c8a-4339-b38b-30b6f9dd8dd7","system_id":"levelo_inurba_marseille","lat":43.2862,"lon":5.35105,"is_reserved":false,"is_disabled":false,"rental_uris":{"android":"levelo://app?vid=55bf355c-8c8a-4339-b38b-30b6f9dd8dd7","ios":"levelo://app?vid=55bf355c-8c8a-4339-b38b-30b6f9dd8dd7"},"vehicle_type_id":"4","last_reported":1753878265,"current_range_meters":18800,"station_id":"ce4bhch2rcd13ifvqeug","pricing_plan_id":"cebpf4jnsgd1na2vs0mg"},{"bike_id":"a680cfd1-5b43-4211-9ae3-0ecb95596e08","system_id":"levelo_inurba_marseille","lat":43.286183,"lon":5.350945,"is_reserved":false,"is_disabled":false,"rental_uris":{"android":"levelo://app?vid=a680cfd1-5b43-4211-9ae3-0ecb95596e08","ios":"levelo://app?vid=a680cfd1-5b43-4211-9ae3-0ecb95596e08"},"vehicle_type_id":"4","last_reported":1753878265,"current_range_meters":18800,"station_id":"ce4bhch2rcd13ifvqeug","pricing_plan_id":"cebpf4jnsgd1na2vs0mg"},{"bike_id":"d8f1ea63-2b2f-4d21-9b8b-d398c7af1f74","system_id":"levelo_inurba_marseille","lat":43.280793,"lon":5.396634,"is_reserved":false,"is_disabled":false,"rental_uris":{"android":"levelo://app?vid=d8f1ea63-2b2f-4d21-9b8b-d398c7af1f74","ios":"levelo://app?vid=d8f1ea63-2b2f-4d21-9b8b-d398c7af1f74"},"vehicle_type_id":"4","last_reported":1753878265,"current_range_meters":19200,"station_id":"ce4bho12rcd13ifvqh2g","pricing_plan_id":"cebpf4jnsgd1na2vs0mg"},{"bike_id":"e6076a94-3fae-4db8-9048-f76bbd60af67","system_id":"levelo_inurba_marseille","lat":43.24629,"lon":5.3891,"is_reserved":false,"is_disabled":false,"rental_uris":{"android":"levelo://app?vid=e6076a94-3fae-4db8-9048-f76bbd60af67","ios":"levelo://app?vid=e6076a94-3fae-4db8-9048-f76bbd60af67"},"vehicle_type_id":"4","last_reported":1753878265,"current_range_meters":19200,"station_id":"ce4bhg12rcd13ifvqf60","pricing_plan_id":"cebpf4jnsgd1na2vs0mg"},{"bike_id":"4f311b95-16d0-4152-9b03-677da880350c","system_id":"levelo_inurba_marseille","lat":43.23954,"lon":5.36627,"is_reserved":false,"is_disabled":false,"rental_uris":{"android":"levelo://app?vid=4f311b95-16d0-4152-9b03-677da880350c","ios":"levelo://app?vid=4f311b95-16d0-4152-9b03-677da880350c"},"vehicle_type_id":"4","last_reported":1753878265,"current_range_meters":19200,"station_id":"ce4bhi12rcd13ifvqfp0","pricing_plan_id":"cebpf4jnsgd1na2vs0mg"},{"bike_id":"dc8019df-b978-4643-9650-faa58d3824ab","system_id":"levelo_inurba_marseille","lat":43.305468,"lon":5.36703,"is_reserved":false,"is_disabled":false,"rental_uris":{"android":"levelo://app?vid=dc8019df-b978-4643-9650-faa58d3824ab","ios":"levelo://app?vid=dc8019df-b978-4643-9650-faa58d3824ab"},"vehicle_type_id":"4","last_reported":1753878265,"current_range_meters":19200,"station_id":"ce4bgrp2rcd13ifvqc9g","pricing_plan_id":"cebpf4jnsgd1na2vs0mg"},{"bike_id":"e3bd95d8-3589-4d5e-8eec-73a5281f0dd1","system_id":"levelo_inurba_marseille","lat":43.25934,"lon":5.40908,"is_reserved":false,"is_disabled":false,"rental_uris":{"android":"levelo://app?vid=e3bd95d8-3589-4d5e-8eec-73a5281f0dd1","ios":"levelo://app?vid=e3bd95d8-3589-4d5e-8eec-73a5281f0dd1"},"vehicle_type_id":"4","last_reported":1753878265,"current_range_meters":19200,"station_id":"ce4bhm92rcd13ifvqglg","pricing_plan_id":"cebpf4jnsgd1na2vs0mg"},{"bike_id":"d0e68786-d337-4e6e-9ee9-8bd9daa48758","system_id":"levelo_inurba_marseille","lat":43.24821,"lon":5.37446,"is_reserved":false,"is_disabled":false,"rental_uris":{"android":"levelo://app?vid=d0e68786-d337-4e6e-9ee9-8bd9daa48758","ios":"levelo://app?vid=d0e68786-d337-4e6e-9ee9-8bd9daa48758"},"vehicle_type_id":"4","last_reported":1753878265,"current_range_meters":19200,"station_id":"ce4bhgh2rcd13ifvqfb0","pricing_plan_id":"cebpf4jnsgd1na2vs0mg"},{"bike_id":"20782440-32e2-4e26-a85a-d8b01db73401","system_id":"levelo_inurba_marseille","lat":43.24168,"lon":5.36392,"is_reserved":false,"is_disabled":false,"rental_uris":{"android":"levelo://app?vid=20782440-32e2-4e26-a85a-d8b01db73401","ios":"levelo://app?vid=20782440-32e2-4e26-a85a-d8b01db73401"},"vehicle_type_id":"4","last_reported":1753878265,"current_range_meters":19200,"station_id":"cpo36qri1sfpv3e86is0","pricing_plan_id":"cebpf4jnsgd1na2vs0mg"},{"bike_id":"0493419f-acaa-408f-b42e-4cd6f66c3e96","system_id":"levelo_inurba_marseille","lat":43.245345,"lon":5.395178,"is_reserved":false,"is_disabled":true,"rental_uris":{"android":"levelo://app?vid=0493419f-acaa-408f-b42e-4cd6f66c3e96","ios":"levelo://app?vid=0493419f-acaa-408f-b42e-4cd6f66c3e96"},"vehicle_type_id":"4","last_reported":1753878265,"current_range_meters":19200,"station_id":"ce4bhlp2rcd13ifvqgjg","pricing_plan_id":"cebpf4jnsgd1na2vs0mg"},{"bike_id":"82178a1b-bb08-4da8-aa8a-3f881f9b30a7","system_id":"levelo_inurba_marseille","lat":43.26913,"lon":5.40265,"is_reserved":false,"is_disabled":false,"rental_uris":{"android":"levelo://app?vid=82178a1b-bb08-4da8-aa8a-3f881f9b30a7","ios":"levelo://app?vid=82178a1b-bb08-4da8-aa8a-3f881f9b30a7"},"vehicle_type_id":"4","last_reported":1753878265,"current_range_meters":19200,"station_id":"cjm6bp8fraef2m0cb0m0","pricing_plan_id":"cebpf4jnsgd1na2vs0mg"},{"bike_id":"f39ebf1f-bd81-4ea5-ba2d-6199ce953593","system_id":"levelo_inurba_marseille","lat":43.28711,"lon":5.37948,"is_reserved":false,"is_disabled":false,"rental_uris":{"android":"levelo://app?vid=f39ebf1f-bd81-4ea5-ba2d-6199ce953593","ios":"levelo://app?vid=f39ebf1f-bd81-4ea5-ba2d-6199ce953593"},"vehicle_type_id":"4","last_reported":1753878265,"current_range_meters":19200,"station_id":"ce4bh9p2rcd13ifvqec0","pricing_plan_id":"cebpf4jnsgd1na2vs0mg"},{"bike_id":"02ba587b-fdc4-4538-91bf-a3fcb628a435","system_id":"levelo_inurba_marseille","lat":43.34607,"lon":5.44877,"is_reserved":false,"is_disabled":false,"rental_uris":{"android":"levelo://app?vid=02ba587b-fdc4-4538-91bf-a3fcb628a435","ios":"levelo://app?vid=02ba587b-fdc4-4538-91bf-a3fcb628a435"},"vehicle_type_id":"4","last_reported":1753878265,"current_range_meters":19200,"station_id":"","pricing_plan_id":"cebpf4jnsgd1na2vs0mg"},{"bike_id":"eb222de6-87a7-4fc6-92e8-d4154e846895","system_id":"levelo_inurba_marseille","lat":43.22909,"lon":5.35386,"is_reserved":false,"is_disabled":false,"rental_uris":{"android":"levelo://app?vid=eb222de6-87a7-4fc6-92e8-d4154e846895","ios":"levelo://app?vid=eb222de6-87a7-4fc6-92e8-d4154e846895"},"vehicle_type_id":"4","last_reported":1753878265,"current_range_meters":19200,"station_id":"cpo3532slgdg3j2ikp40","pricing_plan_id":"cebpf4jnsgd1na2vs0mg"},{"bike_id":"011fd654-e76c-4060-82ef-48cab0762fbe","system_id":"levelo_inurba_marseille","lat":43.229508,"lon":5.353768,"is_reserved":false,"is_disabled":false,"rental_uris":{"android":"levelo://app?vid=011fd654-e76c-4060-82ef-48cab0762fbe","ios":"levelo://app?vid=011fd654-e76c-4060-82ef-48cab0762fbe"},"vehicle_type_id":"4","last_reported":1753878265,"current_range_meters":19200,"station_id":"cpo3532slgdg3j2ikp40","pricing_plan_id":"cebpf4jnsgd1na2vs0mg"},{"bike_id":"d151603f-b462-49aa-a33a-1b6a18d69541","system_id":"levelo_inurba_marseille","lat":43.30533,"lon":5.36707,"is_reserved":false,"is_disabled":false,"rental_uris":{"android":"levelo://app?vid=d151603f-b462-49aa-a33a-1b6a18d69541","ios":"levelo://app?vid=d151603f-b462-49aa-a33a-1b6a18d69541"},"vehicle_type_id":"4","last_reported":1753878265,"current_range_meters":19600,"station_id":"ce4bgrp2rcd13ifvqc9g","pricing_plan_id":"cebpf4jnsgd1na2vs0mg"},{"bike_id":"03780cff-a34f-4463-89ad-309e50413149","system_id":"levelo_inurba_marseille","lat":43.31205,"lon":5.37788,"is_reserved":false,"is_disabled":false,"rental_uris":{"android":"levelo://app?vid=03780cff-a34f-4463-89ad-309e50413149","ios":"levelo://app?vid=03780cff-a34f-4463-89ad-309e50413149"},"vehicle_type_id":"4","last_reported":1753878265,"current_range_meters":19600,"station_id":"","pricing_plan_id":"cebpf4jnsgd1na2vs0mg"},{"bike_id":"62a95288-177a-4a4f-9d8c-0039a4f8832d","system_id":"levelo_inurba_marseille","lat":43.302251,"lon":5.395115,"is_reserved":false,"is_disabled":false,"rental_uris":{"android":"levelo://app?vid=62a95288-177a-4a4f-9d8c-0039a4f8832d","ios":"levelo://app?vid=62a95288-177a-4a4f-9d8c-0039a4f8832d"},"vehicle_type_id":"4","last_reported":1753878265,"current_range_meters":19600,"station_id":"ce4bh0p2rcd13ifvqd70","pricing_plan_id":"cebpf4jnsgd1na2vs0mg"},{"bike_id":"b900f583-5ee7-4842-8a28-49fa247a3745","system_id":"levelo_inurba_marseille","lat":43.28533,"lon":5.3723,"is_reserved":false,"is_disabled":false,"rental_uris":{"android":"levelo://app?vid=b900f583-5ee7-4842-8a28-49fa247a3745","ios":"levelo://app?vid=b900f583-5ee7-4842-8a28-49fa247a3745"},"vehicle_type_id":"4","last_reported":1753878265,"current_range_meters":24400,"station_id":"","pricing_plan_id":"cebpf4jnsgd1na2vs0mg"},{"bike_id":"f28fd049-0d74-4420-9a84-4b4010164f06","system_id":"levelo_inurba_marseille","lat":43.32507,"lon":5.3652,"is_reserved":false,"is_disabled":false,"rental_uris":{"android":"levelo://app?vid=f28fd049-0d74-4420-9a84-4b4010164f06","ios":"levelo://app?vid=f28fd049-0d74-4420-9a84-4b4010164f06"},"vehicle_type_id":"4","last_reported":1753878265,"current_range_meters":19600,"station_id":"ce4bhs12rcd13ifvqhvg","pricing_plan_id":"cebpf4jnsgd1na2vs0mg"},{"bike_id":"65840866-19c2-4fe7-8d76-9f0096101375","system_id":"levelo_inurba_marseille","lat":43.29712,"lon":5.3661,"is_reserved":false,"is_disabled":false,"rental_uris":{"android":"levelo://app?vid=65840866-19c2-4fe7-8d76-9f0096101375","ios":"levelo://app?vid=65840866-19c2-4fe7-8d76-9f0096101375"},"vehicle_type_id":"4","last_reported":1753878265,"current_range_meters":20400,"station_id":"ce4bgn12rcd13ifvqbt0","pricing_plan_id":"cebpf4jnsgd1na2vs0mg"},{"bike_id":"f8006526-049b-4de6-953b-90e56ae39efe","system_id":"levelo_inurba_marseille","lat":43.2737,"lon":5.36268,"is_reserved":false,"is_disabled":false,"rental_uris":{"android":"levelo://app?vid=f8006526-049b-4de6-953b-90e56ae39efe","ios":"levelo://app?vid=f8006526-049b-4de6-953b-90e56ae39efe"},"vehicle_type_id":"4","last_reported":1753878265,"current_range_meters":19600,"station_id":"ce4bhbh2rcd13ifvqeo0","pricing_plan_id":"cebpf4jnsgd1na2vs0mg"},{"bike_id":"e1bc21bc-1899-4138-a5bb-5cddfa88edcf","system_id":"levelo_inurba_marseille","lat":43.30531,"lon":5.38432,"is_reserved":false,"is_disabled":false,"rental_uris":{"android":"levelo://app?vid=e1bc21bc-1899-4138-a5bb-5cddfa88edcf","ios":"levelo://app?vid=e1bc21bc-1899-4138-a5bb-5cddfa88edcf"},"vehicle_type_id":"4","last_reported":1753878265,"current_range_meters":19600,"station_id":"ce4bgg92rcd13ifvqb30","pricing_plan_id":"cebpf4jnsgd1na2vs0mg"},{"bike_id":"501fe082-6c32-4a24-80fd-4833724e8426","system_id":"levelo_inurba_marseille","lat":43.30562,"lon":5.37445,"is_reserved":false,"is_disabled":false,"rental_uris":{"android":"levelo://app?vid=501fe082-6c32-4a24-80fd-4833724e8426","ios":"levelo://app?vid=501fe082-6c32-4a24-80fd-4833724e8426"},"vehicle_type_id":"4","last_reported":1753878265,"current_range_meters":19600,"station_id":"","pricing_plan_id":"cebpf4jnsgd1na2vs0mg"},{"bike_id":"5df141b0-927f-4aaf-b7ac-e255c51a1ed9","system_id":"levelo_inurba_marseille","lat":43.241787,"lon":5.397309,"is_reserved":false,"is_disabled":false,"rental_uris":{"android":"levelo://app?vid=5df141b0-927f-4aaf-b7ac-e255c51a1ed9","ios":"levelo://app?vid=5df141b0-927f-4aaf-b7ac-e255c51a1ed9"},"vehicle_type_id":"4","last_reported":1753878265,"current_range_meters":20000,"station_id":"ce4bhn12rcd13ifvqgpg","pricing_plan_id":"cebpf4jnsgd1na2vs0mg"},{"bike_id":"78521cb1-a8cc-409f-b858-3a4d4152a674","system_id":"levelo_inurba_marseille","lat":43.28704,"lon":5.39981,"is_reserved":false,"is_disabled":false,"rental_uris":{"android":"levelo://app?vid=78521cb1-a8cc-409f-b858-3a4d4152a674","ios":"levelo://app?vid=78521cb1-a8cc-409f-b858-3a4d4152a674"},"vehicle_type_id":"4","last_reported":1753878265,"current_range_meters":20000,"station_id":"ce4bho92rcd13ifvqh3g","pricing_plan_id":"cebpf4jnsgd1na2vs0mg"},{"bike_id":"2b562040-a9f6-417d-9d80-9471a73f7214","system_id":"levelo_inurba_marseille","lat":43.30905,"lon":5.37195,"is_reserved":false,"is_disabled":false,"rental_uris":{"android":"levelo://app?vid=2b562040-a9f6-417d-9d80-9471a73f7214","ios":"levelo://app?vid=2b562040-a9f6-417d-9d80-9471a73f7214"},"vehicle_type_id":"4","last_reported":1753878265,"current_range_meters":20000,"station_id":"ce4bguh2rcd13ifvqckg","pricing_plan_id":"cebpf4jnsgd1na2vs0mg"},{"bike_id":"d206561f-8dda-4152-865a-094bafe85519","system_id":"levelo_inurba_marseille","lat":43.27917,"lon":5.39573,"is_reserved":false,"is_disabled":false,"rental_uris":{"android":"levelo://app?vid=d206561f-8dda-4152-865a-094bafe85519","ios":"levelo://app?vid=d206561f-8dda-4152-865a-094bafe85519"},"vehicle_type_id":"4","last_reported":1753878265,"current_range_meters":20000,"station_id":"ce4bhf92rcd13ifvqf40","pricing_plan_id":"cebpf4jnsgd1na2vs0mg"},{"bike_id":"ffbc5986-1fd6-423d-bdb9-2a77778a9c41","system_id":"levelo_inurba_marseille","lat":43.24172,"lon":5.39726,"is_reserved":false,"is_disabled":false,"rental_uris":{"android":"levelo://app?vid=ffbc5986-1fd6-423d-bdb9-2a77778a9c41","ios":"levelo://app?vid=ffbc5986-1fd6-423d-bdb9-2a77778a9c41"},