{"last_updated":1746295941,"ttl":60,"version":"2.2","data":{"bikes":[{"bike_id":"b621f244-e0fd-4edb-ac3a-15d3573e7c2c","system_id":"levelo_inurba_marseille","lat":43.23192,"lon":5.35556,"is_reserved":false,"is_disabled":false,"rental_uris":{"android":"levelo://app?vid=b621f244-e0fd-4edb-ac3a-15d3573e7c2c","ios":"levelo://app?vid=b621f244-e0fd-4edb-ac3a-15d3573e7c2c"},"vehicle_type_id":"4","last_reported":1746295941,"current_range_meters":2800,"station_id":"ce4bhu92rcd13ifvqi70","pricing_plan_id":"cebpf4jnsgd1na2vs0mg"},{"bike_id":"67b2694f-c724-4d4c-bd32-e93f1c48e8dd","system_id":"levelo_inurba_marseille","lat":43.26568,"lon":5.39015,"is_reserved":false,"is_disabled":false,"rental_uris":{"android":"levelo://app?vid=67b2694f-c724-4d4c-bd32-e93f1c48e8dd","ios":"levelo://app?vid=67b2694f-c724-4d4c-bd32-e93f1c48e8dd"},"vehicle_type_id":"4","last_reported":1746295941,"current_range_meters":2800,"station_id":"ce4bhe12rcd13ifvqf30","pricing_plan_id":"cebpf4jnsgd1na2vs0mg"},{"bike_id":"f73daf93-45c7-48c0-a61a-2d28ac89db8d","system_id":"levelo_inurba_marseille","lat":43.3392,"lon":5.42073,"is_reserved":false,"is_disabled":false,"rental_uris":{"android":"levelo://app?vid=f73daf93-45c7-48c0-a61a-2d28ac89db8d","ios":"levelo://app?vid=f73daf93-45c7-48c0-a61a-2d28ac89db8d"},"vehicle_type_id":"4","last_reported":1746295941,"current_range_meters":2800,"station_id":"","pricing_plan_id":"cebpf4jnsgd1na2vs0mg"},{"bike_id":"734e2a83-ba51-4110-a082-d54ad2930453","system_id":"levelo_inurba_marseille","lat":43.32028,"lon":5.41548,"is_reserved":false,"is_disabled":false,"rental_uris":{"android":"levelo://app?vid=734e2a83-ba51-4110-a082-d54ad2930453","ios":"levelo://app?vid=734e2a83-ba51-4110-a082-d54ad2930453"},"vehicle_type_id":"4","last_reported":1746295941,"current_range_meters":2800,"station_id":"ce4bhq92rcd13ifvqhkg","pricing_plan_id":"cebpf4jnsgd1na2vs0mg"},{"bike_id":"81551900-9505-45f6-ab5b-04bae0448a3a","system_id":"levelo_inurba_marseille","lat":43.27497,"lon":5.42454,"is_reserved":false,"is_disabled":false,"rental_uris":{"android":"levelo://app?vid=81551900-9505-45f6-ab5b-04bae0448a3a","ios":"levelo://app?vid=81551900-9505-45f6-ab5b-04bae0448a3a"},"vehicle_type_id":"4","last_reported":1746295941,"current_range_meters":2800,"station_id":"ce4bhn92rcd13ifvqgrg","pricing_plan_id":"cebpf4jnsgd1na2vs0mg"},{"bike_id":"c4403a31-e0b7-4e1d-8d18-710b4612b3ac","system_id":"levelo_inurba_marseille","lat":43.27969,"lon":5.38732,"is_reserved":false,"is_disabled":false,"rental_uris":{"android":"levelo://app?vid=c4403a31-e0b7-4e1d-8d18-710b4612b3ac","ios":"levelo://app?vid=c4403a31-e0b7-4e1d-8d18-710b4612b3ac"},"vehicle_type_id":"4","last_reported":1746295941,"current_range_meters":3200,"station_id":"ce4bhg12rcd13ifvqf80","pricing_plan_id":"cebpf4jnsgd1na2vs0mg"},{"bike_id":"abc0453d-5dc0-46ad-9fe8-2d1350803463","system_id":"levelo_inurba_marseille","lat":43.26781,"lon":5.3941,"is_reserved":false,"is_disabled":false,"rental_uris":{"android":"levelo://app?vid=abc0453d-5dc0-46ad-9fe8-2d1350803463","ios":"levelo://app?vid=abc0453d-5dc0-46ad-9fe8-2d1350803463"},"vehicle_type_id":"4","last_reported":1746295941,"current_range_meters":2800,"station_id":"ce4bhh12rcd13ifvqfg0","pricing_plan_id":"cebpf4jnsgd1na2vs0mg"},{"bike_id":"d935cf57-4bad-4859-9008-f99023164d2b","system_id":"levelo_inurba_marseille","lat":43.281538,"lon":5.426422,"is_reserved":false,"is_disabled":false,"rental_uris":{"android":"levelo://app?vid=d935cf57-4bad-4859-9008-f99023164d2b","ios":"levelo://app?vid=d935cf57-4bad-4859-9008-f99023164d2b"},"vehicle_type_id":"4","last_reported":1746295941,"current_range_meters":3200,"station_id":"ce4bhnh2rcd13ifvqgug","pricing_plan_id":"cebpf4jnsgd1na2vs0mg"},{"bike_id":"c86f4c90-fa8a-4d28-9129-8f31025da94a","system_id":"levelo_inurba_marseille","lat":43.29966,"lon":5.38495,"is_reserved":false,"is_disabled":false,"rental_uris":{"android":"levelo://app?vid=c86f4c90-fa8a-4d28-9129-8f31025da94a","ios":"levelo://app?vid=c86f4c90-fa8a-4d28-9129-8f31025da94a"},"vehicle_type_id":"4","last_reported":1746295941,"current_range_meters":3200,"station_id":"ce4bgj92rcd13ifvqbd0","pricing_plan_id":"cebpf4jnsgd1na2vs0mg"},{"bike_id":"01094e35-d98b-459b-93b9-6eaae48ab681","system_id":"levelo_inurba_marseille","lat":43.30923,"lon":5.40129,"is_reserved":false,"is_disabled":true,"rental_uris":{"android":"levelo://app?vid=01094e35-d98b-459b-93b9-6eaae48ab681","ios":"levelo://app?vid=01094e35-d98b-459b-93b9-6eaae48ab681"},"vehicle_type_id":"4","last_reported":1746295941,"current_range_meters":3600,"station_id":"ce4bgvp2rcd13ifvqct0","pricing_plan_id":"cebpf4jnsgd1na2vs0mg"},{"bike_id":"caf56b1a-d19c-40f9-bc0e-a121a2c95d49","system_id":"levelo_inurba_marseille","lat":43.24058,"lon":5.37761,"is_reserved":false,"is_disabled":false,"rental_uris":{"android":"levelo://app?vid=caf56b1a-d19c-40f9-bc0e-a121a2c95d49","ios":"levelo://app?vid=caf56b1a-d19c-40f9-bc0e-a121a2c95d49"},"vehicle_type_id":"4","last_reported":1746295941,"current_range_meters":3600,"station_id":"ce4bhnp2rcd13ifvqgvg","pricing_plan_id":"cebpf4jnsgd1na2vs0mg"},{"bike_id":"41892b46-60fd-4077-95bc-668a7ebd508d","system_id":"levelo_inurba_marseille","lat":43.27564,"lon":5.3843,"is_reserved":false,"is_disabled":false,"rental_uris":{"android":"levelo://app?vid=41892b46-60fd-4077-95bc-668a7ebd508d","ios":"levelo://app?vid=41892b46-60fd-4077-95bc-668a7ebd508d"},"vehicle_type_id":"4","last_reported":1746295941,"current_range_meters":3200,"station_id":"ce4bhh92rcd13ifvqfi0","pricing_plan_id":"cebpf4jnsgd1na2vs0mg"},{"bike_id":"7971fe93-5f1d-4a59-8508-b415e64fcb18","system_id":"levelo_inurba_marseille","lat":43.30942,"lon":5.37406,"is_reserved":false,"is_disabled":false,"rental_uris":{"android":"levelo://app?vid=7971fe93-5f1d-4a59-8508-b415e64fcb18","ios":"levelo://app?vid=7971fe93-5f1d-4a59-8508-b415e64fcb18"},"vehicle_type_id":"4","last_reported":1746295941,"current_range_meters":3600,"station_id":"","pricing_plan_id":"cebpf4jnsgd1na2vs0mg"},{"bike_id":"9b93618a-378e-480b-bb12-2153a60da7d5","system_id":"levelo_inurba_marseille","lat":43.3265,"lon":5.40993,"is_reserved":false,"is_disabled":false,"rental_uris":{"android":"levelo://app?vid=9b93618a-378e-480b-bb12-2153a60da7d5","ios":"levelo://app?vid=9b93618a-378e-480b-bb12-2153a60da7d5"},"vehicle_type_id":"4","last_reported":1746295941,"current_range_meters":4000,"station_id":"ce4bhpp2rcd13ifvqhgg","pricing_plan_id":"cebpf4jnsgd1na2vs0mg"},{"bike_id":"bd200466-14ff-4e71-9dab-1f2f15b55e9b","system_id":"levelo_inurba_marseille","lat":43.29442,"lon":5.39752,"is_reserved":false,"is_disabled":false,"rental_uris":{"android":"levelo://app?vid=bd200466-14ff-4e71-9dab-1f2f15b55e9b","ios":"levelo://app?vid=bd200466-14ff-4e71-9dab-1f2f15b55e9b"},"vehicle_type_id":"4","last_reported":1746295941,"current_range_meters":3600,"station_id":"ce4bh3h2rcd13ifvqdo0","pricing_plan_id":"cebpf4jnsgd1na2vs0mg"},{"bike_id":"a9e17b07-392e-4ba8-b152-64f7fbdf1e46","system_id":"levelo_inurba_marseille","lat":43.29221,"lon":5.36063,"is_reserved":false,"is_disabled":false,"rental_uris":{"android":"levelo://app?vid=a9e17b07-392e-4ba8-b152-64f7fbdf1e46","ios":"levelo://app?vid=a9e17b07-392e-4ba8-b152-64f7fbdf1e46"},"vehicle_type_id":"4","last_reported":1746295941,"current_range_meters":4400,"station_id":"ce4bhbh2rcd13ifvqeqg","pricing_plan_id":"cebpf4jnsgd1na2vs0mg"},{"bike_id":"72366259-97a5-4bf5-88dc-7ada75ca49ba","system_id":"levelo_inurba_marseille","lat":43.32364,"lon":5.3888,"is_reserved":false,"is_disabled":false,"rental_uris":{"android":"levelo://app?vid=72366259-97a5-4bf5-88dc-7ada75ca49ba","ios":"levelo://app?vid=72366259-97a5-4bf5-88dc-7ada75ca49ba"},"vehicle_type_id":"4","last_reported":1746295941,"current_range_meters":4400,"station_id":"ce4bhqp2rcd13ifvqhog","pricing_plan_id":"cebpf4jnsgd1na2vs0mg"},{"bike_id":"04dc5b8a-97df-441d-814f-f35e320db8d3","system_id":"levelo_inurba_marseille","lat":43.30459,"lon":5.37901,"is_reserved":false,"is_disabled":false,"rental_uris":{"android":"levelo://app?vid=04dc5b8a-97df-441d-814f-f35e320db8d3","ios":"levelo://app?vid=04dc5b8a-97df-441d-814f-f35e320db8d3"},"vehicle_type_id":"4","last_reported":1746295941,"current_range_meters":4400,"station_id":"ce4bgup2rcd13ifvqcn0","pricing_plan_id":"cebpf4jnsgd1na2vs0mg"},{"bike_id":"968b842c-b909-4d04-8783-327159806634","system_id":"levelo_inurba_marseille","lat":43.25111,"lon":5.40319,"is_reserved":false,"is_disabled":false,"rental_uris":{"android":"levelo://app?vid=968b842c-b909-4d04-8783-327159806634","ios":"levelo://app?vid=968b842c-b909-4d04-8783-327159806634"},"vehicle_type_id":"4","last_reported":1746295941,"current_range_meters":6000,"station_id":"ce4bhlh2rcd13ifvqgig","pricing_plan_id":"cebpf4jnsgd1na2vs0mg"},{"bike_id":"a42fa2f3-ce81-47a7-b3ea-19c6550184b5","system_id":"levelo_inurba_marseille","lat":43.292556,"lon":5.384017,"is_reserved":false,"is_disabled":false,"rental_uris":{"android":"levelo://app?vid=a42fa2f3-ce81-47a7-b3ea-19c6550184b5","ios":"levelo://app?vid=a42fa2f3-ce81-47a7-b3ea-19c6550184b5"},"vehicle_type_id":"4","last_reported":1746295941,"current_range_meters":4400,"station_id":"ce4bh692rcd13ifvqea0","pricing_plan_id":"cebpf4jnsgd1na2vs0mg"},{"bike_id":"4f809786-02ae-4a09-b608-d581657fd426","system_id":"levelo_inurba_marseille","lat":43.31588,"lon":5.41859,"is_reserved":false,"is_disabled":false,"rental_uris":{"android":"levelo://app?vid=4f809786-02ae-4a09-b608-d581657fd426","ios":"levelo://app?vid=4f809786-02ae-4a09-b608-d581657fd426"},"vehicle_type_id":"4","last_reported":1746295941,"current_range_meters":4800,"station_id":"ce4bhp92rcd13ifvqhbg","pricing_plan_id":"cebpf4jnsgd1na2vs0mg"},{"bike_id":"abcfb4e5-1fcf-4de7-a8dc-c378d4ea00d0","system_id":"levelo_inurba_marseille","lat":43.292389,"lon":5.383876,"is_reserved":false,"is_disabled":false,"rental_uris":{"android":"levelo://app?vid=abcfb4e5-1fcf-4de7-a8dc-c378d4ea00d0","ios":"levelo://app?vid=abcfb4e5-1fcf-4de7-a8dc-c378d4ea00d0"},"vehicle_type_id":"4","last_reported":1746295941,"current_range_meters":4800,"station_id":"ce4bhbp2rcd13ifvqesg","pricing_plan_id":"cebpf4jnsgd1na2vs0mg"},{"bike_id":"bbba040d-734c-4887-9b62-8e325e9b20df","system_id":"levelo_inurba_marseille","lat":43.30441,"lon":5.38869,"is_reserved":false,"is_disabled":false,"rental_uris":{"android":"levelo://app?vid=bbba040d-734c-4887-9b62-8e325e9b20df","ios":"levelo://app?vid=bbba040d-734c-4887-9b62-8e325e9b20df"},"vehicle_type_id":"4","last_reported":1746295941,"current_range_meters":4800,"station_id":"ce4bgk12rcd13ifvqbi0","pricing_plan_id":"cebpf4jnsgd1na2vs0mg"},{"bike_id":"e66c21dd-f6cf-47f3-9827-acc15475cc47","system_id":"levelo_inurba_marseille","lat":43.29073,"lon":5.37161,"is_reserved":false,"is_disabled":false,"rental_uris":{"android":"levelo://app?vid=e66c21dd-f6cf-47f3-9827-acc15475cc47","ios":"levelo://app?vid=e66c21dd-f6cf-47f3-9827-acc15475cc47"},"vehicle_type_id":"4","last_reported":1746295941,"current_range_meters":4800,"station_id":"ce4bh5p2rcd13ifvqe4g","pricing_plan_id":"cebpf4jnsgd1na2vs0mg"},{"bike_id":"cedf40ef-ef05-4e60-8ecc-25483846c6d8","system_id":"levelo_inurba_marseille","lat":43.27805,"lon":5.40713,"is_reserved":false,"is_disabled":false,"rental_uris":{"android":"levelo://app?vid=cedf40ef-ef05-4e60-8ecc-25483846c6d8","ios":"levelo://app?vid=cedf40ef-ef05-4e60-8ecc-25483846c6d8"},"vehicle_type_id":"4","last_reported":1746295941,"current_range_meters":5600,"station_id":"ce4bhnh2rcd13ifvqgtg","pricing_plan_id":"cebpf4jnsgd1na2vs0mg"},{"bike_id":"23119e4f-0e29-493e-a873-544057f83776","system_id":"levelo_inurba_marseille","lat":43.26794,"lon":5.40232,"is_reserved":false,"is_disabled":true,"rental_uris":{"android":"levelo://app?vid=23119e4f-0e29-493e-a873-544057f83776","ios":"levelo://app?vid=23119e4f-0e29-493e-a873-544057f83776"},"vehicle_type_id":"4","last_reported":1746295941,"current_range_meters":5600,"station_id":"ce501612rcd8frsf0b60","pricing_plan_id":"cebpf4jnsgd1na2vs0mg"},{"bike_id":"add28f37-20bf-4f1c-a63c-8b70b92b8c41","system_id":"levelo_inurba_marseille","lat":43.28937,"lon":5.36641,"is_reserved":false,"is_disabled":false,"rental_uris":{"android":"levelo://app?vid=add28f37-20bf-4f1c-a63c-8b70b92b8c41","ios":"levelo://app?vid=add28f37-20bf-4f1c-a63c-8b70b92b8c41"},"vehicle_type_id":"4","last_reported":1746295941,"current_range_meters":5600,"station_id":"ce4bhap2rcd13ifvqek0","pricing_plan_id":"cebpf4jnsgd1na2vs0mg"},{"bike_id":"21aafc74-39af-4343-8446-adc58faf891e","system_id":"levelo_inurba_marseille","lat":43.28675,"lon":5.38664,"is_reserved":false,"is_disabled":false,"rental_uris":{"android":"levelo://app?vid=21aafc74-39af-4343-8446-adc58faf891e","ios":"levelo://app?vid=21aafc74-39af-4343-8446-adc58faf891e"},"vehicle_type_id":"4","last_reported":1746295941,"current_range_meters":5600,"station_id":"ce4bh492rcd13ifvqdug","pricing_plan_id":"cebpf4jnsgd1na2vs0mg"},{"bike_id":"86bfc1ad-bd7d-4c44-aaea-405d449fdcd7","system_id":"levelo_inurba_marseille","lat":43.272101,"lon":5.391784,"is_reserved":false,"is_disabled":false,"rental_uris":{"android":"levelo://app?vid=86bfc1ad-bd7d-4c44-aaea-405d449fdcd7","ios":"levelo://app?vid=86bfc1ad-bd7d-4c44-aaea-405d449fdcd7"},"vehicle_type_id":"4","last_reported":1746295941,"current_range_meters":6000,"station_id":"","pricing_plan_id":"cebpf4jnsgd1na2vs0mg"},{"bike_id":"db1f7f8d-56d4-4f1d-8287-db5921479c21","system_id":"levelo_inurba_marseille","lat":43.25493,"lon":5.37649,"is_reserved":false,"is_disabled":false,"rental_uris":{"android":"levelo://app?vid=db1f7f8d-56d4-4f1d-8287-db5921479c21","ios":"levelo://app?vid=db1f7f8d-56d4-4f1d-8287-db5921479c21"},"vehicle_type_id":"4","last_reported":1746295941,"current_range_meters":6000,"station_id":"ce4bhh12rcd13ifvqff0","pricing_plan_id":"cebpf4jnsgd1na2vs0mg"},{"bike_id":"9a8fd276-69c1-422f-8bfb-fad28f6e340e","system_id":"levelo_inurba_marseille","lat":43.31111,"lon":5.37762,"is_reserved":false,"is_disabled":false,"rental_uris":{"android":"levelo://app?vid=9a8fd276-69c1-422f-8bfb-fad28f6e340e","ios":"levelo://app?vid=9a8fd276-69c1-422f-8bfb-fad28f6e340e"},"vehicle_type_id":"4","last_reported":1746295941,"current_range_meters":6000,"station_id":"ce4bgt92rcd13ifvqcg0","pricing_plan_id":"cebpf4jnsgd1na2vs0mg"},{"bike_id":"6d6d283f-45e2-4774-9287-dfe60e3714f8","system_id":"levelo_inurba_marseille","lat":43.29225,"lon":5.36071,"is_reserved":false,"is_disabled":false,"rental_uris":{"android":"levelo://app?vid=6d6d283f-45e2-4774-9287-dfe60e3714f8","ios":"levelo://app?vid=6d6d283f-45e2-4774-9287-dfe60e3714f8"},"vehicle_type_id":"4","last_reported":1746295941,"current_range_meters":5600,"station_id":"ce4bhbh2rcd13ifvqeqg","pricing_plan_id":"cebpf4jnsgd1na2vs0mg"},{"bike_id":"42aa5df6-7b6e-4ece-a165-d3a51389cf8a","system_id":"levelo_inurba_marseille","lat":43.28072,"lon":5.3966,"is_reserved":false,"is_disabled":false,"rental_uris":{"android":"levelo://app?vid=42aa5df6-7b6e-4ece-a165-d3a51389cf8a","ios":"levelo://app?vid=42aa5df6-7b6e-4ece-a165-d3a51389cf8a"},"vehicle_type_id":"4","last_reported":1746295941,"current_range_meters":6000,"station_id":"ce4bho12rcd13ifvqh2g","pricing_plan_id":"cebpf4jnsgd1na2vs0mg"},{"bike_id":"b02e6f71-a11d-4df4-9cb9-6a213218c007","system_id":"levelo_inurba_marseille","lat":43.32478,"lon":5.36565,"is_reserved":false,"is_disabled":false,"rental_uris":{"android":"levelo://app?vid=b02e6f71-a11d-4df4-9cb9-6a213218c007","ios":"levelo://app?vid=b02e6f71-a11d-4df4-9cb9-6a213218c007"},"vehicle_type_id":"4","last_reported":1746295941,"current_range_meters":5600,"station_id":"ce4bhs12rcd13ifvqhvg","pricing_plan_id":"cebpf4jnsgd1na2vs0mg"},{"bike_id":"284e0b0b-e762-4690-973a-3823aea589c8","system_id":"levelo_inurba_marseille","lat":43.29363,"lon":5.37829,"is_reserved":false,"is_disabled":false,"rental_uris":{"android":"levelo://app?vid=284e0b0b-e762-4690-973a-3823aea589c8","ios":"levelo://app?vid=284e0b0b-e762-4690-973a-3823aea589c8"},"vehicle_type_id":"4","last_reported":1746295941,"current_range_meters":6400,"station_id":"ce4bgjh2rcd13ifvqbf0","pricing_plan_id":"cebpf4jnsgd1na2vs0mg"},{"bike_id":"bebd8a5e-8ab3-4971-aca5-5e9c5154e405","system_id":"levelo_inurba_marseille","lat":43.29228,"lon":5.36058,"is_reserved":false,"is_disabled":false,"rental_uris":{"android":"levelo://app?vid=bebd8a5e-8ab3-4971-aca5-5e9c5154e405","ios":"levelo://app?vid=bebd8a5e-8ab3-4971-aca5-5e9c5154e405"},"vehicle_type_id":"4","last_reported":1746295941,"current_range_meters":6400,"station_id":"ce4bhbh2rcd13ifvqeqg","pricing_plan_id":"cebpf4jnsgd1na2vs0mg"},{"bike_id":"000680cf-eb00-4f3f-b2e1-6f1f75efd0e5","system_id":"levelo_inurba_marseille","lat":43.31939,"lon":5.37127,"is_reserved":false,"is_disabled":false,"rental_uris":{"android":"levelo://app?vid=000680cf-eb00-4f3f-b2e1-6f1f75efd0e5","ios":"levelo://app?vid=000680cf-eb00-4f3f-b2e1-6f1f75efd0e5"},"vehicle_type_id":"4","last_reported":1746295941,"current_range_meters":6400,"station_id":"","pricing_plan_id":"cebpf4jnsgd1na2vs0mg"},{"bike_id":"f5021dd8-09df-4bc9-abce-7e50e084d0bc","system_id":"levelo_inurba_marseille","lat":43.26938,"lon":5.40257,"is_reserved":false,"is_disabled":false,"rental_uris":{"android":"levelo://app?vid=f5021dd8-09df-4bc9-abce-7e50e084d0bc","ios":"levelo://app?vid=f5021dd8-09df-4bc9-abce-7e50e084d0bc"},"vehicle_type_id":"4","last_reported":1746295941,"current_range_meters":6400,"station_id":"cjm6bp8fraef2m0cb0m0","pricing_plan_id":"cebpf4jnsgd1na2vs0mg"},{"bike_id":"d5999a92-d682-4c09-acf7-a9a243bb7a9f","system_id":"levelo_inurba_marseille","lat":43.29413,"lon":5.38626,"is_reserved":false,"is_disabled":false,"rental_uris":{"android":"levelo://app?vid=d5999a92-d682-4c09-acf7-a9a243bb7a9f","ios":"levelo://app?vid=d5999a92-d682-4c09-acf7-a9a243bb7a9f"},"vehicle_type_id":"4","last_reported":1746295941,"current_range_meters":6800,"station_id":"ce4bh2h2rcd13ifvqdh0","pricing_plan_id":"cebpf4jnsgd1na2vs0mg"},{"bike_id":"f1c43022-fa29-47ba-b273-47af37c4ce6b","system_id":"levelo_inurba_marseille","lat":43.22921,"lon":5.35374,"is_reserved":false,"is_disabled":true,"rental_uris":{"android":"levelo://app?vid=f1c43022-fa29-47ba-b273-47af37c4ce6b","ios":"levelo://app?vid=f1c43022-fa29-47ba-b273-47af37c4ce6b"},"vehicle_type_id":"4","last_reported":1746295941,"current_range_meters":6800,"station_id":"cpo3532slgdg3j2ikp40","pricing_plan_id":"cebpf4jnsgd1na2vs0mg"},{"bike_id":"f335df6e-f381-4b62-8e43-6613e152b34d","system_id":"levelo_inurba_marseille","lat":43.279,"lon":5.38016,"is_reserved":false,"is_disabled":false,"rental_uris":{"android":"levelo://app?vid=f335df6e-f381-4b62-8e43-6613e152b34d","ios":"levelo://app?vid=f335df6e-f381-4b62-8e43-6613e152b34d"},"vehicle_type_id":"4","last_reported":1746295941,"current_range_meters":6400,"station_id":"ce4bhf92rcd13ifvqf50","pricing_plan_id":"cebpf4jnsgd1na2vs0mg"},{"bike_id":"e41a43f7-f80b-46b0-a1be-85b882951c53","system_id":"levelo_inurba_marseille","lat":43.30297,"lon":5.3923,"is_reserved":false,"is_disabled":false,"rental_uris":{"android":"levelo://app?vid=e41a43f7-f80b-46b0-a1be-85b882951c53","ios":"levelo://app?vid=e41a43f7-f80b-46b0-a1be-85b882951c53"},"vehicle_type_id":"4","last_reported":1746295941,"current_range_meters":6400,"station_id":"ce4bgkh2rcd13ifvqbk0","pricing_plan_id":"cebpf4jnsgd1na2vs0mg"},{"bike_id":"48dc34d1-7f77-451f-b971-6d19d2d0be61","system_id":"levelo_inurba_marseille","lat":43.29842,"lon":5.36275,"is_reserved":false,"is_disabled":false,"rental_uris":{"android":"levelo://app?vid=48dc34d1-7f77-451f-b971-6d19d2d0be61","ios":"levelo://app?vid=48dc34d1-7f77-451f-b971-6d19d2d0be61"},"vehicle_type_id":"4","last_reported":1746295941,"current_range_meters":6400,"station_id":"ce4bgpp2rcd13ifvqc3g","pricing_plan_id":"cebpf4jnsgd1na2vs0mg"},{"bike_id":"4341dfab-438e-4d1a-8a6a-87a65b8fed8c","system_id":"levelo_inurba_marseille","lat":43.29901,"lon":5.38127,"is_reserved":false,"is_disabled":true,"rental_uris":{"android":"levelo://app?vid=4341dfab-438e-4d1a-8a6a-87a65b8fed8c","ios":"levelo://app?vid=4341dfab-438e-4d1a-8a6a-87a65b8fed8c"},"vehicle_type_id":"4","last_reported":1746295941,"current_range_meters":6800,"station_id":"ce4bgj12rcd13ifvqbc0","pricing_plan_id":"cebpf4jnsgd1na2vs0mg"},{"bike_id":"85a0733f-85d8-4ed1-a146-df430725b3dd","system_id":"levelo_inurba_marseille","lat":43.29846,"lon":5.36283,"is_reserved":false,"is_disabled":false,"rental_uris":{"android":"levelo://app?vid=85a0733f-85d8-4ed1-a146-df430725b3dd","ios":"levelo://app?vid=85a0733f-85d8-4ed1-a146-df430725b3dd"},"vehicle_type_id":"4","last_reported":1746295941,"current_range_meters":6800,"station_id":"ce4bgpp2rcd13ifvqc3g","pricing_plan_id":"cebpf4jnsgd1na2vs0mg"},{"bike_id":"f56482c2-7f06-4b79-9980-26a1cccfa7fd","system_id":"levelo_inurba_marseille","lat":43.29066,"lon":5.37153,"is_reserved":false,"is_disabled":false,"rental_uris":{"android":"levelo://app?vid=f56482c2-7f06-4b79-9980-26a1cccfa7fd","ios":"levelo://app?vid=f56482c2-7f06-4b79-9980-26a1cccfa7fd"},"vehicle_type_id":"4","last_reported":1746295941,"current_range_meters":6400,"station_id":"ce4bh5p2rcd13ifvqe4g","pricing_plan_id":"cebpf4jnsgd1na2vs0mg"},{"bike_id":"6b72345e-b20d-426e-8d78-c2e6ced211a3","system_id":"levelo_inurba_marseille","lat":43.29014,"lon":5.38652,"is_reserved":false,"is_disabled":false,"rental_uris":{"android":"levelo://app?vid=6b72345e-b20d-426e-8d78-c2e6ced211a3","ios":"levelo://app?vid=6b72345e-b20d-426e-8d78-c2e6ced211a3"},"vehicle_type_id":"4","last_reported":1746295941,"current_range_meters":6800,"station_id":"ce4bh4p2rcd13ifvqe0g","pricing_plan_id":"cebpf4jnsgd1na2vs0mg"},{"bike_id":"4ad2f8be-e3f8-4bb5-a4a1-5dc27dfc270e","system_id":"levelo_inurba_marseille","lat":43.255046,"lon":5.376311,"is_reserved":false,"is_disabled":false,"rental_uris":{"android":"levelo://app?vid=4ad2f8be-e3f8-4bb5-a4a1-5dc27dfc270e","ios":"levelo://app?vid=4ad2f8be-e3f8-4bb5-a4a1-5dc27dfc270e"},"vehicle_type_id":"4","last_reported":1746295941,"current_range_meters":6800,"station_id":"ce4bhh12rcd13ifvqff0","pricing_plan_id":"cebpf4jnsgd1na2vs0mg"},{"bike_id":"a9a798d4-6d3d-4c94-bfaf-1a25128a47c8","system_id":"levelo_inurba_marseille","lat":43.22947,"lon":5.35376,"is_reserved":false,"is_disabled":false,"rental_uris":{"android":"levelo://app?vid=a9a798d4-6d3d-4c94-bfaf-1a25128a47c8","ios":"levelo://app?vid=a9a798d4-6d3d-4c94-bfaf-1a25128a47c8"},"vehicle_type_id":"4","last_reported":1746295941,"current_range_meters":6800,"station_id":"cpo3532slgdg3j2ikp40","pricing_plan_id":"cebpf4jnsgd1na2vs0mg"},{"bike_id":"b6fcc368-d669-4a30-a903-3eed1f7d337b","system_id":"levelo_inurba_marseille","lat":43.32211,"lon":5.37605,"is_reserved":false,"is_disabled":false,"rental_uris":{"android":"levelo://app?vid=b6fcc368-d669-4a30-a903-3eed1f7d337b","ios":"levelo://app?vid=b6fcc368-d669-4a30-a903-3eed1f7d337b"},"vehicle_type_id":"4","last_reported":1746295941,"current_range_meters":6800,"station_id":"","pricing_plan_id":"cebpf4jnsgd1na2vs0mg"},{"bike_id":"202afa49-0605-4548-9410-31c02618c156","system_id":"levelo_inurba_marseille","lat":43.29226,"lon":5.36072,"is_reserved":false,"is_disabled":false,"rental_uris":{"android":"levelo://app?vid=202afa49-0605-4548-9410-31c02618c156","ios":"levelo://app?vid=202afa49-0605-4548-9410-31c02618c156"},"vehicle_type_id":"4","last_reported":1746295941,"current_range_meters":6800,"station_id":"ce4bhbh2rcd13ifvqeqg","pricing_plan_id":"cebpf4jnsgd1na2vs0mg"},{"bike_id":"4ab13f41-8fca-4f1f-997a-c928596c8046","system_id":"levelo_inurba_marseille","lat":43.29867,"lon":5.39735,"is_reserved":false,"is_disabled":false,"rental_uris":{"android":"levelo://app?vid=4ab13f41-8fca-4f1f-997a-c928596c8046","ios":"levelo://app?vid=4ab13f41-8fca-4f1f-997a-c928596c8046"},"vehicle_type_id":"4","last_reported":1746295941,"current_range_meters":5600,"station_id":"ce4bh0h2rcd13ifvqd50","pricing_plan_id":"cebpf4jnsgd1na2vs0mg"},{"bike_id":"d4ebd8e4-3fad-497b-a2df-6b0b25998d87","system_id":"levelo_inurba_marseille","lat":43.2991,"lon":5.37486,"is_reserved":false,"is_disabled":false,"rental_uris":{"android":"levelo://app?vid=d4ebd8e4-3fad-497b-a2df-6b0b25998d87","ios":"levelo://app?vid=d4ebd8e4-3fad-497b-a2df-6b0b25998d87"},"vehicle_type_id":"4","last_reported":1746295941,"current_range_meters":6800,"station_id":"ce4bgjh2rcd13ifvqbg0","pricing_plan_id":"cebpf4jnsgd1na2vs0mg"},{"bike_id":"51900178-50f0-47b3-94f6-452e3ee783c8","system_id":"levelo_inurba_marseille","lat":43.298983,"lon":5.436713,"is_reserved":false,"is_disabled":false,"rental_uris":{"android":"levelo://app?vid=51900178-50f0-47b3-94f6-452e3ee783c8","ios":"levelo://app?vid=51900178-50f0-47b3-94f6-452e3ee783c8"},"vehicle_type_id":"4","last_reported":1746295941,"current_range_meters":7200,"station_id":"ce4bhpp2rcd13ifvqhfg","pricing_plan_id":"cebpf4jnsgd1na2vs0mg"},{"bike_id":"180832de-4550-411c-b48a-cba12177cda8","system_id":"levelo_inurba_marseille","lat":43.2319,"lon":5.35552,"is_reserved":false,"is_disabled":false,"rental_uris":{"android":"levelo://app?vid=180832de-4550-411c-b48a-cba12177cda8","ios":"levelo://app?vid=180832de-4550-411c-b48a-cba12177cda8"},"vehicle_type_id":"4","last_reported":1746295941,"current_range_meters":7200,"station_id":"ce4bhu92rcd13ifvqi70","pricing_plan_id":"cebpf4jnsgd1na2vs0mg"},{"bike_id":"e899f678-f3f4-482d-9d53-7b39145289a3","system_id":"levelo_inurba_marseille","lat":43.243851,"lon":5.370505,"is_reserved":false,"is_disabled":false,"rental_uris":{"android":"levelo://app?vid=e899f678-f3f4-482d-9d53-7b39145289a3","ios":"levelo://app?vid=e899f678-f3f4-482d-9d53-7b39145289a3"},"vehicle_type_id":"4","last_reported":1746295941,"current_range_meters":7200,"station_id":"ce4bhhh2rcd13ifvqfk0","pricing_plan_id":"cebpf4jnsgd1na2vs0mg"},{"bike_id":"b2be516e-2f32-4594-b4de-c3e58b68706d","system_id":"levelo_inurba_marseille","lat":43.292717,"lon":5.368393,"is_reserved":false,"is_disabled":true,"rental_uris":{"android":"levelo://app?vid=b2be516e-2f32-4594-b4de-c3e58b68706d","ios":"levelo://app?vid=b2be516e-2f32-4594-b4de-c3e58b68706d"},"vehicle_type_id":"4","last_reported":1746295941,"current_range_meters":7200,"station_id":"ce4bhbp2rcd13ifvqesg","pricing_plan_id":"cebpf4jnsgd1na2vs0mg"},{"bike_id":"3ca3010a-151a-498b-9dec-d673b91d4efb","system_id":"levelo_inurba_marseille","lat":43.26693,"lon":5.38267,"is_reserved":false,"is_disabled":false,"rental_uris":{"android":"levelo://app?vid=3ca3010a-151a-498b-9dec-d673b91d4efb","ios":"levelo://app?vid=3ca3010a-151a-498b-9dec-d673b91d4efb"},"vehicle_type_id":"4","last_reported":1746295941,"current_range_meters":7200,"station_id":"ce4bhg92rcd13ifvqf90","pricing_plan_id":"cebpf4jnsgd1na2vs0mg"},{"bike_id":"2c2e7135-8856-428a-99f4-c80e122b6acb","system_id":"levelo_inurba_marseille","lat":43.25499,"lon":5.37648,"is_reserved":false,"is_disabled":false,"rental_uris":{"android":"levelo://app?vid=2c2e7135-8856-428a-99f4-c80e122b6acb","ios":"levelo://app?vid=2c2e7135-8856-428a-99f4-c80e122b6acb"},"vehicle_type_id":"4","last_reported":1746295941,"current_range_meters":7200,"station_id":"ce4bhh12rcd13ifvqff0","pricing_plan_id":"cebpf4jnsgd1na2vs0mg"},{"bike_id":"c2b4c2c4-da65-49f2-ab92-8de761604d62","system_id":"levelo_inurba_marseille","lat":43.26959,"lon":5.38628,"is_reserved":false,"is_disabled":false,"rental_uris":{"android":"levelo://app?vid=c2b4c2c4-da65-49f2-ab92-8de761604d62","ios":"levelo://app?vid=c2b4c2c4-da65-49f2-ab92-8de761604d62"},"vehicle_type_id":"4","last_reported":1746295941,"current_range_meters":7200,"station_id":"ce4bhh92rcd13ifvqfh0","pricing_plan_id":"cebpf4jnsgd1na2vs0mg"},{"bike_id":"6a8695da-737e-4484-817f-57b3c4b85787","system_id":"levelo_inurba_marseille","lat":43.28105,"lon":5.37834,"is_reserved":false,"is_disabled":false,"rental_uris":{"android":"levelo://app?vid=6a8695da-737e-4484-817f-57b3c4b85787","ios":"levelo://app?vid=6a8695da-737e-4484-817f-57b3c4b85787"},"vehicle_type_id":"4","last_reported":1746295941,"current_range_meters":7200,"station_id":"ce4bha12rcd13ifvqee0","pricing_plan_id":"cebpf4jnsgd1na2vs0mg"},{"bike_id":"96c7dd24-e2a1-4e23-af58-e05b6abedd76","system_id":"levelo_inurba_marseille","lat":43.26196,"lon":5.37442,"is_reserved":false,"is_disabled":false,"rental_uris":{"android":"levelo://app?vid=96c7dd24-e2a1-4e23-af58-e05b6abedd76","ios":"levelo://app?vid=96c7dd24-e2a1-4e23-af58-e05b6abedd76"},"vehicle_type_id":"4","last_reported":1746295941,"current_range_meters":8000,"station_id":"ce4bhgp2rcd13ifvqfc0","pricing_plan_id":"cebpf4jnsgd1na2vs0mg"},{"bike_id":"e3462c87-87c9-4837-a441-3715569adec9","system_id":"levelo_inurba_marseille","lat":43.284045,"lon":5.349746,"is_reserved":false,"is_disabled":false,"rental_uris":{"android":"levelo://app?vid=e3462c87-87c9-4837-a441-3715569adec9","ios":"levelo://app?vid=e3462c87-87c9-4837-a441-3715569adec9"},"vehicle_type_id":"4","last_reported":1746295941,"current_range_meters":8000,"station_id":"ce4bhbh2rcd13ifvqepg","pricing_plan_id":"cebpf4jnsgd1na2vs0mg"},{"bike_id":"328f3d52-08e5-4811-bee4-388e01f01af2","system_id":"levelo_inurba_marseille","lat":43.2721,"lon":5.39185,"is_reserved":false,"is_disabled":false,"rental_uris":{"android":"levelo://app?vid=328f3d52-08e5-4811-bee4-388e01f01af2","ios":"levelo://app?vid=328f3d52-08e5-4811-bee4-388e01f01af2"},"vehicle_type_id":"4","last_reported":1746295941,"current_range_meters":8000,"station_id":"ce4bhhp2rcd13ifvqfm0","pricing_plan_id":"cebpf4jnsgd1na2vs0mg"},{"bike_id":"57941eae-2607-40ab-b216-c1d125c68b69","system_id":"levelo_inurba_marseille","lat":43.27941,"lon":5.41046,"is_reserved":false,"is_disabled":false,"rental_uris":{"android":"levelo://app?vid=57941eae-2607-40ab-b216-c1d125c68b69","ios":"levelo://app?vid=57941eae-2607-40ab-b216-c1d125c68b69"},"vehicle_type_id":"4","last_reported":1746295941,"current_range_meters":8000,"station_id":"ce4bhnp2rcd13ifvqh0g","pricing_plan_id":"cebpf4jnsgd1na2vs0mg"},{"bike_id":"208c1a96-c46f-4193-b924-3bf7033ea14e","system_id":"levelo_inurba_marseille","lat":43.2319,"lon":5.35553,"is_reserved":false,"is_disabled":false,"rental_uris":{"android":"levelo://app?vid=208c1a96-c46f-4193-b924-3bf7033ea14e","ios":"levelo://app?vid=208c1a96-c46f-4193-b924-3bf7033ea14e"},"vehicle_type_id":"4","last_reported":1746295941,"current_range_meters":8000,"station_id":"ce4bhu92rcd13ifvqi70","pricing_plan_id":"cebpf4jnsgd1na2vs0mg"},{"bike_id":"20ccbdaf-8a76-4cd4-87af-fb59c08e81dc","system_id":"levelo_inurba_marseille","lat":43.23192,"lon":5.35559,"is_reserved":false,"is_disabled":false,"rental_uris":{"android":"levelo://app?vid=20ccbdaf-8a76-4cd4-87af-fb59c08e81dc","ios":"levelo://app?vid=20ccbdaf-8a76-4cd4-87af-fb59c08e81dc"},"vehicle_type_id":"4","last_reported":1746295941,"current_range_meters":8000,"station_id":"ce4bhu92rcd13ifvqi70","pricing_plan_id":"cebpf4jnsgd1na2vs0mg"},{"bike_id":"e341752c-8655-4500-bdaa-1fbfa4780079","system_id":"levelo_inurba_marseille","lat":43.29075,"lon":5.37136,"is_reserved":false,"is_disabled":true,"rental_uris":{"android":"levelo://app?vid=e341752c-8655-4500-bdaa-1fbfa4780079","ios":"levelo://app?vid=e341752c-8655-4500-bdaa-1fbfa4780079"},"vehicle_type_id":"4","last_reported":1746295941,"current_range_meters":8400,"station_id":"ce4bh5p2rcd13ifvqe4g","pricing_plan_id":"cebpf4jnsgd1na2vs0mg"},{"bike_id":"39d83911-e17e-4776-b8f2-6450602c8696","system_id":"levelo_inurba_marseille","lat":43.298948,"lon":5.436597,"is_reserved":false,"is_disabled":false,"rental_uris":{"android":"levelo://app?vid=39d83911-e17e-4776-b8f2-6450602c8696","ios":"levelo://app?vid=39d83911-e17e-4776-b8f2-6450602c8696"},"vehicle_type_id":"4","last_reported":1746295941,"current_range_meters":8400,"station_id":"ce4bhpp2rcd13ifvqhfg","pricing_plan_id":"cebpf4jnsgd1na2vs0mg"},{"bike_id":"7575df68-19a2-4d90-b154-9fc2427a96b0","system_id":"levelo_inurba_marseille","lat":43.3184,"lon":5.37369,"is_reserved":false,"is_disabled":false,"rental_uris":{"android":"levelo://app?vid=7575df68-19a2-4d90-b154-9fc2427a96b0","ios":"levelo://app?vid=7575df68-19a2-4d90-b154-9fc2427a96b0"},"vehicle_type_id":"4","last_reported":1746295941,"current_range_meters":8400,"station_id":"","pricing_plan_id":"cebpf4jnsgd1na2vs0mg"},{"bike_id":"e27ce41e-d31e-4411-a762-387f29d91877","system_id":"levelo_inurba_marseille","lat":43.29561,"lon":5.42289,"is_reserved":false,"is_disabled":false,"rental_uris":{"android":"levelo://app?vid=e27ce41e-d31e-4411-a762-387f29d91877","ios":"levelo://app?vid=e27ce41e-d31e-4411-a762-387f29d91877"},"vehicle_type_id":"4","last_reported":1746295941,"current_range_meters":8400,"station_id":"ce4bhph2rcd13ifvqhdg","pricing_plan_id":"cebpf4jnsgd1na2vs0mg"},{"bike_id":"570b486c-50df-4f1f-97df-caa86c0d419e","system_id":"levelo_inurba_marseille","lat":43.33723,"lon":5.35564,"is_reserved":false,"is_disabled":false,"rental_uris":{"android":"levelo://app?vid=570b486c-50df-4f1f-97df-caa86c0d419e","ios":"levelo://app?vid=570b486c-50df-4f1f-97df-caa86c0d419e"},"vehicle_type_id":"4","last_reported":1746295941,"current_range_meters":8400,"station_id":"","pricing_plan_id":"cebpf4jnsgd1na2vs0mg"},{"bike_id":"02b8ed11-fd97-4b73-8e59-a776bb6ce4eb","system_id":"levelo_inurba_marseille","lat":43.22926,"lon":5.35369,"is_reserved":false,"is_disabled":false,"rental_uris":{"android":"levelo://app?vid=02b8ed11-fd97-4b73-8e59-a776bb6ce4eb","ios":"levelo://app?vid=02b8ed11-fd97-4b73-8e59-a776bb6ce4eb"},"vehicle_type_id":"4","last_reported":1746295941,"current_range_meters":8400,"station_id":"cpo3532slgdg3j2ikp40","pricing_plan_id":"cebpf4jnsgd1na2vs0mg"},{"bike_id":"f4c5aafe-6ee3-4f74-be67-4cf5bca938e0","system_id":"levelo_inurba_marseille","lat":43.24171,"lon":5.39714,"is_reserved":false,"is_disabled":false,"rental_uris":{"android":"levelo://app?vid=f4c5aafe-6ee3-4f74-be67-4cf5bca938e0","ios":"levelo://app?vid=f4c5aafe-6ee3-4f74-be67-4cf5bca938e0"},"vehicle_type_id":"4","last_reported":1746295941,"current_range_meters":8400,"station_id":"ce4bhn12rcd13ifvqgpg","pricing_plan_id":"cebpf4jnsgd1na2vs0mg"},{"bike_id":"9e183663-a070-4aa4-89cb-908771627183","system_id":"levelo_inurba_marseille","lat":43.30205,"lon":5.39476,"is_reserved":false,"is_disabled":false,"rental_uris":{"android":"levelo://app?vid=9e183663-a070-4aa4-89cb-908771627183","ios":"levelo://app?vid=9e183663-a070-4aa4-89cb-908771627183"},"vehicle_type_id":"4","last_reported":1746295941,"current_range_meters":8400,"station_id":"ce4bh0p2rcd13ifvqd70","pricing_plan_id":"cebpf4jnsgd1na2vs0mg"},{"bike_id":"66a701e4-0968-4322-a93c-2a3066bba4bc","system_id":"levelo_inurba_marseille","lat":43.29972,"lon":5.37173,"is_reserved":false,"is_disabled":false,"rental_uris":{"android":"levelo://app?vid=66a701e4-0968-4322-a93c-2a3066bba4bc","ios":"levelo://app?vid=66a701e4-0968-4322-a93c-2a3066bba4bc"},"vehicle_type_id":"4","last_reported":1746295941,"current_range_meters":8400,"station_id":"ce4bgr92rcd13ifvqc7g","pricing_plan_id":"cebpf4jnsgd1na2vs0mg"},{"bike_id":"ab28c8fd-54f3-4157-be7b-5cfbd799b7bd","system_id":"levelo_inurba_marseille","lat":43.29256,"lon":5.38437,"is_reserved":false,"is_disabled":false,"rental_uris":{"android":"levelo://app?vid=ab28c8fd-54f3-4157-be7b-5cfbd799b7bd","ios":"levelo://app?vid=ab28c8fd-54f3-4157-be7b-5cfbd799b7bd"},"vehicle_type_id":"4","last_reported":1746295941,"current_range_meters":8800,"station_id":"ce4bh692rcd13ifvqea0","pricing_plan_id":"cebpf4jnsgd1na2vs0mg"},{"bike_id":"a6ea043d-e76d-476c-b4e2-f5a94aaacea5","system_id":"levelo_inurba_marseille","lat":43.28399,"lon":5.35006,"is_reserved":false,"is_disabled":false,"rental_uris":{"android":"levelo://app?vid=a6ea043d-e76d-476c-b4e2-f5a94aaacea5","ios":"levelo://app?vid=a6ea043d-e76d-476c-b4e2-f5a94aaacea5"},"vehicle_type_id":"4","last_reported":1746295941,"current_range_meters":8800,"station_id":"ce4bhbh2rcd13ifvqepg","pricing_plan_id":"cebpf4jnsgd1na2vs0mg"},{"bike_id":"a692b93c-2a7d-4710-96ea-d7d12706d8b4","system_id":"levelo_inurba_marseille","lat":43.22922,"lon":5.35387,"is_reserved":false,"is_disabled":false,"rental_uris":{"android":"levelo://app?vid=a692b93c-2a7d-4710-96ea-d7d12706d8b4","ios":"levelo://app?vid=a692b93c-2a7d-4710-96ea-d7d12706d8b4"},"vehicle_type_id":"4","last_reported":1746295941,"current_range_meters":8800,"station_id":"cpo3532slgdg3j2ikp40","pricing_plan_id":"cebpf4jnsgd1na2vs0mg"},{"bike_id":"fd7d8cae-654f-4d1d-8aa6-fa6f0dd2c83f","system_id":"levelo_inurba_marseille","lat":43.29221,"lon":5.3606,"is_reserved":false,"is_disabled":false,"rental_uris":{"android":"levelo://app?vid=fd7d8cae-654f-4d1d-8aa6-fa6f0dd2c83f","ios":"levelo://app?vid=fd7d8cae-654f-4d1d-8aa6-fa6f0dd2c83f"},"vehicle_type_id":"4","last_reported":1746295941,"current_range_meters":9200,"station_id":"","pricing_plan_id":"cebpf4jnsgd1na2vs0mg"},{"bike_id":"1b3e31ee-6ff6-4bd6-8955-f5094d8c0bd5","system_id":"levelo_inurba_marseille","lat":43.29885,"lon":5.38893,"is_reserved":false,"is_disabled":false,"rental_uris":{"android":"levelo://app?vid=1b3e31ee-6ff6-4bd6-8955-f5094d8c0bd5","ios":"levelo://app?vid=1b3e31ee-6ff6-4bd6-8955-f5094d8c0bd5"},"vehicle_type_id":"4","last_reported":1746295941,"current_range_meters":8800,"station_id":"ce4bh392rcd13ifvqdl0","pricing_plan_id":"cebpf4jnsgd1na2vs0mg"},{"bike_id":"ef69e7cc-37df-4e66-bd4f-a85ef9d1ea7e","system_id":"levelo_inurba_marseille","lat":43.27492,"lon":5.424502,"is_reserved":false,"is_disabled":false,"rental_uris":{"android":"levelo://app?vid=ef69e7cc-37df-4e66-bd4f-a85ef9d1ea7e","ios":"levelo://app?vid=ef69e7cc-37df-4e66-bd4f-a85ef9d1ea7e"},"vehicle_type_id":"4","last_reported":1746295941,"current_range_meters":9200,"station_id":"ce4bhn92rcd13ifvqgrg","pricing_plan_id":"cebpf4jnsgd1na2vs0mg"},{"bike_id":"b52de1a7-37c0-4cf7-a89c-81be25e74057","system_id":"levelo_inurba_marseille","lat":43.288396,"lon":5.392956,"is_reserved":false,"is_disabled":false,"rental_uris":{"android":"levelo://app?vid=b52de1a7-37c0-4cf7-a89c-81be25e74057","ios":"levelo://app?vid=b52de1a7-37c0-4cf7-a89c-81be25e74057"},"vehicle_type_id":"4","last_reported":1746295941,"current_range_meters":9200,"station_id":"ce4bh2p2rcd13ifvqdi0","pricing_plan_id":"cebpf4jnsgd1na2vs0mg"},{"bike_id":"07dd4d6f-d264-4e0e-a216-a64419e78ce6","system_id":"levelo_inurba_marseille","lat":43.2947,"lon":5.43317,"is_reserved":false,"is_disabled":false,"rental_uris":{"android":"levelo://app?vid=07dd4d6f-d264-4e0e-a216-a64419e78ce6","ios":"levelo://app?vid=07dd4d6f-d264-4e0e-a216-a64419e78ce6"},"vehicle_type_id":"4","last_reported":1746295941,"current_range_meters":9200,"station_id":"","pricing_plan_id":"cebpf4jnsgd1na2vs0mg"},{"bike_id":"0eeec4da-647a-4706-bfe4-148b246ec71f","system_id":"levelo_inurba_marseille","lat":43.28414,"lon":5.34998,"is_reserved":false,"is_disabled":false,"rental_uris":{"android":"levelo://app?vid=0eeec4da-647a-4706-bfe4-148b246ec71f","ios":"levelo://app?vid=0eeec4da-647a-4706-bfe4-148b246ec71f"},"vehicle_type_id":"4","last_reported":1746295941,"current_range_meters":9200,"station_id":"ce4bhbh2rcd13ifvqepg","pricing_plan_id":"cebpf4jnsgd1na2vs0mg"},{"bike_id":"a6f9ab22-4d42-4460-a49b-1d97b2df2659","system_id":"levelo_inurba_marseille","lat":43.28408,"lon":5.37524,"is_reserved":false,"is_disabled":false,"rental_uris":{"android":"levelo://app?vid=a6f9ab22-4d42-4460-a49b-1d97b2df2659","ios":"levelo://app?vid=a6f9ab22-4d42-4460-a49b-1d97b2df2659"},"vehicle_type_id":"4","last_reported":1746295941,"current_range_meters":9200,"station_id":"ce4bh412rcd13ifvqds0","pricing_plan_id":"cebpf4jnsgd1na2vs0mg"},{"bike_id":"b15c2ba7-7a11-44cf-b700-a89899637fdc","system_id":"levelo_inurba_marseille","lat":43.29025,"lon":5.38651,"is_reserved":false,"is_disabled":false,"rental_uris":{"android":"levelo://app?vid=b15c2ba7-7a11-44cf-b700-a89899637fdc","ios":"levelo://app?vid=b15c2ba7-7a11-44cf-b700-a89899637fdc"},"vehicle_type_id":"4","last_reported":1746295941,"current_range_meters":9600,"station_id":"ce4bh4p2rcd13ifvqe0g","pricing_plan_id":"cebpf4jnsgd1na2vs0mg"},{"bike_id":"dfb3396e-96f5-457c-af11-f6f27dad33e9","system_id":"levelo_inurba_marseille","lat":43.271999,"lon":5.364791,"is_reserved":false,"is_disabled":false,"rental_uris":{"android":"levelo://app?vid=dfb3396e-96f5-457c-af11-f6f27dad33e9","ios":"levelo://app?vid=dfb3396e-96f5-457c-af11-f6f27dad33e9"},"vehicle_type_id":"4","last_reported":1746295941,"current_range_meters":9600,"station_id":"","pricing_plan_id":"cebpf4jnsgd1na2vs0mg"},{"bike_id":"684148b9-f488-4971-929c-0730ab0891c9","system_id":"levelo_inurba_marseille","lat":43.265544,"lon":5.372884,"is_reserved":false,"is_disabled":false,"rental_uris":{"android":"levelo://app?vid=684148b9-f488-4971-929c-0730ab0891c9","ios":"levelo://app?vid=684148b9-f488-4971-929c-0730ab0891c9"},"vehicle_type_id":"4","last_reported":1746295941,"current_range_meters":9600,"station_id":"ce4bhb92rcd13ifvqen0","pricing_plan_id":"cebpf4jnsgd1na2vs0mg"},{"bike_id":"3a6c1c4a-dd80-4e9d-9632-aaca59f6d0aa","system_id":"levelo_inurba_marseille","lat":43.323716,"lon":5.388896,"is_reserved":false,"is_disabled":false,"rental_uris":{"android":"levelo://app?vid=3a6c1c4a-dd80-4e9d-9632-aaca59f6d0aa","ios":"levelo://app?vid=3a6c1c4a-dd80-4e9d-9632-aaca59f6d0aa"},"vehicle_type_id":"4","last_reported":1746295941,"current_range_meters":9600,"station_id":"ce4bhqp2rcd13ifvqhog","pricing_plan_id":"cebpf4jnsgd1na2vs0mg"},{"bike_id":"f1ffd2b9-91e9-4bf5-a319-6e95940b0de6","system_id":"levelo_inurba_marseille","lat":43.29561,"lon":5.42279,"is_reserved":false,"is_disabled":false,"rental_uris":{"android":"levelo://app?vid=f1ffd2b9-91e9-4bf5-a319-6e95940b0de6","ios":"levelo://app?vid=f1ffd2b9-91e9-4bf5-a319-6e95940b0de6"},"vehicle_type_id":"4","last_reported":1746295941,"current_range_meters":9600,"station_id":"ce4bhph2rcd13ifvqhdg","pricing_plan_id":"cebpf4jnsgd1na2vs0mg"},{"bike_id":"afe26da8-c150-4841-946f-711e82647dd0","system_id":"levelo_inurba_marseille","lat":43.29273,"lon":5.38429,"is_reserved":false,"is_disabled":false,"rental_uris":{"android":"levelo://app?vid=afe26da8-c150-4841-946f-711e82647dd0","ios":"levelo://app?vid=afe26da8-c150-4841-946f-711e82647dd0"},"vehicle_type_id":"4","last_reported":1746295941,"current_range_meters":9600,"station_id":"ce4bh692rcd13ifvqea0","pricing_plan_id":"cebpf4jnsgd1na2vs0mg"},{"bike_id":"8df6e310-0880-40a9-a691-cd475dfa3928","system_id":"levelo_inurba_marseille","lat":43.28586,"lon":5.44244,"is_reserved":false,"is_disabled":false,"rental_uris":{"android":"levelo://app?vid=8df6e310-0880-40a9-a691-cd475dfa3928","ios":"levelo://app?vid=8df6e310-0880-40a9-a691-cd475dfa3928"},"vehicle_type_id":"4","last_reported":1746295941,"current_range_meters":9600,"station_id":"","pricing_plan_id":"cebpf4jnsgd1na2vs0mg"},{"bike_id":"a9b758e0-e52e-4865-b74c-53b252768e90","system_id":"levelo_inurba_marseille","lat":43.29252,"lon":5.38446,"is_reserved":false,"is_disabled":false,"rental_uris":{"android":"levelo://app?vid=a9b758e0-e52e-4865-b74c-53b252768e90","ios":"levelo://app?vid=a9b758e0-e52e-4865-b74c-53b252768e90"},"vehicle_type_id":"4","last_reported":1746295941,"current_range_meters":9600,"station_id":"ce4bh692rcd13ifvqea0","pricing_plan_id":"cebpf4jnsgd1na2vs0mg"},{"bike_id":"831156ff-1128-4b0a-8e4f-9f3943076bce","system_id":"levelo_inurba_marseille","lat":43.2693,"lon":5.38922,"is_reserved":false,"is_disabled":false,"rental_uris":{"android":"levelo://app?vid=831156ff-1128-4b0a-8e4f-9f3943076bce","ios":"levelo://app?vid=831156ff-1128-4b0a-8e4f-9f3943076bce"},"vehicle_type_id":"4","last_reported":1746295941,"current_range_meters":9200,"station_id":"ce4bhhh2rcd13ifvqfl0","pricing_plan_id":"cebpf4jnsgd1na2vs0mg"},{"bike_id":"b3d408df-9155-4f5b-9bde-4accbb4fb483","system_id":"levelo_inurba_marseille","lat":43.2926,"lon":5.38434,"is_reserved":false,"is_disabled":false,"rental_uris":{"android":"levelo://app?vid=b3d408df-9155-4f5b-9bde-4accbb4fb483","ios":"levelo://app?vid=b3d408df-9155-4f5b-9bde-4accbb4fb483"},"vehicle_type_id":"4","last_reported":1746295941,"current_range_meters":9600,"station_id":"ce4bh692rcd13ifvqea0","pricing_plan_id":"cebpf4jnsgd1na2vs0mg"},{"bike_id":"c5892bc2-b734-40d8-9a28-616bbd48b5f8","system_id":"levelo_inurba_marseille","lat":43.294158,"lon":5.386253,"is_reserved":false,"is_disabled":false,"rental_uris":{"android":"levelo://app?vid=c5892bc2-b734-40d8-9a28-616bbd48b5f8","ios":"levelo://app?vid=c5892bc2-b734-40d8-9a28-616bbd48b5f8"},"vehicle_type_id":"4","last_reported":1746295941,"current_range_meters":10000,"station_id":"ce4bh2h2rcd13ifvqdh0","pricing_plan_id":"cebpf4jnsgd1na2vs0mg"},{"bike_id":"e5f6288c-2681-4dee-8d2f-926961f692f9","system_id":"levelo_inurba_marseille","lat":43.32374,"lon":5.38368,"is_reserved":false,"is_disabled":false,"rental_uris":{"android":"levelo://app?vid=e5f6288c-2681-4dee-8d2f-926961f692f9","ios":"levelo://app?vid=e5f6288c-2681-4dee-8d2f-926961f692f9"},"vehicle_type_id":"4","last_reported":1746295941,"current_range_meters":10800,"station_id":"","pricing_plan_id":"cebpf4jnsgd1na2vs0mg"},{"bike_id":"0e6677c3-6759-4a78-bf56-4876b8875ad0","system_id":"levelo_inurba_marseille","lat":43.29566,"lon":5.37518,"is_reserved":false,"is_disabled":false,"rental_uris":{"android":"levelo://app?vid=0e6677c3-6759-4a78-bf56-4876b8875ad0","ios":"levelo://app?vid=0e6677c3-6759-4a78-bf56-4876b8875ad0"},"vehicle_type_id":"4","last_reported":1746295941,"current_range_meters":10000,"station_id":"ce4bgh92rcd13ifvqb50","pricing_plan_id":"cebpf4jnsgd1na2vs0mg"},{"bike_id":"0cedcf42-b991-4202-b345-102876f7612d","system_id":"levelo_inurba_marseille","lat":43.30948,"lon":5.39027,"is_reserved":false,"is_disabled":false,"rental_uris":{"android":"levelo://app?vid=0cedcf42-b991-4202-b345-102876f7612d","ios":"levelo://app?vid=0cedcf42-b991-4202-b345-102876f7612d"},"vehicle_type_id":"4","last_reported":1746295941,"current_range_meters":10000,"station_id":"ce4bgup2rcd13ifvqco0","pricing_plan_id":"cebpf4jnsgd1na2vs0mg"},{"bike_id":"a0c433bf-1f5c-4723-8b61-0018e007be85","system_id":"levelo_inurba_marseille","lat":43.31219,"lon":5.36856,"is_reserved":false,"is_disabled":false,"rental_uris":{"android":"levelo://app?vid=a0c433bf-1f5c-4723-8b61-0018e007be85","ios":"levelo://app?vid=a0c433bf-1f5c-4723-8b61-0018e007be85"},"vehicle_type_id":"4","last_reported":1746295941,"current_range_meters":10000,"station_id":"ce4bgl92rcd13ifvqbq0","pricing_plan_id":"cebpf4jnsgd1na2vs0mg"},{"bike_id":"6ae9068b-8534-47e2-832a-cb0e5255371d","system_id":"levelo_inurba_marseille","lat":43.337444,"lon":5.374475,"is_reserved":false,"is_disabled":false,"rental_uris":{"android":"levelo://app?vid=6ae9068b-8534-47e2-832a-cb0e5255371d","ios":"levelo://app?vid=6ae9068b-8534-47e2-832a-cb0e5255371d"},"vehicle_type_id":"4","last_reported":1746295941,"current_range_meters":10800,"station_id":"ce4bgvp2rcd13ifvqct0","pricing_plan_id":"cebpf4jnsgd1na2vs0mg"},{"bike_id":"2f2e2422-0ca9-4635-8561-f770e540dc91","system_id":"levelo_inurba_marseille","lat":43.29198,"lon":5.39354,"is_reserved":false,"is_disabled":false,"rental_uris":{"android":"levelo://app?vid=2f2e2422-0ca9-4635-8561-f770e540dc91","ios":"levelo://app?vid=2f2e2422-0ca9-4635-8561-f770e540dc91"},"vehicle_type_id":"4","last_reported":1746295941,"current_range_meters":10800,"station_id":"","pricing_plan_id":"cebpf4jnsgd1na2vs0mg"},{"bike_id":"a0b9a3d4-df5b-40f9-b72d-a989c4e144f0","system_id":"levelo_inurba_marseille","lat":43.29568,"lon":5.37527,"is_reserved":false,"is_disabled":false,"rental_uris":{"android":"levelo://app?vid=a0b9a3d4-df5b-40f9-b72d-a989c4e144f0","ios":"levelo://app?vid=a0b9a3d4-df5b-40f9-b72d-a989c4e144f0"},"vehicle_type_id":"4","last_reported":1746295941,"current_range_meters":11200,"station_id":"ce4bgh92rcd13ifvqb50","pricing_plan_id":"cebpf4jnsgd1na2vs0mg"},{"bike_id":"9a3be78b-573a-429d-b1a1-26e0a183564d","system_id":"levelo_inurba_marseille","lat":43.2857,"lon":5.39495,"is_reserved":false,"is_disabled":false,"rental_uris":{"android":"levelo://app?vid=9a3be78b-573a-429d-b1a1-26e0a183564d","ios":"levelo://app?vid=9a3be78b-573a-429d-b1a1-26e0a183564d"},"vehicle_type_id":"4","last_reported":1746295941,"current_range_meters":10800,"station_id":"ce4bh292rcd13ifvqdg0","pricing_plan_id":"cebpf4jnsgd1na2vs0mg"},{"bike_id":"99cc0578-1178-4609-99a8-11f26cb0529f","system_id":"levelo_inurba_marseille","lat":43.24074,"lon":5.37755,"is_reserved":false,"is_disabled":false,"rental_uris":{"android":"levelo://app?vid=99cc0578-1178-4609-99a8-11f26cb0529f","ios":"levelo://app?vid=99cc0578-1178-4609-99a8-11f26cb0529f"},"vehicle_type_id":"4","last_reported":1746295941,"current_range_meters":11200,"station_id":"ce4bhnp2rcd13ifvqgvg","pricing_plan_id":"cebpf4jnsgd1na2vs0mg"},{"bike_id":"482f00aa-c3ee-446b-8f24-a1d4dffa2e19","system_id":"levelo_inurba_marseille","lat":43.2986,"lon":5.37666,"is_reserved":false,"is_disabled":false,"rental_uris":{"android":"levelo://app?vid=482f00aa-c3ee-446b-8f24-a1d4dffa2e19","ios":"levelo://app?vid=482f00aa-c3ee-446b-8f24-a1d4dffa2e19"},"vehicle_type_id":"4","last_reported":1746295941,"current_range_meters":11200,"station_id":"","pricing_plan_id":"cebpf4jnsgd1na2vs0mg"},{"bike_id":"fd2c3c67-23a6-4380-b7ca-8f23c8f78921","system_id":"levelo_inurba_marseille","lat":43.32381,"lon":5.36677,"is_reserved":false,"is_disabled":false,"rental_uris":{"android":"levelo://app?vid=fd2c3c67-23a6-4380-b7ca-8f23c8f78921","ios":"levelo://app?vid=fd2c3c67-23a6-4380-b7ca-8f23c8f78921"},"vehicle_type_id":"4","last_reported":1746295941,"current_range_meters":11200,"station_id":"ce4bhsh2rcd13ifvqi2g","pricing_plan_id":"cebpf4jnsgd1na2vs0mg"},{"bike_id":"422ed90a-a47a-4237-b7e5-bee376e0fbda","system_id":"levelo_inurba_marseille","lat":43.31673,"lon":5.37405,"is_reserved":false,"is_disabled":false,"rental_uris":{"android":"levelo://app?vid=422ed90a-a47a-4237-b7e5-bee376e0fbda","ios":"levelo://app?vid=422ed90a-a47a-4237-b7e5-bee376e0fbda"},"vehicle_type_id":"4","last_reported":1746295941,"current_range_meters":11200,"station_id":"","pricing_plan_id":"cebpf4jnsgd1na2vs0mg"},{"bike_id":"bdd6f3b9-18d9-4c88-853e-8c751b6042c3","system_id":"levelo_inurba_marseille","lat":43.29301,"lon":5.3746,"is_reserved":false,"is_disabled":false,"rental_uris":{"android":"levelo://app?vid=bdd6f3b9-18d9-4c88-853e-8c751b6042c3","ios":"levelo://app?vid=bdd6f3b9-18d9-4c88-853e-8c751b6042c3"},"vehicle_type_id":"4","last_reported":1746295941,"current_range_meters":11600,"station_id":"ce4bgi12rcd13ifvqb70","pricing_plan_id":"cebpf4jnsgd1na2vs0mg"},{"bike_id":"75fa9943-cbe0-4940-a9be-f80f8dede2da","system_id":"levelo_inurba_marseille","lat":43.22493,"lon":5.34778,"is_reserved":false,"is_disabled":false,"rental_uris":{"android":"levelo://app?vid=75fa9943-cbe0-4940-a9be-f80f8dede2da","ios":"levelo://app?vid=75fa9943-cbe0-4940-a9be-f80f8dede2da"},"vehicle_type_id":"4","last_reported":1746295941,"current_range_meters":11600,"station_id":"st_cvj5dfep6f1abm77gieg","pricing_plan_id":"cebpf4jnsgd1na2vs0mg"},{"bike_id":"ec042c45-3fb0-45f9-87be-e77867050975","system_id":"levelo_inurba_marseille","lat":43.2306,"lon":5.3549,"is_reserved":false,"is_disabled":false,"rental_uris":{"android":"levelo://app?vid=ec042c45-3fb0-45f9-87be-e77867050975","ios":"levelo://app?vid=ec042c45-3fb0-45f9-87be-e77867050975"},"vehicle_type_id":"4","last_reported":1746295941,"current_range_meters":11200,"station_id":"cpo3342slgdg3j2ifvpg","pricing_plan_id":"cebpf4jnsgd1na2vs0mg"},{"bike_id":"cdac7f44-cd8d-4625-9be1-b673291a74b5","system_id":"levelo_inurba_marseille","lat":43.29576,"lon":5.36745,"is_reserved":false,"is_disabled":false,"rental_uris":{"android":"levelo://app?vid=cdac7f44-cd8d-4625-9be1-b673291a74b5","ios":"levelo://app?vid=cdac7f44-cd8d-4625-9be1-b673291a74b5"},"vehicle_type_id":"4","last_reported":1746295941,"current_range_meters":11600,"station_id":"ce4bgph2rcd13ifvqc2g","pricing_plan_id":"cebpf4jnsgd1na2vs0mg"},{"bike_id":"d11ad4ed-5483-4abb-b8ae-c4e0f73880b4","system_id":"levelo_inurba_marseille","lat":43.31729,"lon":5.43704,"is_reserved":false,"is_disabled":false,"rental_uris":{"android":"levelo://app?vid=d11ad4ed-5483-4abb-b8ae-c4e0f73880b4","ios":"levelo://app?vid=d11ad4ed-5483-4abb-b8ae-c4e0f73880b4"},"vehicle_type_id":"4","last_reported":1746295941,"current_range_meters":11600,"station_id":"ce4bhp92rcd13ifvqhcg","pricing_plan_id":"cebpf4jnsgd1na2vs0mg"},{"bike_id":"c2073763-eb33-4baf-bbfd-7056c4eaa5e3","system_id":"levelo_inurba_marseille","lat":43.31162,"lon":5.38724,"is_reserved":false,"is_disabled":false,"rental_uris":{"android":"levelo://app?vid=c2073763-eb33-4baf-bbfd-7056c4eaa5e3","ios":"levelo://app?vid=c2073763-eb33-4baf-bbfd-7056c4eaa5e3"},"vehicle_type_id":"4","last_reported":1746295941,"current_range_meters":11600,"station_id":"ce4bgv12rcd13ifvqcp0","pricing_plan_id":"cebpf4jnsgd1na2vs0mg"},{"bike_id":"c4cbfc65-63fe-4816-8bda-b74fc1a882af","system_id":"levelo_inurba_marseille","lat":43.25499,"lon":5.3765,"is_reserved":false,"is_disabled":false,"rental_uris":{"android":"levelo://app?vid=c4cbfc65-63fe-4816-8bda-b74fc1a882af","ios":"levelo://app?vid=c4cbfc65-63fe-4816-8bda-b74fc1a882af"},"vehicle_type_id":"4","last_reported":1746295941,"current_range_meters":11600,"station_id":"ce4bhh12rcd13ifvqff0","pricing_plan_id":"cebpf4jnsgd1na2vs0mg"},{"bike_id":"ccadadff-3d82-44ab-9115-5fa0befeae87","system_id":"levelo_inurba_marseille","lat":43.2926,"lon":5.38436,"is_reserved":false,"is_disabled":false,"rental_uris":{"android":"levelo://app?vid=ccadadff-3d82-44ab-9115-5fa0befeae87","ios":"levelo://app?vid=ccadadff-3d82-44ab-9115-5fa0befeae87"},"vehicle_type_id":"4","last_reported":1746295941,"current_range_meters":11600,"station_id":"ce4bh692rcd13ifvqea0","pricing_plan_id":"cebpf4jnsgd1na2vs0mg"},{"bike_id":"a37779e7-3d8a-4c82-9997-3090313b05d7","system_id":"levelo_inurba_marseille","lat":43.22931,"lon":5.35374,"is_reserved":false,"is_disabled":true,"rental_uris":{"android":"levelo://app?vid=a37779e7-3d8a-4c82-9997-3090313b05d7","ios":"levelo://app?vid=a37779e7-3d8a-4c82-9997-3090313b05d7"},"vehicle_type_id":"4","last_reported":1746295941,"current_range_meters":12000,"station_id":"cpo3532slgdg3j2ikp40","pricing_plan_id":"cebpf4jnsgd1na2vs0mg"},{"bike_id":"9360e2cf-745e-4235-863d-6a08315062cd","system_id":"levelo_inurba_marseille","lat":43.32287,"lon":5.38286,"is_reserved":false,"is_disabled":false,"rental_uris":{"android":"levelo://app?vid=9360e2cf-745e-4235-863d-6a08315062cd","ios":"levelo://app?vid=9360e2cf-745e-4235-863d-6a08315062cd"},"vehicle_type_id":"4","last_reported":1746295941,"current_range_meters":12400,"station_id":"ce4bhr12rcd13ifvqhqg","pricing_plan_id":"cebpf4jnsgd1na2vs0mg"},{"bike_id":"09d6d2c8-79d8-4bbd-9ae4-8f6d32af5f28","system_id":"levelo_inurba_marseille","lat":43.27967,"lon":5.38735,"is_reserved":false,"is_disabled":false,"rental_uris":{"android":"levelo://app?vid=09d6d2c8-79d8-4bbd-9ae4-8f6d32af5f28","ios":"levelo://app?vid=09d6d2c8-79d8-4bbd-9ae4-8f6d32af5f28"},"vehicle_type_id":"4","last_reported":1746295941,"current_range_meters":12400,"station_id":"ce4bhg12rcd13ifvqf80","pricing_plan_id":"cebpf4jnsgd1na2vs0mg"},{"bike_id":"40791b4e-3991-483d-8fec-62062befe4d1","system_id":"levelo_inurba_marseille","lat":43.28408,"lon":5.35,"is_reserved":false,"is_disabled":false,"rental_uris":{"android":"levelo://app?vid=40791b4e-3991-483d-8fec-62062befe4d1","ios":"levelo://app?vid=40791b4e-3991-483d-8fec-62062befe4d1"},"vehicle_type_id":"4","last_reported":1746295941,"current_range_meters":12400,"station_id":"ce4bhbh2rcd13ifvqepg","pricing_plan_id":"cebpf4jnsgd1na2vs0mg"},{"bike_id":"a5a2e790-c777-46ce-b90b-95a33b9c6228","system_id":"levelo_inurba_marseille","lat":43.26564,"lon":5.39009,"is_reserved":false,"is_disabled":false,"rental_uris":{"android":"levelo://app?vid=a5a2e790-c777-46ce-b90b-95a33b9c6228","ios":"levelo://app?vid=a5a2e790-c777-46ce-b90b-95a33b9c6228"},"vehicle_type_id":"4","last_reported":1746295941,"current_range_meters":12400,"station_id":"ce4bhe12rcd13ifvqf30","pricing_plan_id":"cebpf4jnsgd1na2vs0mg"},{"bike_id":"a3ad8ec8-d4ed-41ea-b62a-02fb9ae64a09","system_id":"levelo_inurba_marseille","lat":43.29848,"lon":5.36286,"is_reserved":false,"is_disabled":false,"rental_uris":{"android":"levelo://app?vid=a3ad8ec8-d4ed-41ea-b62a-02fb9ae64a09","ios":"levelo://app?vid=a3ad8ec8-d4ed-41ea-b62a-02fb9ae64a09"},"vehicle_type_id":"4","last_reported":1746295941,"current_range_meters":12400,"station_id":"ce4bgpp2rcd13ifvqc3g","pricing_plan_id":"cebpf4jnsgd1na2vs0mg"},{"bike_id":"e824d21f-e87e-49ed-8c37-98690f1d80b5","system_id":"levelo_inurba_marseille","lat":43.29255,"lon":5.38439,"is_reserved":false,"is_disabled":false,"rental_uris":{"android":"levelo://app?vid=e824d21f-e87e-49ed-8c37-98690f1d80b5","ios":"levelo://app?vid=e824d21f-e87e-49ed-8c37-98690f1d80b5"},"vehicle_type_id":"4","last_reported":1746295941,"current_range_meters":12800,"station_id":"ce4bh692rcd13ifvqea0","pricing_plan_id":"cebpf4jnsgd1na2vs0mg"},{"bike_id":"24cc82ac-cb19-4e51-8103-cfd4c34c0b6d","system_id":"levelo_inurba_marseille","lat":43.30725,"lon":5.42448,"is_reserved":false,"is_disabled":false,"rental_uris":{"android":"levelo://app?vid=24cc82ac-cb19-4e51-8103-cfd4c34c0b6d","ios":"levelo://app?vid=24cc82ac-cb19-4e51-8103-cfd4c34c0b6d"},"vehicle_type_id":"4","last_reported":1746295941,"current_range_meters":12800,"station_id":"st_cvj6ca6bvosntc0bfgr0","pricing_plan_id":"cebpf4jnsgd1na2vs0mg"},{"bike_id":"387a6bc4-8345-45d7-a269-f28965f356e2","system_id":"levelo_inurba_marseille","lat":43.29274,"lon":5.36842,"is_reserved":false,"is_disabled":false,"rental_uris":{"android":"levelo://app?vid=387a6bc4-8345-45d7-a269-f28965f356e2","ios":"levelo://app?vid=387a6bc4-8345-45d7-a269-f28965f356e2"},"vehicle_type_id":"4","last_reported":1746295941,"current_range_meters":12800,"station_id":"ce4bhbp2rcd13ifvqesg","pricing_plan_id":"cebpf4jnsgd1na2vs0mg"},{"bike_id":"1e89cd7a-bafa-44e1-8f45-664303851f9d","system_id":"levelo_inurba_marseille","lat":43.289936,"lon":5.355922,"is_reserved":false,"is_disabled":false,"rental_uris":{"android":"levelo://app?vid=1e89cd7a-bafa-44e1-8f45-664303851f9d","ios":"levelo://app?vid=1e89cd7a-bafa-44e1-8f45-664303851f9d"},"vehicle_type_id":"4","last_reported":1746295941,"current_range_meters":12800,"station_id":"ce4bhbh2rcd13ifvqepg","pricing_plan_id":"cebpf4jnsgd1na2vs0mg"},{"bike_id":"6c4b361f-e7e3-4c92-93f7-f29e82813ab6","system_id":"levelo_inurba_marseille","lat":43.29252,"lon":5.38441,"is_reserved":false,"is_disabled":false,"rental_uris":{"android":"levelo://app?vid=6c4b361f-e7e3-4c92-93f7-f29e82813ab6","ios":"levelo://app?vid=6c4b361f-e7e3-4c92-93f7-f29e82813ab6"},"vehicle_type_id":"4","last_reported":1746295941,"current_range_meters":12800,"station_id":"ce4bh692rcd13ifvqea0","pricing_plan_id":"cebpf4jnsgd1na2vs0mg"},{"bike_id":"4c304fd3-48ab-44cb-9347-998d36466e09","system_id":"levelo_inurba_marseille","lat":43.31842,"lon":5.37354,"is_reserved":false,"is_disabled":false,"rental_uris":{"android":"levelo://app?vid=4c304fd3-48ab-44cb-9347-998d36466e09","ios":"levelo://app?vid=4c304fd3-48ab-44cb-9347-998d36466e09"},"vehicle_type_id":"4","last_reported":1746295941,"current_range_meters":12800,"station_id":"","pricing_plan_id":"cebpf4jnsgd1na2vs0mg"},{"bike_id":"fb80c1da-d845-467b-9c3b-2f591f4d56ae","system_id":"levelo_inurba_marseille","lat":43.323406,"lon":5.37422,"is_reserved":false,"is_disabled":false,"rental_uris":{"android":"levelo://app?vid=fb80c1da-d845-467b-9c3b-2f591f4d56ae","ios":"levelo://app?vid=fb80c1da-d845-467b-9c3b-2f591f4d56ae"},"vehicle_type_id":"4","last_reported":1746295941,"current_range_meters":13600,"station_id":"","pricing_plan_id":"cebpf4jnsgd1na2vs0mg"},{"bike_id":"aedf206f-89f3-4f30-9da6-56fb7ff8915b","system_id":"levelo_inurba_marseille","lat":43.28137,"lon":5.40404,"is_reserved":false,"is_disabled":false,"rental_uris":{"android":"levelo://app?vid=aedf206f-89f3-4f30-9da6-56fb7ff8915b","ios":"levelo://app?vid=aedf206f-89f3-4f30-9da6-56fb7ff8915b"},"vehicle_type_id":"4","last_reported":1746295941,"current_range_meters":13600,"station_id":"","pricing_plan_id":"cebpf4jnsgd1na2vs0mg"},{"bike_id":"20a4bacb-c5b0-4d26-9068-168152c017b5","system_id":"levelo_inurba_marseille","lat":43.26941,"lon":5.40246,"is_reserved":false,"is_disabled":false,"rental_uris":{"android":"levelo://app?vid=20a4bacb-c5b0-4d26-9068-168152c017b5","ios":"levelo://app?vid=20a4bacb-c5b0-4d26-9068-168152c017b5"},"vehicle_type_id":"4","last_reported":1746295941,"current_range_meters":12800,"station_id":"cjm6bp8fraef2m0cb0m0","pricing_plan_id":"cebpf4jnsgd1na2vs0mg"},{"bike_id":"df26ff8c-2358-4968-a4a9-cb44af63fc67","system_id":"levelo_inurba_marseille","lat":43.27373,"lon":5.362545,"is_reserved":false,"is_disabled":false,"rental_uris":{"android":"levelo://app?vid=df26ff8c-2358-4968-a4a9-cb44af63fc67","ios":"levelo://app?vid=df26ff8c-2358-4968-a4a9-cb44af63fc67"},"vehicle_type_id":"4","last_reported":1746295941,"current_range_meters":13600,"station_id":"","pricing_plan_id":"cebpf4jnsgd1na2vs0mg"},{"bike_id":"274ad913-cb5d-44ea-8484-26eae07424ea","system_id":"levelo_inurba_marseille","lat":43.25856,"lon":5.39907,"is_reserved":false,"is_disabled":true,"rental_uris":{"android":"levelo://app?vid=274ad913-cb5d-44ea-8484-26eae07424ea","ios":"levelo://app?vid=274ad913-cb5d-44ea-8484-26eae07424ea"},"vehicle_type_id":"4","last_reported":1746295941,"current_range_meters":13600,"station_id":"ce4bhl92rcd13ifvqghg","pricing_plan_id":"cebpf4jnsgd1na2vs0mg"},{"bike_id":"e14f0e0b-57ce-42d5-80f6-e3d891b564d1","system_id":"levelo_inurba_marseille","lat":43.27066,"lon":5.42277,"is_reserved":false,"is_disabled":false,"rental_uris":{"android":"levelo://app?vid=e14f0e0b-57ce-42d5-80f6-e3d891b564d1","ios":"levelo://app?vid=e14f0e0b-57ce-42d5-80f6-e3d891b564d1"},"vehicle_type_id":"4","last_reported":1746295941,"current_range_meters":13600,"station_id":"ce4bhk92rcd13ifvqgb0","pricing_plan_id":"cebpf4jnsgd1na2vs0mg"},{"bike_id":"922a322e-c293-49e3-8223-a7051dce5f01","system_id":"levelo_inurba_marseille","lat":43.23066,"lon":5.35491,"is_reserved":false,"is_disabled":false,"rental_uris":{"android":"levelo://app?vid=922a322e-c293-49e3-8223-a7051dce5f01","ios":"levelo://app?vid=922a322e-c293-49e3-8223-a7051dce5f01"},"vehicle_type_id":"4","last_reported":1746295941,"current_range_meters":12800,"station_id":"cpo3342slgdg3j2ifvpg","pricing_plan_id":"cebpf4jnsgd1na2vs0mg"},{"bike_id":"fa6501a1-615e-45a5-8a73-6c4875904ce2","system_id":"levelo_inurba_marseille","lat":43.25864,"lon":5.39898,"is_reserved":false,"is_disabled":false,"rental_uris":{"android":"levelo://app?vid=fa6501a1-615e-45a5-8a73-6c4875904ce2","ios":"levelo://app?vid=fa6501a1-615e-45a5-8a73-6c4875904ce2"},"vehicle_type_id":"4","last_reported":1746295941,"current_range_meters":13600,"station_id":"ce4bhl92rcd13ifvqghg","pricing_plan_id":"cebpf4jnsgd1na2vs0mg"},{"bike_id":"1ecdf614-3611-4af6-a7e8-53ed98ea00b2","system_id":"levelo_inurba_marseille","lat":43.28666,"lon":5.38672,"is_reserved":false,"is_disabled":false,"rental_uris":{"android":"levelo://app?vid=1ecdf614-3611-4af6-a7e8-53ed98ea00b2","ios":"levelo://app?vid=1ecdf614-3611-4af6-a7e8-53ed98ea00b2"},"vehicle_type_id":"4","last_reported":1746295941,"current_range_meters":14000,"station_id":"ce4bh492rcd13ifvqdug","pricing_plan_id":"cebpf4jnsgd1na2vs0mg"},{"bike_id":"d2e32d12-8a68-4254-94ca-8f801266e49b","system_id":"levelo_inurba_marseille","lat":43.23034,"lon":5.35488,"is_reserved":false,"is_disabled":false,"rental_uris":{"android":"levelo://app?vid=d2e32d12-8a68-4254-94ca-8f801266e49b","ios":"levelo://app?vid=d2e32d12-8a68-4254-94ca-8f801266e49b"},"vehicle_type_id":"4","last_reported":1746295941,"current_range_meters":13600,"station_id":"cpo3342slgdg3j2ifvpg","pricing_plan_id":"cebpf4jnsgd1na2vs0mg"},{"bike_id":"cbd3e13f-3175-4509-b01c-59bfce32a4d1","system_id":"levelo_inurba_marseille","lat":43.26951,"lon":5.38635,"is_reserved":false,"is_disabled":false,"rental_uris":{"android":"levelo://app?vid=cbd3e13f-3175-4509-b01c-59bfce32a4d1","ios":"levelo://app?vid=cbd3e13f-3175-4509-b01c-59bfce32a4d1"},"vehicle_type_id":"4","last_reported":1746295941,"current_range_meters":14400,"station_id":"ce4bhh92rcd13ifvqfh0","pricing_plan_id":"cebpf4jnsgd1na2vs0mg"},{"bike_id":"0e529abe-df85-4bc5-8700-d29a9c8cf0cf","system_id":"levelo_inurba_marseille","lat":43.25501,"lon":5.37653,"is_reserved":false,"is_disabled":false,"rental_uris":{"android":"levelo://app?vid=0e529abe-df85-4bc5-8700-d29a9c8cf0cf","ios":"levelo://app?vid=0e529abe-df85-4bc5-8700-d29a9c8cf0cf"},"vehicle_type_id":"4","last_reported":1746295941,"current_range_meters":14400,"station_id":"ce4bhh12rcd13ifvqff0","pricing_plan_id":"cebpf4jnsgd1na2vs0mg"},{"bike_id":"56773e3f-00a5-4410-a33c-999fb5e8815c","system_id":"levelo_inurba_marseille","lat":43.29194,"lon":5.35818,"is_reserved":false,"is_disabled":false,"rental_uris":{"android":"levelo://app?vid=56773e3f-00a5-4410-a33c-999fb5e8815c","ios":"levelo://app?vid=56773e3f-00a5-4410-a33c-999fb5e8815c"},"vehicle_type_id":"4","last_reported":1746295941,"current_range_meters":14400,"station_id":"ce4bhb12rcd13ifvqel0","pricing_plan_id":"cebpf4jnsgd1na2vs0mg"},{"bike_id":"43384032-23ac-4cb7-9fd3-ee8aba815849","system_id":"levelo_inurba_marseille","lat":43.29263,"lon":5.38436,"is_reserved":false,"is_disabled":false,"rental_uris":{"android":"levelo://app?vid=43384032-23ac-4cb7-9fd3-ee8aba815849","ios":"levelo://app?vid=43384032-23ac-4cb7-9fd3-ee8aba815849"},"vehicle_type_id":"4","last_reported":1746295941,"current_range_meters":14400,"station_id":"ce4bh692rcd13ifvqea0","pricing_plan_id":"cebpf4jnsgd1na2vs0mg"},{"bike_id":"79f46693-0c13-4a8c-8a18-1dfccab38310","system_id":"levelo_inurba_marseille","lat":43.28264,"lon":5.35064,"is_reserved":false,"is_disabled":false,"rental_uris":{"android":"levelo://app?vid=79f46693-0c13-4a8c-8a18-1dfccab38310","ios":"levelo://app?vid=79f46693-0c13-4a8c-8a18-1dfccab38310"},"vehicle_type_id":"4","last_reported":1746295941,"current_range_meters":14000,"station_id":"ce4bhbp2rcd13ifvqerg","pricing_plan_id":"cebpf4jnsgd1na2vs0mg"},{"bike_id":"88b4b3bf-c384-4e80-a821-362fca4bb2ef","system_id":"levelo_inurba_marseille","lat":43.26197,"lon":5.37444,"is_reserved":false,"is_disabled":false,"rental_uris":{"android":"levelo://app?vid=88b4b3bf-c384-4e80-a821-362fca4bb2ef","ios":"levelo://app?vid=88b4b3bf-c384-4e80-a821-362fca4bb2ef"},"vehicle_type_id":"4","last_reported":1746295941,"current_range_meters":14800,"station_id":"ce4bhgp2rcd13ifvqfc0","pricing_plan_id":"cebpf4jnsgd1na2vs0mg"},{"bike_id":"813b4db6-550d-499b-b2b7-fb436b34d631","system_id":"levelo_inurba_marseille","lat":43.29275,"lon":5.36848,"is_reserved":false,"is_disabled":false,"rental_uris":{"android":"levelo://app?vid=813b4db6-550d-499b-b2b7-fb436b34d631","ios":"levelo://app?vid=813b4db6-550d-499b-b2b7-fb436b34d631"},"vehicle_type_id":"4","last_reported":1746295941,"current_range_meters":14800,"station_id":"ce4bhbp2rcd13ifvqesg","pricing_plan_id":"cebpf4jnsgd1na2vs0mg"},{"bike_id":"4cd32815-4894-41a0-9a3d-e6c837dcaeea","system_id":"levelo_inurba_marseille","lat":43.29966,"lon":5.38517,"is_reserved":false,"is_disabled":true,"rental_uris":{"android":"levelo://app?vid=4cd32815-4894-41a0-9a3d-e6c837dcaeea","ios":"levelo://app?vid=4cd32815-4894-41a0-9a3d-e6c837dcaeea"},"vehicle_type_id":"4","last_reported":1746295941,"current_range_meters":14800,"station_id":"ce4bgj92rcd13ifvqbd0","pricing_plan_id":"cebpf4jnsgd1na2vs0mg"},{"bike_id":"df903f93-43ee-4ad1-b96e-8e1554b19cc2","system_id":"levelo_inurba_marseille","lat":43.29587,"lon":5.38106,"is_reserved":false,"is_disabled":false,"rental_uris":{"android":"levelo://app?vid=df903f93-43ee-4ad1-b96e-8e1554b19cc2","ios":"levelo://app?vid=df903f93-43ee-4ad1-b96e-8e1554b19cc2"},"vehicle_type_id":"4","last_reported":1746295941,"current_range_meters":14800,"station_id":"ce4bgl12rcd13ifvqbo0","pricing_plan_id":"cebpf4jnsgd1na2vs0mg"},{"bike_id":"ea00b987-ce0b-472a-b505-8b3269cc2508","system_id":"levelo_inurba_marseille","lat":43.32286,"lon":5.38274,"is_reserved":false,"is_disabled":false,"rental_uris":{"android":"levelo://app?vid=ea00b987-ce0b-472a-b505-8b3269cc2508","ios":"levelo://app?vid=ea00b987-ce0b-472a-b505-8b3269cc2508"},"vehicle_type_id":"4","last_reported":1746295941,"current_range_meters":14400,"station_id":"ce4bhr12rcd13ifvqhqg","pricing_plan_id":"cebpf4jnsgd1na2vs0mg"},{"bike_id":"3e84121a-71ad-4261-b6a9-37316f8cbd59","system_id":"levelo_inurba_marseille","lat":43.29019,"lon":5.38642,"is_reserved":false,"is_disabled":true,"rental_uris":{"android":"levelo://app?vid=3e84121a-71ad-4261-b6a9-37316f8cbd59","ios":"levelo://app?vid=3e84121a-71ad-4261-b6a9-37316f8cbd59"},"vehicle_type_id":"4","last_reported":1746295941,"current_range_meters":14800,"station_id":"ce4bh4p2rcd13ifvqe0g","pricing_plan_id":"cebpf4jnsgd1na2vs0mg"},{"bike_id":"ab6689f8-f38c-4c04-8c75-dba3144f5419","system_id":"levelo_inurba_marseille","lat":43.29422,"lon":5.38629,"is_reserved":false,"is_disabled":false,"rental_uris":{"android":"levelo://app?vid=ab6689f8-f38c-4c04-8c75-dba3144f5419","ios":"levelo://app?vid=ab6689f8-f38c-4c04-8c75-dba3144f5419"},"vehicle_type_id":"4","last_reported":1746295941,"current_range_meters":16400,"station_id":"ce4bh2h2rcd13ifvqdh0","pricing_plan_id":"cebpf4jnsgd1na2vs0mg"},{"bike_id":"684ecda1-e1fd-4505-9e1a-61f95c2d86bf","system_id":"levelo_inurba_marseille","lat":43.29026,"lon":5.39977,"is_reserved":false,"is_disabled":false,"rental_uris":{"android":"levelo://app?vid=684ecda1-e1fd-4505-9e1a-61f95c2d86bf","ios":"levelo://app?vid=684ecda1-e1fd-4505-9e1a-61f95c2d86bf"},"vehicle_type_id":"4","last_reported":1746295941,"current_range_meters":16000,"station_id":"ce4bh392rcd13ifvqdm0","pricing_plan_id":"cebpf4jnsgd1na2vs0mg"},{"bike_id":"3e28d936-11fa-453f-8613-4cb45b280a77","system_id":"levelo_inurba_marseille","lat":43.28266,"lon":5.35069,"is_reserved":false,"is_disabled":false,"rental_uris":{"android":"levelo://app?vid=3e28d936-11fa-453f-8613-4cb45b280a77","ios":"levelo://app?vid=3e28d936-11fa-453f-8613-4cb45b280a77"},"vehicle_type_id":"4","last_reported":1746295941,"current_range_meters":15200,"station_id":"ce4bhbp2rcd13ifvqerg","pricing_plan_id":"cebpf4jnsgd1na2vs0mg"},{"bike_id":"90b07904-3ad6-4fd5-aa00-ff8c49ce1608","system_id":"levelo_inurba_marseille","lat":43.28033,"lon":5.36947,"is_reserved":false,"is_disabled":false,"rental_uris":{"android":"levelo://app?vid=90b07904-3ad6-4fd5-aa00-ff8c49ce1608","ios":"levelo://app?vid=90b07904-3ad6-4fd5-aa00-ff8c49ce1608"},"vehicle_type_id":"4","last_reported":1746295941,"current_range_meters":17600,"station_id":"ce4bha12rcd13ifvqef0","pricing_plan_id":"cebpf4jnsgd1na2vs0mg"},{"bike_id":"a3bc2359-39e4-4d03-aa5e-8ffa409341e2","system_id":"levelo_inurba_marseille","lat":43.298964,"lon":5.436697,"is_reserved":false,"is_disabled":false,"rental_uris":{"android":"levelo://app?vid=a3bc2359-39e4-4d03-aa5e-8ffa409341e2","ios":"levelo://app?vid=a3bc2359-39e4-4d03-aa5e-8ffa409341e2"},"vehicle_type_id":"4","last_reported":1746295941,"current_range_meters":16000,"station_id":"ce4bhpp2rcd13ifvqhfg","pricing_plan_id":"cebpf4jnsgd1na2vs0mg"},{"bike_id":"b9c0365b-a67f-4e78-9353-253fee4ab24f","system_id":"levelo_inurba_marseille","lat":43.29844,"lon":5.36274,"is_reserved":false,"is_disabled":false,"rental_uris":{"android":"levelo://app?vid=b9c0365b-a67f-4e78-9353-253fee4ab24f","ios":"levelo://app?vid=b9c0365b-a67f-4e78-9353-253fee4ab24f"},"vehicle_type_id":"4","last_reported":1746295941,"current_range_meters":16000,"station_id":"ce4bgpp2rcd13ifvqc3g","pricing_plan_id":"cebpf4jnsgd1na2vs0mg"},{"bike_id":"64c782fd-7cd7-4715-a043-9f49c65e693c","system_id":"levelo_inurba_marseille","lat":43.27615,"lon":5.36104,"is_reserved":false,"is_disabled":false,"rental_uris":{"android":"levelo://app?vid=64c782fd-7cd7-4715-a043-9f49c65e693c","ios":"levelo://app?vid=64c782fd-7cd7-4715-a043-9f49c65e693c"},"vehicle_type_id":"4","last_reported":1746295941,"current_range_meters":16000,"station_id":"ce4bgj92rcd13ifvqbe0","pricing_plan_id":"cebpf4jnsgd1na2vs0mg"},{"bike_id":"955a7a81-9f13-4f4c-89cb-2ef5bdcfbdca","system_id":"levelo_inurba_marseille","lat":43.30308,"lon":5.3688,"is_reserved":false,"is_disabled":false,"rental_uris":{"android":"levelo://app?vid=955a7a81-9f13-4f4c-89cb-2ef5bdcfbdca","ios":"levelo://app?vid=955a7a81-9f13-4f4c-89cb-2ef5bdcfbdca"},"vehicle_type_id":"4","last_reported":1746295941,"current_range_meters":16000,"station_id":"ce4bgqh2rcd13ifvqc5g","pricing_plan_id":"cebpf4jnsgd1na2vs0mg"},{"bike_id":"b51e8583-0fb2-49ca-9c11-9dbce28dfa5d","system_id":"levelo_inurba_marseille","lat":43.23208,"lon":5.35454,"is_reserved":false,"is_disabled":false,"rental_uris":{"android":"levelo://app?vid=b51e8583-0fb2-49ca-9c11-9dbce28dfa5d","ios":"levelo://app?vid=b51e8583-0fb2-49ca-9c11-9dbce28dfa5d"},"vehicle_type_id":"4","last_reported":1746295941,"current_range_meters":16400,"station_id":"","pricing_plan_id":"cebpf4jnsgd1na2vs0mg"},{"bike_id":"43580de2-2781-4103-8514-2bfafc9158a6","system_id":"levelo_inurba_marseille","lat":43.24163,"lon":5.36396,"is_reserved":false,"is_disabled":false,"rental_uris":{"android":"levelo://app?vid=43580de2-2781-4103-8514-2bfafc9158a6","ios":"levelo://app?vid=43580de2-2781-4103-8514-2bfafc9158a6"},"vehicle_type_id":"4","last_reported":1746295941,"current_range_meters":16400,"station_id":"cpo36qri1sfpv3e86is0","pricing_plan_id":"cebpf4jnsgd1na2vs0mg"},{"bike_id":"13fe0359-05b1-47c7-8a40-0888d830f7f2","system_id":"levelo_inurba_marseille","lat":43.29417,"lon":5.38619,"is_reserved":false,"is_disabled":false,"rental_uris":{"android":"levelo://app?vid=13fe0359-05b1-47c7-8a40-0888d830f7f2","ios":"levelo://app?vid=13fe0359-05b1-47c7-8a40-0888d830f7f2"},"vehicle_type_id":"4","last_reported":1746295941,"current_range_meters":16000,"station_id":"ce4bh2h2rcd13ifvqdh0","pricing_plan_id":"cebpf4jnsgd1na2vs0mg"},{"bike_id":"132ee441-7045-4bb4-987e-6eb1e30688b3","system_id":"levelo_inurba_marseille","lat":43.217513,"lon":5.34599,"is_reserved":false,"is_disabled":false,"rental_uris":{"android":"levelo://app?vid=132ee441-7045-4bb4-987e-6eb1e30688b3","ios":"levelo://app?vid=132ee441-7045-4bb4-987e-6eb1e30688b3"},"vehicle_type_id":"4","last_reported":1746295941,"current_range_meters":16800,"station_id":"","pricing_plan_id":"cebpf4jnsgd1na2vs0mg"},{"bike_id":"e6fbe5e0-d2e8-4fdf-8131-9211786ecb02","system_id":"levelo_inurba_marseille","lat":43.24807,"lon":5.37465,"is_reserved":false,"is_disabled":false,"rental_uris":{"android":"levelo://app?vid=e6fbe5e0-d2e8-4fdf-8131-9211786ecb02","ios":"levelo://app?vid=e6fbe5e0-d2e8-4fdf-8131-9211786ecb02"},"vehicle_type_id":"4","last_reported":1746295941,"current_range_meters":16800,"station_id":"ce4bhgh2rcd13ifvqfb0","pricing_plan_id":"cebpf4jnsgd1na2vs0mg"},{"bike_id":"57b577a6-05e4-403f-8e08-8a8bb593ff51","system_id":"levelo_inurba_marseille","lat":43.28945,"lon":5.36628,"is_reserved":false,"is_disabled":true,"rental_uris":{"android":"levelo://app?vid=57b577a6-05e4-403f-8e08-8a8bb593ff51","ios":"levelo://app?vid=57b577a6-05e4-403f-8e08-8a8bb593ff51"},"vehicle_type_id":"4","last_reported":1746295941,"current_range_meters":16800,"station_id":"ce4bhap2rcd13ifvqek0","pricing_plan_id":"cebpf4jnsgd1na2vs0mg"},{"bike_id":"a9f11c0b-91ce-4005-aa4c-5c2f3dc17779","system_id":"levelo_inurba_marseille","lat":43.28027,"lon":5.36938,"is_reserved":false,"is_disabled":false,"rental_uris":{"android":"levelo://app?vid=a9f11c0b-91ce-4005-aa4c-5c2f3dc17779","ios":"levelo://app?vid=a9f11c0b-91ce-4005-aa4c-5c2f3dc17779"},"vehicle_type_id":"4","last_reported":1746295941,"current_range_meters":16400,"station_id":"ce4bha12rcd13ifvqef0","pricing_plan_id":"cebpf4jnsgd1na2vs0mg"},{"bike_id":"c8e16fcb-5510-4723-b6e7-2aa49c1b3b8d","system_id":"levelo_inurba_marseille","lat":43.319689,"lon":5.370496,"is_reserved":false,"is_disabled":false,"rental_uris":{"android":"levelo://app?vid=c8e16fcb-5510-4723-b6e7-2aa49c1b3b8d","ios":"levelo://app?vid=c8e16fcb-5510-4723-b6e7-2aa49c1b3b8d"},"vehicle_type_id":"4","last_reported":1746295941,"current_range_meters":16800,"station_id":"","pricing_plan_id":"cebpf4jnsgd1na2vs0mg"},{"bike_id":"ed2bb2c0-0169-44b4-994e-e3a453cd8966","system_id":"levelo_inurba_marseille","lat":43.24802,"lon":5.37451,"is_reserved":false,"is_disabled":false,"rental_uris":{"android":"levelo://app?vid=ed2bb2c0-0169-44b4-994e-e3a453cd8966","ios":"levelo://app?vid=ed2bb2c0-0169-44b4-994e-e3a453cd8966"},"vehicle_type_id":"4","last_reported":1746295941,"current_range_meters":16800,"station_id":"ce4bhgh2rcd13ifvqfb0","pricing_plan_id":"cebpf4jnsgd1na2vs0mg"},{"bike_id":"5143ce13-2df0-4726-8d98-6c8d933897a7","system_id":"levelo_inurba_marseille","lat":43.28423,"lon":5.34986,"is_reserved":false,"is_disabled":false,"rental_uris":{"android":"levelo://app?vid=5143ce13-2df0-4726-8d98-6c8d933897a7","ios":"levelo://app?vid=5143ce13-2df0-4726-8d98-6c8d933897a7"},"vehicle_type_id":"4","last_reported":1746295941,"current_range_meters":16800,"station_id":"ce4bhbh2rcd13ifvqepg","pricing_plan_id":"cebpf4jnsgd1na2vs0mg"},{"bike_id":"9311d46e-85c6-4bb6-9685-91abbb5d4d0b","system_id":"levelo_inurba_marseille","lat":43.323633,"lon":5.38886,"is_reserved":false,"is_disabled":false,"rental_uris":{"android":"levelo://app?vid=9311d46e-85c6-4bb6-9685-91abbb5d4d0b","ios":"levelo://app?vid=9311d46e-85c6-4bb6-9685-91abbb5d4d0b"},"vehicle_type_id":"4","last_reported":1746295941,"current_range_meters":17200,"station_id":"ce4bhqp2rcd13ifvqhog","pricing_plan_id":"cebpf4jnsgd1na2vs0mg"},{"bike_id":"6b422b48-bc3e-4538-b3ec-2aa3ac7d80b7","system_id":"levelo_inurba_marseille","lat":43.26224,"lon":5.37437,"is_reserved":false,"is_disabled":false,"rental_uris":{"android":"levelo://app?vid=6b422b48-bc3e-4538-b3ec-2aa3ac7d80b7","ios":"levelo://app?vid=6b422b48-bc3e-4538-b3ec-2aa3ac7d80b7"},"vehicle_type_id":"4","last_reported":1746295941,"current_range_meters":16800,"station_id":"","pricing_plan_id":"cebpf4jnsgd1na2vs0mg"},{"bike_id":"b44f9884-ad91-4c4f-8556-0c40c7f3c478","system_id":"levelo_inurba_marseille","lat":43.232,"lon":5.35557,"is_reserved":false,"is_disabled":false,"rental_uris":{"android":"levelo://app?vid=b44f9884-ad91-4c4f-8556-0c40c7f3c478","ios":"levelo://app?vid=b44f9884-ad91-4c4f-8556-0c40c7f3c478"},"vehicle_type_id":"4","last_reported":1746295941,"current_range_meters":17200,"station_id":"ce4bhu92rcd13ifvqi70","pricing_plan_id":"cebpf4jnsgd1na2vs0mg"},{"bike_id":"7f94af4d-81ec-4f11-8ad5-90fb2fdafca2","system_id":"levelo_inurba_marseille","lat":43.28022,"lon":5.3695,"is_reserved":false,"is_disabled":false,"rental_uris":{"android":"levelo://app?vid=7f94af4d-81ec-4f11-8ad5-90fb2fdafca2","ios":"levelo://app?vid=7f94af4d-81ec-4f11-8ad5-90fb2fdafca2"},"vehicle_type_id":"4","last_reported":1746295941,"current_range_meters":17200,"station_id":"ce4bha12rcd13ifvqef0","pricing_plan_id":"cebpf4jnsgd1na2vs0mg"},{"bike_id":"c0ef25e7-e847-41b2-a6e4-e4386aed5cb9","system_id":"levelo_inurba_marseille","lat":43.29164,"lon":5.37159,"is_reserved":false,"is_disabled":false,"rental_uris":{"android":"levelo://app?vid=c0ef25e7-e847-41b2-a6e4-e4386aed5cb9","ios":"levelo://app?vid=c0ef25e7-e847-41b2-a6e4-e4386aed5cb9"},"vehicle_type_id":"4","last_reported":1746295941,"current_range_meters":17600,"station_id":"ce4bha92rcd13ifvqeh0","pricing_plan_id":"cebpf4jnsgd1na2vs0mg"},{"bike_id":"aaeb0a2d-061d-4487-80c8-dab0ee0ab87d","system_id":"levelo_inurba_marseille","lat":43.280344,"lon":5.369521,"is_reserved":false,"is_disabled":false,"rental_uris":{"android":"levelo://app?vid=aaeb0a2d-061d-4487-80c8-dab0ee0ab87d","ios":"levelo://app?vid=aaeb0a2d-061d-4487-80c8-dab0ee0ab87d"},"vehicle_type_id":"4","last_reported":1746295941,"current_range_meters":17600,"station_id":"ce4bha12rcd13ifvqef0","pricing_plan_id":"cebpf4jnsgd1na2vs0mg"},{"bike_id":"db6c49da-c670-4836-ab86-4f084393b9a1","system_id":"levelo_inurba_marseille","lat":43.27061,"lon":5.42271,"is_reserved":false,"is_disabled":false,"rental_uris":{"android":"levelo://app?vid=db6c49da-c670-4836-ab86-4f084393b9a1","ios":"levelo://app?vid=db6c49da-c670-4836-ab86-4f084393b9a1"},"vehicle_type_id":"4","last_reported":1746295941,"current_range_meters":17600,"station_id":"ce4bhk92rcd13ifvqgb0","pricing_plan_id":"cebpf4jnsgd1na2vs0mg"},{"bike_id":"c35c010a-748d-4836-9e87-46d3624aad1c","system_id":"levelo_inurba_marseille","lat":43.29874,"lon":5.39732,"is_reserved":false,"is_disabled":false,"rental_uris":{"android":"levelo://app?vid=c35c010a-748d-4836-9e87-46d3624aad1c","ios":"levelo://app?vid=c35c010a-748d-4836-9e87-46d3624aad1c"},"vehicle_type_id":"4","last_reported":1746295941,"current_range_meters":17600,"station_id":"ce4bh0h2rcd13ifvqd50","pricing_plan_id":"cebpf4jnsgd1na2vs0mg"},{"bike_id":"50caf8cf-330f-4055-bec1-2de4b439365f","system_id":"levelo_inurba_marseille","lat":43.28037,"lon":5.36945,"is_reserved":false,"is_disabled":false,"rental_uris":{"android":"levelo://app?vid=50caf8cf-330f-4055-bec1-2de4b439365f","ios":"levelo://app?vid=50caf8cf-330f-4055-bec1-2de4b439365f"},"vehicle_type_id":"4","last_reported":1746295941,"current_range_meters":17600,"station_id":"ce4bha12rcd13ifvqef0","pricing_plan_id":"cebpf4jnsgd1na2vs0mg"},{"bike_id":"3a9205d8-8e69-4279-83d2-def0f9054cf9","system_id":"levelo_inurba_marseille","lat":43.24801,"lon":5.37456,"is_reserved":false,"is_disabled":false,"rental_uris":{"android":"levelo://app?vid=3a9205d8-8e69-4279-83d2-def0f9054cf9","ios":"levelo://app?vid=3a9205d8-8e69-4279-83d2-def0f9054cf9"},"vehicle_type_id":"4","last_reported":1746295941,"current_range_meters":17600,"station_id":"ce4bhgh2rcd13ifvqfb0","pricing_plan_id":"cebpf4jnsgd1na2vs0mg"},{"bike_id":"50941c4e-6ab9-4518-9ab8-6d4f5f2affbc","system_id":"levelo_inurba_marseille","lat":43.28421,"lon":5.3499,"is_reserved":false,"is_disabled":false,"rental_uris":{"android":"levelo://app?vid=50941c4e-6ab9-4518-9ab8-6d4f5f2affbc","ios":"levelo://app?vid=50941c4e-6ab9-4518-9ab8-6d4f5f2affbc"},"vehicle_type_id":"4","last_reported":1746295941,"current_range_meters":18000,"station_id":"ce4bhbh2rcd13ifvqepg","pricing_plan_id":"cebpf4jnsgd1na2vs0mg"},{"bike_id":"d8468fc6-b2e1-4c0f-92e0-497cb76694b8","system_id":"levelo_inurba_marseille","lat":43.29877,"lon":5.39739,"is_reserved":false,"is_disabled":false,"rental_uris":{"android":"levelo://app?vid=d8468fc6-b2e1-4c0f-92e0-497cb76694b8","ios":"levelo://app?vid=d8468fc6-b2e1-4c0f-92e0-497cb76694b8"},"vehicle_type_id":"4","last_reported":1746295941,"current_range_meters":18000,"station_id":"ce4bh0h2rcd13ifvqd50","pricing_plan_id":"cebpf4jnsgd1na2vs0mg"},{"bike_id":"b1a89860-ad8b-4c44-bc06-964bf76b4354","system_id":"levelo_inurba_marseille","lat":43.299383,"lon":5.413077,"is_reserved":false,"is_disabled":false,"rental_uris":{"android":"levelo://app?vid=b1a89860-ad8b-4c44-bc06-964bf76b4354","ios":"levelo://app?vid=b1a89860-ad8b-4c44-bc06-964bf76b4354"},"vehicle_type_id":"4","last_reported":1746295941,"current_range_meters":18000,"station_id":"ce4bhp12rcd13ifvqh9g","pricing_plan_id":"cebpf4jnsgd1na2vs0mg"},{"bike_id":"e0eb2257-89c1-4851-bec9-ef9639111322","system_id":"levelo_inurba_marseille","lat":43.29971,"lon":5.37237,"is_reserved":false,"is_disabled":false,"rental_uris":{"android":"levelo://app?vid=e0eb2257-89c1-4851-bec9-ef9639111322","ios":"levelo://app?vid=e0eb2257-89c1-4851-bec9-ef9639111322"},"vehicle_type_id":"4","last_reported":1746295941,"current_range_meters":18000,"station_id":"ce4bgr92rcd13ifvqc7g","pricing_plan_id":"cebpf4jnsgd1na2vs0mg"},{"bike_id":"a66e0266-e21c-403c-b8e3-5301a812c232","system_id":"levelo_inurba_marseille","lat":43.24059,"lon":5.37742,"is_reserved":false,"is_disabled":false,"rental_uris":{"android":"levelo://app?vid=a66e0266-e21c-403c-b8e3-5301a812c232","ios":"levelo://app?vid=a66e0266-e21c-403c-b8e3-5301a812c232"},"vehicle_type_id":"4","last_reported":1746295941,"current_range_meters":18800,"station_id":"ce4bhnp2rcd13ifvqgvg","pricing_plan_id":"cebpf4jnsgd1na2vs0mg"},{"bike_id":"f486de37-b130-4edc-a5b4-7e8a6c6d579e","system_id":"levelo_inurba_marseille","lat":43.302707,"lon":5.397527,"is_reserved":false,"is_disabled":false,"rental_uris":{"android":"levelo://app?vid=f486de37-b130-4edc-a5b4-7e8a6c6d579e","ios":"levelo://app?vid=f486de37-b130-4edc-a5b4-7e8a6c6d579e"},"vehicle_type_id":"4","last_reported":1746295941,"current_range_meters":18800,"station_id":"ce4bgvp2rcd13ifvqcu0","pricing_plan_id":"cebpf4jnsgd1na2vs0mg"},{"bike_id":"c5c7de7b-c3aa-4fd3-9d03-a2ad93ba63fe","system_id":"levelo_inurba_marseille","lat":43.29262,"lon":5.40116,"is_reserved":false,"is_disabled":false,"rental_uris":{"android":"levelo://app?vid=c5c7de7b-c3aa-4fd3-9d03-a2ad93ba63fe","ios":"levelo://app?vid=c5c7de7b-c3aa-4fd3-9d03-a2ad93ba63fe"},"vehicle_type_id":"4","last_reported":1746295941,"current_range_meters":18000,"station_id":"ce4bh312rcd13ifvqdk0","pricing_plan_id":"cebpf4jnsgd1na2vs0mg"},{"bike_id":"633f4cac-9696-4e15-bb10-152509541b56","system_id":"levelo_inurba_marseille","lat":43.32358,"lon":5.36754,"is_reserved":false,"is_disabled":false,"rental_uris":{"android":"levelo://app?vid=633f4cac-9696-4e15-bb10-152509541b56","ios":"levelo://app?vid=633f4cac-9696-4e15-bb10-152509541b56"},"vehicle_type_id":"4","last_reported":1746295941,"current_range_meters":18800,"station_id":"ce4bhsh2rcd13ifvqi2g","pricing_plan_id":"cebpf4jnsgd1na2vs0mg"},{"bike_id":"cef4fb9c-2cce-44b8-a4dc-1a76affeeb57","system_id":"levelo_inurba_marseille","lat":43.29555,"lon":5.42299,"is_reserved":false,"is_disabled":false,"rental_uris":{"android":"levelo://app?vid=cef4fb9c-2cce-44b8-a4dc-1a76affeeb57","ios":"levelo://app?vid=cef4fb9c-2cce-44b8-a4dc-1a76affeeb57"},"vehicle_type_id":"4","last_reported":1746295941,"current_range_meters":18800,"station_id":"ce4bhph2rcd13ifvqhdg","pricing_plan_id":"cebpf4jnsgd1na2vs0mg"},{"bike_id":"44d0a822-f674-4e86-9ca8-ee22c530af23","system_id":"levelo_inurba_marseille","lat":43.28424,"lon":5.34996,"is_reserved":false,"is_disabled":false,"rental_uris":{"android":"levelo://app?vid=44d0a822-f674-4e86-9ca8-ee22c530af23","ios":"levelo://app?vid=44d0a822-f674-4e86-9ca8-ee22c530af23"},"vehicle_type_id":"4","last_reported":1746295941,"current_range_meters":18800,"station_id":"ce4bhbh2rcd13ifvqepg","pricing_plan_id":"cebpf4jnsgd1na2vs0mg"},{"bike_id":"ac33d6ff-248a-4d8b-b9cc-5ce6164a8602","system_id":"levelo_inurba_marseille","lat":43.292567,"lon":5.37623,"is_reserved":false,"is_disabled":false,"rental_uris":{"android":"levelo://app?vid=ac33d6ff-248a-4d8b-b9cc-5ce6164a8602","ios":"levelo://app?vid=ac33d6ff-248a-4d8b-b9cc-5ce6164a8602"},"vehicle_type_id":"4","last_reported":1746295941,"current_range_meters":18800,"station_id":"ce4bgi12rcd13ifvqb80","pricing_plan_id":"cebpf4jnsgd1na2vs0mg"},{"bike_id":"43f220ab-0408-46b3-abe5-60437ce3bc1e","system_id":"levelo_inurba_marseille","lat":43.231951,"lon":5.355596,"is_reserved":false,"is_disabled":false,"rental_uris":{"android":"levelo://app?vid=43f220ab-0408-46b3-abe5-60437ce3bc1e","ios":"levelo://app?vid=43f220ab-0408-46b3-abe5-60437ce3bc1e"},"vehicle_type_id":"4","last_reported":1746295941,"current_range_meters":19200,"station_id":"ce4bhu92rcd13ifvqi70","pricing_plan_id":"cebpf4jnsgd1na2vs0mg"},{"bike_id":"457deb00-4881-4c1b-a2f8-06db1f645573","system_id":"levelo_inurba_marseille","lat":43.2481,"lon":5.37453,"is_reserved":false,"is_disabled":false,"rental_uris":{"android":"levelo://app?vid=457deb00-4881-4c1b-a2f8-06db1f645573","ios":"levelo://app?vid=457deb00-4881-4c1b-a2f8-06db1f645573"},"vehicle_type_id":"4","last_reported":1746295941,"current_range_meters":19200,"station_id":"ce4bhgh2rcd13ifvqfb0","pricing_plan_id":"cebpf4jnsgd1na2vs0mg"},{"bike_id":"436ed0a5-8e1d-4162-a537-3f93eb33461a","system_id":"levelo_inurba_marseille","lat":43.25726,"lon":5.41108,"is_reserved":false,"is_disabled":false,"rental_uris":{"android":"levelo://app?vid=436ed0a5-8e1d-4162-a537-3f93eb33461a","ios":"levelo://app?vid=436ed0a5-8e1d-4162-a537-3f93eb33461a"},"vehicle_type_id":"4","last_reported":1746295941,"current_range_meters":19600,"station_id":"ce4bhkp2rcd13ifvqgd0","pricing_plan_id":"cebpf4jnsgd1na2vs0mg"},{"bike_id":"8086c1c1-0960-43ac-8228-8fb6cb76f96f","system_id":"levelo_inurba_marseille","lat":43.28622,"lon":5.35086,"is_reserved":false,"is_disabled":false,"rental_uris":{"android":"levelo://app?vid=8086c1c1-0960-43ac-8228-8fb6cb76f96f","ios":"levelo://app?vid=8086c1c1-0960-43ac-8228-8fb6cb76f96f"},"vehicle_type_id":"4","last_reported":1746295941,"current_range_meters":19200,"station_id":"ce4bhch2rcd13ifvqeug","pricing_plan_id":"cebpf4jnsgd1na2vs0mg"},{"bike_id":"633e5500-3d73-4420-95ff-c1153e9682d4","system_id":"levelo_inurba_marseille","lat":43.31751,"lon":5.3902,"is_reserved":false,"is_disabled":false,"rental_uris":{"android":"levelo://app?vid=633e5500-3d73-4420-95ff-c1153e9682d4","ios":"levelo://app?vid=633e5500-3d73-4420-95ff-c1153e9682d4"},"vehicle_type_id":"4","last_reported":1746295941,"current_range_meters":19200,"station_id":"ce4bhqp2rcd13ifvqhng","pricing_plan_id":"cebpf4jnsgd1na2vs0mg"},{"bike_id":"0d103b21-b914-4170-b40d-e0e750ffbcea","system_id":"levelo_inurba_marseille","lat":43.28347,"lon":5.38108,"is_reserved":false,"is_disabled":false,"rental_uris":{"android":"levelo://app?vid=0d103b21-b914-4170-b40d-e0e750ffbcea","ios":"levelo://app?vid=0d103b21-b914-4170-b40d-e0e750ffbcea"},"vehicle_type_id":"4","last_reported":1746295941,"current_range_meters":19600,"station_id":"ce4bh412rcd13ifvqdr0","pricing_plan_id":"cebpf4jnsgd1na2vs0mg"},{"bike_id":"3e35b4bc-7bfe-4853-8409-819dce9c67d9","system_id":"levelo_inurba_marseille","lat":43.28666,"lon":5.38673,"is_reserved":false,"is_disabled":false,"rental_uris":{"android":"levelo://app?vid=3e35b4bc-7bfe-4853-8409-819dce9c67d9","ios":"levelo://app?vid=3e35b4bc-7bfe-4853-8409-819dce9c67d9"},"vehicle_type_id":"4","last_reported":1746295941,"current_range_meters":19600,"station_id":"ce4bh492rcd13ifvqdug","pricing_plan_id":"cebpf4jnsgd1na2vs0mg"},{"bike_id":"07dd1a03-81b4-44d5-93c0-c6e93a51ac14","system_id":"levelo_inurba_marseille","lat":43.29025,"lon":5.3865,"is_reserved":false,"is_disabled":false,"rental_uris":{"android":"levelo://app?vid=07dd1a03-81b4-44d5-93c0-c6e93a51ac14","ios":"levelo://app?vid=07dd1a03-81b4-44d5-93c0-c6e93a51ac14"},"vehicle_type_id":"4","last_reported":1746295941,"current_range_meters":19600,"station_id":"ce4bh4p2rcd13ifvqe0g","pricing_plan_id":"cebpf4jnsgd1na2vs0mg"},{"bike_id":"beca4a89-257e-4e66-b83c-1b7f9ac601dd","system_id":"levelo_inurba_marseille","lat":43.29415,"lon":5.38627,"is_reserved":false,"is_disabled":false,"rental_uris":{"android":"levelo://app?vid=beca4a89-257e-4e66-b83c-1b7f9ac601dd","ios":"levelo://app?vid=beca4a89-257e-4e66-b83c-1b7f9ac601dd"},"vehicle_type_id":"4","last_reported":1746295941,"current_range_meters":19200,"station_id":"ce4bh2h2rcd13ifvqdh0","pricing_plan_id":"cebpf4jnsgd1na2vs0mg"},{"bike_id":"ca3977f9-6f8c-44ac-9bd8-d716ec6d5469","system_id":"levelo_inurba_marseille","lat":43.29575,"lon":5.36736,"is_reserved":false,"is_disabled":false,"rental_uris":{"android":"levelo://app?vid=ca3977f9-6f8c-44ac-9bd8-d716ec6d5469","ios":"levelo://app?vid=ca3977f9-6f8c-44ac-9bd8-d716ec6d5469"},"vehicle_type_id":"4","last_reported":1746295941,"current_range_meters":19600,"station_id":"ce4bgph2rcd13ifvqc2g","pricing_plan_id":"cebpf4jnsgd1na2vs0mg"},{"bike_id":"2ba6dfae-75b7-48bf-8341-c33d96221e20","system_id":"levelo_inurba_marseille","lat":43.29419,"lon":5.3862,"is_reserved":false,"is_disabled":false,"rental_uris":{"android":"levelo://app?vid=2ba6dfae-75b7-48bf-8341-c33d96221e20","ios":"levelo://app?vid=2ba6dfae-75b7-48bf-8341-c33d96221e20"},"vehicle_type_id":"4","last_reported":1746295941,"current_range_meters":20000,"station_id":"ce4bh2h2rcd13ifvqdh0","pricing_plan_id":"cebpf4jnsgd1na2vs0mg"},{"bike_id":"100ec06a-0785-4bf9-b344-3a8d130fabc2","system_id":"levelo_inurba_marseille","lat":43.28399,"lon":5.35001,"is_reserved":false,"is_disabled":false,"rental_uris":{"android":"levelo://app?vid=100ec06a-0785-4bf9-b344-3a8d130fabc2","ios":"levelo://app?vid=100ec06a-0785-4bf9-b344-3a8d130fabc2"},"vehicle_type_id":"4","last_reported":1746295941,"current_range_meters":20000,"station_id":"ce4bhbh2rcd13ifvqepg","pricing_plan_id":"cebpf4jnsgd1na2vs0mg"},{"bike_id":"20fb51ca-328d-4f10-97de-2486767acc48","system_id":"levelo_inurba_marseille","lat":43.28345,"lon":5.38109,"is_reserved":false,"is_disabled":false,"rental_uris":{"android":"levelo://app?vid=20fb51ca-328d-4f10-97de-2486767acc48","ios":"levelo://app?vid=20fb51ca-328d-4f10-97de-2486767acc48"},"vehicle_type_id":"4","last_reported":1746295941,"current_range_meters":20000,"station_id":"ce4bh412rcd13ifvqdr0","pricing_plan_id":"cebpf4jnsgd1na2vs0mg"},{"bike_id":"81802c40-5cbc-4adf-aab7-df6262921cb2","system_id":"levelo_inurba_marseille","lat":43.28272,"lon":5.35054,"is_reserved":false,"is_disabled":false,"rental_uris":{"android":"levelo://app?vid=81802c40-5cbc-4adf-aab7-df6262921cb2","ios":"levelo://app?vid=81802c40-5cbc-4adf-aab7-df6262921cb2"},"vehicle_type_id":"4","last_reported":1746295941,"current_range_meters":20000,"station_id":"ce4bhbp2rcd13ifvqerg","pricing_plan_id":"cebpf4jnsgd1na2vs0mg"},{"bike_id":"ca1d7e4a-8682-4f57-9d4f-14f1da96bb9d","system_id":"levelo_inurba_marseille","lat":43.282676,"lon":5.3507,"is_reserved":false,"is_disabled":false,"rental_uris":{"android":"levelo://app?vid=ca1d7e4a-8682-4f57-9d4f-14f1da96bb9d","ios":"levelo://app?vid=ca1d7e4a-8682-4f57-9d4f-14f1da96bb9d"},"vehicle_type_id":"4","last_reported":1746295941,"current_range_meters":20400,"station_id":"ce4bhbp2rcd13ifvqerg","pricing_plan_id":"cebpf4jnsgd1na2vs0mg"},{"bike_id":"0443d941-0866-4588-bc52-058d8c0ea439","system_id":"levelo_inurba_marseille","lat":43.29579,"lon":5.36738,"is_reserved":false,"is_disabled":false,"rental_uris":{"android":"levelo://app?vid=0443d941-0866-4588-bc52-058d8c0ea439","ios":"levelo://app?vid=0443d941-0866-4588-bc52-058d8c0ea439"},"vehicle_type_id":"4","last_reported":1746295941,"current_range_meters":20400,"station_id":"ce4bgph2rcd13ifvqc2g","pricing_plan_id":"cebpf4jnsgd1na2vs0mg"},{"bike_id":"bceb0439-68e2-48cb-86fe-43dd4098ff5c","system_id":"levelo_inurba_marseille","lat":43.31754,"lon":5.39,"is_reserved":false,"is_disabled":false,"rental_uris":{"android":"levelo://app?vid=bceb0439-68e2-48cb-86fe-43dd4098ff5c","ios":"levelo://app?vid=bceb0439-68e2-48cb-86fe-43dd4098ff5c"},"vehicle_type_id":"4","last_reported":1746295941,"current_range_meters":20400,"station_id":"ce4bhqp2rcd13ifvqhng","pricing_plan_id":"cebpf4jnsgd1na2vs0mg"},{"bike_id":"3b337cd6-9e81-4189-9410-5d2825bd0693","system_id":"levelo_inurba_marseille","lat":43.25493,"lon":5.3766,"is_reserved":false,"is_disabled":false,"rental_uris":{"android":"levelo://app?vid=3b337cd6-9e81-4189-9410-5d2825bd0693","ios":"levelo://app?vid=3b337cd6-9e81-4189-9410-5d2825bd0693"},"vehicle_type_id":"4","last_reported":1746295941,"current_range_meters":20000,"station_id":"ce4bhh12rcd13ifvqff0","pricing_plan_id":"cebpf4jnsgd1na2vs0mg"},{"bike_id":"86b26b56-3573-42a8-ae99-1ff808ff1f63","system_id":"levelo_inurba_marseille","lat":43.29696,"lon":5.37376,"is_reserved":false,"is_disabled":false,"rental_uris":{"android":"levelo://app?vid=86b26b56-3573-42a8-ae99-1ff808ff1f63","ios":"levelo://app?vid=86b26b56-3573-42a8-ae99-1ff808ff1f63"},"vehicle_type_id":"4","last_reported":1746295941,"current_range_meters":21600,"station_id":"","pricing_plan_id":"cebpf4jnsgd1na2vs0mg"},{"bike_id":"07a976c9-219d-4e88-bdfa-9039612a0b5c","system_id":"levelo_inurba_marseille","lat":43.22935,"lon":5.35376,"is_reserved":false,"is_disabled":false,"rental_uris":{"android":"levelo://app?vid=07a976c9-219d-4e88-bdfa-9039612a0b5c","ios":"levelo://app?vid=07a976c9-219d-4e88-bdfa-9039612a0b5c"},"vehicle_type_id":"4","last_reported":1746295941,"current_range_meters":20400,"station_id":"cpo3532slgdg3j2ikp40","pricing_plan_id":"cebpf4jnsgd1na2vs0mg"},{"bike_id":"41885cc9-175f-443d-bcf3-b6a41841460a","system_id":"levelo_inurba_marseille","lat":43.24806,"lon":5.37448,"is_reserved":false,"is_disabled":false,"rental_uris":{"android":"levelo://app?vid=41885cc9-175f-443d-bcf3-b6a41841460a","ios":"levelo://app?vid=41885cc9-175f-443d-bcf3-b6a41841460a"},"vehicle_type_id":"4","last_reported":1746295941,"current_range_meters":20000,"station_id":"ce4bhgh2rcd13ifvqfb0","pricing_plan_id":"cebpf4jnsgd1na2vs0mg"},{"bike_id":"1dac2980-0b53-4748-b83e-28b13d877373","system_id":"levelo_inurba_marseille","lat":43.295915,"lon":5.381006,"is_reserved":false,"is_disabled":false,"rental_uris":{"android":"levelo://app?vid=1dac2980-0b53-4748-b83e-28b13d877373","ios":"levelo://app?vid=1dac2980-0b53-4748-b83e-28b13d877373"},"vehicle_type_id":"4","last_reported":1746295941,"current_range_meters":20400,"station_id":"ce4bh9p2rcd13ifvqec0","pricing_plan_id":"cebpf4jnsgd1na2vs0mg"},{"bike_id":"40397db7-8282-4960-b857-803df1a964ec","system_id":"levelo_inurba_marseille","lat":43.292637,"lon":5.384287,"is_reserved":false,"is_disabled":false,"rental_uris":{"android":"levelo://app?vid=40397db7-8282-4960-b857-803df1a964ec","ios":"levelo://app?vid=40397db7-8282-4960-b857-803df1a964ec"},"vehicle_type_id":"4","last_reported":1746295941,"current_range_meters":20400,"station_id":"ce4bgvp2rcd13ifvqct0","pricing_plan_id":"cebpf4jnsgd1na2vs0mg"},{"bike_id":"4a7bc2c0-17f8-44f1-88d4-24b8bf310707","system_id":"levelo_inurba_marseille","lat":43.24061,"lon":5.37754,"is_reserved":false,"is_disabled":false,"rental_uris":{"android":"levelo://app?vid=4a7bc2c0-17f8-44f1-88d4-24b8bf310707","ios":"levelo://app?vid=4a7bc2c0-17f8-44f1-88d4-24b8bf310707"},"vehicle_type_id":"4","last_reported":1746295941,"current_range_meters":20800,"station_id":"ce4bhnp2rcd13ifvqgvg","pricing_plan_id":"cebpf4jnsgd1na2vs0mg"},{"bike_id":"9e3816d2-c631-4119-bb64-cc680fbf7a93","system_id":"levelo_inurba_marseille","lat":43.24647,"lon":5.38892,"is_reserved":false,"is_disabled":false,"rental_uris":{"android":"levelo://app?vid=9e3816d2-c631-4119-bb64-cc680fbf7a93","ios":"levelo://app?vid=9e3816d2-c631-4119-bb64-cc680fbf7a93"},"vehicle_type_id":"4","last_reported":1746295941,"current_range_meters":20400,"station_id":"ce4bhg12rcd13ifvqf60","pricing_plan_id":"cebpf4jnsgd1na2vs0mg"},{"bike_id":"704d7e8b-5b8a-4b15-85c4-3bbf33e43ee7","system_id":"levelo_inurba_marseille","lat":43.29516,"lon":5.37509,"is_reserved":false,"is_disabled":false,"rental_uris":{"android":"levelo://app?vid=704d7e8b-5b8a-4b15-85c4-3bbf33e43ee7","ios":"levelo://app?vid=704d7e8b-5b8a-4b15-85c4-3bbf33e43ee7"},"vehicle_type_id":"4","last_reported":1746295941,"current_range_meters":20400,"station_id":"ce4bgkp2rcd13ifvqbmg","pricing_plan_id":"cebpf4jnsgd1na2vs0mg"},{"bike_id":"b701cc4d-91a9-431b-a7ba-c2617a52e0e1","system_id":"levelo_inurba_marseille","lat":43.29029,"lon":5.39968,"is_reserved":false,"is_disabled":false,"rental_uris":{"android":"levelo://app?vid=b701cc4d-91a9-431b-a7ba-c2617a52e0e1","ios":"levelo://app?vid=b701cc4d-91a9-431b-a7ba-c2617a52e0e1"},"vehicle_type_id":"4","last_reported":1746295941,"current_range_meters":20800,"station_id":"ce4bh392rcd13ifvqdm0","pricing_plan_id":"cebpf4jnsgd1na2vs0mg"},{"bike_id":"289e3659-3d01-495a-b937-91a2fd013081","system_id":"levelo_inurba_marseille","lat":43.29288,"lon":5.37458,"is_reserved":false,"is_disabled":false,"rental_uris":{"android":"levelo://app?vid=289e3659-3d01-495a-b937-91a2fd013081","ios":"levelo://app?vid=289e3659-3d01-495a-b937-91a2fd013081"},"vehicle_type_id":"4","last_reported":1746295941,"current_range_meters":20800,"station_id":"ce4bgi12rcd13ifvqb70","pricing_plan_id":"cebpf4jnsgd1na2vs0mg"},{"bike_id":"60f5ceae-8867-4dc4-a82d-467f94dc0b42","system_id":"levelo_inurba_marseille","lat":43.24999,"lon":5.38926,"is_reserved":false,"is_disabled":false,"rental_uris":{"android":"levelo://app?vid=60f5ceae-8867-4dc4-a82d-467f94dc0b42","ios":"levelo://app?vid=60f5ceae-8867-4dc4-a82d-467f94dc0b42"},"vehicle_type_id":"4","last_reported":1746295941,"current_range_meters":21600,"station_id":"ce4bhgp2rcd13ifvqfd0","pricing_plan_id":"cebpf4jnsgd1na2vs0mg"},{"bike_id":"0abe7365-362a-4c2d-949a-e32faf9d4099","system_id":"levelo_inurba_marseille","lat":43.21194,"lon":5.35091,"is_reserved":false,"is_disabled":true,"rental_uris":{"android":"levelo://app?vid=0abe7365-362a-4c2d-949a-e32faf9d4099","ios":"levelo://app?vid=0abe7365-362a-4c2d-949a-e32faf9d4099"},"vehicle_type_id":"4","last_reported":1746295941,"current_range_meters":21600,"station_id":"st_cvj6sg6p6f1abm77japg","pricing_plan_id":"cebpf4jnsgd1na2vs0mg"},{"bike_id":"e45306f4-591f-404d-913f-7e97a261b0d2","system_id":"levelo_inurba_marseille","lat":43.24082,"lon":5.37749,"is_reserved":false,"is_disabled":false,"rental_uris":{"android":"levelo://app?vid=e45306f4-591f-404d-913f-7e97a261b0d2","ios":"levelo://app?vid=e45306f4-591f-404d-913f-7e97a261b0d2"},