{"last_updated":1739276280,"ttl":60,"version":"2.2","data":{"bikes":[{"bike_id":"5cda301b-bce8-41d3-abea-2e981f99524e","system_id":"levelo_inurba_marseille","lat":43.29859,"lon":5.36296,"is_reserved":false,"is_disabled":false,"rental_uris":{"android":"levelo://app?vid=5cda301b-bce8-41d3-abea-2e981f99524e","ios":"levelo://app?vid=5cda301b-bce8-41d3-abea-2e981f99524e"},"vehicle_type_id":"4","last_reported":1739276281,"current_range_meters":25600,"station_id":"ce4bgpp2rcd13ifvqc3g","pricing_plan_id":"cebpf4jnsgd1na2vs0mg"},{"bike_id":"ed0c199f-abba-439e-b715-1c9807cf5d52","system_id":"levelo_inurba_marseille","lat":43.2987,"lon":5.39737,"is_reserved":false,"is_disabled":false,"rental_uris":{"android":"levelo://app?vid=ed0c199f-abba-439e-b715-1c9807cf5d52","ios":"levelo://app?vid=ed0c199f-abba-439e-b715-1c9807cf5d52"},"vehicle_type_id":"4","last_reported":1739276281,"current_range_meters":19200,"station_id":"ce4bh0h2rcd13ifvqd50","pricing_plan_id":"cebpf4jnsgd1na2vs0mg"},{"bike_id":"9d866449-644d-4990-b79a-792d50872bfd","system_id":"levelo_inurba_marseille","lat":43.31234,"lon":5.36858,"is_reserved":false,"is_disabled":false,"rental_uris":{"android":"levelo://app?vid=9d866449-644d-4990-b79a-792d50872bfd","ios":"levelo://app?vid=9d866449-644d-4990-b79a-792d50872bfd"},"vehicle_type_id":"4","last_reported":1739276281,"current_range_meters":27200,"station_id":"ce4bgl92rcd13ifvqbq0","pricing_plan_id":"cebpf4jnsgd1na2vs0mg"},{"bike_id":"bf0f6929-284e-4dd3-a327-d426f968dbf9","system_id":"levelo_inurba_marseille","lat":43.29601,"lon":5.37729,"is_reserved":false,"is_disabled":false,"rental_uris":{"android":"levelo://app?vid=bf0f6929-284e-4dd3-a327-d426f968dbf9","ios":"levelo://app?vid=bf0f6929-284e-4dd3-a327-d426f968dbf9"},"vehicle_type_id":"4","last_reported":1739276281,"current_range_meters":28400,"station_id":"ce4bgi92rcd13ifvqb90","pricing_plan_id":"cebpf4jnsgd1na2vs0mg"},{"bike_id":"b068362a-3288-489d-9388-78d1aec4149d","system_id":"levelo_inurba_marseille","lat":43.26592,"lon":5.39068,"is_reserved":false,"is_disabled":false,"rental_uris":{"android":"levelo://app?vid=b068362a-3288-489d-9388-78d1aec4149d","ios":"levelo://app?vid=b068362a-3288-489d-9388-78d1aec4149d"},"vehicle_type_id":"4","last_reported":1739276281,"current_range_meters":36800,"station_id":"ce4bhe12rcd13ifvqf30","pricing_plan_id":"cebpf4jnsgd1na2vs0mg"},{"bike_id":"303c204d-dbda-4820-96ef-c8aeee180d2d","system_id":"levelo_inurba_marseille","lat":43.30899,"lon":5.39654,"is_reserved":false,"is_disabled":false,"rental_uris":{"android":"levelo://app?vid=303c204d-dbda-4820-96ef-c8aeee180d2d","ios":"levelo://app?vid=303c204d-dbda-4820-96ef-c8aeee180d2d"},"vehicle_type_id":"4","last_reported":1739276281,"current_range_meters":38800,"station_id":"ce4bh012rcd13ifvqcv0","pricing_plan_id":"cebpf4jnsgd1na2vs0mg"},{"bike_id":"2a4f5c13-a253-4408-af8c-2739dca097fb","system_id":"levelo_inurba_marseille","lat":43.29263,"lon":5.38434,"is_reserved":false,"is_disabled":false,"rental_uris":{"android":"levelo://app?vid=2a4f5c13-a253-4408-af8c-2739dca097fb","ios":"levelo://app?vid=2a4f5c13-a253-4408-af8c-2739dca097fb"},"vehicle_type_id":"4","last_reported":1739276281,"current_range_meters":24400,"station_id":"ce4bh692rcd13ifvqea0","pricing_plan_id":"cebpf4jnsgd1na2vs0mg"},{"bike_id":"354a81dd-277c-41a6-942c-6a3905f6b182","system_id":"levelo_inurba_marseille","lat":43.29262,"lon":5.38445,"is_reserved":false,"is_disabled":false,"rental_uris":{"android":"levelo://app?vid=354a81dd-277c-41a6-942c-6a3905f6b182","ios":"levelo://app?vid=354a81dd-277c-41a6-942c-6a3905f6b182"},"vehicle_type_id":"4","last_reported":1739276281,"current_range_meters":22000,"station_id":"ce4bh692rcd13ifvqea0","pricing_plan_id":"cebpf4jnsgd1na2vs0mg"},{"bike_id":"6e58d150-6259-4777-898d-71562088ea5a","system_id":"levelo_inurba_marseille","lat":43.26526,"lon":5.39618,"is_reserved":false,"is_disabled":false,"rental_uris":{"android":"levelo://app?vid=6e58d150-6259-4777-898d-71562088ea5a","ios":"levelo://app?vid=6e58d150-6259-4777-898d-71562088ea5a"},"vehicle_type_id":"4","last_reported":1739276281,"current_range_meters":24000,"station_id":"ce4bhi12rcd13ifvqfq0","pricing_plan_id":"cebpf4jnsgd1na2vs0mg"},{"bike_id":"9efc1b0e-4b57-4037-939b-26261a3d20f8","system_id":"levelo_inurba_marseille","lat":43.29564,"lon":5.37519,"is_reserved":false,"is_disabled":true,"rental_uris":{"android":"levelo://app?vid=9efc1b0e-4b57-4037-939b-26261a3d20f8","ios":"levelo://app?vid=9efc1b0e-4b57-4037-939b-26261a3d20f8"},"vehicle_type_id":"4","last_reported":1739276281,"current_range_meters":28400,"station_id":"ce4bgh92rcd13ifvqb50","pricing_plan_id":"cebpf4jnsgd1na2vs0mg"},{"bike_id":"6ad12fed-a7c3-4ded-a0c5-213958e34b8e","system_id":"levelo_inurba_marseille","lat":43.3253,"lon":5.36551,"is_reserved":false,"is_disabled":false,"rental_uris":{"android":"levelo://app?vid=6ad12fed-a7c3-4ded-a0c5-213958e34b8e","ios":"levelo://app?vid=6ad12fed-a7c3-4ded-a0c5-213958e34b8e"},"vehicle_type_id":"4","last_reported":1739276281,"current_range_meters":39200,"station_id":"ce4bhs12rcd13ifvqhvg","pricing_plan_id":"cebpf4jnsgd1na2vs0mg"},{"bike_id":"536db300-cc9f-4f82-82fe-af394203f6f4","system_id":"levelo_inurba_marseille","lat":43.24389,"lon":5.37057,"is_reserved":false,"is_disabled":false,"rental_uris":{"android":"levelo://app?vid=536db300-cc9f-4f82-82fe-af394203f6f4","ios":"levelo://app?vid=536db300-cc9f-4f82-82fe-af394203f6f4"},"vehicle_type_id":"4","last_reported":1739276281,"current_range_meters":33200,"station_id":"ce4bhhh2rcd13ifvqfk0","pricing_plan_id":"cebpf4jnsgd1na2vs0mg"},{"bike_id":"070ded19-db45-4133-9e69-a50aacceab14","system_id":"levelo_inurba_marseille","lat":43.26805,"lon":5.40251,"is_reserved":false,"is_disabled":false,"rental_uris":{"android":"levelo://app?vid=070ded19-db45-4133-9e69-a50aacceab14","ios":"levelo://app?vid=070ded19-db45-4133-9e69-a50aacceab14"},"vehicle_type_id":"4","last_reported":1739276281,"current_range_meters":38800,"station_id":"ce501612rcd8frsf0b60","pricing_plan_id":"cebpf4jnsgd1na2vs0mg"},{"bike_id":"f759837a-69cc-4770-96c2-faf60f712aca","system_id":"levelo_inurba_marseille","lat":43.30537,"lon":5.36529,"is_reserved":false,"is_disabled":false,"rental_uris":{"android":"levelo://app?vid=f759837a-69cc-4770-96c2-faf60f712aca","ios":"levelo://app?vid=f759837a-69cc-4770-96c2-faf60f712aca"},"vehicle_type_id":"4","last_reported":1739276281,"current_range_meters":11200,"station_id":"ce4bgs12rcd13ifvqcag","pricing_plan_id":"cebpf4jnsgd1na2vs0mg"},{"bike_id":"9cebbfac-f2bd-4a25-81be-e499c5a5f4c8","system_id":"levelo_inurba_marseille","lat":43.30283,"lon":5.37718,"is_reserved":false,"is_disabled":false,"rental_uris":{"android":"levelo://app?vid=9cebbfac-f2bd-4a25-81be-e499c5a5f4c8","ios":"levelo://app?vid=9cebbfac-f2bd-4a25-81be-e499c5a5f4c8"},"vehicle_type_id":"4","last_reported":1739276281,"current_range_meters":38800,"station_id":"ce4bguh2rcd13ifvqcj0","pricing_plan_id":"cebpf4jnsgd1na2vs0mg"},{"bike_id":"0497d784-c056-45f5-a997-c997e3fb1a75","system_id":"levelo_inurba_marseille","lat":43.31715,"lon":5.40472,"is_reserved":false,"is_disabled":true,"rental_uris":{"android":"levelo://app?vid=0497d784-c056-45f5-a997-c997e3fb1a75","ios":"levelo://app?vid=0497d784-c056-45f5-a997-c997e3fb1a75"},"vehicle_type_id":"4","last_reported":1739276281,"current_range_meters":38800,"station_id":"ce4bh012rcd13ifvqd00","pricing_plan_id":"cebpf4jnsgd1na2vs0mg"},{"bike_id":"9e4564f0-0519-46c9-beea-73f529a3ce6a","system_id":"levelo_inurba_marseille","lat":43.24812,"lon":5.37457,"is_reserved":false,"is_disabled":false,"rental_uris":{"android":"levelo://app?vid=9e4564f0-0519-46c9-beea-73f529a3ce6a","ios":"levelo://app?vid=9e4564f0-0519-46c9-beea-73f529a3ce6a"},"vehicle_type_id":"4","last_reported":1739276281,"current_range_meters":32800,"station_id":"ce4bhgh2rcd13ifvqfb0","pricing_plan_id":"cebpf4jnsgd1na2vs0mg"},{"bike_id":"46e433ac-b519-4d59-9231-189aeeb0c3a5","system_id":"levelo_inurba_marseille","lat":43.30621,"lon":5.37227,"is_reserved":false,"is_disabled":false,"rental_uris":{"android":"levelo://app?vid=46e433ac-b519-4d59-9231-189aeeb0c3a5","ios":"levelo://app?vid=46e433ac-b519-4d59-9231-189aeeb0c3a5"},"vehicle_type_id":"4","last_reported":1739276281,"current_range_meters":38400,"station_id":"ce4bgqh2rcd13ifvqc4g","pricing_plan_id":"cebpf4jnsgd1na2vs0mg"},{"bike_id":"a94d2018-f678-4713-bf2d-5da0b28f3e59","system_id":"levelo_inurba_marseille","lat":43.29776,"lon":5.37131,"is_reserved":false,"is_disabled":false,"rental_uris":{"android":"levelo://app?vid=a94d2018-f678-4713-bf2d-5da0b28f3e59","ios":"levelo://app?vid=a94d2018-f678-4713-bf2d-5da0b28f3e59"},"vehicle_type_id":"4","last_reported":1739276281,"current_range_meters":37600,"station_id":"ce4bgop2rcd13ifvqc1g","pricing_plan_id":"cebpf4jnsgd1na2vs0mg"},{"bike_id":"6e1261de-61ca-45f3-8263-50cd9c374486","system_id":"levelo_inurba_marseille","lat":43.29645,"lon":5.37687,"is_reserved":false,"is_disabled":false,"rental_uris":{"android":"levelo://app?vid=6e1261de-61ca-45f3-8263-50cd9c374486","ios":"levelo://app?vid=6e1261de-61ca-45f3-8263-50cd9c374486"},"vehicle_type_id":"4","last_reported":1739276281,"current_range_meters":36400,"station_id":"ce4bgi92rcd13ifvqb90","pricing_plan_id":"cebpf4jnsgd1na2vs0mg"},{"bike_id":"3df3041b-27b7-4def-8d60-99d6191bfdce","system_id":"levelo_inurba_marseille","lat":43.27496,"lon":5.42436,"is_reserved":false,"is_disabled":false,"rental_uris":{"android":"levelo://app?vid=3df3041b-27b7-4def-8d60-99d6191bfdce","ios":"levelo://app?vid=3df3041b-27b7-4def-8d60-99d6191bfdce"},"vehicle_type_id":"4","last_reported":1739276281,"current_range_meters":39200,"station_id":"ce4bhn92rcd13ifvqgrg","pricing_plan_id":"cebpf4jnsgd1na2vs0mg"},{"bike_id":"e1b7c5bc-ba1c-42b9-a842-0b329d2cd64c","system_id":"levelo_inurba_marseille","lat":43.29032,"lon":5.43256,"is_reserved":false,"is_disabled":false,"rental_uris":{"android":"levelo://app?vid=e1b7c5bc-ba1c-42b9-a842-0b329d2cd64c","ios":"levelo://app?vid=e1b7c5bc-ba1c-42b9-a842-0b329d2cd64c"},"vehicle_type_id":"4","last_reported":1739276281,"current_range_meters":32400,"station_id":"","pricing_plan_id":"cebpf4jnsgd1na2vs0mg"},{"bike_id":"8258c8e4-7775-45b7-a1f1-6659658d08a6","system_id":"levelo_inurba_marseille","lat":43.26562,"lon":5.37296,"is_reserved":false,"is_disabled":false,"rental_uris":{"android":"levelo://app?vid=8258c8e4-7775-45b7-a1f1-6659658d08a6","ios":"levelo://app?vid=8258c8e4-7775-45b7-a1f1-6659658d08a6"},"vehicle_type_id":"4","last_reported":1739276281,"current_range_meters":5600,"station_id":"ce4bhg12rcd13ifvqf70","pricing_plan_id":"cebpf4jnsgd1na2vs0mg"},{"bike_id":"03e763eb-2ea5-4191-8380-138ad06f19b1","system_id":"levelo_inurba_marseille","lat":43.32467,"lon":5.36561,"is_reserved":false,"is_disabled":false,"rental_uris":{"android":"levelo://app?vid=03e763eb-2ea5-4191-8380-138ad06f19b1","ios":"levelo://app?vid=03e763eb-2ea5-4191-8380-138ad06f19b1"},"vehicle_type_id":"4","last_reported":1739276281,"current_range_meters":30400,"station_id":"ce4bhs12rcd13ifvqhvg","pricing_plan_id":"cebpf4jnsgd1na2vs0mg"},{"bike_id":"70e23d1d-e819-42a3-ab50-7b16e850cab4","system_id":"levelo_inurba_marseille","lat":43.29567,"lon":5.37499,"is_reserved":false,"is_disabled":false,"rental_uris":{"android":"levelo://app?vid=70e23d1d-e819-42a3-ab50-7b16e850cab4","ios":"levelo://app?vid=70e23d1d-e819-42a3-ab50-7b16e850cab4"},"vehicle_type_id":"4","last_reported":1739276281,"current_range_meters":32800,"station_id":"ce4bgh92rcd13ifvqb50","pricing_plan_id":"cebpf4jnsgd1na2vs0mg"},{"bike_id":"39e55a90-fe76-4904-bf9c-9841fe168f13","system_id":"levelo_inurba_marseille","lat":43.3372,"lon":5.39206,"is_reserved":false,"is_disabled":false,"rental_uris":{"android":"levelo://app?vid=39e55a90-fe76-4904-bf9c-9841fe168f13","ios":"levelo://app?vid=39e55a90-fe76-4904-bf9c-9841fe168f13"},"vehicle_type_id":"4","last_reported":1739276281,"current_range_meters":38000,"station_id":"ce4bhr92rcd13ifvqhsg","pricing_plan_id":"cebpf4jnsgd1na2vs0mg"},{"bike_id":"f798cbc4-a869-471f-bce8-f64397eebe81","system_id":"levelo_inurba_marseille","lat":43.23971,"lon":5.36621,"is_reserved":false,"is_disabled":false,"rental_uris":{"android":"levelo://app?vid=f798cbc4-a869-471f-bce8-f64397eebe81","ios":"levelo://app?vid=f798cbc4-a869-471f-bce8-f64397eebe81"},"vehicle_type_id":"4","last_reported":1739276281,"current_range_meters":22400,"station_id":"ce4bhi12rcd13ifvqfp0","pricing_plan_id":"cebpf4jnsgd1na2vs0mg"},{"bike_id":"54e74514-9d57-4ad2-918e-243453ce2a24","system_id":"levelo_inurba_marseille","lat":43.3047,"lon":5.37907,"is_reserved":false,"is_disabled":false,"rental_uris":{"android":"levelo://app?vid=54e74514-9d57-4ad2-918e-243453ce2a24","ios":"levelo://app?vid=54e74514-9d57-4ad2-918e-243453ce2a24"},"vehicle_type_id":"4","last_reported":1739276281,"current_range_meters":17600,"station_id":"ce4bgup2rcd13ifvqcn0","pricing_plan_id":"cebpf4jnsgd1na2vs0mg"},{"bike_id":"30e15755-4421-4ffd-b252-ccac53c81cda","system_id":"levelo_inurba_marseille","lat":43.27895,"lon":5.38005,"is_reserved":false,"is_disabled":false,"rental_uris":{"android":"levelo://app?vid=30e15755-4421-4ffd-b252-ccac53c81cda","ios":"levelo://app?vid=30e15755-4421-4ffd-b252-ccac53c81cda"},"vehicle_type_id":"4","last_reported":1739276281,"current_range_meters":30800,"station_id":"ce4bhf92rcd13ifvqf50","pricing_plan_id":"cebpf4jnsgd1na2vs0mg"},{"bike_id":"63f9bfcc-6569-4bb0-a5aa-3ff1d8affe7d","system_id":"levelo_inurba_marseille","lat":43.30607,"lon":5.37217,"is_reserved":false,"is_disabled":false,"rental_uris":{"android":"levelo://app?vid=63f9bfcc-6569-4bb0-a5aa-3ff1d8affe7d","ios":"levelo://app?vid=63f9bfcc-6569-4bb0-a5aa-3ff1d8affe7d"},"vehicle_type_id":"4","last_reported":1739276281,"current_range_meters":38800,"station_id":"ce4bgqh2rcd13ifvqc4g","pricing_plan_id":"cebpf4jnsgd1na2vs0mg"},{"bike_id":"8391dea8-bb5b-46de-9e2b-17496b0ac7ab","system_id":"levelo_inurba_marseille","lat":43.30593,"lon":5.39351,"is_reserved":false,"is_disabled":false,"rental_uris":{"android":"levelo://app?vid=8391dea8-bb5b-46de-9e2b-17496b0ac7ab","ios":"levelo://app?vid=8391dea8-bb5b-46de-9e2b-17496b0ac7ab"},"vehicle_type_id":"4","last_reported":1739276281,"current_range_meters":3200,"station_id":"ce4bh0p2rcd13ifvqd80","pricing_plan_id":"cebpf4jnsgd1na2vs0mg"},{"bike_id":"bf8cd02e-ccdc-4523-894a-3fce83d782e3","system_id":"levelo_inurba_marseille","lat":43.33747,"lon":5.39178,"is_reserved":false,"is_disabled":false,"rental_uris":{"android":"levelo://app?vid=bf8cd02e-ccdc-4523-894a-3fce83d782e3","ios":"levelo://app?vid=bf8cd02e-ccdc-4523-894a-3fce83d782e3"},"vehicle_type_id":"4","last_reported":1739276281,"current_range_meters":38800,"station_id":"ce4bhr92rcd13ifvqhsg","pricing_plan_id":"cebpf4jnsgd1na2vs0mg"},{"bike_id":"44250f9a-32b8-422c-ac24-5176fa2a88b0","system_id":"levelo_inurba_marseille","lat":43.29358,"lon":5.37867,"is_reserved":false,"is_disabled":false,"rental_uris":{"android":"levelo://app?vid=44250f9a-32b8-422c-ac24-5176fa2a88b0","ios":"levelo://app?vid=44250f9a-32b8-422c-ac24-5176fa2a88b0"},"vehicle_type_id":"4","last_reported":1739276281,"current_range_meters":32400,"station_id":"","pricing_plan_id":"cebpf4jnsgd1na2vs0mg"},{"bike_id":"7d0c7731-5d11-4159-9f7f-b49d4cd6d12a","system_id":"levelo_inurba_marseille","lat":43.29009,"lon":5.35609,"is_reserved":false,"is_disabled":false,"rental_uris":{"android":"levelo://app?vid=7d0c7731-5d11-4159-9f7f-b49d4cd6d12a","ios":"levelo://app?vid=7d0c7731-5d11-4159-9f7f-b49d4cd6d12a"},"vehicle_type_id":"4","last_reported":1739276281,"current_range_meters":38800,"station_id":"ce4bhb92rcd13ifvqen0","pricing_plan_id":"cebpf4jnsgd1na2vs0mg"},{"bike_id":"2de2f146-f7f7-4372-bf86-bd7c99aeb810","system_id":"levelo_inurba_marseille","lat":43.30323,"lon":5.36873,"is_reserved":false,"is_disabled":false,"rental_uris":{"android":"levelo://app?vid=2de2f146-f7f7-4372-bf86-bd7c99aeb810","ios":"levelo://app?vid=2de2f146-f7f7-4372-bf86-bd7c99aeb810"},"vehicle_type_id":"4","last_reported":1739276281,"current_range_meters":17600,"station_id":"ce4bgqh2rcd13ifvqc5g","pricing_plan_id":"cebpf4jnsgd1na2vs0mg"},{"bike_id":"7363b34c-f4e3-4a4d-a370-ef3739411451","system_id":"levelo_inurba_marseille","lat":43.2683,"lon":5.40213,"is_reserved":false,"is_disabled":false,"rental_uris":{"android":"levelo://app?vid=7363b34c-f4e3-4a4d-a370-ef3739411451","ios":"levelo://app?vid=7363b34c-f4e3-4a4d-a370-ef3739411451"},"vehicle_type_id":"4","last_reported":1739276281,"current_range_meters":14800,"station_id":"ce501612rcd8frsf0b60","pricing_plan_id":"cebpf4jnsgd1na2vs0mg"},{"bike_id":"c179f179-1614-4d6a-9586-627695823c73","system_id":"levelo_inurba_marseille","lat":43.26813,"lon":5.40251,"is_reserved":false,"is_disabled":false,"rental_uris":{"android":"levelo://app?vid=c179f179-1614-4d6a-9586-627695823c73","ios":"levelo://app?vid=c179f179-1614-4d6a-9586-627695823c73"},"vehicle_type_id":"4","last_reported":1739276281,"current_range_meters":30000,"station_id":"ce501612rcd8frsf0b60","pricing_plan_id":"cebpf4jnsgd1na2vs0mg"},{"bike_id":"c573048d-b0bb-4a11-b456-07d3f804372d","system_id":"levelo_inurba_marseille","lat":43.288377,"lon":5.393543,"is_reserved":false,"is_disabled":false,"rental_uris":{"android":"levelo://app?vid=c573048d-b0bb-4a11-b456-07d3f804372d","ios":"levelo://app?vid=c573048d-b0bb-4a11-b456-07d3f804372d"},"vehicle_type_id":"4","last_reported":1739276281,"current_range_meters":34000,"station_id":"ce4bh2p2rcd13ifvqdi0","pricing_plan_id":"cebpf4jnsgd1na2vs0mg"},{"bike_id":"542c162a-2c01-4221-88ba-bc0cf2c81047","system_id":"levelo_inurba_marseille","lat":43.268133,"lon":5.402539,"is_reserved":false,"is_disabled":false,"rental_uris":{"android":"levelo://app?vid=542c162a-2c01-4221-88ba-bc0cf2c81047","ios":"levelo://app?vid=542c162a-2c01-4221-88ba-bc0cf2c81047"},"vehicle_type_id":"4","last_reported":1739276281,"current_range_meters":38800,"station_id":"ce501612rcd8frsf0b60","pricing_plan_id":"cebpf4jnsgd1na2vs0mg"},{"bike_id":"61c9bb3e-746c-4070-86dd-a2142a790c66","system_id":"levelo_inurba_marseille","lat":43.2842,"lon":5.34979,"is_reserved":false,"is_disabled":true,"rental_uris":{"android":"levelo://app?vid=61c9bb3e-746c-4070-86dd-a2142a790c66","ios":"levelo://app?vid=61c9bb3e-746c-4070-86dd-a2142a790c66"},"vehicle_type_id":"4","last_reported":1739276281,"current_range_meters":24800,"station_id":"ce4bhbh2rcd13ifvqepg","pricing_plan_id":"cebpf4jnsgd1na2vs0mg"},{"bike_id":"0c746e22-12a5-4c98-a3a8-c5c44c38337d","system_id":"levelo_inurba_marseille","lat":43.25104,"lon":5.40324,"is_reserved":false,"is_disabled":false,"rental_uris":{"android":"levelo://app?vid=0c746e22-12a5-4c98-a3a8-c5c44c38337d","ios":"levelo://app?vid=0c746e22-12a5-4c98-a3a8-c5c44c38337d"},"vehicle_type_id":"4","last_reported":1739276281,"current_range_meters":19600,"station_id":"ce4bhlh2rcd13ifvqgig","pricing_plan_id":"cebpf4jnsgd1na2vs0mg"},{"bike_id":"0731cf5b-1ce8-4039-a9ec-7721b1ddc098","system_id":"levelo_inurba_marseille","lat":43.30918,"lon":5.40149,"is_reserved":false,"is_disabled":false,"rental_uris":{"android":"levelo://app?vid=0731cf5b-1ce8-4039-a9ec-7721b1ddc098","ios":"levelo://app?vid=0731cf5b-1ce8-4039-a9ec-7721b1ddc098"},"vehicle_type_id":"4","last_reported":1739276281,"current_range_meters":38800,"station_id":"ce4bgvp2rcd13ifvqct0","pricing_plan_id":"cebpf4jnsgd1na2vs0mg"},{"bike_id":"16925759-8ba0-4dd3-9ad2-27f6220f2a1d","system_id":"levelo_inurba_marseille","lat":43.33966,"lon":5.37343,"is_reserved":false,"is_disabled":false,"rental_uris":{"android":"levelo://app?vid=16925759-8ba0-4dd3-9ad2-27f6220f2a1d","ios":"levelo://app?vid=16925759-8ba0-4dd3-9ad2-27f6220f2a1d"},"vehicle_type_id":"4","last_reported":1739276281,"current_range_meters":34000,"station_id":"","pricing_plan_id":"cebpf4jnsgd1na2vs0mg"},{"bike_id":"9836b973-7234-4581-b5b7-19d8b751167e","system_id":"levelo_inurba_marseille","lat":43.24171,"lon":5.39739,"is_reserved":false,"is_disabled":false,"rental_uris":{"android":"levelo://app?vid=9836b973-7234-4581-b5b7-19d8b751167e","ios":"levelo://app?vid=9836b973-7234-4581-b5b7-19d8b751167e"},"vehicle_type_id":"4","last_reported":1739276281,"current_range_meters":38400,"station_id":"ce4bhn12rcd13ifvqgpg","pricing_plan_id":"cebpf4jnsgd1na2vs0mg"},{"bike_id":"e813c67f-7fb3-475f-9039-409264ae250a","system_id":"levelo_inurba_marseille","lat":43.28942,"lon":5.39634,"is_reserved":false,"is_disabled":false,"rental_uris":{"android":"levelo://app?vid=e813c67f-7fb3-475f-9039-409264ae250a","ios":"levelo://app?vid=e813c67f-7fb3-475f-9039-409264ae250a"},"vehicle_type_id":"4","last_reported":1739276281,"current_range_meters":30400,"station_id":"ce4bh3h2rcd13ifvqdn0","pricing_plan_id":"cebpf4jnsgd1na2vs0mg"},{"bike_id":"1add35ea-4fc7-486b-99a6-cfb5eca5d89c","system_id":"levelo_inurba_marseille","lat":43.30211,"lon":5.39472,"is_reserved":false,"is_disabled":false,"rental_uris":{"android":"levelo://app?vid=1add35ea-4fc7-486b-99a6-cfb5eca5d89c","ios":"levelo://app?vid=1add35ea-4fc7-486b-99a6-cfb5eca5d89c"},"vehicle_type_id":"4","last_reported":1739276281,"current_range_meters":33200,"station_id":"ce4bh0p2rcd13ifvqd70","pricing_plan_id":"cebpf4jnsgd1na2vs0mg"},{"bike_id":"82d07d61-3a0e-48f1-afd3-ceffdad3e8b0","system_id":"levelo_inurba_marseille","lat":43.29035,"lon":5.35918,"is_reserved":false,"is_disabled":false,"rental_uris":{"android":"levelo://app?vid=82d07d61-3a0e-48f1-afd3-ceffdad3e8b0","ios":"levelo://app?vid=82d07d61-3a0e-48f1-afd3-ceffdad3e8b0"},"vehicle_type_id":"4","last_reported":1739276281,"current_range_meters":37600,"station_id":"ce4bha92rcd13ifvqeg0","pricing_plan_id":"cebpf4jnsgd1na2vs0mg"},{"bike_id":"61c74845-33f6-4eda-89fa-862dac9c0120","system_id":"levelo_inurba_marseille","lat":43.25113,"lon":5.40321,"is_reserved":false,"is_disabled":false,"rental_uris":{"android":"levelo://app?vid=61c74845-33f6-4eda-89fa-862dac9c0120","ios":"levelo://app?vid=61c74845-33f6-4eda-89fa-862dac9c0120"},"vehicle_type_id":"4","last_reported":1739276281,"current_range_meters":35200,"station_id":"ce4bhlh2rcd13ifvqgig","pricing_plan_id":"cebpf4jnsgd1na2vs0mg"},{"bike_id":"8d9024d1-e65d-448c-be5d-fcc051bd95bc","system_id":"levelo_inurba_marseille","lat":43.301283,"lon":5.387844,"is_reserved":false,"is_disabled":false,"rental_uris":{"android":"levelo://app?vid=8d9024d1-e65d-448c-be5d-fcc051bd95bc","ios":"levelo://app?vid=8d9024d1-e65d-448c-be5d-fcc051bd95bc"},"vehicle_type_id":"4","last_reported":1739276281,"current_range_meters":34800,"station_id":"ce4bghh2rcd13ifvqb60","pricing_plan_id":"cebpf4jnsgd1na2vs0mg"},{"bike_id":"6e1b6112-cd26-421f-b157-6ac716f542d7","system_id":"levelo_inurba_marseille","lat":43.27172,"lon":5.41004,"is_reserved":false,"is_disabled":false,"rental_uris":{"android":"levelo://app?vid=6e1b6112-cd26-421f-b157-6ac716f542d7","ios":"levelo://app?vid=6e1b6112-cd26-421f-b157-6ac716f542d7"},"vehicle_type_id":"4","last_reported":1739276281,"current_range_meters":34000,"station_id":"ce4bhl12rcd13ifvqgf0","pricing_plan_id":"cebpf4jnsgd1na2vs0mg"},{"bike_id":"e169a236-33c1-4557-8a4d-0eca73ad1806","system_id":"levelo_inurba_marseille","lat":43.27998,"lon":5.40016,"is_reserved":false,"is_disabled":false,"rental_uris":{"android":"levelo://app?vid=e169a236-33c1-4557-8a4d-0eca73ad1806","ios":"levelo://app?vid=e169a236-33c1-4557-8a4d-0eca73ad1806"},"vehicle_type_id":"4","last_reported":1739276281,"current_range_meters":26800,"station_id":"ce4bho92rcd13ifvqh4g","pricing_plan_id":"cebpf4jnsgd1na2vs0mg"},{"bike_id":"b41d8475-1b61-4022-b648-2777adae10ea","system_id":"levelo_inurba_marseille","lat":43.241717,"lon":5.363909,"is_reserved":false,"is_disabled":false,"rental_uris":{"android":"levelo://app?vid=b41d8475-1b61-4022-b648-2777adae10ea","ios":"levelo://app?vid=b41d8475-1b61-4022-b648-2777adae10ea"},"vehicle_type_id":"4","last_reported":1739276281,"current_range_meters":26000,"station_id":"cpo36qri1sfpv3e86is0","pricing_plan_id":"cebpf4jnsgd1na2vs0mg"},{"bike_id":"f96d9290-7566-4c01-a4f3-765d931e8a38","system_id":"levelo_inurba_marseille","lat":43.29775,"lon":5.3813,"is_reserved":false,"is_disabled":false,"rental_uris":{"android":"levelo://app?vid=f96d9290-7566-4c01-a4f3-765d931e8a38","ios":"levelo://app?vid=f96d9290-7566-4c01-a4f3-765d931e8a38"},"vehicle_type_id":"4","last_reported":1739276281,"current_range_meters":28800,"station_id":"ce4bgip2rcd13ifvqbb0","pricing_plan_id":"cebpf4jnsgd1na2vs0mg"},{"bike_id":"91c48610-fbd7-42fb-96d8-fd5276aa7ce1","system_id":"levelo_inurba_marseille","lat":43.304692,"lon":5.379045,"is_reserved":false,"is_disabled":false,"rental_uris":{"android":"levelo://app?vid=91c48610-fbd7-42fb-96d8-fd5276aa7ce1","ios":"levelo://app?vid=91c48610-fbd7-42fb-96d8-fd5276aa7ce1"},"vehicle_type_id":"4","last_reported":1739276281,"current_range_meters":35600,"station_id":"ce4bgup2rcd13ifvqcn0","pricing_plan_id":"cebpf4jnsgd1na2vs0mg"},{"bike_id":"76ebc75d-2fe5-45e0-9f44-dea2f5f86814","system_id":"levelo_inurba_marseille","lat":43.24387,"lon":5.37055,"is_reserved":false,"is_disabled":false,"rental_uris":{"android":"levelo://app?vid=76ebc75d-2fe5-45e0-9f44-dea2f5f86814","ios":"levelo://app?vid=76ebc75d-2fe5-45e0-9f44-dea2f5f86814"},"vehicle_type_id":"4","last_reported":1739276281,"current_range_meters":32800,"station_id":"ce4bhhh2rcd13ifvqfk0","pricing_plan_id":"cebpf4jnsgd1na2vs0mg"},{"bike_id":"b631c779-5d30-4794-b09b-2a14ab4ffd5d","system_id":"levelo_inurba_marseille","lat":43.2571,"lon":5.41111,"is_reserved":false,"is_disabled":false,"rental_uris":{"android":"levelo://app?vid=b631c779-5d30-4794-b09b-2a14ab4ffd5d","ios":"levelo://app?vid=b631c779-5d30-4794-b09b-2a14ab4ffd5d"},"vehicle_type_id":"4","last_reported":1739276281,"current_range_meters":38800,"station_id":"ce4bhkp2rcd13ifvqgd0","pricing_plan_id":"cebpf4jnsgd1na2vs0mg"},{"bike_id":"5cc1c40c-0cfa-47bf-8c35-a147fbb523c6","system_id":"levelo_inurba_marseille","lat":43.33018,"lon":5.39244,"is_reserved":false,"is_disabled":false,"rental_uris":{"android":"levelo://app?vid=5cc1c40c-0cfa-47bf-8c35-a147fbb523c6","ios":"levelo://app?vid=5cc1c40c-0cfa-47bf-8c35-a147fbb523c6"},"vehicle_type_id":"4","last_reported":1739276281,"current_range_meters":36400,"station_id":"","pricing_plan_id":"cebpf4jnsgd1na2vs0mg"},{"bike_id":"1d660891-8024-4312-bfbc-592d9cf72920","system_id":"levelo_inurba_marseille","lat":43.30142,"lon":5.39854,"is_reserved":false,"is_disabled":false,"rental_uris":{"android":"levelo://app?vid=1d660891-8024-4312-bfbc-592d9cf72920","ios":"levelo://app?vid=1d660891-8024-4312-bfbc-592d9cf72920"},"vehicle_type_id":"4","last_reported":1739276281,"current_range_meters":28400,"station_id":"ce4bh0h2rcd13ifvqd40","pricing_plan_id":"cebpf4jnsgd1na2vs0mg"},{"bike_id":"51ab7186-5043-4bed-baca-73708608a302","system_id":"levelo_inurba_marseille","lat":43.29584,"lon":5.37026,"is_reserved":false,"is_disabled":true,"rental_uris":{"android":"levelo://app?vid=51ab7186-5043-4bed-baca-73708608a302","ios":"levelo://app?vid=51ab7186-5043-4bed-baca-73708608a302"},"vehicle_type_id":"4","last_reported":1739276281,"current_range_meters":7200,"station_id":"","pricing_plan_id":"cebpf4jnsgd1na2vs0mg"},{"bike_id":"078c1992-4375-4070-b0c5-2906db16a625","system_id":"levelo_inurba_marseille","lat":43.29165,"lon":5.37163,"is_reserved":false,"is_disabled":false,"rental_uris":{"android":"levelo://app?vid=078c1992-4375-4070-b0c5-2906db16a625","ios":"levelo://app?vid=078c1992-4375-4070-b0c5-2906db16a625"},"vehicle_type_id":"4","last_reported":1739276281,"current_range_meters":38800,"station_id":"ce4bha92rcd13ifvqeh0","pricing_plan_id":"cebpf4jnsgd1na2vs0mg"},{"bike_id":"cbcc5ab0-2725-4dbd-bc30-80aae2934308","system_id":"levelo_inurba_marseille","lat":43.30139,"lon":5.37411,"is_reserved":false,"is_disabled":false,"rental_uris":{"android":"levelo://app?vid=cbcc5ab0-2725-4dbd-bc30-80aae2934308","ios":"levelo://app?vid=cbcc5ab0-2725-4dbd-bc30-80aae2934308"},"vehicle_type_id":"4","last_reported":1739276281,"current_range_meters":28400,"station_id":"ce4bgs92rcd13ifvqcc0","pricing_plan_id":"cebpf4jnsgd1na2vs0mg"},{"bike_id":"c4038e97-41ca-4def-a28d-f02b6208ecc2","system_id":"levelo_inurba_marseille","lat":43.29524,"lon":5.3751,"is_reserved":false,"is_disabled":false,"rental_uris":{"android":"levelo://app?vid=c4038e97-41ca-4def-a28d-f02b6208ecc2","ios":"levelo://app?vid=c4038e97-41ca-4def-a28d-f02b6208ecc2"},"vehicle_type_id":"4","last_reported":1739276281,"current_range_meters":25200,"station_id":"ce4bgkp2rcd13ifvqbmg","pricing_plan_id":"cebpf4jnsgd1na2vs0mg"},{"bike_id":"2df9ea44-1468-43c2-82ec-de1fd1b84b65","system_id":"levelo_inurba_marseille","lat":43.26937,"lon":5.40237,"is_reserved":false,"is_disabled":false,"rental_uris":{"android":"levelo://app?vid=2df9ea44-1468-43c2-82ec-de1fd1b84b65","ios":"levelo://app?vid=2df9ea44-1468-43c2-82ec-de1fd1b84b65"},"vehicle_type_id":"4","last_reported":1739276281,"current_range_meters":28000,"station_id":"cjm6bp8fraef2m0cb0m0","pricing_plan_id":"cebpf4jnsgd1na2vs0mg"},{"bike_id":"33c084eb-8a60-409c-a4f8-e8bbe30c4f7b","system_id":"levelo_inurba_marseille","lat":43.30962,"lon":5.3903,"is_reserved":false,"is_disabled":true,"rental_uris":{"android":"levelo://app?vid=33c084eb-8a60-409c-a4f8-e8bbe30c4f7b","ios":"levelo://app?vid=33c084eb-8a60-409c-a4f8-e8bbe30c4f7b"},"vehicle_type_id":"4","last_reported":1739276281,"current_range_meters":34800,"station_id":"","pricing_plan_id":"cebpf4jnsgd1na2vs0mg"},{"bike_id":"c99ad24d-8e4f-460d-b1ae-02b4597290e8","system_id":"levelo_inurba_marseille","lat":43.30143,"lon":5.39857,"is_reserved":false,"is_disabled":false,"rental_uris":{"android":"levelo://app?vid=c99ad24d-8e4f-460d-b1ae-02b4597290e8","ios":"levelo://app?vid=c99ad24d-8e4f-460d-b1ae-02b4597290e8"},"vehicle_type_id":"4","last_reported":1739276281,"current_range_meters":30400,"station_id":"ce4bh0h2rcd13ifvqd40","pricing_plan_id":"cebpf4jnsgd1na2vs0mg"},{"bike_id":"78702d25-c6b9-4b38-bed4-0fd58dc42c97","system_id":"levelo_inurba_marseille","lat":43.31088,"lon":5.37843,"is_reserved":false,"is_disabled":false,"rental_uris":{"android":"levelo://app?vid=78702d25-c6b9-4b38-bed4-0fd58dc42c97","ios":"levelo://app?vid=78702d25-c6b9-4b38-bed4-0fd58dc42c97"},"vehicle_type_id":"4","last_reported":1739276281,"current_range_meters":38000,"station_id":"","pricing_plan_id":"cebpf4jnsgd1na2vs0mg"},{"bike_id":"5f18bd7f-07eb-4b1a-bd30-3819fff5fcc5","system_id":"levelo_inurba_marseille","lat":43.29906,"lon":5.3815,"is_reserved":false,"is_disabled":false,"rental_uris":{"android":"levelo://app?vid=5f18bd7f-07eb-4b1a-bd30-3819fff5fcc5","ios":"levelo://app?vid=5f18bd7f-07eb-4b1a-bd30-3819fff5fcc5"},"vehicle_type_id":"4","last_reported":1739276281,"current_range_meters":38800,"station_id":"ce4bgj12rcd13ifvqbc0","pricing_plan_id":"cebpf4jnsgd1na2vs0mg"},{"bike_id":"79009f4e-d6ab-4421-b79f-aa84067c324b","system_id":"levelo_inurba_marseille","lat":43.24174,"lon":5.3973,"is_reserved":false,"is_disabled":false,"rental_uris":{"android":"levelo://app?vid=79009f4e-d6ab-4421-b79f-aa84067c324b","ios":"levelo://app?vid=79009f4e-d6ab-4421-b79f-aa84067c324b"},"vehicle_type_id":"4","last_reported":1739276281,"current_range_meters":27600,"station_id":"ce4bhn12rcd13ifvqgpg","pricing_plan_id":"cebpf4jnsgd1na2vs0mg"},{"bike_id":"0cdcc8f7-f674-43f1-9b73-0f1949650402","system_id":"levelo_inurba_marseille","lat":43.23973,"lon":5.36629,"is_reserved":false,"is_disabled":false,"rental_uris":{"android":"levelo://app?vid=0cdcc8f7-f674-43f1-9b73-0f1949650402","ios":"levelo://app?vid=0cdcc8f7-f674-43f1-9b73-0f1949650402"},"vehicle_type_id":"4","last_reported":1739276281,"current_range_meters":35600,"station_id":"ce4bhi12rcd13ifvqfp0","pricing_plan_id":"cebpf4jnsgd1na2vs0mg"},{"bike_id":"d5869c17-5b8b-41a1-b409-a2400118fc7a","system_id":"levelo_inurba_marseille","lat":43.30279,"lon":5.37705,"is_reserved":false,"is_disabled":false,"rental_uris":{"android":"levelo://app?vid=d5869c17-5b8b-41a1-b409-a2400118fc7a","ios":"levelo://app?vid=d5869c17-5b8b-41a1-b409-a2400118fc7a"},"vehicle_type_id":"4","last_reported":1739276281,"current_range_meters":31200,"station_id":"ce4bguh2rcd13ifvqcj0","pricing_plan_id":"cebpf4jnsgd1na2vs0mg"},{"bike_id":"de77abfa-6f74-40e9-8131-b7884eda37eb","system_id":"levelo_inurba_marseille","lat":43.29945,"lon":5.39402,"is_reserved":false,"is_disabled":false,"rental_uris":{"android":"levelo://app?vid=de77abfa-6f74-40e9-8131-b7884eda37eb","ios":"levelo://app?vid=de77abfa-6f74-40e9-8131-b7884eda37eb"},"vehicle_type_id":"4","last_reported":1739276281,"current_range_meters":28800,"station_id":"","pricing_plan_id":"cebpf4jnsgd1na2vs0mg"},{"bike_id":"83951a85-bc3f-4b4f-ac45-61da34b90d33","system_id":"levelo_inurba_marseille","lat":43.30885,"lon":5.39632,"is_reserved":false,"is_disabled":false,"rental_uris":{"android":"levelo://app?vid=83951a85-bc3f-4b4f-ac45-61da34b90d33","ios":"levelo://app?vid=83951a85-bc3f-4b4f-ac45-61da34b90d33"},"vehicle_type_id":"4","last_reported":1739276281,"current_range_meters":38000,"station_id":"ce4bh012rcd13ifvqcv0","pricing_plan_id":"cebpf4jnsgd1na2vs0mg"},{"bike_id":"aa081435-b5f9-4834-b16c-7f35c836b33a","system_id":"levelo_inurba_marseille","lat":43.30147,"lon":5.37431,"is_reserved":false,"is_disabled":false,"rental_uris":{"android":"levelo://app?vid=aa081435-b5f9-4834-b16c-7f35c836b33a","ios":"levelo://app?vid=aa081435-b5f9-4834-b16c-7f35c836b33a"},"vehicle_type_id":"4","last_reported":1739276281,"current_range_meters":38800,"station_id":"ce4bgs92rcd13ifvqcc0","pricing_plan_id":"cebpf4jnsgd1na2vs0mg"},{"bike_id":"ee079ffa-4416-4a91-bc98-3bd665acea3b","system_id":"levelo_inurba_marseille","lat":43.33729,"lon":5.39184,"is_reserved":false,"is_disabled":false,"rental_uris":{"android":"levelo://app?vid=ee079ffa-4416-4a91-bc98-3bd665acea3b","ios":"levelo://app?vid=ee079ffa-4416-4a91-bc98-3bd665acea3b"},"vehicle_type_id":"4","last_reported":1739276281,"current_range_meters":38800,"station_id":"ce4bhr92rcd13ifvqhsg","pricing_plan_id":"cebpf4jnsgd1na2vs0mg"},{"bike_id":"1fa82dc6-47d4-4356-bbca-393bf4461726","system_id":"levelo_inurba_marseille","lat":43.23959,"lon":5.36623,"is_reserved":false,"is_disabled":false,"rental_uris":{"android":"levelo://app?vid=1fa82dc6-47d4-4356-bbca-393bf4461726","ios":"levelo://app?vid=1fa82dc6-47d4-4356-bbca-393bf4461726"},"vehicle_type_id":"4","last_reported":1739276281,"current_range_meters":18800,"station_id":"ce4bhi12rcd13ifvqfp0","pricing_plan_id":"cebpf4jnsgd1na2vs0mg"},{"bike_id":"8f27805b-e45e-482f-800b-3745204b0141","system_id":"levelo_inurba_marseille","lat":43.24669,"lon":5.38158,"is_reserved":false,"is_disabled":false,"rental_uris":{"android":"levelo://app?vid=8f27805b-e45e-482f-800b-3745204b0141","ios":"levelo://app?vid=8f27805b-e45e-482f-800b-3745204b0141"},"vehicle_type_id":"4","last_reported":1739276281,"current_range_meters":28000,"station_id":"ce4bhih2rcd13ifvqfr0","pricing_plan_id":"cebpf4jnsgd1na2vs0mg"},{"bike_id":"997a2233-7986-4d48-a6d1-760e23ecc678","system_id":"levelo_inurba_marseille","lat":43.30881,"lon":5.39618,"is_reserved":false,"is_disabled":false,"rental_uris":{"android":"levelo://app?vid=997a2233-7986-4d48-a6d1-760e23ecc678","ios":"levelo://app?vid=997a2233-7986-4d48-a6d1-760e23ecc678"},"vehicle_type_id":"4","last_reported":1739276281,"current_range_meters":38800,"station_id":"ce4bh012rcd13ifvqcv0","pricing_plan_id":"cebpf4jnsgd1na2vs0mg"},{"bike_id":"bcb645d7-c598-4777-888d-2e2637a0a4f2","system_id":"levelo_inurba_marseille","lat":43.279,"lon":5.37993,"is_reserved":false,"is_disabled":false,"rental_uris":{"android":"levelo://app?vid=bcb645d7-c598-4777-888d-2e2637a0a4f2","ios":"levelo://app?vid=bcb645d7-c598-4777-888d-2e2637a0a4f2"},"vehicle_type_id":"4","last_reported":1739276281,"current_range_meters":34000,"station_id":"ce4bhf92rcd13ifvqf50","pricing_plan_id":"cebpf4jnsgd1na2vs0mg"},{"bike_id":"43d9c899-b698-4010-980b-b17004dc2d7c","system_id":"levelo_inurba_marseille","lat":43.29977,"lon":5.37183,"is_reserved":false,"is_disabled":false,"rental_uris":{"android":"levelo://app?vid=43d9c899-b698-4010-980b-b17004dc2d7c","ios":"levelo://app?vid=43d9c899-b698-4010-980b-b17004dc2d7c"},"vehicle_type_id":"4","last_reported":1739276281,"current_range_meters":39200,"station_id":"ce4bgr92rcd13ifvqc7g","pricing_plan_id":"cebpf4jnsgd1na2vs0mg"},{"bike_id":"67c77a93-95e0-4dde-b030-1b6a0f65cf9a","system_id":"levelo_inurba_marseille","lat":43.27166,"lon":5.40984,"is_reserved":false,"is_disabled":false,"rental_uris":{"android":"levelo://app?vid=67c77a93-95e0-4dde-b030-1b6a0f65cf9a","ios":"levelo://app?vid=67c77a93-95e0-4dde-b030-1b6a0f65cf9a"},"vehicle_type_id":"4","last_reported":1739276281,"current_range_meters":8800,"station_id":"ce4bhl12rcd13ifvqgf0","pricing_plan_id":"cebpf4jnsgd1na2vs0mg"},{"bike_id":"78850cd1-3f23-4e2d-b033-f72c6653650a","system_id":"levelo_inurba_marseille","lat":43.26954,"lon":5.38923,"is_reserved":false,"is_disabled":false,"rental_uris":{"android":"levelo://app?vid=78850cd1-3f23-4e2d-b033-f72c6653650a","ios":"levelo://app?vid=78850cd1-3f23-4e2d-b033-f72c6653650a"},"vehicle_type_id":"4","last_reported":1739276281,"current_range_meters":38800,"station_id":"ce4bhhh2rcd13ifvqfl0","pricing_plan_id":"cebpf4jnsgd1na2vs0mg"},{"bike_id":"d4cc9099-d6fa-474e-ae72-0973f57da119","system_id":"levelo_inurba_marseille","lat":43.30291,"lon":5.37718,"is_reserved":false,"is_disabled":false,"rental_uris":{"android":"levelo://app?vid=d4cc9099-d6fa-474e-ae72-0973f57da119","ios":"levelo://app?vid=d4cc9099-d6fa-474e-ae72-0973f57da119"},"vehicle_type_id":"4","last_reported":1739276281,"current_range_meters":39200,"station_id":"ce4bguh2rcd13ifvqcj0","pricing_plan_id":"cebpf4jnsgd1na2vs0mg"},{"bike_id":"496fa2ad-a547-4095-b8b9-a29f1a78ab4b","system_id":"levelo_inurba_marseille","lat":43.27809,"lon":5.40712,"is_reserved":false,"is_disabled":false,"rental_uris":{"android":"levelo://app?vid=496fa2ad-a547-4095-b8b9-a29f1a78ab4b","ios":"levelo://app?vid=496fa2ad-a547-4095-b8b9-a29f1a78ab4b"},"vehicle_type_id":"4","last_reported":1739276281,"current_range_meters":36800,"station_id":"ce4bhnh2rcd13ifvqgtg","pricing_plan_id":"cebpf4jnsgd1na2vs0mg"},{"bike_id":"75d80e4d-7f8e-4044-969a-f39ce5a84fed","system_id":"levelo_inurba_marseille","lat":43.27057,"lon":5.40278,"is_reserved":false,"is_disabled":false,"rental_uris":{"android":"levelo://app?vid=75d80e4d-7f8e-4044-969a-f39ce5a84fed","ios":"levelo://app?vid=75d80e4d-7f8e-4044-969a-f39ce5a84fed"},"vehicle_type_id":"4","last_reported":1739276281,"current_range_meters":18000,"station_id":"ce4bhk92rcd13ifvqgc0","pricing_plan_id":"cebpf4jnsgd1na2vs0mg"},{"bike_id":"3db29e58-0383-464f-82dd-fb2e9d4db242","system_id":"levelo_inurba_marseille","lat":43.28105,"lon":5.37847,"is_reserved":false,"is_disabled":false,"rental_uris":{"android":"levelo://app?vid=3db29e58-0383-464f-82dd-fb2e9d4db242","ios":"levelo://app?vid=3db29e58-0383-464f-82dd-fb2e9d4db242"},"vehicle_type_id":"4","last_reported":1739276281,"current_range_meters":36000,"station_id":"ce4bha12rcd13ifvqee0","pricing_plan_id":"cebpf4jnsgd1na2vs0mg"},{"bike_id":"05f6ac8f-0127-4e39-bd11-d53a74225ef8","system_id":"levelo_inurba_marseille","lat":43.27874,"lon":5.40597,"is_reserved":false,"is_disabled":true,"rental_uris":{"android":"levelo://app?vid=05f6ac8f-0127-4e39-bd11-d53a74225ef8","ios":"levelo://app?vid=05f6ac8f-0127-4e39-bd11-d53a74225ef8"},"vehicle_type_id":"4","last_reported":1739276281,"current_range_meters":0,"station_id":"","pricing_plan_id":"cebpf4jnsgd1na2vs0mg"},{"bike_id":"a3d2302b-9b93-49df-85ba-bce6080207a0","system_id":"levelo_inurba_marseille","lat":43.2314,"lon":5.43736,"is_reserved":false,"is_disabled":false,"rental_uris":{"android":"levelo://app?vid=a3d2302b-9b93-49df-85ba-bce6080207a0","ios":"levelo://app?vid=a3d2302b-9b93-49df-85ba-bce6080207a0"},"vehicle_type_id":"4","last_reported":1739276281,"current_range_meters":4800,"station_id":"ce4bhmp2rcd13ifvqgog","pricing_plan_id":"cebpf4jnsgd1na2vs0mg"},{"bike_id":"1a977b22-108e-45ce-bfbb-a16bbbb07843","system_id":"levelo_inurba_marseille","lat":43.30554,"lon":5.36554,"is_reserved":false,"is_disabled":false,"rental_uris":{"android":"levelo://app?vid=1a977b22-108e-45ce-bfbb-a16bbbb07843","ios":"levelo://app?vid=1a977b22-108e-45ce-bfbb-a16bbbb07843"},"vehicle_type_id":"4","last_reported":1739276281,"current_range_meters":24800,"station_id":"ce4bgs12rcd13ifvqcag","pricing_plan_id":"cebpf4jnsgd1na2vs0mg"},{"bike_id":"a2a3b079-e389-4fc3-ae81-e5da880d0a04","system_id":"levelo_inurba_marseille","lat":43.25731,"lon":5.41107,"is_reserved":false,"is_disabled":false,"rental_uris":{"android":"levelo://app?vid=a2a3b079-e389-4fc3-ae81-e5da880d0a04","ios":"levelo://app?vid=a2a3b079-e389-4fc3-ae81-e5da880d0a04"},"vehicle_type_id":"4","last_reported":1739276281,"current_range_meters":38800,"station_id":"ce4bhkp2rcd13ifvqgd0","pricing_plan_id":"cebpf4jnsgd1na2vs0mg"},{"bike_id":"3d01ee57-be5d-4165-815d-c5b06c8be331","system_id":"levelo_inurba_marseille","lat":43.25008,"lon":5.38913,"is_reserved":false,"is_disabled":false,"rental_uris":{"android":"levelo://app?vid=3d01ee57-be5d-4165-815d-c5b06c8be331","ios":"levelo://app?vid=3d01ee57-be5d-4165-815d-c5b06c8be331"},"vehicle_type_id":"4","last_reported":1739276281,"current_range_meters":38800,"station_id":"ce4bhgp2rcd13ifvqfd0","pricing_plan_id":"cebpf4jnsgd1na2vs0mg"},{"bike_id":"60f1cb2d-3665-4953-b704-c16f4997861c","system_id":"levelo_inurba_marseille","lat":43.30467,"lon":5.37908,"is_reserved":false,"is_disabled":false,"rental_uris":{"android":"levelo://app?vid=60f1cb2d-3665-4953-b704-c16f4997861c","ios":"levelo://app?vid=60f1cb2d-3665-4953-b704-c16f4997861c"},"vehicle_type_id":"4","last_reported":1739276281,"current_range_meters":23200,"station_id":"ce4bgup2rcd13ifvqcn0","pricing_plan_id":"cebpf4jnsgd1na2vs0mg"},{"bike_id":"721f5fb6-7349-49b7-a109-77ff84c72bdd","system_id":"levelo_inurba_marseille","lat":43.30202,"lon":5.39475,"is_reserved":false,"is_disabled":false,"rental_uris":{"android":"levelo://app?vid=721f5fb6-7349-49b7-a109-77ff84c72bdd","ios":"levelo://app?vid=721f5fb6-7349-49b7-a109-77ff84c72bdd"},"vehicle_type_id":"4","last_reported":1739276281,"current_range_meters":38800,"station_id":"ce4bh0p2rcd13ifvqd70","pricing_plan_id":"cebpf4jnsgd1na2vs0mg"},{"bike_id":"9b7774bf-c5c6-41f2-ad06-b8ff14544cfc","system_id":"levelo_inurba_marseille","lat":43.29693,"lon":5.37697,"is_reserved":false,"is_disabled":false,"rental_uris":{"android":"levelo://app?vid=9b7774bf-c5c6-41f2-ad06-b8ff14544cfc","ios":"levelo://app?vid=9b7774bf-c5c6-41f2-ad06-b8ff14544cfc"},"vehicle_type_id":"4","last_reported":1739276281,"current_range_meters":34000,"station_id":"ce4bgkh2rcd13ifvqbl0","pricing_plan_id":"cebpf4jnsgd1na2vs0mg"},{"bike_id":"76ed4e97-7fa9-4836-bcd3-e52753ef31b4","system_id":"levelo_inurba_marseille","lat":43.29844,"lon":5.36276,"is_reserved":false,"is_disabled":false,"rental_uris":{"android":"levelo://app?vid=76ed4e97-7fa9-4836-bcd3-e52753ef31b4","ios":"levelo://app?vid=76ed4e97-7fa9-4836-bcd3-e52753ef31b4"},"vehicle_type_id":"4","last_reported":1739276281,"current_range_meters":38400,"station_id":"ce4bgpp2rcd13ifvqc3g","pricing_plan_id":"cebpf4jnsgd1na2vs0mg"},{"bike_id":"fd7cd6eb-8023-4160-9061-39fa556cf25c","system_id":"levelo_inurba_marseille","lat":43.30312,"lon":5.40413,"is_reserved":false,"is_disabled":true,"rental_uris":{"android":"levelo://app?vid=fd7cd6eb-8023-4160-9061-39fa556cf25c","ios":"levelo://app?vid=fd7cd6eb-8023-4160-9061-39fa556cf25c"},"vehicle_type_id":"4","last_reported":1739276281,"current_range_meters":28400,"station_id":"ce4bh012rcd13ifvqd10","pricing_plan_id":"cebpf4jnsgd1na2vs0mg"},{"bike_id":"a42ba881-2f8e-46fb-b945-3ec298fb1b87","system_id":"levelo_inurba_marseille","lat":43.28869,"lon":5.39322,"is_reserved":false,"is_disabled":true,"rental_uris":{"android":"levelo://app?vid=a42ba881-2f8e-46fb-b945-3ec298fb1b87","ios":"levelo://app?vid=a42ba881-2f8e-46fb-b945-3ec298fb1b87"},"vehicle_type_id":"4","last_reported":1739276281,"current_range_meters":38400,"station_id":"ce4bh2p2rcd13ifvqdi0","pricing_plan_id":"cebpf4jnsgd1na2vs0mg"},{"bike_id":"d32849cf-4c14-4032-9063-172d06d3f04f","system_id":"levelo_inurba_marseille","lat":43.23195,"lon":5.3554,"is_reserved":false,"is_disabled":false,"rental_uris":{"android":"levelo://app?vid=d32849cf-4c14-4032-9063-172d06d3f04f","ios":"levelo://app?vid=d32849cf-4c14-4032-9063-172d06d3f04f"},"vehicle_type_id":"4","last_reported":1739276281,"current_range_meters":35200,"station_id":"ce4bhu92rcd13ifvqi70","pricing_plan_id":"cebpf4jnsgd1na2vs0mg"},{"bike_id":"0c6ea467-c83f-4698-9c83-257ea17eb3b8","system_id":"levelo_inurba_marseille","lat":43.3096,"lon":5.39039,"is_reserved":false,"is_disabled":false,"rental_uris":{"android":"levelo://app?vid=0c6ea467-c83f-4698-9c83-257ea17eb3b8","ios":"levelo://app?vid=0c6ea467-c83f-4698-9c83-257ea17eb3b8"},"vehicle_type_id":"4","last_reported":1739276281,"current_range_meters":32400,"station_id":"","pricing_plan_id":"cebpf4jnsgd1na2vs0mg"},{"bike_id":"38c676ae-1841-4003-b85a-9ec5d0cad1e7","system_id":"levelo_inurba_marseille","lat":43.25724,"lon":5.41116,"is_reserved":false,"is_disabled":false,"rental_uris":{"android":"levelo://app?vid=38c676ae-1841-4003-b85a-9ec5d0cad1e7","ios":"levelo://app?vid=38c676ae-1841-4003-b85a-9ec5d0cad1e7"},"vehicle_type_id":"4","last_reported":1739276281,"current_range_meters":32800,"station_id":"ce4bhkp2rcd13ifvqgd0","pricing_plan_id":"cebpf4jnsgd1na2vs0mg"},{"bike_id":"09a31e22-31a3-4a8b-a8f3-c6b84a9cc357","system_id":"levelo_inurba_marseille","lat":43.27564,"lon":5.38406,"is_reserved":false,"is_disabled":false,"rental_uris":{"android":"levelo://app?vid=09a31e22-31a3-4a8b-a8f3-c6b84a9cc357","ios":"levelo://app?vid=09a31e22-31a3-4a8b-a8f3-c6b84a9cc357"},"vehicle_type_id":"4","last_reported":1739276281,"current_range_meters":28000,"station_id":"ce4bhh92rcd13ifvqfi0","pricing_plan_id":"cebpf4jnsgd1na2vs0mg"},{"bike_id":"b7cfafc0-fba3-47fa-8c3d-d96c6bee1f7a","system_id":"levelo_inurba_marseille","lat":43.24393,"lon":5.37063,"is_reserved":false,"is_disabled":false,"rental_uris":{"android":"levelo://app?vid=b7cfafc0-fba3-47fa-8c3d-d96c6bee1f7a","ios":"levelo://app?vid=b7cfafc0-fba3-47fa-8c3d-d96c6bee1f7a"},"vehicle_type_id":"4","last_reported":1739276281,"current_range_meters":33600,"station_id":"ce4bhhh2rcd13ifvqfk0","pricing_plan_id":"cebpf4jnsgd1na2vs0mg"},{"bike_id":"9ba133ba-7b58-4607-8737-7fb5bce66e58","system_id":"levelo_inurba_marseille","lat":43.24392,"lon":5.37067,"is_reserved":false,"is_disabled":false,"rental_uris":{"android":"levelo://app?vid=9ba133ba-7b58-4607-8737-7fb5bce66e58","ios":"levelo://app?vid=9ba133ba-7b58-4607-8737-7fb5bce66e58"},"vehicle_type_id":"4","last_reported":1739276281,"current_range_meters":39200,"station_id":"ce4bhhh2rcd13ifvqfk0","pricing_plan_id":"cebpf4jnsgd1na2vs0mg"},{"bike_id":"ecdfe505-0b95-40f1-b982-8e170cccca5d","system_id":"levelo_inurba_marseille","lat":43.32669,"lon":5.41013,"is_reserved":false,"is_disabled":false,"rental_uris":{"android":"levelo://app?vid=ecdfe505-0b95-40f1-b982-8e170cccca5d","ios":"levelo://app?vid=ecdfe505-0b95-40f1-b982-8e170cccca5d"},"vehicle_type_id":"4","last_reported":1739276281,"current_range_meters":26000,"station_id":"ce4bhpp2rcd13ifvqhgg","pricing_plan_id":"cebpf4jnsgd1na2vs0mg"},{"bike_id":"8008ff65-2546-4a6c-be32-725bd4baf944","system_id":"levelo_inurba_marseille","lat":43.27371,"lon":5.36231,"is_reserved":false,"is_disabled":false,"rental_uris":{"android":"levelo://app?vid=8008ff65-2546-4a6c-be32-725bd4baf944","ios":"levelo://app?vid=8008ff65-2546-4a6c-be32-725bd4baf944"},"vehicle_type_id":"4","last_reported":1739276281,"current_range_meters":38800,"station_id":"ce4bhbh2rcd13ifvqeo0","pricing_plan_id":"cebpf4jnsgd1na2vs0mg"},{"bike_id":"de251e58-f443-4138-ba16-d0ddc1c92875","system_id":"levelo_inurba_marseille","lat":43.23194,"lon":5.35553,"is_reserved":false,"is_disabled":false,"rental_uris":{"android":"levelo://app?vid=de251e58-f443-4138-ba16-d0ddc1c92875","ios":"levelo://app?vid=de251e58-f443-4138-ba16-d0ddc1c92875"},"vehicle_type_id":"4","last_reported":1739276281,"current_range_meters":9200,"station_id":"ce4bhu92rcd13ifvqi70","pricing_plan_id":"cebpf4jnsgd1na2vs0mg"},{"bike_id":"9eab234a-0530-4453-a3e9-41e896395309","system_id":"levelo_inurba_marseille","lat":43.2977,"lon":5.37125,"is_reserved":false,"is_disabled":false,"rental_uris":{"android":"levelo://app?vid=9eab234a-0530-4453-a3e9-41e896395309","ios":"levelo://app?vid=9eab234a-0530-4453-a3e9-41e896395309"},"vehicle_type_id":"4","last_reported":1739276281,"current_range_meters":20000,"station_id":"ce4bgop2rcd13ifvqc1g","pricing_plan_id":"cebpf4jnsgd1na2vs0mg"},{"bike_id":"14b2070b-6ddc-42e3-b1e8-9c0cbc081f72","system_id":"levelo_inurba_marseille","lat":43.33745,"lon":5.39186,"is_reserved":false,"is_disabled":false,"rental_uris":{"android":"levelo://app?vid=14b2070b-6ddc-42e3-b1e8-9c0cbc081f72","ios":"levelo://app?vid=14b2070b-6ddc-42e3-b1e8-9c0cbc081f72"},"vehicle_type_id":"4","last_reported":1739276281,"current_range_meters":38000,"station_id":"ce4bhr92rcd13ifvqhsg","pricing_plan_id":"cebpf4jnsgd1na2vs0mg"},{"bike_id":"3ad78980-d954-4439-b88d-56e0dcfe7b89","system_id":"levelo_inurba_marseille","lat":43.23966,"lon":5.36635,"is_reserved":false,"is_disabled":false,"rental_uris":{"android":"levelo://app?vid=3ad78980-d954-4439-b88d-56e0dcfe7b89","ios":"levelo://app?vid=3ad78980-d954-4439-b88d-56e0dcfe7b89"},"vehicle_type_id":"4","last_reported":1739276281,"current_range_meters":10000,"station_id":"ce4bhi12rcd13ifvqfp0","pricing_plan_id":"cebpf4jnsgd1na2vs0mg"},{"bike_id":"f654d2d3-817a-4c55-8ebd-8025694bc89f","system_id":"levelo_inurba_marseille","lat":43.30148,"lon":5.381,"is_reserved":false,"is_disabled":false,"rental_uris":{"android":"levelo://app?vid=f654d2d3-817a-4c55-8ebd-8025694bc89f","ios":"levelo://app?vid=f654d2d3-817a-4c55-8ebd-8025694bc89f"},"vehicle_type_id":"4","last_reported":1739276281,"current_range_meters":27200,"station_id":"ce4bgjp2rcd13ifvqbh0","pricing_plan_id":"cebpf4jnsgd1na2vs0mg"},{"bike_id":"8b83c12a-a6aa-49b5-9c22-96a8201fabb1","system_id":"levelo_inurba_marseille","lat":43.313629,"lon":5.384894,"is_reserved":false,"is_disabled":false,"rental_uris":{"android":"levelo://app?vid=8b83c12a-a6aa-49b5-9c22-96a8201fabb1","ios":"levelo://app?vid=8b83c12a-a6aa-49b5-9c22-96a8201fabb1"},"vehicle_type_id":"4","last_reported":1739276281,"current_range_meters":35600,"station_id":"ce4bgt92rcd13ifvqcf0","pricing_plan_id":"cebpf4jnsgd1na2vs0mg"},{"bike_id":"b507b4d5-abc0-4e38-97c9-745526e1e06d","system_id":"levelo_inurba_marseille","lat":43.27344,"lon":5.39106,"is_reserved":false,"is_disabled":false,"rental_uris":{"android":"levelo://app?vid=b507b4d5-abc0-4e38-97c9-745526e1e06d","ios":"levelo://app?vid=b507b4d5-abc0-4e38-97c9-745526e1e06d"},"vehicle_type_id":"4","last_reported":1739276281,"current_range_meters":14400,"station_id":"ce4bhgp2rcd13ifvqfe0","pricing_plan_id":"cebpf4jnsgd1na2vs0mg"},{"bike_id":"2f9fa20d-f7ac-4209-b2dc-c07725e33917","system_id":"levelo_inurba_marseille","lat":43.31689,"lon":5.37775,"is_reserved":false,"is_disabled":false,"rental_uris":{"android":"levelo://app?vid=2f9fa20d-f7ac-4209-b2dc-c07725e33917","ios":"levelo://app?vid=2f9fa20d-f7ac-4209-b2dc-c07725e33917"},"vehicle_type_id":"4","last_reported":1739276281,"current_range_meters":39200,"station_id":"ce4bgth2rcd13ifvqch0","pricing_plan_id":"cebpf4jnsgd1na2vs0mg"},{"bike_id":"5a15de67-1fcd-4688-971a-7abcc71cbb96","system_id":"levelo_inurba_marseille","lat":43.298676,"lon":5.397365,"is_reserved":false,"is_disabled":false,"rental_uris":{"android":"levelo://app?vid=5a15de67-1fcd-4688-971a-7abcc71cbb96","ios":"levelo://app?vid=5a15de67-1fcd-4688-971a-7abcc71cbb96"},"vehicle_type_id":"4","last_reported":1739276281,"current_range_meters":26800,"station_id":"ce4bh0h2rcd13ifvqd50","pricing_plan_id":"cebpf4jnsgd1na2vs0mg"},{"bike_id":"a59b1799-366c-4f90-b175-fea2f17ac49c","system_id":"levelo_inurba_marseille","lat":43.30572,"lon":5.36721,"is_reserved":false,"is_disabled":false,"rental_uris":{"android":"levelo://app?vid=a59b1799-366c-4f90-b175-fea2f17ac49c","ios":"levelo://app?vid=a59b1799-366c-4f90-b175-fea2f17ac49c"},"vehicle_type_id":"4","last_reported":1739276281,"current_range_meters":36800,"station_id":"ce4bgrp2rcd13ifvqc9g","pricing_plan_id":"cebpf4jnsgd1na2vs0mg"},{"bike_id":"201b14f4-65c7-45ff-8010-fe136e6675ac","system_id":"levelo_inurba_marseille","lat":43.24177,"lon":5.3972,"is_reserved":false,"is_disabled":false,"rental_uris":{"android":"levelo://app?vid=201b14f4-65c7-45ff-8010-fe136e6675ac","ios":"levelo://app?vid=201b14f4-65c7-45ff-8010-fe136e6675ac"},"vehicle_type_id":"4","last_reported":1739276281,"current_range_meters":25600,"station_id":"ce4bhn12rcd13ifvqgpg","pricing_plan_id":"cebpf4jnsgd1na2vs0mg"},{"bike_id":"9207b0f3-9707-4707-b4f6-b2339a5ec8ff","system_id":"levelo_inurba_marseille","lat":43.28126,"lon":5.42641,"is_reserved":false,"is_disabled":false,"rental_uris":{"android":"levelo://app?vid=9207b0f3-9707-4707-b4f6-b2339a5ec8ff","ios":"levelo://app?vid=9207b0f3-9707-4707-b4f6-b2339a5ec8ff"},"vehicle_type_id":"4","last_reported":1739276281,"current_range_meters":36400,"station_id":"ce4bhnh2rcd13ifvqgug","pricing_plan_id":"cebpf4jnsgd1na2vs0mg"},{"bike_id":"634df202-b153-4322-acbb-25ab08db069e","system_id":"levelo_inurba_marseille","lat":43.26585,"lon":5.39022,"is_reserved":false,"is_disabled":false,"rental_uris":{"android":"levelo://app?vid=634df202-b153-4322-acbb-25ab08db069e","ios":"levelo://app?vid=634df202-b153-4322-acbb-25ab08db069e"},"vehicle_type_id":"4","last_reported":1739276281,"current_range_meters":16400,"station_id":"ce4bhe12rcd13ifvqf30","pricing_plan_id":"cebpf4jnsgd1na2vs0mg"},{"bike_id":"56533ae9-01e0-4fbd-a2eb-8ec6e6269a75","system_id":"levelo_inurba_marseille","lat":43.2708,"lon":5.40322,"is_reserved":false,"is_disabled":false,"rental_uris":{"android":"levelo://app?vid=56533ae9-01e0-4fbd-a2eb-8ec6e6269a75","ios":"levelo://app?vid=56533ae9-01e0-4fbd-a2eb-8ec6e6269a75"},"vehicle_type_id":"4","last_reported":1739276281,"current_range_meters":26000,"station_id":"ce4bhk92rcd13ifvqgc0","pricing_plan_id":"cebpf4jnsgd1na2vs0mg"},{"bike_id":"ddbfc913-16cf-4d9f-a892-35d08e1e6767","system_id":"levelo_inurba_marseille","lat":43.29593,"lon":5.36739,"is_reserved":false,"is_disabled":false,"rental_uris":{"android":"levelo://app?vid=ddbfc913-16cf-4d9f-a892-35d08e1e6767","ios":"levelo://app?vid=ddbfc913-16cf-4d9f-a892-35d08e1e6767"},"vehicle_type_id":"4","last_reported":1739276281,"current_range_meters":16400,"station_id":"ce4bgph2rcd13ifvqc2g","pricing_plan_id":"cebpf4jnsgd1na2vs0mg"},{"bike_id":"311e6660-ed69-42b0-b135-42c06df53db6","system_id":"levelo_inurba_marseille","lat":43.24822,"lon":5.37457,"is_reserved":false,"is_disabled":false,"rental_uris":{"android":"levelo://app?vid=311e6660-ed69-42b0-b135-42c06df53db6","ios":"levelo://app?vid=311e6660-ed69-42b0-b135-42c06df53db6"},"vehicle_type_id":"4","last_reported":1739276281,"current_range_meters":35200,"station_id":"ce4bhgh2rcd13ifvqfb0","pricing_plan_id":"cebpf4jnsgd1na2vs0mg"},{"bike_id":"2f9bd2bf-a185-422b-bd75-db406051386b","system_id":"levelo_inurba_marseille","lat":43.28469,"lon":5.38413,"is_reserved":false,"is_disabled":false,"rental_uris":{"android":"levelo://app?vid=2f9bd2bf-a185-422b-bd75-db406051386b","ios":"levelo://app?vid=2f9bd2bf-a185-422b-bd75-db406051386b"},"vehicle_type_id":"4","last_reported":1739276281,"current_range_meters":38800,"station_id":"ce4bh512rcd13ifvqe3g","pricing_plan_id":"cebpf4jnsgd1na2vs0mg"},{"bike_id":"8fce70f1-9c74-4df7-9614-247d92d04b58","system_id":"levelo_inurba_marseille","lat":43.29716,"lon":5.36612,"is_reserved":false,"is_disabled":false,"rental_uris":{"android":"levelo://app?vid=8fce70f1-9c74-4df7-9614-247d92d04b58","ios":"levelo://app?vid=8fce70f1-9c74-4df7-9614-247d92d04b58"},"vehicle_type_id":"4","last_reported":1739276281,"current_range_meters":10800,"station_id":"ce4bgn12rcd13ifvqbt0","pricing_plan_id":"cebpf4jnsgd1na2vs0mg"},{"bike_id":"c2250f20-2283-4e17-b7ce-382f2f740aa1","system_id":"levelo_inurba_marseille","lat":43.24803,"lon":5.3745,"is_reserved":false,"is_disabled":false,"rental_uris":{"android":"levelo://app?vid=c2250f20-2283-4e17-b7ce-382f2f740aa1","ios":"levelo://app?vid=c2250f20-2283-4e17-b7ce-382f2f740aa1"},"vehicle_type_id":"4","last_reported":1739276281,"current_range_meters":39200,"station_id":"ce4bhgh2rcd13ifvqfb0","pricing_plan_id":"cebpf4jnsgd1na2vs0mg"},{"bike_id":"a7553041-8337-41cf-859f-54b65f7556fc","system_id":"levelo_inurba_marseille","lat":43.26822,"lon":5.40249,"is_reserved":false,"is_disabled":false,"rental_uris":{"android":"levelo://app?vid=a7553041-8337-41cf-859f-54b65f7556fc","ios":"levelo://app?vid=a7553041-8337-41cf-859f-54b65f7556fc"},"vehicle_type_id":"4","last_reported":1739276281,"current_range_meters":28400,"station_id":"ce501612rcd8frsf0b60","pricing_plan_id":"cebpf4jnsgd1na2vs0mg"},{"bike_id":"b02787c6-1773-463a-b894-5d28034066fe","system_id":"levelo_inurba_marseille","lat":43.27441,"lon":5.39398,"is_reserved":false,"is_disabled":false,"rental_uris":{"android":"levelo://app?vid=b02787c6-1773-463a-b894-5d28034066fe","ios":"levelo://app?vid=b02787c6-1773-463a-b894-5d28034066fe"},"vehicle_type_id":"4","last_reported":1739276281,"current_range_meters":35600,"station_id":"ce4bhdp2rcd13ifvqf20","pricing_plan_id":"cebpf4jnsgd1na2vs0mg"},{"bike_id":"3a46e6af-4441-4eb5-9ea7-9d3a275672cd","system_id":"levelo_inurba_marseille","lat":43.27667,"lon":5.38853,"is_reserved":false,"is_disabled":false,"rental_uris":{"android":"levelo://app?vid=3a46e6af-4441-4eb5-9ea7-9d3a275672cd","ios":"levelo://app?vid=3a46e6af-4441-4eb5-9ea7-9d3a275672cd"},"vehicle_type_id":"4","last_reported":1739276281,"current_range_meters":38400,"station_id":"ce4bhi12rcd13ifvqfo0","pricing_plan_id":"cebpf4jnsgd1na2vs0mg"},{"bike_id":"441756a0-4bd6-444f-844a-706673d06d5d","system_id":"levelo_inurba_marseille","lat":43.2811,"lon":5.39835,"is_reserved":false,"is_disabled":false,"rental_uris":{"android":"levelo://app?vid=441756a0-4bd6-444f-844a-706673d06d5d","ios":"levelo://app?vid=441756a0-4bd6-444f-844a-706673d06d5d"},"vehicle_type_id":"4","last_reported":1739276281,"current_range_meters":8800,"station_id":"","pricing_plan_id":"cebpf4jnsgd1na2vs0mg"},{"bike_id":"17f93049-824d-4858-baba-35715db42193","system_id":"levelo_inurba_marseille","lat":43.30477,"lon":5.37909,"is_reserved":false,"is_disabled":false,"rental_uris":{"android":"levelo://app?vid=17f93049-824d-4858-baba-35715db42193","ios":"levelo://app?vid=17f93049-824d-4858-baba-35715db42193"},"vehicle_type_id":"4","last_reported":1739276281,"current_range_meters":17200,"station_id":"ce4bgup2rcd13ifvqcn0","pricing_plan_id":"cebpf4jnsgd1na2vs0mg"},{"bike_id":"35a15fce-0bc5-47ea-985a-488653db9c19","system_id":"levelo_inurba_marseille","lat":43.33604,"lon":5.4103,"is_reserved":false,"is_disabled":false,"rental_uris":{"android":"levelo://app?vid=35a15fce-0bc5-47ea-985a-488653db9c19","ios":"levelo://app?vid=35a15fce-0bc5-47ea-985a-488653db9c19"},"vehicle_type_id":"4","last_reported":1739276281,"current_range_meters":38800,"station_id":"ce4bhqh2rcd13ifvqhmg","pricing_plan_id":"cebpf4jnsgd1na2vs0mg"},{"bike_id":"5ed462ca-5484-4187-94ca-ad667fc288b6","system_id":"levelo_inurba_marseille","lat":43.30262,"lon":5.40057,"is_reserved":false,"is_disabled":false,"rental_uris":{"android":"levelo://app?vid=5ed462ca-5484-4187-94ca-ad667fc288b6","ios":"levelo://app?vid=5ed462ca-5484-4187-94ca-ad667fc288b6"},"vehicle_type_id":"4","last_reported":1739276281,"current_range_meters":22000,"station_id":"ce4bgvh2rcd13ifvqcs0","pricing_plan_id":"cebpf4jnsgd1na2vs0mg"},{"bike_id":"bd8af203-772b-458c-bcf0-dcfd44b2f594","system_id":"levelo_inurba_marseille","lat":43.25578,"lon":5.38229,"is_reserved":false,"is_disabled":false,"rental_uris":{"android":"levelo://app?vid=bd8af203-772b-458c-bcf0-dcfd44b2f594","ios":"levelo://app?vid=bd8af203-772b-458c-bcf0-dcfd44b2f594"},"vehicle_type_id":"4","last_reported":1739276281,"current_range_meters":22000,"station_id":"ce4bhih2rcd13ifvqfs0","pricing_plan_id":"cebpf4jnsgd1na2vs0mg"},{"bike_id":"882be2d9-83f1-4f8c-bbbd-d744734438ec","system_id":"levelo_inurba_marseille","lat":43.30154,"lon":5.38083,"is_reserved":false,"is_disabled":false,"rental_uris":{"android":"levelo://app?vid=882be2d9-83f1-4f8c-bbbd-d744734438ec","ios":"levelo://app?vid=882be2d9-83f1-4f8c-bbbd-d744734438ec"},"vehicle_type_id":"4","last_reported":1739276281,"current_range_meters":26000,"station_id":"ce4bgjp2rcd13ifvqbh0","pricing_plan_id":"cebpf4jnsgd1na2vs0mg"},{"bike_id":"bab96504-4eb4-4fbe-9b9a-35e7eea618ef","system_id":"levelo_inurba_marseille","lat":43.30426,"lon":5.38899,"is_reserved":false,"is_disabled":false,"rental_uris":{"android":"levelo://app?vid=bab96504-4eb4-4fbe-9b9a-35e7eea618ef","ios":"levelo://app?vid=bab96504-4eb4-4fbe-9b9a-35e7eea618ef"},"vehicle_type_id":"4","last_reported":1739276281,"current_range_meters":27600,"station_id":"ce4bgk12rcd13ifvqbi0","pricing_plan_id":"cebpf4jnsgd1na2vs0mg"},{"bike_id":"be237c27-17d7-4433-b8f3-4abb352b8af0","system_id":"levelo_inurba_marseille","lat":43.30544,"lon":5.38407,"is_reserved":false,"is_disabled":false,"rental_uris":{"android":"levelo://app?vid=be237c27-17d7-4433-b8f3-4abb352b8af0","ios":"levelo://app?vid=be237c27-17d7-4433-b8f3-4abb352b8af0"},"vehicle_type_id":"4","last_reported":1739276281,"current_range_meters":26000,"station_id":"","pricing_plan_id":"cebpf4jnsgd1na2vs0mg"},{"bike_id":"4ca5aa98-e2e0-4042-a123-41cfb84b3df3","system_id":"levelo_inurba_marseille","lat":43.29269,"lon":5.40151,"is_reserved":false,"is_disabled":false,"rental_uris":{"android":"levelo://app?vid=4ca5aa98-e2e0-4042-a123-41cfb84b3df3","ios":"levelo://app?vid=4ca5aa98-e2e0-4042-a123-41cfb84b3df3"},"vehicle_type_id":"4","last_reported":1739276281,"current_range_meters":24800,"station_id":"ce4bh312rcd13ifvqdk0","pricing_plan_id":"cebpf4jnsgd1na2vs0mg"},{"bike_id":"b393cac2-0380-439e-8dbe-90b874c04f41","system_id":"levelo_inurba_marseille","lat":43.27656,"lon":5.38917,"is_reserved":false,"is_disabled":false,"rental_uris":{"android":"levelo://app?vid=b393cac2-0380-439e-8dbe-90b874c04f41","ios":"levelo://app?vid=b393cac2-0380-439e-8dbe-90b874c04f41"},"vehicle_type_id":"4","last_reported":1739276281,"current_range_meters":16400,"station_id":"ce4bhi12rcd13ifvqfo0","pricing_plan_id":"cebpf4jnsgd1na2vs0mg"},{"bike_id":"ac3db915-85ff-460a-b948-c32ecd7db728","system_id":"levelo_inurba_marseille","lat":43.30148,"lon":5.38089,"is_reserved":false,"is_disabled":false,"rental_uris":{"android":"levelo://app?vid=ac3db915-85ff-460a-b948-c32ecd7db728","ios":"levelo://app?vid=ac3db915-85ff-460a-b948-c32ecd7db728"},"vehicle_type_id":"4","last_reported":1739276281,"current_range_meters":38400,"station_id":"ce4bgjp2rcd13ifvqbh0","pricing_plan_id":"cebpf4jnsgd1na2vs0mg"},{"bike_id":"29da08aa-d631-4732-ad37-1e1d9d8e3c6c","system_id":"levelo_inurba_marseille","lat":43.2993,"lon":5.36526,"is_reserved":false,"is_disabled":true,"rental_uris":{"android":"levelo://app?vid=29da08aa-d631-4732-ad37-1e1d9d8e3c6c","ios":"levelo://app?vid=29da08aa-d631-4732-ad37-1e1d9d8e3c6c"},"vehicle_type_id":"4","last_reported":1739276281,"current_range_meters":0,"station_id":"ce4bgm92rcd13ifvqbr0","pricing_plan_id":"cebpf4jnsgd1na2vs0mg"},{"bike_id":"1d2000e3-6e82-4c8d-9a0a-5d8181e36eb3","system_id":"levelo_inurba_marseille","lat":43.25016,"lon":5.38922,"is_reserved":false,"is_disabled":false,"rental_uris":{"android":"levelo://app?vid=1d2000e3-6e82-4c8d-9a0a-5d8181e36eb3","ios":"levelo://app?vid=1d2000e3-6e82-4c8d-9a0a-5d8181e36eb3"},"vehicle_type_id":"4","last_reported":1739276281,"current_range_meters":38800,"station_id":"ce4bhgp2rcd13ifvqfd0","pricing_plan_id":"cebpf4jnsgd1na2vs0mg"},{"bike_id":"e751fec8-ce90-4689-8321-cb99c419f236","system_id":"levelo_inurba_marseille","lat":43.30327,"lon":5.36908,"is_reserved":false,"is_disabled":false,"rental_uris":{"android":"levelo://app?vid=e751fec8-ce90-4689-8321-cb99c419f236","ios":"levelo://app?vid=e751fec8-ce90-4689-8321-cb99c419f236"},"vehicle_type_id":"4","last_reported":1739276281,"current_range_meters":38800,"station_id":"ce4bgqh2rcd13ifvqc5g","pricing_plan_id":"cebpf4jnsgd1na2vs0mg"},{"bike_id":"1ecb6694-20ff-4bc8-ac28-3228262fb33f","system_id":"levelo_inurba_marseille","lat":43.24071,"lon":5.37745,"is_reserved":false,"is_disabled":false,"rental_uris":{"android":"levelo://app?vid=1ecb6694-20ff-4bc8-ac28-3228262fb33f","ios":"levelo://app?vid=1ecb6694-20ff-4bc8-ac28-3228262fb33f"},"vehicle_type_id":"4","last_reported":1739276281,"current_range_meters":38000,"station_id":"ce4bhnp2rcd13ifvqgvg","pricing_plan_id":"cebpf4jnsgd1na2vs0mg"},{"bike_id":"e673b253-bd7c-45ce-a06f-ff88a62a7e4e","system_id":"levelo_inurba_marseille","lat":43.30125,"lon":5.38103,"is_reserved":false,"is_disabled":false,"rental_uris":{"android":"levelo://app?vid=e673b253-bd7c-45ce-a06f-ff88a62a7e4e","ios":"levelo://app?vid=e673b253-bd7c-45ce-a06f-ff88a62a7e4e"},"vehicle_type_id":"4","last_reported":1739276281,"current_range_meters":38800,"station_id":"ce4bgjp2rcd13ifvqbh0","pricing_plan_id":"cebpf4jnsgd1na2vs0mg"},{"bike_id":"114230f1-fda9-4a9e-962b-4f7a3ae198a2","system_id":"levelo_inurba_marseille","lat":43.27421,"lon":5.39406,"is_reserved":false,"is_disabled":false,"rental_uris":{"android":"levelo://app?vid=114230f1-fda9-4a9e-962b-4f7a3ae198a2","ios":"levelo://app?vid=114230f1-fda9-4a9e-962b-4f7a3ae198a2"},"vehicle_type_id":"4","last_reported":1739276281,"current_range_meters":39200,"station_id":"ce4bhdp2rcd13ifvqf20","pricing_plan_id":"cebpf4jnsgd1na2vs0mg"},{"bike_id":"a76c7d73-686f-4a71-a421-b010005502c6","system_id":"levelo_inurba_marseille","lat":43.29898,"lon":5.3814,"is_reserved":false,"is_disabled":false,"rental_uris":{"android":"levelo://app?vid=a76c7d73-686f-4a71-a421-b010005502c6","ios":"levelo://app?vid=a76c7d73-686f-4a71-a421-b010005502c6"},"vehicle_type_id":"4","last_reported":1739276281,"current_range_meters":31200,"station_id":"ce4bgj12rcd13ifvqbc0","pricing_plan_id":"cebpf4jnsgd1na2vs0mg"},{"bike_id":"9ea74c1b-ab27-4bdb-912c-be6a1d1f78f5","system_id":"levelo_inurba_marseille","lat":43.29033,"lon":5.39974,"is_reserved":false,"is_disabled":false,"rental_uris":{"android":"levelo://app?vid=9ea74c1b-ab27-4bdb-912c-be6a1d1f78f5","ios":"levelo://app?vid=9ea74c1b-ab27-4bdb-912c-be6a1d1f78f5"},"vehicle_type_id":"4","last_reported":1739276281,"current_range_meters":39200,"station_id":"ce4bh392rcd13ifvqdm0","pricing_plan_id":"cebpf4jnsgd1na2vs0mg"},{"bike_id":"8f958795-1d0e-4a72-96cf-46fac3cf00bf","system_id":"levelo_inurba_marseille","lat":43.25518,"lon":5.39415,"is_reserved":false,"is_disabled":false,"rental_uris":{"android":"levelo://app?vid=8f958795-1d0e-4a72-96cf-46fac3cf00bf","ios":"levelo://app?vid=8f958795-1d0e-4a72-96cf-46fac3cf00bf"},"vehicle_type_id":"4","last_reported":1739276281,"current_range_meters":28000,"station_id":"","pricing_plan_id":"cebpf4jnsgd1na2vs0mg"},{"bike_id":"1c79f670-fe1b-4cc2-81f9-16f2c2b2a051","system_id":"levelo_inurba_marseille","lat":43.26216,"lon":5.37926,"is_reserved":false,"is_disabled":false,"rental_uris":{"android":"levelo://app?vid=1c79f670-fe1b-4cc2-81f9-16f2c2b2a051","ios":"levelo://app?vid=1c79f670-fe1b-4cc2-81f9-16f2c2b2a051"},"vehicle_type_id":"4","last_reported":1739276281,"current_range_meters":3600,"station_id":"ce4bhjp2rcd13ifvqg90","pricing_plan_id":"cebpf4jnsgd1na2vs0mg"},{"bike_id":"04d4b8ab-1d4d-44ab-9d49-e10f569c0553","system_id":"levelo_inurba_marseille","lat":43.2987,"lon":5.36257,"is_reserved":false,"is_disabled":false,"rental_uris":{"android":"levelo://app?vid=04d4b8ab-1d4d-44ab-9d49-e10f569c0553","ios":"levelo://app?vid=04d4b8ab-1d4d-44ab-9d49-e10f569c0553"},"vehicle_type_id":"4","last_reported":1739276281,"current_range_meters":38800,"station_id":"ce4bgpp2rcd13ifvqc3g","pricing_plan_id":"cebpf4jnsgd1na2vs0mg"},{"bike_id":"9898b037-faae-4cde-9117-710defe43c4a","system_id":"levelo_inurba_marseille","lat":43.2903,"lon":5.38636,"is_reserved":false,"is_disabled":false,"rental_uris":{"android":"levelo://app?vid=9898b037-faae-4cde-9117-710defe43c4a","ios":"levelo://app?vid=9898b037-faae-4cde-9117-710defe43c4a"},"vehicle_type_id":"4","last_reported":1739276281,"current_range_meters":30400,"station_id":"ce4bh4p2rcd13ifvqe0g","pricing_plan_id":"cebpf4jnsgd1na2vs0mg"},{"bike_id":"c45f9736-f76b-4736-bb35-6ea7285877a3","system_id":"levelo_inurba_marseille","lat":43.2572,"lon":5.41118,"is_reserved":false,"is_disabled":false,"rental_uris":{"android":"levelo://app?vid=c45f9736-f76b-4736-bb35-6ea7285877a3","ios":"levelo://app?vid=c45f9736-f76b-4736-bb35-6ea7285877a3"},"vehicle_type_id":"4","last_reported":1739276281,"current_range_meters":38800,"station_id":"ce4bhkp2rcd13ifvqgd0","pricing_plan_id":"cebpf4jnsgd1na2vs0mg"},{"bike_id":"b965b493-8ca8-44e5-a19e-6ca9c8cd5cf0","system_id":"levelo_inurba_marseille","lat":43.26807,"lon":5.40265,"is_reserved":false,"is_disabled":true,"rental_uris":{"android":"levelo://app?vid=b965b493-8ca8-44e5-a19e-6ca9c8cd5cf0","ios":"levelo://app?vid=b965b493-8ca8-44e5-a19e-6ca9c8cd5cf0"},"vehicle_type_id":"4","last_reported":1739276281,"current_range_meters":2000,"station_id":"ce501612rcd8frsf0b60","pricing_plan_id":"cebpf4jnsgd1na2vs0mg"},{"bike_id":"43f04ac6-ceb2-4485-a3ec-1eb06afcdf11","system_id":"levelo_inurba_marseille","lat":43.34148,"lon":5.40894,"is_reserved":false,"is_disabled":false,"rental_uris":{"android":"levelo://app?vid=43f04ac6-ceb2-4485-a3ec-1eb06afcdf11","ios":"levelo://app?vid=43f04ac6-ceb2-4485-a3ec-1eb06afcdf11"},"vehicle_type_id":"4","last_reported":1739276281,"current_range_meters":32800,"station_id":"ce4bhqh2rcd13ifvqhlg","pricing_plan_id":"cebpf4jnsgd1na2vs0mg"},{"bike_id":"c4813b27-4250-43ea-8be5-ccd7321d2af3","system_id":"levelo_inurba_marseille","lat":43.28223,"lon":5.36986,"is_reserved":false,"is_disabled":false,"rental_uris":{"android":"levelo://app?vid=c4813b27-4250-43ea-8be5-ccd7321d2af3","ios":"levelo://app?vid=c4813b27-4250-43ea-8be5-ccd7321d2af3"},"vehicle_type_id":"4","last_reported":1739276281,"current_range_meters":22400,"station_id":"","pricing_plan_id":"cebpf4jnsgd1na2vs0mg"},{"bike_id":"93bc07c8-c5e8-4508-b353-1c2773c131f8","system_id":"levelo_inurba_marseille","lat":43.33605,"lon":5.41036,"is_reserved":false,"is_disabled":false,"rental_uris":{"android":"levelo://app?vid=93bc07c8-c5e8-4508-b353-1c2773c131f8","ios":"levelo://app?vid=93bc07c8-c5e8-4508-b353-1c2773c131f8"},"vehicle_type_id":"4","last_reported":1739276281,"current_range_meters":38800,"station_id":"ce4bhqh2rcd13ifvqhmg","pricing_plan_id":"cebpf4jnsgd1na2vs0mg"},{"bike_id":"122d7d43-3c44-4d47-b6da-626f8774caf6","system_id":"levelo_inurba_marseille","lat":43.27953,"lon":5.41047,"is_reserved":false,"is_disabled":false,"rental_uris":{"android":"levelo://app?vid=122d7d43-3c44-4d47-b6da-626f8774caf6","ios":"levelo://app?vid=122d7d43-3c44-4d47-b6da-626f8774caf6"},"vehicle_type_id":"4","last_reported":1739276281,"current_range_meters":24000,"station_id":"ce4bhnp2rcd13ifvqh0g","pricing_plan_id":"cebpf4jnsgd1na2vs0mg"},{"bike_id":"e5d5676c-c537-4eae-b26b-34f577be51cd","system_id":"levelo_inurba_marseille","lat":43.30591,"lon":5.39358,"is_reserved":false,"is_disabled":false,"rental_uris":{"android":"levelo://app?vid=e5d5676c-c537-4eae-b26b-34f577be51cd","ios":"levelo://app?vid=e5d5676c-c537-4eae-b26b-34f577be51cd"},"vehicle_type_id":"4","last_reported":1739276281,"current_range_meters":11600,"station_id":"ce4bh0p2rcd13ifvqd80","pricing_plan_id":"cebpf4jnsgd1na2vs0mg"},{"bike_id":"b67d0500-a2a9-480e-97b8-c0c618addbd3","system_id":"levelo_inurba_marseille","lat":43.33614,"lon":5.41026,"is_reserved":false,"is_disabled":false,"rental_uris":{"android":"levelo://app?vid=b67d0500-a2a9-480e-97b8-c0c618addbd3","ios":"levelo://app?vid=b67d0500-a2a9-480e-97b8-c0c618addbd3"},"vehicle_type_id":"4","last_reported":1739276281,"current_range_meters":23200,"station_id":"ce4bhqh2rcd13ifvqhmg","pricing_plan_id":"cebpf4jnsgd1na2vs0mg"},{"bike_id":"1112ea29-891b-4d9d-ae75-55b3895e2352","system_id":"levelo_inurba_marseille","lat":43.30084,"lon":5.39071,"is_reserved":false,"is_disabled":true,"rental_uris":{"android":"levelo://app?vid=1112ea29-891b-4d9d-ae75-55b3895e2352","ios":"levelo://app?vid=1112ea29-891b-4d9d-ae75-55b3895e2352"},"vehicle_type_id":"4","last_reported":1739276281,"current_range_meters":1600,"station_id":"ce4bh192rcd13ifvqdb0","pricing_plan_id":"cebpf4jnsgd1na2vs0mg"},{"bike_id":"260e9838-2399-4eb1-b0ca-e79e7c0785e4","system_id":"levelo_inurba_marseille","lat":43.29846,"lon":5.36275,"is_reserved":false,"is_disabled":false,"rental_uris":{"android":"levelo://app?vid=260e9838-2399-4eb1-b0ca-e79e7c0785e4","ios":"levelo://app?vid=260e9838-2399-4eb1-b0ca-e79e7c0785e4"},"vehicle_type_id":"4","last_reported":1739276281,"current_range_meters":14800,"station_id":"ce4bgpp2rcd13ifvqc3g","pricing_plan_id":"cebpf4jnsgd1na2vs0mg"},{"bike_id":"841e0f04-b00a-44de-83b7-b9b92c40d93b","system_id":"levelo_inurba_marseille","lat":43.28154,"lon":5.42644,"is_reserved":false,"is_disabled":false,"rental_uris":{"android":"levelo://app?vid=841e0f04-b00a-44de-83b7-b9b92c40d93b","ios":"levelo://app?vid=841e0f04-b00a-44de-83b7-b9b92c40d93b"},"vehicle_type_id":"4","last_reported":1739276281,"current_range_meters":14000,"station_id":"ce4bhnh2rcd13ifvqgug","pricing_plan_id":"cebpf4jnsgd1na2vs0mg"},{"bike_id":"e18b3ea6-dbf2-4570-a530-097b6a661633","system_id":"levelo_inurba_marseille","lat":43.29695,"lon":5.37706,"is_reserved":false,"is_disabled":false,"rental_uris":{"android":"levelo://app?vid=e18b3ea6-dbf2-4570-a530-097b6a661633","ios":"levelo://app?vid=e18b3ea6-dbf2-4570-a530-097b6a661633"},"vehicle_type_id":"4","last_reported":1739276281,"current_range_meters":30000,"station_id":"ce4bgkh2rcd13ifvqbl0","pricing_plan_id":"cebpf4jnsgd1na2vs0mg"},{"bike_id":"30c0885a-ee3f-424b-8753-d2f0c1a6c3c4","system_id":"levelo_inurba_marseille","lat":43.31677,"lon":5.3777,"is_reserved":false,"is_disabled":false,"rental_uris":{"android":"levelo://app?vid=30c0885a-ee3f-424b-8753-d2f0c1a6c3c4","ios":"levelo://app?vid=30c0885a-ee3f-424b-8753-d2f0c1a6c3c4"},"vehicle_type_id":"4","last_reported":1739276281,"current_range_meters":39200,"station_id":"ce4bgth2rcd13ifvqch0","pricing_plan_id":"cebpf4jnsgd1na2vs0mg"},{"bike_id":"e386115e-80fa-419a-a1c5-c522d3fe111b","system_id":"levelo_inurba_marseille","lat":43.33605,"lon":5.41036,"is_reserved":false,"is_disabled":false,"rental_uris":{"android":"levelo://app?vid=e386115e-80fa-419a-a1c5-c522d3fe111b","ios":"levelo://app?vid=e386115e-80fa-419a-a1c5-c522d3fe111b"},"vehicle_type_id":"4","last_reported":1739276281,"current_range_meters":30000,"station_id":"ce4bhqh2rcd13ifvqhmg","pricing_plan_id":"cebpf4jnsgd1na2vs0mg"},{"bike_id":"d672dfd1-eb49-41bd-98e9-cf0079bce74f","system_id":"levelo_inurba_marseille","lat":43.31241,"lon":5.3685,"is_reserved":false,"is_disabled":false,"rental_uris":{"android":"levelo://app?vid=d672dfd1-eb49-41bd-98e9-cf0079bce74f","ios":"levelo://app?vid=d672dfd1-eb49-41bd-98e9-cf0079bce74f"},"vehicle_type_id":"4","last_reported":1739276281,"current_range_meters":39200,"station_id":"ce4bgl92rcd13ifvqbq0","pricing_plan_id":"cebpf4jnsgd1na2vs0mg"},{"bike_id":"d32bc138-b248-4cf7-b985-ba46be6bfdf5","system_id":"levelo_inurba_marseille","lat":43.29571,"lon":5.37487,"is_reserved":false,"is_disabled":false,"rental_uris":{"android":"levelo://app?vid=d32bc138-b248-4cf7-b985-ba46be6bfdf5","ios":"levelo://app?vid=d32bc138-b248-4cf7-b985-ba46be6bfdf5"},"vehicle_type_id":"4","last_reported":1739276281,"current_range_meters":24400,"station_id":"ce4bgh92rcd13ifvqb50","pricing_plan_id":"cebpf4jnsgd1na2vs0mg"},{"bike_id":"1ec14052-2d33-4aa1-9ab8-58cc71db74d1","system_id":"levelo_inurba_marseille","lat":43.241826,"lon":5.363913,"is_reserved":false,"is_disabled":false,"rental_uris":{"android":"levelo://app?vid=1ec14052-2d33-4aa1-9ab8-58cc71db74d1","ios":"levelo://app?vid=1ec14052-2d33-4aa1-9ab8-58cc71db74d1"},"vehicle_type_id":"4","last_reported":1739276281,"current_range_meters":14800,"station_id":"cpo36qri1sfpv3e86is0","pricing_plan_id":"cebpf4jnsgd1na2vs0mg"},{"bike_id":"cd42001a-370f-49cf-a4b8-c1f6610d0139","system_id":"levelo_inurba_marseille","lat":43.3055,"lon":5.36529,"is_reserved":false,"is_disabled":false,"rental_uris":{"android":"levelo://app?vid=cd42001a-370f-49cf-a4b8-c1f6610d0139","ios":"levelo://app?vid=cd42001a-370f-49cf-a4b8-c1f6610d0139"},"vehicle_type_id":"4","last_reported":1739276281,"current_range_meters":33200,"station_id":"ce4bgs12rcd13ifvqcag","pricing_plan_id":"cebpf4jnsgd1na2vs0mg"},{"bike_id":"b3b45130-4456-4f49-a726-9923bcb61db7","system_id":"levelo_inurba_marseille","lat":43.26946,"lon":5.38668,"is_reserved":false,"is_disabled":false,"rental_uris":{"android":"levelo://app?vid=b3b45130-4456-4f49-a726-9923bcb61db7","ios":"levelo://app?vid=b3b45130-4456-4f49-a726-9923bcb61db7"},"vehicle_type_id":"4","last_reported":1739276281,"current_range_meters":39200,"station_id":"ce4bhh92rcd13ifvqfh0","pricing_plan_id":"cebpf4jnsgd1na2vs0mg"},{"bike_id":"8913abcd-46a2-4291-9109-3db319aed34e","system_id":"levelo_inurba_marseille","lat":43.29306,"lon":5.37167,"is_reserved":false,"is_disabled":false,"rental_uris":{"android":"levelo://app?vid=8913abcd-46a2-4291-9109-3db319aed34e","ios":"levelo://app?vid=8913abcd-46a2-4291-9109-3db319aed34e"},"vehicle_type_id":"4","last_reported":1739276281,"current_range_meters":36000,"station_id":"ce4bgh92rcd13ifvqb40","pricing_plan_id":"cebpf4jnsgd1na2vs0mg"},{"bike_id":"605182cb-1623-4c1f-bb48-a7e822f9d2c7","system_id":"levelo_inurba_marseille","lat":43.336124,"lon":5.410219,"is_reserved":false,"is_disabled":false,"rental_uris":{"android":"levelo://app?vid=605182cb-1623-4c1f-bb48-a7e822f9d2c7","ios":"levelo://app?vid=605182cb-1623-4c1f-bb48-a7e822f9d2c7"},"vehicle_type_id":"4","last_reported":1739276281,"current_range_meters":23200,"station_id":"ce4bhqh2rcd13ifvqhmg","pricing_plan_id":"cebpf4jnsgd1na2vs0mg"},{"bike_id":"347897ed-9a6b-4171-ba6b-f9aefaee5b0a","system_id":"levelo_inurba_marseille","lat":43.28074,"lon":5.39652,"is_reserved":false,"is_disabled":false,"rental_uris":{"android":"levelo://app?vid=347897ed-9a6b-4171-ba6b-f9aefaee5b0a","ios":"levelo://app?vid=347897ed-9a6b-4171-ba6b-f9aefaee5b0a"},"vehicle_type_id":"4","last_reported":1739276281,"current_range_meters":21600,"station_id":"ce4bho12rcd13ifvqh2g","pricing_plan_id":"cebpf4jnsgd1na2vs0mg"},{"bike_id":"79df8d93-a019-4f4d-ad9b-607d770a7910","system_id":"levelo_inurba_marseille","lat":43.29388,"lon":5.38902,"is_reserved":false,"is_disabled":false,"rental_uris":{"android":"levelo://app?vid=79df8d93-a019-4f4d-ad9b-607d770a7910","ios":"levelo://app?vid=79df8d93-a019-4f4d-ad9b-607d770a7910"},"vehicle_type_id":"4","last_reported":1739276281,"current_range_meters":26800,"station_id":"","pricing_plan_id":"cebpf4jnsgd1na2vs0mg"},{"bike_id":"fbb98623-bd6f-4427-9463-8f7fc3b3bd20","system_id":"levelo_inurba_marseille","lat":43.28037,"lon":5.36948,"is_reserved":false,"is_disabled":false,"rental_uris":{"android":"levelo://app?vid=fbb98623-bd6f-4427-9463-8f7fc3b3bd20","ios":"levelo://app?vid=fbb98623-bd6f-4427-9463-8f7fc3b3bd20"},"vehicle_type_id":"4","last_reported":1739276281,"current_range_meters":28400,"station_id":"ce4bha12rcd13ifvqef0","pricing_plan_id":"cebpf4jnsgd1na2vs0mg"},{"bike_id":"854805d2-36c9-4a45-8e66-d1c1896f7875","system_id":"levelo_inurba_marseille","lat":43.27179,"lon":5.40988,"is_reserved":false,"is_disabled":false,"rental_uris":{"android":"levelo://app?vid=854805d2-36c9-4a45-8e66-d1c1896f7875","ios":"levelo://app?vid=854805d2-36c9-4a45-8e66-d1c1896f7875"},"vehicle_type_id":"4","last_reported":1739276281,"current_range_meters":38000,"station_id":"ce4bhl12rcd13ifvqgf0","pricing_plan_id":"cebpf4jnsgd1na2vs0mg"},{"bike_id":"e91cc092-a630-4129-985b-fa7fc3ce488f","system_id":"levelo_inurba_marseille","lat":43.30548,"lon":5.36524,"is_reserved":false,"is_disabled":false,"rental_uris":{"android":"levelo://app?vid=e91cc092-a630-4129-985b-fa7fc3ce488f","ios":"levelo://app?vid=e91cc092-a630-4129-985b-fa7fc3ce488f"},"vehicle_type_id":"4","last_reported":1739276281,"current_range_meters":30800,"station_id":"ce4bgs12rcd13ifvqcag","pricing_plan_id":"cebpf4jnsgd1na2vs0mg"},{"bike_id":"3918df01-57d3-4c8a-a1f1-47d39a328b33","system_id":"levelo_inurba_marseille","lat":43.30599,"lon":5.37225,"is_reserved":false,"is_disabled":false,"rental_uris":{"android":"levelo://app?vid=3918df01-57d3-4c8a-a1f1-47d39a328b33","ios":"levelo://app?vid=3918df01-57d3-4c8a-a1f1-47d39a328b33"},"vehicle_type_id":"4","last_reported":1739276281,"current_range_meters":39200,"station_id":"ce4bgqh2rcd13ifvqc4g","pricing_plan_id":"cebpf4jnsgd1na2vs0mg"},{"bike_id":"1422ac00-8049-44ec-9828-90c7e2ba7cd0","system_id":"levelo_inurba_marseille","lat":43.30607,"lon":5.37253,"is_reserved":false,"is_disabled":false,"rental_uris":{"android":"levelo://app?vid=1422ac00-8049-44ec-9828-90c7e2ba7cd0","ios":"levelo://app?vid=1422ac00-8049-44ec-9828-90c7e2ba7cd0"},"vehicle_type_id":"4","last_reported":1739276281,"current_range_meters":38000,"station_id":"ce4bgqh2rcd13ifvqc4g","pricing_plan_id":"cebpf4jnsgd1na2vs0mg"},{"bike_id":"e74edd37-0ec7-4f56-b77f-e7249fd01314","system_id":"levelo_inurba_marseille","lat":43.30532,"lon":5.36525,"is_reserved":false,"is_disabled":false,"rental_uris":{"android":"levelo://app?vid=e74edd37-0ec7-4f56-b77f-e7249fd01314","ios":"levelo://app?vid=e74edd37-0ec7-4f56-b77f-e7249fd01314"},"vehicle_type_id":"4","last_reported":1739276281,"current_range_meters":12800,"station_id":"ce4bgs12rcd13ifvqcag","pricing_plan_id":"cebpf4jnsgd1na2vs0mg"},{"bike_id":"fa55914f-96a1-4fa2-9ccb-a6cf23d5b031","system_id":"levelo_inurba_marseille","lat":43.29919,"lon":5.37481,"is_reserved":false,"is_disabled":false,"rental_uris":{"android":"levelo://app?vid=fa55914f-96a1-4fa2-9ccb-a6cf23d5b031","ios":"levelo://app?vid=fa55914f-96a1-4fa2-9ccb-a6cf23d5b031"},"vehicle_type_id":"4","last_reported":1739276281,"current_range_meters":39200,"station_id":"ce4bgjh2rcd13ifvqbg0","pricing_plan_id":"cebpf4jnsgd1na2vs0mg"},{"bike_id":"06d6ff22-1c53-40c5-b6dc-dd605f998fbb","system_id":"levelo_inurba_marseille","lat":43.30287,"lon":5.37695,"is_reserved":false,"is_disabled":false,"rental_uris":{"android":"levelo://app?vid=06d6ff22-1c53-40c5-b6dc-dd605f998fbb","ios":"levelo://app?vid=06d6ff22-1c53-40c5-b6dc-dd605f998fbb"},"vehicle_type_id":"4","last_reported":1739276281,"current_range_meters":28400,"station_id":"ce4bguh2rcd13ifvqcj0","pricing_plan_id":"cebpf4jnsgd1na2vs0mg"},{"bike_id":"ca63d75f-d551-49cb-bec7-e060cadddd73","system_id":"levelo_inurba_marseille","lat":43.28095,"lon":5.44171,"is_reserved":false,"is_disabled":false,"rental_uris":{"android":"levelo://app?vid=ca63d75f-d551-49cb-bec7-e060cadddd73","ios":"levelo://app?vid=ca63d75f-d551-49cb-bec7-e060cadddd73"},"vehicle_type_id":"4","last_reported":1739276281,"current_range_meters":14800,"station_id":"","pricing_plan_id":"cebpf4jnsgd1na2vs0mg"},{"bike_id":"d671c209-eb2a-4253-9022-284224ee7ee7","system_id":"levelo_inurba_marseille","lat":43.30457,"lon":5.37903,"is_reserved":false,"is_disabled":false,"rental_uris":{"android":"levelo://app?vid=d671c209-eb2a-4253-9022-284224ee7ee7","ios":"levelo://app?vid=d671c209-eb2a-4253-9022-284224ee7ee7"},"vehicle_type_id":"4","last_reported":1739276281,"current_range_meters":30000,"station_id":"ce4bgup2rcd13ifvqcn0","pricing_plan_id":"cebpf4jnsgd1na2vs0mg"},{"bike_id":"dda775b3-736d-4baa-abf6-7212c4f9bf6d","system_id":"levelo_inurba_marseille","lat":43.294316,"lon":5.397565,"is_reserved":false,"is_disabled":false,"rental_uris":{"android":"levelo://app?vid=dda775b3-736d-4baa-abf6-7212c4f9bf6d","ios":"levelo://app?vid=dda775b3-736d-4baa-abf6-7212c4f9bf6d"},"vehicle_type_id":"4","last_reported":1739276281,"current_range_meters":21600,"station_id":"ce4bh3h2rcd13ifvqdo0","pricing_plan_id":"cebpf4jnsgd1na2vs0mg"},{"bike_id":"dd7e4e2f-f2db-4c41-9b95-8e20b6da1267","system_id":"levelo_inurba_marseille","lat":43.32503,"lon":5.36556,"is_reserved":false,"is_disabled":false,"rental_uris":{"android":"levelo://app?vid=dd7e4e2f-f2db-4c41-9b95-8e20b6da1267","ios":"levelo://app?vid=dd7e4e2f-f2db-4c41-9b95-8e20b6da1267"},"vehicle_type_id":"4","last_reported":1739276281,"current_range_meters":17600,"station_id":"ce4bhs12rcd13ifvqhvg","pricing_plan_id":"cebpf4jnsgd1na2vs0mg"},{"bike_id":"5baf39dd-07ca-4c36-b84d-55d91f868a26","system_id":"levelo_inurba_marseille","lat":43.295676,"lon":5.382561,"is_reserved":false,"is_disabled":true,"rental_uris":{"android":"levelo://app?vid=5baf39dd-07ca-4c36-b84d-55d91f868a26","ios":"levelo://app?vid=5baf39dd-07ca-4c36-b84d-55d91f868a26"},"vehicle_type_id":"4","last_reported":1739276281,"current_range_meters":32800,"station_id":"","pricing_plan_id":"cebpf4jnsgd1na2vs0mg"},{"bike_id":"4bf79abe-ae55-433d-aa7e-912e42377df3","system_id":"levelo_inurba_marseille","lat":43.29984,"lon":5.38502,"is_reserved":false,"is_disabled":false,"rental_uris":{"android":"levelo://app?vid=4bf79abe-ae55-433d-aa7e-912e42377df3","ios":"levelo://app?vid=4bf79abe-ae55-433d-aa7e-912e42377df3"},"vehicle_type_id":"4","last_reported":1739276281,"current_range_meters":32000,"station_id":"ce4bgj92rcd13ifvqbd0","pricing_plan_id":"cebpf4jnsgd1na2vs0mg"},{"bike_id":"d96881a2-4c38-4f1d-8b3a-e81e59cdbe5d","system_id":"levelo_inurba_marseille","lat":43.29779,"lon":5.393445,"is_reserved":false,"is_disabled":false,"rental_uris":{"android":"levelo://app?vid=d96881a2-4c38-4f1d-8b3a-e81e59cdbe5d","ios":"levelo://app?vid=d96881a2-4c38-4f1d-8b3a-e81e59cdbe5d"},"vehicle_type_id":"4","last_reported":1739276281,"current_range_meters":38800,"station_id":"chh1huq6cuj3fo74tm60","pricing_plan_id":"cebpf4jnsgd1na2vs0mg"},{"bike_id":"5100eee9-2f8a-4904-8328-bc8929ad02ad","system_id":"levelo_inurba_marseille","lat":43.30138,"lon":5.39866,"is_reserved":false,"is_disabled":true,"rental_uris":{"android":"levelo://app?vid=5100eee9-2f8a-4904-8328-bc8929ad02ad","ios":"levelo://app?vid=5100eee9-2f8a-4904-8328-bc8929ad02ad"},"vehicle_type_id":"4","last_reported":1739276281,"current_range_meters":32000,"station_id":"ce4bh0h2rcd13ifvqd40","pricing_plan_id":"cebpf4jnsgd1na2vs0mg"},{"bike_id":"9b8abd08-e44c-4856-b389-4f5ff2f6b096","system_id":"levelo_inurba_marseille","lat":43.29181,"lon":5.37538,"is_reserved":false,"is_disabled":false,"rental_uris":{"android":"levelo://app?vid=9b8abd08-e44c-4856-b389-4f5ff2f6b096","ios":"levelo://app?vid=9b8abd08-e44c-4856-b389-4f5ff2f6b096"},"vehicle_type_id":"4","last_reported":1739276281,"current_range_meters":11200,"station_id":"","pricing_plan_id":"cebpf4jnsgd1na2vs0mg"},{"bike_id":"77617e9d-dcfd-4c4b-8a4e-05c756dc78f6","system_id":"levelo_inurba_marseille","lat":43.27074,"lon":5.42279,"is_reserved":false,"is_disabled":false,"rental_uris":{"android":"levelo://app?vid=77617e9d-dcfd-4c4b-8a4e-05c756dc78f6","ios":"levelo://app?vid=77617e9d-dcfd-4c4b-8a4e-05c756dc78f6"},"vehicle_type_id":"4","last_reported":1739276281,"current_range_meters":4000,"station_id":"ce4bhk92rcd13ifvqgb0","pricing_plan_id":"cebpf4jnsgd1na2vs0mg"},{"bike_id":"118acaa8-c377-4759-a8f9-c3303973ef34","system_id":"levelo_inurba_marseille","lat":43.29875,"lon":5.38908,"is_reserved":false,"is_disabled":false,"rental_uris":{"android":"levelo://app?vid=118acaa8-c377-4759-a8f9-c3303973ef34","ios":"levelo://app?vid=118acaa8-c377-4759-a8f9-c3303973ef34"},"vehicle_type_id":"4","last_reported":1739276281,"current_range_meters":24800,"station_id":"ce4bh392rcd13ifvqdl0","pricing_plan_id":"cebpf4jnsgd1na2vs0mg"},{"bike_id":"fbd03bc5-eeec-43a8-9a4b-c9d5079b4f48","system_id":"levelo_inurba_marseille","lat":43.25941,"lon":5.40907,"is_reserved":false,"is_disabled":false,"rental_uris":{"android":"levelo://app?vid=fbd03bc5-eeec-43a8-9a4b-c9d5079b4f48","ios":"levelo://app?vid=fbd03bc5-eeec-43a8-9a4b-c9d5079b4f48"},"vehicle_type_id":"4","last_reported":1739276281,"current_range_meters":24000,"station_id":"ce4bhm92rcd13ifvqglg","pricing_plan_id":"cebpf4jnsgd1na2vs0mg"},{"bike_id":"8e4a1bfa-cffb-4104-8241-5f2c62d3067b","system_id":"levelo_inurba_marseille","lat":43.28348,"lon":5.38097,"is_reserved":false,"is_disabled":false,"rental_uris":{"android":"levelo://app?vid=8e4a1bfa-cffb-4104-8241-5f2c62d3067b","ios":"levelo://app?vid=8e4a1bfa-cffb-4104-8241-5f2c62d3067b"},"vehicle_type_id":"4","last_reported":1739276281,"current_range_meters":38800,"station_id":"ce4bh412rcd13ifvqdr0","pricing_plan_id":"cebpf4jnsgd1na2vs0mg"},{"bike_id":"71729715-a0e6-4615-ae37-074e053a04bc","system_id":"levelo_inurba_marseille","lat":43.24172,"lon":5.39736,"is_reserved":false,"is_disabled":false,"rental_uris":{"android":"levelo://app?vid=71729715-a0e6-4615-ae37-074e053a04bc","ios":"levelo://app?vid=71729715-a0e6-4615-ae37-074e053a04bc"},"vehicle_type_id":"4","last_reported":1739276281,"current_range_meters":28000,"station_id":"ce4bhn12rcd13ifvqgpg","pricing_plan_id":"cebpf4jnsgd1na2vs0mg"},{"bike_id":"e476b422-69b1-4f74-9e6f-2e8608063c5f","system_id":"levelo_inurba_marseille","lat":43.30532,"lon":5.36462,"is_reserved":false,"is_disabled":false,"rental_uris":{"android":"levelo://app?vid=e476b422-69b1-4f74-9e6f-2e8608063c5f","ios":"levelo://app?vid=e476b422-69b1-4f74-9e6f-2e8608063c5f"},"vehicle_type_id":"4","last_reported":1739276281,"current_range_meters":18000,"station_id":"","pricing_plan_id":"cebpf4jnsgd1na2vs0mg"},{"bike_id":"bb2c3666-e655-4322-865e-a1fcfe1f8a0c","system_id":"levelo_inurba_marseille","lat":43.301541,"lon":5.380908,"is_reserved":false,"is_disabled":false,"rental_uris":{"android":"levelo://app?vid=bb2c3666-e655-4322-865e-a1fcfe1f8a0c","ios":"levelo://app?vid=bb2c3666-e655-4322-865e-a1fcfe1f8a0c"},"vehicle_type_id":"4","last_reported":1739276281,"current_range_meters":32800,"station_id":"ce4bgjp2rcd13ifvqbh0","pricing_plan_id":"cebpf4jnsgd1na2vs0mg"},{"bike_id":"54ce597b-1ca1-4d62-923d-d4b29eec04b3","system_id":"levelo_inurba_marseille","lat":43.31131,"lon":5.38261,"is_reserved":false,"is_disabled":false,"rental_uris":{"android":"levelo://app?vid=54ce597b-1ca1-4d62-923d-d4b29eec04b3","ios":"levelo://app?vid=54ce597b-1ca1-4d62-923d-d4b29eec04b3"},"vehicle_type_id":"4","last_reported":1739276281,"current_range_meters":20400,"station_id":"","pricing_plan_id":"cebpf4jnsgd1na2vs0mg"},{"bike_id":"b4765ae2-b7fb-4718-bf68-ce7ba2c817f9","system_id":"levelo_inurba_marseille","lat":43.27073,"lon":5.42276,"is_reserved":false,"is_disabled":false,"rental_uris":{"android":"levelo://app?vid=b4765ae2-b7fb-4718-bf68-ce7ba2c817f9","ios":"levelo://app?vid=b4765ae2-b7fb-4718-bf68-ce7ba2c817f9"},"vehicle_type_id":"4","last_reported":1739276281,"current_range_meters":24000,"station_id":"ce4bhk92rcd13ifvqgb0","pricing_plan_id":"cebpf4jnsgd1na2vs0mg"},{"bike_id":"ace7c7c4-55ef-471c-935e-108dd26488b5","system_id":"levelo_inurba_marseille","lat":43.24551,"lon":5.3953,"is_reserved":false,"is_disabled":false,"rental_uris":{"android":"levelo://app?vid=ace7c7c4-55ef-471c-935e-108dd26488b5","ios":"levelo://app?vid=ace7c7c4-55ef-471c-935e-108dd26488b5"},"vehicle_type_id":"4","last_reported":1739276281,"current_range_meters":30800,"station_id":"ce4bhlp2rcd13ifvqgjg","pricing_plan_id":"cebpf4jnsgd1na2vs0mg"},{"bike_id":"8f5334ea-9cc6-4b0b-b8e9-99f92a06d7ac","system_id":"levelo_inurba_marseille","lat":43.30159,"lon":5.38079,"is_reserved":false,"is_disabled":true,"rental_uris":{"android":"levelo://app?vid=8f5334ea-9cc6-4b0b-b8e9-99f92a06d7ac","ios":"levelo://app?vid=8f5334ea-9cc6-4b0b-b8e9-99f92a06d7ac"},"vehicle_type_id":"4","last_reported":1739276281,"current_range_meters":38800,"station_id":"ce4bgjp2rcd13ifvqbh0","pricing_plan_id":"cebpf4jnsgd1na2vs0mg"},{"bike_id":"ed22b738-1280-4e28-bdfe-5a8aa889b31d","system_id":"levelo_inurba_marseille","lat":43.30426,"lon":5.38891,"is_reserved":false,"is_disabled":false,"rental_uris":{"android":"levelo://app?vid=ed22b738-1280-4e28-bdfe-5a8aa889b31d","ios":"levelo://app?vid=ed22b738-1280-4e28-bdfe-5a8aa889b31d"},"vehicle_type_id":"4","last_reported":1739276281,"current_range_meters":38800,"station_id":"ce4bgk12rcd13ifvqbi0","pricing_plan_id":"cebpf4jnsgd1na2vs0mg"},{"bike_id":"6781aa85-34f7-4835-bddc-391492c4d5fe","system_id":"levelo_inurba_marseille","lat":43.25012,"lon":5.38935,"is_reserved":false,"is_disabled":false,"rental_uris":{"android":"levelo://app?vid=6781aa85-34f7-4835-bddc-391492c4d5fe","ios":"levelo://app?vid=6781aa85-34f7-4835-bddc-391492c4d5fe"},"vehicle_type_id":"4","last_reported":1739276281,"current_range_meters":38800,"station_id":"ce4bhgp2rcd13ifvqfd0","pricing_plan_id":"cebpf4jnsgd1na2vs0mg"},{"bike_id":"ec670ee5-ec68-4784-935c-203a78cbc136","system_id":"levelo_inurba_marseille","lat":43.32998,"lon":5.39056,"is_reserved":false,"is_disabled":false,"rental_uris":{"android":"levelo://app?vid=ec670ee5-ec68-4784-935c-203a78cbc136","ios":"levelo://app?vid=ec670ee5-ec68-4784-935c-203a78cbc136"},"vehicle_type_id":"4","last_reported":1739276281,"current_range_meters":38400,"station_id":"ce4bhr92rcd13ifvqhrg","pricing_plan_id":"cebpf4jnsgd1na2vs0mg"},{"bike_id":"7423fba4-3655-42cc-8df1-be43fe1aa507","system_id":"levelo_inurba_marseille","lat":43.29036,"lon":5.37573,"is_reserved":false,"is_disabled":false,"rental_uris":{"android":"levelo://app?vid=7423fba4-3655-42cc-8df1-be43fe1aa507","ios":"levelo://app?vid=7423fba4-3655-42cc-8df1-be43fe1aa507"},"vehicle_type_id":"4","last_reported":1739276281,"current_range_meters":15200,"station_id":"ce4bh692rcd13ifvqe90","pricing_plan_id":"cebpf4jnsgd1na2vs0mg"},{"bike_id":"65eb2482-d77a-4233-a001-e85a90d7ac92","system_id":"levelo_inurba_marseille","lat":43.31343,"lon":5.36715,"is_reserved":false,"is_disabled":false,"rental_uris":{"android":"levelo://app?vid=65eb2482-d77a-4233-a001-e85a90d7ac92","ios":"levelo://app?vid=65eb2482-d77a-4233-a001-e85a90d7ac92"},"vehicle_type_id":"4","last_reported":1739276281,"current_range_meters":38800,"station_id":"ce4bgr92rcd13ifvqc6g","pricing_plan_id":"cebpf4jnsgd1na2vs0mg"},{"bike_id":"aab4804f-5aed-4d66-91a7-87685a4c27c3","system_id":"levelo_inurba_marseille","lat":43.29511,"lon":5.37516,"is_reserved":false,"is_disabled":false,"rental_uris":{"android":"levelo://app?vid=aab4804f-5aed-4d66-91a7-87685a4c27c3","ios":"levelo://app?vid=aab4804f-5aed-4d66-91a7-87685a4c27c3"},"vehicle_type_id":"4","last_reported":1739276281,"current_range_meters":38800,"station_id":"ce4bgkp2rcd13ifvqbmg","pricing_plan_id":"cebpf4jnsgd1na2vs0mg"},{"bike_id":"4549964f-89eb-4c3f-ac10-53fb6e990b17","system_id":"levelo_inurba_marseille","lat":43.33609,"lon":5.41037,"is_reserved":false,"is_disabled":false,"rental_uris":{"android":"levelo://app?vid=4549964f-89eb-4c3f-ac10-53fb6e990b17","ios":"levelo://app?vid=4549964f-89eb-4c3f-ac10-53fb6e990b17"},"vehicle_type_id":"4","last_reported":1739276281,"current_range_meters":28400,"station_id":"ce4bhqh2rcd13ifvqhmg","pricing_plan_id":"cebpf4jnsgd1na2vs0mg"},{"bike_id":"b598f689-547e-42c2-b72d-682aa8876477","system_id":"levelo_inurba_marseille","lat":43.30459,"lon":5.37898,"is_reserved":false,"is_disabled":false,"rental_uris":{"android":"levelo://app?vid=b598f689-547e-42c2-b72d-682aa8876477","ios":"levelo://app?vid=b598f689-547e-42c2-b72d-682aa8876477"},"vehicle_type_id":"4","last_reported":1739276281,"current_range_meters":13600,"station_id":"ce4bgup2rcd13ifvqcn0","pricing_plan_id":"cebpf4jnsgd1na2vs0mg"},{"bike_id":"2c3be03f-c078-49f1-af40-a47310b88b12","system_id":"levelo_inurba_marseille","lat":43.31325,"lon":5.39693,"is_reserved":false,"is_disabled":false,"rental_uris":{"android":"levelo://app?vid=2c3be03f-c078-49f1-af40-a47310b88b12","ios":"levelo://app?vid=2c3be03f-c078-49f1-af40-a47310b88b12"},"vehicle_type_id":"4","last_reported":1739276281,"current_range_meters":29600,"station_id":"ce4bgvp2rcd13ifvqcu0","pricing_plan_id":"cebpf4jnsgd1na2vs0mg"},{"bike_id":"49e9d985-ed08-4871-b429-7eba37a2e633","system_id":"levelo_inurba_marseille","lat":43.24086,"lon":5.37777,"is_reserved":false,"is_disabled":false,"rental_uris":{"android":"levelo://app?vid=49e9d985-ed08-4871-b429-7eba37a2e633","ios":"levelo://app?vid=49e9d985-ed08-4871-b429-7eba37a2e633"},"vehicle_type_id":"4","last_reported":1739276281,"current_range_meters":22000,"station_id":"ce4bhnp2rcd13ifvqgvg","pricing_plan_id":"cebpf4jnsgd1na2vs0mg"},{"bike_id":"7b37eb36-5784-4f91-a2b1-df3773c900b7","system_id":"levelo_inurba_marseille","lat":43.27997,"lon":5.40025,"is_reserved":false,"is_disabled":false,"rental_uris":{"android":"levelo://app?vid=7b37eb36-5784-4f91-a2b1-df3773c900b7","ios":"levelo://app?vid=7b37eb36-5784-4f91-a2b1-df3773c900b7"},"vehicle_type_id":"4","last_reported":1739276281,"current_range_meters":34800,"station_id":"ce4bho92rcd13ifvqh4g","pricing_plan_id":"cebpf4jnsgd1na2vs0mg"},{"bike_id":"4e6ba098-f4cc-46cc-b55d-0f84839622e1","system_id":"levelo_inurba_marseille","lat":43.29027,"lon":5.38623,"is_reserved":false,"is_disabled":false,"rental_uris":{"android":"levelo://app?vid=4e6ba098-f4cc-46cc-b55d-0f84839622e1","ios":"levelo://app?vid=4e6ba098-f4cc-46cc-b55d-0f84839622e1"},"vehicle_type_id":"4","last_reported":1739276281,"current_range_meters":33600,"station_id":"ce4bh4p2rcd13ifvqe0g","pricing_plan_id":"cebpf4jnsgd1na2vs0mg"},{"bike_id":"81dc18dc-3bdd-4dec-8d6e-5cbe0dfce1ab","system_id":"levelo_inurba_marseille","lat":43.3055,"lon":5.36527,"is_reserved":false,"is_disabled":false,"rental_uris":{"android":"levelo://app?vid=81dc18dc-3bdd-4dec-8d6e-5cbe0dfce1ab","ios":"levelo://app?vid=81dc18dc-3bdd-4dec-8d6e-5cbe0dfce1ab"},"vehicle_type_id":"4","last_reported":1739276281,"current_range_meters":27200,"station_id":"ce4bgs12rcd13ifvqcag","pricing_plan_id":"cebpf4jnsgd1na2vs0mg"},{"bike_id":"aa73f3e1-5d29-48cf-86fc-acab720e3734","system_id":"levelo_inurba_marseille","lat":43.23952,"lon":5.3665,"is_reserved":false,"is_disabled":false,"rental_uris":{"android":"levelo://app?vid=aa73f3e1-5d29-48cf-86fc-acab720e3734","ios":"levelo://app?vid=aa73f3e1-5d29-48cf-86fc-acab720e3734"},"vehicle_type_id":"4","last_reported":1739276281,"current_range_meters":11200,"station_id":"ce4bhi12rcd13ifvqfp0","pricing_plan_id":"cebpf4jnsgd1na2vs0mg"},{"bike_id":"f17f084e-b6c7-45c8-92c0-b718ab2f3029","system_id":"levelo_inurba_marseille","lat":43.24395,"lon":5.37055,"is_reserved":false,"is_disabled":false,"rental_uris":{"android":"levelo://app?vid=f17f084e-b6c7-45c8-92c0-b718ab2f3029","ios":"levelo://app?vid=f17f084e-b6c7-45c8-92c0-b718ab2f3029"},"vehicle_type_id":"4","last_reported":1739276281,"current_range_meters":37600,"station_id":"ce4bhhh2rcd13ifvqfk0","pricing_plan_id":"cebpf4jnsgd1na2vs0mg"},{"bike_id":"75e0cfac-b762-4576-9b28-f5e082cdfb22","system_id":"levelo_inurba_marseille","lat":43.34171,"lon":5.40892,"is_reserved":false,"is_disabled":false,"rental_uris":{"android":"levelo://app?vid=75e0cfac-b762-4576-9b28-f5e082cdfb22","ios":"levelo://app?vid=75e0cfac-b762-4576-9b28-f5e082cdfb22"},"vehicle_type_id":"4","last_reported":1739276281,"current_range_meters":38800,"station_id":"ce4bhqh2rcd13ifvqhlg","pricing_plan_id":"cebpf4jnsgd1na2vs0mg"},{"bike_id":"b80c52b5-88ea-4f85-b442-240714f9a252","system_id":"levelo_inurba_marseille","lat":43.26789,"lon":5.39416,"is_reserved":false,"is_disabled":false,"rental_uris":{"android":"levelo://app?vid=b80c52b5-88ea-4f85-b442-240714f9a252","ios":"levelo://app?vid=b80c52b5-88ea-4f85-b442-240714f9a252"},"vehicle_type_id":"4","last_reported":1739276281,"current_range_meters":28000,"station_id":"ce4bhh12rcd13ifvqfg0","pricing_plan_id":"cebpf4jnsgd1na2vs0mg"},{"bike_id":"27f2d8b1-79be-4fb4-b997-1120d54be4d4","system_id":"levelo_inurba_marseille","lat":43.277208,"lon":5.423823,"is_reserved":false,"is_disabled":false,"rental_uris":{"android":"levelo://app?vid=27f2d8b1-79be-4fb4-b997-1120d54be4d4","ios":"levelo://app?vid=27f2d8b1-79be-4fb4-b997-1120d54be4d4"},"vehicle_type_id":"4","last_reported":1739276281,"current_range_meters":15200,"station_id":"","pricing_plan_id":"cebpf4jnsgd1na2vs0mg"},{"bike_id":"d157203c-3a5b-4bbc-9638-6eefce740d5e","system_id":"levelo_inurba_marseille","lat":43.23193,"lon":5.3556,"is_reserved":false,"is_disabled":false,"rental_uris":{"android":"levelo://app?vid=d157203c-3a5b-4bbc-9638-6eefce740d5e","ios":"levelo://app?vid=d157203c-3a5b-4bbc-9638-6eefce740d5e"},"vehicle_type_id":"4","last_reported":1739276281,"current_range_meters":38000,"station_id":"ce4bhu92rcd13ifvqi70","pricing_plan_id":"cebpf4jnsgd1na2vs0mg"},{"bike_id":"17b0fa37-8e37-4a51-90b5-f29aafb08b0e","system_id":"levelo_inurba_marseille","lat":43.30416,"lon":5.38924,"is_reserved":false,"is_disabled":false,"rental_uris":{"android":"levelo://app?vid=17b0fa37-8e37-4a51-90b5-f29aafb08b0e","ios":"levelo://app?vid=17b0fa37-8e37-4a51-90b5-f29aafb08b0e"},