{"last_updated":1701958018,"ttl":30,"version":"2.2","data":{"bikes":[{"bike_id":"0dfc37a9-81e2-4764-8747-435ec226756d","system_id":"levelo_inurba_marseille","lat":43.309076,"lon":5.368465,"is_reserved":false,"is_disabled":false,"rental_uris":{"android":"levelo://app?vid=0dfc37a9-81e2-4764-8747-435ec226756d","ios":"levelo://app?vid=0dfc37a9-81e2-4764-8747-435ec226756d"},"vehicle_type_id":"4","last_reported":1701958018,"current_range_meters":19600,"station_id":"ce4bgn92rcd13ifvqbvg","pricing_plan_id":"free"},{"bike_id":"b7c2b7a8-41bd-4446-a6e1-cfe28355ab86","system_id":"levelo_inurba_marseille","lat":43.309076,"lon":5.368465,"is_reserved":false,"is_disabled":false,"rental_uris":{"android":"levelo://app?vid=b7c2b7a8-41bd-4446-a6e1-cfe28355ab86","ios":"levelo://app?vid=b7c2b7a8-41bd-4446-a6e1-cfe28355ab86"},"vehicle_type_id":"4","last_reported":1701958018,"current_range_meters":15200,"station_id":"ce4bgn92rcd13ifvqbvg","pricing_plan_id":"free"},{"bike_id":"7237927c-b1b4-473a-8f10-8d45d09c3959","system_id":"levelo_inurba_marseille","lat":43.314811,"lon":5.373103,"is_reserved":false,"is_disabled":false,"rental_uris":{"android":"levelo://app?vid=7237927c-b1b4-473a-8f10-8d45d09c3959","ios":"levelo://app?vid=7237927c-b1b4-473a-8f10-8d45d09c3959"},"vehicle_type_id":"4","last_reported":1701958018,"current_range_meters":26400,"station_id":"ce4bgt12rcd13ifvqcd0","pricing_plan_id":"free"},{"bike_id":"39001e86-c965-4a4c-a4d6-5a866268c657","system_id":"levelo_inurba_marseille","lat":43.309039,"lon":5.371797,"is_reserved":false,"is_disabled":false,"rental_uris":{"android":"levelo://app?vid=39001e86-c965-4a4c-a4d6-5a866268c657","ios":"levelo://app?vid=39001e86-c965-4a4c-a4d6-5a866268c657"},"vehicle_type_id":"4","last_reported":1701958018,"current_range_meters":22400,"station_id":"ce4bguh2rcd13ifvqckg","pricing_plan_id":"free"},{"bike_id":"533fa769-cda4-490a-9ab9-0e7ceaf78d37","system_id":"levelo_inurba_marseille","lat":43.309039,"lon":5.371797,"is_reserved":false,"is_disabled":false,"rental_uris":{"android":"levelo://app?vid=533fa769-cda4-490a-9ab9-0e7ceaf78d37","ios":"levelo://app?vid=533fa769-cda4-490a-9ab9-0e7ceaf78d37"},"vehicle_type_id":"4","last_reported":1701958018,"current_range_meters":12800,"station_id":"ce4bguh2rcd13ifvqckg","pricing_plan_id":"free"},{"bike_id":"473d0ccd-08e3-49d9-ac43-dd461ee1b18a","system_id":"levelo_inurba_marseille","lat":43.305714,"lon":5.365633,"is_reserved":false,"is_disabled":false,"rental_uris":{"android":"levelo://app?vid=473d0ccd-08e3-49d9-ac43-dd461ee1b18a","ios":"levelo://app?vid=473d0ccd-08e3-49d9-ac43-dd461ee1b18a"},"vehicle_type_id":"4","last_reported":1701958018,"current_range_meters":3200,"station_id":"ce4bgs12rcd13ifvqcag","pricing_plan_id":"free"},{"bike_id":"16b4688d-b88b-4372-b352-2f024646a1e8","system_id":"levelo_inurba_marseille","lat":43.305706,"lon":5.365654,"is_reserved":false,"is_disabled":false,"rental_uris":{"android":"levelo://app?vid=16b4688d-b88b-4372-b352-2f024646a1e8","ios":"levelo://app?vid=16b4688d-b88b-4372-b352-2f024646a1e8"},"vehicle_type_id":"4","last_reported":1701958018,"current_range_meters":21200,"station_id":"ce4bgs12rcd13ifvqcag","pricing_plan_id":"free"},{"bike_id":"7d72abbf-81ae-41a5-ae02-4464b76e0b35","system_id":"levelo_inurba_marseille","lat":43.305706,"lon":5.365654,"is_reserved":false,"is_disabled":false,"rental_uris":{"android":"levelo://app?vid=7d72abbf-81ae-41a5-ae02-4464b76e0b35","ios":"levelo://app?vid=7d72abbf-81ae-41a5-ae02-4464b76e0b35"},"vehicle_type_id":"4","last_reported":1701958018,"current_range_meters":24000,"station_id":"ce4bgs12rcd13ifvqcag","pricing_plan_id":"free"},{"bike_id":"11d9fc79-aa04-4bb9-be2b-c8cdbf371ef0","system_id":"levelo_inurba_marseille","lat":43.305706,"lon":5.365654,"is_reserved":false,"is_disabled":false,"rental_uris":{"android":"levelo://app?vid=11d9fc79-aa04-4bb9-be2b-c8cdbf371ef0","ios":"levelo://app?vid=11d9fc79-aa04-4bb9-be2b-c8cdbf371ef0"},"vehicle_type_id":"4","last_reported":1701958018,"current_range_meters":20000,"station_id":"ce4bgs12rcd13ifvqcag","pricing_plan_id":"free"},{"bike_id":"2a3101cc-af92-4683-8d82-df4103f33353","system_id":"levelo_inurba_marseille","lat":43.305706,"lon":5.365654,"is_reserved":false,"is_disabled":false,"rental_uris":{"android":"levelo://app?vid=2a3101cc-af92-4683-8d82-df4103f33353","ios":"levelo://app?vid=2a3101cc-af92-4683-8d82-df4103f33353"},"vehicle_type_id":"4","last_reported":1701958018,"current_range_meters":12800,"station_id":"ce4bgs12rcd13ifvqcag","pricing_plan_id":"free"},{"bike_id":"ba0b15d0-2277-4238-a22f-394648130026","system_id":"levelo_inurba_marseille","lat":43.305368,"lon":5.367343,"is_reserved":false,"is_disabled":false,"rental_uris":{"android":"levelo://app?vid=ba0b15d0-2277-4238-a22f-394648130026","ios":"levelo://app?vid=ba0b15d0-2277-4238-a22f-394648130026"},"vehicle_type_id":"4","last_reported":1701958018,"current_range_meters":18800,"station_id":"ce4bgrp2rcd13ifvqc9g","pricing_plan_id":"free"},{"bike_id":"c8d0dc5f-2be5-413e-a638-0c096eb6755a","system_id":"levelo_inurba_marseille","lat":43.305989,"lon":5.37225,"is_reserved":false,"is_disabled":false,"rental_uris":{"android":"levelo://app?vid=c8d0dc5f-2be5-413e-a638-0c096eb6755a","ios":"levelo://app?vid=c8d0dc5f-2be5-413e-a638-0c096eb6755a"},"vehicle_type_id":"4","last_reported":1701958018,"current_range_meters":2800,"station_id":"ce4bgqh2rcd13ifvqc4g","pricing_plan_id":"free"},{"bike_id":"e6af16ed-a41c-4e0e-a4d7-e642d9829198","system_id":"levelo_inurba_marseille","lat":43.307945,"lon":5.376487,"is_reserved":false,"is_disabled":false,"rental_uris":{"android":"levelo://app?vid=e6af16ed-a41c-4e0e-a4d7-e642d9829198","ios":"levelo://app?vid=e6af16ed-a41c-4e0e-a4d7-e642d9829198"},"vehicle_type_id":"4","last_reported":1701958018,"current_range_meters":23600,"station_id":"ce4bgv92rcd13ifvqcq0","pricing_plan_id":"free"},{"bike_id":"52ad1926-3e70-4aef-b245-0ca657d243f5","system_id":"levelo_inurba_marseille","lat":43.317075,"lon":5.377367,"is_reserved":false,"is_disabled":false,"rental_uris":{"android":"levelo://app?vid=52ad1926-3e70-4aef-b245-0ca657d243f5","ios":"levelo://app?vid=52ad1926-3e70-4aef-b245-0ca657d243f5"},"vehicle_type_id":"4","last_reported":1701958018,"current_range_meters":28800,"station_id":"ce4bgth2rcd13ifvqch0","pricing_plan_id":"free"},{"bike_id":"adf146c5-e4e1-4668-9a33-042940925130","system_id":"levelo_inurba_marseille","lat":43.31351,"lon":5.37909,"is_reserved":false,"is_disabled":false,"rental_uris":{"android":"levelo://app?vid=adf146c5-e4e1-4668-9a33-042940925130","ios":"levelo://app?vid=adf146c5-e4e1-4668-9a33-042940925130"},"vehicle_type_id":"4","last_reported":1701958018,"current_range_meters":2400,"station_id":"","pricing_plan_id":"free"},{"bike_id":"2dd42ade-e406-48ee-a7f5-087a8c525238","system_id":"levelo_inurba_marseille","lat":43.301939,"lon":5.366286,"is_reserved":false,"is_disabled":false,"rental_uris":{"android":"levelo://app?vid=2dd42ade-e406-48ee-a7f5-087a8c525238","ios":"levelo://app?vid=2dd42ade-e406-48ee-a7f5-087a8c525238"},"vehicle_type_id":"4","last_reported":1701958018,"current_range_meters":9200,"station_id":"ce4bgrh2rcd13ifvqc8g","pricing_plan_id":"free"},{"bike_id":"5b9d305a-621c-4f88-bc44-7fa6a118eb2f","system_id":"levelo_inurba_marseille","lat":43.301939,"lon":5.366286,"is_reserved":false,"is_disabled":false,"rental_uris":{"android":"levelo://app?vid=5b9d305a-621c-4f88-bc44-7fa6a118eb2f","ios":"levelo://app?vid=5b9d305a-621c-4f88-bc44-7fa6a118eb2f"},"vehicle_type_id":"4","last_reported":1701958018,"current_range_meters":28000,"station_id":"ce4bgrh2rcd13ifvqc8g","pricing_plan_id":"free"},{"bike_id":"74a6bbbe-627d-4676-b75c-b26afc7ae080","system_id":"levelo_inurba_marseille","lat":43.301939,"lon":5.366286,"is_reserved":false,"is_disabled":false,"rental_uris":{"android":"levelo://app?vid=74a6bbbe-627d-4676-b75c-b26afc7ae080","ios":"levelo://app?vid=74a6bbbe-627d-4676-b75c-b26afc7ae080"},"vehicle_type_id":"4","last_reported":1701958018,"current_range_meters":10000,"station_id":"ce4bgrh2rcd13ifvqc8g","pricing_plan_id":"free"},{"bike_id":"1ea60f58-75f7-4484-b705-1156df4b02ad","system_id":"levelo_inurba_marseille","lat":43.302817,"lon":5.373431,"is_reserved":false,"is_disabled":false,"rental_uris":{"android":"levelo://app?vid=1ea60f58-75f7-4484-b705-1156df4b02ad","ios":"levelo://app?vid=1ea60f58-75f7-4484-b705-1156df4b02ad"},"vehicle_type_id":"4","last_reported":1701958018,"current_range_meters":5200,"station_id":"","pricing_plan_id":"free"},{"bike_id":"1c3409b6-3ef7-4201-9477-ace56ebe0ee1","system_id":"levelo_inurba_marseille","lat":43.30463,"lon":5.37896,"is_reserved":false,"is_disabled":false,"rental_uris":{"android":"levelo://app?vid=1c3409b6-3ef7-4201-9477-ace56ebe0ee1","ios":"levelo://app?vid=1c3409b6-3ef7-4201-9477-ace56ebe0ee1"},"vehicle_type_id":"4","last_reported":1701958018,"current_range_meters":0,"station_id":"ce4bgup2rcd13ifvqcn0","pricing_plan_id":"free"},{"bike_id":"5e12066e-b173-4983-90a6-0f803f2465f2","system_id":"levelo_inurba_marseille","lat":43.32471,"lon":5.36562,"is_reserved":false,"is_disabled":false,"rental_uris":{"android":"levelo://app?vid=5e12066e-b173-4983-90a6-0f803f2465f2","ios":"levelo://app?vid=5e12066e-b173-4983-90a6-0f803f2465f2"},"vehicle_type_id":"4","last_reported":1701958018,"current_range_meters":30400,"station_id":"ce4bhs12rcd13ifvqhvg","pricing_plan_id":"free"},{"bike_id":"389665b4-2a9b-4f8e-80f2-fb36e6781357","system_id":"levelo_inurba_marseille","lat":43.301429,"lon":5.37413,"is_reserved":false,"is_disabled":false,"rental_uris":{"android":"levelo://app?vid=389665b4-2a9b-4f8e-80f2-fb36e6781357","ios":"levelo://app?vid=389665b4-2a9b-4f8e-80f2-fb36e6781357"},"vehicle_type_id":"4","last_reported":1701958018,"current_range_meters":20400,"station_id":"ce4bgs92rcd13ifvqcc0","pricing_plan_id":"free"},{"bike_id":"9ee0ef7a-8d9c-4d78-8ae5-64e12b708d26","system_id":"levelo_inurba_marseille","lat":43.319997,"lon":5.381594,"is_reserved":false,"is_disabled":false,"rental_uris":{"android":"levelo://app?vid=9ee0ef7a-8d9c-4d78-8ae5-64e12b708d26","ios":"levelo://app?vid=9ee0ef7a-8d9c-4d78-8ae5-64e12b708d26"},"vehicle_type_id":"4","last_reported":1701958018,"current_range_meters":0,"station_id":"ce4bhr12rcd13ifvqhpg","pricing_plan_id":"free"},{"bike_id":"35d1ed6b-138f-4e8d-addf-72c050409f7d","system_id":"levelo_inurba_marseille","lat":43.299724,"lon":5.371829,"is_reserved":false,"is_disabled":false,"rental_uris":{"android":"levelo://app?vid=35d1ed6b-138f-4e8d-addf-72c050409f7d","ios":"levelo://app?vid=35d1ed6b-138f-4e8d-addf-72c050409f7d"},"vehicle_type_id":"4","last_reported":1701958018,"current_range_meters":28400,"station_id":"ce4bgr92rcd13ifvqc7g","pricing_plan_id":"free"},{"bike_id":"e20a838f-af6a-4f8f-b54d-81c0ee0a0091","system_id":"levelo_inurba_marseille","lat":43.29927,"lon":5.36552,"is_reserved":false,"is_disabled":false,"rental_uris":{"android":"levelo://app?vid=e20a838f-af6a-4f8f-b54d-81c0ee0a0091","ios":"levelo://app?vid=e20a838f-af6a-4f8f-b54d-81c0ee0a0091"},"vehicle_type_id":"4","last_reported":1701958018,"current_range_meters":14800,"station_id":"ce4bgm92rcd13ifvqbr0","pricing_plan_id":"free"},{"bike_id":"353f94e4-15cd-401e-a787-0b5aa4d3519a","system_id":"levelo_inurba_marseille","lat":43.299243,"lon":5.37481,"is_reserved":false,"is_disabled":false,"rental_uris":{"android":"levelo://app?vid=353f94e4-15cd-401e-a787-0b5aa4d3519a","ios":"levelo://app?vid=353f94e4-15cd-401e-a787-0b5aa4d3519a"},"vehicle_type_id":"4","last_reported":1701958018,"current_range_meters":28400,"station_id":"ce4bgjh2rcd13ifvqbg0","pricing_plan_id":"free"},{"bike_id":"ab3dc538-cc39-480e-9b91-e3606a385be2","system_id":"levelo_inurba_marseille","lat":43.327873,"lon":5.36699,"is_reserved":false,"is_disabled":false,"rental_uris":{"android":"levelo://app?vid=ab3dc538-cc39-480e-9b91-e3606a385be2","ios":"levelo://app?vid=ab3dc538-cc39-480e-9b91-e3606a385be2"},"vehicle_type_id":"4","last_reported":1701958018,"current_range_meters":18000,"station_id":"","pricing_plan_id":"free"},{"bike_id":"26fc0c47-e5ee-49d2-911f-b4135c252acd","system_id":"levelo_inurba_marseille","lat":43.32789,"lon":5.36699,"is_reserved":false,"is_disabled":false,"rental_uris":{"android":"levelo://app?vid=26fc0c47-e5ee-49d2-911f-b4135c252acd","ios":"levelo://app?vid=26fc0c47-e5ee-49d2-911f-b4135c252acd"},"vehicle_type_id":"4","last_reported":1701958018,"current_range_meters":25600,"station_id":"","pricing_plan_id":"free"},{"bike_id":"55311dec-ec61-4646-8d1a-4ddd89532043","system_id":"levelo_inurba_marseille","lat":43.327997,"lon":5.366947,"is_reserved":false,"is_disabled":false,"rental_uris":{"android":"levelo://app?vid=55311dec-ec61-4646-8d1a-4ddd89532043","ios":"levelo://app?vid=55311dec-ec61-4646-8d1a-4ddd89532043"},"vehicle_type_id":"4","last_reported":1701958018,"current_range_meters":24400,"station_id":"","pricing_plan_id":"free"},{"bike_id":"4eabd40d-7f61-4763-a024-5eabd57f2486","system_id":"levelo_inurba_marseille","lat":43.328371,"lon":5.366912,"is_reserved":false,"is_disabled":false,"rental_uris":{"android":"levelo://app?vid=4eabd40d-7f61-4763-a024-5eabd57f2486","ios":"levelo://app?vid=4eabd40d-7f61-4763-a024-5eabd57f2486"},"vehicle_type_id":"4","last_reported":1701958018,"current_range_meters":22400,"station_id":"ce4bhs92rcd13ifvqi0g","pricing_plan_id":"free"},{"bike_id":"b7171cec-dd33-488f-b065-0831a9103f7a","system_id":"levelo_inurba_marseille","lat":43.32828,"lon":5.3668,"is_reserved":false,"is_disabled":false,"rental_uris":{"android":"levelo://app?vid=b7171cec-dd33-488f-b065-0831a9103f7a","ios":"levelo://app?vid=b7171cec-dd33-488f-b065-0831a9103f7a"},"vehicle_type_id":"4","last_reported":1701958018,"current_range_meters":19600,"station_id":"ce4bhs92rcd13ifvqi0g","pricing_plan_id":"free"},{"bike_id":"9190eb99-d6ca-4501-a2a4-7ed7fc8df97e","system_id":"levelo_inurba_marseille","lat":43.328339,"lon":5.366783,"is_reserved":false,"is_disabled":false,"rental_uris":{"android":"levelo://app?vid=9190eb99-d6ca-4501-a2a4-7ed7fc8df97e","ios":"levelo://app?vid=9190eb99-d6ca-4501-a2a4-7ed7fc8df97e"},"vehicle_type_id":"4","last_reported":1701958018,"current_range_meters":18800,"station_id":"ce4bhs92rcd13ifvqi0g","pricing_plan_id":"free"},{"bike_id":"93237b63-21f0-45f4-953f-e0a98ea7041f","system_id":"levelo_inurba_marseille","lat":43.297163,"lon":5.365866,"is_reserved":false,"is_disabled":false,"rental_uris":{"android":"levelo://app?vid=93237b63-21f0-45f4-953f-e0a98ea7041f","ios":"levelo://app?vid=93237b63-21f0-45f4-953f-e0a98ea7041f"},"vehicle_type_id":"4","last_reported":1701958018,"current_range_meters":12800,"station_id":"ce4bgn12rcd13ifvqbt0","pricing_plan_id":"free"},{"bike_id":"92dc65d6-6823-4de3-93d4-056f738f090c","system_id":"levelo_inurba_marseille","lat":43.316538,"lon":5.38954,"is_reserved":false,"is_disabled":false,"rental_uris":{"android":"levelo://app?vid=92dc65d6-6823-4de3-93d4-056f738f090c","ios":"levelo://app?vid=92dc65d6-6823-4de3-93d4-056f738f090c"},"vehicle_type_id":"4","last_reported":1701958018,"current_range_meters":5200,"station_id":"","pricing_plan_id":"free"},{"bike_id":"5b875fdd-a756-4056-9c00-4605de5f98d7","system_id":"levelo_inurba_marseille","lat":43.295809,"lon":5.367418,"is_reserved":false,"is_disabled":false,"rental_uris":{"android":"levelo://app?vid=5b875fdd-a756-4056-9c00-4605de5f98d7","ios":"levelo://app?vid=5b875fdd-a756-4056-9c00-4605de5f98d7"},"vehicle_type_id":"4","last_reported":1701958018,"current_range_meters":30000,"station_id":"ce4bgph2rcd13ifvqc2g","pricing_plan_id":"free"},{"bike_id":"d8fb9a0c-b070-4a37-8d60-9832caf5f42e","system_id":"levelo_inurba_marseille","lat":43.295781,"lon":5.367426,"is_reserved":false,"is_disabled":false,"rental_uris":{"android":"levelo://app?vid=d8fb9a0c-b070-4a37-8d60-9832caf5f42e","ios":"levelo://app?vid=d8fb9a0c-b070-4a37-8d60-9832caf5f42e"},"vehicle_type_id":"4","last_reported":1701958018,"current_range_meters":29600,"station_id":"","pricing_plan_id":"free"},{"bike_id":"f191432a-e5cc-4b12-8def-595ea95eda3e","system_id":"levelo_inurba_marseille","lat":43.295762,"lon":5.367423,"is_reserved":false,"is_disabled":false,"rental_uris":{"android":"levelo://app?vid=f191432a-e5cc-4b12-8def-595ea95eda3e","ios":"levelo://app?vid=f191432a-e5cc-4b12-8def-595ea95eda3e"},"vehicle_type_id":"4","last_reported":1701958018,"current_range_meters":2400,"station_id":"","pricing_plan_id":"free"},{"bike_id":"40bdece7-dc9f-433c-8e24-ad89e7d66be9","system_id":"levelo_inurba_marseille","lat":43.309589,"lon":5.390258,"is_reserved":false,"is_disabled":false,"rental_uris":{"android":"levelo://app?vid=40bdece7-dc9f-433c-8e24-ad89e7d66be9","ios":"levelo://app?vid=40bdece7-dc9f-433c-8e24-ad89e7d66be9"},"vehicle_type_id":"4","last_reported":1701958018,"current_range_meters":14400,"station_id":"ce4bgup2rcd13ifvqco0","pricing_plan_id":"free"},{"bike_id":"a0dd50cf-fd3c-45cc-8b2f-62750a894907","system_id":"levelo_inurba_marseille","lat":43.290779,"lon":5.371482,"is_reserved":false,"is_disabled":false,"rental_uris":{"android":"levelo://app?vid=a0dd50cf-fd3c-45cc-8b2f-62750a894907","ios":"levelo://app?vid=a0dd50cf-fd3c-45cc-8b2f-62750a894907"},"vehicle_type_id":"4","last_reported":1701958018,"current_range_meters":4000,"station_id":"ce4bh5p2rcd13ifvqe4g","pricing_plan_id":"free"},{"bike_id":"98b0e8f2-f175-43d5-b912-b7fd091a911e","system_id":"levelo_inurba_marseille","lat":43.298037,"lon":5.381066,"is_reserved":false,"is_disabled":false,"rental_uris":{"android":"levelo://app?vid=98b0e8f2-f175-43d5-b912-b7fd091a911e","ios":"levelo://app?vid=98b0e8f2-f175-43d5-b912-b7fd091a911e"},"vehicle_type_id":"4","last_reported":1701958018,"current_range_meters":0,"station_id":"ce4bgip2rcd13ifvqbb0","pricing_plan_id":"free"},{"bike_id":"f4963da8-07e0-454e-a70d-a54404a30515","system_id":"levelo_inurba_marseille","lat":43.29798,"lon":5.38099,"is_reserved":false,"is_disabled":false,"rental_uris":{"android":"levelo://app?vid=f4963da8-07e0-454e-a70d-a54404a30515","ios":"levelo://app?vid=f4963da8-07e0-454e-a70d-a54404a30515"},"vehicle_type_id":"4","last_reported":1701958018,"current_range_meters":0,"station_id":"ce4bgip2rcd13ifvqbb0","pricing_plan_id":"free"},{"bike_id":"939df909-61ad-47d2-9a24-279eade37c8c","system_id":"levelo_inurba_marseille","lat":43.295703,"lon":5.375037,"is_reserved":false,"is_disabled":false,"rental_uris":{"android":"levelo://app?vid=939df909-61ad-47d2-9a24-279eade37c8c","ios":"levelo://app?vid=939df909-61ad-47d2-9a24-279eade37c8c"},"vehicle_type_id":"4","last_reported":1701958018,"current_range_meters":0,"station_id":"ce4bgh92rcd13ifvqb50","pricing_plan_id":"free"},{"bike_id":"eabc128d-a853-4137-af9b-4ca75a2fc7c5","system_id":"levelo_inurba_marseille","lat":43.295748,"lon":5.37522,"is_reserved":false,"is_disabled":false,"rental_uris":{"android":"levelo://app?vid=eabc128d-a853-4137-af9b-4ca75a2fc7c5","ios":"levelo://app?vid=eabc128d-a853-4137-af9b-4ca75a2fc7c5"},"vehicle_type_id":"4","last_reported":1701958018,"current_range_meters":800,"station_id":"ce4bgh92rcd13ifvqb50","pricing_plan_id":"free"},{"bike_id":"3ef4f8b1-e028-43c8-90fb-a46cf5b2881d","system_id":"levelo_inurba_marseille","lat":43.298037,"lon":5.381066,"is_reserved":false,"is_disabled":false,"rental_uris":{"android":"levelo://app?vid=3ef4f8b1-e028-43c8-90fb-a46cf5b2881d","ios":"levelo://app?vid=3ef4f8b1-e028-43c8-90fb-a46cf5b2881d"},"vehicle_type_id":"4","last_reported":1701958018,"current_range_meters":7200,"station_id":"ce4bgip2rcd13ifvqbb0","pricing_plan_id":"free"},{"bike_id":"c89be194-43ef-4f21-8729-ef0bd599e118","system_id":"levelo_inurba_marseille","lat":43.296263,"lon":5.377094,"is_reserved":false,"is_disabled":false,"rental_uris":{"android":"levelo://app?vid=c89be194-43ef-4f21-8729-ef0bd599e118","ios":"levelo://app?vid=c89be194-43ef-4f21-8729-ef0bd599e118"},"vehicle_type_id":"4","last_reported":1701958018,"current_range_meters":0,"station_id":"ce4bgi92rcd13ifvqb90","pricing_plan_id":"free"},{"bike_id":"fcd1f120-91f1-4c12-82e3-753145fb135d","system_id":"levelo_inurba_marseille","lat":43.299717,"lon":5.384845,"is_reserved":false,"is_disabled":false,"rental_uris":{"android":"levelo://app?vid=fcd1f120-91f1-4c12-82e3-753145fb135d","ios":"levelo://app?vid=fcd1f120-91f1-4c12-82e3-753145fb135d"},"vehicle_type_id":"4","last_reported":1701958018,"current_range_meters":20800,"station_id":"ce4bgj92rcd13ifvqbd0","pricing_plan_id":"free"},{"bike_id":"e170744e-09b9-4092-824f-a2ecc5da2cfb","system_id":"levelo_inurba_marseille","lat":43.32367,"lon":5.388836,"is_reserved":false,"is_disabled":false,"rental_uris":{"android":"levelo://app?vid=e170744e-09b9-4092-824f-a2ecc5da2cfb","ios":"levelo://app?vid=e170744e-09b9-4092-824f-a2ecc5da2cfb"},"vehicle_type_id":"4","last_reported":1701958018,"current_range_meters":9600,"station_id":"ce4bhqp2rcd13ifvqhog","pricing_plan_id":"free"},{"bike_id":"72714644-a730-462a-b220-6837667c5de6","system_id":"levelo_inurba_marseille","lat":43.31819,"lon":5.39421,"is_reserved":false,"is_disabled":false,"rental_uris":{"android":"levelo://app?vid=72714644-a730-462a-b220-6837667c5de6","ios":"levelo://app?vid=72714644-a730-462a-b220-6837667c5de6"},"vehicle_type_id":"4","last_reported":1701958018,"current_range_meters":14000,"station_id":"","pricing_plan_id":"free"},{"bike_id":"2dde8105-4a4b-42f6-a436-4983e2a4b8a0","system_id":"levelo_inurba_marseille","lat":43.2936,"lon":5.37835,"is_reserved":false,"is_disabled":false,"rental_uris":{"android":"levelo://app?vid=2dde8105-4a4b-42f6-a436-4983e2a4b8a0","ios":"levelo://app?vid=2dde8105-4a4b-42f6-a436-4983e2a4b8a0"},"vehicle_type_id":"4","last_reported":1701958018,"current_range_meters":30400,"station_id":"ce4bgjh2rcd13ifvqbf0","pricing_plan_id":"free"},{"bike_id":"44b2b85f-1ed5-4514-97dd-16637606b122","system_id":"levelo_inurba_marseille","lat":43.292311,"lon":5.360731,"is_reserved":false,"is_disabled":false,"rental_uris":{"android":"levelo://app?vid=44b2b85f-1ed5-4514-97dd-16637606b122","ios":"levelo://app?vid=44b2b85f-1ed5-4514-97dd-16637606b122"},"vehicle_type_id":"4","last_reported":1701958018,"current_range_meters":22800,"station_id":"ce4bhbh2rcd13ifvqeqg","pricing_plan_id":"free"},{"bike_id":"ceae909e-0f16-43bc-8a11-624c7908ae0b","system_id":"levelo_inurba_marseille","lat":43.291826,"lon":5.35799,"is_reserved":false,"is_disabled":false,"rental_uris":{"android":"levelo://app?vid=ceae909e-0f16-43bc-8a11-624c7908ae0b","ios":"levelo://app?vid=ceae909e-0f16-43bc-8a11-624c7908ae0b"},"vehicle_type_id":"4","last_reported":1701958018,"current_range_meters":13200,"station_id":"ce4bhb12rcd13ifvqel0","pricing_plan_id":"free"},{"bike_id":"75e69a3d-eaae-4b70-a2d0-458a575fa76e","system_id":"levelo_inurba_marseille","lat":43.29529,"lon":5.385581,"is_reserved":false,"is_disabled":false,"rental_uris":{"android":"levelo://app?vid=75e69a3d-eaae-4b70-a2d0-458a575fa76e","ios":"levelo://app?vid=75e69a3d-eaae-4b70-a2d0-458a575fa76e"},"vehicle_type_id":"4","last_reported":1701958018,"current_range_meters":22400,"station_id":"ce4bgih2rcd13ifvqba0","pricing_plan_id":"free"},{"bike_id":"f3f66c4a-79c4-47bd-962a-7eeb58aa4971","system_id":"levelo_inurba_marseille","lat":43.290376,"lon":5.375673,"is_reserved":false,"is_disabled":false,"rental_uris":{"android":"levelo://app?vid=f3f66c4a-79c4-47bd-962a-7eeb58aa4971","ios":"levelo://app?vid=f3f66c4a-79c4-47bd-962a-7eeb58aa4971"},"vehicle_type_id":"4","last_reported":1701958018,"current_range_meters":20800,"station_id":"ce4bh692rcd13ifvqe90","pricing_plan_id":"free"},{"bike_id":"b75f2a28-c788-44c0-8348-db8614f7f5e7","system_id":"levelo_inurba_marseille","lat":43.290327,"lon":5.375711,"is_reserved":false,"is_disabled":false,"rental_uris":{"android":"levelo://app?vid=b75f2a28-c788-44c0-8348-db8614f7f5e7","ios":"levelo://app?vid=b75f2a28-c788-44c0-8348-db8614f7f5e7"},"vehicle_type_id":"4","last_reported":1701958018,"current_range_meters":20800,"station_id":"ce4bh692rcd13ifvqe90","pricing_plan_id":"free"},{"bike_id":"22b7f7bd-69e5-4677-bfff-874f896bbb12","system_id":"levelo_inurba_marseille","lat":43.290327,"lon":5.375711,"is_reserved":false,"is_disabled":false,"rental_uris":{"android":"levelo://app?vid=22b7f7bd-69e5-4677-bfff-874f896bbb12","ios":"levelo://app?vid=22b7f7bd-69e5-4677-bfff-874f896bbb12"},"vehicle_type_id":"4","last_reported":1701958018,"current_range_meters":21200,"station_id":"ce4bh692rcd13ifvqe90","pricing_plan_id":"free"},{"bike_id":"4ca81e35-2b43-488a-a908-43d1451ee411","system_id":"levelo_inurba_marseille","lat":43.290327,"lon":5.375711,"is_reserved":false,"is_disabled":false,"rental_uris":{"android":"levelo://app?vid=4ca81e35-2b43-488a-a908-43d1451ee411","ios":"levelo://app?vid=4ca81e35-2b43-488a-a908-43d1451ee411"},"vehicle_type_id":"4","last_reported":1701958018,"current_range_meters":31200,"station_id":"ce4bh692rcd13ifvqe90","pricing_plan_id":"free"},{"bike_id":"bcdf663a-951b-4459-bc40-4697f6974438","system_id":"levelo_inurba_marseille","lat":43.289184,"lon":5.366408,"is_reserved":false,"is_disabled":false,"rental_uris":{"android":"levelo://app?vid=bcdf663a-951b-4459-bc40-4697f6974438","ios":"levelo://app?vid=bcdf663a-951b-4459-bc40-4697f6974438"},"vehicle_type_id":"4","last_reported":1701958018,"current_range_meters":28400,"station_id":"ce4bhap2rcd13ifvqek0","pricing_plan_id":"free"},{"bike_id":"2e485453-2988-46fd-99f8-2cfc293c4e42","system_id":"levelo_inurba_marseille","lat":43.294162,"lon":5.386292,"is_reserved":false,"is_disabled":false,"rental_uris":{"android":"levelo://app?vid=2e485453-2988-46fd-99f8-2cfc293c4e42","ios":"levelo://app?vid=2e485453-2988-46fd-99f8-2cfc293c4e42"},"vehicle_type_id":"4","last_reported":1701958018,"current_range_meters":22400,"station_id":"ce4bh2h2rcd13ifvqdh0","pricing_plan_id":"free"},{"bike_id":"c9a6f734-7854-4c8b-bf7f-f5ce3f3ace5f","system_id":"levelo_inurba_marseille","lat":43.289184,"lon":5.366408,"is_reserved":false,"is_disabled":false,"rental_uris":{"android":"levelo://app?vid=c9a6f734-7854-4c8b-bf7f-f5ce3f3ace5f","ios":"levelo://app?vid=c9a6f734-7854-4c8b-bf7f-f5ce3f3ace5f"},"vehicle_type_id":"4","last_reported":1701958018,"current_range_meters":11200,"station_id":"ce4bhap2rcd13ifvqek0","pricing_plan_id":"free"},{"bike_id":"03bc8791-c126-40fe-b28b-95ddf734fdcf","system_id":"levelo_inurba_marseille","lat":43.2894,"lon":5.36398,"is_reserved":false,"is_disabled":false,"rental_uris":{"android":"levelo://app?vid=03bc8791-c126-40fe-b28b-95ddf734fdcf","ios":"levelo://app?vid=03bc8791-c126-40fe-b28b-95ddf734fdcf"},"vehicle_type_id":"4","last_reported":1701958018,"current_range_meters":25200,"station_id":"ce4bhc92rcd13ifvqetg","pricing_plan_id":"free"},{"bike_id":"e26a7453-8c32-4182-ab06-c494c5b63e1c","system_id":"levelo_inurba_marseille","lat":43.289184,"lon":5.366408,"is_reserved":false,"is_disabled":false,"rental_uris":{"android":"levelo://app?vid=e26a7453-8c32-4182-ab06-c494c5b63e1c","ios":"levelo://app?vid=e26a7453-8c32-4182-ab06-c494c5b63e1c"},"vehicle_type_id":"4","last_reported":1701958018,"current_range_meters":16400,"station_id":"ce4bhap2rcd13ifvqek0","pricing_plan_id":"free"},{"bike_id":"576c9177-3674-49c6-a40d-0dff9f6263ac","system_id":"levelo_inurba_marseille","lat":43.289184,"lon":5.366408,"is_reserved":false,"is_disabled":false,"rental_uris":{"android":"levelo://app?vid=576c9177-3674-49c6-a40d-0dff9f6263ac","ios":"levelo://app?vid=576c9177-3674-49c6-a40d-0dff9f6263ac"},"vehicle_type_id":"4","last_reported":1701958018,"current_range_meters":12000,"station_id":"ce4bhap2rcd13ifvqek0","pricing_plan_id":"free"},{"bike_id":"a02a1b20-1fb1-4951-988a-77389649024d","system_id":"levelo_inurba_marseille","lat":43.289259,"lon":5.366364,"is_reserved":false,"is_disabled":false,"rental_uris":{"android":"levelo://app?vid=a02a1b20-1fb1-4951-988a-77389649024d","ios":"levelo://app?vid=a02a1b20-1fb1-4951-988a-77389649024d"},"vehicle_type_id":"4","last_reported":1701958018,"current_range_meters":19600,"station_id":"","pricing_plan_id":"free"},{"bike_id":"2b6b6bbb-2fe6-4cef-a55a-75b95e492229","system_id":"levelo_inurba_marseille","lat":43.289184,"lon":5.366408,"is_reserved":false,"is_disabled":false,"rental_uris":{"android":"levelo://app?vid=2b6b6bbb-2fe6-4cef-a55a-75b95e492229","ios":"levelo://app?vid=2b6b6bbb-2fe6-4cef-a55a-75b95e492229"},"vehicle_type_id":"4","last_reported":1701958018,"current_range_meters":19600,"station_id":"ce4bhap2rcd13ifvqek0","pricing_plan_id":"free"},{"bike_id":"e53446cf-5139-4471-871d-b24b48a211ad","system_id":"levelo_inurba_marseille","lat":43.289184,"lon":5.366408,"is_reserved":false,"is_disabled":false,"rental_uris":{"android":"levelo://app?vid=e53446cf-5139-4471-871d-b24b48a211ad","ios":"levelo://app?vid=e53446cf-5139-4471-871d-b24b48a211ad"},"vehicle_type_id":"4","last_reported":1701958018,"current_range_meters":14400,"station_id":"ce4bhap2rcd13ifvqek0","pricing_plan_id":"free"},{"bike_id":"42f5f1ec-9874-4b2a-9330-5bbc0dc933a5","system_id":"levelo_inurba_marseille","lat":43.289468,"lon":5.363719,"is_reserved":false,"is_disabled":false,"rental_uris":{"android":"levelo://app?vid=42f5f1ec-9874-4b2a-9330-5bbc0dc933a5","ios":"levelo://app?vid=42f5f1ec-9874-4b2a-9330-5bbc0dc933a5"},"vehicle_type_id":"4","last_reported":1701958018,"current_range_meters":8400,"station_id":"ce4bhc92rcd13ifvqetg","pricing_plan_id":"free"},{"bike_id":"9fdc8c8c-a500-4b91-b05a-2f806a5b5c0a","system_id":"levelo_inurba_marseille","lat":43.292644,"lon":5.384257,"is_reserved":false,"is_disabled":false,"rental_uris":{"android":"levelo://app?vid=9fdc8c8c-a500-4b91-b05a-2f806a5b5c0a","ios":"levelo://app?vid=9fdc8c8c-a500-4b91-b05a-2f806a5b5c0a"},"vehicle_type_id":"4","last_reported":1701958018,"current_range_meters":19200,"station_id":"ce4bh692rcd13ifvqea0","pricing_plan_id":"free"},{"bike_id":"836b6bea-3e42-42ac-8bd0-361452937ef1","system_id":"levelo_inurba_marseille","lat":43.292644,"lon":5.384257,"is_reserved":false,"is_disabled":false,"rental_uris":{"android":"levelo://app?vid=836b6bea-3e42-42ac-8bd0-361452937ef1","ios":"levelo://app?vid=836b6bea-3e42-42ac-8bd0-361452937ef1"},"vehicle_type_id":"4","last_reported":1701958018,"current_range_meters":18400,"station_id":"ce4bh692rcd13ifvqea0","pricing_plan_id":"free"},{"bike_id":"f556502f-f531-441d-94cd-eac6b0528b71","system_id":"levelo_inurba_marseille","lat":43.292644,"lon":5.384257,"is_reserved":false,"is_disabled":false,"rental_uris":{"android":"levelo://app?vid=f556502f-f531-441d-94cd-eac6b0528b71","ios":"levelo://app?vid=f556502f-f531-441d-94cd-eac6b0528b71"},"vehicle_type_id":"4","last_reported":1701958018,"current_range_meters":26400,"station_id":"ce4bh692rcd13ifvqea0","pricing_plan_id":"free"},{"bike_id":"c12df127-f915-48f4-85a1-4011b4c894ae","system_id":"levelo_inurba_marseille","lat":43.330442,"lon":5.389148,"is_reserved":false,"is_disabled":false,"rental_uris":{"android":"levelo://app?vid=c12df127-f915-48f4-85a1-4011b4c894ae","ios":"levelo://app?vid=c12df127-f915-48f4-85a1-4011b4c894ae"},"vehicle_type_id":"4","last_reported":1701958018,"current_range_meters":16400,"station_id":"ce4bhr92rcd13ifvqhrg","pricing_plan_id":"free"},{"bike_id":"d633b90c-0620-463f-abea-6e2dd754eb41","system_id":"levelo_inurba_marseille","lat":43.330442,"lon":5.389148,"is_reserved":false,"is_disabled":false,"rental_uris":{"android":"levelo://app?vid=d633b90c-0620-463f-abea-6e2dd754eb41","ios":"levelo://app?vid=d633b90c-0620-463f-abea-6e2dd754eb41"},"vehicle_type_id":"4","last_reported":1701958018,"current_range_meters":0,"station_id":"ce4bhr92rcd13ifvqhrg","pricing_plan_id":"free"},{"bike_id":"98a2443f-5848-4c3e-9aa1-787eab2102e2","system_id":"levelo_inurba_marseille","lat":43.290995,"lon":5.381361,"is_reserved":false,"is_disabled":false,"rental_uris":{"android":"levelo://app?vid=98a2443f-5848-4c3e-9aa1-787eab2102e2","ios":"levelo://app?vid=98a2443f-5848-4c3e-9aa1-787eab2102e2"},"vehicle_type_id":"4","last_reported":1701958018,"current_range_meters":12400,"station_id":"ce4bh512rcd13ifvqe2g","pricing_plan_id":"free"},{"bike_id":"5bd80906-c098-44b6-b422-39807c29aa41","system_id":"levelo_inurba_marseille","lat":43.305714,"lon":5.365633,"is_reserved":false,"is_disabled":false,"rental_uris":{"android":"levelo://app?vid=5bd80906-c098-44b6-b422-39807c29aa41","ios":"levelo://app?vid=5bd80906-c098-44b6-b422-39807c29aa41"},"vehicle_type_id":"4","last_reported":1701958018,"current_range_meters":800,"station_id":"ce4bgs12rcd13ifvqcag","pricing_plan_id":"free"},{"bike_id":"13934ab4-d292-4ed0-960d-f2aa56a7f1fc","system_id":"levelo_inurba_marseille","lat":43.29021,"lon":5.38132,"is_reserved":false,"is_disabled":false,"rental_uris":{"android":"levelo://app?vid=13934ab4-d292-4ed0-960d-f2aa56a7f1fc","ios":"levelo://app?vid=13934ab4-d292-4ed0-960d-f2aa56a7f1fc"},"vehicle_type_id":"4","last_reported":1701958018,"current_range_meters":0,"station_id":"ce4bh4p2rcd13ifvqe1g","pricing_plan_id":"free"},{"bike_id":"f872a5f0-31a7-4902-ae41-a0c55c71c4ae","system_id":"levelo_inurba_marseille","lat":43.31118,"lon":5.40104,"is_reserved":false,"is_disabled":false,"rental_uris":{"android":"levelo://app?vid=f872a5f0-31a7-4902-ae41-a0c55c71c4ae","ios":"levelo://app?vid=f872a5f0-31a7-4902-ae41-a0c55c71c4ae"},"vehicle_type_id":"4","last_reported":1701958018,"current_range_meters":26000,"station_id":"","pricing_plan_id":"free"},{"bike_id":"efe46e7c-cf49-4c7b-80fb-eea57c1d5a63","system_id":"levelo_inurba_marseille","lat":43.288558,"lon":5.358635,"is_reserved":false,"is_disabled":false,"rental_uris":{"android":"levelo://app?vid=efe46e7c-cf49-4c7b-80fb-eea57c1d5a63","ios":"levelo://app?vid=efe46e7c-cf49-4c7b-80fb-eea57c1d5a63"},"vehicle_type_id":"4","last_reported":1701958018,"current_range_meters":28000,"station_id":"","pricing_plan_id":"free"},{"bike_id":"e0765cd6-c3e8-4ceb-9dec-4eb9126b84c4","system_id":"levelo_inurba_marseille","lat":43.28856,"lon":5.358371,"is_reserved":false,"is_disabled":false,"rental_uris":{"android":"levelo://app?vid=e0765cd6-c3e8-4ceb-9dec-4eb9126b84c4","ios":"levelo://app?vid=e0765cd6-c3e8-4ceb-9dec-4eb9126b84c4"},"vehicle_type_id":"4","last_reported":1701958018,"current_range_meters":16800,"station_id":"ce4bhb12rcd13ifvqem0","pricing_plan_id":"free"},{"bike_id":"d172e848-b6de-4170-bd78-2ea3b827d317","system_id":"levelo_inurba_marseille","lat":43.33754,"lon":5.37465,"is_reserved":false,"is_disabled":false,"rental_uris":{"android":"levelo://app?vid=d172e848-b6de-4170-bd78-2ea3b827d317","ios":"levelo://app?vid=d172e848-b6de-4170-bd78-2ea3b827d317"},"vehicle_type_id":"4","last_reported":1701958018,"current_range_meters":29600,"station_id":"","pricing_plan_id":"free"},{"bike_id":"c75dd31e-8e0c-4173-b3fc-4e5affd07ca1","system_id":"levelo_inurba_marseille","lat":43.306516,"lon":5.400941,"is_reserved":false,"is_disabled":false,"rental_uris":{"android":"levelo://app?vid=c75dd31e-8e0c-4173-b3fc-4e5affd07ca1","ios":"levelo://app?vid=c75dd31e-8e0c-4173-b3fc-4e5affd07ca1"},"vehicle_type_id":"4","last_reported":1701958018,"current_range_meters":15600,"station_id":"","pricing_plan_id":"free"},{"bike_id":"89b1152c-adf6-470b-9fcc-aedef3f8370b","system_id":"levelo_inurba_marseille","lat":43.301228,"lon":5.398652,"is_reserved":false,"is_disabled":false,"rental_uris":{"android":"levelo://app?vid=89b1152c-adf6-470b-9fcc-aedef3f8370b","ios":"levelo://app?vid=89b1152c-adf6-470b-9fcc-aedef3f8370b"},"vehicle_type_id":"4","last_reported":1701958018,"current_range_meters":14000,"station_id":"ce4bh0h2rcd13ifvqd40","pricing_plan_id":"free"},{"bike_id":"8b6b8706-a2e9-49b4-8591-35eb2dd81ca3","system_id":"levelo_inurba_marseille","lat":43.29872,"lon":5.39739,"is_reserved":false,"is_disabled":false,"rental_uris":{"android":"levelo://app?vid=8b6b8706-a2e9-49b4-8591-35eb2dd81ca3","ios":"levelo://app?vid=8b6b8706-a2e9-49b4-8591-35eb2dd81ca3"},"vehicle_type_id":"4","last_reported":1701958018,"current_range_meters":0,"station_id":"ce4bh0h2rcd13ifvqd50","pricing_plan_id":"free"},{"bike_id":"393b04a0-0e21-4566-9714-bc361df6d3ea","system_id":"levelo_inurba_marseille","lat":43.295194,"lon":5.39397,"is_reserved":false,"is_disabled":false,"rental_uris":{"android":"levelo://app?vid=393b04a0-0e21-4566-9714-bc361df6d3ea","ios":"levelo://app?vid=393b04a0-0e21-4566-9714-bc361df6d3ea"},"vehicle_type_id":"4","last_reported":1701958018,"current_range_meters":26800,"station_id":"ce4bh292rcd13ifvqdf0","pricing_plan_id":"free"},{"bike_id":"bd2462d9-be8c-4440-9400-f8931d1772bd","system_id":"levelo_inurba_marseille","lat":43.302759,"lon":5.400793,"is_reserved":false,"is_disabled":false,"rental_uris":{"android":"levelo://app?vid=bd2462d9-be8c-4440-9400-f8931d1772bd","ios":"levelo://app?vid=bd2462d9-be8c-4440-9400-f8931d1772bd"},"vehicle_type_id":"4","last_reported":1701958018,"current_range_meters":29200,"station_id":"ce4bgvh2rcd13ifvqcs0","pricing_plan_id":"free"},{"bike_id":"53a0628f-02a0-4f37-84ad-91a5f6de232f","system_id":"levelo_inurba_marseille","lat":43.302759,"lon":5.400793,"is_reserved":false,"is_disabled":false,"rental_uris":{"android":"levelo://app?vid=53a0628f-02a0-4f37-84ad-91a5f6de232f","ios":"levelo://app?vid=53a0628f-02a0-4f37-84ad-91a5f6de232f"},"vehicle_type_id":"4","last_reported":1701958018,"current_range_meters":31200,"station_id":"ce4bgvh2rcd13ifvqcs0","pricing_plan_id":"free"},{"bike_id":"a5d13238-a60e-4907-b15c-05b9b476718a","system_id":"levelo_inurba_marseille","lat":43.286039,"lon":5.370679,"is_reserved":false,"is_disabled":false,"rental_uris":{"android":"levelo://app?vid=a5d13238-a60e-4907-b15c-05b9b476718a","ios":"levelo://app?vid=a5d13238-a60e-4907-b15c-05b9b476718a"},"vehicle_type_id":"4","last_reported":1701958018,"current_range_meters":19200,"station_id":"ce4bht12rcd13ifvqi60","pricing_plan_id":"free"},{"bike_id":"1d70a8c2-57c6-40f3-a9e6-3b3594e69464","system_id":"levelo_inurba_marseille","lat":43.286039,"lon":5.370679,"is_reserved":false,"is_disabled":false,"rental_uris":{"android":"levelo://app?vid=1d70a8c2-57c6-40f3-a9e6-3b3594e69464","ios":"levelo://app?vid=1d70a8c2-57c6-40f3-a9e6-3b3594e69464"},"vehicle_type_id":"4","last_reported":1701958018,"current_range_meters":8800,"station_id":"ce4bht12rcd13ifvqi60","pricing_plan_id":"free"},{"bike_id":"26958ae3-f0e7-4af3-94d2-2de08d694152","system_id":"levelo_inurba_marseille","lat":43.286039,"lon":5.370679,"is_reserved":false,"is_disabled":false,"rental_uris":{"android":"levelo://app?vid=26958ae3-f0e7-4af3-94d2-2de08d694152","ios":"levelo://app?vid=26958ae3-f0e7-4af3-94d2-2de08d694152"},"vehicle_type_id":"4","last_reported":1701958018,"current_range_meters":5600,"station_id":"ce4bht12rcd13ifvqi60","pricing_plan_id":"free"},{"bike_id":"503700b1-fcc1-43e0-ac36-67a6b491fb36","system_id":"levelo_inurba_marseille","lat":43.290412,"lon":5.399633,"is_reserved":false,"is_disabled":false,"rental_uris":{"android":"levelo://app?vid=503700b1-fcc1-43e0-ac36-67a6b491fb36","ios":"levelo://app?vid=503700b1-fcc1-43e0-ac36-67a6b491fb36"},"vehicle_type_id":"4","last_reported":1701958018,"current_range_meters":14800,"station_id":"ce4bh392rcd13ifvqdm0","pricing_plan_id":"free"},{"bike_id":"e5539e23-f866-47b8-86dd-f8c8229f53a4","system_id":"levelo_inurba_marseille","lat":43.28451,"lon":5.35901,"is_reserved":false,"is_disabled":false,"rental_uris":{"android":"levelo://app?vid=e5539e23-f866-47b8-86dd-f8c8229f53a4","ios":"levelo://app?vid=e5539e23-f866-47b8-86dd-f8c8229f53a4"},"vehicle_type_id":"4","last_reported":1701958018,"current_range_meters":28400,"station_id":"ce4bhah2rcd13ifvqei0","pricing_plan_id":"free"},{"bike_id":"520bbd21-5d17-4591-b0f4-57240c0cb071","system_id":"levelo_inurba_marseille","lat":43.284538,"lon":5.358657,"is_reserved":false,"is_disabled":false,"rental_uris":{"android":"levelo://app?vid=520bbd21-5d17-4591-b0f4-57240c0cb071","ios":"levelo://app?vid=520bbd21-5d17-4591-b0f4-57240c0cb071"},"vehicle_type_id":"4","last_reported":1701958018,"current_range_meters":12800,"station_id":"ce4bhah2rcd13ifvqei0","pricing_plan_id":"free"},{"bike_id":"878e06d2-5648-4306-a108-febd5c677865","system_id":"levelo_inurba_marseille","lat":43.283998,"lon":5.375062,"is_reserved":false,"is_disabled":false,"rental_uris":{"android":"levelo://app?vid=878e06d2-5648-4306-a108-febd5c677865","ios":"levelo://app?vid=878e06d2-5648-4306-a108-febd5c677865"},"vehicle_type_id":"4","last_reported":1701958018,"current_range_meters":0,"station_id":"ce4bh412rcd13ifvqds0","pricing_plan_id":"free"},{"bike_id":"0a463115-83cf-49c2-8fd1-e7e991010114","system_id":"levelo_inurba_marseille","lat":43.283998,"lon":5.375062,"is_reserved":false,"is_disabled":false,"rental_uris":{"android":"levelo://app?vid=0a463115-83cf-49c2-8fd1-e7e991010114","ios":"levelo://app?vid=0a463115-83cf-49c2-8fd1-e7e991010114"},"vehicle_type_id":"4","last_reported":1701958018,"current_range_meters":0,"station_id":"ce4bh412rcd13ifvqds0","pricing_plan_id":"free"},{"bike_id":"1e880783-c968-4080-99e0-58226b06ccc1","system_id":"levelo_inurba_marseille","lat":43.319179,"lon":5.407725,"is_reserved":false,"is_disabled":false,"rental_uris":{"android":"levelo://app?vid=1e880783-c968-4080-99e0-58226b06ccc1","ios":"levelo://app?vid=1e880783-c968-4080-99e0-58226b06ccc1"},"vehicle_type_id":"4","last_reported":1701958018,"current_range_meters":30000,"station_id":"ce4bhq12rcd13ifvqhig","pricing_plan_id":"free"},{"bike_id":"56ac9cc9-bb61-47d5-bb32-c23299a9fd93","system_id":"levelo_inurba_marseille","lat":43.323464,"lon":5.406297,"is_reserved":false,"is_disabled":false,"rental_uris":{"android":"levelo://app?vid=56ac9cc9-bb61-47d5-bb32-c23299a9fd93","ios":"levelo://app?vid=56ac9cc9-bb61-47d5-bb32-c23299a9fd93"},"vehicle_type_id":"4","last_reported":1701958018,"current_range_meters":24400,"station_id":"ce4bhq92rcd13ifvqhjg","pricing_plan_id":"free"},{"bike_id":"ab35a2f2-f918-4558-963b-805798e7fe1d","system_id":"levelo_inurba_marseille","lat":43.33717,"lon":5.391857,"is_reserved":false,"is_disabled":false,"rental_uris":{"android":"levelo://app?vid=ab35a2f2-f918-4558-963b-805798e7fe1d","ios":"levelo://app?vid=ab35a2f2-f918-4558-963b-805798e7fe1d"},"vehicle_type_id":"4","last_reported":1701958018,"current_range_meters":15200,"station_id":"ce4bhr92rcd13ifvqhsg","pricing_plan_id":"free"},{"bike_id":"b0e7298d-5203-4983-b7f7-60b8fee86899","system_id":"levelo_inurba_marseille","lat":43.33717,"lon":5.391857,"is_reserved":false,"is_disabled":false,"rental_uris":{"android":"levelo://app?vid=b0e7298d-5203-4983-b7f7-60b8fee86899","ios":"levelo://app?vid=b0e7298d-5203-4983-b7f7-60b8fee86899"},"vehicle_type_id":"4","last_reported":1701958018,"current_range_meters":21200,"station_id":"ce4bhr92rcd13ifvqhsg","pricing_plan_id":"free"},{"bike_id":"bfe8ce15-029c-40ca-b1f5-9be30c7a8b24","system_id":"levelo_inurba_marseille","lat":43.284787,"lon":5.384116,"is_reserved":false,"is_disabled":false,"rental_uris":{"android":"levelo://app?vid=bfe8ce15-029c-40ca-b1f5-9be30c7a8b24","ios":"levelo://app?vid=bfe8ce15-029c-40ca-b1f5-9be30c7a8b24"},"vehicle_type_id":"4","last_reported":1701958018,"current_range_meters":9600,"station_id":"ce4bh512rcd13ifvqe3g","pricing_plan_id":"free"},{"bike_id":"4333e0e3-5273-4bfc-bd4a-6a76dc9bbeab","system_id":"levelo_inurba_marseille","lat":43.288501,"lon":5.393087,"is_reserved":false,"is_disabled":false,"rental_uris":{"android":"levelo://app?vid=4333e0e3-5273-4bfc-bd4a-6a76dc9bbeab","ios":"levelo://app?vid=4333e0e3-5273-4bfc-bd4a-6a76dc9bbeab"},"vehicle_type_id":"4","last_reported":1701958018,"current_range_meters":1200,"station_id":"ce4bh2p2rcd13ifvqdi0","pricing_plan_id":"free"},{"bike_id":"2ddc055f-c0a0-4646-ba01-bca10d8d718f","system_id":"levelo_inurba_marseille","lat":43.283498,"lon":5.380948,"is_reserved":false,"is_disabled":false,"rental_uris":{"android":"levelo://app?vid=2ddc055f-c0a0-4646-ba01-bca10d8d718f","ios":"levelo://app?vid=2ddc055f-c0a0-4646-ba01-bca10d8d718f"},"vehicle_type_id":"4","last_reported":1701958018,"current_range_meters":11600,"station_id":"ce4bh412rcd13ifvqdr0","pricing_plan_id":"free"},{"bike_id":"cc47b99d-6a36-45ed-9fdc-7b1c7960f3c0","system_id":"levelo_inurba_marseille","lat":43.283494,"lon":5.380945,"is_reserved":false,"is_disabled":false,"rental_uris":{"android":"levelo://app?vid=cc47b99d-6a36-45ed-9fdc-7b1c7960f3c0","ios":"levelo://app?vid=cc47b99d-6a36-45ed-9fdc-7b1c7960f3c0"},"vehicle_type_id":"4","last_reported":1701958018,"current_range_meters":0,"station_id":"ce4bh412rcd13ifvqdr0","pricing_plan_id":"free"},{"bike_id":"ebf75758-1b6d-4f1b-840d-519aac65150c","system_id":"levelo_inurba_marseille","lat":43.289312,"lon":5.396386,"is_reserved":false,"is_disabled":false,"rental_uris":{"android":"levelo://app?vid=ebf75758-1b6d-4f1b-840d-519aac65150c","ios":"levelo://app?vid=ebf75758-1b6d-4f1b-840d-519aac65150c"},"vehicle_type_id":"4","last_reported":1701958018,"current_range_meters":17200,"station_id":"","pricing_plan_id":"free"},{"bike_id":"a4cbd06a-7ede-4a77-a17f-737e14a3a30a","system_id":"levelo_inurba_marseille","lat":43.292724,"lon":5.401131,"is_reserved":false,"is_disabled":false,"rental_uris":{"android":"levelo://app?vid=a4cbd06a-7ede-4a77-a17f-737e14a3a30a","ios":"levelo://app?vid=a4cbd06a-7ede-4a77-a17f-737e14a3a30a"},"vehicle_type_id":"4","last_reported":1701958018,"current_range_meters":14800,"station_id":"ce4bh312rcd13ifvqdk0","pricing_plan_id":"free"},{"bike_id":"c85721ac-eb79-4278-b59e-2508822cb237","system_id":"levelo_inurba_marseille","lat":43.292724,"lon":5.401131,"is_reserved":false,"is_disabled":false,"rental_uris":{"android":"levelo://app?vid=c85721ac-eb79-4278-b59e-2508822cb237","ios":"levelo://app?vid=c85721ac-eb79-4278-b59e-2508822cb237"},"vehicle_type_id":"4","last_reported":1701958018,"current_range_meters":28400,"station_id":"ce4bh312rcd13ifvqdk0","pricing_plan_id":"free"},{"bike_id":"52f1546e-436c-4248-b873-618c5b2b106a","system_id":"levelo_inurba_marseille","lat":43.292724,"lon":5.401131,"is_reserved":false,"is_disabled":false,"rental_uris":{"android":"levelo://app?vid=52f1546e-436c-4248-b873-618c5b2b106a","ios":"levelo://app?vid=52f1546e-436c-4248-b873-618c5b2b106a"},"vehicle_type_id":"4","last_reported":1701958018,"current_range_meters":17200,"station_id":"ce4bh312rcd13ifvqdk0","pricing_plan_id":"free"},{"bike_id":"525da832-f4df-4ed6-b31a-de7a46489480","system_id":"levelo_inurba_marseille","lat":43.292724,"lon":5.401131,"is_reserved":false,"is_disabled":false,"rental_uris":{"android":"levelo://app?vid=525da832-f4df-4ed6-b31a-de7a46489480","ios":"levelo://app?vid=525da832-f4df-4ed6-b31a-de7a46489480"},"vehicle_type_id":"4","last_reported":1701958018,"current_range_meters":22800,"station_id":"ce4bh312rcd13ifvqdk0","pricing_plan_id":"free"},{"bike_id":"a383b531-0765-4fcd-8d16-a9e5acc282fd","system_id":"levelo_inurba_marseille","lat":43.280382,"lon":5.369291,"is_reserved":false,"is_disabled":false,"rental_uris":{"android":"levelo://app?vid=a383b531-0765-4fcd-8d16-a9e5acc282fd","ios":"levelo://app?vid=a383b531-0765-4fcd-8d16-a9e5acc282fd"},"vehicle_type_id":"4","last_reported":1701958018,"current_range_meters":26400,"station_id":"ce4bha12rcd13ifvqef0","pricing_plan_id":"free"},{"bike_id":"bb45880c-439d-4e69-a94f-40b731e543d3","system_id":"levelo_inurba_marseille","lat":43.296263,"lon":5.40601,"is_reserved":false,"is_disabled":false,"rental_uris":{"android":"levelo://app?vid=bb45880c-439d-4e69-a94f-40b731e543d3","ios":"levelo://app?vid=bb45880c-439d-4e69-a94f-40b731e543d3"},"vehicle_type_id":"4","last_reported":1701958018,"current_range_meters":6000,"station_id":"ce4bh0h2rcd13ifvqd60","pricing_plan_id":"free"},{"bike_id":"e6aa189d-8fc6-424d-93f0-95da35f16003","system_id":"levelo_inurba_marseille","lat":43.296263,"lon":5.40601,"is_reserved":false,"is_disabled":false,"rental_uris":{"android":"levelo://app?vid=e6aa189d-8fc6-424d-93f0-95da35f16003","ios":"levelo://app?vid=e6aa189d-8fc6-424d-93f0-95da35f16003"},"vehicle_type_id":"4","last_reported":1701958018,"current_range_meters":9600,"station_id":"ce4bh0h2rcd13ifvqd60","pricing_plan_id":"free"},{"bike_id":"f2d499b8-6e62-451e-820f-5edacdec98ee","system_id":"levelo_inurba_marseille","lat":43.316828,"lon":5.412352,"is_reserved":false,"is_disabled":false,"rental_uris":{"android":"levelo://app?vid=f2d499b8-6e62-451e-820f-5edacdec98ee","ios":"levelo://app?vid=f2d499b8-6e62-451e-820f-5edacdec98ee"},"vehicle_type_id":"4","last_reported":1701958018,"current_range_meters":13200,"station_id":"","pricing_plan_id":"free"},{"bike_id":"3d8caf9c-9fe8-4633-9f6c-862bd321c294","system_id":"levelo_inurba_marseille","lat":43.279087,"lon":5.380114,"is_reserved":false,"is_disabled":false,"rental_uris":{"android":"levelo://app?vid=3d8caf9c-9fe8-4633-9f6c-862bd321c294","ios":"levelo://app?vid=3d8caf9c-9fe8-4633-9f6c-862bd321c294"},"vehicle_type_id":"4","last_reported":1701958018,"current_range_meters":14800,"station_id":"ce4bhf92rcd13ifvqf50","pricing_plan_id":"free"},{"bike_id":"832b6057-af32-4b81-913a-bd491e8b3445","system_id":"levelo_inurba_marseille","lat":43.287154,"lon":5.399979,"is_reserved":false,"is_disabled":false,"rental_uris":{"android":"levelo://app?vid=832b6057-af32-4b81-913a-bd491e8b3445","ios":"levelo://app?vid=832b6057-af32-4b81-913a-bd491e8b3445"},"vehicle_type_id":"4","last_reported":1701958018,"current_range_meters":25200,"station_id":"ce4bho92rcd13ifvqh3g","pricing_plan_id":"free"},{"bike_id":"df7d30ea-f358-4077-9498-df6d793dcbb7","system_id":"levelo_inurba_marseille","lat":43.287154,"lon":5.399979,"is_reserved":false,"is_disabled":false,"rental_uris":{"android":"levelo://app?vid=df7d30ea-f358-4077-9498-df6d793dcbb7","ios":"levelo://app?vid=df7d30ea-f358-4077-9498-df6d793dcbb7"},"vehicle_type_id":"4","last_reported":1701958018,"current_range_meters":15200,"station_id":"ce4bho92rcd13ifvqh3g","pricing_plan_id":"free"},{"bike_id":"0f14439d-902c-49af-9d82-a989876dd82c","system_id":"levelo_inurba_marseille","lat":43.287154,"lon":5.399979,"is_reserved":false,"is_disabled":false,"rental_uris":{"android":"levelo://app?vid=0f14439d-902c-49af-9d82-a989876dd82c","ios":"levelo://app?vid=0f14439d-902c-49af-9d82-a989876dd82c"},"vehicle_type_id":"4","last_reported":1701958018,"current_range_meters":7200,"station_id":"ce4bho92rcd13ifvqh3g","pricing_plan_id":"free"},{"bike_id":"fd31b59f-2250-43af-8d29-0063b3092e69","system_id":"levelo_inurba_marseille","lat":43.320045,"lon":5.415046,"is_reserved":false,"is_disabled":false,"rental_uris":{"android":"levelo://app?vid=fd31b59f-2250-43af-8d29-0063b3092e69","ios":"levelo://app?vid=fd31b59f-2250-43af-8d29-0063b3092e69"},"vehicle_type_id":"4","last_reported":1701958018,"current_range_meters":9600,"station_id":"ce4bhq92rcd13ifvqhkg","pricing_plan_id":"free"},{"bike_id":"af238a2c-0a73-48b8-89a7-5a514db59de8","system_id":"levelo_inurba_marseille","lat":43.325233,"lon":5.414318,"is_reserved":false,"is_disabled":false,"rental_uris":{"android":"levelo://app?vid=af238a2c-0a73-48b8-89a7-5a514db59de8","ios":"levelo://app?vid=af238a2c-0a73-48b8-89a7-5a514db59de8"},"vehicle_type_id":"4","last_reported":1701958018,"current_range_meters":28000,"station_id":"ce4bhq12rcd13ifvqhhg","pricing_plan_id":"free"},{"bike_id":"caa3a47a-dc04-4df1-8fd6-31e0ff0bbf91","system_id":"levelo_inurba_marseille","lat":43.292569,"lon":5.409107,"is_reserved":false,"is_disabled":false,"rental_uris":{"android":"levelo://app?vid=caa3a47a-dc04-4df1-8fd6-31e0ff0bbf91","ios":"levelo://app?vid=caa3a47a-dc04-4df1-8fd6-31e0ff0bbf91"},"vehicle_type_id":"4","last_reported":1701958018,"current_range_meters":25200,"station_id":"ce4bh192rcd13ifvqdc0","pricing_plan_id":"free"},{"bike_id":"fd8cd521-2ecb-4347-a21e-6daaea84ce3c","system_id":"levelo_inurba_marseille","lat":43.292569,"lon":5.409107,"is_reserved":false,"is_disabled":false,"rental_uris":{"android":"levelo://app?vid=fd8cd521-2ecb-4347-a21e-6daaea84ce3c","ios":"levelo://app?vid=fd8cd521-2ecb-4347-a21e-6daaea84ce3c"},"vehicle_type_id":"4","last_reported":1701958018,"current_range_meters":24800,"station_id":"ce4bh192rcd13ifvqdc0","pricing_plan_id":"free"},{"bike_id":"141c5ab2-7324-4bae-a648-85f927c82dc4","system_id":"levelo_inurba_marseille","lat":43.325243,"lon":5.414326,"is_reserved":false,"is_disabled":false,"rental_uris":{"android":"levelo://app?vid=141c5ab2-7324-4bae-a648-85f927c82dc4","ios":"levelo://app?vid=141c5ab2-7324-4bae-a648-85f927c82dc4"},"vehicle_type_id":"4","last_reported":1701958018,"current_range_meters":23200,"station_id":"ce4bhq12rcd13ifvqhhg","pricing_plan_id":"free"},{"bike_id":"7b4c7f36-decf-4760-a690-adf10ec8b6d0","system_id":"levelo_inurba_marseille","lat":43.275625,"lon":5.384392,"is_reserved":false,"is_disabled":false,"rental_uris":{"android":"levelo://app?vid=7b4c7f36-decf-4760-a690-adf10ec8b6d0","ios":"levelo://app?vid=7b4c7f36-decf-4760-a690-adf10ec8b6d0"},"vehicle_type_id":"4","last_reported":1701958018,"current_range_meters":9600,"station_id":"ce4bhh92rcd13ifvqfi0","pricing_plan_id":"free"},{"bike_id":"ea85664a-3c96-4484-a80b-37b427a0b656","system_id":"levelo_inurba_marseille","lat":43.336134,"lon":5.410341,"is_reserved":false,"is_disabled":false,"rental_uris":{"android":"levelo://app?vid=ea85664a-3c96-4484-a80b-37b427a0b656","ios":"levelo://app?vid=ea85664a-3c96-4484-a80b-37b427a0b656"},"vehicle_type_id":"4","last_reported":1701958018,"current_range_meters":25200,"station_id":"ce4bhqh2rcd13ifvqhmg","pricing_plan_id":"free"},{"bike_id":"7cb6ef9f-aacf-43e7-9834-f41e0d37790c","system_id":"levelo_inurba_marseille","lat":43.275625,"lon":5.384392,"is_reserved":false,"is_disabled":false,"rental_uris":{"android":"levelo://app?vid=7cb6ef9f-aacf-43e7-9834-f41e0d37790c","ios":"levelo://app?vid=7cb6ef9f-aacf-43e7-9834-f41e0d37790c"},"vehicle_type_id":"4","last_reported":1701958018,"current_range_meters":21600,"station_id":"ce4bhh92rcd13ifvqfi0","pricing_plan_id":"free"},{"bike_id":"f2d0cdfb-5903-48ce-979d-363406bb33d4","system_id":"levelo_inurba_marseille","lat":43.279952,"lon":5.400085,"is_reserved":false,"is_disabled":false,"rental_uris":{"android":"levelo://app?vid=f2d0cdfb-5903-48ce-979d-363406bb33d4","ios":"levelo://app?vid=f2d0cdfb-5903-48ce-979d-363406bb33d4"},"vehicle_type_id":"4","last_reported":1701958018,"current_range_meters":29600,"station_id":"ce4bho92rcd13ifvqh4g","pricing_plan_id":"free"},{"bike_id":"11b2e0c5-092e-464c-b4a7-0f59de41f213","system_id":"levelo_inurba_marseille","lat":43.340804,"lon":5.410219,"is_reserved":false,"is_disabled":false,"rental_uris":{"android":"levelo://app?vid=11b2e0c5-092e-464c-b4a7-0f59de41f213","ios":"levelo://app?vid=11b2e0c5-092e-464c-b4a7-0f59de41f213"},"vehicle_type_id":"4","last_reported":1701958018,"current_range_meters":30000,"station_id":"ce4bhqh2rcd13ifvqhlg","pricing_plan_id":"free"},{"bike_id":"b3977cf9-01a2-48e5-b574-f42cd3d5f080","system_id":"levelo_inurba_marseille","lat":43.304096,"lon":5.425385,"is_reserved":false,"is_disabled":false,"rental_uris":{"android":"levelo://app?vid=b3977cf9-01a2-48e5-b574-f42cd3d5f080","ios":"levelo://app?vid=b3977cf9-01a2-48e5-b574-f42cd3d5f080"},"vehicle_type_id":"4","last_reported":1701958018,"current_range_meters":0,"station_id":"ce4bhoh2rcd13ifvqh6g","pricing_plan_id":"free"},{"bike_id":"dd96a520-871a-4bf6-8463-a37285139ea6","system_id":"levelo_inurba_marseille","lat":43.30412,"lon":5.42545,"is_reserved":false,"is_disabled":false,"rental_uris":{"android":"levelo://app?vid=dd96a520-871a-4bf6-8463-a37285139ea6","ios":"levelo://app?vid=dd96a520-871a-4bf6-8463-a37285139ea6"},"vehicle_type_id":"4","last_reported":1701958018,"current_range_meters":5600,"station_id":"ce4bhoh2rcd13ifvqh6g","pricing_plan_id":"free"},{"bike_id":"e0756567-7870-49b5-9af8-73e51703da33","system_id":"levelo_inurba_marseille","lat":43.295523,"lon":5.422926,"is_reserved":false,"is_disabled":false,"rental_uris":{"android":"levelo://app?vid=e0756567-7870-49b5-9af8-73e51703da33","ios":"levelo://app?vid=e0756567-7870-49b5-9af8-73e51703da33"},"vehicle_type_id":"4","last_reported":1701958018,"current_range_meters":31200,"station_id":"ce4bhph2rcd13ifvqhdg","pricing_plan_id":"free"},{"bike_id":"b1dad5c5-a762-4464-aede-ef9324e8f62f","system_id":"levelo_inurba_marseille","lat":43.272116,"lon":5.391747,"is_reserved":false,"is_disabled":false,"rental_uris":{"android":"levelo://app?vid=b1dad5c5-a762-4464-aede-ef9324e8f62f","ios":"levelo://app?vid=b1dad5c5-a762-4464-aede-ef9324e8f62f"},"vehicle_type_id":"4","last_reported":1701958018,"current_range_meters":8800,"station_id":"ce4bhhp2rcd13ifvqfm0","pricing_plan_id":"free"},{"bike_id":"77e2df1b-d75a-48fe-a6ad-744dfbe91f1d","system_id":"levelo_inurba_marseille","lat":43.27214,"lon":5.3925,"is_reserved":false,"is_disabled":false,"rental_uris":{"android":"levelo://app?vid=77e2df1b-d75a-48fe-a6ad-744dfbe91f1d","ios":"levelo://app?vid=77e2df1b-d75a-48fe-a6ad-744dfbe91f1d"},"vehicle_type_id":"4","last_reported":1701958018,"current_range_meters":9200,"station_id":"","pricing_plan_id":"free"},{"bike_id":"8a8bc4d6-0029-4fbf-9728-a692a0316877","system_id":"levelo_inurba_marseille","lat":43.27021,"lon":5.39287,"is_reserved":false,"is_disabled":false,"rental_uris":{"android":"levelo://app?vid=8a8bc4d6-0029-4fbf-9728-a692a0316877","ios":"levelo://app?vid=8a8bc4d6-0029-4fbf-9728-a692a0316877"},"vehicle_type_id":"4","last_reported":1701958018,"current_range_meters":3600,"station_id":"","pricing_plan_id":"free"},{"bike_id":"25f3ef44-fe1c-4ced-8cf6-a573bfc7f1e6","system_id":"levelo_inurba_marseille","lat":43.26681,"lon":5.382694,"is_reserved":false,"is_disabled":false,"rental_uris":{"android":"levelo://app?vid=25f3ef44-fe1c-4ced-8cf6-a573bfc7f1e6","ios":"levelo://app?vid=25f3ef44-fe1c-4ced-8cf6-a573bfc7f1e6"},"vehicle_type_id":"4","last_reported":1701958018,"current_range_meters":25600,"station_id":"ce4bhg92rcd13ifvqf90","pricing_plan_id":"free"},{"bike_id":"5c62f0fe-2a68-4f0e-8c5e-1c3be35b64ff","system_id":"levelo_inurba_marseille","lat":43.292926,"lon":5.428534,"is_reserved":false,"is_disabled":false,"rental_uris":{"android":"levelo://app?vid=5c62f0fe-2a68-4f0e-8c5e-1c3be35b64ff","ios":"levelo://app?vid=5c62f0fe-2a68-4f0e-8c5e-1c3be35b64ff"},"vehicle_type_id":"4","last_reported":1701958018,"current_range_meters":15200,"station_id":"","pricing_plan_id":"free"},{"bike_id":"d3bb4764-3594-4eb0-a362-ba9203455140","system_id":"levelo_inurba_marseille","lat":43.267966,"lon":5.393976,"is_reserved":false,"is_disabled":false,"rental_uris":{"android":"levelo://app?vid=d3bb4764-3594-4eb0-a362-ba9203455140","ios":"levelo://app?vid=d3bb4764-3594-4eb0-a362-ba9203455140"},"vehicle_type_id":"4","last_reported":1701958018,"current_range_meters":26000,"station_id":"ce4bhh12rcd13ifvqfg0","pricing_plan_id":"free"},{"bike_id":"3d1f37ab-7002-494a-b30a-77ba093784b6","system_id":"levelo_inurba_marseille","lat":43.265689,"lon":5.390035,"is_reserved":false,"is_disabled":false,"rental_uris":{"android":"levelo://app?vid=3d1f37ab-7002-494a-b30a-77ba093784b6","ios":"levelo://app?vid=3d1f37ab-7002-494a-b30a-77ba093784b6"},"vehicle_type_id":"4","last_reported":1701958018,"current_range_meters":15200,"station_id":"","pricing_plan_id":"free"},{"bike_id":"847abed4-ccc7-475e-a26d-1a6aa9d71e03","system_id":"levelo_inurba_marseille","lat":43.26566,"lon":5.39014,"is_reserved":false,"is_disabled":false,"rental_uris":{"android":"levelo://app?vid=847abed4-ccc7-475e-a26d-1a6aa9d71e03","ios":"levelo://app?vid=847abed4-ccc7-475e-a26d-1a6aa9d71e03"},"vehicle_type_id":"4","last_reported":1701958018,"current_range_meters":25600,"station_id":"ce4bhe12rcd13ifvqf30","pricing_plan_id":"free"},{"bike_id":"277e49fa-46ea-41ec-901a-f8974fa82b42","system_id":"levelo_inurba_marseille","lat":43.317104,"lon":5.436818,"is_reserved":false,"is_disabled":false,"rental_uris":{"android":"levelo://app?vid=277e49fa-46ea-41ec-901a-f8974fa82b42","ios":"levelo://app?vid=277e49fa-46ea-41ec-901a-f8974fa82b42"},"vehicle_type_id":"4","last_reported":1701958018,"current_range_meters":30400,"station_id":"ce4bhp92rcd13ifvqhcg","pricing_plan_id":"free"},{"bike_id":"593d1843-07aa-4f38-9cee-0017fdf2db40","system_id":"levelo_inurba_marseille","lat":43.317122,"lon":5.437063,"is_reserved":false,"is_disabled":false,"rental_uris":{"android":"levelo://app?vid=593d1843-07aa-4f38-9cee-0017fdf2db40","ios":"levelo://app?vid=593d1843-07aa-4f38-9cee-0017fdf2db40"},"vehicle_type_id":"4","last_reported":1701958018,"current_range_meters":7600,"station_id":"","pricing_plan_id":"free"},{"bike_id":"a5125499-1e18-4415-bbe5-5ab936f64e91","system_id":"levelo_inurba_marseille","lat":43.317104,"lon":5.436818,"is_reserved":false,"is_disabled":false,"rental_uris":{"android":"levelo://app?vid=a5125499-1e18-4415-bbe5-5ab936f64e91","ios":"levelo://app?vid=a5125499-1e18-4415-bbe5-5ab936f64e91"},"vehicle_type_id":"4","last_reported":1701958018,"current_range_meters":31200,"station_id":"ce4bhp92rcd13ifvqhcg","pricing_plan_id":"free"},{"bike_id":"4f68f183-a711-4386-a731-e8ea8e2f115e","system_id":"levelo_inurba_marseille","lat":43.298768,"lon":5.43643,"is_reserved":false,"is_disabled":false,"rental_uris":{"android":"levelo://app?vid=4f68f183-a711-4386-a731-e8ea8e2f115e","ios":"levelo://app?vid=4f68f183-a711-4386-a731-e8ea8e2f115e"},"vehicle_type_id":"4","last_reported":1701958018,"current_range_meters":27200,"station_id":"ce4bhpp2rcd13ifvqhfg","pricing_plan_id":"free"},{"bike_id":"15516f19-6688-4602-81b1-7032ebea46f1","system_id":"levelo_inurba_marseille","lat":43.298768,"lon":5.43643,"is_reserved":false,"is_disabled":false,"rental_uris":{"android":"levelo://app?vid=15516f19-6688-4602-81b1-7032ebea46f1","ios":"levelo://app?vid=15516f19-6688-4602-81b1-7032ebea46f1"},"vehicle_type_id":"4","last_reported":1701958018,"current_range_meters":2000,"station_id":"ce4bhpp2rcd13ifvqhfg","pricing_plan_id":"free"},{"bike_id":"8c066ef0-8e33-4692-81e9-53a96288cf19","system_id":"levelo_inurba_marseille","lat":43.298768,"lon":5.43643,"is_reserved":false,"is_disabled":false,"rental_uris":{"android":"levelo://app?vid=8c066ef0-8e33-4692-81e9-53a96288cf19","ios":"levelo://app?vid=8c066ef0-8e33-4692-81e9-53a96288cf19"},"vehicle_type_id":"4","last_reported":1701958018,"current_range_meters":31600,"station_id":"ce4bhpp2rcd13ifvqhfg","pricing_plan_id":"free"},{"bike_id":"83e2018e-7127-4415-8bbf-2e347a9c6750","system_id":"levelo_inurba_marseille","lat":43.29892,"lon":5.43664,"is_reserved":false,"is_disabled":false,"rental_uris":{"android":"levelo://app?vid=83e2018e-7127-4415-8bbf-2e347a9c6750","ios":"levelo://app?vid=83e2018e-7127-4415-8bbf-2e347a9c6750"},"vehicle_type_id":"4","last_reported":1701958018,"current_range_meters":8000,"station_id":"ce4bhpp2rcd13ifvqhfg","pricing_plan_id":"free"},{"bike_id":"b13d38ce-5f53-4fd8-a1c9-e1f1d0d516e7","system_id":"levelo_inurba_marseille","lat":43.281548,"lon":5.42643,"is_reserved":false,"is_disabled":false,"rental_uris":{"android":"levelo://app?vid=b13d38ce-5f53-4fd8-a1c9-e1f1d0d516e7","ios":"levelo://app?vid=b13d38ce-5f53-4fd8-a1c9-e1f1d0d516e7"},"vehicle_type_id":"4","last_reported":1701958018,"current_range_meters":11600,"station_id":"ce4bhnh2rcd13ifvqgug","pricing_plan_id":"free"},{"bike_id":"d1a2dfb0-1944-4082-b397-13619ffd3b1d","system_id":"levelo_inurba_marseille","lat":43.2607,"lon":5.393983,"is_reserved":false,"is_disabled":false,"rental_uris":{"android":"levelo://app?vid=d1a2dfb0-1944-4082-b397-13619ffd3b1d","ios":"levelo://app?vid=d1a2dfb0-1944-4082-b397-13619ffd3b1d"},"vehicle_type_id":"4","last_reported":1701958018,"current_range_meters":4000,"station_id":"ce4bhh92rcd13ifvqfj0","pricing_plan_id":"free"},{"bike_id":"6f0d6e31-4c33-4fe5-a7b5-c1c3590aa2e4","system_id":"levelo_inurba_marseille","lat":43.275028,"lon":5.424534,"is_reserved":false,"is_disabled":false,"rental_uris":{"android":"levelo://app?vid=6f0d6e31-4c33-4fe5-a7b5-c1c3590aa2e4","ios":"levelo://app?vid=6f0d6e31-4c33-4fe5-a7b5-c1c3590aa2e4"},"vehicle_type_id":"4","last_reported":1701958018,"current_range_meters":20000,"station_id":"ce4bhn92rcd13ifvqgrg","pricing_plan_id":"free"},{"bike_id":"f5517869-02b3-439a-998a-72e19b717f58","system_id":"levelo_inurba_marseille","lat":43.275028,"lon":5.424534,"is_reserved":false,"is_disabled":false,"rental_uris":{"android":"levelo://app?vid=f5517869-02b3-439a-998a-72e19b717f58","ios":"levelo://app?vid=f5517869-02b3-439a-998a-72e19b717f58"},"vehicle_type_id":"4","last_reported":1701958018,"current_range_meters":16000,"station_id":"ce4bhn92rcd13ifvqgrg","pricing_plan_id":"free"},{"bike_id":"4a827ad6-3fd9-4f25-97bc-767a436fb70f","system_id":"levelo_inurba_marseille","lat":43.275028,"lon":5.424534,"is_reserved":false,"is_disabled":false,"rental_uris":{"android":"levelo://app?vid=4a827ad6-3fd9-4f25-97bc-767a436fb70f","ios":"levelo://app?vid=4a827ad6-3fd9-4f25-97bc-767a436fb70f"},"vehicle_type_id":"4","last_reported":1701958018,"current_range_meters":20000,"station_id":"ce4bhn92rcd13ifvqgrg","pricing_plan_id":"free"},{"bike_id":"37803714-58e7-4967-b600-803dd2d65b74","system_id":"levelo_inurba_marseille","lat":43.275028,"lon":5.424534,"is_reserved":false,"is_disabled":false,"rental_uris":{"android":"levelo://app?vid=37803714-58e7-4967-b600-803dd2d65b74","ios":"levelo://app?vid=37803714-58e7-4967-b600-803dd2d65b74"},"vehicle_type_id":"4","last_reported":1701958018,"current_range_meters":15600,"station_id":"ce4bhn92rcd13ifvqgrg","pricing_plan_id":"free"},{"bike_id":"2e6a6de0-7849-48d8-9475-224f66df9cc8","system_id":"levelo_inurba_marseille","lat":43.25571,"lon":5.38239,"is_reserved":false,"is_disabled":false,"rental_uris":{"android":"levelo://app?vid=2e6a6de0-7849-48d8-9475-224f66df9cc8","ios":"levelo://app?vid=2e6a6de0-7849-48d8-9475-224f66df9cc8"},"vehicle_type_id":"4","last_reported":1701958018,"current_range_meters":28000,"station_id":"ce4bhih2rcd13ifvqfs0","pricing_plan_id":"free"},{"bike_id":"0508f6d3-d65b-4c93-a976-6a1215a00a8e","system_id":"levelo_inurba_marseille","lat":43.254947,"lon":5.376454,"is_reserved":false,"is_disabled":false,"rental_uris":{"android":"levelo://app?vid=0508f6d3-d65b-4c93-a976-6a1215a00a8e","ios":"levelo://app?vid=0508f6d3-d65b-4c93-a976-6a1215a00a8e"},"vehicle_type_id":"4","last_reported":1701958018,"current_range_meters":14800,"station_id":"ce4bhh12rcd13ifvqff0","pricing_plan_id":"free"},{"bike_id":"17fac4d3-8f29-4d9d-a995-c76049580ca4","system_id":"levelo_inurba_marseille","lat":43.258658,"lon":5.398935,"is_reserved":false,"is_disabled":false,"rental_uris":{"android":"levelo://app?vid=17fac4d3-8f29-4d9d-a995-c76049580ca4","ios":"levelo://app?vid=17fac4d3-8f29-4d9d-a995-c76049580ca4"},"vehicle_type_id":"4","last_reported":1701958018,"current_range_meters":2000,"station_id":"ce4bhl92rcd13ifvqghg","pricing_plan_id":"free"},{"bike_id":"f58ba4f1-5566-49a1-8644-ef3efd12c716","system_id":"levelo_inurba_marseille","lat":43.258658,"lon":5.398935,"is_reserved":false,"is_disabled":false,"rental_uris":{"android":"levelo://app?vid=f58ba4f1-5566-49a1-8644-ef3efd12c716","ios":"levelo://app?vid=f58ba4f1-5566-49a1-8644-ef3efd12c716"},"vehicle_type_id":"4","last_reported":1701958018,"current_range_meters":24400,"station_id":"ce4bhl92rcd13ifvqghg","pricing_plan_id":"free"},{"bike_id":"edc3c536-5107-4d58-9ea9-359b4b7c16c7","system_id":"levelo_inurba_marseille","lat":43.250009,"lon":5.389195,"is_reserved":false,"is_disabled":false,"rental_uris":{"android":"levelo://app?vid=edc3c536-5107-4d58-9ea9-359b4b7c16c7","ios":"levelo://app?vid=edc3c536-5107-4d58-9ea9-359b4b7c16c7"},"vehicle_type_id":"4","last_reported":1701958018,"current_range_meters":24800,"station_id":"ce4bhgp2rcd13ifvqfd0","pricing_plan_id":"free"},{"bike_id":"ef1927f0-83ae-4da1-9146-d012bcdefdb8","system_id":"levelo_inurba_marseille","lat":43.25102,"lon":5.403214,"is_reserved":false,"is_disabled":false,"rental_uris":{"android":"levelo://app?vid=ef1927f0-83ae-4da1-9146-d012bcdefdb8","ios":"levelo://app?vid=ef1927f0-83ae-4da1-9146-d012bcdefdb8"},"vehicle_type_id":"4","last_reported":1701958018,"current_range_meters":31200,"station_id":"ce4bhlh2rcd13ifvqgig","pricing_plan_id":"free"},{"bike_id":"b7123a1f-3bd3-49c8-8217-c1d1bf86b6f8","system_id":"levelo_inurba_marseille","lat":43.24547,"lon":5.37333,"is_reserved":false,"is_disabled":false,"rental_uris":{"android":"levelo://app?vid=b7123a1f-3bd3-49c8-8217-c1d1bf86b6f8","ios":"levelo://app?vid=b7123a1f-3bd3-49c8-8217-c1d1bf86b6f8"},"vehicle_type_id":"4","last_reported":1701958018,"current_range_meters":0,"station_id":"","pricing_plan_id":"free"},{"bike_id":"4d95d612-a722-4e65-9627-31a974135e47","system_id":"levelo_inurba_marseille","lat":43.246467,"lon":5.388984,"is_reserved":false,"is_disabled":false,"rental_uris":{"android":"levelo://app?vid=4d95d612-a722-4e65-9627-31a974135e47","ios":"levelo://app?vid=4d95d612-a722-4e65-9627-31a974135e47"},"vehicle_type_id":"4","last_reported":1701958018,"current_range_meters":30400,"station_id":"ce4bhg12rcd13ifvqf60","pricing_plan_id":"free"},{"bike_id":"0270f4c3-1025-4daa-958f-63be51623450","system_id":"levelo_inurba_marseille","lat":43.245581,"lon":5.395069,"is_reserved":false,"is_disabled":false,"rental_uris":{"android":"levelo://app?vid=0270f4c3-1025-4daa-958f-63be51623450","ios":"levelo://app?vid=0270f4c3-1025-4daa-958f-63be51623450"},"vehicle_type_id":"4","last_reported":1701958018,"current_range_meters":26400,"station_id":"ce4bhlp2rcd13ifvqgjg","pricing_plan_id":"free"},{"bike_id":"41582dd2-08b2-4f17-a470-e0ec4dd0e91c","system_id":"levelo_inurba_marseille","lat":43.24693,"lon":5.382096,"is_reserved":false,"is_disabled":false,"rental_uris":{"android":"levelo://app?vid=41582dd2-08b2-4f17-a470-e0ec4dd0e91c","ios":"levelo://app?vid=41582dd2-08b2-4f17-a470-e0ec4dd0e91c"},"vehicle_type_id":"4","last_reported":1701958018,"current_range_meters":25600,"station_id":"ce4bhih2rcd13ifvqfr0","pricing_plan_id":"free"},{"bike_id":"4a843790-098d-49cd-a271-e8699c241565","system_id":"levelo_inurba_marseille","lat":43.24069,"lon":5.37764,"is_reserved":false,"is_disabled":false,"rental_uris":{"android":"levelo://app?vid=4a843790-098d-49cd-a271-e8699c241565","ios":"levelo://app?vid=4a843790-098d-49cd-a271-e8699c241565"},"vehicle_type_id":"4","last_reported":1701958018,"current_range_meters":14400,"station_id":"ce4bhnp2rcd13ifvqgvg","pricing_plan_id":"free"},{"bike_id":"2d6eba73-b846-491a-b955-71eb3b31120c","system_id":"levelo_inurba_marseille","lat":43.240623,"lon":5.377642,"is_reserved":false,"is_disabled":false,"rental_uris":{"android":"levelo://app?vid=2d6eba73-b846-491a-b955-71eb3b31120c","ios":"levelo://app?vid=2d6eba73-b846-491a-b955-71eb3b31120c"},"vehicle_type_id":"4","last_reported":1701958018,"current_range_meters":24400,"station_id":"ce4bhnp2rcd13ifvqgvg","pricing_plan_id":"free"},{"bike_id":"ff6c0a9b-03d3-4595-b483-6d742a9fe5bc","system_id":"levelo_inurba_marseille","lat":43.240623,"lon":5.377642,"is_reserved":false,"is_disabled":false,"rental_uris":{"android":"levelo://app?vid=ff6c0a9b-03d3-4595-b483-6d742a9fe5bc","ios":"levelo://app?vid=ff6c0a9b-03d3-4595-b483-6d742a9fe5bc"},"vehicle_type_id":"4","last_reported":1701958018,"current_range_meters":31200,"station_id":"ce4bhnp2rcd13ifvqgvg","pricing_plan_id":"free"},{"bike_id":"32b30606-14b9-41e6-a49f-da3543c8206c","system_id":"levelo_inurba_marseille","lat":43.231562,"lon":5.436933,"is_reserved":false,"is_disabled":false,"rental_uris":{"android":"levelo://app?vid=32b30606-14b9-41e6-a49f-da3543c8206c","ios":"levelo://app?vid=32b30606-14b9-41e6-a49f-da3543c8206c"},"vehicle_type_id":"4","last_reported":1701958018,"current_range_meters":31200,"station_id":"ce4bhmp2rcd13ifvqgog","pricing_plan_id":"free"},{"bike_id":"dafb76d3-48a3-4e10-8abe-6207ac6827bf","system_id":"levelo_inurba_marseille","lat":43.231562,"lon":5.436933,"is_reserved":false,"is_disabled":false,"rental_uris":{"android":"levelo://app?vid=dafb76d3-48a3-4e10-8abe-6207ac6827bf","ios":"levelo://app?vid=dafb76d3-48a3-4e10-8abe-6207ac6827bf"},"vehicle_type_id":"4","last_reported":1701958018,"current_range_meters":12000,"station_id":"ce4bhmp2rcd13ifvqgog","pricing_plan_id":"free"},{"bike_id":"ebb8e937-193f-4764-86cc-14f6a3f49c69","system_id":"levelo_inurba_marseille","lat":43.231562,"lon":5.436933,"is_reserved":false,"is_disabled":false,"rental_uris":{"android":"levelo://app?vid=ebb8e937-193f-4764-86cc-14f6a3f49c69","ios":"levelo://app?vid=ebb8e937-193f-4764-86cc-14f6a3f49c69"},"vehicle_type_id":"4","last_reported":1701958018,"current_range_meters":11200,"station_id":"ce4bhmp2rcd13ifvqgog","pricing_plan_id":"free"},{"bike_id":"ebbb1f26-1216-4b9d-ac47-aa159ee3f051","system_id":"levelo_inurba_marseille","lat":43.231562,"lon":5.436933,"is_reserved":false,"is_disabled":false,"rental_uris":{"android":"levelo://app?vid=ebbb1f26-1216-4b9d-ac47-aa159ee3f051","ios":"levelo://app?vid=ebbb1f26-1216-4b9d-ac47-aa159ee3f051"},"vehicle_type_id":"4","last_reported":1701958018,"current_range_meters":3600,"station_id":"ce4bhmp2rcd13ifvqgog","pricing_plan_id":"free"},{"bike_id":"b9d744bc-aef7-4aa6-b329-f06ddd152e7f","system_id":"levelo_inurba_marseille","lat":43.231562,"lon":5.436933,"is_reserved":false,"is_disabled":false,"rental_uris":{"android":"levelo://app?vid=b9d744bc-aef7-4aa6-b329-f06ddd152e7f","ios":"levelo://app?vid=b9d744bc-aef7-4aa6-b329-f06ddd152e7f"},"vehicle_type_id":"4","last_reported":1701958018,"current_range_meters":10400,"station_id":"ce4bhmp2rcd13ifvqgog","pricing_plan_id":"free"},{"bike_id":"e1251306-c052-40e5-b5f2-27796c9c4ad8","system_id":"levelo_inurba_marseille","lat":43.231562,"lon":5.436933,"is_reserved":false,"is_disabled":false,"rental_uris":{"android":"levelo://app?vid=e1251306-c052-40e5-b5f2-27796c9c4ad8","ios":"levelo://app?vid=e1251306-c052-40e5-b5f2-27796c9c4ad8"},"vehicle_type_id":"4","last_reported":1701958018,"current_range_meters":2000,"station_id":"ce4bhmp2rcd13ifvqgog","pricing_plan_id":"free"},{"bike_id":"4ccba871-beb4-4c6d-a451-b9020fb73037","system_id":"levelo_inurba_marseille","lat":43.231562,"lon":5.436933,"is_reserved":false,"is_disabled":false,"rental_uris":{"android":"levelo://app?vid=4ccba871-beb4-4c6d-a451-b9020fb73037","ios":"levelo://app?vid=4ccba871-beb4-4c6d-a451-b9020fb73037"},"vehicle_type_id":"4","last_reported":1701958018,"current_range_meters":17200,"station_id":"ce4bhmp2rcd13ifvqgog","pricing_plan_id":"free"},{"bike_id":"96614ef2-cec9-4e17-bb2c-aff188332efc","system_id":"levelo_inurba_marseille","lat":43.231562,"lon":5.436933,"is_reserved":false,"is_disabled":false,"rental_uris":{"android":"levelo://app?vid=96614ef2-cec9-4e17-bb2c-aff188332efc","ios":"levelo://app?vid=96614ef2-cec9-4e17-bb2c-aff188332efc"},"vehicle_type_id":"4","last_reported":1701958018,"current_range_meters":28800,"station_id":"ce4bhmp2rcd13ifvqgog","pricing_plan_id":"free"},{"bike_id":"2b639a94-fd9f-4910-a7da-f5fc8eed7639","system_id":"levelo_inurba_marseille","lat":43.231562,"lon":5.436933,"is_reserved":false,"is_disabled":false,"rental_uris":{"android":"levelo://app?vid=2b639a94-fd9f-4910-a7da-f5fc8eed7639","ios":"levelo://app?vid=2b639a94-fd9f-4910-a7da-f5fc8eed7639"},"vehicle_type_id":"4","last_reported":1701958018,"current_range_meters":14000,"station_id":"ce4bhmp2rcd13ifvqgog","pricing_plan_id":"free"},{"bike_id":"64d7e3a8-78e1-4b86-897c-e8c197f98a5a","system_id":"levelo_inurba_marseille","lat":43.231562,"lon":5.436933,"is_reserved":false,"is_disabled":false,"rental_uris":{"android":"levelo://app?vid=64d7e3a8-78e1-4b86-897c-e8c197f98a5a","ios":"levelo://app?vid=64d7e3a8-78e1-4b86-897c-e8c197f98a5a"},"vehicle_type_id":"4","last_reported":1701958018,"current_range_meters":13600,"station_id":"ce4bhmp2rcd13ifvqgog","pricing_plan_id":"free"},{"bike_id":"7a322856-79ba-4174-90e9-188e9c210a06","system_id":"levelo_inurba_marseille","lat":43.231562,"lon":5.436933,"is_reserved":false,"is_disabled":false,"rental_uris":{"android":"levelo://app?vid=7a322856-79ba-4174-90e9-188e9c210a06","ios":"levelo://app?vid=7a322856-79ba-4174-90e9-188e9c210a06"},"vehicle_type_id":"4","last_reported":1701958018,"current_range_meters":22800,"station_id":"ce4bhmp2rcd13ifvqgog","pricing_plan_id":"free"},{"bike_id":"26aa31e9-78f8-402e-9844-92fcde0d8e9e","system_id":"levelo_inurba_marseille","lat":43.231562,"lon":5.436933,"is_reserved":false,"is_disabled":false,"rental_uris":{"android":"levelo://app?vid=26aa31e9-78f8-402e-9844-92fcde0d8e9e","ios":"levelo://app?vid=26aa31e9-78f8-402e-9844-92fcde0d8e9e"},"vehicle_type_id":"4","last_reported":1701958018,"current_range_meters":4800,"station_id":"ce4bhmp2rcd13ifvqgog","pricing_plan_id":"free"},{"bike_id":"8e108615-2715-45ef-8f2d-511cdf7276bc","system_id":"levelo_inurba_marseille","lat":43.2315,"lon":5.43715,"is_reserved":false,"is_disabled":false,"rental_uris":{"android":"levelo://app?vid=8e108615-2715-45ef-8f2d-511cdf7276bc","ios":"levelo://app?vid=8e108615-2715-45ef-8f2d-511cdf7276bc"},"vehicle_type_id":"4","last_reported":1701958018,"current_range_meters":8400,"station_id":"ce4bhmp2rcd13ifvqgog","pricing_plan_id":"free"},{"bike_id":"f2a13acd-23e0-4753-890d-e38186f79475","system_id":"levelo_inurba_marseille","lat":43.231562,"lon":5.436933,"is_reserved":false,"is_disabled":false,"rental_uris":{"android":"levelo://app?vid=f2a13acd-23e0-4753-890d-e38186f79475","ios":"levelo://app?vid=f2a13acd-23e0-4753-890d-e38186f79475"},"vehicle_type_id":"4","last_reported":1701958018,"current_range_meters":19600,"station_id":"ce4bhmp2rcd13ifvqgog","pricing_plan_id":"free"},{"bike_id":"c4d763e0-a870-4439-9182-df46647c88f5","system_id":"levelo_inurba_marseille","lat":43.23151,"lon":5.43719,"is_reserved":false,"is_disabled":false,"rental_uris":{"android":"levelo://app?vid=c4d763e0-a870-4439-9182-df46647c88f5","ios":"levelo://app?vid=c4d763e0-a870-4439-9182-df46647c88f5"},"vehicle_type_id":"4","last_reported":1701958018,"current_range_meters":9600,"station_id":"ce4bhmp2rcd13ifvqgog","pricing_plan_id":"free"},{"bike_id":"41e229a8-b68d-42af-ba6b-b6cd94dad415","system_id":"levelo_inurba_marseille","lat":43.23151,"lon":5.4372,"is_reserved":false,"is_disabled":false,"rental_uris":{"android":"levelo://app?vid=41e229a8-b68d-42af-ba6b-b6cd94dad415","ios":"levelo://app?vid=41e229a8-b68d-42af-ba6b-b6cd94dad415"},"vehicle_type_id":"4","last_reported":1701958018,"current_range_meters":14400,"station_id":"ce4bhmp2rcd13ifvqgog","pricing_plan_id":"free"},{"bike_id":"167bdd97-62db-414a-9aaa-885881545e21","system_id":"levelo_inurba_marseille","lat":43.231562,"lon":5.436933,"is_reserved":false,"is_disabled":false,"rental_uris":{"android":"levelo://app?vid=167bdd97-62db-414a-9aaa-885881545e21","ios":"levelo://app?vid=167bdd97-62db-414a-9aaa-885881545e21"},"vehicle_type_id":"4","last_reported":1701958018,"current_range_meters":10800,"station_id":"ce4bhmp2rcd13ifvqgog","pricing_plan_id":"free"},{"bike_id":"fcd5f4bd-6a9a-4e01-afb4-af3429f1f986","system_id":"levelo_inurba_marseille","lat":43.231562,"lon":5.436933,"is_reserved":false,"is_disabled":false,"rental_uris":{"android":"levelo://app?vid=fcd5f4bd-6a9a-4e01-afb4-af3429f1f986","ios":"levelo://app?vid=fcd5f4bd-6a9a-4e01-afb4-af3429f1f986"},"vehicle_type_id":"4","last_reported":1701958018,"current_range_meters":9200,"station_id":"ce4bhmp2rcd13ifvqgog","pricing_plan_id":"free"},{"bike_id":"149734cf-0231-46c5-b4e5-ccd25f43cea6","system_id":"levelo_inurba_marseille","lat":43.231562,"lon":5.436933,"is_reserved":false,"is_disabled":false,"rental_uris":{"android":"levelo://app?vid=149734cf-0231-46c5-b4e5-ccd25f43cea6","ios":"levelo://app?vid=149734cf-0231-46c5-b4e5-ccd25f43cea6"},"vehicle_type_id":"4","last_reported":1701958018,"current_range_meters":3200,"station_id":"ce4bhmp2rcd13ifvqgog","pricing_plan_id":"free"},{"bike_id":"6044dcff-6eb4-461c-91be-600815014433","system_id":"levelo_inurba_marseille","lat":43.231562,"lon":5.436933,"is_reserved":false,"is_disabled":false,"rental_uris":{"android":"levelo://app?vid=6044dcff-6eb4-461c-91be-600815014433","ios":"levelo://app?vid=6044dcff-6eb4-461c-91be-600815014433"},"vehicle_type_id":"4","last_reported":1701958018,"current_range_meters":31600,"station_id":"ce4bhmp2rcd13ifvqgog","pricing_plan_id":"free"},{"bike_id":"0388cfcc-aee4-4b56-aaf5-4a4cb85d6319","system_id":"levelo_inurba_marseille","lat":43.231562,"lon":5.436933,"is_reserved":false,"is_disabled":false,"rental_uris":{"android":"levelo://app?vid=0388cfcc-aee4-4b56-aaf5-4a4cb85d6319","ios":"levelo://app?vid=0388cfcc-aee4-4b56-aaf5-4a4cb85d6319"},"vehicle_type_id":"4","last_reported":1701958018,"current_range_meters":19200,"station_id":"ce4bhmp2rcd13ifvqgog","pricing_plan_id":"free"}]}}