{"last_updated":1678565197,"ttl":30,"version":"2.2","data":{"bikes":[{"bike_id":"1ad8f1fb-8f43-4b5e-9cf8-08e8742489c2","system_id":"levelo_inurba_marseille","lat":43.312239,"lon":5.368562,"is_reserved":false,"is_disabled":false,"rental_uris":{"android":"levelo://app?vid=1ad8f1fb-8f43-4b5e-9cf8-08e8742489c2","ios":"levelo://app?vid=1ad8f1fb-8f43-4b5e-9cf8-08e8742489c2"},"vehicle_type_id":"4","last_reported":1678565197,"current_range_meters":6000,"station_id":"ce4bgl92rcd13ifvqbq0","pricing_plan_id":"free"},{"bike_id":"db584dcb-fc52-4378-8819-6f433a832c5a","system_id":"levelo_inurba_marseille","lat":43.309,"lon":5.36836,"is_reserved":false,"is_disabled":false,"rental_uris":{"android":"levelo://app?vid=db584dcb-fc52-4378-8819-6f433a832c5a","ios":"levelo://app?vid=db584dcb-fc52-4378-8819-6f433a832c5a"},"vehicle_type_id":"4","last_reported":1678565197,"current_range_meters":400,"station_id":"","pricing_plan_id":"free"},{"bike_id":"208e7865-59b0-4f6a-8356-63659eed5bf0","system_id":"levelo_inurba_marseille","lat":43.314811,"lon":5.373104,"is_reserved":false,"is_disabled":false,"rental_uris":{"android":"levelo://app?vid=208e7865-59b0-4f6a-8356-63659eed5bf0","ios":"levelo://app?vid=208e7865-59b0-4f6a-8356-63659eed5bf0"},"vehicle_type_id":"4","last_reported":1678565197,"current_range_meters":0,"station_id":"ce4bgt12rcd13ifvqcd0","pricing_plan_id":"free"},{"bike_id":"89ceb6bb-bfec-475e-b6e2-b401971a3e3d","system_id":"levelo_inurba_marseille","lat":43.31488,"lon":5.37308,"is_reserved":false,"is_disabled":false,"rental_uris":{"android":"levelo://app?vid=89ceb6bb-bfec-475e-b6e2-b401971a3e3d","ios":"levelo://app?vid=89ceb6bb-bfec-475e-b6e2-b401971a3e3d"},"vehicle_type_id":"4","last_reported":1678565197,"current_range_meters":5200,"station_id":"ce4bgt12rcd13ifvqcd0","pricing_plan_id":"free"},{"bike_id":"678c4e54-94e6-412e-acd4-57bbe2971a99","system_id":"levelo_inurba_marseille","lat":43.314811,"lon":5.373103,"is_reserved":false,"is_disabled":false,"rental_uris":{"android":"levelo://app?vid=678c4e54-94e6-412e-acd4-57bbe2971a99","ios":"levelo://app?vid=678c4e54-94e6-412e-acd4-57bbe2971a99"},"vehicle_type_id":"4","last_reported":1678565197,"current_range_meters":24000,"station_id":"ce4bgt12rcd13ifvqcd0","pricing_plan_id":"free"},{"bike_id":"ccf42d3a-5a2a-44b4-8a68-aa47682ebb3c","system_id":"levelo_inurba_marseille","lat":43.31795,"lon":5.36815,"is_reserved":false,"is_disabled":false,"rental_uris":{"android":"levelo://app?vid=ccf42d3a-5a2a-44b4-8a68-aa47682ebb3c","ios":"levelo://app?vid=ccf42d3a-5a2a-44b4-8a68-aa47682ebb3c"},"vehicle_type_id":"4","last_reported":1678565197,"current_range_meters":13200,"station_id":"","pricing_plan_id":"free"},{"bike_id":"8dcf4a91-0c9c-48fb-a838-f01b75854808","system_id":"levelo_inurba_marseille","lat":43.308614,"lon":5.372098,"is_reserved":false,"is_disabled":false,"rental_uris":{"android":"levelo://app?vid=8dcf4a91-0c9c-48fb-a838-f01b75854808","ios":"levelo://app?vid=8dcf4a91-0c9c-48fb-a838-f01b75854808"},"vehicle_type_id":"4","last_reported":1678565197,"current_range_meters":20800,"station_id":"ce4bguh2rcd13ifvqckg","pricing_plan_id":"free"},{"bike_id":"2ad01a7a-8458-4d70-a585-dae65f85d807","system_id":"levelo_inurba_marseille","lat":43.305989,"lon":5.37225,"is_reserved":false,"is_disabled":false,"rental_uris":{"android":"levelo://app?vid=2ad01a7a-8458-4d70-a585-dae65f85d807","ios":"levelo://app?vid=2ad01a7a-8458-4d70-a585-dae65f85d807"},"vehicle_type_id":"4","last_reported":1678565197,"current_range_meters":6000,"station_id":"ce4bgqh2rcd13ifvqc4g","pricing_plan_id":"free"},{"bike_id":"7abb422f-f0ea-4c39-837a-3518880d645e","system_id":"levelo_inurba_marseille","lat":43.30601,"lon":5.372285,"is_reserved":false,"is_disabled":false,"rental_uris":{"android":"levelo://app?vid=7abb422f-f0ea-4c39-837a-3518880d645e","ios":"levelo://app?vid=7abb422f-f0ea-4c39-837a-3518880d645e"},"vehicle_type_id":"4","last_reported":1678565197,"current_range_meters":3200,"station_id":"","pricing_plan_id":"free"},{"bike_id":"82414e10-5175-4d00-8202-fd30f41012cc","system_id":"levelo_inurba_marseille","lat":43.305989,"lon":5.37225,"is_reserved":false,"is_disabled":false,"rental_uris":{"android":"levelo://app?vid=82414e10-5175-4d00-8202-fd30f41012cc","ios":"levelo://app?vid=82414e10-5175-4d00-8202-fd30f41012cc"},"vehicle_type_id":"4","last_reported":1678565197,"current_range_meters":2400,"station_id":"ce4bgqh2rcd13ifvqc4g","pricing_plan_id":"free"},{"bike_id":"003ec28f-bc25-4cdd-a524-c6b02aa6e319","system_id":"levelo_inurba_marseille","lat":43.317033,"lon":5.377523,"is_reserved":false,"is_disabled":false,"rental_uris":{"android":"levelo://app?vid=003ec28f-bc25-4cdd-a524-c6b02aa6e319","ios":"levelo://app?vid=003ec28f-bc25-4cdd-a524-c6b02aa6e319"},"vehicle_type_id":"4","last_reported":1678565197,"current_range_meters":15600,"station_id":"","pricing_plan_id":"free"},{"bike_id":"878f0e81-eda5-425b-9816-843edae93cbf","system_id":"levelo_inurba_marseille","lat":43.317075,"lon":5.377367,"is_reserved":false,"is_disabled":false,"rental_uris":{"android":"levelo://app?vid=878f0e81-eda5-425b-9816-843edae93cbf","ios":"levelo://app?vid=878f0e81-eda5-425b-9816-843edae93cbf"},"vehicle_type_id":"4","last_reported":1678565197,"current_range_meters":400,"station_id":"ce4bgth2rcd13ifvqch0","pricing_plan_id":"free"},{"bike_id":"83129ceb-0c43-479c-94b1-245c23138ee4","system_id":"levelo_inurba_marseille","lat":43.30342,"lon":5.37255,"is_reserved":false,"is_disabled":false,"rental_uris":{"android":"levelo://app?vid=83129ceb-0c43-479c-94b1-245c23138ee4","ios":"levelo://app?vid=83129ceb-0c43-479c-94b1-245c23138ee4"},"vehicle_type_id":"4","last_reported":1678565197,"current_range_meters":0,"station_id":"","pricing_plan_id":"free"},{"bike_id":"7b2fd3ff-69cd-40f4-a036-ed30dda90606","system_id":"levelo_inurba_marseille","lat":43.301915,"lon":5.366216,"is_reserved":false,"is_disabled":false,"rental_uris":{"android":"levelo://app?vid=7b2fd3ff-69cd-40f4-a036-ed30dda90606","ios":"levelo://app?vid=7b2fd3ff-69cd-40f4-a036-ed30dda90606"},"vehicle_type_id":"4","last_reported":1678565197,"current_range_meters":17600,"station_id":"","pricing_plan_id":"free"},{"bike_id":"2e5855f6-eccc-43bc-bdcf-f1dbcc0bca55","system_id":"levelo_inurba_marseille","lat":43.308012,"lon":5.381511,"is_reserved":false,"is_disabled":false,"rental_uris":{"android":"levelo://app?vid=2e5855f6-eccc-43bc-bdcf-f1dbcc0bca55","ios":"levelo://app?vid=2e5855f6-eccc-43bc-bdcf-f1dbcc0bca55"},"vehicle_type_id":"4","last_reported":1678565197,"current_range_meters":17200,"station_id":"ce4bgt12rcd13ifvqce0","pricing_plan_id":"free"},{"bike_id":"78c03924-b920-4420-8ab7-e767fcd2d360","system_id":"levelo_inurba_marseille","lat":43.307965,"lon":5.381495,"is_reserved":false,"is_disabled":false,"rental_uris":{"android":"levelo://app?vid=78c03924-b920-4420-8ab7-e767fcd2d360","ios":"levelo://app?vid=78c03924-b920-4420-8ab7-e767fcd2d360"},"vehicle_type_id":"4","last_reported":1678565197,"current_range_meters":2000,"station_id":"","pricing_plan_id":"free"},{"bike_id":"157e1fa6-ab92-4d24-aa36-8e0071b6fe46","system_id":"levelo_inurba_marseille","lat":43.308012,"lon":5.381511,"is_reserved":false,"is_disabled":false,"rental_uris":{"android":"levelo://app?vid=157e1fa6-ab92-4d24-aa36-8e0071b6fe46","ios":"levelo://app?vid=157e1fa6-ab92-4d24-aa36-8e0071b6fe46"},"vehicle_type_id":"4","last_reported":1678565197,"current_range_meters":7600,"station_id":"ce4bgt12rcd13ifvqce0","pricing_plan_id":"free"},{"bike_id":"7b1d0632-d784-42bb-bd6a-8b8f125b5e46","system_id":"levelo_inurba_marseille","lat":43.30457,"lon":5.379,"is_reserved":false,"is_disabled":false,"rental_uris":{"android":"levelo://app?vid=7b1d0632-d784-42bb-bd6a-8b8f125b5e46","ios":"levelo://app?vid=7b1d0632-d784-42bb-bd6a-8b8f125b5e46"},"vehicle_type_id":"4","last_reported":1678565197,"current_range_meters":13600,"station_id":"","pricing_plan_id":"free"},{"bike_id":"c19906e7-c2c4-41dc-8d0a-589e53b24d55","system_id":"levelo_inurba_marseille","lat":43.304606,"lon":5.379026,"is_reserved":false,"is_disabled":false,"rental_uris":{"android":"levelo://app?vid=c19906e7-c2c4-41dc-8d0a-589e53b24d55","ios":"levelo://app?vid=c19906e7-c2c4-41dc-8d0a-589e53b24d55"},"vehicle_type_id":"4","last_reported":1678565197,"current_range_meters":0,"station_id":"ce4bgup2rcd13ifvqcn0","pricing_plan_id":"free"},{"bike_id":"e9ffdf93-1763-4767-9bf2-72c18df07018","system_id":"levelo_inurba_marseille","lat":43.304606,"lon":5.379026,"is_reserved":false,"is_disabled":false,"rental_uris":{"android":"levelo://app?vid=e9ffdf93-1763-4767-9bf2-72c18df07018","ios":"levelo://app?vid=e9ffdf93-1763-4767-9bf2-72c18df07018"},"vehicle_type_id":"4","last_reported":1678565197,"current_range_meters":12000,"station_id":"ce4bgup2rcd13ifvqcn0","pricing_plan_id":"free"},{"bike_id":"914c897a-8860-44bc-bce9-a556caa1f9a9","system_id":"levelo_inurba_marseille","lat":43.304606,"lon":5.379026,"is_reserved":false,"is_disabled":false,"rental_uris":{"android":"levelo://app?vid=914c897a-8860-44bc-bce9-a556caa1f9a9","ios":"levelo://app?vid=914c897a-8860-44bc-bce9-a556caa1f9a9"},"vehicle_type_id":"4","last_reported":1678565197,"current_range_meters":2000,"station_id":"ce4bgup2rcd13ifvqcn0","pricing_plan_id":"free"},{"bike_id":"6e659a07-ca28-4923-b9fb-d586173c0a1e","system_id":"levelo_inurba_marseille","lat":43.304606,"lon":5.379026,"is_reserved":false,"is_disabled":false,"rental_uris":{"android":"levelo://app?vid=6e659a07-ca28-4923-b9fb-d586173c0a1e","ios":"levelo://app?vid=6e659a07-ca28-4923-b9fb-d586173c0a1e"},"vehicle_type_id":"4","last_reported":1678565197,"current_range_meters":0,"station_id":"ce4bgup2rcd13ifvqcn0","pricing_plan_id":"free"},{"bike_id":"8080a3f9-aa5c-4afa-85c3-7c5f1492e9a4","system_id":"levelo_inurba_marseille","lat":43.301429,"lon":5.37413,"is_reserved":false,"is_disabled":false,"rental_uris":{"android":"levelo://app?vid=8080a3f9-aa5c-4afa-85c3-7c5f1492e9a4","ios":"levelo://app?vid=8080a3f9-aa5c-4afa-85c3-7c5f1492e9a4"},"vehicle_type_id":"4","last_reported":1678565197,"current_range_meters":25200,"station_id":"ce4bgs92rcd13ifvqcc0","pricing_plan_id":"free"},{"bike_id":"0701ea9d-9c92-4830-8ba4-e3f822eea920","system_id":"levelo_inurba_marseille","lat":43.30143,"lon":5.37413,"is_reserved":false,"is_disabled":false,"rental_uris":{"android":"levelo://app?vid=0701ea9d-9c92-4830-8ba4-e3f822eea920","ios":"levelo://app?vid=0701ea9d-9c92-4830-8ba4-e3f822eea920"},"vehicle_type_id":"4","last_reported":1678565197,"current_range_meters":28800,"station_id":"ce4bgs92rcd13ifvqcc0","pricing_plan_id":"free"},{"bike_id":"55ea0cf6-00c6-4df2-af70-377a854a210a","system_id":"levelo_inurba_marseille","lat":43.30143,"lon":5.37413,"is_reserved":false,"is_disabled":false,"rental_uris":{"android":"levelo://app?vid=55ea0cf6-00c6-4df2-af70-377a854a210a","ios":"levelo://app?vid=55ea0cf6-00c6-4df2-af70-377a854a210a"},"vehicle_type_id":"4","last_reported":1678565197,"current_range_meters":26800,"station_id":"ce4bgs92rcd13ifvqcc0","pricing_plan_id":"free"},{"bike_id":"a7a58afd-6e54-43dd-b9f7-1eff8278c59d","system_id":"levelo_inurba_marseille","lat":43.30143,"lon":5.37413,"is_reserved":false,"is_disabled":false,"rental_uris":{"android":"levelo://app?vid=a7a58afd-6e54-43dd-b9f7-1eff8278c59d","ios":"levelo://app?vid=a7a58afd-6e54-43dd-b9f7-1eff8278c59d"},"vehicle_type_id":"4","last_reported":1678565197,"current_range_meters":12400,"station_id":"ce4bgs92rcd13ifvqcc0","pricing_plan_id":"free"},{"bike_id":"7b38ca56-5eb2-49d2-bf3f-bbf574657171","system_id":"levelo_inurba_marseille","lat":43.3058,"lon":5.38262,"is_reserved":false,"is_disabled":false,"rental_uris":{"android":"levelo://app?vid=7b38ca56-5eb2-49d2-bf3f-bbf574657171","ios":"levelo://app?vid=7b38ca56-5eb2-49d2-bf3f-bbf574657171"},"vehicle_type_id":"4","last_reported":1678565197,"current_range_meters":13600,"station_id":"","pricing_plan_id":"free"},{"bike_id":"93ff6548-2007-4c83-b6b0-7c2c3ac8c23d","system_id":"levelo_inurba_marseille","lat":43.301429,"lon":5.37413,"is_reserved":false,"is_disabled":false,"rental_uris":{"android":"levelo://app?vid=93ff6548-2007-4c83-b6b0-7c2c3ac8c23d","ios":"levelo://app?vid=93ff6548-2007-4c83-b6b0-7c2c3ac8c23d"},"vehicle_type_id":"4","last_reported":1678565197,"current_range_meters":29600,"station_id":"ce4bgs92rcd13ifvqcc0","pricing_plan_id":"free"},{"bike_id":"91102199-be5c-4393-86b9-267a3dc95ba9","system_id":"levelo_inurba_marseille","lat":43.305279,"lon":5.384191,"is_reserved":false,"is_disabled":false,"rental_uris":{"android":"levelo://app?vid=91102199-be5c-4393-86b9-267a3dc95ba9","ios":"levelo://app?vid=91102199-be5c-4393-86b9-267a3dc95ba9"},"vehicle_type_id":"4","last_reported":1678565197,"current_range_meters":20000,"station_id":"ce4bgg92rcd13ifvqb30","pricing_plan_id":"free"},{"bike_id":"f99d3b47-bc88-4d0a-bfb4-8566c3fa73b5","system_id":"levelo_inurba_marseille","lat":43.311722,"lon":5.387247,"is_reserved":false,"is_disabled":false,"rental_uris":{"android":"levelo://app?vid=f99d3b47-bc88-4d0a-bfb4-8566c3fa73b5","ios":"levelo://app?vid=f99d3b47-bc88-4d0a-bfb4-8566c3fa73b5"},"vehicle_type_id":"4","last_reported":1678565197,"current_range_meters":8000,"station_id":"ce4bgv12rcd13ifvqcp0","pricing_plan_id":"free"},{"bike_id":"9366edcc-ca0d-43a5-82ae-4fa92caf5dd4","system_id":"levelo_inurba_marseille","lat":43.311722,"lon":5.387247,"is_reserved":false,"is_disabled":false,"rental_uris":{"android":"levelo://app?vid=9366edcc-ca0d-43a5-82ae-4fa92caf5dd4","ios":"levelo://app?vid=9366edcc-ca0d-43a5-82ae-4fa92caf5dd4"},"vehicle_type_id":"4","last_reported":1678565197,"current_range_meters":2400,"station_id":"ce4bgv12rcd13ifvqcp0","pricing_plan_id":"free"},{"bike_id":"22ebd2a6-f80f-4c38-ada3-263028153afb","system_id":"levelo_inurba_marseille","lat":43.328371,"lon":5.366912,"is_reserved":false,"is_disabled":false,"rental_uris":{"android":"levelo://app?vid=22ebd2a6-f80f-4c38-ada3-263028153afb","ios":"levelo://app?vid=22ebd2a6-f80f-4c38-ada3-263028153afb"},"vehicle_type_id":"4","last_reported":1678565197,"current_range_meters":29200,"station_id":"ce4bhs92rcd13ifvqi0g","pricing_plan_id":"free"},{"bike_id":"70db027b-5957-4c3d-a2f9-a8a4d79b8eac","system_id":"levelo_inurba_marseille","lat":43.32828,"lon":5.3669,"is_reserved":false,"is_disabled":false,"rental_uris":{"android":"levelo://app?vid=70db027b-5957-4c3d-a2f9-a8a4d79b8eac","ios":"levelo://app?vid=70db027b-5957-4c3d-a2f9-a8a4d79b8eac"},"vehicle_type_id":"4","last_reported":1678565197,"current_range_meters":4400,"station_id":"","pricing_plan_id":"free"},{"bike_id":"c96f2d64-10b9-4826-93b5-7efc32bb0caf","system_id":"levelo_inurba_marseille","lat":43.328371,"lon":5.366909,"is_reserved":false,"is_disabled":false,"rental_uris":{"android":"levelo://app?vid=c96f2d64-10b9-4826-93b5-7efc32bb0caf","ios":"levelo://app?vid=c96f2d64-10b9-4826-93b5-7efc32bb0caf"},"vehicle_type_id":"4","last_reported":1678565197,"current_range_meters":9600,"station_id":"ce4bhs92rcd13ifvqi0g","pricing_plan_id":"free"},{"bike_id":"a0a89ec3-99fc-43ed-bdde-ded8faf83dec","system_id":"levelo_inurba_marseille","lat":43.29681,"lon":5.37283,"is_reserved":false,"is_disabled":false,"rental_uris":{"android":"levelo://app?vid=a0a89ec3-99fc-43ed-bdde-ded8faf83dec","ios":"levelo://app?vid=a0a89ec3-99fc-43ed-bdde-ded8faf83dec"},"vehicle_type_id":"4","last_reported":1678565197,"current_range_meters":9600,"station_id":"ce4bgk12rcd13ifvqbj0","pricing_plan_id":"free"},{"bike_id":"19c2df6c-5321-4705-bb60-ee6ddc617704","system_id":"levelo_inurba_marseille","lat":43.2962,"lon":5.37146,"is_reserved":false,"is_disabled":false,"rental_uris":{"android":"levelo://app?vid=19c2df6c-5321-4705-bb60-ee6ddc617704","ios":"levelo://app?vid=19c2df6c-5321-4705-bb60-ee6ddc617704"},"vehicle_type_id":"4","last_reported":1678565197,"current_range_meters":0,"station_id":"","pricing_plan_id":"free"},{"bike_id":"55f639d2-cf5a-4ab2-87d3-79d14e3ad03a","system_id":"levelo_inurba_marseille","lat":43.29573,"lon":5.367355,"is_reserved":false,"is_disabled":false,"rental_uris":{"android":"levelo://app?vid=55f639d2-cf5a-4ab2-87d3-79d14e3ad03a","ios":"levelo://app?vid=55f639d2-cf5a-4ab2-87d3-79d14e3ad03a"},"vehicle_type_id":"4","last_reported":1678565197,"current_range_meters":7200,"station_id":"ce4bgph2rcd13ifvqc2g","pricing_plan_id":"free"},{"bike_id":"50bd9918-8313-4776-baa7-51a598c7f2c6","system_id":"levelo_inurba_marseille","lat":43.29582,"lon":5.36751,"is_reserved":false,"is_disabled":false,"rental_uris":{"android":"levelo://app?vid=50bd9918-8313-4776-baa7-51a598c7f2c6","ios":"levelo://app?vid=50bd9918-8313-4776-baa7-51a598c7f2c6"},"vehicle_type_id":"4","last_reported":1678565197,"current_range_meters":400,"station_id":"ce4bgph2rcd13ifvqc2g","pricing_plan_id":"free"},{"bike_id":"77247566-38dd-492d-8366-e98e16faa116","system_id":"levelo_inurba_marseille","lat":43.29581,"lon":5.36746,"is_reserved":false,"is_disabled":false,"rental_uris":{"android":"levelo://app?vid=77247566-38dd-492d-8366-e98e16faa116","ios":"levelo://app?vid=77247566-38dd-492d-8366-e98e16faa116"},"vehicle_type_id":"4","last_reported":1678565197,"current_range_meters":28800,"station_id":"ce4bgph2rcd13ifvqc2g","pricing_plan_id":"free"},{"bike_id":"36a29f51-b02f-477f-8b40-d736ce20cc27","system_id":"levelo_inurba_marseille","lat":43.29573,"lon":5.367355,"is_reserved":false,"is_disabled":false,"rental_uris":{"android":"levelo://app?vid=36a29f51-b02f-477f-8b40-d736ce20cc27","ios":"levelo://app?vid=36a29f51-b02f-477f-8b40-d736ce20cc27"},"vehicle_type_id":"4","last_reported":1678565197,"current_range_meters":3200,"station_id":"ce4bgph2rcd13ifvqc2g","pricing_plan_id":"free"},{"bike_id":"e5f25d41-3cec-44a9-ba83-18ca0bc7160d","system_id":"levelo_inurba_marseille","lat":43.295783,"lon":5.36744,"is_reserved":false,"is_disabled":false,"rental_uris":{"android":"levelo://app?vid=e5f25d41-3cec-44a9-ba83-18ca0bc7160d","ios":"levelo://app?vid=e5f25d41-3cec-44a9-ba83-18ca0bc7160d"},"vehicle_type_id":"4","last_reported":1678565197,"current_range_meters":25600,"station_id":"","pricing_plan_id":"free"},{"bike_id":"ab5d23c4-d632-49da-9e47-cca286ac0b72","system_id":"levelo_inurba_marseille","lat":43.29573,"lon":5.367355,"is_reserved":false,"is_disabled":false,"rental_uris":{"android":"levelo://app?vid=ab5d23c4-d632-49da-9e47-cca286ac0b72","ios":"levelo://app?vid=ab5d23c4-d632-49da-9e47-cca286ac0b72"},"vehicle_type_id":"4","last_reported":1678565197,"current_range_meters":0,"station_id":"ce4bgph2rcd13ifvqc2g","pricing_plan_id":"free"},{"bike_id":"134f38a8-0eb9-4721-9f45-39aefc3d803a","system_id":"levelo_inurba_marseille","lat":43.296277,"lon":5.377108,"is_reserved":false,"is_disabled":false,"rental_uris":{"android":"levelo://app?vid=134f38a8-0eb9-4721-9f45-39aefc3d803a","ios":"levelo://app?vid=134f38a8-0eb9-4721-9f45-39aefc3d803a"},"vehicle_type_id":"4","last_reported":1678565197,"current_range_meters":24000,"station_id":"ce4bgi92rcd13ifvqb90","pricing_plan_id":"free"},{"bike_id":"91ba0778-5e69-4bd8-a603-0f22ed340da1","system_id":"levelo_inurba_marseille","lat":43.299028,"lon":5.381509,"is_reserved":false,"is_disabled":false,"rental_uris":{"android":"levelo://app?vid=91ba0778-5e69-4bd8-a603-0f22ed340da1","ios":"levelo://app?vid=91ba0778-5e69-4bd8-a603-0f22ed340da1"},"vehicle_type_id":"4","last_reported":1678565197,"current_range_meters":12800,"station_id":"ce4bgj12rcd13ifvqbc0","pricing_plan_id":"free"},{"bike_id":"c8aff6a6-6fd7-4673-9d73-c9d29a53e14d","system_id":"levelo_inurba_marseille","lat":43.309589,"lon":5.390258,"is_reserved":false,"is_disabled":false,"rental_uris":{"android":"levelo://app?vid=c8aff6a6-6fd7-4673-9d73-c9d29a53e14d","ios":"levelo://app?vid=c8aff6a6-6fd7-4673-9d73-c9d29a53e14d"},"vehicle_type_id":"4","last_reported":1678565197,"current_range_meters":20400,"station_id":"ce4bgup2rcd13ifvqco0","pricing_plan_id":"free"},{"bike_id":"40d23b5c-b5f7-48e9-9ff8-93cd3e9728df","system_id":"levelo_inurba_marseille","lat":43.299028,"lon":5.381509,"is_reserved":false,"is_disabled":false,"rental_uris":{"android":"levelo://app?vid=40d23b5c-b5f7-48e9-9ff8-93cd3e9728df","ios":"levelo://app?vid=40d23b5c-b5f7-48e9-9ff8-93cd3e9728df"},"vehicle_type_id":"4","last_reported":1678565197,"current_range_meters":10800,"station_id":"ce4bgj12rcd13ifvqbc0","pricing_plan_id":"free"},{"bike_id":"2d147397-e5a0-45aa-b790-5d6dd30c0c24","system_id":"levelo_inurba_marseille","lat":43.30955,"lon":5.39037,"is_reserved":false,"is_disabled":false,"rental_uris":{"android":"levelo://app?vid=2d147397-e5a0-45aa-b790-5d6dd30c0c24","ios":"levelo://app?vid=2d147397-e5a0-45aa-b790-5d6dd30c0c24"},"vehicle_type_id":"4","last_reported":1678565197,"current_range_meters":30000,"station_id":"ce4bgup2rcd13ifvqco0","pricing_plan_id":"free"},{"bike_id":"ccf26a9e-9eba-4e7d-998d-9759e8321418","system_id":"levelo_inurba_marseille","lat":43.309589,"lon":5.390258,"is_reserved":false,"is_disabled":false,"rental_uris":{"android":"levelo://app?vid=ccf26a9e-9eba-4e7d-998d-9759e8321418","ios":"levelo://app?vid=ccf26a9e-9eba-4e7d-998d-9759e8321418"},"vehicle_type_id":"4","last_reported":1678565197,"current_range_meters":26400,"station_id":"ce4bgup2rcd13ifvqco0","pricing_plan_id":"free"},{"bike_id":"80ad3bc1-c0f4-4ae7-abcc-62ebdf7b454a","system_id":"levelo_inurba_marseille","lat":43.317557,"lon":5.390173,"is_reserved":false,"is_disabled":false,"rental_uris":{"android":"levelo://app?vid=80ad3bc1-c0f4-4ae7-abcc-62ebdf7b454a","ios":"levelo://app?vid=80ad3bc1-c0f4-4ae7-abcc-62ebdf7b454a"},"vehicle_type_id":"4","last_reported":1678565197,"current_range_meters":31600,"station_id":"ce4bhqp2rcd13ifvqhng","pricing_plan_id":"free"},{"bike_id":"55b0205a-8e75-46f5-99f3-d582e7b5723e","system_id":"levelo_inurba_marseille","lat":43.317557,"lon":5.390173,"is_reserved":false,"is_disabled":false,"rental_uris":{"android":"levelo://app?vid=55b0205a-8e75-46f5-99f3-d582e7b5723e","ios":"levelo://app?vid=55b0205a-8e75-46f5-99f3-d582e7b5723e"},"vehicle_type_id":"4","last_reported":1678565197,"current_range_meters":15600,"station_id":"ce4bhqp2rcd13ifvqhng","pricing_plan_id":"free"},{"bike_id":"e612a666-9b67-4a04-b9c9-ccecefbb580c","system_id":"levelo_inurba_marseille","lat":43.317557,"lon":5.390173,"is_reserved":false,"is_disabled":false,"rental_uris":{"android":"levelo://app?vid=e612a666-9b67-4a04-b9c9-ccecefbb580c","ios":"levelo://app?vid=e612a666-9b67-4a04-b9c9-ccecefbb580c"},"vehicle_type_id":"4","last_reported":1678565197,"current_range_meters":31600,"station_id":"ce4bhqp2rcd13ifvqhng","pricing_plan_id":"free"},{"bike_id":"29ee8031-70ec-42cf-8949-eb5a60c96431","system_id":"levelo_inurba_marseille","lat":43.317557,"lon":5.390173,"is_reserved":false,"is_disabled":false,"rental_uris":{"android":"levelo://app?vid=29ee8031-70ec-42cf-8949-eb5a60c96431","ios":"levelo://app?vid=29ee8031-70ec-42cf-8949-eb5a60c96431"},"vehicle_type_id":"4","last_reported":1678565197,"current_range_meters":30800,"station_id":"ce4bhqp2rcd13ifvqhng","pricing_plan_id":"free"},{"bike_id":"0fbf2b6d-77d8-454f-8789-8881ddd2edd7","system_id":"levelo_inurba_marseille","lat":43.317557,"lon":5.390173,"is_reserved":false,"is_disabled":false,"rental_uris":{"android":"levelo://app?vid=0fbf2b6d-77d8-454f-8789-8881ddd2edd7","ios":"levelo://app?vid=0fbf2b6d-77d8-454f-8789-8881ddd2edd7"},"vehicle_type_id":"4","last_reported":1678565197,"current_range_meters":24400,"station_id":"ce4bhqp2rcd13ifvqhng","pricing_plan_id":"free"},{"bike_id":"776723cd-ea0f-4401-9bc6-9d6bdce7578d","system_id":"levelo_inurba_marseille","lat":43.317557,"lon":5.390173,"is_reserved":false,"is_disabled":false,"rental_uris":{"android":"levelo://app?vid=776723cd-ea0f-4401-9bc6-9d6bdce7578d","ios":"levelo://app?vid=776723cd-ea0f-4401-9bc6-9d6bdce7578d"},"vehicle_type_id":"4","last_reported":1678565197,"current_range_meters":22800,"station_id":"ce4bhqp2rcd13ifvqhng","pricing_plan_id":"free"},{"bike_id":"10181c2b-6116-47eb-ae0b-ff80d825779c","system_id":"levelo_inurba_marseille","lat":43.317557,"lon":5.390173,"is_reserved":false,"is_disabled":false,"rental_uris":{"android":"levelo://app?vid=10181c2b-6116-47eb-ae0b-ff80d825779c","ios":"levelo://app?vid=10181c2b-6116-47eb-ae0b-ff80d825779c"},"vehicle_type_id":"4","last_reported":1678565197,"current_range_meters":25200,"station_id":"ce4bhqp2rcd13ifvqhng","pricing_plan_id":"free"},{"bike_id":"7af0b745-be9d-4dd6-8d05-34a9e5e495d5","system_id":"levelo_inurba_marseille","lat":43.317557,"lon":5.390173,"is_reserved":false,"is_disabled":false,"rental_uris":{"android":"levelo://app?vid=7af0b745-be9d-4dd6-8d05-34a9e5e495d5","ios":"levelo://app?vid=7af0b745-be9d-4dd6-8d05-34a9e5e495d5"},"vehicle_type_id":"4","last_reported":1678565197,"current_range_meters":27600,"station_id":"ce4bhqp2rcd13ifvqhng","pricing_plan_id":"free"},{"bike_id":"5b2b0c32-dc57-49c9-834f-77621369af10","system_id":"levelo_inurba_marseille","lat":43.317557,"lon":5.390173,"is_reserved":false,"is_disabled":false,"rental_uris":{"android":"levelo://app?vid=5b2b0c32-dc57-49c9-834f-77621369af10","ios":"levelo://app?vid=5b2b0c32-dc57-49c9-834f-77621369af10"},"vehicle_type_id":"4","last_reported":1678565197,"current_range_meters":23200,"station_id":"ce4bhqp2rcd13ifvqhng","pricing_plan_id":"free"},{"bike_id":"7eb11d3c-cae2-432d-b0d6-8a886fa57a25","system_id":"levelo_inurba_marseille","lat":43.298037,"lon":5.381066,"is_reserved":false,"is_disabled":false,"rental_uris":{"android":"levelo://app?vid=7eb11d3c-cae2-432d-b0d6-8a886fa57a25","ios":"levelo://app?vid=7eb11d3c-cae2-432d-b0d6-8a886fa57a25"},"vehicle_type_id":"4","last_reported":1678565197,"current_range_meters":24800,"station_id":"ce4bgip2rcd13ifvqbb0","pricing_plan_id":"free"},{"bike_id":"a51947d1-5c1a-47af-9456-ab6a91ad908e","system_id":"levelo_inurba_marseille","lat":43.29795,"lon":5.381,"is_reserved":false,"is_disabled":false,"rental_uris":{"android":"levelo://app?vid=a51947d1-5c1a-47af-9456-ab6a91ad908e","ios":"levelo://app?vid=a51947d1-5c1a-47af-9456-ab6a91ad908e"},"vehicle_type_id":"4","last_reported":1678565197,"current_range_meters":0,"station_id":"ce4bgip2rcd13ifvqbb0","pricing_plan_id":"free"},{"bike_id":"4e8e4a19-1d59-48d8-9a03-28629381fc47","system_id":"levelo_inurba_marseille","lat":43.29572,"lon":5.37507,"is_reserved":false,"is_disabled":false,"rental_uris":{"android":"levelo://app?vid=4e8e4a19-1d59-48d8-9a03-28629381fc47","ios":"levelo://app?vid=4e8e4a19-1d59-48d8-9a03-28629381fc47"},"vehicle_type_id":"4","last_reported":1678565197,"current_range_meters":28800,"station_id":"ce4bgh92rcd13ifvqb50","pricing_plan_id":"free"},{"bike_id":"5bed9292-b4d6-455a-94cd-dd470c083abd","system_id":"levelo_inurba_marseille","lat":43.304278,"lon":5.388868,"is_reserved":false,"is_disabled":false,"rental_uris":{"android":"levelo://app?vid=5bed9292-b4d6-455a-94cd-dd470c083abd","ios":"levelo://app?vid=5bed9292-b4d6-455a-94cd-dd470c083abd"},"vehicle_type_id":"4","last_reported":1678565197,"current_range_meters":26000,"station_id":"ce4bgk12rcd13ifvqbi0","pricing_plan_id":"free"},{"bike_id":"6cec271b-592c-4de0-808e-d41a0db8679e","system_id":"levelo_inurba_marseille","lat":43.304278,"lon":5.388868,"is_reserved":false,"is_disabled":false,"rental_uris":{"android":"levelo://app?vid=6cec271b-592c-4de0-808e-d41a0db8679e","ios":"levelo://app?vid=6cec271b-592c-4de0-808e-d41a0db8679e"},"vehicle_type_id":"4","last_reported":1678565197,"current_range_meters":22800,"station_id":"ce4bgk12rcd13ifvqbi0","pricing_plan_id":"free"},{"bike_id":"388fe09b-c188-4467-a362-81405b45a515","system_id":"levelo_inurba_marseille","lat":43.29784,"lon":5.38125,"is_reserved":false,"is_disabled":false,"rental_uris":{"android":"levelo://app?vid=388fe09b-c188-4467-a362-81405b45a515","ios":"levelo://app?vid=388fe09b-c188-4467-a362-81405b45a515"},"vehicle_type_id":"4","last_reported":1678565197,"current_range_meters":26000,"station_id":"ce4bgip2rcd13ifvqbb0","pricing_plan_id":"free"},{"bike_id":"f344c7ee-27f9-4c6a-a81f-9aff49d4d264","system_id":"levelo_inurba_marseille","lat":43.296263,"lon":5.377094,"is_reserved":false,"is_disabled":false,"rental_uris":{"android":"levelo://app?vid=f344c7ee-27f9-4c6a-a81f-9aff49d4d264","ios":"levelo://app?vid=f344c7ee-27f9-4c6a-a81f-9aff49d4d264"},"vehicle_type_id":"4","last_reported":1678565197,"current_range_meters":14400,"station_id":"ce4bgi92rcd13ifvqb90","pricing_plan_id":"free"},{"bike_id":"472512fa-79c9-4b9b-932e-7c4efb65aa2d","system_id":"levelo_inurba_marseille","lat":43.29979,"lon":5.38491,"is_reserved":false,"is_disabled":false,"rental_uris":{"android":"levelo://app?vid=472512fa-79c9-4b9b-932e-7c4efb65aa2d","ios":"levelo://app?vid=472512fa-79c9-4b9b-932e-7c4efb65aa2d"},"vehicle_type_id":"4","last_reported":1678565197,"current_range_meters":2400,"station_id":"","pricing_plan_id":"free"},{"bike_id":"b511f3d7-bcb8-46a5-ae5f-cf0dc06cf307","system_id":"levelo_inurba_marseille","lat":43.299777,"lon":5.384931,"is_reserved":false,"is_disabled":false,"rental_uris":{"android":"levelo://app?vid=b511f3d7-bcb8-46a5-ae5f-cf0dc06cf307","ios":"levelo://app?vid=b511f3d7-bcb8-46a5-ae5f-cf0dc06cf307"},"vehicle_type_id":"4","last_reported":1678565197,"current_range_meters":0,"station_id":"ce4bgj92rcd13ifvqbd0","pricing_plan_id":"free"},{"bike_id":"119fc3bf-4523-45d0-b759-7d1bbf6fdbf3","system_id":"levelo_inurba_marseille","lat":43.32367,"lon":5.388836,"is_reserved":false,"is_disabled":false,"rental_uris":{"android":"levelo://app?vid=119fc3bf-4523-45d0-b759-7d1bbf6fdbf3","ios":"levelo://app?vid=119fc3bf-4523-45d0-b759-7d1bbf6fdbf3"},"vehicle_type_id":"4","last_reported":1678565197,"current_range_meters":18800,"station_id":"ce4bhqp2rcd13ifvqhog","pricing_plan_id":"free"},{"bike_id":"9f7b7f52-bdb5-446c-b3e2-21b0e5369ba1","system_id":"levelo_inurba_marseille","lat":43.32367,"lon":5.388836,"is_reserved":false,"is_disabled":false,"rental_uris":{"android":"levelo://app?vid=9f7b7f52-bdb5-446c-b3e2-21b0e5369ba1","ios":"levelo://app?vid=9f7b7f52-bdb5-446c-b3e2-21b0e5369ba1"},"vehicle_type_id":"4","last_reported":1678565197,"current_range_meters":31600,"station_id":"ce4bhqp2rcd13ifvqhog","pricing_plan_id":"free"},{"bike_id":"53b760a8-a9fd-42d5-ab9b-e8ded5d1a33b","system_id":"levelo_inurba_marseille","lat":43.32367,"lon":5.388836,"is_reserved":false,"is_disabled":false,"rental_uris":{"android":"levelo://app?vid=53b760a8-a9fd-42d5-ab9b-e8ded5d1a33b","ios":"levelo://app?vid=53b760a8-a9fd-42d5-ab9b-e8ded5d1a33b"},"vehicle_type_id":"4","last_reported":1678565197,"current_range_meters":28000,"station_id":"ce4bhqp2rcd13ifvqhog","pricing_plan_id":"free"},{"bike_id":"b1e2453e-b5bb-4b6e-8924-e348d50edcfe","system_id":"levelo_inurba_marseille","lat":43.32367,"lon":5.388836,"is_reserved":false,"is_disabled":false,"rental_uris":{"android":"levelo://app?vid=b1e2453e-b5bb-4b6e-8924-e348d50edcfe","ios":"levelo://app?vid=b1e2453e-b5bb-4b6e-8924-e348d50edcfe"},"vehicle_type_id":"4","last_reported":1678565197,"current_range_meters":10000,"station_id":"ce4bhqp2rcd13ifvqhog","pricing_plan_id":"free"},{"bike_id":"007cd52a-fdd4-45d1-92eb-f50edc7c1def","system_id":"levelo_inurba_marseille","lat":43.32367,"lon":5.388836,"is_reserved":false,"is_disabled":false,"rental_uris":{"android":"levelo://app?vid=007cd52a-fdd4-45d1-92eb-f50edc7c1def","ios":"levelo://app?vid=007cd52a-fdd4-45d1-92eb-f50edc7c1def"},"vehicle_type_id":"4","last_reported":1678565197,"current_range_meters":16000,"station_id":"ce4bhqp2rcd13ifvqhog","pricing_plan_id":"free"},{"bike_id":"84fe70a5-6733-4555-bb7b-f32361443dbf","system_id":"levelo_inurba_marseille","lat":43.29302,"lon":5.37461,"is_reserved":false,"is_disabled":false,"rental_uris":{"android":"levelo://app?vid=84fe70a5-6733-4555-bb7b-f32361443dbf","ios":"levelo://app?vid=84fe70a5-6733-4555-bb7b-f32361443dbf"},"vehicle_type_id":"4","last_reported":1678565197,"current_range_meters":19200,"station_id":"ce4bgi12rcd13ifvqb70","pricing_plan_id":"free"},{"bike_id":"d8c4ac83-043b-4132-b1ec-7369576b22e0","system_id":"levelo_inurba_marseille","lat":43.293009,"lon":5.374584,"is_reserved":false,"is_disabled":false,"rental_uris":{"android":"levelo://app?vid=d8c4ac83-043b-4132-b1ec-7369576b22e0","ios":"levelo://app?vid=d8c4ac83-043b-4132-b1ec-7369576b22e0"},"vehicle_type_id":"4","last_reported":1678565197,"current_range_meters":0,"station_id":"ce4bgi12rcd13ifvqb70","pricing_plan_id":"free"},{"bike_id":"c10ca034-91ff-401b-83ec-57a574ea817f","system_id":"levelo_inurba_marseille","lat":43.300852,"lon":5.390859,"is_reserved":false,"is_disabled":false,"rental_uris":{"android":"levelo://app?vid=c10ca034-91ff-401b-83ec-57a574ea817f","ios":"levelo://app?vid=c10ca034-91ff-401b-83ec-57a574ea817f"},"vehicle_type_id":"4","last_reported":1678565197,"current_range_meters":18800,"station_id":"ce4bh192rcd13ifvqdb0","pricing_plan_id":"free"},{"bike_id":"661d4e4b-d92b-482f-bb4a-f59685a04443","system_id":"levelo_inurba_marseille","lat":43.30085,"lon":5.390856,"is_reserved":false,"is_disabled":false,"rental_uris":{"android":"levelo://app?vid=661d4e4b-d92b-482f-bb4a-f59685a04443","ios":"levelo://app?vid=661d4e4b-d92b-482f-bb4a-f59685a04443"},"vehicle_type_id":"4","last_reported":1678565197,"current_range_meters":1200,"station_id":"ce4bh192rcd13ifvqdb0","pricing_plan_id":"free"},{"bike_id":"71a06d9a-7c6d-45af-bf4b-bccc60fe05e7","system_id":"levelo_inurba_marseille","lat":43.291717,"lon":5.371562,"is_reserved":false,"is_disabled":false,"rental_uris":{"android":"levelo://app?vid=71a06d9a-7c6d-45af-bf4b-bccc60fe05e7","ios":"levelo://app?vid=71a06d9a-7c6d-45af-bf4b-bccc60fe05e7"},"vehicle_type_id":"4","last_reported":1678565197,"current_range_meters":12400,"station_id":"ce4bha92rcd13ifvqeh0","pricing_plan_id":"free"},{"bike_id":"c1b7a151-dd87-4a5c-bc0e-dea80827bb70","system_id":"levelo_inurba_marseille","lat":43.313291,"lon":5.396838,"is_reserved":false,"is_disabled":false,"rental_uris":{"android":"levelo://app?vid=c1b7a151-dd87-4a5c-bc0e-dea80827bb70","ios":"levelo://app?vid=c1b7a151-dd87-4a5c-bc0e-dea80827bb70"},"vehicle_type_id":"4","last_reported":1678565197,"current_range_meters":13600,"station_id":"ce4bgvp2rcd13ifvqcu0","pricing_plan_id":"free"},{"bike_id":"b8362f4a-a03b-4747-9bce-6f15ca8f2d49","system_id":"levelo_inurba_marseille","lat":43.313291,"lon":5.396838,"is_reserved":false,"is_disabled":false,"rental_uris":{"android":"levelo://app?vid=b8362f4a-a03b-4747-9bce-6f15ca8f2d49","ios":"levelo://app?vid=b8362f4a-a03b-4747-9bce-6f15ca8f2d49"},"vehicle_type_id":"4","last_reported":1678565197,"current_range_meters":16000,"station_id":"ce4bgvp2rcd13ifvqcu0","pricing_plan_id":"free"},{"bike_id":"2437b172-eec0-4784-9001-787a2825f408","system_id":"levelo_inurba_marseille","lat":43.313291,"lon":5.396838,"is_reserved":false,"is_disabled":false,"rental_uris":{"android":"levelo://app?vid=2437b172-eec0-4784-9001-787a2825f408","ios":"levelo://app?vid=2437b172-eec0-4784-9001-787a2825f408"},"vehicle_type_id":"4","last_reported":1678565197,"current_range_meters":26000,"station_id":"ce4bgvp2rcd13ifvqcu0","pricing_plan_id":"free"},{"bike_id":"93e102b9-14be-4219-ac27-d911d4fe75e9","system_id":"levelo_inurba_marseille","lat":43.313291,"lon":5.396838,"is_reserved":false,"is_disabled":false,"rental_uris":{"android":"levelo://app?vid=93e102b9-14be-4219-ac27-d911d4fe75e9","ios":"levelo://app?vid=93e102b9-14be-4219-ac27-d911d4fe75e9"},"vehicle_type_id":"4","last_reported":1678565197,"current_range_meters":28800,"station_id":"ce4bgvp2rcd13ifvqcu0","pricing_plan_id":"free"},{"bike_id":"7157ab0c-7404-453c-a143-9e0be06c10df","system_id":"levelo_inurba_marseille","lat":43.29529,"lon":5.385581,"is_reserved":false,"is_disabled":false,"rental_uris":{"android":"levelo://app?vid=7157ab0c-7404-453c-a143-9e0be06c10df","ios":"levelo://app?vid=7157ab0c-7404-453c-a143-9e0be06c10df"},"vehicle_type_id":"4","last_reported":1678565197,"current_range_meters":24000,"station_id":"ce4bgih2rcd13ifvqba0","pricing_plan_id":"free"},{"bike_id":"9ce88db5-c692-4367-9bc6-e1ed2ed2895c","system_id":"levelo_inurba_marseille","lat":43.302008,"lon":5.394694,"is_reserved":false,"is_disabled":false,"rental_uris":{"android":"levelo://app?vid=9ce88db5-c692-4367-9bc6-e1ed2ed2895c","ios":"levelo://app?vid=9ce88db5-c692-4367-9bc6-e1ed2ed2895c"},"vehicle_type_id":"4","last_reported":1678565197,"current_range_meters":1600,"station_id":"ce4bh0p2rcd13ifvqd70","pricing_plan_id":"free"},{"bike_id":"2f77ef11-2eea-4688-9fdc-e8a7da06faf3","system_id":"levelo_inurba_marseille","lat":43.302008,"lon":5.394694,"is_reserved":false,"is_disabled":false,"rental_uris":{"android":"levelo://app?vid=2f77ef11-2eea-4688-9fdc-e8a7da06faf3","ios":"levelo://app?vid=2f77ef11-2eea-4688-9fdc-e8a7da06faf3"},"vehicle_type_id":"4","last_reported":1678565197,"current_range_meters":26800,"station_id":"ce4bh0p2rcd13ifvqd70","pricing_plan_id":"free"},{"bike_id":"7fa8f4da-3ba5-48e3-8e7f-03bbdc83b19c","system_id":"levelo_inurba_marseille","lat":43.290447,"lon":5.359187,"is_reserved":false,"is_disabled":false,"rental_uris":{"android":"levelo://app?vid=7fa8f4da-3ba5-48e3-8e7f-03bbdc83b19c","ios":"levelo://app?vid=7fa8f4da-3ba5-48e3-8e7f-03bbdc83b19c"},"vehicle_type_id":"4","last_reported":1678565197,"current_range_meters":11200,"station_id":"","pricing_plan_id":"free"},{"bike_id":"95ec77b8-523f-4ec8-97c9-28ccc06d5fd2","system_id":"levelo_inurba_marseille","lat":43.289184,"lon":5.366408,"is_reserved":false,"is_disabled":false,"rental_uris":{"android":"levelo://app?vid=95ec77b8-523f-4ec8-97c9-28ccc06d5fd2","ios":"levelo://app?vid=95ec77b8-523f-4ec8-97c9-28ccc06d5fd2"},"vehicle_type_id":"4","last_reported":1678565197,"current_range_meters":3600,"station_id":"ce4bhap2rcd13ifvqek0","pricing_plan_id":"free"},{"bike_id":"d92bb567-d4e4-4df2-898c-cf9c74069c99","system_id":"levelo_inurba_marseille","lat":43.29419,"lon":5.38622,"is_reserved":false,"is_disabled":false,"rental_uris":{"android":"levelo://app?vid=d92bb567-d4e4-4df2-898c-cf9c74069c99","ios":"levelo://app?vid=d92bb567-d4e4-4df2-898c-cf9c74069c99"},"vehicle_type_id":"4","last_reported":1678565197,"current_range_meters":12800,"station_id":"","pricing_plan_id":"free"},{"bike_id":"63a61f91-d06b-4fdc-b01d-fe3e2eebbb6a","system_id":"levelo_inurba_marseille","lat":43.2942,"lon":5.38637,"is_reserved":false,"is_disabled":false,"rental_uris":{"android":"levelo://app?vid=63a61f91-d06b-4fdc-b01d-fe3e2eebbb6a","ios":"levelo://app?vid=63a61f91-d06b-4fdc-b01d-fe3e2eebbb6a"},"vehicle_type_id":"4","last_reported":1678565197,"current_range_meters":24800,"station_id":"","pricing_plan_id":"free"},{"bike_id":"be7b1177-13ab-4ede-8b6e-572e715707ea","system_id":"levelo_inurba_marseille","lat":43.289184,"lon":5.366408,"is_reserved":false,"is_disabled":false,"rental_uris":{"android":"levelo://app?vid=be7b1177-13ab-4ede-8b6e-572e715707ea","ios":"levelo://app?vid=be7b1177-13ab-4ede-8b6e-572e715707ea"},"vehicle_type_id":"4","last_reported":1678565197,"current_range_meters":23600,"station_id":"ce4bhap2rcd13ifvqek0","pricing_plan_id":"free"},{"bike_id":"4d8f16dc-570f-4e2b-8f1e-9e6f458ba4ab","system_id":"levelo_inurba_marseille","lat":43.289293,"lon":5.366393,"is_reserved":false,"is_disabled":false,"rental_uris":{"android":"levelo://app?vid=4d8f16dc-570f-4e2b-8f1e-9e6f458ba4ab","ios":"levelo://app?vid=4d8f16dc-570f-4e2b-8f1e-9e6f458ba4ab"},"vehicle_type_id":"4","last_reported":1678565197,"current_range_meters":19600,"station_id":"","pricing_plan_id":"free"},{"bike_id":"86d0e743-0f5f-483c-97f7-d65cbafe87de","system_id":"levelo_inurba_marseille","lat":43.289468,"lon":5.363719,"is_reserved":false,"is_disabled":false,"rental_uris":{"android":"levelo://app?vid=86d0e743-0f5f-483c-97f7-d65cbafe87de","ios":"levelo://app?vid=86d0e743-0f5f-483c-97f7-d65cbafe87de"},"vehicle_type_id":"4","last_reported":1678565197,"current_range_meters":1200,"station_id":"ce4bhc92rcd13ifvqetg","pricing_plan_id":"free"},{"bike_id":"8c7583cf-74a7-4f2a-a4f3-31fa89155001","system_id":"levelo_inurba_marseille","lat":43.289468,"lon":5.363719,"is_reserved":false,"is_disabled":false,"rental_uris":{"android":"levelo://app?vid=8c7583cf-74a7-4f2a-a4f3-31fa89155001","ios":"levelo://app?vid=8c7583cf-74a7-4f2a-a4f3-31fa89155001"},"vehicle_type_id":"4","last_reported":1678565197,"current_range_meters":5600,"station_id":"ce4bhc92rcd13ifvqetg","pricing_plan_id":"free"},{"bike_id":"5f2ef3bc-f866-4621-a3ac-e9a0891eb7bb","system_id":"levelo_inurba_marseille","lat":43.2927,"lon":5.38441,"is_reserved":false,"is_disabled":false,"rental_uris":{"android":"levelo://app?vid=5f2ef3bc-f866-4621-a3ac-e9a0891eb7bb","ios":"levelo://app?vid=5f2ef3bc-f866-4621-a3ac-e9a0891eb7bb"},"vehicle_type_id":"4","last_reported":1678565197,"current_range_meters":7600,"station_id":"ce4bh692rcd13ifvqea0","pricing_plan_id":"free"},{"bike_id":"36302f74-4cda-40cf-a223-d46e411aa746","system_id":"levelo_inurba_marseille","lat":43.29271,"lon":5.38448,"is_reserved":false,"is_disabled":false,"rental_uris":{"android":"levelo://app?vid=36302f74-4cda-40cf-a223-d46e411aa746","ios":"levelo://app?vid=36302f74-4cda-40cf-a223-d46e411aa746"},"vehicle_type_id":"4","last_reported":1678565197,"current_range_meters":11200,"station_id":"ce4bh692rcd13ifvqea0","pricing_plan_id":"free"},{"bike_id":"032bdb2c-cf41-43b7-b509-3a7ee38ae255","system_id":"levelo_inurba_marseille","lat":43.292642,"lon":5.384254,"is_reserved":false,"is_disabled":false,"rental_uris":{"android":"levelo://app?vid=032bdb2c-cf41-43b7-b509-3a7ee38ae255","ios":"levelo://app?vid=032bdb2c-cf41-43b7-b509-3a7ee38ae255"},"vehicle_type_id":"4","last_reported":1678565197,"current_range_meters":27600,"station_id":"ce4bh692rcd13ifvqea0","pricing_plan_id":"free"},{"bike_id":"54cea9a1-4580-4b33-bd4a-bf17db2559e0","system_id":"levelo_inurba_marseille","lat":43.292642,"lon":5.384254,"is_reserved":false,"is_disabled":false,"rental_uris":{"android":"levelo://app?vid=54cea9a1-4580-4b33-bd4a-bf17db2559e0","ios":"levelo://app?vid=54cea9a1-4580-4b33-bd4a-bf17db2559e0"},"vehicle_type_id":"4","last_reported":1678565197,"current_range_meters":6000,"station_id":"ce4bh692rcd13ifvqea0","pricing_plan_id":"free"},{"bike_id":"cf3f4313-679a-4d84-95de-5e8851ca71a5","system_id":"levelo_inurba_marseille","lat":43.292642,"lon":5.384254,"is_reserved":false,"is_disabled":false,"rental_uris":{"android":"levelo://app?vid=cf3f4313-679a-4d84-95de-5e8851ca71a5","ios":"levelo://app?vid=cf3f4313-679a-4d84-95de-5e8851ca71a5"},"vehicle_type_id":"4","last_reported":1678565197,"current_range_meters":0,"station_id":"ce4bh692rcd13ifvqea0","pricing_plan_id":"free"},{"bike_id":"221b9b4c-8b05-40f9-aa42-98dbb6142bb0","system_id":"levelo_inurba_marseille","lat":43.29264,"lon":5.3844,"is_reserved":false,"is_disabled":false,"rental_uris":{"android":"levelo://app?vid=221b9b4c-8b05-40f9-aa42-98dbb6142bb0","ios":"levelo://app?vid=221b9b4c-8b05-40f9-aa42-98dbb6142bb0"},"vehicle_type_id":"4","last_reported":1678565197,"current_range_meters":22400,"station_id":"ce4bh692rcd13ifvqea0","pricing_plan_id":"free"},{"bike_id":"5f4e8386-225b-4373-9d91-a489458e069a","system_id":"levelo_inurba_marseille","lat":43.29263,"lon":5.38441,"is_reserved":false,"is_disabled":false,"rental_uris":{"android":"levelo://app?vid=5f4e8386-225b-4373-9d91-a489458e069a","ios":"levelo://app?vid=5f4e8386-225b-4373-9d91-a489458e069a"},"vehicle_type_id":"4","last_reported":1678565197,"current_range_meters":8000,"station_id":"ce4bh692rcd13ifvqea0","pricing_plan_id":"free"},{"bike_id":"08bba4bb-9bf9-4daf-9ca9-7364e4e38632","system_id":"levelo_inurba_marseille","lat":43.292642,"lon":5.384254,"is_reserved":false,"is_disabled":false,"rental_uris":{"android":"levelo://app?vid=08bba4bb-9bf9-4daf-9ca9-7364e4e38632","ios":"levelo://app?vid=08bba4bb-9bf9-4daf-9ca9-7364e4e38632"},"vehicle_type_id":"4","last_reported":1678565197,"current_range_meters":26000,"station_id":"ce4bh692rcd13ifvqea0","pricing_plan_id":"free"},{"bike_id":"ccaf387c-25ea-43df-80f2-5616d5cc7e03","system_id":"levelo_inurba_marseille","lat":43.29261,"lon":5.38444,"is_reserved":false,"is_disabled":false,"rental_uris":{"android":"levelo://app?vid=ccaf387c-25ea-43df-80f2-5616d5cc7e03","ios":"levelo://app?vid=ccaf387c-25ea-43df-80f2-5616d5cc7e03"},"vehicle_type_id":"4","last_reported":1678565197,"current_range_meters":20000,"station_id":"","pricing_plan_id":"free"},{"bike_id":"f39fa085-3947-4dc2-8fff-51c68cc6bf7b","system_id":"levelo_inurba_marseille","lat":43.29256,"lon":5.38439,"is_reserved":false,"is_disabled":false,"rental_uris":{"android":"levelo://app?vid=f39fa085-3947-4dc2-8fff-51c68cc6bf7b","ios":"levelo://app?vid=f39fa085-3947-4dc2-8fff-51c68cc6bf7b"},"vehicle_type_id":"4","last_reported":1678565197,"current_range_meters":26800,"station_id":"","pricing_plan_id":"free"},{"bike_id":"2182e73a-4abe-45c2-9eb4-6c9d33e2d991","system_id":"levelo_inurba_marseille","lat":43.29257,"lon":5.38442,"is_reserved":false,"is_disabled":false,"rental_uris":{"android":"levelo://app?vid=2182e73a-4abe-45c2-9eb4-6c9d33e2d991","ios":"levelo://app?vid=2182e73a-4abe-45c2-9eb4-6c9d33e2d991"},"vehicle_type_id":"4","last_reported":1678565197,"current_range_meters":13600,"station_id":"","pricing_plan_id":"free"},{"bike_id":"a05e102c-d4e9-473d-8592-9f5633c26a48","system_id":"levelo_inurba_marseille","lat":43.292589,"lon":5.384479,"is_reserved":false,"is_disabled":false,"rental_uris":{"android":"levelo://app?vid=a05e102c-d4e9-473d-8592-9f5633c26a48","ios":"levelo://app?vid=a05e102c-d4e9-473d-8592-9f5633c26a48"},"vehicle_type_id":"4","last_reported":1678565197,"current_range_meters":10400,"station_id":"ce4bh692rcd13ifvqea0","pricing_plan_id":"free"},{"bike_id":"a314dd79-0e74-4e83-81cc-daf455b1863e","system_id":"levelo_inurba_marseille","lat":43.292644,"lon":5.384257,"is_reserved":false,"is_disabled":false,"rental_uris":{"android":"levelo://app?vid=a314dd79-0e74-4e83-81cc-daf455b1863e","ios":"levelo://app?vid=a314dd79-0e74-4e83-81cc-daf455b1863e"},"vehicle_type_id":"4","last_reported":1678565197,"current_range_meters":15200,"station_id":"ce4bh692rcd13ifvqea0","pricing_plan_id":"free"},{"bike_id":"b44a22ed-9ea3-4290-95cd-cd49f9ebc075","system_id":"levelo_inurba_marseille","lat":43.292642,"lon":5.384254,"is_reserved":false,"is_disabled":false,"rental_uris":{"android":"levelo://app?vid=b44a22ed-9ea3-4290-95cd-cd49f9ebc075","ios":"levelo://app?vid=b44a22ed-9ea3-4290-95cd-cd49f9ebc075"},"vehicle_type_id":"4","last_reported":1678565197,"current_range_meters":13600,"station_id":"ce4bh692rcd13ifvqea0","pricing_plan_id":"free"},{"bike_id":"58cece7e-f777-4a7e-bd7b-734e9dfa5c00","system_id":"levelo_inurba_marseille","lat":43.292642,"lon":5.384254,"is_reserved":false,"is_disabled":false,"rental_uris":{"android":"levelo://app?vid=58cece7e-f777-4a7e-bd7b-734e9dfa5c00","ios":"levelo://app?vid=58cece7e-f777-4a7e-bd7b-734e9dfa5c00"},"vehicle_type_id":"4","last_reported":1678565197,"current_range_meters":10800,"station_id":"ce4bh692rcd13ifvqea0","pricing_plan_id":"free"},{"bike_id":"b766b162-658b-40cc-82ff-11ebf0ea67d9","system_id":"levelo_inurba_marseille","lat":43.292642,"lon":5.384254,"is_reserved":false,"is_disabled":false,"rental_uris":{"android":"levelo://app?vid=b766b162-658b-40cc-82ff-11ebf0ea67d9","ios":"levelo://app?vid=b766b162-658b-40cc-82ff-11ebf0ea67d9"},"vehicle_type_id":"4","last_reported":1678565197,"current_range_meters":6000,"station_id":"ce4bh692rcd13ifvqea0","pricing_plan_id":"free"},{"bike_id":"d608f06f-8853-43fb-8970-3f0c3011044f","system_id":"levelo_inurba_marseille","lat":43.29253,"lon":5.38448,"is_reserved":false,"is_disabled":false,"rental_uris":{"android":"levelo://app?vid=d608f06f-8853-43fb-8970-3f0c3011044f","ios":"levelo://app?vid=d608f06f-8853-43fb-8970-3f0c3011044f"},"vehicle_type_id":"4","last_reported":1678565197,"current_range_meters":4000,"station_id":"","pricing_plan_id":"free"},{"bike_id":"8ab0eae9-8e73-468c-a9e3-2a3c2fdb6430","system_id":"levelo_inurba_marseille","lat":43.330442,"lon":5.389148,"is_reserved":false,"is_disabled":false,"rental_uris":{"android":"levelo://app?vid=8ab0eae9-8e73-468c-a9e3-2a3c2fdb6430","ios":"levelo://app?vid=8ab0eae9-8e73-468c-a9e3-2a3c2fdb6430"},"vehicle_type_id":"4","last_reported":1678565197,"current_range_meters":25600,"station_id":"ce4bhr92rcd13ifvqhrg","pricing_plan_id":"free"},{"bike_id":"c347c43f-1ab3-4f68-9852-b426d3114623","system_id":"levelo_inurba_marseille","lat":43.330442,"lon":5.389148,"is_reserved":false,"is_disabled":false,"rental_uris":{"android":"levelo://app?vid=c347c43f-1ab3-4f68-9852-b426d3114623","ios":"levelo://app?vid=c347c43f-1ab3-4f68-9852-b426d3114623"},"vehicle_type_id":"4","last_reported":1678565197,"current_range_meters":10800,"station_id":"ce4bhr92rcd13ifvqhrg","pricing_plan_id":"free"},{"bike_id":"71d1a9b1-d3d6-422e-9b9c-255e5e2e58bb","system_id":"levelo_inurba_marseille","lat":43.290083,"lon":5.356136,"is_reserved":false,"is_disabled":false,"rental_uris":{"android":"levelo://app?vid=71d1a9b1-d3d6-422e-9b9c-255e5e2e58bb","ios":"levelo://app?vid=71d1a9b1-d3d6-422e-9b9c-255e5e2e58bb"},"vehicle_type_id":"4","last_reported":1678565197,"current_range_meters":25600,"station_id":"","pricing_plan_id":"free"},{"bike_id":"55c6f790-be9e-45fb-bced-09fbf91b9d61","system_id":"levelo_inurba_marseille","lat":43.330442,"lon":5.389148,"is_reserved":false,"is_disabled":false,"rental_uris":{"android":"levelo://app?vid=55c6f790-be9e-45fb-bced-09fbf91b9d61","ios":"levelo://app?vid=55c6f790-be9e-45fb-bced-09fbf91b9d61"},"vehicle_type_id":"4","last_reported":1678565197,"current_range_meters":17200,"station_id":"ce4bhr92rcd13ifvqhrg","pricing_plan_id":"free"},{"bike_id":"4865b40a-4111-4f1a-8482-fb68e875133f","system_id":"levelo_inurba_marseille","lat":43.330443,"lon":5.389178,"is_reserved":false,"is_disabled":false,"rental_uris":{"android":"levelo://app?vid=4865b40a-4111-4f1a-8482-fb68e875133f","ios":"levelo://app?vid=4865b40a-4111-4f1a-8482-fb68e875133f"},"vehicle_type_id":"4","last_reported":1678565197,"current_range_meters":21600,"station_id":"","pricing_plan_id":"free"},{"bike_id":"bc0a4780-b21d-4f90-951b-4c0d7a15fd2f","system_id":"levelo_inurba_marseille","lat":43.3015,"lon":5.39605,"is_reserved":false,"is_disabled":false,"rental_uris":{"android":"levelo://app?vid=bc0a4780-b21d-4f90-951b-4c0d7a15fd2f","ios":"levelo://app?vid=bc0a4780-b21d-4f90-951b-4c0d7a15fd2f"},"vehicle_type_id":"4","last_reported":1678565197,"current_range_meters":25600,"station_id":"","pricing_plan_id":"free"},{"bike_id":"6119f6ce-6d3d-4b42-a8e5-7d6668c62333","system_id":"levelo_inurba_marseille","lat":43.330442,"lon":5.389148,"is_reserved":false,"is_disabled":false,"rental_uris":{"android":"levelo://app?vid=6119f6ce-6d3d-4b42-a8e5-7d6668c62333","ios":"levelo://app?vid=6119f6ce-6d3d-4b42-a8e5-7d6668c62333"},"vehicle_type_id":"4","last_reported":1678565197,"current_range_meters":13600,"station_id":"ce4bhr92rcd13ifvqhrg","pricing_plan_id":"free"},{"bike_id":"b1c7c7a6-595d-485c-a5f9-0c8dda219c97","system_id":"levelo_inurba_marseille","lat":43.330442,"lon":5.389148,"is_reserved":false,"is_disabled":false,"rental_uris":{"android":"levelo://app?vid=b1c7c7a6-595d-485c-a5f9-0c8dda219c97","ios":"levelo://app?vid=b1c7c7a6-595d-485c-a5f9-0c8dda219c97"},"vehicle_type_id":"4","last_reported":1678565197,"current_range_meters":31600,"station_id":"ce4bhr92rcd13ifvqhrg","pricing_plan_id":"free"},{"bike_id":"f1d6d8d7-75d5-470c-afd9-e1067321309f","system_id":"levelo_inurba_marseille","lat":43.290104,"lon":5.356111,"is_reserved":false,"is_disabled":false,"rental_uris":{"android":"levelo://app?vid=f1d6d8d7-75d5-470c-afd9-e1067321309f","ios":"levelo://app?vid=f1d6d8d7-75d5-470c-afd9-e1067321309f"},"vehicle_type_id":"4","last_reported":1678565197,"current_range_meters":30800,"station_id":"ce4bhb92rcd13ifvqen0","pricing_plan_id":"free"},{"bike_id":"2ea27cb0-9931-4d03-a3ee-31603e6817f3","system_id":"levelo_inurba_marseille","lat":43.29005,"lon":5.35616,"is_reserved":false,"is_disabled":false,"rental_uris":{"android":"levelo://app?vid=2ea27cb0-9931-4d03-a3ee-31603e6817f3","ios":"levelo://app?vid=2ea27cb0-9931-4d03-a3ee-31603e6817f3"},"vehicle_type_id":"4","last_reported":1678565197,"current_range_meters":25200,"station_id":"","pricing_plan_id":"free"},{"bike_id":"18d168bd-3310-483c-84fb-85de0f8cb09e","system_id":"levelo_inurba_marseille","lat":43.290035,"lon":5.3562,"is_reserved":false,"is_disabled":false,"rental_uris":{"android":"levelo://app?vid=18d168bd-3310-483c-84fb-85de0f8cb09e","ios":"levelo://app?vid=18d168bd-3310-483c-84fb-85de0f8cb09e"},"vehicle_type_id":"4","last_reported":1678565197,"current_range_meters":30800,"station_id":"ce4bhb92rcd13ifvqen0","pricing_plan_id":"free"},{"bike_id":"e55bb4d8-5c5e-4107-8e08-0f72e1003048","system_id":"levelo_inurba_marseille","lat":43.290104,"lon":5.356111,"is_reserved":false,"is_disabled":false,"rental_uris":{"android":"levelo://app?vid=e55bb4d8-5c5e-4107-8e08-0f72e1003048","ios":"levelo://app?vid=e55bb4d8-5c5e-4107-8e08-0f72e1003048"},"vehicle_type_id":"4","last_reported":1678565197,"current_range_meters":28400,"station_id":"ce4bhb92rcd13ifvqen0","pricing_plan_id":"free"},{"bike_id":"da0f99e3-cd41-45ff-bdab-3aa5cab6d869","system_id":"levelo_inurba_marseille","lat":43.29004,"lon":5.35615,"is_reserved":false,"is_disabled":false,"rental_uris":{"android":"levelo://app?vid=da0f99e3-cd41-45ff-bdab-3aa5cab6d869","ios":"levelo://app?vid=da0f99e3-cd41-45ff-bdab-3aa5cab6d869"},"vehicle_type_id":"4","last_reported":1678565197,"current_range_meters":4400,"station_id":"ce4bhb92rcd13ifvqen0","pricing_plan_id":"free"},{"bike_id":"e8f37101-8454-4f72-8ee6-9c33459b12bf","system_id":"levelo_inurba_marseille","lat":43.290104,"lon":5.356111,"is_reserved":false,"is_disabled":false,"rental_uris":{"android":"levelo://app?vid=e8f37101-8454-4f72-8ee6-9c33459b12bf","ios":"levelo://app?vid=e8f37101-8454-4f72-8ee6-9c33459b12bf"},"vehicle_type_id":"4","last_reported":1678565197,"current_range_meters":0,"station_id":"ce4bhb92rcd13ifvqen0","pricing_plan_id":"free"},{"bike_id":"5eb25964-4c5d-4509-bbe3-5a3f5647e29d","system_id":"levelo_inurba_marseille","lat":43.330425,"lon":5.389273,"is_reserved":false,"is_disabled":false,"rental_uris":{"android":"levelo://app?vid=5eb25964-4c5d-4509-bbe3-5a3f5647e29d","ios":"levelo://app?vid=5eb25964-4c5d-4509-bbe3-5a3f5647e29d"},"vehicle_type_id":"4","last_reported":1678565197,"current_range_meters":14400,"station_id":"ce4bhr92rcd13ifvqhrg","pricing_plan_id":"free"},{"bike_id":"e519ae35-c8a0-4669-b9f4-9e952ab7b6de","system_id":"levelo_inurba_marseille","lat":43.290104,"lon":5.356111,"is_reserved":false,"is_disabled":false,"rental_uris":{"android":"levelo://app?vid=e519ae35-c8a0-4669-b9f4-9e952ab7b6de","ios":"levelo://app?vid=e519ae35-c8a0-4669-b9f4-9e952ab7b6de"},"vehicle_type_id":"4","last_reported":1678565197,"current_range_meters":0,"station_id":"ce4bhb92rcd13ifvqen0","pricing_plan_id":"free"},{"bike_id":"33680b50-d948-4ec7-af82-617530069060","system_id":"levelo_inurba_marseille","lat":43.290104,"lon":5.356111,"is_reserved":false,"is_disabled":false,"rental_uris":{"android":"levelo://app?vid=33680b50-d948-4ec7-af82-617530069060","ios":"levelo://app?vid=33680b50-d948-4ec7-af82-617530069060"},"vehicle_type_id":"4","last_reported":1678565197,"current_range_meters":0,"station_id":"ce4bhb92rcd13ifvqen0","pricing_plan_id":"free"},{"bike_id":"36e06f27-876e-4d57-a2ea-3e7999c14d1d","system_id":"levelo_inurba_marseille","lat":43.290104,"lon":5.356111,"is_reserved":false,"is_disabled":false,"rental_uris":{"android":"levelo://app?vid=36e06f27-876e-4d57-a2ea-3e7999c14d1d","ios":"levelo://app?vid=36e06f27-876e-4d57-a2ea-3e7999c14d1d"},"vehicle_type_id":"4","last_reported":1678565197,"current_range_meters":1200,"station_id":"ce4bhb92rcd13ifvqen0","pricing_plan_id":"free"},{"bike_id":"f77083a0-4705-4276-ad24-87197ac4b537","system_id":"levelo_inurba_marseille","lat":43.290104,"lon":5.356111,"is_reserved":false,"is_disabled":false,"rental_uris":{"android":"levelo://app?vid=f77083a0-4705-4276-ad24-87197ac4b537","ios":"levelo://app?vid=f77083a0-4705-4276-ad24-87197ac4b537"},"vehicle_type_id":"4","last_reported":1678565197,"current_range_meters":12800,"station_id":"ce4bhb92rcd13ifvqen0","pricing_plan_id":"free"},{"bike_id":"3acb9add-bae7-46eb-ad06-2b287e34e542","system_id":"levelo_inurba_marseille","lat":43.290104,"lon":5.356111,"is_reserved":false,"is_disabled":false,"rental_uris":{"android":"levelo://app?vid=3acb9add-bae7-46eb-ad06-2b287e34e542","ios":"levelo://app?vid=3acb9add-bae7-46eb-ad06-2b287e34e542"},"vehicle_type_id":"4","last_reported":1678565197,"current_range_meters":26400,"station_id":"ce4bhb92rcd13ifvqen0","pricing_plan_id":"free"},{"bike_id":"995ed5cf-0711-493a-81e1-bcaf6274721a","system_id":"levelo_inurba_marseille","lat":43.289741,"lon":5.378306,"is_reserved":false,"is_disabled":false,"rental_uris":{"android":"levelo://app?vid=995ed5cf-0711-493a-81e1-bcaf6274721a","ios":"levelo://app?vid=995ed5cf-0711-493a-81e1-bcaf6274721a"},"vehicle_type_id":"4","last_reported":1678565197,"current_range_meters":16000,"station_id":"ce4bh9p2rcd13ifvqed0","pricing_plan_id":"free"},{"bike_id":"06c00d09-7c29-406e-90ed-e54c764f9e4c","system_id":"levelo_inurba_marseille","lat":43.302759,"lon":5.400793,"is_reserved":false,"is_disabled":false,"rental_uris":{"android":"levelo://app?vid=06c00d09-7c29-406e-90ed-e54c764f9e4c","ios":"levelo://app?vid=06c00d09-7c29-406e-90ed-e54c764f9e4c"},"vehicle_type_id":"4","last_reported":1678565197,"current_range_meters":29200,"station_id":"ce4bgvh2rcd13ifvqcs0","pricing_plan_id":"free"},{"bike_id":"dd16e088-e4c3-4ba4-a34e-c7a7ced25394","system_id":"levelo_inurba_marseille","lat":43.301117,"lon":5.398795,"is_reserved":false,"is_disabled":false,"rental_uris":{"android":"levelo://app?vid=dd16e088-e4c3-4ba4-a34e-c7a7ced25394","ios":"levelo://app?vid=dd16e088-e4c3-4ba4-a34e-c7a7ced25394"},"vehicle_type_id":"4","last_reported":1678565197,"current_range_meters":32000,"station_id":"ce4bh0h2rcd13ifvqd40","pricing_plan_id":"free"},{"bike_id":"dd59aa0b-129d-4e53-8982-4afe11d4c8ec","system_id":"levelo_inurba_marseille","lat":43.301117,"lon":5.398795,"is_reserved":false,"is_disabled":false,"rental_uris":{"android":"levelo://app?vid=dd59aa0b-129d-4e53-8982-4afe11d4c8ec","ios":"levelo://app?vid=dd59aa0b-129d-4e53-8982-4afe11d4c8ec"},"vehicle_type_id":"4","last_reported":1678565197,"current_range_meters":12800,"station_id":"ce4bh0h2rcd13ifvqd40","pricing_plan_id":"free"},{"bike_id":"3037ca05-1c42-4e84-8d80-36268cb682e8","system_id":"levelo_inurba_marseille","lat":43.301117,"lon":5.398795,"is_reserved":false,"is_disabled":false,"rental_uris":{"android":"levelo://app?vid=3037ca05-1c42-4e84-8d80-36268cb682e8","ios":"levelo://app?vid=3037ca05-1c42-4e84-8d80-36268cb682e8"},"vehicle_type_id":"4","last_reported":1678565197,"current_range_meters":26400,"station_id":"ce4bh0h2rcd13ifvqd40","pricing_plan_id":"free"},{"bike_id":"f60b04f3-cb59-4c6e-acb0-25a14185953c","system_id":"levelo_inurba_marseille","lat":43.301117,"lon":5.398795,"is_reserved":false,"is_disabled":false,"rental_uris":{"android":"levelo://app?vid=f60b04f3-cb59-4c6e-acb0-25a14185953c","ios":"levelo://app?vid=f60b04f3-cb59-4c6e-acb0-25a14185953c"},"vehicle_type_id":"4","last_reported":1678565197,"current_range_meters":29600,"station_id":"ce4bh0h2rcd13ifvqd40","pricing_plan_id":"free"},{"bike_id":"056f7073-3d4a-4418-85f0-46f7290e5d0d","system_id":"levelo_inurba_marseille","lat":43.301117,"lon":5.398795,"is_reserved":false,"is_disabled":false,"rental_uris":{"android":"levelo://app?vid=056f7073-3d4a-4418-85f0-46f7290e5d0d","ios":"levelo://app?vid=056f7073-3d4a-4418-85f0-46f7290e5d0d"},"vehicle_type_id":"4","last_reported":1678565197,"current_range_meters":32000,"station_id":"ce4bh0h2rcd13ifvqd40","pricing_plan_id":"free"},{"bike_id":"98df6766-7c5b-4db0-b62d-3907830ca754","system_id":"levelo_inurba_marseille","lat":43.301117,"lon":5.398795,"is_reserved":false,"is_disabled":false,"rental_uris":{"android":"levelo://app?vid=98df6766-7c5b-4db0-b62d-3907830ca754","ios":"levelo://app?vid=98df6766-7c5b-4db0-b62d-3907830ca754"},"vehicle_type_id":"4","last_reported":1678565197,"current_range_meters":21600,"station_id":"ce4bh0h2rcd13ifvqd40","pricing_plan_id":"free"},{"bike_id":"2550228c-6e43-4f66-a7b9-157ba0e57629","system_id":"levelo_inurba_marseille","lat":43.298681,"lon":5.397225,"is_reserved":false,"is_disabled":false,"rental_uris":{"android":"levelo://app?vid=2550228c-6e43-4f66-a7b9-157ba0e57629","ios":"levelo://app?vid=2550228c-6e43-4f66-a7b9-157ba0e57629"},"vehicle_type_id":"4","last_reported":1678565197,"current_range_meters":22400,"station_id":"ce4bh0h2rcd13ifvqd50","pricing_plan_id":"free"},{"bike_id":"b87cad5d-e0b5-46bc-8605-2de7b75a67b8","system_id":"levelo_inurba_marseille","lat":43.298681,"lon":5.397225,"is_reserved":false,"is_disabled":false,"rental_uris":{"android":"levelo://app?vid=b87cad5d-e0b5-46bc-8605-2de7b75a67b8","ios":"levelo://app?vid=b87cad5d-e0b5-46bc-8605-2de7b75a67b8"},"vehicle_type_id":"4","last_reported":1678565197,"current_range_meters":17200,"station_id":"ce4bh0h2rcd13ifvqd50","pricing_plan_id":"free"},{"bike_id":"ae48f0b2-40a5-4a19-9c18-9048dd1b1e13","system_id":"levelo_inurba_marseille","lat":43.29523,"lon":5.39394,"is_reserved":false,"is_disabled":false,"rental_uris":{"android":"levelo://app?vid=ae48f0b2-40a5-4a19-9c18-9048dd1b1e13","ios":"levelo://app?vid=ae48f0b2-40a5-4a19-9c18-9048dd1b1e13"},"vehicle_type_id":"4","last_reported":1678565197,"current_range_meters":400,"station_id":"ce4bh212rcd13ifvqde0","pricing_plan_id":"free"},{"bike_id":"b98aa4d6-3894-4f80-b137-72c89f5cb0d4","system_id":"levelo_inurba_marseille","lat":43.295274,"lon":5.394038,"is_reserved":false,"is_disabled":false,"rental_uris":{"android":"levelo://app?vid=b98aa4d6-3894-4f80-b137-72c89f5cb0d4","ios":"levelo://app?vid=b98aa4d6-3894-4f80-b137-72c89f5cb0d4"},"vehicle_type_id":"4","last_reported":1678565197,"current_range_meters":2800,"station_id":"ce4bh212rcd13ifvqde0","pricing_plan_id":"free"},{"bike_id":"3aecb2c3-2ae2-473b-aea5-0edb29eb1187","system_id":"levelo_inurba_marseille","lat":43.302759,"lon":5.400793,"is_reserved":false,"is_disabled":false,"rental_uris":{"android":"levelo://app?vid=3aecb2c3-2ae2-473b-aea5-0edb29eb1187","ios":"levelo://app?vid=3aecb2c3-2ae2-473b-aea5-0edb29eb1187"},"vehicle_type_id":"4","last_reported":1678565197,"current_range_meters":30000,"station_id":"ce4bgvh2rcd13ifvqcs0","pricing_plan_id":"free"},{"bike_id":"8e70820c-4751-4839-96c2-49d1ba6b4c24","system_id":"levelo_inurba_marseille","lat":43.2952,"lon":5.39401,"is_reserved":false,"is_disabled":false,"rental_uris":{"android":"levelo://app?vid=8e70820c-4751-4839-96c2-49d1ba6b4c24","ios":"levelo://app?vid=8e70820c-4751-4839-96c2-49d1ba6b4c24"},"vehicle_type_id":"4","last_reported":1678565197,"current_range_meters":28800,"station_id":"ce4bh212rcd13ifvqde0","pricing_plan_id":"free"},{"bike_id":"bc78dd80-478c-47c7-9c54-b2ca510e435d","system_id":"levelo_inurba_marseille","lat":43.295203,"lon":5.394047,"is_reserved":false,"is_disabled":false,"rental_uris":{"android":"levelo://app?vid=bc78dd80-478c-47c7-9c54-b2ca510e435d","ios":"levelo://app?vid=bc78dd80-478c-47c7-9c54-b2ca510e435d"},"vehicle_type_id":"4","last_reported":1678565197,"current_range_meters":6800,"station_id":"ce4bh212rcd13ifvqde0","pricing_plan_id":"free"},{"bike_id":"36c83621-e6e8-436d-b1ac-25d2d2d29e12","system_id":"levelo_inurba_marseille","lat":43.29514,"lon":5.39397,"is_reserved":false,"is_disabled":false,"rental_uris":{"android":"levelo://app?vid=36c83621-e6e8-436d-b1ac-25d2d2d29e12","ios":"levelo://app?vid=36c83621-e6e8-436d-b1ac-25d2d2d29e12"},"vehicle_type_id":"4","last_reported":1678565197,"current_range_meters":6800,"station_id":"ce4bh212rcd13ifvqde0","pricing_plan_id":"free"},{"bike_id":"80660a43-b387-49ea-9c2e-8b767cec692b","system_id":"levelo_inurba_marseille","lat":43.29518,"lon":5.39405,"is_reserved":false,"is_disabled":false,"rental_uris":{"android":"levelo://app?vid=80660a43-b387-49ea-9c2e-8b767cec692b","ios":"levelo://app?vid=80660a43-b387-49ea-9c2e-8b767cec692b"},"vehicle_type_id":"4","last_reported":1678565197,"current_range_meters":15200,"station_id":"ce4bh212rcd13ifvqde0","pricing_plan_id":"free"},{"bike_id":"9795e5ba-ce62-407e-bbf3-109c236f56d6","system_id":"levelo_inurba_marseille","lat":43.295107,"lon":5.394057,"is_reserved":false,"is_disabled":false,"rental_uris":{"android":"levelo://app?vid=9795e5ba-ce62-407e-bbf3-109c236f56d6","ios":"levelo://app?vid=9795e5ba-ce62-407e-bbf3-109c236f56d6"},"vehicle_type_id":"4","last_reported":1678565197,"current_range_meters":0,"station_id":"ce4bh212rcd13ifvqde0","pricing_plan_id":"free"},{"bike_id":"95edac08-5f7a-4823-84e2-a568c8fae293","system_id":"levelo_inurba_marseille","lat":43.290382,"lon":5.386415,"is_reserved":false,"is_disabled":false,"rental_uris":{"android":"levelo://app?vid=95edac08-5f7a-4823-84e2-a568c8fae293","ios":"levelo://app?vid=95edac08-5f7a-4823-84e2-a568c8fae293"},"vehicle_type_id":"4","last_reported":1678565197,"current_range_meters":0,"station_id":"ce4bh4p2rcd13ifvqe0g","pricing_plan_id":"free"},{"bike_id":"f15e217b-7a74-4b40-acf3-624301251300","system_id":"levelo_inurba_marseille","lat":43.302759,"lon":5.400793,"is_reserved":false,"is_disabled":false,"rental_uris":{"android":"levelo://app?vid=f15e217b-7a74-4b40-acf3-624301251300","ios":"levelo://app?vid=f15e217b-7a74-4b40-acf3-624301251300"},"vehicle_type_id":"4","last_reported":1678565197,"current_range_meters":21200,"station_id":"ce4bgvh2rcd13ifvqcs0","pricing_plan_id":"free"},{"bike_id":"cae0d8d5-4b4a-4267-8e60-0c6625e31d1a","system_id":"levelo_inurba_marseille","lat":43.302759,"lon":5.400793,"is_reserved":false,"is_disabled":false,"rental_uris":{"android":"levelo://app?vid=cae0d8d5-4b4a-4267-8e60-0c6625e31d1a","ios":"levelo://app?vid=cae0d8d5-4b4a-4267-8e60-0c6625e31d1a"},"vehicle_type_id":"4","last_reported":1678565197,"current_range_meters":29600,"station_id":"ce4bgvh2rcd13ifvqcs0","pricing_plan_id":"free"},{"bike_id":"286b592c-218f-454a-b9e0-9ab08832358f","system_id":"levelo_inurba_marseille","lat":43.302759,"lon":5.400793,"is_reserved":false,"is_disabled":false,"rental_uris":{"android":"levelo://app?vid=286b592c-218f-454a-b9e0-9ab08832358f","ios":"levelo://app?vid=286b592c-218f-454a-b9e0-9ab08832358f"},"vehicle_type_id":"4","last_reported":1678565197,"current_range_meters":25600,"station_id":"ce4bgvh2rcd13ifvqcs0","pricing_plan_id":"free"},{"bike_id":"042ee7c6-df0b-4602-88d0-a658484fb5ac","system_id":"levelo_inurba_marseille","lat":43.302759,"lon":5.400793,"is_reserved":false,"is_disabled":false,"rental_uris":{"android":"levelo://app?vid=042ee7c6-df0b-4602-88d0-a658484fb5ac","ios":"levelo://app?vid=042ee7c6-df0b-4602-88d0-a658484fb5ac"},"vehicle_type_id":"4","last_reported":1678565197,"current_range_meters":28800,"station_id":"ce4bgvh2rcd13ifvqcs0","pricing_plan_id":"free"},{"bike_id":"9a41290e-d72a-4bdc-a1d8-75a26ee7aa9d","system_id":"levelo_inurba_marseille","lat":43.290308,"lon":5.386361,"is_reserved":false,"is_disabled":false,"rental_uris":{"android":"levelo://app?vid=9a41290e-d72a-4bdc-a1d8-75a26ee7aa9d","ios":"levelo://app?vid=9a41290e-d72a-4bdc-a1d8-75a26ee7aa9d"},"vehicle_type_id":"4","last_reported":1678565197,"current_range_meters":0,"station_id":"ce4bh4p2rcd13ifvqe0g","pricing_plan_id":"free"},{"bike_id":"27a6cdc1-74b4-4989-9161-bab12cfc6390","system_id":"levelo_inurba_marseille","lat":43.302759,"lon":5.400793,"is_reserved":false,"is_disabled":false,"rental_uris":{"android":"levelo://app?vid=27a6cdc1-74b4-4989-9161-bab12cfc6390","ios":"levelo://app?vid=27a6cdc1-74b4-4989-9161-bab12cfc6390"},"vehicle_type_id":"4","last_reported":1678565197,"current_range_meters":25600,"station_id":"ce4bgvh2rcd13ifvqcs0","pricing_plan_id":"free"},{"bike_id":"3430dc87-d959-436a-bea3-cd9571fdef7b","system_id":"levelo_inurba_marseille","lat":43.290289,"lon":5.386331,"is_reserved":false,"is_disabled":false,"rental_uris":{"android":"levelo://app?vid=3430dc87-d959-436a-bea3-cd9571fdef7b","ios":"levelo://app?vid=3430dc87-d959-436a-bea3-cd9571fdef7b"},"vehicle_type_id":"4","last_reported":1678565197,"current_range_meters":0,"station_id":"","pricing_plan_id":"free"},{"bike_id":"1cc841d5-7912-4ae0-b171-3cc48530310f","system_id":"levelo_inurba_marseille","lat":43.302759,"lon":5.400793,"is_reserved":false,"is_disabled":false,"rental_uris":{"android":"levelo://app?vid=1cc841d5-7912-4ae0-b171-3cc48530310f","ios":"levelo://app?vid=1cc841d5-7912-4ae0-b171-3cc48530310f"},"vehicle_type_id":"4","last_reported":1678565197,"current_range_meters":28000,"station_id":"ce4bgvh2rcd13ifvqcs0","pricing_plan_id":"free"},{"bike_id":"9bd18fd1-6152-4db7-ab0c-27c6f7ca8041","system_id":"levelo_inurba_marseille","lat":43.302759,"lon":5.400793,"is_reserved":false,"is_disabled":false,"rental_uris":{"android":"levelo://app?vid=9bd18fd1-6152-4db7-ab0c-27c6f7ca8041","ios":"levelo://app?vid=9bd18fd1-6152-4db7-ab0c-27c6f7ca8041"},"vehicle_type_id":"4","last_reported":1678565197,"current_range_meters":30000,"station_id":"ce4bgvh2rcd13ifvqcs0","pricing_plan_id":"free"},{"bike_id":"fc1d766f-c988-4bc9-8d32-78d5a2a6aa7c","system_id":"levelo_inurba_marseille","lat":43.286114,"lon":5.370625,"is_reserved":false,"is_disabled":false,"rental_uris":{"android":"levelo://app?vid=fc1d766f-c988-4bc9-8d32-78d5a2a6aa7c","ios":"levelo://app?vid=fc1d766f-c988-4bc9-8d32-78d5a2a6aa7c"},"vehicle_type_id":"4","last_reported":1678565197,"current_range_meters":21600,"station_id":"ce4bht12rcd13ifvqi60","pricing_plan_id":"free"},{"bike_id":"e54fefe0-ef87-4908-8a86-f6200fe5a5cb","system_id":"levelo_inurba_marseille","lat":43.287185,"lon":5.379373,"is_reserved":false,"is_disabled":false,"rental_uris":{"android":"levelo://app?vid=e54fefe0-ef87-4908-8a86-f6200fe5a5cb","ios":"levelo://app?vid=e54fefe0-ef87-4908-8a86-f6200fe5a5cb"},"vehicle_type_id":"4","last_reported":1678565197,"current_range_meters":13200,"station_id":"ce4bh9p2rcd13ifvqec0","pricing_plan_id":"free"},{"bike_id":"f237267b-0388-42b0-9d7a-2c8c5fe9e5fd","system_id":"levelo_inurba_marseille","lat":43.287184,"lon":5.37937,"is_reserved":false,"is_disabled":false,"rental_uris":{"android":"levelo://app?vid=f237267b-0388-42b0-9d7a-2c8c5fe9e5fd","ios":"levelo://app?vid=f237267b-0388-42b0-9d7a-2c8c5fe9e5fd"},"vehicle_type_id":"4","last_reported":1678565197,"current_range_meters":0,"station_id":"ce4bh9p2rcd13ifvqec0","pricing_plan_id":"free"},{"bike_id":"777c3d13-2d08-4cae-98d3-d6cfcb5f60f3","system_id":"levelo_inurba_marseille","lat":43.287185,"lon":5.379373,"is_reserved":false,"is_disabled":false,"rental_uris":{"android":"levelo://app?vid=777c3d13-2d08-4cae-98d3-d6cfcb5f60f3","ios":"levelo://app?vid=777c3d13-2d08-4cae-98d3-d6cfcb5f60f3"},"vehicle_type_id":"4","last_reported":1678565197,"current_range_meters":800,"station_id":"ce4bh9p2rcd13ifvqec0","pricing_plan_id":"free"},{"bike_id":"c226c9d1-3e66-4579-aa16-17c408e846a9","system_id":"levelo_inurba_marseille","lat":43.287185,"lon":5.379373,"is_reserved":false,"is_disabled":false,"rental_uris":{"android":"levelo://app?vid=c226c9d1-3e66-4579-aa16-17c408e846a9","ios":"levelo://app?vid=c226c9d1-3e66-4579-aa16-17c408e846a9"},"vehicle_type_id":"4","last_reported":1678565197,"current_range_meters":27200,"station_id":"ce4bh9p2rcd13ifvqec0","pricing_plan_id":"free"},{"bike_id":"7ed620c1-a906-4eac-915d-e607c352b251","system_id":"levelo_inurba_marseille","lat":43.287185,"lon":5.379373,"is_reserved":false,"is_disabled":false,"rental_uris":{"android":"levelo://app?vid=7ed620c1-a906-4eac-915d-e607c352b251","ios":"levelo://app?vid=7ed620c1-a906-4eac-915d-e607c352b251"},"vehicle_type_id":"4","last_reported":1678565197,"current_range_meters":6800,"station_id":"ce4bh9p2rcd13ifvqec0","pricing_plan_id":"free"},{"bike_id":"847ddf49-5492-4a35-9124-afd704640df1","system_id":"levelo_inurba_marseille","lat":43.316517,"lon":5.404375,"is_reserved":false,"is_disabled":false,"rental_uris":{"android":"levelo://app?vid=847ddf49-5492-4a35-9124-afd704640df1","ios":"levelo://app?vid=847ddf49-5492-4a35-9124-afd704640df1"},"vehicle_type_id":"4","last_reported":1678565197,"current_range_meters":31200,"station_id":"ce4bh012rcd13ifvqd00","pricing_plan_id":"free"},{"bike_id":"cf00639b-3efd-47ed-80a3-9285353205e6","system_id":"levelo_inurba_marseille","lat":43.316517,"lon":5.404375,"is_reserved":false,"is_disabled":false,"rental_uris":{"android":"levelo://app?vid=cf00639b-3efd-47ed-80a3-9285353205e6","ios":"levelo://app?vid=cf00639b-3efd-47ed-80a3-9285353205e6"},"vehicle_type_id":"4","last_reported":1678565197,"current_range_meters":29600,"station_id":"ce4bh012rcd13ifvqd00","pricing_plan_id":"free"},{"bike_id":"243ae2b8-9255-4faa-a896-f177c89f8ede","system_id":"levelo_inurba_marseille","lat":43.316517,"lon":5.404375,"is_reserved":false,"is_disabled":false,"rental_uris":{"android":"levelo://app?vid=243ae2b8-9255-4faa-a896-f177c89f8ede","ios":"levelo://app?vid=243ae2b8-9255-4faa-a896-f177c89f8ede"},"vehicle_type_id":"4","last_reported":1678565197,"current_range_meters":24400,"station_id":"ce4bh012rcd13ifvqd00","pricing_plan_id":"free"},{"bike_id":"161db933-aeb8-4b83-a76f-f26a0f465db3","system_id":"levelo_inurba_marseille","lat":43.316425,"lon":5.404345,"is_reserved":false,"is_disabled":false,"rental_uris":{"android":"levelo://app?vid=161db933-aeb8-4b83-a76f-f26a0f465db3","ios":"levelo://app?vid=161db933-aeb8-4b83-a76f-f26a0f465db3"},"vehicle_type_id":"4","last_reported":1678565197,"current_range_meters":1600,"station_id":"","pricing_plan_id":"free"},{"bike_id":"d93bb3b0-5cb2-422b-9b56-bffe29bb3d7f","system_id":"levelo_inurba_marseille","lat":43.31642,"lon":5.40435,"is_reserved":false,"is_disabled":false,"rental_uris":{"android":"levelo://app?vid=d93bb3b0-5cb2-422b-9b56-bffe29bb3d7f","ios":"levelo://app?vid=d93bb3b0-5cb2-422b-9b56-bffe29bb3d7f"},"vehicle_type_id":"4","last_reported":1678565197,"current_range_meters":19200,"station_id":"ce4bh012rcd13ifvqd00","pricing_plan_id":"free"},{"bike_id":"b51d770d-a33a-4431-8dd1-d8967064c1d8","system_id":"levelo_inurba_marseille","lat":43.316517,"lon":5.404375,"is_reserved":false,"is_disabled":false,"rental_uris":{"android":"levelo://app?vid=b51d770d-a33a-4431-8dd1-d8967064c1d8","ios":"levelo://app?vid=b51d770d-a33a-4431-8dd1-d8967064c1d8"},"vehicle_type_id":"4","last_reported":1678565197,"current_range_meters":31200,"station_id":"ce4bh012rcd13ifvqd00","pricing_plan_id":"free"},{"bike_id":"a7c54f68-4ebd-46c5-ab43-2625d7f16c76","system_id":"levelo_inurba_marseille","lat":43.31643,"lon":5.40437,"is_reserved":false,"is_disabled":false,"rental_uris":{"android":"levelo://app?vid=a7c54f68-4ebd-46c5-ab43-2625d7f16c76","ios":"levelo://app?vid=a7c54f68-4ebd-46c5-ab43-2625d7f16c76"},"vehicle_type_id":"4","last_reported":1678565197,"current_range_meters":1200,"station_id":"","pricing_plan_id":"free"},{"bike_id":"ea7b04f1-5b15-4c49-915c-0eaf094396bf","system_id":"levelo_inurba_marseille","lat":43.31645,"lon":5.40437,"is_reserved":false,"is_disabled":false,"rental_uris":{"android":"levelo://app?vid=ea7b04f1-5b15-4c49-915c-0eaf094396bf","ios":"levelo://app?vid=ea7b04f1-5b15-4c49-915c-0eaf094396bf"},"vehicle_type_id":"4","last_reported":1678565197,"current_range_meters":20000,"station_id":"","pricing_plan_id":"free"},{"bike_id":"4fafd2c1-9cd1-495f-8862-c5a347d4ef27","system_id":"levelo_inurba_marseille","lat":43.316517,"lon":5.404375,"is_reserved":false,"is_disabled":false,"rental_uris":{"android":"levelo://app?vid=4fafd2c1-9cd1-495f-8862-c5a347d4ef27","ios":"levelo://app?vid=4fafd2c1-9cd1-495f-8862-c5a347d4ef27"},"vehicle_type_id":"4","last_reported":1678565197,"current_range_meters":2800,"station_id":"ce4bh012rcd13ifvqd00","pricing_plan_id":"free"},{"bike_id":"42607d62-11f1-4e1e-8be1-4a39e47017ee","system_id":"levelo_inurba_marseille","lat":43.31644,"lon":5.40438,"is_reserved":false,"is_disabled":false,"rental_uris":{"android":"levelo://app?vid=42607d62-11f1-4e1e-8be1-4a39e47017ee","ios":"levelo://app?vid=42607d62-11f1-4e1e-8be1-4a39e47017ee"},"vehicle_type_id":"4","last_reported":1678565197,"current_range_meters":9200,"station_id":"","pricing_plan_id":"free"},{"bike_id":"2e53870f-bd12-4246-86c1-e7cc0b761e7e","system_id":"levelo_inurba_marseille","lat":43.316517,"lon":5.404375,"is_reserved":false,"is_disabled":false,"rental_uris":{"android":"levelo://app?vid=2e53870f-bd12-4246-86c1-e7cc0b761e7e","ios":"levelo://app?vid=2e53870f-bd12-4246-86c1-e7cc0b761e7e"},"vehicle_type_id":"4","last_reported":1678565197,"current_range_meters":29600,"station_id":"ce4bh012rcd13ifvqd00","pricing_plan_id":"free"},{"bike_id":"aeca2a0f-cbe9-4c0c-92ff-53b89f86a313","system_id":"levelo_inurba_marseille","lat":43.316481,"lon":5.404385,"is_reserved":false,"is_disabled":false,"rental_uris":{"android":"levelo://app?vid=aeca2a0f-cbe9-4c0c-92ff-53b89f86a313","ios":"levelo://app?vid=aeca2a0f-cbe9-4c0c-92ff-53b89f86a313"},"vehicle_type_id":"4","last_reported":1678565197,"current_range_meters":0,"station_id":"","pricing_plan_id":"free"},{"bike_id":"365ab45e-3872-4f6c-a7a2-e207013fd22a","system_id":"levelo_inurba_marseille","lat":43.316517,"lon":5.404375,"is_reserved":false,"is_disabled":false,"rental_uris":{"android":"levelo://app?vid=365ab45e-3872-4f6c-a7a2-e207013fd22a","ios":"levelo://app?vid=365ab45e-3872-4f6c-a7a2-e207013fd22a"},"vehicle_type_id":"4","last_reported":1678565197,"current_range_meters":15200,"station_id":"ce4bh012rcd13ifvqd00","pricing_plan_id":"free"},{"bike_id":"1cac3514-301e-4317-8dc5-f87dce2d0a21","system_id":"levelo_inurba_marseille","lat":43.31644,"lon":5.4044,"is_reserved":false,"is_disabled":false,"rental_uris":{"android":"levelo://app?vid=1cac3514-301e-4317-8dc5-f87dce2d0a21","ios":"levelo://app?vid=1cac3514-301e-4317-8dc5-f87dce2d0a21"},"vehicle_type_id":"4","last_reported":1678565197,"current_range_meters":6000,"station_id":"","pricing_plan_id":"free"},{"bike_id":"21aa7f6b-ae02-46d3-ba93-3b5c19f48973","system_id":"levelo_inurba_marseille","lat":43.31643,"lon":5.404417,"is_reserved":false,"is_disabled":false,"rental_uris":{"android":"levelo://app?vid=21aa7f6b-ae02-46d3-ba93-3b5c19f48973","ios":"levelo://app?vid=21aa7f6b-ae02-46d3-ba93-3b5c19f48973"},"vehicle_type_id":"4","last_reported":1678565197,"current_range_meters":1200,"station_id":"","pricing_plan_id":"free"},{"bike_id":"3d68fd7e-4c83-4e1a-bfa2-2f87cf4ad9b7","system_id":"levelo_inurba_marseille","lat":43.284683,"lon":5.358833,"is_reserved":false,"is_disabled":false,"rental_uris":{"android":"levelo://app?vid=3d68fd7e-4c83-4e1a-bfa2-2f87cf4ad9b7","ios":"levelo://app?vid=3d68fd7e-4c83-4e1a-bfa2-2f87cf4ad9b7"},"vehicle_type_id":"4","last_reported":1678565197,"current_range_meters":29600,"station_id":"ce4bhah2rcd13ifvqei0","pricing_plan_id":"free"},{"bike_id":"a74db311-6b8e-45eb-b923-d3fc4f6a3ac7","system_id":"levelo_inurba_marseille","lat":43.28467,"lon":5.35885,"is_reserved":false,"is_disabled":false,"rental_uris":{"android":"levelo://app?vid=a74db311-6b8e-45eb-b923-d3fc4f6a3ac7","ios":"levelo://app?vid=a74db311-6b8e-45eb-b923-d3fc4f6a3ac7"},"vehicle_type_id":"4","last_reported":1678565197,"current_range_meters":2800,"station_id":"","pricing_plan_id":"free"},{"bike_id":"492d5277-0415-4f73-bf52-baa69de816bc","system_id":"levelo_inurba_marseille","lat":43.2846,"lon":5.35896,"is_reserved":false,"is_disabled":false,"rental_uris":{"android":"levelo://app?vid=492d5277-0415-4f73-bf52-baa69de816bc","ios":"levelo://app?vid=492d5277-0415-4f73-bf52-baa69de816bc"},"vehicle_type_id":"4","last_reported":1678565197,"current_range_meters":6800,"station_id":"ce4bhah2rcd13ifvqei0","pricing_plan_id":"free"},{"bike_id":"fae74a18-77d6-4eb9-b78b-cbb5c636eeeb","system_id":"levelo_inurba_marseille","lat":43.284609,"lon":5.358805,"is_reserved":false,"is_disabled":false,"rental_uris":{"android":"levelo://app?vid=fae74a18-77d6-4eb9-b78b-cbb5c636eeeb","ios":"levelo://app?vid=fae74a18-77d6-4eb9-b78b-cbb5c636eeeb"},"vehicle_type_id":"4","last_reported":1678565197,"current_range_meters":28000,"station_id":"","pricing_plan_id":"free"},{"bike_id":"9fd2ba0e-1e01-4791-8fc3-b104bfd7fdf1","system_id":"levelo_inurba_marseille","lat":43.295713,"lon":5.399639,"is_reserved":false,"is_disabled":false,"rental_uris":{"android":"levelo://app?vid=9fd2ba0e-1e01-4791-8fc3-b104bfd7fdf1","ios":"levelo://app?vid=9fd2ba0e-1e01-4791-8fc3-b104bfd7fdf1"},"vehicle_type_id":"4","last_reported":1678565197,"current_range_meters":31600,"station_id":"ce4bh312rcd13ifvqdj0","pricing_plan_id":"free"},{"bike_id":"c54d4988-df32-4305-b442-63a2d26dc66d","system_id":"levelo_inurba_marseille","lat":43.286595,"lon":5.386795,"is_reserved":false,"is_disabled":false,"rental_uris":{"android":"levelo://app?vid=c54d4988-df32-4305-b442-63a2d26dc66d","ios":"levelo://app?vid=c54d4988-df32-4305-b442-63a2d26dc66d"},"vehicle_type_id":"4","last_reported":1678565197,"current_range_meters":20400,"station_id":"ce4bh492rcd13ifvqdug","pricing_plan_id":"free"},{"bike_id":"c6663e10-5580-4ca6-b47e-7f4f35e494f7","system_id":"levelo_inurba_marseille","lat":43.33715,"lon":5.39179,"is_reserved":false,"is_disabled":false,"rental_uris":{"android":"levelo://app?vid=c6663e10-5580-4ca6-b47e-7f4f35e494f7","ios":"levelo://app?vid=c6663e10-5580-4ca6-b47e-7f4f35e494f7"},"vehicle_type_id":"4","last_reported":1678565197,"current_range_meters":26400,"station_id":"","pricing_plan_id":"free"},{"bike_id":"071751a6-2257-4f47-b83d-6a49691737ea","system_id":"levelo_inurba_marseille","lat":43.33723,"lon":5.39173,"is_reserved":false,"is_disabled":false,"rental_uris":{"android":"levelo://app?vid=071751a6-2257-4f47-b83d-6a49691737ea","ios":"levelo://app?vid=071751a6-2257-4f47-b83d-6a49691737ea"},"vehicle_type_id":"4","last_reported":1678565197,"current_range_meters":20000,"station_id":"","pricing_plan_id":"free"},{"bike_id":"024758cd-58b3-47e4-a65c-1a19a9b716b5","system_id":"levelo_inurba_marseille","lat":43.337168,"lon":5.391825,"is_reserved":false,"is_disabled":false,"rental_uris":{"android":"levelo://app?vid=024758cd-58b3-47e4-a65c-1a19a9b716b5","ios":"levelo://app?vid=024758cd-58b3-47e4-a65c-1a19a9b716b5"},"vehicle_type_id":"4","last_reported":1678565197,"current_range_meters":13600,"station_id":"ce4bhr92rcd13ifvqhsg","pricing_plan_id":"free"},{"bike_id":"42e28ab5-8793-4be0-9d7f-ebdfd7e9b678","system_id":"levelo_inurba_marseille","lat":43.337168,"lon":5.391825,"is_reserved":false,"is_disabled":false,"rental_uris":{"android":"levelo://app?vid=42e28ab5-8793-4be0-9d7f-ebdfd7e9b678","ios":"levelo://app?vid=42e28ab5-8793-4be0-9d7f-ebdfd7e9b678"},"vehicle_type_id":"4","last_reported":1678565197,"current_range_meters":15600,"station_id":"ce4bhr92rcd13ifvqhsg","pricing_plan_id":"free"},{"bike_id":"16f0dc7b-56a1-4503-831f-4e1fb24172ab","system_id":"levelo_inurba_marseille","lat":43.337168,"lon":5.391825,"is_reserved":false,"is_disabled":false,"rental_uris":{"android":"levelo://app?vid=16f0dc7b-56a1-4503-831f-4e1fb24172ab","ios":"levelo://app?vid=16f0dc7b-56a1-4503-831f-4e1fb24172ab"},"vehicle_type_id":"4","last_reported":1678565197,"current_range_meters":26800,"station_id":"ce4bhr92rcd13ifvqhsg","pricing_plan_id":"free"},{"bike_id":"4e34cadd-607d-4ba4-83f0-da4cac819d45","system_id":"levelo_inurba_marseille","lat":43.337168,"lon":5.391825,"is_reserved":false,"is_disabled":false,"rental_uris":{"android":"levelo://app?vid=4e34cadd-607d-4ba4-83f0-da4cac819d45","ios":"levelo://app?vid=4e34cadd-607d-4ba4-83f0-da4cac819d45"},"vehicle_type_id":"4","last_reported":1678565197,"current_range_meters":28000,"station_id":"ce4bhr92rcd13ifvqhsg","pricing_plan_id":"free"},{"bike_id":"be89b116-4999-470c-a7d4-b1c9dc279419","system_id":"levelo_inurba_marseille","lat":43.337168,"lon":5.391825,"is_reserved":false,"is_disabled":false,"rental_uris":{"android":"levelo://app?vid=be89b116-4999-470c-a7d4-b1c9dc279419","ios":"levelo://app?vid=be89b116-4999-470c-a7d4-b1c9dc279419"},"vehicle_type_id":"4","last_reported":1678565197,"current_range_meters":30400,"station_id":"ce4bhr92rcd13ifvqhsg","pricing_plan_id":"free"},{"bike_id":"7ebff1c8-db28-4930-a896-d6a1bb9e737c","system_id":"levelo_inurba_marseille","lat":43.337168,"lon":5.391825,"is_reserved":false,"is_disabled":false,"rental_uris":{"android":"levelo://app?vid=7ebff1c8-db28-4930-a896-d6a1bb9e737c","ios":"levelo://app?vid=7ebff1c8-db28-4930-a896-d6a1bb9e737c"},"vehicle_type_id":"4","last_reported":1678565197,"current_range_meters":31600,"station_id":"ce4bhr92rcd13ifvqhsg","pricing_plan_id":"free"},{"bike_id":"8740c9a6-83bd-4ec0-b313-25a6fb365634","system_id":"levelo_inurba_marseille","lat":43.337168,"lon":5.391825,"is_reserved":false,"is_disabled":false,"rental_uris":{"android":"levelo://app?vid=8740c9a6-83bd-4ec0-b313-25a6fb365634","ios":"levelo://app?vid=8740c9a6-83bd-4ec0-b313-25a6fb365634"},"vehicle_type_id":"4","last_reported":1678565197,"current_range_meters":13600,"station_id":"ce4bhr92rcd13ifvqhsg","pricing_plan_id":"free"},{"bike_id":"fb824a8b-b7e6-4597-9670-0a9fa0599b69","system_id":"levelo_inurba_marseille","lat":43.321418,"lon":5.407243,"is_reserved":false,"is_disabled":false,"rental_uris":{"android":"levelo://app?vid=fb824a8b-b7e6-4597-9670-0a9fa0599b69","ios":"levelo://app?vid=fb824a8b-b7e6-4597-9670-0a9fa0599b69"},"vehicle_type_id":"4","last_reported":1678565197,"current_range_meters":0,"station_id":"","pricing_plan_id":"free"},{"bike_id":"c4b2bc3d-6035-46cc-8abb-c9b1ec4468e8","system_id":"levelo_inurba_marseille","lat":43.284787,"lon":5.384116,"is_reserved":false,"is_disabled":false,"rental_uris":{"android":"levelo://app?vid=c4b2bc3d-6035-46cc-8abb-c9b1ec4468e8","ios":"levelo://app?vid=c4b2bc3d-6035-46cc-8abb-c9b1ec4468e8"},"vehicle_type_id":"4","last_reported":1678565197,"current_range_meters":800,"station_id":"ce4bh512rcd13ifvqe3g","pricing_plan_id":"free"},{"bike_id":"c9dfbf0b-facd-424f-a775-81365efcba87","system_id":"levelo_inurba_marseille","lat":43.288582,"lon":5.392984,"is_reserved":false,"is_disabled":false,"rental_uris":{"android":"levelo://app?vid=c9dfbf0b-facd-424f-a775-81365efcba87","ios":"levelo://app?vid=c9dfbf0b-facd-424f-a775-81365efcba87"},"vehicle_type_id":"4","last_reported":1678565197,"current_range_meters":10800,"station_id":"","pricing_plan_id":"free"},{"bike_id":"253b1998-454f-4be1-8564-234052cf4067","system_id":"levelo_inurba_marseille","lat":43.288501,"lon":5.393087,"is_reserved":false,"is_disabled":false,"rental_uris":{"android":"levelo://app?vid=253b1998-454f-4be1-8564-234052cf4067","ios":"levelo://app?vid=253b1998-454f-4be1-8564-234052cf4067"},"vehicle_type_id":"4","last_reported":1678565197,"current_range_meters":0,"station_id":"ce4bh2p2rcd13ifvqdi0","pricing_plan_id":"free"},{"bike_id":"7e1e9c46-65a9-458c-835c-ed34c06cd959","system_id":"levelo_inurba_marseille","lat":43.2843,"lon":5.34986,"is_reserved":false,"is_disabled":false,"rental_uris":{"android":"levelo://app?vid=7e1e9c46-65a9-458c-835c-ed34c06cd959","ios":"levelo://app?vid=7e1e9c46-65a9-458c-835c-ed34c06cd959"},"vehicle_type_id":"4","last_reported":1678565197,"current_range_meters":26000,"station_id":"ce4bhbh2rcd13ifvqepg","pricing_plan_id":"free"},{"bike_id":"e8861111-2806-461d-bbd1-63f0550ac100","system_id":"levelo_inurba_marseille","lat":43.292724,"lon":5.401131,"is_reserved":false,"is_disabled":false,"rental_uris":{"android":"levelo://app?vid=e8861111-2806-461d-bbd1-63f0550ac100","ios":"levelo://app?vid=e8861111-2806-461d-bbd1-63f0550ac100"},"vehicle_type_id":"4","last_reported":1678565197,"current_range_meters":19600,"station_id":"ce4bh312rcd13ifvqdk0","pricing_plan_id":"free"},{"bike_id":"890af8ab-4292-446b-88bb-5b91172ab798","system_id":"levelo_inurba_marseille","lat":43.29277,"lon":5.401263,"is_reserved":false,"is_disabled":false,"rental_uris":{"android":"levelo://app?vid=890af8ab-4292-446b-88bb-5b91172ab798","ios":"levelo://app?vid=890af8ab-4292-446b-88bb-5b91172ab798"},"vehicle_type_id":"4","last_reported":1678565197,"current_range_meters":10800,"station_id":"","pricing_plan_id":"free"},{"bike_id":"7eea7e0c-b64e-4ea5-897f-164d9bab6995","system_id":"levelo_inurba_marseille","lat":43.28273,"lon":5.35068,"is_reserved":false,"is_disabled":false,"rental_uris":{"android":"levelo://app?vid=7eea7e0c-b64e-4ea5-897f-164d9bab6995","ios":"levelo://app?vid=7eea7e0c-b64e-4ea5-897f-164d9bab6995"},"vehicle_type_id":"4","last_reported":1678565197,"current_range_meters":0,"station_id":"","pricing_plan_id":"free"},{"bike_id":"1c97db69-8cbb-442f-ad23-fd2d5c880a48","system_id":"levelo_inurba_marseille","lat":43.283502,"lon":5.386471,"is_reserved":false,"is_disabled":false,"rental_uris":{"android":"levelo://app?vid=1c97db69-8cbb-442f-ad23-fd2d5c880a48","ios":"levelo://app?vid=1c97db69-8cbb-442f-ad23-fd2d5c880a48"},"vehicle_type_id":"4","last_reported":1678565197,"current_range_meters":4800,"station_id":"ce4bh492rcd13ifvqdvg","pricing_plan_id":"free"},{"bike_id":"a345f9ef-f039-4475-8b89-fb749a338d1b","system_id":"levelo_inurba_marseille","lat":43.282744,"lon":5.350533,"is_reserved":false,"is_disabled":false,"rental_uris":{"android":"levelo://app?vid=a345f9ef-f039-4475-8b89-fb749a338d1b","ios":"levelo://app?vid=a345f9ef-f039-4475-8b89-fb749a338d1b"},"vehicle_type_id":"4","last_reported":1678565197,"current_range_meters":1200,"station_id":"ce4bhbp2rcd13ifvqerg","pricing_plan_id":"free"},{"bike_id":"c6fb06ec-bb98-4389-ad18-1d9e0556933c","system_id":"levelo_inurba_marseille","lat":43.282744,"lon":5.350533,"is_reserved":false,"is_disabled":false,"rental_uris":{"android":"levelo://app?vid=c6fb06ec-bb98-4389-ad18-1d9e0556933c","ios":"levelo://app?vid=c6fb06ec-bb98-4389-ad18-1d9e0556933c"},"vehicle_type_id":"4","last_reported":1678565197,"current_range_meters":19600,"station_id":"ce4bhbp2rcd13ifvqerg","pricing_plan_id":"free"},{"bike_id":"33cf5139-1680-4295-b57e-ac95fb0866d9","system_id":"levelo_inurba_marseille","lat":43.283502,"lon":5.386471,"is_reserved":false,"is_disabled":false,"rental_uris":{"android":"levelo://app?vid=33cf5139-1680-4295-b57e-ac95fb0866d9","ios":"levelo://app?vid=33cf5139-1680-4295-b57e-ac95fb0866d9"},"vehicle_type_id":"4","last_reported":1678565197,"current_range_meters":0,"station_id":"ce4bh492rcd13ifvqdvg","pricing_plan_id":"free"},{"bike_id":"500a553c-de52-42fd-bf74-2ff59e3a3cff","system_id":"levelo_inurba_marseille","lat":43.28039,"lon":5.369297,"is_reserved":false,"is_disabled":false,"rental_uris":{"android":"levelo://app?vid=500a553c-de52-42fd-bf74-2ff59e3a3cff","ios":"levelo://app?vid=500a553c-de52-42fd-bf74-2ff59e3a3cff"},"vehicle_type_id":"4","last_reported":1678565197,"current_range_meters":22400,"station_id":"ce4bha12rcd13ifvqef0","pricing_plan_id":"free"},{"bike_id":"bf649310-aba3-4328-a2dd-a304ebaf1431","system_id":"levelo_inurba_marseille","lat":43.282744,"lon":5.350533,"is_reserved":false,"is_disabled":false,"rental_uris":{"android":"levelo://app?vid=bf649310-aba3-4328-a2dd-a304ebaf1431","ios":"levelo://app?vid=bf649310-aba3-4328-a2dd-a304ebaf1431"},"vehicle_type_id":"4","last_reported":1678565197,"current_range_meters":11600,"station_id":"ce4bhbp2rcd13ifvqerg","pricing_plan_id":"free"},{"bike_id":"81fd18e9-7355-4bbd-87bc-229eb8a30511","system_id":"levelo_inurba_marseille","lat":43.280355,"lon":5.369381,"is_reserved":false,"is_disabled":false,"rental_uris":{"android":"levelo://app?vid=81fd18e9-7355-4bbd-87bc-229eb8a30511","ios":"levelo://app?vid=81fd18e9-7355-4bbd-87bc-229eb8a30511"},"vehicle_type_id":"4","last_reported":1678565197,"current_range_meters":5200,"station_id":"","pricing_plan_id":"free"},{"bike_id":"7fa10c6b-ee8a-4987-9e39-17feece8570b","system_id":"levelo_inurba_marseille","lat":43.282744,"lon":5.350533,"is_reserved":false,"is_disabled":false,"rental_uris":{"android":"levelo://app?vid=7fa10c6b-ee8a-4987-9e39-17feece8570b","ios":"levelo://app?vid=7fa10c6b-ee8a-4987-9e39-17feece8570b"},"vehicle_type_id":"4","last_reported":1678565197,"current_range_meters":0,"station_id":"ce4bhbp2rcd13ifvqerg","pricing_plan_id":"free"},{"bike_id":"52600047-77e7-44c4-a3b1-3098851ee8f4","system_id":"levelo_inurba_marseille","lat":43.28039,"lon":5.369297,"is_reserved":false,"is_disabled":false,"rental_uris":{"android":"levelo://app?vid=52600047-77e7-44c4-a3b1-3098851ee8f4","ios":"levelo://app?vid=52600047-77e7-44c4-a3b1-3098851ee8f4"},"vehicle_type_id":"4","last_reported":1678565197,"current_range_meters":4800,"station_id":"ce4bha12rcd13ifvqef0","pricing_plan_id":"free"},{"bike_id":"9f0152f7-1924-48d4-b090-082ead55e774","system_id":"levelo_inurba_marseille","lat":43.296263,"lon":5.40601,"is_reserved":false,"is_disabled":false,"rental_uris":{"android":"levelo://app?vid=9f0152f7-1924-48d4-b090-082ead55e774","ios":"levelo://app?vid=9f0152f7-1924-48d4-b090-082ead55e774"},"vehicle_type_id":"4","last_reported":1678565197,"current_range_meters":18000,"station_id":"ce4bh0h2rcd13ifvqd60","pricing_plan_id":"free"},{"bike_id":"433b0ebb-c6a7-439c-bc79-d8c392491a41","system_id":"levelo_inurba_marseille","lat":43.281044,"lon":5.378308,"is_reserved":false,"is_disabled":false,"rental_uris":{"android":"levelo://app?vid=433b0ebb-c6a7-439c-bc79-d8c392491a41","ios":"levelo://app?vid=433b0ebb-c6a7-439c-bc79-d8c392491a41"},"vehicle_type_id":"4","last_reported":1678565197,"current_range_meters":0,"station_id":"ce4bha12rcd13ifvqee0","pricing_plan_id":"free"},{"bike_id":"68ee15ad-d342-4fd7-ae32-05682a69e50e","system_id":"levelo_inurba_marseille","lat":43.284462,"lon":5.392121,"is_reserved":false,"is_disabled":false,"rental_uris":{"android":"levelo://app?vid=68ee15ad-d342-4fd7-ae32-05682a69e50e","ios":"levelo://app?vid=68ee15ad-d342-4fd7-ae32-05682a69e50e"},"vehicle_type_id":"4","last_reported":1678565197,"current_range_meters":27200,"station_id":"ce4bhoh2rcd13ifvqh5g","pricing_plan_id":"free"},{"bike_id":"ffa25ae7-bc81-4ade-9540-b031c8ac431f","system_id":"levelo_inurba_marseille","lat":43.28434,"lon":5.39197,"is_reserved":false,"is_disabled":false,"rental_uris":{"android":"levelo://app?vid=ffa25ae7-bc81-4ade-9540-b031c8ac431f","ios":"levelo://app?vid=ffa25ae7-bc81-4ade-9540-b031c8ac431f"},"vehicle_type_id":"4","last_reported":1678565197,"current_range_meters":0,"station_id":"ce4bhoh2rcd13ifvqh5g","pricing_plan_id":"free"},{"bike_id":"d873de88-39ec-4ff2-9ffd-f98414bb9fd1","system_id":"levelo_inurba_marseille","lat":43.320444,"lon":5.415326,"is_reserved":false,"is_disabled":false,"rental_uris":{"android":"levelo://app?vid=d873de88-39ec-4ff2-9ffd-f98414bb9fd1","ios":"levelo://app?vid=d873de88-39ec-4ff2-9ffd-f98414bb9fd1"},"vehicle_type_id":"4","last_reported":1678565197,"current_range_meters":31200,"station_id":"","pricing_plan_id":"free"},{"bike_id":"12d93222-8545-4cbc-8d66-06921f4e0044","system_id":"levelo_inurba_marseille","lat":43.320045,"lon":5.415048,"is_reserved":false,"is_disabled":false,"rental_uris":{"android":"levelo://app?vid=12d93222-8545-4cbc-8d66-06921f4e0044","ios":"levelo://app?vid=12d93222-8545-4cbc-8d66-06921f4e0044"},"vehicle_type_id":"4","last_reported":1678565197,"current_range_meters":28400,"station_id":"ce4bhq92rcd13ifvqhkg","pricing_plan_id":"free"},{"bike_id":"5dd14ec1-75d5-496b-87fc-db177a17fe58","system_id":"levelo_inurba_marseille","lat":43.320045,"lon":5.415048,"is_reserved":false,"is_disabled":false,"rental_uris":{"android":"levelo://app?vid=5dd14ec1-75d5-496b-87fc-db177a17fe58","ios":"levelo://app?vid=5dd14ec1-75d5-496b-87fc-db177a17fe58"},"vehicle_type_id":"4","last_reported":1678565197,"current_range_meters":15200,"station_id":"ce4bhq92rcd13ifvqhkg","pricing_plan_id":"free"},{"bike_id":"86241b88-164f-4ead-ab7e-313f87213e2c","system_id":"levelo_inurba_marseille","lat":43.320045,"lon":5.415048,"is_reserved":false,"is_disabled":false,"rental_uris":{"android":"levelo://app?vid=86241b88-164f-4ead-ab7e-313f87213e2c","ios":"levelo://app?vid=86241b88-164f-4ead-ab7e-313f87213e2c"},"vehicle_type_id":"4","last_reported":1678565197,"current_range_meters":17600,"station_id":"ce4bhq92rcd13ifvqhkg","pricing_plan_id":"free"},{"bike_id":"652de2e5-7d4f-41be-8f9e-1dba6d0ea678","system_id":"levelo_inurba_marseille","lat":43.320045,"lon":5.415048,"is_reserved":false,"is_disabled":false,"rental_uris":{"android":"levelo://app?vid=652de2e5-7d4f-41be-8f9e-1dba6d0ea678","ios":"levelo://app?vid=652de2e5-7d4f-41be-8f9e-1dba6d0ea678"},"vehicle_type_id":"4","last_reported":1678565197,"current_range_meters":26400,"station_id":"ce4bhq92rcd13ifvqhkg","pricing_plan_id":"free"},{"bike_id":"8033fd04-d3dd-4935-9ba0-09ae37b10d3b","system_id":"levelo_inurba_marseille","lat":43.320045,"lon":5.415048,"is_reserved":false,"is_disabled":false,"rental_uris":{"android":"levelo://app?vid=8033fd04-d3dd-4935-9ba0-09ae37b10d3b","ios":"levelo://app?vid=8033fd04-d3dd-4935-9ba0-09ae37b10d3b"},"vehicle_type_id":"4","last_reported":1678565197,"current_range_meters":28800,"station_id":"ce4bhq92rcd13ifvqhkg","pricing_plan_id":"free"},{"bike_id":"d50a180f-4bf1-435b-84dd-39c937534f67","system_id":"levelo_inurba_marseille","lat":43.320045,"lon":5.415048,"is_reserved":false,"is_disabled":false,"rental_uris":{"android":"levelo://app?vid=d50a180f-4bf1-435b-84dd-39c937534f67","ios":"levelo://app?vid=d50a180f-4bf1-435b-84dd-39c937534f67"},"vehicle_type_id":"4","last_reported":1678565197,"current_range_meters":31600,"station_id":"ce4bhq92rcd13ifvqhkg","pricing_plan_id":"free"},{"bike_id":"b193c10f-b1c9-4e3a-a61b-12bc2ed175b1","system_id":"levelo_inurba_marseille","lat":43.320045,"lon":5.415048,"is_reserved":false,"is_disabled":false,"rental_uris":{"android":"levelo://app?vid=b193c10f-b1c9-4e3a-a61b-12bc2ed175b1","ios":"levelo://app?vid=b193c10f-b1c9-4e3a-a61b-12bc2ed175b1"},"vehicle_type_id":"4","last_reported":1678565197,"current_range_meters":31600,"station_id":"ce4bhq92rcd13ifvqhkg","pricing_plan_id":"free"},{"bike_id":"c5cdd435-bd84-46db-9a68-f6f7cc302d4f","system_id":"levelo_inurba_marseille","lat":43.320045,"lon":5.415048,"is_reserved":false,"is_disabled":false,"rental_uris":{"android":"levelo://app?vid=c5cdd435-bd84-46db-9a68-f6f7cc302d4f","ios":"levelo://app?vid=c5cdd435-bd84-46db-9a68-f6f7cc302d4f"},"vehicle_type_id":"4","last_reported":1678565197,"current_range_meters":26400,"station_id":"ce4bhq92rcd13ifvqhkg","pricing_plan_id":"free"},{"bike_id":"3a7414ed-8ced-42d2-951b-b0b79fed471f","system_id":"levelo_inurba_marseille","lat":43.320045,"lon":5.415048,"is_reserved":false,"is_disabled":false,"rental_uris":{"android":"levelo://app?vid=3a7414ed-8ced-42d2-951b-b0b79fed471f","ios":"levelo://app?vid=3a7414ed-8ced-42d2-951b-b0b79fed471f"},"vehicle_type_id":"4","last_reported":1678565197,"current_range_meters":24800,"station_id":"ce4bhq92rcd13ifvqhkg","pricing_plan_id":"free"},{"bike_id":"62d5ccff-05fe-4953-b201-2101628b29e2","system_id":"levelo_inurba_marseille","lat":43.320045,"lon":5.415048,"is_reserved":false,"is_disabled":false,"rental_uris":{"android":"levelo://app?vid=62d5ccff-05fe-4953-b201-2101628b29e2","ios":"levelo://app?vid=62d5ccff-05fe-4953-b201-2101628b29e2"},"vehicle_type_id":"4","last_reported":1678565197,"current_range_meters":29200,"station_id":"ce4bhq92rcd13ifvqhkg","pricing_plan_id":"free"},{"bike_id":"58f7f8eb-06e3-4828-b8f4-40d4adca1456","system_id":"levelo_inurba_marseille","lat":43.320045,"lon":5.415048,"is_reserved":false,"is_disabled":false,"rental_uris":{"android":"levelo://app?vid=58f7f8eb-06e3-4828-b8f4-40d4adca1456","ios":"levelo://app?vid=58f7f8eb-06e3-4828-b8f4-40d4adca1456"},"vehicle_type_id":"4","last_reported":1678565197,"current_range_meters":28400,"station_id":"ce4bhq92rcd13ifvqhkg","pricing_plan_id":"free"},{"bike_id":"fc310a87-5e94-4fdc-a419-ef9c0efa8e04","system_id":"levelo_inurba_marseille","lat":43.320045,"lon":5.415048,"is_reserved":false,"is_disabled":false,"rental_uris":{"android":"levelo://app?vid=fc310a87-5e94-4fdc-a419-ef9c0efa8e04","ios":"levelo://app?vid=fc310a87-5e94-4fdc-a419-ef9c0efa8e04"},"vehicle_type_id":"4","last_reported":1678565197,"current_range_meters":25600,"station_id":"ce4bhq92rcd13ifvqhkg","pricing_plan_id":"free"},{"bike_id":"6ee00e86-53a7-4a66-9a7b-f56ea3ca9a46","system_id":"levelo_inurba_marseille","lat":43.292591,"lon":5.408949,"is_reserved":false,"is_disabled":false,"rental_uris":{"android":"levelo://app?vid=6ee00e86-53a7-4a66-9a7b-f56ea3ca9a46","ios":"levelo://app?vid=6ee00e86-53a7-4a66-9a7b-f56ea3ca9a46"},"vehicle_type_id":"4","last_reported":1678565197,"current_range_meters":2400,"station_id":"ce4bh192rcd13ifvqdc0","pricing_plan_id":"free"},{"bike_id":"45b0a26b-fbe6-4f16-96bd-187a255706eb","system_id":"levelo_inurba_marseille","lat":43.3254,"lon":5.41437,"is_reserved":false,"is_disabled":false,"rental_uris":{"android":"levelo://app?vid=45b0a26b-fbe6-4f16-96bd-187a255706eb","ios":"levelo://app?vid=45b0a26b-fbe6-4f16-96bd-187a255706eb"},"vehicle_type_id":"4","last_reported":1678565197,"current_range_meters":24800,"station_id":"ce4bhq12rcd13ifvqhhg","pricing_plan_id":"free"},