{"last_updated":1781163172,"ttl":60,"version":"2.2","data":{"bikes":[{"bike_id":"ec12d144-24c8-4071-abf6-197e520eae96","system_id":"levelo_inurba_marseille","lat":43.337444,"lon":5.374475,"is_reserved":false,"is_disabled":false,"rental_uris":{"android":"levelo://app?vid=ec12d144-24c8-4071-abf6-197e520eae96","ios":"levelo://app?vid=ec12d144-24c8-4071-abf6-197e520eae96"},"vehicle_type_id":"4","last_reported":1781163173,"current_range_meters":0,"station_id":"","pricing_plan_id":"cebpf4jnsgd1na2vs0mg"},{"bike_id":"23488a26-a162-400a-8324-55264f214c48","system_id":"levelo_inurba_marseille","lat":43.25338,"lon":5.42159,"is_reserved":false,"is_disabled":false,"rental_uris":{"android":"levelo://app?vid=23488a26-a162-400a-8324-55264f214c48","ios":"levelo://app?vid=23488a26-a162-400a-8324-55264f214c48"},"vehicle_type_id":"4","last_reported":1781163173,"current_range_meters":2800,"station_id":"st_d2m65c5bi1j21697t3ng","pricing_plan_id":"cebpf4jnsgd1na2vs0mg"},{"bike_id":"32902832-9228-4afa-89fe-76729ec8218d","system_id":"levelo_inurba_marseille","lat":43.31447,"lon":5.37407,"is_reserved":false,"is_disabled":true,"rental_uris":{"android":"levelo://app?vid=32902832-9228-4afa-89fe-76729ec8218d","ios":"levelo://app?vid=32902832-9228-4afa-89fe-76729ec8218d"},"vehicle_type_id":"4","last_reported":1781163173,"current_range_meters":2800,"station_id":"","pricing_plan_id":"cebpf4jnsgd1na2vs0mg"},{"bike_id":"3e658393-96ce-44b7-bdea-fdd79e557932","system_id":"levelo_inurba_marseille","lat":43.31896,"lon":5.36827,"is_reserved":false,"is_disabled":false,"rental_uris":{"android":"levelo://app?vid=3e658393-96ce-44b7-bdea-fdd79e557932","ios":"levelo://app?vid=3e658393-96ce-44b7-bdea-fdd79e557932"},"vehicle_type_id":"4","last_reported":1781163173,"current_range_meters":2800,"station_id":"st_d6o2h0d0559c73evc1b0","pricing_plan_id":"cebpf4jnsgd1na2vs0mg"},{"bike_id":"4313e452-17f1-4f0e-aad1-72ae345ff246","system_id":"levelo_inurba_marseille","lat":43.28341,"lon":5.38103,"is_reserved":false,"is_disabled":true,"rental_uris":{"android":"levelo://app?vid=4313e452-17f1-4f0e-aad1-72ae345ff246","ios":"levelo://app?vid=4313e452-17f1-4f0e-aad1-72ae345ff246"},"vehicle_type_id":"4","last_reported":1781163173,"current_range_meters":2800,"station_id":"ce4bh412rcd13ifvqdr0","pricing_plan_id":"cebpf4jnsgd1na2vs0mg"},{"bike_id":"5ce31bd9-2c9f-4f01-96a5-6e567aeba930","system_id":"levelo_inurba_marseille","lat":43.31451,"lon":5.38467,"is_reserved":false,"is_disabled":false,"rental_uris":{"android":"levelo://app?vid=5ce31bd9-2c9f-4f01-96a5-6e567aeba930","ios":"levelo://app?vid=5ce31bd9-2c9f-4f01-96a5-6e567aeba930"},"vehicle_type_id":"4","last_reported":1781163173,"current_range_meters":2800,"station_id":"","pricing_plan_id":"cebpf4jnsgd1na2vs0mg"},{"bike_id":"2ea5e2f6-987d-40f7-878d-e553d501b666","system_id":"levelo_inurba_marseille","lat":43.30852,"lon":5.38264,"is_reserved":false,"is_disabled":false,"rental_uris":{"android":"levelo://app?vid=2ea5e2f6-987d-40f7-878d-e553d501b666","ios":"levelo://app?vid=2ea5e2f6-987d-40f7-878d-e553d501b666"},"vehicle_type_id":"4","last_reported":1781163173,"current_range_meters":2800,"station_id":"","pricing_plan_id":"cebpf4jnsgd1na2vs0mg"},{"bike_id":"be337c42-c63e-48a9-ac8a-e6d41d863eb7","system_id":"levelo_inurba_marseille","lat":43.30729,"lon":5.38367,"is_reserved":false,"is_disabled":false,"rental_uris":{"android":"levelo://app?vid=be337c42-c63e-48a9-ac8a-e6d41d863eb7","ios":"levelo://app?vid=be337c42-c63e-48a9-ac8a-e6d41d863eb7"},"vehicle_type_id":"4","last_reported":1781163173,"current_range_meters":2800,"station_id":"","pricing_plan_id":"cebpf4jnsgd1na2vs0mg"},{"bike_id":"e4dc29fe-e64c-403d-9270-b57d7fb8190c","system_id":"levelo_inurba_marseille","lat":43.30954,"lon":5.39027,"is_reserved":false,"is_disabled":false,"rental_uris":{"android":"levelo://app?vid=e4dc29fe-e64c-403d-9270-b57d7fb8190c","ios":"levelo://app?vid=e4dc29fe-e64c-403d-9270-b57d7fb8190c"},"vehicle_type_id":"4","last_reported":1781163173,"current_range_meters":2800,"station_id":"ce4bgup2rcd13ifvqco0","pricing_plan_id":"cebpf4jnsgd1na2vs0mg"},{"bike_id":"6f886f4f-ea45-44af-9213-ac25ec49e1df","system_id":"levelo_inurba_marseille","lat":43.33167,"lon":5.37679,"is_reserved":false,"is_disabled":false,"rental_uris":{"android":"levelo://app?vid=6f886f4f-ea45-44af-9213-ac25ec49e1df","ios":"levelo://app?vid=6f886f4f-ea45-44af-9213-ac25ec49e1df"},"vehicle_type_id":"4","last_reported":1781163173,"current_range_meters":2800,"station_id":"st_d46cu089ee8s73dldbu0","pricing_plan_id":"cebpf4jnsgd1na2vs0mg"},{"bike_id":"8889112d-9a30-4014-9764-5c0a53d7ca46","system_id":"levelo_inurba_marseille","lat":43.30625,"lon":5.43009,"is_reserved":false,"is_disabled":false,"rental_uris":{"android":"levelo://app?vid=8889112d-9a30-4014-9764-5c0a53d7ca46","ios":"levelo://app?vid=8889112d-9a30-4014-9764-5c0a53d7ca46"},"vehicle_type_id":"4","last_reported":1781163173,"current_range_meters":2800,"station_id":"","pricing_plan_id":"cebpf4jnsgd1na2vs0mg"},{"bike_id":"6a6f8558-691e-4abe-9cbf-d0230efdf77f","system_id":"levelo_inurba_marseille","lat":43.302775,"lon":5.37718,"is_reserved":false,"is_disabled":false,"rental_uris":{"android":"levelo://app?vid=6a6f8558-691e-4abe-9cbf-d0230efdf77f","ios":"levelo://app?vid=6a6f8558-691e-4abe-9cbf-d0230efdf77f"},"vehicle_type_id":"4","last_reported":1781163173,"current_range_meters":2800,"station_id":"ce4bguh2rcd13ifvqcj0","pricing_plan_id":"cebpf4jnsgd1na2vs0mg"},{"bike_id":"2b55f98b-b38f-49e4-af3a-a85f0cbaac2f","system_id":"levelo_inurba_marseille","lat":43.29762,"lon":5.37615,"is_reserved":false,"is_disabled":false,"rental_uris":{"android":"levelo://app?vid=2b55f98b-b38f-49e4-af3a-a85f0cbaac2f","ios":"levelo://app?vid=2b55f98b-b38f-49e4-af3a-a85f0cbaac2f"},"vehicle_type_id":"4","last_reported":1781163173,"current_range_meters":2800,"station_id":"","pricing_plan_id":"cebpf4jnsgd1na2vs0mg"},{"bike_id":"81155dd9-d6eb-406d-b66e-0ff8727816d1","system_id":"levelo_inurba_marseille","lat":43.31374,"lon":5.36684,"is_reserved":false,"is_disabled":false,"rental_uris":{"android":"levelo://app?vid=81155dd9-d6eb-406d-b66e-0ff8727816d1","ios":"levelo://app?vid=81155dd9-d6eb-406d-b66e-0ff8727816d1"},"vehicle_type_id":"4","last_reported":1781163173,"current_range_meters":2800,"station_id":"ce4bgr92rcd13ifvqc6g","pricing_plan_id":"cebpf4jnsgd1na2vs0mg"},{"bike_id":"7d4e1907-dcdd-4695-8cca-0c500275ed76","system_id":"levelo_inurba_marseille","lat":43.29254,"lon":5.37615,"is_reserved":false,"is_disabled":false,"rental_uris":{"android":"levelo://app?vid=7d4e1907-dcdd-4695-8cca-0c500275ed76","ios":"levelo://app?vid=7d4e1907-dcdd-4695-8cca-0c500275ed76"},"vehicle_type_id":"4","last_reported":1781163173,"current_range_meters":2800,"station_id":"ce4bgi12rcd13ifvqb80","pricing_plan_id":"cebpf4jnsgd1na2vs0mg"},{"bike_id":"7fadd987-b1a2-4c31-a4cd-5dedc0eb4ddf","system_id":"levelo_inurba_marseille","lat":43.28609,"lon":5.39887,"is_reserved":false,"is_disabled":false,"rental_uris":{"android":"levelo://app?vid=7fadd987-b1a2-4c31-a4cd-5dedc0eb4ddf","ios":"levelo://app?vid=7fadd987-b1a2-4c31-a4cd-5dedc0eb4ddf"},"vehicle_type_id":"4","last_reported":1781163173,"current_range_meters":2800,"station_id":"ce4bho92rcd13ifvqh3g","pricing_plan_id":"cebpf4jnsgd1na2vs0mg"},{"bike_id":"920f1313-0caf-4dcb-bf71-428dd902521b","system_id":"levelo_inurba_marseille","lat":43.26146,"lon":5.40997,"is_reserved":false,"is_disabled":false,"rental_uris":{"android":"levelo://app?vid=920f1313-0caf-4dcb-bf71-428dd902521b","ios":"levelo://app?vid=920f1313-0caf-4dcb-bf71-428dd902521b"},"vehicle_type_id":"4","last_reported":1781163173,"current_range_meters":2800,"station_id":"","pricing_plan_id":"cebpf4jnsgd1na2vs0mg"},{"bike_id":"7e5a0486-c416-466e-bddc-33236d605d57","system_id":"levelo_inurba_marseille","lat":43.280022,"lon":5.39997,"is_reserved":false,"is_disabled":false,"rental_uris":{"android":"levelo://app?vid=7e5a0486-c416-466e-bddc-33236d605d57","ios":"levelo://app?vid=7e5a0486-c416-466e-bddc-33236d605d57"},"vehicle_type_id":"4","last_reported":1781163173,"current_range_meters":3200,"station_id":"ce4bho92rcd13ifvqh4g","pricing_plan_id":"cebpf4jnsgd1na2vs0mg"},{"bike_id":"f095e9b8-2a5a-4b32-bff8-de2e54cafb9a","system_id":"levelo_inurba_marseille","lat":43.281,"lon":5.37851,"is_reserved":false,"is_disabled":false,"rental_uris":{"android":"levelo://app?vid=f095e9b8-2a5a-4b32-bff8-de2e54cafb9a","ios":"levelo://app?vid=f095e9b8-2a5a-4b32-bff8-de2e54cafb9a"},"vehicle_type_id":"4","last_reported":1781163173,"current_range_meters":3200,"station_id":"ce4bha12rcd13ifvqee0","pricing_plan_id":"cebpf4jnsgd1na2vs0mg"},{"bike_id":"e97ad386-58d9-46a5-b4fe-e47bdfacb483","system_id":"levelo_inurba_marseille","lat":43.27079,"lon":5.42292,"is_reserved":false,"is_disabled":true,"rental_uris":{"android":"levelo://app?vid=e97ad386-58d9-46a5-b4fe-e47bdfacb483","ios":"levelo://app?vid=e97ad386-58d9-46a5-b4fe-e47bdfacb483"},"vehicle_type_id":"4","last_reported":1781163173,"current_range_meters":3200,"station_id":"ce4bhk92rcd13ifvqgb0","pricing_plan_id":"cebpf4jnsgd1na2vs0mg"},{"bike_id":"1dc2eb10-0c51-4525-ba6b-2819a0b2f48f","system_id":"levelo_inurba_marseille","lat":43.32351,"lon":5.36731,"is_reserved":false,"is_disabled":false,"rental_uris":{"android":"levelo://app?vid=1dc2eb10-0c51-4525-ba6b-2819a0b2f48f","ios":"levelo://app?vid=1dc2eb10-0c51-4525-ba6b-2819a0b2f48f"},"vehicle_type_id":"4","last_reported":1781163173,"current_range_meters":3200,"station_id":"ce4bhsh2rcd13ifvqi2g","pricing_plan_id":"cebpf4jnsgd1na2vs0mg"},{"bike_id":"5f45f485-764a-4056-bec3-0e2b75f6d60f","system_id":"levelo_inurba_marseille","lat":43.3001,"lon":5.3768,"is_reserved":false,"is_disabled":false,"rental_uris":{"android":"levelo://app?vid=5f45f485-764a-4056-bec3-0e2b75f6d60f","ios":"levelo://app?vid=5f45f485-764a-4056-bec3-0e2b75f6d60f"},"vehicle_type_id":"4","last_reported":1781163173,"current_range_meters":3200,"station_id":"","pricing_plan_id":"cebpf4jnsgd1na2vs0mg"},{"bike_id":"4d001717-548d-4505-aa0b-0395100e1971","system_id":"levelo_inurba_marseille","lat":43.29793,"lon":5.37082,"is_reserved":false,"is_disabled":false,"rental_uris":{"android":"levelo://app?vid=4d001717-548d-4505-aa0b-0395100e1971","ios":"levelo://app?vid=4d001717-548d-4505-aa0b-0395100e1971"},"vehicle_type_id":"4","last_reported":1781163173,"current_range_meters":3200,"station_id":"ce4bgop2rcd13ifvqc1g","pricing_plan_id":"cebpf4jnsgd1na2vs0mg"},{"bike_id":"ef7c0ad7-d410-4165-b98d-0dfc9a5aa0dd","system_id":"levelo_inurba_marseille","lat":43.32562,"lon":5.41203,"is_reserved":false,"is_disabled":false,"rental_uris":{"android":"levelo://app?vid=ef7c0ad7-d410-4165-b98d-0dfc9a5aa0dd","ios":"levelo://app?vid=ef7c0ad7-d410-4165-b98d-0dfc9a5aa0dd"},"vehicle_type_id":"4","last_reported":1781163173,"current_range_meters":3200,"station_id":"","pricing_plan_id":"cebpf4jnsgd1na2vs0mg"},{"bike_id":"f8a31b76-8e0f-415a-8bb2-7292db18e3c4","system_id":"levelo_inurba_marseille","lat":43.28477,"lon":5.3912,"is_reserved":false,"is_disabled":false,"rental_uris":{"android":"levelo://app?vid=f8a31b76-8e0f-415a-8bb2-7292db18e3c4","ios":"levelo://app?vid=f8a31b76-8e0f-415a-8bb2-7292db18e3c4"},"vehicle_type_id":"4","last_reported":1781163173,"current_range_meters":3200,"station_id":"","pricing_plan_id":"cebpf4jnsgd1na2vs0mg"},{"bike_id":"a1e31850-ef22-4bb8-933d-3a515b05116f","system_id":"levelo_inurba_marseille","lat":43.31124,"lon":5.37768,"is_reserved":false,"is_disabled":true,"rental_uris":{"android":"levelo://app?vid=a1e31850-ef22-4bb8-933d-3a515b05116f","ios":"levelo://app?vid=a1e31850-ef22-4bb8-933d-3a515b05116f"},"vehicle_type_id":"4","last_reported":1781163173,"current_range_meters":3200,"station_id":"ce4bgt92rcd13ifvqcg0","pricing_plan_id":"cebpf4jnsgd1na2vs0mg"},{"bike_id":"73e5ef67-c361-4dcc-aea5-df181a39780f","system_id":"levelo_inurba_marseille","lat":43.25514,"lon":5.3766,"is_reserved":false,"is_disabled":false,"rental_uris":{"android":"levelo://app?vid=73e5ef67-c361-4dcc-aea5-df181a39780f","ios":"levelo://app?vid=73e5ef67-c361-4dcc-aea5-df181a39780f"},"vehicle_type_id":"4","last_reported":1781163173,"current_range_meters":3200,"station_id":"ce4bhh12rcd13ifvqff0","pricing_plan_id":"cebpf4jnsgd1na2vs0mg"},{"bike_id":"de9d9135-b13b-46f8-bef8-05aa0affef31","system_id":"levelo_inurba_marseille","lat":43.23146,"lon":5.43722,"is_reserved":false,"is_disabled":false,"rental_uris":{"android":"levelo://app?vid=de9d9135-b13b-46f8-bef8-05aa0affef31","ios":"levelo://app?vid=de9d9135-b13b-46f8-bef8-05aa0affef31"},"vehicle_type_id":"4","last_reported":1781163173,"current_range_meters":3200,"station_id":"ce4bhmp2rcd13ifvqgog","pricing_plan_id":"cebpf4jnsgd1na2vs0mg"},{"bike_id":"f84d8d24-ab91-4db9-93aa-6230dd0589f2","system_id":"levelo_inurba_marseille","lat":43.28614,"lon":5.35093,"is_reserved":false,"is_disabled":true,"rental_uris":{"android":"levelo://app?vid=f84d8d24-ab91-4db9-93aa-6230dd0589f2","ios":"levelo://app?vid=f84d8d24-ab91-4db9-93aa-6230dd0589f2"},"vehicle_type_id":"4","last_reported":1781163173,"current_range_meters":3200,"station_id":"ce4bhch2rcd13ifvqeug","pricing_plan_id":"cebpf4jnsgd1na2vs0mg"},{"bike_id":"1140d017-c3b9-43dd-ba73-6e5a45e2fcc8","system_id":"levelo_inurba_marseille","lat":43.31906,"lon":5.38201,"is_reserved":false,"is_disabled":false,"rental_uris":{"android":"levelo://app?vid=1140d017-c3b9-43dd-ba73-6e5a45e2fcc8","ios":"levelo://app?vid=1140d017-c3b9-43dd-ba73-6e5a45e2fcc8"},"vehicle_type_id":"4","last_reported":1781163173,"current_range_meters":3200,"station_id":"","pricing_plan_id":"cebpf4jnsgd1na2vs0mg"},{"bike_id":"732fedb5-5c33-4a5d-9e2c-0d072fb17891","system_id":"levelo_inurba_marseille","lat":43.28945,"lon":5.39608,"is_reserved":false,"is_disabled":false,"rental_uris":{"android":"levelo://app?vid=732fedb5-5c33-4a5d-9e2c-0d072fb17891","ios":"levelo://app?vid=732fedb5-5c33-4a5d-9e2c-0d072fb17891"},"vehicle_type_id":"4","last_reported":1781163173,"current_range_meters":3200,"station_id":"ce4bh3h2rcd13ifvqdn0","pricing_plan_id":"cebpf4jnsgd1na2vs0mg"},{"bike_id":"81a82297-bdd1-43ff-9c66-f58529d43fc0","system_id":"levelo_inurba_marseille","lat":43.2956,"lon":5.42287,"is_reserved":false,"is_disabled":false,"rental_uris":{"android":"levelo://app?vid=81a82297-bdd1-43ff-9c66-f58529d43fc0","ios":"levelo://app?vid=81a82297-bdd1-43ff-9c66-f58529d43fc0"},"vehicle_type_id":"4","last_reported":1781163173,"current_range_meters":3200,"station_id":"ce4bhph2rcd13ifvqhdg","pricing_plan_id":"cebpf4jnsgd1na2vs0mg"},{"bike_id":"d8894ae8-c26b-43e4-9e77-71e40945a2db","system_id":"levelo_inurba_marseille","lat":43.29901,"lon":5.37152,"is_reserved":false,"is_disabled":false,"rental_uris":{"android":"levelo://app?vid=d8894ae8-c26b-43e4-9e77-71e40945a2db","ios":"levelo://app?vid=d8894ae8-c26b-43e4-9e77-71e40945a2db"},"vehicle_type_id":"4","last_reported":1781163173,"current_range_meters":3600,"station_id":"","pricing_plan_id":"cebpf4jnsgd1na2vs0mg"},{"bike_id":"8bc3129f-5a06-4c33-9807-ad2d49260525","system_id":"levelo_inurba_marseille","lat":43.30542,"lon":5.36686,"is_reserved":false,"is_disabled":false,"rental_uris":{"android":"levelo://app?vid=8bc3129f-5a06-4c33-9807-ad2d49260525","ios":"levelo://app?vid=8bc3129f-5a06-4c33-9807-ad2d49260525"},"vehicle_type_id":"4","last_reported":1781163173,"current_range_meters":3600,"station_id":"ce4bgrp2rcd13ifvqc9g","pricing_plan_id":"cebpf4jnsgd1na2vs0mg"},{"bike_id":"2a916c05-371d-4b51-8b06-60610eaed15f","system_id":"levelo_inurba_marseille","lat":43.30593,"lon":5.37248,"is_reserved":false,"is_disabled":false,"rental_uris":{"android":"levelo://app?vid=2a916c05-371d-4b51-8b06-60610eaed15f","ios":"levelo://app?vid=2a916c05-371d-4b51-8b06-60610eaed15f"},"vehicle_type_id":"4","last_reported":1781163173,"current_range_meters":3600,"station_id":"ce4bgqh2rcd13ifvqc4g","pricing_plan_id":"cebpf4jnsgd1na2vs0mg"},{"bike_id":"3e8e5996-dbc6-4c7e-aa74-2e0c8a024313","system_id":"levelo_inurba_marseille","lat":43.33144,"lon":5.37666,"is_reserved":false,"is_disabled":false,"rental_uris":{"android":"levelo://app?vid=3e8e5996-dbc6-4c7e-aa74-2e0c8a024313","ios":"levelo://app?vid=3e8e5996-dbc6-4c7e-aa74-2e0c8a024313"},"vehicle_type_id":"4","last_reported":1781163173,"current_range_meters":3600,"station_id":"st_d46cu089ee8s73dldbu0","pricing_plan_id":"cebpf4jnsgd1na2vs0mg"},{"bike_id":"c9b2220e-f3e4-4c7a-80f9-cc88d841a349","system_id":"levelo_inurba_marseille","lat":43.3315,"lon":5.35493,"is_reserved":false,"is_disabled":false,"rental_uris":{"android":"levelo://app?vid=c9b2220e-f3e4-4c7a-80f9-cc88d841a349","ios":"levelo://app?vid=c9b2220e-f3e4-4c7a-80f9-cc88d841a349"},"vehicle_type_id":"4","last_reported":1781163173,"current_range_meters":3600,"station_id":"","pricing_plan_id":"cebpf4jnsgd1na2vs0mg"},{"bike_id":"2703b7fb-a199-40c4-973b-9bbda4ce16fc","system_id":"levelo_inurba_marseille","lat":43.28134,"lon":5.40106,"is_reserved":false,"is_disabled":false,"rental_uris":{"android":"levelo://app?vid=2703b7fb-a199-40c4-973b-9bbda4ce16fc","ios":"levelo://app?vid=2703b7fb-a199-40c4-973b-9bbda4ce16fc"},"vehicle_type_id":"4","last_reported":1781163173,"current_range_meters":3600,"station_id":"","pricing_plan_id":"cebpf4jnsgd1na2vs0mg"},{"bike_id":"95419af6-d198-447e-9eb8-9fff749eb92a","system_id":"levelo_inurba_marseille","lat":43.32115,"lon":5.3676,"is_reserved":false,"is_disabled":false,"rental_uris":{"android":"levelo://app?vid=95419af6-d198-447e-9eb8-9fff749eb92a","ios":"levelo://app?vid=95419af6-d198-447e-9eb8-9fff749eb92a"},"vehicle_type_id":"4","last_reported":1781163173,"current_range_meters":3600,"station_id":"ce4bhrh2rcd13ifvqhug","pricing_plan_id":"cebpf4jnsgd1na2vs0mg"},{"bike_id":"d08e0f1d-ab2f-4e29-9f65-8e64f00d3014","system_id":"levelo_inurba_marseille","lat":43.30964,"lon":5.39049,"is_reserved":false,"is_disabled":false,"rental_uris":{"android":"levelo://app?vid=d08e0f1d-ab2f-4e29-9f65-8e64f00d3014","ios":"levelo://app?vid=d08e0f1d-ab2f-4e29-9f65-8e64f00d3014"},"vehicle_type_id":"4","last_reported":1781163173,"current_range_meters":3600,"station_id":"ce4bgup2rcd13ifvqco0","pricing_plan_id":"cebpf4jnsgd1na2vs0mg"},{"bike_id":"76d09565-aa02-41fd-b414-550f4f29ecb5","system_id":"levelo_inurba_marseille","lat":43.28341,"lon":5.36497,"is_reserved":false,"is_disabled":false,"rental_uris":{"android":"levelo://app?vid=76d09565-aa02-41fd-b414-550f4f29ecb5","ios":"levelo://app?vid=76d09565-aa02-41fd-b414-550f4f29ecb5"},"vehicle_type_id":"4","last_reported":1781163173,"current_range_meters":3600,"station_id":"","pricing_plan_id":"cebpf4jnsgd1na2vs0mg"},{"bike_id":"45ce06fe-30a1-49bb-b8bf-eb3d1814617f","system_id":"levelo_inurba_marseille","lat":43.33024,"lon":5.39037,"is_reserved":false,"is_disabled":false,"rental_uris":{"android":"levelo://app?vid=45ce06fe-30a1-49bb-b8bf-eb3d1814617f","ios":"levelo://app?vid=45ce06fe-30a1-49bb-b8bf-eb3d1814617f"},"vehicle_type_id":"4","last_reported":1781163173,"current_range_meters":3600,"station_id":"ce4bhr92rcd13ifvqhrg","pricing_plan_id":"cebpf4jnsgd1na2vs0mg"},{"bike_id":"abb78f7f-a1f1-4efa-ae79-de495c6faf89","system_id":"levelo_inurba_marseille","lat":43.29746,"lon":5.38942,"is_reserved":false,"is_disabled":false,"rental_uris":{"android":"levelo://app?vid=abb78f7f-a1f1-4efa-ae79-de495c6faf89","ios":"levelo://app?vid=abb78f7f-a1f1-4efa-ae79-de495c6faf89"},"vehicle_type_id":"4","last_reported":1781163173,"current_range_meters":3600,"station_id":"","pricing_plan_id":"cebpf4jnsgd1na2vs0mg"},{"bike_id":"234031d3-0384-41b3-83ca-b9f62101a532","system_id":"levelo_inurba_marseille","lat":43.31404,"lon":5.36639,"is_reserved":false,"is_disabled":false,"rental_uris":{"android":"levelo://app?vid=234031d3-0384-41b3-83ca-b9f62101a532","ios":"levelo://app?vid=234031d3-0384-41b3-83ca-b9f62101a532"},"vehicle_type_id":"4","last_reported":1781163173,"current_range_meters":3600,"station_id":"ce4bgr92rcd13ifvqc6g","pricing_plan_id":"cebpf4jnsgd1na2vs0mg"},{"bike_id":"83783ea4-5f99-4109-9289-7f429cce3820","system_id":"levelo_inurba_marseille","lat":43.28476,"lon":5.48403,"is_reserved":false,"is_disabled":false,"rental_uris":{"android":"levelo://app?vid=83783ea4-5f99-4109-9289-7f429cce3820","ios":"levelo://app?vid=83783ea4-5f99-4109-9289-7f429cce3820"},"vehicle_type_id":"4","last_reported":1781163173,"current_range_meters":3600,"station_id":"st_d3svhcjqgbts73a3dn0g","pricing_plan_id":"cebpf4jnsgd1na2vs0mg"},{"bike_id":"e598b8ea-d46e-4936-8117-e87b9fbc734d","system_id":"levelo_inurba_marseille","lat":43.24464,"lon":5.42536,"is_reserved":false,"is_disabled":false,"rental_uris":{"android":"levelo://app?vid=e598b8ea-d46e-4936-8117-e87b9fbc734d","ios":"levelo://app?vid=e598b8ea-d46e-4936-8117-e87b9fbc734d"},"vehicle_type_id":"4","last_reported":1781163173,"current_range_meters":3600,"station_id":"st_d4a3vfp97mjs738cd8kg","pricing_plan_id":"cebpf4jnsgd1na2vs0mg"},{"bike_id":"ee90cbc8-cf86-44b0-badd-4016027f9333","system_id":"levelo_inurba_marseille","lat":43.33729,"lon":5.39201,"is_reserved":false,"is_disabled":false,"rental_uris":{"android":"levelo://app?vid=ee90cbc8-cf86-44b0-badd-4016027f9333","ios":"levelo://app?vid=ee90cbc8-cf86-44b0-badd-4016027f9333"},"vehicle_type_id":"4","last_reported":1781163173,"current_range_meters":3600,"station_id":"ce4bhr92rcd13ifvqhsg","pricing_plan_id":"cebpf4jnsgd1na2vs0mg"},{"bike_id":"e3f195c1-68de-441e-ba78-12bea24338a5","system_id":"levelo_inurba_marseille","lat":43.25627,"lon":5.41851,"is_reserved":false,"is_disabled":false,"rental_uris":{"android":"levelo://app?vid=e3f195c1-68de-441e-ba78-12bea24338a5","ios":"levelo://app?vid=e3f195c1-68de-441e-ba78-12bea24338a5"},"vehicle_type_id":"4","last_reported":1781163173,"current_range_meters":3600,"station_id":"","pricing_plan_id":"cebpf4jnsgd1na2vs0mg"},{"bike_id":"8ff9db96-b188-419a-9248-95988cbc1665","system_id":"levelo_inurba_marseille","lat":43.31481,"lon":5.37305,"is_reserved":false,"is_disabled":false,"rental_uris":{"android":"levelo://app?vid=8ff9db96-b188-419a-9248-95988cbc1665","ios":"levelo://app?vid=8ff9db96-b188-419a-9248-95988cbc1665"},"vehicle_type_id":"4","last_reported":1781163173,"current_range_meters":4000,"station_id":"ce4bgt12rcd13ifvqcd0","pricing_plan_id":"cebpf4jnsgd1na2vs0mg"},{"bike_id":"a8cff10f-925f-47d3-8d2a-4913d17e9425","system_id":"levelo_inurba_marseille","lat":43.30153,"lon":5.40038,"is_reserved":false,"is_disabled":true,"rental_uris":{"android":"levelo://app?vid=a8cff10f-925f-47d3-8d2a-4913d17e9425","ios":"levelo://app?vid=a8cff10f-925f-47d3-8d2a-4913d17e9425"},"vehicle_type_id":"4","last_reported":1781163173,"current_range_meters":4000,"station_id":"","pricing_plan_id":"cebpf4jnsgd1na2vs0mg"},{"bike_id":"9689be58-7817-4df4-af10-289bd3c3fbbb","system_id":"levelo_inurba_marseille","lat":43.29012,"lon":5.38124,"is_reserved":false,"is_disabled":false,"rental_uris":{"android":"levelo://app?vid=9689be58-7817-4df4-af10-289bd3c3fbbb","ios":"levelo://app?vid=9689be58-7817-4df4-af10-289bd3c3fbbb"},"vehicle_type_id":"4","last_reported":1781163173,"current_range_meters":4000,"station_id":"ce4bh4p2rcd13ifvqe1g","pricing_plan_id":"cebpf4jnsgd1na2vs0mg"},{"bike_id":"df10c025-f144-4346-a678-3c2c70800370","system_id":"levelo_inurba_marseille","lat":43.27186,"lon":5.41005,"is_reserved":false,"is_disabled":false,"rental_uris":{"android":"levelo://app?vid=df10c025-f144-4346-a678-3c2c70800370","ios":"levelo://app?vid=df10c025-f144-4346-a678-3c2c70800370"},"vehicle_type_id":"4","last_reported":1781163173,"current_range_meters":4000,"station_id":"ce4bhl12rcd13ifvqgf0","pricing_plan_id":"cebpf4jnsgd1na2vs0mg"},{"bike_id":"ec16fda8-b3f1-404d-82f3-9d66dff83c19","system_id":"levelo_inurba_marseille","lat":43.31996,"lon":5.38147,"is_reserved":false,"is_disabled":false,"rental_uris":{"android":"levelo://app?vid=ec16fda8-b3f1-404d-82f3-9d66dff83c19","ios":"levelo://app?vid=ec16fda8-b3f1-404d-82f3-9d66dff83c19"},"vehicle_type_id":"4","last_reported":1781163173,"current_range_meters":4000,"station_id":"ce4bhr12rcd13ifvqhpg","pricing_plan_id":"cebpf4jnsgd1na2vs0mg"},{"bike_id":"11a15681-a55f-45b2-b38d-3ba53221a964","system_id":"levelo_inurba_marseille","lat":43.2958,"lon":5.37524,"is_reserved":false,"is_disabled":false,"rental_uris":{"android":"levelo://app?vid=11a15681-a55f-45b2-b38d-3ba53221a964","ios":"levelo://app?vid=11a15681-a55f-45b2-b38d-3ba53221a964"},"vehicle_type_id":"4","last_reported":1781163173,"current_range_meters":4000,"station_id":"ce4bgh92rcd13ifvqb50","pricing_plan_id":"cebpf4jnsgd1na2vs0mg"},{"bike_id":"6cc12bbc-d98c-4e10-8400-06767c1cf1fa","system_id":"levelo_inurba_marseille","lat":43.24821,"lon":5.37456,"is_reserved":false,"is_disabled":false,"rental_uris":{"android":"levelo://app?vid=6cc12bbc-d98c-4e10-8400-06767c1cf1fa","ios":"levelo://app?vid=6cc12bbc-d98c-4e10-8400-06767c1cf1fa"},"vehicle_type_id":"4","last_reported":1781163173,"current_range_meters":4000,"station_id":"ce4bhgh2rcd13ifvqfb0","pricing_plan_id":"cebpf4jnsgd1na2vs0mg"},{"bike_id":"951ce970-b414-4ee7-9eae-b1a351dd20cf","system_id":"levelo_inurba_marseille","lat":43.28475,"lon":5.48406,"is_reserved":false,"is_disabled":false,"rental_uris":{"android":"levelo://app?vid=951ce970-b414-4ee7-9eae-b1a351dd20cf","ios":"levelo://app?vid=951ce970-b414-4ee7-9eae-b1a351dd20cf"},"vehicle_type_id":"4","last_reported":1781163173,"current_range_meters":4000,"station_id":"st_d3svhcjqgbts73a3dn0g","pricing_plan_id":"cebpf4jnsgd1na2vs0mg"},{"bike_id":"1ce92a12-47ec-401a-9340-bf1dc91c5036","system_id":"levelo_inurba_marseille","lat":43.27383,"lon":5.36254,"is_reserved":false,"is_disabled":false,"rental_uris":{"android":"levelo://app?vid=1ce92a12-47ec-401a-9340-bf1dc91c5036","ios":"levelo://app?vid=1ce92a12-47ec-401a-9340-bf1dc91c5036"},"vehicle_type_id":"4","last_reported":1781163173,"current_range_meters":4000,"station_id":"ce4bhbh2rcd13ifvqeo0","pricing_plan_id":"cebpf4jnsgd1na2vs0mg"},{"bike_id":"e1727bda-1e5d-48d1-bf61-2cffa26ec8c0","system_id":"levelo_inurba_marseille","lat":43.28474,"lon":5.35881,"is_reserved":false,"is_disabled":true,"rental_uris":{"android":"levelo://app?vid=e1727bda-1e5d-48d1-bf61-2cffa26ec8c0","ios":"levelo://app?vid=e1727bda-1e5d-48d1-bf61-2cffa26ec8c0"},"vehicle_type_id":"4","last_reported":1781163173,"current_range_meters":4000,"station_id":"ce4bhah2rcd13ifvqei0","pricing_plan_id":"cebpf4jnsgd1na2vs0mg"},{"bike_id":"a17b4123-6c9a-4347-8911-3009c9c6c2bf","system_id":"levelo_inurba_marseille","lat":43.30917,"lon":5.36849,"is_reserved":false,"is_disabled":true,"rental_uris":{"android":"levelo://app?vid=a17b4123-6c9a-4347-8911-3009c9c6c2bf","ios":"levelo://app?vid=a17b4123-6c9a-4347-8911-3009c9c6c2bf"},"vehicle_type_id":"4","last_reported":1781163173,"current_range_meters":4000,"station_id":"ce4bgn92rcd13ifvqbvg","pricing_plan_id":"cebpf4jnsgd1na2vs0mg"},{"bike_id":"6d1fe721-eceb-4809-a5fc-55d60977f503","system_id":"levelo_inurba_marseille","lat":43.28633,"lon":5.35085,"is_reserved":false,"is_disabled":true,"rental_uris":{"android":"levelo://app?vid=6d1fe721-eceb-4809-a5fc-55d60977f503","ios":"levelo://app?vid=6d1fe721-eceb-4809-a5fc-55d60977f503"},"vehicle_type_id":"4","last_reported":1781163173,"current_range_meters":4000,"station_id":"ce4bhch2rcd13ifvqeug","pricing_plan_id":"cebpf4jnsgd1na2vs0mg"},{"bike_id":"fc826026-2325-4c9d-9e22-cebf11ed21bf","system_id":"levelo_inurba_marseille","lat":43.28416,"lon":5.34966,"is_reserved":false,"is_disabled":false,"rental_uris":{"android":"levelo://app?vid=fc826026-2325-4c9d-9e22-cebf11ed21bf","ios":"levelo://app?vid=fc826026-2325-4c9d-9e22-cebf11ed21bf"},"vehicle_type_id":"4","last_reported":1781163173,"current_range_meters":4000,"station_id":"ce4bhbh2rcd13ifvqepg","pricing_plan_id":"cebpf4jnsgd1na2vs0mg"},{"bike_id":"17b2175d-8521-4ed0-b95a-dcd1034c2a89","system_id":"levelo_inurba_marseille","lat":43.296278,"lon":5.376958,"is_reserved":false,"is_disabled":false,"rental_uris":{"android":"levelo://app?vid=17b2175d-8521-4ed0-b95a-dcd1034c2a89","ios":"levelo://app?vid=17b2175d-8521-4ed0-b95a-dcd1034c2a89"},"vehicle_type_id":"4","last_reported":1781163173,"current_range_meters":4000,"station_id":"","pricing_plan_id":"cebpf4jnsgd1na2vs0mg"},{"bike_id":"581f325e-9ff5-4ff3-ac32-3a5e78abdd74","system_id":"levelo_inurba_marseille","lat":43.30546,"lon":5.36541,"is_reserved":false,"is_disabled":false,"rental_uris":{"android":"levelo://app?vid=581f325e-9ff5-4ff3-ac32-3a5e78abdd74","ios":"levelo://app?vid=581f325e-9ff5-4ff3-ac32-3a5e78abdd74"},"vehicle_type_id":"4","last_reported":1781163173,"current_range_meters":4000,"station_id":"ce4bgs12rcd13ifvqcag","pricing_plan_id":"cebpf4jnsgd1na2vs0mg"},{"bike_id":"4028e588-c2bc-496e-a911-ea895c92cb29","system_id":"levelo_inurba_marseille","lat":43.24464,"lon":5.42543,"is_reserved":false,"is_disabled":false,"rental_uris":{"android":"levelo://app?vid=4028e588-c2bc-496e-a911-ea895c92cb29","ios":"levelo://app?vid=4028e588-c2bc-496e-a911-ea895c92cb29"},"vehicle_type_id":"4","last_reported":1781163173,"current_range_meters":4000,"station_id":"st_d4a3vfp97mjs738cd8kg","pricing_plan_id":"cebpf4jnsgd1na2vs0mg"},{"bike_id":"a359d33f-688b-4843-bf0e-19ddaa6f86dc","system_id":"levelo_inurba_marseille","lat":43.31367,"lon":5.3669,"is_reserved":false,"is_disabled":false,"rental_uris":{"android":"levelo://app?vid=a359d33f-688b-4843-bf0e-19ddaa6f86dc","ios":"levelo://app?vid=a359d33f-688b-4843-bf0e-19ddaa6f86dc"},"vehicle_type_id":"4","last_reported":1781163173,"current_range_meters":4400,"station_id":"ce4bgr92rcd13ifvqc6g","pricing_plan_id":"cebpf4jnsgd1na2vs0mg"},{"bike_id":"2e07d43e-1d15-4f78-9c56-e234cec1a6e1","system_id":"levelo_inurba_marseille","lat":43.29573,"lon":5.38175,"is_reserved":false,"is_disabled":true,"rental_uris":{"android":"levelo://app?vid=2e07d43e-1d15-4f78-9c56-e234cec1a6e1","ios":"levelo://app?vid=2e07d43e-1d15-4f78-9c56-e234cec1a6e1"},"vehicle_type_id":"4","last_reported":1781163173,"current_range_meters":4400,"station_id":"","pricing_plan_id":"cebpf4jnsgd1na2vs0mg"},{"bike_id":"d948199a-0f50-4b9f-b67d-bbf3d32d4851","system_id":"levelo_inurba_marseille","lat":43.30207,"lon":5.36606,"is_reserved":false,"is_disabled":false,"rental_uris":{"android":"levelo://app?vid=d948199a-0f50-4b9f-b67d-bbf3d32d4851","ios":"levelo://app?vid=d948199a-0f50-4b9f-b67d-bbf3d32d4851"},"vehicle_type_id":"4","last_reported":1781163173,"current_range_meters":4400,"station_id":"ce4bgrh2rcd13ifvqc8g","pricing_plan_id":"cebpf4jnsgd1na2vs0mg"},{"bike_id":"c46384f4-53c8-4f51-8b80-c45773b69697","system_id":"levelo_inurba_marseille","lat":43.30137,"lon":5.37723,"is_reserved":false,"is_disabled":false,"rental_uris":{"android":"levelo://app?vid=c46384f4-53c8-4f51-8b80-c45773b69697","ios":"levelo://app?vid=c46384f4-53c8-4f51-8b80-c45773b69697"},"vehicle_type_id":"4","last_reported":1781163173,"current_range_meters":4400,"station_id":"","pricing_plan_id":"cebpf4jnsgd1na2vs0mg"},{"bike_id":"9f60b1cf-7eb1-4ced-bd66-bbe2f6bb00b5","system_id":"levelo_inurba_marseille","lat":43.25512,"lon":5.37663,"is_reserved":false,"is_disabled":true,"rental_uris":{"android":"levelo://app?vid=9f60b1cf-7eb1-4ced-bd66-bbe2f6bb00b5","ios":"levelo://app?vid=9f60b1cf-7eb1-4ced-bd66-bbe2f6bb00b5"},"vehicle_type_id":"4","last_reported":1781163173,"current_range_meters":4400,"station_id":"ce4bhh12rcd13ifvqff0","pricing_plan_id":"cebpf4jnsgd1na2vs0mg"},{"bike_id":"2a8ee5a0-6852-44b0-a6e2-f4e4bf4a3fe5","system_id":"levelo_inurba_marseille","lat":43.25508,"lon":5.38937,"is_reserved":false,"is_disabled":true,"rental_uris":{"android":"levelo://app?vid=2a8ee5a0-6852-44b0-a6e2-f4e4bf4a3fe5","ios":"levelo://app?vid=2a8ee5a0-6852-44b0-a6e2-f4e4bf4a3fe5"},"vehicle_type_id":"4","last_reported":1781163173,"current_range_meters":4400,"station_id":"","pricing_plan_id":"cebpf4jnsgd1na2vs0mg"},{"bike_id":"89e0ab8b-6344-4103-87e9-567c0b71abef","system_id":"levelo_inurba_marseille","lat":43.23158,"lon":5.43687,"is_reserved":false,"is_disabled":false,"rental_uris":{"android":"levelo://app?vid=89e0ab8b-6344-4103-87e9-567c0b71abef","ios":"levelo://app?vid=89e0ab8b-6344-4103-87e9-567c0b71abef"},"vehicle_type_id":"4","last_reported":1781163173,"current_range_meters":4400,"station_id":"ce4bhmp2rcd13ifvqgog","pricing_plan_id":"cebpf4jnsgd1na2vs0mg"},{"bike_id":"fc350a8d-e63a-4c44-b7f1-ea31e31b520d","system_id":"levelo_inurba_marseille","lat":43.3176,"lon":5.39008,"is_reserved":false,"is_disabled":false,"rental_uris":{"android":"levelo://app?vid=fc350a8d-e63a-4c44-b7f1-ea31e31b520d","ios":"levelo://app?vid=fc350a8d-e63a-4c44-b7f1-ea31e31b520d"},"vehicle_type_id":"4","last_reported":1781163173,"current_range_meters":4400,"station_id":"ce4bhqp2rcd13ifvqhng","pricing_plan_id":"cebpf4jnsgd1na2vs0mg"},{"bike_id":"ed395267-d9fc-4dd7-ac4a-db71bc4d29c7","system_id":"levelo_inurba_marseille","lat":43.22533,"lon":5.348372,"is_reserved":false,"is_disabled":false,"rental_uris":{"android":"levelo://app?vid=ed395267-d9fc-4dd7-ac4a-db71bc4d29c7","ios":"levelo://app?vid=ed395267-d9fc-4dd7-ac4a-db71bc4d29c7"},"vehicle_type_id":"4","last_reported":1781163173,"current_range_meters":4400,"station_id":"st_cvj5dfep6f1abm77gieg","pricing_plan_id":"cebpf4jnsgd1na2vs0mg"},{"bike_id":"bfead3df-3898-46ff-8027-03c813a765b0","system_id":"levelo_inurba_marseille","lat":43.30153,"lon":5.43124,"is_reserved":false,"is_disabled":false,"rental_uris":{"android":"levelo://app?vid=bfead3df-3898-46ff-8027-03c813a765b0","ios":"levelo://app?vid=bfead3df-3898-46ff-8027-03c813a765b0"},"vehicle_type_id":"4","last_reported":1781163173,"current_range_meters":4400,"station_id":"st_d3js3co5814s73ftftug","pricing_plan_id":"cebpf4jnsgd1na2vs0mg"},{"bike_id":"1b0eac04-f591-4a98-a859-f6b12de18cd7","system_id":"levelo_inurba_marseille","lat":43.287,"lon":5.46691,"is_reserved":false,"is_disabled":true,"rental_uris":{"android":"levelo://app?vid=1b0eac04-f591-4a98-a859-f6b12de18cd7","ios":"levelo://app?vid=1b0eac04-f591-4a98-a859-f6b12de18cd7"},"vehicle_type_id":"4","last_reported":1781163173,"current_range_meters":4400,"station_id":"st_d6tc3vkotcvc738tfjhg","pricing_plan_id":"cebpf4jnsgd1na2vs0mg"},{"bike_id":"a5bc3bf5-b73d-4f23-82e9-b134ecdf5369","system_id":"levelo_inurba_marseille","lat":43.302812,"lon":5.377086,"is_reserved":false,"is_disabled":false,"rental_uris":{"android":"levelo://app?vid=a5bc3bf5-b73d-4f23-82e9-b134ecdf5369","ios":"levelo://app?vid=a5bc3bf5-b73d-4f23-82e9-b134ecdf5369"},"vehicle_type_id":"4","last_reported":1781163173,"current_range_meters":4400,"station_id":"ce4bguh2rcd13ifvqcj0","pricing_plan_id":"cebpf4jnsgd1na2vs0mg"},{"bike_id":"853b0d6f-b336-492c-8d19-63652c554c7e","system_id":"levelo_inurba_marseille","lat":43.25433,"lon":5.42547,"is_reserved":false,"is_disabled":false,"rental_uris":{"android":"levelo://app?vid=853b0d6f-b336-492c-8d19-63652c554c7e","ios":"levelo://app?vid=853b0d6f-b336-492c-8d19-63652c554c7e"},"vehicle_type_id":"4","last_reported":1781163173,"current_range_meters":4400,"station_id":"","pricing_plan_id":"cebpf4jnsgd1na2vs0mg"},{"bike_id":"64c9f91d-5075-4479-b683-d48593996d86","system_id":"levelo_inurba_marseille","lat":43.29853,"lon":5.36305,"is_reserved":false,"is_disabled":true,"rental_uris":{"android":"levelo://app?vid=64c9f91d-5075-4479-b683-d48593996d86","ios":"levelo://app?vid=64c9f91d-5075-4479-b683-d48593996d86"},"vehicle_type_id":"4","last_reported":1781163173,"current_range_meters":4400,"station_id":"ce4bgpp2rcd13ifvqc3g","pricing_plan_id":"cebpf4jnsgd1na2vs0mg"},{"bike_id":"4d735a9e-f2c8-4bb6-9521-dc1073864621","system_id":"levelo_inurba_marseille","lat":43.29271,"lon":5.42111,"is_reserved":false,"is_disabled":false,"rental_uris":{"android":"levelo://app?vid=4d735a9e-f2c8-4bb6-9521-dc1073864621","ios":"levelo://app?vid=4d735a9e-f2c8-4bb6-9521-dc1073864621"},"vehicle_type_id":"4","last_reported":1781163173,"current_range_meters":4400,"station_id":"","pricing_plan_id":"cebpf4jnsgd1na2vs0mg"},{"bike_id":"e2c0a208-0dcf-49b6-acbe-9bb56c554953","system_id":"levelo_inurba_marseille","lat":43.26924,"lon":5.42506,"is_reserved":false,"is_disabled":false,"rental_uris":{"android":"levelo://app?vid=e2c0a208-0dcf-49b6-acbe-9bb56c554953","ios":"levelo://app?vid=e2c0a208-0dcf-49b6-acbe-9bb56c554953"},"vehicle_type_id":"4","last_reported":1781163173,"current_range_meters":4400,"station_id":"","pricing_plan_id":"cebpf4jnsgd1na2vs0mg"},{"bike_id":"1cbe7191-c704-441d-87bc-293cd8960531","system_id":"levelo_inurba_marseille","lat":43.272027,"lon":5.391898,"is_reserved":false,"is_disabled":false,"rental_uris":{"android":"levelo://app?vid=1cbe7191-c704-441d-87bc-293cd8960531","ios":"levelo://app?vid=1cbe7191-c704-441d-87bc-293cd8960531"},"vehicle_type_id":"4","last_reported":1781163173,"current_range_meters":4400,"station_id":"ce4bhhp2rcd13ifvqfm0","pricing_plan_id":"cebpf4jnsgd1na2vs0mg"},{"bike_id":"c50a9e43-666a-4ebb-bb15-fba6ac3b0d59","system_id":"levelo_inurba_marseille","lat":43.29309,"lon":5.36338,"is_reserved":false,"is_disabled":false,"rental_uris":{"android":"levelo://app?vid=c50a9e43-666a-4ebb-bb15-fba6ac3b0d59","ios":"levelo://app?vid=c50a9e43-666a-4ebb-bb15-fba6ac3b0d59"},"vehicle_type_id":"4","last_reported":1781163173,"current_range_meters":4400,"station_id":"","pricing_plan_id":"cebpf4jnsgd1na2vs0mg"},{"bike_id":"c5909df9-fa47-434f-ad67-6f8975d9373a","system_id":"levelo_inurba_marseille","lat":43.30533,"lon":5.36675,"is_reserved":false,"is_disabled":false,"rental_uris":{"android":"levelo://app?vid=c5909df9-fa47-434f-ad67-6f8975d9373a","ios":"levelo://app?vid=c5909df9-fa47-434f-ad67-6f8975d9373a"},"vehicle_type_id":"4","last_reported":1781163173,"current_range_meters":4800,"station_id":"ce4bgrp2rcd13ifvqc9g","pricing_plan_id":"cebpf4jnsgd1na2vs0mg"},{"bike_id":"e80f8996-351c-4723-8d75-5faf96cf832b","system_id":"levelo_inurba_marseille","lat":43.28705,"lon":5.46677,"is_reserved":false,"is_disabled":false,"rental_uris":{"android":"levelo://app?vid=e80f8996-351c-4723-8d75-5faf96cf832b","ios":"levelo://app?vid=e80f8996-351c-4723-8d75-5faf96cf832b"},"vehicle_type_id":"4","last_reported":1781163173,"current_range_meters":4800,"station_id":"st_d6tc3vkotcvc738tfjhg","pricing_plan_id":"cebpf4jnsgd1na2vs0mg"},{"bike_id":"5a91e091-dea3-4ab0-bca5-7f1f4e045122","system_id":"levelo_inurba_marseille","lat":43.28611,"lon":5.39886,"is_reserved":false,"is_disabled":false,"rental_uris":{"android":"levelo://app?vid=5a91e091-dea3-4ab0-bca5-7f1f4e045122","ios":"levelo://app?vid=5a91e091-dea3-4ab0-bca5-7f1f4e045122"},"vehicle_type_id":"4","last_reported":1781163173,"current_range_meters":4800,"station_id":"ce4bho92rcd13ifvqh3g","pricing_plan_id":"cebpf4jnsgd1na2vs0mg"},{"bike_id":"419d9b4c-e958-411a-8dae-27cf413417bf","system_id":"levelo_inurba_marseille","lat":43.29976,"lon":5.38497,"is_reserved":false,"is_disabled":true,"rental_uris":{"android":"levelo://app?vid=419d9b4c-e958-411a-8dae-27cf413417bf","ios":"levelo://app?vid=419d9b4c-e958-411a-8dae-27cf413417bf"},"vehicle_type_id":"4","last_reported":1781163173,"current_range_meters":4800,"station_id":"ce4bgj92rcd13ifvqbd0","pricing_plan_id":"cebpf4jnsgd1na2vs0mg"},{"bike_id":"b839ba99-7b0a-470d-b46f-0a94dc9eec55","system_id":"levelo_inurba_marseille","lat":43.28416,"lon":5.38807,"is_reserved":false,"is_disabled":false,"rental_uris":{"android":"levelo://app?vid=b839ba99-7b0a-470d-b46f-0a94dc9eec55","ios":"levelo://app?vid=b839ba99-7b0a-470d-b46f-0a94dc9eec55"},"vehicle_type_id":"4","last_reported":1781163173,"current_range_meters":4800,"station_id":"","pricing_plan_id":"cebpf4jnsgd1na2vs0mg"},{"bike_id":"1cf5493f-d1da-4470-b6ed-142e394b1620","system_id":"levelo_inurba_marseille","lat":43.24807,"lon":5.37454,"is_reserved":false,"is_disabled":false,"rental_uris":{"android":"levelo://app?vid=1cf5493f-d1da-4470-b6ed-142e394b1620","ios":"levelo://app?vid=1cf5493f-d1da-4470-b6ed-142e394b1620"},"vehicle_type_id":"4","last_reported":1781163173,"current_range_meters":4800,"station_id":"ce4bhgh2rcd13ifvqfb0","pricing_plan_id":"cebpf4jnsgd1na2vs0mg"},{"bike_id":"6124b231-474a-4e03-93b8-c31be0f74f91","system_id":"levelo_inurba_marseille","lat":43.27827,"lon":5.36477,"is_reserved":false,"is_disabled":false,"rental_uris":{"android":"levelo://app?vid=6124b231-474a-4e03-93b8-c31be0f74f91","ios":"levelo://app?vid=6124b231-474a-4e03-93b8-c31be0f74f91"},"vehicle_type_id":"4","last_reported":1781163173,"current_range_meters":4800,"station_id":"","pricing_plan_id":"cebpf4jnsgd1na2vs0mg"},{"bike_id":"b0e170a1-f9e5-4e3b-80cf-3072fd2f6a74","system_id":"levelo_inurba_marseille","lat":43.23149,"lon":5.43734,"is_reserved":false,"is_disabled":false,"rental_uris":{"android":"levelo://app?vid=b0e170a1-f9e5-4e3b-80cf-3072fd2f6a74","ios":"levelo://app?vid=b0e170a1-f9e5-4e3b-80cf-3072fd2f6a74"},"vehicle_type_id":"4","last_reported":1781163173,"current_range_meters":4800,"station_id":"ce4bhmp2rcd13ifvqgog","pricing_plan_id":"cebpf4jnsgd1na2vs0mg"},{"bike_id":"92e93ffe-1641-472d-bcb2-8d8cee5ea29d","system_id":"levelo_inurba_marseille","lat":43.28608,"lon":5.35121,"is_reserved":false,"is_disabled":false,"rental_uris":{"android":"levelo://app?vid=92e93ffe-1641-472d-bcb2-8d8cee5ea29d","ios":"levelo://app?vid=92e93ffe-1641-472d-bcb2-8d8cee5ea29d"},"vehicle_type_id":"4","last_reported":1781163173,"current_range_meters":4800,"station_id":"ce4bhch2rcd13ifvqeug","pricing_plan_id":"cebpf4jnsgd1na2vs0mg"},{"bike_id":"a0b53861-d04c-461f-8009-234356175c64","system_id":"levelo_inurba_marseille","lat":43.28695,"lon":5.46674,"is_reserved":false,"is_disabled":false,"rental_uris":{"android":"levelo://app?vid=a0b53861-d04c-461f-8009-234356175c64","ios":"levelo://app?vid=a0b53861-d04c-461f-8009-234356175c64"},"vehicle_type_id":"4","last_reported":1781163173,"current_range_meters":4800,"station_id":"st_d6tc3vkotcvc738tfjhg","pricing_plan_id":"cebpf4jnsgd1na2vs0mg"},{"bike_id":"c7466d3c-399d-4f51-855b-37bb7bb13e61","system_id":"levelo_inurba_marseille","lat":43.24953,"lon":5.40496,"is_reserved":false,"is_disabled":false,"rental_uris":{"android":"levelo://app?vid=c7466d3c-399d-4f51-855b-37bb7bb13e61","ios":"levelo://app?vid=c7466d3c-399d-4f51-855b-37bb7bb13e61"},"vehicle_type_id":"4","last_reported":1781163173,"current_range_meters":4800,"station_id":"st_d2ngiaodas8pm72gd1h0","pricing_plan_id":"cebpf4jnsgd1na2vs0mg"},{"bike_id":"e6ff52bc-5f7a-4d86-894d-24f42f5c3cd5","system_id":"levelo_inurba_marseille","lat":43.29233,"lon":5.36074,"is_reserved":false,"is_disabled":false,"rental_uris":{"android":"levelo://app?vid=e6ff52bc-5f7a-4d86-894d-24f42f5c3cd5","ios":"levelo://app?vid=e6ff52bc-5f7a-4d86-894d-24f42f5c3cd5"},"vehicle_type_id":"4","last_reported":1781163173,"current_range_meters":4800,"station_id":"ce4bhbh2rcd13ifvqeqg","pricing_plan_id":"cebpf4jnsgd1na2vs0mg"},{"bike_id":"e30fdbee-ecd4-410c-9163-c5c5fe1fdb36","system_id":"levelo_inurba_marseille","lat":43.30945,"lon":5.39022,"is_reserved":false,"is_disabled":false,"rental_uris":{"android":"levelo://app?vid=e30fdbee-ecd4-410c-9163-c5c5fe1fdb36","ios":"levelo://app?vid=e30fdbee-ecd4-410c-9163-c5c5fe1fdb36"},"vehicle_type_id":"4","last_reported":1781163173,"current_range_meters":4800,"station_id":"ce4bgup2rcd13ifvqco0","pricing_plan_id":"cebpf4jnsgd1na2vs0mg"},{"bike_id":"12df29cc-abfa-41e4-9d8d-6005376fb963","system_id":"levelo_inurba_marseille","lat":43.266188,"lon":5.394222,"is_reserved":false,"is_disabled":false,"rental_uris":{"android":"levelo://app?vid=12df29cc-abfa-41e4-9d8d-6005376fb963","ios":"levelo://app?vid=12df29cc-abfa-41e4-9d8d-6005376fb963"},"vehicle_type_id":"4","last_reported":1781163173,"current_range_meters":5600,"station_id":"","pricing_plan_id":"cebpf4jnsgd1na2vs0mg"},{"bike_id":"f2a22988-e631-4daa-ad0a-0b5688d18701","system_id":"levelo_inurba_marseille","lat":43.33531,"lon":5.37477,"is_reserved":false,"is_disabled":false,"rental_uris":{"android":"levelo://app?vid=f2a22988-e631-4daa-ad0a-0b5688d18701","ios":"levelo://app?vid=f2a22988-e631-4daa-ad0a-0b5688d18701"},"vehicle_type_id":"4","last_reported":1781163173,"current_range_meters":5600,"station_id":"st_d46tts09ee8s73dlu43g","pricing_plan_id":"cebpf4jnsgd1na2vs0mg"},{"bike_id":"e69e3a47-b480-4db8-b217-24a7ffd53f7a","system_id":"levelo_inurba_marseille","lat":43.30559,"lon":5.36545,"is_reserved":false,"is_disabled":false,"rental_uris":{"android":"levelo://app?vid=e69e3a47-b480-4db8-b217-24a7ffd53f7a","ios":"levelo://app?vid=e69e3a47-b480-4db8-b217-24a7ffd53f7a"},"vehicle_type_id":"4","last_reported":1781163173,"current_range_meters":5600,"station_id":"ce4bgs12rcd13ifvqcag","pricing_plan_id":"cebpf4jnsgd1na2vs0mg"},{"bike_id":"cc044a5d-6424-486c-a90d-3884464a6b29","system_id":"levelo_inurba_marseille","lat":43.32083,"lon":5.36329,"is_reserved":false,"is_disabled":false,"rental_uris":{"android":"levelo://app?vid=cc044a5d-6424-486c-a90d-3884464a6b29","ios":"levelo://app?vid=cc044a5d-6424-486c-a90d-3884464a6b29"},"vehicle_type_id":"4","last_reported":1781163173,"current_range_meters":5600,"station_id":"","pricing_plan_id":"cebpf4jnsgd1na2vs0mg"},{"bike_id":"db8f1d20-ccf6-4ab9-bdb8-32d995b7e02a","system_id":"levelo_inurba_marseille","lat":43.25718,"lon":5.41112,"is_reserved":false,"is_disabled":false,"rental_uris":{"android":"levelo://app?vid=db8f1d20-ccf6-4ab9-bdb8-32d995b7e02a","ios":"levelo://app?vid=db8f1d20-ccf6-4ab9-bdb8-32d995b7e02a"},"vehicle_type_id":"4","last_reported":1781163173,"current_range_meters":5600,"station_id":"ce4bhkp2rcd13ifvqgd0","pricing_plan_id":"cebpf4jnsgd1na2vs0mg"},{"bike_id":"2caa5039-7765-4cef-95aa-78de0733a23d","system_id":"levelo_inurba_marseille","lat":43.2558,"lon":5.3824,"is_reserved":false,"is_disabled":false,"rental_uris":{"android":"levelo://app?vid=2caa5039-7765-4cef-95aa-78de0733a23d","ios":"levelo://app?vid=2caa5039-7765-4cef-95aa-78de0733a23d"},"vehicle_type_id":"4","last_reported":1781163173,"current_range_meters":5600,"station_id":"ce4bhih2rcd13ifvqfs0","pricing_plan_id":"cebpf4jnsgd1na2vs0mg"},{"bike_id":"e5034541-ace2-4c45-b6be-e09ee225784f","system_id":"levelo_inurba_marseille","lat":43.2858,"lon":5.39487,"is_reserved":false,"is_disabled":true,"rental_uris":{"android":"levelo://app?vid=e5034541-ace2-4c45-b6be-e09ee225784f","ios":"levelo://app?vid=e5034541-ace2-4c45-b6be-e09ee225784f"},"vehicle_type_id":"4","last_reported":1781163173,"current_range_meters":5600,"station_id":"ce4bh292rcd13ifvqdg0","pricing_plan_id":"cebpf4jnsgd1na2vs0mg"},{"bike_id":"f8a0ebe5-5329-4401-b050-c226eca0ff50","system_id":"levelo_inurba_marseille","lat":43.24154,"lon":5.39695,"is_reserved":false,"is_disabled":false,"rental_uris":{"android":"levelo://app?vid=f8a0ebe5-5329-4401-b050-c226eca0ff50","ios":"levelo://app?vid=f8a0ebe5-5329-4401-b050-c226eca0ff50"},"vehicle_type_id":"4","last_reported":1781163173,"current_range_meters":5600,"station_id":"ce4bhn12rcd13ifvqgpg","pricing_plan_id":"cebpf4jnsgd1na2vs0mg"},{"bike_id":"d4a485ca-544f-4e15-a3d5-638351c050dc","system_id":"levelo_inurba_marseille","lat":43.28743,"lon":5.40372,"is_reserved":false,"is_disabled":false,"rental_uris":{"android":"levelo://app?vid=d4a485ca-544f-4e15-a3d5-638351c050dc","ios":"levelo://app?vid=d4a485ca-544f-4e15-a3d5-638351c050dc"},"vehicle_type_id":"4","last_reported":1781163173,"current_range_meters":5600,"station_id":"","pricing_plan_id":"cebpf4jnsgd1na2vs0mg"},{"bike_id":"1b455d02-f435-414f-bbab-53379ec0de0a","system_id":"levelo_inurba_marseille","lat":43.30118,"lon":5.38114,"is_reserved":false,"is_disabled":false,"rental_uris":{"android":"levelo://app?vid=1b455d02-f435-414f-bbab-53379ec0de0a","ios":"levelo://app?vid=1b455d02-f435-414f-bbab-53379ec0de0a"},"vehicle_type_id":"4","last_reported":1781163173,"current_range_meters":5600,"station_id":"","pricing_plan_id":"cebpf4jnsgd1na2vs0mg"},{"bike_id":"b6d3637a-0952-4e4f-8026-e2107cb5e7fd","system_id":"levelo_inurba_marseille","lat":43.28604,"lon":5.39896,"is_reserved":false,"is_disabled":false,"rental_uris":{"android":"levelo://app?vid=b6d3637a-0952-4e4f-8026-e2107cb5e7fd","ios":"levelo://app?vid=b6d3637a-0952-4e4f-8026-e2107cb5e7fd"},"vehicle_type_id":"4","last_reported":1781163173,"current_range_meters":5600,"station_id":"st_d4a7ka997mjs738ck50g","pricing_plan_id":"cebpf4jnsgd1na2vs0mg"},{"bike_id":"f8671556-b7c4-4a04-86c9-422f70a6fa84","system_id":"levelo_inurba_marseille","lat":43.335,"lon":5.42027,"is_reserved":false,"is_disabled":false,"rental_uris":{"android":"levelo://app?vid=f8671556-b7c4-4a04-86c9-422f70a6fa84","ios":"levelo://app?vid=f8671556-b7c4-4a04-86c9-422f70a6fa84"},"vehicle_type_id":"4","last_reported":1781163173,"current_range_meters":5600,"station_id":"","pricing_plan_id":"cebpf4jnsgd1na2vs0mg"},{"bike_id":"896c85fb-cbc3-4159-8d57-2687e390f8a6","system_id":"levelo_inurba_marseille","lat":43.238974,"lon":5.374618,"is_reserved":false,"is_disabled":false,"rental_uris":{"android":"levelo://app?vid=896c85fb-cbc3-4159-8d57-2687e390f8a6","ios":"levelo://app?vid=896c85fb-cbc3-4159-8d57-2687e390f8a6"},"vehicle_type_id":"4","last_reported":1781163173,"current_range_meters":5600,"station_id":"st_d6sm7csbq4hs73f8fpjg","pricing_plan_id":"cebpf4jnsgd1na2vs0mg"},{"bike_id":"e4420f0b-e0a1-46e6-b2c9-46f258426670","system_id":"levelo_inurba_marseille","lat":43.22528,"lon":5.34842,"is_reserved":false,"is_disabled":false,"rental_uris":{"android":"levelo://app?vid=e4420f0b-e0a1-46e6-b2c9-46f258426670","ios":"levelo://app?vid=e4420f0b-e0a1-46e6-b2c9-46f258426670"},"vehicle_type_id":"4","last_reported":1781163173,"current_range_meters":5600,"station_id":"st_cvj5dfep6f1abm77gieg","pricing_plan_id":"cebpf4jnsgd1na2vs0mg"},{"bike_id":"a22bdfd4-f5ab-4ba0-bb7a-3e570045354b","system_id":"levelo_inurba_marseille","lat":43.30195,"lon":5.39092,"is_reserved":false,"is_disabled":false,"rental_uris":{"android":"levelo://app?vid=a22bdfd4-f5ab-4ba0-bb7a-3e570045354b","ios":"levelo://app?vid=a22bdfd4-f5ab-4ba0-bb7a-3e570045354b"},"vehicle_type_id":"4","last_reported":1781163173,"current_range_meters":5600,"station_id":"","pricing_plan_id":"cebpf4jnsgd1na2vs0mg"},{"bike_id":"3a0a3c1e-d128-4138-b2e1-df846eb876c4","system_id":"levelo_inurba_marseille","lat":43.28669,"lon":5.39458,"is_reserved":false,"is_disabled":false,"rental_uris":{"android":"levelo://app?vid=3a0a3c1e-d128-4138-b2e1-df846eb876c4","ios":"levelo://app?vid=3a0a3c1e-d128-4138-b2e1-df846eb876c4"},"vehicle_type_id":"4","last_reported":1781163173,"current_range_meters":6000,"station_id":"","pricing_plan_id":"cebpf4jnsgd1na2vs0mg"},{"bike_id":"ea0132b2-a066-4377-b9f5-03e8f3a17900","system_id":"levelo_inurba_marseille","lat":43.2315,"lon":5.43729,"is_reserved":false,"is_disabled":false,"rental_uris":{"android":"levelo://app?vid=ea0132b2-a066-4377-b9f5-03e8f3a17900","ios":"levelo://app?vid=ea0132b2-a066-4377-b9f5-03e8f3a17900"},"vehicle_type_id":"4","last_reported":1781163173,"current_range_meters":6000,"station_id":"ce4bhmp2rcd13ifvqgog","pricing_plan_id":"cebpf4jnsgd1na2vs0mg"},{"bike_id":"6078d331-8dff-4743-abcb-be75a8bdd58f","system_id":"levelo_inurba_marseille","lat":43.24664,"lon":5.38167,"is_reserved":false,"is_disabled":false,"rental_uris":{"android":"levelo://app?vid=6078d331-8dff-4743-abcb-be75a8bdd58f","ios":"levelo://app?vid=6078d331-8dff-4743-abcb-be75a8bdd58f"},"vehicle_type_id":"4","last_reported":1781163173,"current_range_meters":6000,"station_id":"ce4bhih2rcd13ifvqfr0","pricing_plan_id":"cebpf4jnsgd1na2vs0mg"},{"bike_id":"9fdd6cb6-0904-4d57-ba58-40c7a7ff4720","system_id":"levelo_inurba_marseille","lat":43.26034,"lon":5.37547,"is_reserved":false,"is_disabled":false,"rental_uris":{"android":"levelo://app?vid=9fdd6cb6-0904-4d57-ba58-40c7a7ff4720","ios":"levelo://app?vid=9fdd6cb6-0904-4d57-ba58-40c7a7ff4720"},"vehicle_type_id":"4","last_reported":1781163173,"current_range_meters":6000,"station_id":"ce4bhgh2rcd13ifvqfa0","pricing_plan_id":"cebpf4jnsgd1na2vs0mg"},{"bike_id":"2ff017c8-2cbc-493f-b435-f6a67427a94c","system_id":"levelo_inurba_marseille","lat":43.30127,"lon":5.43118,"is_reserved":false,"is_disabled":false,"rental_uris":{"android":"levelo://app?vid=2ff017c8-2cbc-493f-b435-f6a67427a94c","ios":"levelo://app?vid=2ff017c8-2cbc-493f-b435-f6a67427a94c"},"vehicle_type_id":"4","last_reported":1781163173,"current_range_meters":6000,"station_id":"st_d3js3co5814s73ftftug","pricing_plan_id":"cebpf4jnsgd1na2vs0mg"},{"bike_id":"89e366c3-1a4f-4118-80b3-b10f3ed79b47","system_id":"levelo_inurba_marseille","lat":43.30333,"lon":5.36953,"is_reserved":false,"is_disabled":false,"rental_uris":{"android":"levelo://app?vid=89e366c3-1a4f-4118-80b3-b10f3ed79b47","ios":"levelo://app?vid=89e366c3-1a4f-4118-80b3-b10f3ed79b47"},"vehicle_type_id":"4","last_reported":1781163173,"current_range_meters":6000,"station_id":"","pricing_plan_id":"cebpf4jnsgd1na2vs0mg"},{"bike_id":"7f45feb5-bbfe-4850-a346-a6947e745275","system_id":"levelo_inurba_marseille","lat":43.2467,"lon":5.38168,"is_reserved":false,"is_disabled":false,"rental_uris":{"android":"levelo://app?vid=7f45feb5-bbfe-4850-a346-a6947e745275","ios":"levelo://app?vid=7f45feb5-bbfe-4850-a346-a6947e745275"},"vehicle_type_id":"4","last_reported":1781163173,"current_range_meters":6000,"station_id":"ce4bhih2rcd13ifvqfr0","pricing_plan_id":"cebpf4jnsgd1na2vs0mg"},{"bike_id":"d74bdaa9-dcb0-471c-adf5-8545b2f71589","system_id":"levelo_inurba_marseille","lat":43.30876,"lon":5.37135,"is_reserved":false,"is_disabled":false,"rental_uris":{"android":"levelo://app?vid=d74bdaa9-dcb0-471c-adf5-8545b2f71589","ios":"levelo://app?vid=d74bdaa9-dcb0-471c-adf5-8545b2f71589"},"vehicle_type_id":"4","last_reported":1781163173,"current_range_meters":6000,"station_id":"ce4bguh2rcd13ifvqckg","pricing_plan_id":"cebpf4jnsgd1na2vs0mg"},{"bike_id":"0b542d53-e4b2-4fd5-adf4-084e17c09620","system_id":"levelo_inurba_marseille","lat":43.30114,"lon":5.4312,"is_reserved":false,"is_disabled":false,"rental_uris":{"android":"levelo://app?vid=0b542d53-e4b2-4fd5-adf4-084e17c09620","ios":"levelo://app?vid=0b542d53-e4b2-4fd5-adf4-084e17c09620"},"vehicle_type_id":"4","last_reported":1781163173,"current_range_meters":6000,"station_id":"st_d3js3co5814s73ftftug","pricing_plan_id":"cebpf4jnsgd1na2vs0mg"},{"bike_id":"55f6a8c3-78b9-4700-be94-9e5296248394","system_id":"levelo_inurba_marseille","lat":43.28487,"lon":5.38552,"is_reserved":false,"is_disabled":false,"rental_uris":{"android":"levelo://app?vid=55f6a8c3-78b9-4700-be94-9e5296248394","ios":"levelo://app?vid=55f6a8c3-78b9-4700-be94-9e5296248394"},"vehicle_type_id":"4","last_reported":1781163173,"current_range_meters":6000,"station_id":"ce4bh8p2rcd13ifvqeb0","pricing_plan_id":"cebpf4jnsgd1na2vs0mg"},{"bike_id":"ef0f2e99-d735-476a-b5dd-6021bf8d5c45","system_id":"levelo_inurba_marseille","lat":43.28201,"lon":5.39047,"is_reserved":false,"is_disabled":false,"rental_uris":{"android":"levelo://app?vid=ef0f2e99-d735-476a-b5dd-6021bf8d5c45","ios":"levelo://app?vid=ef0f2e99-d735-476a-b5dd-6021bf8d5c45"},"vehicle_type_id":"4","last_reported":1781163173,"current_range_meters":6000,"station_id":"ce4bhn92rcd13ifvqgsg","pricing_plan_id":"cebpf4jnsgd1na2vs0mg"},{"bike_id":"1b5b1e51-4dfd-4218-a109-67dd802bd8f2","system_id":"levelo_inurba_marseille","lat":43.2924,"lon":5.36041,"is_reserved":false,"is_disabled":false,"rental_uris":{"android":"levelo://app?vid=1b5b1e51-4dfd-4218-a109-67dd802bd8f2","ios":"levelo://app?vid=1b5b1e51-4dfd-4218-a109-67dd802bd8f2"},"vehicle_type_id":"4","last_reported":1781163173,"current_range_meters":6000,"station_id":"ce4bhbh2rcd13ifvqeqg","pricing_plan_id":"cebpf4jnsgd1na2vs0mg"},{"bike_id":"fcbca0fe-b4cd-477b-b761-ed5cd04d410f","system_id":"levelo_inurba_marseille","lat":43.29934,"lon":5.36546,"is_reserved":false,"is_disabled":false,"rental_uris":{"android":"levelo://app?vid=fcbca0fe-b4cd-477b-b761-ed5cd04d410f","ios":"levelo://app?vid=fcbca0fe-b4cd-477b-b761-ed5cd04d410f"},"vehicle_type_id":"4","last_reported":1781163173,"current_range_meters":6000,"station_id":"ce4bgm92rcd13ifvqbr0","pricing_plan_id":"cebpf4jnsgd1na2vs0mg"},{"bike_id":"eb329a01-e691-4f8e-8655-7c24a9dc2218","system_id":"levelo_inurba_marseille","lat":43.28442,"lon":5.34993,"is_reserved":false,"is_disabled":false,"rental_uris":{"android":"levelo://app?vid=eb329a01-e691-4f8e-8655-7c24a9dc2218","ios":"levelo://app?vid=eb329a01-e691-4f8e-8655-7c24a9dc2218"},"vehicle_type_id":"4","last_reported":1781163173,"current_range_meters":6000,"station_id":"ce4bhbh2rcd13ifvqepg","pricing_plan_id":"cebpf4jnsgd1na2vs0mg"},{"bike_id":"871c2ceb-95be-446f-923e-43c84f40ff5a","system_id":"levelo_inurba_marseille","lat":43.28471,"lon":5.38413,"is_reserved":false,"is_disabled":false,"rental_uris":{"android":"levelo://app?vid=871c2ceb-95be-446f-923e-43c84f40ff5a","ios":"levelo://app?vid=871c2ceb-95be-446f-923e-43c84f40ff5a"},"vehicle_type_id":"4","last_reported":1781163173,"current_range_meters":6000,"station_id":"ce4bh512rcd13ifvqe3g","pricing_plan_id":"cebpf4jnsgd1na2vs0mg"},{"bike_id":"191c05e8-e409-41e9-ab96-966cd625ba6b","system_id":"levelo_inurba_marseille","lat":43.24395,"lon":5.37067,"is_reserved":false,"is_disabled":false,"rental_uris":{"android":"levelo://app?vid=191c05e8-e409-41e9-ab96-966cd625ba6b","ios":"levelo://app?vid=191c05e8-e409-41e9-ab96-966cd625ba6b"},"vehicle_type_id":"4","last_reported":1781163173,"current_range_meters":6000,"station_id":"ce4bhhh2rcd13ifvqfk0","pricing_plan_id":"cebpf4jnsgd1na2vs0mg"},{"bike_id":"14b4b371-8f26-4cf1-95b4-880cc3bc4611","system_id":"levelo_inurba_marseille","lat":43.293,"lon":5.3718,"is_reserved":false,"is_disabled":true,"rental_uris":{"android":"levelo://app?vid=14b4b371-8f26-4cf1-95b4-880cc3bc4611","ios":"levelo://app?vid=14b4b371-8f26-4cf1-95b4-880cc3bc4611"},"vehicle_type_id":"4","last_reported":1781163173,"current_range_meters":6000,"station_id":"ce4bgh92rcd13ifvqb40","pricing_plan_id":"cebpf4jnsgd1na2vs0mg"},{"bike_id":"95e4c85d-b6f8-43ad-884a-d6790070066b","system_id":"levelo_inurba_marseille","lat":43.31334,"lon":5.36709,"is_reserved":false,"is_disabled":false,"rental_uris":{"android":"levelo://app?vid=95e4c85d-b6f8-43ad-884a-d6790070066b","ios":"levelo://app?vid=95e4c85d-b6f8-43ad-884a-d6790070066b"},"vehicle_type_id":"4","last_reported":1781163173,"current_range_meters":6000,"station_id":"ce4bgr92rcd13ifvqc6g","pricing_plan_id":"cebpf4jnsgd1na2vs0mg"},{"bike_id":"392160b2-110c-4d68-bc5f-e813c3482946","system_id":"levelo_inurba_marseille","lat":43.27197,"lon":5.39209,"is_reserved":false,"is_disabled":false,"rental_uris":{"android":"levelo://app?vid=392160b2-110c-4d68-bc5f-e813c3482946","ios":"levelo://app?vid=392160b2-110c-4d68-bc5f-e813c3482946"},"vehicle_type_id":"4","last_reported":1781163173,"current_range_meters":6000,"station_id":"ce4bhhp2rcd13ifvqfm0","pricing_plan_id":"cebpf4jnsgd1na2vs0mg"},{"bike_id":"0e88eff4-a441-4e81-8534-91541abf714a","system_id":"levelo_inurba_marseille","lat":43.29973,"lon":5.37183,"is_reserved":false,"is_disabled":false,"rental_uris":{"android":"levelo://app?vid=0e88eff4-a441-4e81-8534-91541abf714a","ios":"levelo://app?vid=0e88eff4-a441-4e81-8534-91541abf714a"},"vehicle_type_id":"4","last_reported":1781163173,"current_range_meters":6000,"station_id":"ce4bgr92rcd13ifvqc7g","pricing_plan_id":"cebpf4jnsgd1na2vs0mg"},{"bike_id":"9626ef2c-1942-4889-91e7-1405c722fcd5","system_id":"levelo_inurba_marseille","lat":43.30493,"lon":5.37887,"is_reserved":false,"is_disabled":false,"rental_uris":{"android":"levelo://app?vid=9626ef2c-1942-4889-91e7-1405c722fcd5","ios":"levelo://app?vid=9626ef2c-1942-4889-91e7-1405c722fcd5"},"vehicle_type_id":"4","last_reported":1781163173,"current_range_meters":6000,"station_id":"ce4bgup2rcd13ifvqcn0","pricing_plan_id":"cebpf4jnsgd1na2vs0mg"},{"bike_id":"4df93a2d-aa6a-4b31-93fb-7fa77fa8a80d","system_id":"levelo_inurba_marseille","lat":43.32226,"lon":5.44091,"is_reserved":false,"is_disabled":false,"rental_uris":{"android":"levelo://app?vid=4df93a2d-aa6a-4b31-93fb-7fa77fa8a80d","ios":"levelo://app?vid=4df93a2d-aa6a-4b31-93fb-7fa77fa8a80d"},"vehicle_type_id":"4","last_reported":1781163173,"current_range_meters":6000,"station_id":"","pricing_plan_id":"cebpf4jnsgd1na2vs0mg"},{"bike_id":"b5d713d6-fb2c-4f85-9496-147ac99b124c","system_id":"levelo_inurba_marseille","lat":43.229248,"lon":5.353733,"is_reserved":false,"is_disabled":false,"rental_uris":{"android":"levelo://app?vid=b5d713d6-fb2c-4f85-9496-147ac99b124c","ios":"levelo://app?vid=b5d713d6-fb2c-4f85-9496-147ac99b124c"},"vehicle_type_id":"4","last_reported":1781163173,"current_range_meters":6400,"station_id":"cpo3532slgdg3j2ikp40","pricing_plan_id":"cebpf4jnsgd1na2vs0mg"},{"bike_id":"83dd7f2a-a1db-471f-b2c8-6f4269377848","system_id":"levelo_inurba_marseille","lat":43.24069,"lon":5.37753,"is_reserved":false,"is_disabled":false,"rental_uris":{"android":"levelo://app?vid=83dd7f2a-a1db-471f-b2c8-6f4269377848","ios":"levelo://app?vid=83dd7f2a-a1db-471f-b2c8-6f4269377848"},"vehicle_type_id":"4","last_reported":1781163173,"current_range_meters":6400,"station_id":"ce4bhnp2rcd13ifvqgvg","pricing_plan_id":"cebpf4jnsgd1na2vs0mg"},{"bike_id":"6e28fbca-7d5d-43c1-ae3d-134a0e3e8290","system_id":"levelo_inurba_marseille","lat":43.26028,"lon":5.37551,"is_reserved":false,"is_disabled":false,"rental_uris":{"android":"levelo://app?vid=6e28fbca-7d5d-43c1-ae3d-134a0e3e8290","ios":"levelo://app?vid=6e28fbca-7d5d-43c1-ae3d-134a0e3e8290"},"vehicle_type_id":"4","last_reported":1781163173,"current_range_meters":6400,"station_id":"ce4bhgh2rcd13ifvqfa0","pricing_plan_id":"cebpf4jnsgd1na2vs0mg"},{"bike_id":"479a476a-158f-4fed-bb39-6f43ac9d4715","system_id":"levelo_inurba_marseille","lat":43.3209,"lon":5.36786,"is_reserved":false,"is_disabled":false,"rental_uris":{"android":"levelo://app?vid=479a476a-158f-4fed-bb39-6f43ac9d4715","ios":"levelo://app?vid=479a476a-158f-4fed-bb39-6f43ac9d4715"},"vehicle_type_id":"4","last_reported":1781163173,"current_range_meters":6400,"station_id":"ce4bhrh2rcd13ifvqhug","pricing_plan_id":"cebpf4jnsgd1na2vs0mg"},{"bike_id":"fed66c9c-ec10-4d1a-a119-be989dd2cf9f","system_id":"levelo_inurba_marseille","lat":43.29039,"lon":5.37562,"is_reserved":false,"is_disabled":false,"rental_uris":{"android":"levelo://app?vid=fed66c9c-ec10-4d1a-a119-be989dd2cf9f","ios":"levelo://app?vid=fed66c9c-ec10-4d1a-a119-be989dd2cf9f"},"vehicle_type_id":"4","last_reported":1781163173,"current_range_meters":6400,"station_id":"ce4bh692rcd13ifvqe90","pricing_plan_id":"cebpf4jnsgd1na2vs0mg"},{"bike_id":"627383c3-1ca4-4292-a0f0-c21bf7584678","system_id":"levelo_inurba_marseille","lat":43.28738,"lon":5.4271,"is_reserved":false,"is_disabled":false,"rental_uris":{"android":"levelo://app?vid=627383c3-1ca4-4292-a0f0-c21bf7584678","ios":"levelo://app?vid=627383c3-1ca4-4292-a0f0-c21bf7584678"},"vehicle_type_id":"4","last_reported":1781163173,"current_range_meters":6400,"station_id":"","pricing_plan_id":"cebpf4jnsgd1na2vs0mg"},{"bike_id":"8dd17e06-d13e-4e8d-9b67-4b9817619af2","system_id":"levelo_inurba_marseille","lat":43.31118,"lon":5.377757,"is_reserved":false,"is_disabled":false,"rental_uris":{"android":"levelo://app?vid=8dd17e06-d13e-4e8d-9b67-4b9817619af2","ios":"levelo://app?vid=8dd17e06-d13e-4e8d-9b67-4b9817619af2"},"vehicle_type_id":"4","last_reported":1781163173,"current_range_meters":6400,"station_id":"ce4bgt92rcd13ifvqcg0","pricing_plan_id":"cebpf4jnsgd1na2vs0mg"},{"bike_id":"fd2f0fe2-2447-45be-8c9a-456f406e59a8","system_id":"levelo_inurba_marseille","lat":43.30322,"lon":5.36908,"is_reserved":false,"is_disabled":false,"rental_uris":{"android":"levelo://app?vid=fd2f0fe2-2447-45be-8c9a-456f406e59a8","ios":"levelo://app?vid=fd2f0fe2-2447-45be-8c9a-456f406e59a8"},"vehicle_type_id":"4","last_reported":1781163173,"current_range_meters":6400,"station_id":"ce4bgqh2rcd13ifvqc5g","pricing_plan_id":"cebpf4jnsgd1na2vs0mg"},{"bike_id":"3f5afd37-3f90-4f5a-a670-e2b548332559","system_id":"levelo_inurba_marseille","lat":43.289413,"lon":5.366452,"is_reserved":false,"is_disabled":false,"rental_uris":{"android":"levelo://app?vid=3f5afd37-3f90-4f5a-a670-e2b548332559","ios":"levelo://app?vid=3f5afd37-3f90-4f5a-a670-e2b548332559"},"vehicle_type_id":"4","last_reported":1781163173,"current_range_meters":6400,"station_id":"ce4bhap2rcd13ifvqek0","pricing_plan_id":"cebpf4jnsgd1na2vs0mg"},{"bike_id":"9f45c17e-31c1-48e0-b1fa-f9280522fd60","system_id":"levelo_inurba_marseille","lat":43.24644,"lon":5.38166,"is_reserved":false,"is_disabled":false,"rental_uris":{"android":"levelo://app?vid=9f45c17e-31c1-48e0-b1fa-f9280522fd60","ios":"levelo://app?vid=9f45c17e-31c1-48e0-b1fa-f9280522fd60"},"vehicle_type_id":"4","last_reported":1781163173,"current_range_meters":6400,"station_id":"ce4bhih2rcd13ifvqfr0","pricing_plan_id":"cebpf4jnsgd1na2vs0mg"},{"bike_id":"10735159-3397-4800-83f9-6dea2cbec6ca","system_id":"levelo_inurba_marseille","lat":43.33534,"lon":5.3748,"is_reserved":false,"is_disabled":false,"rental_uris":{"android":"levelo://app?vid=10735159-3397-4800-83f9-6dea2cbec6ca","ios":"levelo://app?vid=10735159-3397-4800-83f9-6dea2cbec6ca"},"vehicle_type_id":"4","last_reported":1781163173,"current_range_meters":6400,"station_id":"st_d46tts09ee8s73dlu43g","pricing_plan_id":"cebpf4jnsgd1na2vs0mg"},{"bike_id":"d0b6f97d-392b-4355-9f32-cf4ba73fb823","system_id":"levelo_inurba_marseille","lat":43.21224,"lon":5.35068,"is_reserved":false,"is_disabled":false,"rental_uris":{"android":"levelo://app?vid=d0b6f97d-392b-4355-9f32-cf4ba73fb823","ios":"levelo://app?vid=d0b6f97d-392b-4355-9f32-cf4ba73fb823"},"vehicle_type_id":"4","last_reported":1781163173,"current_range_meters":6400,"station_id":"","pricing_plan_id":"cebpf4jnsgd1na2vs0mg"},{"bike_id":"2c9008ec-eff6-41b9-bff5-3d266d108cfb","system_id":"levelo_inurba_marseille","lat":43.30439,"lon":5.41569,"is_reserved":false,"is_disabled":false,"rental_uris":{"android":"levelo://app?vid=2c9008ec-eff6-41b9-bff5-3d266d108cfb","ios":"levelo://app?vid=2c9008ec-eff6-41b9-bff5-3d266d108cfb"},"vehicle_type_id":"4","last_reported":1781163173,"current_range_meters":6400,"station_id":"","pricing_plan_id":"cebpf4jnsgd1na2vs0mg"},{"bike_id":"82f8a96d-2625-4b15-bbc7-b6a1e2fb7275","system_id":"levelo_inurba_marseille","lat":43.272123,"lon":5.39185,"is_reserved":false,"is_disabled":false,"rental_uris":{"android":"levelo://app?vid=82f8a96d-2625-4b15-bbc7-b6a1e2fb7275","ios":"levelo://app?vid=82f8a96d-2625-4b15-bbc7-b6a1e2fb7275"},"vehicle_type_id":"4","last_reported":1781163173,"current_range_meters":6400,"station_id":"ce4bhhp2rcd13ifvqfm0","pricing_plan_id":"cebpf4jnsgd1na2vs0mg"},{"bike_id":"172575f4-60a1-49c0-aea1-545504653d27","system_id":"levelo_inurba_marseille","lat":43.31548,"lon":5.38826,"is_reserved":false,"is_disabled":false,"rental_uris":{"android":"levelo://app?vid=172575f4-60a1-49c0-aea1-545504653d27","ios":"levelo://app?vid=172575f4-60a1-49c0-aea1-545504653d27"},"vehicle_type_id":"4","last_reported":1781163173,"current_range_meters":6800,"station_id":"","pricing_plan_id":"cebpf4jnsgd1na2vs0mg"},{"bike_id":"664a5d25-7748-4981-b747-f5329c045f50","system_id":"levelo_inurba_marseille","lat":43.30478,"lon":5.37907,"is_reserved":false,"is_disabled":false,"rental_uris":{"android":"levelo://app?vid=664a5d25-7748-4981-b747-f5329c045f50","ios":"levelo://app?vid=664a5d25-7748-4981-b747-f5329c045f50"},"vehicle_type_id":"4","last_reported":1781163173,"current_range_meters":6800,"station_id":"ce4bgup2rcd13ifvqcn0","pricing_plan_id":"cebpf4jnsgd1na2vs0mg"},{"bike_id":"ab450d47-d293-44a6-8426-9362fe0e8737","system_id":"levelo_inurba_marseille","lat":43.27578,"lon":5.4336,"is_reserved":false,"is_disabled":false,"rental_uris":{"android":"levelo://app?vid=ab450d47-d293-44a6-8426-9362fe0e8737","ios":"levelo://app?vid=ab450d47-d293-44a6-8426-9362fe0e8737"},"vehicle_type_id":"4","last_reported":1781163173,"current_range_meters":6800,"station_id":"","pricing_plan_id":"cebpf4jnsgd1na2vs0mg"},{"bike_id":"b90e56c3-76e7-49da-ae74-c7deaeca993c","system_id":"levelo_inurba_marseille","lat":43.30786,"lon":5.37967,"is_reserved":false,"is_disabled":false,"rental_uris":{"android":"levelo://app?vid=b90e56c3-76e7-49da-ae74-c7deaeca993c","ios":"levelo://app?vid=b90e56c3-76e7-49da-ae74-c7deaeca993c"},"vehicle_type_id":"4","last_reported":1781163173,"current_range_meters":6800,"station_id":"","pricing_plan_id":"cebpf4jnsgd1na2vs0mg"},{"bike_id":"c1c2e1ed-021f-4ec2-ae7a-61bce9b24ab7","system_id":"levelo_inurba_marseille","lat":43.3094,"lon":5.39019,"is_reserved":false,"is_disabled":false,"rental_uris":{"android":"levelo://app?vid=c1c2e1ed-021f-4ec2-ae7a-61bce9b24ab7","ios":"levelo://app?vid=c1c2e1ed-021f-4ec2-ae7a-61bce9b24ab7"},"vehicle_type_id":"4","last_reported":1781163173,"current_range_meters":6800,"station_id":"ce4bgup2rcd13ifvqco0","pricing_plan_id":"cebpf4jnsgd1na2vs0mg"},{"bike_id":"691c3538-6f67-4bd6-a1f7-1310352808d2","system_id":"levelo_inurba_marseille","lat":43.27192,"lon":5.39201,"is_reserved":false,"is_disabled":false,"rental_uris":{"android":"levelo://app?vid=691c3538-6f67-4bd6-a1f7-1310352808d2","ios":"levelo://app?vid=691c3538-6f67-4bd6-a1f7-1310352808d2"},"vehicle_type_id":"4","last_reported":1781163173,"current_range_meters":6800,"station_id":"ce4bhhp2rcd13ifvqfm0","pricing_plan_id":"cebpf4jnsgd1na2vs0mg"},{"bike_id":"d2f35c37-cdb6-41c9-a2ae-058109bc0ab1","system_id":"levelo_inurba_marseille","lat":43.290396,"lon":5.399604,"is_reserved":false,"is_disabled":false,"rental_uris":{"android":"levelo://app?vid=d2f35c37-cdb6-41c9-a2ae-058109bc0ab1","ios":"levelo://app?vid=d2f35c37-cdb6-41c9-a2ae-058109bc0ab1"},"vehicle_type_id":"4","last_reported":1781163173,"current_range_meters":6800,"station_id":"st_d4a7ka997mjs738ck50g","pricing_plan_id":"cebpf4jnsgd1na2vs0mg"},{"bike_id":"043e05a1-2a3a-475b-bdb0-08618687dc0a","system_id":"levelo_inurba_marseille","lat":43.26786,"lon":5.39418,"is_reserved":false,"is_disabled":false,"rental_uris":{"android":"levelo://app?vid=043e05a1-2a3a-475b-bdb0-08618687dc0a","ios":"levelo://app?vid=043e05a1-2a3a-475b-bdb0-08618687dc0a"},"vehicle_type_id":"4","last_reported":1781163173,"current_range_meters":6800,"station_id":"ce4bhh12rcd13ifvqfg0","pricing_plan_id":"cebpf4jnsgd1na2vs0mg"},{"bike_id":"a4b00031-ee09-4aec-8eb7-94d1603e3e96","system_id":"levelo_inurba_marseille","lat":43.32112,"lon":5.36749,"is_reserved":false,"is_disabled":false,"rental_uris":{"android":"levelo://app?vid=a4b00031-ee09-4aec-8eb7-94d1603e3e96","ios":"levelo://app?vid=a4b00031-ee09-4aec-8eb7-94d1603e3e96"},"vehicle_type_id":"4","last_reported":1781163173,"current_range_meters":6800,"station_id":"ce4bhrh2rcd13ifvqhug","pricing_plan_id":"cebpf4jnsgd1na2vs0mg"},{"bike_id":"3060feaf-7385-4c44-b59b-8e6628744440","system_id":"levelo_inurba_marseille","lat":43.31729,"lon":5.40457,"is_reserved":false,"is_disabled":false,"rental_uris":{"android":"levelo://app?vid=3060feaf-7385-4c44-b59b-8e6628744440","ios":"levelo://app?vid=3060feaf-7385-4c44-b59b-8e6628744440"},"vehicle_type_id":"4","last_reported":1781163173,"current_range_meters":6800,"station_id":"ce4bh012rcd13ifvqd00","pricing_plan_id":"cebpf4jnsgd1na2vs0mg"},{"bike_id":"36a2d6e6-0484-4278-b429-bb49a21e1b95","system_id":"levelo_inurba_marseille","lat":43.24815,"lon":5.37445,"is_reserved":false,"is_disabled":false,"rental_uris":{"android":"levelo://app?vid=36a2d6e6-0484-4278-b429-bb49a21e1b95","ios":"levelo://app?vid=36a2d6e6-0484-4278-b429-bb49a21e1b95"},"vehicle_type_id":"4","last_reported":1781163173,"current_range_meters":6800,"station_id":"ce4bhgh2rcd13ifvqfb0","pricing_plan_id":"cebpf4jnsgd1na2vs0mg"},{"bike_id":"1d885001-881f-4c7a-ac86-1941adfead6e","system_id":"levelo_inurba_marseille","lat":43.25507,"lon":5.37703,"is_reserved":false,"is_disabled":false,"rental_uris":{"android":"levelo://app?vid=1d885001-881f-4c7a-ac86-1941adfead6e","ios":"levelo://app?vid=1d885001-881f-4c7a-ac86-1941adfead6e"},"vehicle_type_id":"4","last_reported":1781163173,"current_range_meters":6800,"station_id":"ce4bhh12rcd13ifvqff0","pricing_plan_id":"cebpf4jnsgd1na2vs0mg"},{"bike_id":"6129c198-cb70-4969-9b6d-42454f61949c","system_id":"levelo_inurba_marseille","lat":43.292292,"lon":5.360613,"is_reserved":false,"is_disabled":false,"rental_uris":{"android":"levelo://app?vid=6129c198-cb70-4969-9b6d-42454f61949c","ios":"levelo://app?vid=6129c198-cb70-4969-9b6d-42454f61949c"},"vehicle_type_id":"4","last_reported":1781163173,"current_range_meters":6800,"station_id":"ce4bhbh2rcd13ifvqeqg","pricing_plan_id":"cebpf4jnsgd1na2vs0mg"},{"bike_id":"c75b84e1-446b-41fc-a9a9-101569fed29e","system_id":"levelo_inurba_marseille","lat":43.30948,"lon":5.39036,"is_reserved":false,"is_disabled":false,"rental_uris":{"android":"levelo://app?vid=c75b84e1-446b-41fc-a9a9-101569fed29e","ios":"levelo://app?vid=c75b84e1-446b-41fc-a9a9-101569fed29e"},"vehicle_type_id":"4","last_reported":1781163173,"current_range_meters":6800,"station_id":"ce4bgup2rcd13ifvqco0","pricing_plan_id":"cebpf4jnsgd1na2vs0mg"},{"bike_id":"25b971a0-d89c-4959-8b81-eb046de03fb8","system_id":"levelo_inurba_marseille","lat":43.29779,"lon":5.37035,"is_reserved":false,"is_disabled":false,"rental_uris":{"android":"levelo://app?vid=25b971a0-d89c-4959-8b81-eb046de03fb8","ios":"levelo://app?vid=25b971a0-d89c-4959-8b81-eb046de03fb8"},"vehicle_type_id":"4","last_reported":1781163173,"current_range_meters":6800,"station_id":"ce4bgop2rcd13ifvqc1g","pricing_plan_id":"cebpf4jnsgd1na2vs0mg"},{"bike_id":"b01d1429-d775-4212-bddf-9c70789e9cdc","system_id":"levelo_inurba_marseille","lat":43.28614,"lon":5.3988,"is_reserved":false,"is_disabled":false,"rental_uris":{"android":"levelo://app?vid=b01d1429-d775-4212-bddf-9c70789e9cdc","ios":"levelo://app?vid=b01d1429-d775-4212-bddf-9c70789e9cdc"},"vehicle_type_id":"4","last_reported":1781163173,"current_range_meters":6800,"station_id":"st_d4a7ka997mjs738ck50g","pricing_plan_id":"cebpf4jnsgd1na2vs0mg"},{"bike_id":"810366c5-bb77-4ca7-981f-51c029a1c454","system_id":"levelo_inurba_marseille","lat":43.30643,"lon":5.39846,"is_reserved":false,"is_disabled":false,"rental_uris":{"android":"levelo://app?vid=810366c5-bb77-4ca7-981f-51c029a1c454","ios":"levelo://app?vid=810366c5-bb77-4ca7-981f-51c029a1c454"},"vehicle_type_id":"4","last_reported":1781163173,"current_range_meters":6800,"station_id":"","pricing_plan_id":"cebpf4jnsgd1na2vs0mg"},{"bike_id":"4db29cef-f359-45b4-aa25-c9721ce8bdab","system_id":"levelo_inurba_marseille","lat":43.25933,"lon":5.4091,"is_reserved":false,"is_disabled":false,"rental_uris":{"android":"levelo://app?vid=4db29cef-f359-45b4-aa25-c9721ce8bdab","ios":"levelo://app?vid=4db29cef-f359-45b4-aa25-c9721ce8bdab"},"vehicle_type_id":"4","last_reported":1781163173,"current_range_meters":7200,"station_id":"ce4bhm92rcd13ifvqglg","pricing_plan_id":"cebpf4jnsgd1na2vs0mg"},{"bike_id":"fadbe248-96f4-4da0-8a5e-bd3c6f824303","system_id":"levelo_inurba_marseille","lat":43.21216,"lon":5.35064,"is_reserved":false,"is_disabled":false,"rental_uris":{"android":"levelo://app?vid=fadbe248-96f4-4da0-8a5e-bd3c6f824303","ios":"levelo://app?vid=fadbe248-96f4-4da0-8a5e-bd3c6f824303"},"vehicle_type_id":"4","last_reported":1781163173,"current_range_meters":7200,"station_id":"st_cvj6sg6p6f1abm77japg","pricing_plan_id":"cebpf4jnsgd1na2vs0mg"},{"bike_id":"7228fead-11f4-4420-985a-f0fd937f1e1d","system_id":"levelo_inurba_marseille","lat":43.30912,"lon":5.36853,"is_reserved":false,"is_disabled":false,"rental_uris":{"android":"levelo://app?vid=7228fead-11f4-4420-985a-f0fd937f1e1d","ios":"levelo://app?vid=7228fead-11f4-4420-985a-f0fd937f1e1d"},"vehicle_type_id":"4","last_reported":1781163173,"current_range_meters":7200,"station_id":"ce4bgn92rcd13ifvqbvg","pricing_plan_id":"cebpf4jnsgd1na2vs0mg"},{"bike_id":"ff3d0ed3-6ea2-48e4-b7e8-e28e8d0a023a","system_id":"levelo_inurba_marseille","lat":43.29611,"lon":5.3771,"is_reserved":false,"is_disabled":true,"rental_uris":{"android":"levelo://app?vid=ff3d0ed3-6ea2-48e4-b7e8-e28e8d0a023a","ios":"levelo://app?vid=ff3d0ed3-6ea2-48e4-b7e8-e28e8d0a023a"},"vehicle_type_id":"4","last_reported":1781163173,"current_range_meters":7200,"station_id":"ce4bgi92rcd13ifvqb90","pricing_plan_id":"cebpf4jnsgd1na2vs0mg"},{"bike_id":"a1c015e9-3e11-46f0-b642-1fa3036dfa73","system_id":"levelo_inurba_marseille","lat":43.33181,"lon":5.377,"is_reserved":false,"is_disabled":false,"rental_uris":{"android":"levelo://app?vid=a1c015e9-3e11-46f0-b642-1fa3036dfa73","ios":"levelo://app?vid=a1c015e9-3e11-46f0-b642-1fa3036dfa73"},"vehicle_type_id":"4","last_reported":1781163173,"current_range_meters":7200,"station_id":"st_d46cu089ee8s73dldbu0","pricing_plan_id":"cebpf4jnsgd1na2vs0mg"},{"bike_id":"27333929-ceaa-4e96-917c-5d4e9dba5448","system_id":"levelo_inurba_marseille","lat":43.32526,"lon":5.41465,"is_reserved":false,"is_disabled":false,"rental_uris":{"android":"levelo://app?vid=27333929-ceaa-4e96-917c-5d4e9dba5448","ios":"levelo://app?vid=27333929-ceaa-4e96-917c-5d4e9dba5448"},"vehicle_type_id":"4","last_reported":1781163173,"current_range_meters":7200,"station_id":"ce4bhq12rcd13ifvqhhg","pricing_plan_id":"cebpf4jnsgd1na2vs0mg"},{"bike_id":"becf7538-a49a-47b2-898c-da691a16b228","system_id":"levelo_inurba_marseille","lat":43.29037,"lon":5.35922,"is_reserved":false,"is_disabled":true,"rental_uris":{"android":"levelo://app?vid=becf7538-a49a-47b2-898c-da691a16b228","ios":"levelo://app?vid=becf7538-a49a-47b2-898c-da691a16b228"},"vehicle_type_id":"4","last_reported":1781163173,"current_range_meters":7200,"station_id":"ce4bha92rcd13ifvqeg0","pricing_plan_id":"cebpf4jnsgd1na2vs0mg"},{"bike_id":"049804ab-2b8c-4a85-a59f-5106152cbf40","system_id":"levelo_inurba_marseille","lat":43.24168,"lon":5.397,"is_reserved":false,"is_disabled":false,"rental_uris":{"android":"levelo://app?vid=049804ab-2b8c-4a85-a59f-5106152cbf40","ios":"levelo://app?vid=049804ab-2b8c-4a85-a59f-5106152cbf40"},"vehicle_type_id":"4","last_reported":1781163173,"current_range_meters":7200,"station_id":"ce4bhn12rcd13ifvqgpg","pricing_plan_id":"cebpf4jnsgd1na2vs0mg"},{"bike_id":"7940b7b5-8638-49cd-86d9-15287edc4b1c","system_id":"levelo_inurba_marseille","lat":43.26222,"lon":5.38791,"is_reserved":false,"is_disabled":false,"rental_uris":{"android":"levelo://app?vid=7940b7b5-8638-49cd-86d9-15287edc4b1c","ios":"levelo://app?vid=7940b7b5-8638-49cd-86d9-15287edc4b1c"},"vehicle_type_id":"4","last_reported":1781163173,"current_range_meters":7200,"station_id":"st_d8gjfg747rts73coq3b0","pricing_plan_id":"cebpf4jnsgd1na2vs0mg"},{"bike_id":"7c131e63-4882-494d-814c-185065bffc7c","system_id":"levelo_inurba_marseille","lat":43.28479,"lon":5.48393,"is_reserved":false,"is_disabled":false,"rental_uris":{"android":"levelo://app?vid=7c131e63-4882-494d-814c-185065bffc7c","ios":"levelo://app?vid=7c131e63-4882-494d-814c-185065bffc7c"},"vehicle_type_id":"4","last_reported":1781163173,"current_range_meters":7200,"station_id":"st_d3svhcjqgbts73a3dn0g","pricing_plan_id":"cebpf4jnsgd1na2vs0mg"},{"bike_id":"4343f291-38b8-47e7-a883-039a0fd0f77e","system_id":"levelo_inurba_marseille","lat":43.32098,"lon":5.36747,"is_reserved":false,"is_disabled":false,"rental_uris":{"android":"levelo://app?vid=4343f291-38b8-47e7-a883-039a0fd0f77e","ios":"levelo://app?vid=4343f291-38b8-47e7-a883-039a0fd0f77e"},"vehicle_type_id":"4","last_reported":1781163173,"current_range_meters":7200,"station_id":"ce4bhrh2rcd13ifvqhug","pricing_plan_id":"cebpf4jnsgd1na2vs0mg"},{"bike_id":"a384c101-de5e-4857-925c-516c7f23b3ab","system_id":"levelo_inurba_marseille","lat":43.28616,"lon":5.35096,"is_reserved":false,"is_disabled":false,"rental_uris":{"android":"levelo://app?vid=a384c101-de5e-4857-925c-516c7f23b3ab","ios":"levelo://app?vid=a384c101-de5e-4857-925c-516c7f23b3ab"},"vehicle_type_id":"4","last_reported":1781163173,"current_range_meters":7200,"station_id":"ce4bhch2rcd13ifvqeug","pricing_plan_id":"cebpf4jnsgd1na2vs0mg"},{"bike_id":"cf061b85-7a5f-4df9-9f01-b0768f07b7a0","system_id":"levelo_inurba_marseille","lat":43.30786,"lon":5.37649,"is_reserved":false,"is_disabled":false,"rental_uris":{"android":"levelo://app?vid=cf061b85-7a5f-4df9-9f01-b0768f07b7a0","ios":"levelo://app?vid=cf061b85-7a5f-4df9-9f01-b0768f07b7a0"},"vehicle_type_id":"4","last_reported":1781163173,"current_range_meters":7200,"station_id":"ce4bgv92rcd13ifvqcq0","pricing_plan_id":"cebpf4jnsgd1na2vs0mg"},{"bike_id":"c059ec0d-14a9-4d67-bc6c-abf4419506c7","system_id":"levelo_inurba_marseille","lat":43.31227,"lon":5.36863,"is_reserved":false,"is_disabled":false,"rental_uris":{"android":"levelo://app?vid=c059ec0d-14a9-4d67-bc6c-abf4419506c7","ios":"levelo://app?vid=c059ec0d-14a9-4d67-bc6c-abf4419506c7"},"vehicle_type_id":"4","last_reported":1781163173,"current_range_meters":7200,"station_id":"ce4bgl92rcd13ifvqbq0","pricing_plan_id":"cebpf4jnsgd1na2vs0mg"},{"bike_id":"0d1e873c-b33d-4059-bcba-f8d07ef97d13","system_id":"levelo_inurba_marseille","lat":43.32477,"lon":5.36575,"is_reserved":false,"is_disabled":false,"rental_uris":{"android":"levelo://app?vid=0d1e873c-b33d-4059-bcba-f8d07ef97d13","ios":"levelo://app?vid=0d1e873c-b33d-4059-bcba-f8d07ef97d13"},"vehicle_type_id":"4","last_reported":1781163173,"current_range_meters":7200,"station_id":"ce4bhs12rcd13ifvqhvg","pricing_plan_id":"cebpf4jnsgd1na2vs0mg"},{"bike_id":"ea83f12e-2e69-4bb2-8785-19597977ac3f","system_id":"levelo_inurba_marseille","lat":43.225335,"lon":5.348316,"is_reserved":false,"is_disabled":false,"rental_uris":{"android":"levelo://app?vid=ea83f12e-2e69-4bb2-8785-19597977ac3f","ios":"levelo://app?vid=ea83f12e-2e69-4bb2-8785-19597977ac3f"},"vehicle_type_id":"4","last_reported":1781163173,"current_range_meters":7200,"station_id":"st_cvj5dfep6f1abm77gieg","pricing_plan_id":"cebpf4jnsgd1na2vs0mg"},{"bike_id":"4447eedc-956a-4b06-9e3d-6d7cc4b464d5","system_id":"levelo_inurba_marseille","lat":43.29277,"lon":5.36823,"is_reserved":false,"is_disabled":true,"rental_uris":{"android":"levelo://app?vid=4447eedc-956a-4b06-9e3d-6d7cc4b464d5","ios":"levelo://app?vid=4447eedc-956a-4b06-9e3d-6d7cc4b464d5"},"vehicle_type_id":"4","last_reported":1781163173,"current_range_meters":7200,"station_id":"ce4bhbp2rcd13ifvqesg","pricing_plan_id":"cebpf4jnsgd1na2vs0mg"},{"bike_id":"74d62127-e1b5-4940-a48e-e9ea7928adf0","system_id":"levelo_inurba_marseille","lat":43.30833,"lon":5.41263,"is_reserved":false,"is_disabled":false,"rental_uris":{"android":"levelo://app?vid=74d62127-e1b5-4940-a48e-e9ea7928adf0","ios":"levelo://app?vid=74d62127-e1b5-4940-a48e-e9ea7928adf0"},"vehicle_type_id":"4","last_reported":1781163173,"current_range_meters":7200,"station_id":"","pricing_plan_id":"cebpf4jnsgd1na2vs0mg"},{"bike_id":"fab19de5-8cb4-4981-a812-59e6e1f82822","system_id":"levelo_inurba_marseille","lat":43.30764,"lon":5.38548,"is_reserved":false,"is_disabled":false,"rental_uris":{"android":"levelo://app?vid=fab19de5-8cb4-4981-a812-59e6e1f82822","ios":"levelo://app?vid=fab19de5-8cb4-4981-a812-59e6e1f82822"},"vehicle_type_id":"4","last_reported":1781163173,"current_range_meters":7200,"station_id":"","pricing_plan_id":"cebpf4jnsgd1na2vs0mg"},{"bike_id":"52571cc2-49cd-465e-824e-c38930dc7e28","system_id":"levelo_inurba_marseille","lat":43.24665,"lon":5.38157,"is_reserved":false,"is_disabled":false,"rental_uris":{"android":"levelo://app?vid=52571cc2-49cd-465e-824e-c38930dc7e28","ios":"levelo://app?vid=52571cc2-49cd-465e-824e-c38930dc7e28"},"vehicle_type_id":"4","last_reported":1781163173,"current_range_meters":7200,"station_id":"ce4bhih2rcd13ifvqfr0","pricing_plan_id":"cebpf4jnsgd1na2vs0mg"},{"bike_id":"2a25c068-8bed-4a95-be62-5f89bd4a2a2b","system_id":"levelo_inurba_marseille","lat":43.23158,"lon":5.43763,"is_reserved":false,"is_disabled":false,"rental_uris":{"android":"levelo://app?vid=2a25c068-8bed-4a95-be62-5f89bd4a2a2b","ios":"levelo://app?vid=2a25c068-8bed-4a95-be62-5f89bd4a2a2b"},"vehicle_type_id":"4","last_reported":1781163173,"current_range_meters":7200,"station_id":"ce4bhmp2rcd13ifvqgog","pricing_plan_id":"cebpf4jnsgd1na2vs0mg"},{"bike_id":"70c43c17-8ae7-4d4a-bb05-59f325a6b96f","system_id":"levelo_inurba_marseille","lat":43.26782,"lon":5.39404,"is_reserved":false,"is_disabled":false,"rental_uris":{"android":"levelo://app?vid=70c43c17-8ae7-4d4a-bb05-59f325a6b96f","ios":"levelo://app?vid=70c43c17-8ae7-4d4a-bb05-59f325a6b96f"},"vehicle_type_id":"4","last_reported":1781163173,"current_range_meters":8000,"station_id":"ce4bhh12rcd13ifvqfg0","pricing_plan_id":"cebpf4jnsgd1na2vs0mg"},{"bike_id":"03a7a031-8468-4601-8184-85ebd1c11bea","system_id":"levelo_inurba_marseille","lat":43.31635,"lon":5.3838,"is_reserved":false,"is_disabled":false,"rental_uris":{"android":"levelo://app?vid=03a7a031-8468-4601-8184-85ebd1c11bea","ios":"levelo://app?vid=03a7a031-8468-4601-8184-85ebd1c11bea"},"vehicle_type_id":"4","last_reported":1781163173,"current_range_meters":8000,"station_id":"","pricing_plan_id":"cebpf4jnsgd1na2vs0mg"},{"bike_id":"8369abbd-c3fb-412a-8d1a-49e51529efce","system_id":"levelo_inurba_marseille","lat":43.30126,"lon":5.3739,"is_reserved":false,"is_disabled":false,"rental_uris":{"android":"levelo://app?vid=8369abbd-c3fb-412a-8d1a-49e51529efce","ios":"levelo://app?vid=8369abbd-c3fb-412a-8d1a-49e51529efce"},"vehicle_type_id":"4","last_reported":1781163173,"current_range_meters":8000,"station_id":"ce4bgs92rcd13ifvqcc0","pricing_plan_id":"cebpf4jnsgd1na2vs0mg"},{"bike_id":"18c76cdd-8c55-4ae2-8cdd-582cfa98e23e","system_id":"levelo_inurba_marseille","lat":43.30501,"lon":5.36528,"is_reserved":false,"is_disabled":true,"rental_uris":{"android":"levelo://app?vid=18c76cdd-8c55-4ae2-8cdd-582cfa98e23e","ios":"levelo://app?vid=18c76cdd-8c55-4ae2-8cdd-582cfa98e23e"},"vehicle_type_id":"4","last_reported":1781163173,"current_range_meters":8000,"station_id":"","pricing_plan_id":"cebpf4jnsgd1na2vs0mg"},{"bike_id":"483e2183-ee67-4191-93a2-8a6ab6da8b68","system_id":"levelo_inurba_marseille","lat":43.30449,"lon":5.37962,"is_reserved":false,"is_disabled":false,"rental_uris":{"android":"levelo://app?vid=483e2183-ee67-4191-93a2-8a6ab6da8b68","ios":"levelo://app?vid=483e2183-ee67-4191-93a2-8a6ab6da8b68"},"vehicle_type_id":"4","last_reported":1781163173,"current_range_meters":8000,"station_id":"ce4bgup2rcd13ifvqcn0","pricing_plan_id":"cebpf4jnsgd1na2vs0mg"},{"bike_id":"0c1dc458-878c-4ebd-912e-32a6863822de","system_id":"levelo_inurba_marseille","lat":43.2706,"lon":5.42283,"is_reserved":false,"is_disabled":true,"rental_uris":{"android":"levelo://app?vid=0c1dc458-878c-4ebd-912e-32a6863822de","ios":"levelo://app?vid=0c1dc458-878c-4ebd-912e-32a6863822de"},"vehicle_type_id":"4","last_reported":1781163173,"current_range_meters":8000,"station_id":"ce4bhk92rcd13ifvqgb0","pricing_plan_id":"cebpf4jnsgd1na2vs0mg"},{"bike_id":"6eb5a610-47af-44f1-ae0e-304fa41216b6","system_id":"levelo_inurba_marseille","lat":43.27207,"lon":5.39152,"is_reserved":false,"is_disabled":false,"rental_uris":{"android":"levelo://app?vid=6eb5a610-47af-44f1-ae0e-304fa41216b6","ios":"levelo://app?vid=6eb5a610-47af-44f1-ae0e-304fa41216b6"},"vehicle_type_id":"4","last_reported":1781163173,"current_range_meters":8000,"station_id":"ce4bhhp2rcd13ifvqfm0","pricing_plan_id":"cebpf4jnsgd1na2vs0mg"},{"bike_id":"cc474a1a-11ae-4d69-975a-b4b7c2ba9dbc","system_id":"levelo_inurba_marseille","lat":43.23152,"lon":5.43713,"is_reserved":false,"is_disabled":false,"rental_uris":{"android":"levelo://app?vid=cc474a1a-11ae-4d69-975a-b4b7c2ba9dbc","ios":"levelo://app?vid=cc474a1a-11ae-4d69-975a-b4b7c2ba9dbc"},"vehicle_type_id":"4","last_reported":1781163173,"current_range_meters":8000,"station_id":"ce4bhmp2rcd13ifvqgog","pricing_plan_id":"cebpf4jnsgd1na2vs0mg"},{"bike_id":"9634c414-240c-4fff-a9df-d2619a6ec22c","system_id":"levelo_inurba_marseille","lat":43.27065,"lon":5.38334,"is_reserved":false,"is_disabled":false,"rental_uris":{"android":"levelo://app?vid=9634c414-240c-4fff-a9df-d2619a6ec22c","ios":"levelo://app?vid=9634c414-240c-4fff-a9df-d2619a6ec22c"},"vehicle_type_id":"4","last_reported":1781163173,"current_range_meters":8000,"station_id":"st_d3n2fo6cfp8s73cte1j0","pricing_plan_id":"cebpf4jnsgd1na2vs0mg"},{"bike_id":"0879deff-8fe1-47ae-94a9-b638dcbf5c01","system_id":"levelo_inurba_marseille","lat":43.31271,"lon":5.3688,"is_reserved":false,"is_disabled":false,"rental_uris":{"android":"levelo://app?vid=0879deff-8fe1-47ae-94a9-b638dcbf5c01","ios":"levelo://app?vid=0879deff-8fe1-47ae-94a9-b638dcbf5c01"},"vehicle_type_id":"4","last_reported":1781163173,"current_range_meters":8000,"station_id":"ce4bgl92rcd13ifvqbq0","pricing_plan_id":"cebpf4jnsgd1na2vs0mg"},{"bike_id":"72596ebd-ea6d-4b6d-968a-acb42e5b04cf","system_id":"levelo_inurba_marseille","lat":43.29601,"lon":5.37892,"is_reserved":false,"is_disabled":false,"rental_uris":{"android":"levelo://app?vid=72596ebd-ea6d-4b6d-968a-acb42e5b04cf","ios":"levelo://app?vid=72596ebd-ea6d-4b6d-968a-acb42e5b04cf"},"vehicle_type_id":"4","last_reported":1781163173,"current_range_meters":8000,"station_id":"","pricing_plan_id":"cebpf4jnsgd1na2vs0mg"},{"bike_id":"6970b5ae-f47a-42ce-b757-f210af606b0b","system_id":"levelo_inurba_marseille","lat":43.29887,"lon":5.38888,"is_reserved":false,"is_disabled":false,"rental_uris":{"android":"levelo://app?vid=6970b5ae-f47a-42ce-b757-f210af606b0b","ios":"levelo://app?vid=6970b5ae-f47a-42ce-b757-f210af606b0b"},"vehicle_type_id":"4","last_reported":1781163173,"current_range_meters":8000,"station_id":"ce4bh392rcd13ifvqdl0","pricing_plan_id":"cebpf4jnsgd1na2vs0mg"},{"bike_id":"a4eeea30-dabb-4ac4-8039-5fbb48ca0da4","system_id":"levelo_inurba_marseille","lat":43.29977,"lon":5.37172,"is_reserved":false,"is_disabled":false,"rental_uris":{"android":"levelo://app?vid=a4eeea30-dabb-4ac4-8039-5fbb48ca0da4","ios":"levelo://app?vid=a4eeea30-dabb-4ac4-8039-5fbb48ca0da4"},"vehicle_type_id":"4","last_reported":1781163173,"current_range_meters":8000,"station_id":"ce4bgr92rcd13ifvqc7g","pricing_plan_id":"cebpf4jnsgd1na2vs0mg"},{"bike_id":"5ef8b45c-5a2e-4ef3-b317-791d97d054bf","system_id":"levelo_inurba_marseille","lat":43.27143,"lon":5.41426,"is_reserved":false,"is_disabled":false,"rental_uris":{"android":"levelo://app?vid=5ef8b45c-5a2e-4ef3-b317-791d97d054bf","ios":"levelo://app?vid=5ef8b45c-5a2e-4ef3-b317-791d97d054bf"},"vehicle_type_id":"4","last_reported":1781163173,"current_range_meters":8000,"station_id":"","pricing_plan_id":"cebpf4jnsgd1na2vs0mg"},{"bike_id":"0d9ec8c2-f4f8-46aa-9a87-53879647a3e7","system_id":"levelo_inurba_marseille","lat":43.30454,"lon":5.41523,"is_reserved":false,"is_disabled":false,"rental_uris":{"android":"levelo://app?vid=0d9ec8c2-f4f8-46aa-9a87-53879647a3e7","ios":"levelo://app?vid=0d9ec8c2-f4f8-46aa-9a87-53879647a3e7"},"vehicle_type_id":"4","last_reported":1781163173,"current_range_meters":8000,"station_id":"","pricing_plan_id":"cebpf4jnsgd1na2vs0mg"},{"bike_id":"d05cd220-c005-4550-9fbb-505da9a44901","system_id":"levelo_inurba_marseille","lat":43.32035,"lon":5.41544,"is_reserved":false,"is_disabled":false,"rental_uris":{"android":"levelo://app?vid=d05cd220-c005-4550-9fbb-505da9a44901","ios":"levelo://app?vid=d05cd220-c005-4550-9fbb-505da9a44901"},"vehicle_type_id":"4","last_reported":1781163173,"current_range_meters":8000,"station_id":"ce4bhq92rcd13ifvqhkg","pricing_plan_id":"cebpf4jnsgd1na2vs0mg"},{"bike_id":"8682f4e8-0798-4b4f-8fef-c4dc002ea1c8","system_id":"levelo_inurba_marseille","lat":43.29139,"lon":5.46116,"is_reserved":false,"is_disabled":false,"rental_uris":{"android":"levelo://app?vid=8682f4e8-0798-4b4f-8fef-c4dc002ea1c8","ios":"levelo://app?vid=8682f4e8-0798-4b4f-8fef-c4dc002ea1c8"},"vehicle_type_id":"4","last_reported":1781163173,"current_range_meters":8000,"station_id":"","pricing_plan_id":"cebpf4jnsgd1na2vs0mg"},{"bike_id":"b41976db-bf44-46db-bd91-c5b3de590a30","system_id":"levelo_inurba_marseille","lat":43.22546,"lon":5.34824,"is_reserved":false,"is_disabled":false,"rental_uris":{"android":"levelo://app?vid=b41976db-bf44-46db-bd91-c5b3de590a30","ios":"levelo://app?vid=b41976db-bf44-46db-bd91-c5b3de590a30"},"vehicle_type_id":"4","last_reported":1781163173,"current_range_meters":8000,"station_id":"st_cvj5dfep6f1abm77gieg","pricing_plan_id":"cebpf4jnsgd1na2vs0mg"},{"bike_id":"643a5108-6712-460c-84ac-96a9e310c2a1","system_id":"levelo_inurba_marseille","lat":43.32332,"lon":5.3675,"is_reserved":false,"is_disabled":false,"rental_uris":{"android":"levelo://app?vid=643a5108-6712-460c-84ac-96a9e310c2a1","ios":"levelo://app?vid=643a5108-6712-460c-84ac-96a9e310c2a1"},"vehicle_type_id":"4","last_reported":1781163173,"current_range_meters":8400,"station_id":"ce4bhsh2rcd13ifvqi2g","pricing_plan_id":"cebpf4jnsgd1na2vs0mg"},{"bike_id":"05dbeb00-c94d-4fd8-88ff-0b9e5369bba0","system_id":"levelo_inurba_marseille","lat":43.24407,"lon":5.37055,"is_reserved":false,"is_disabled":false,"rental_uris":{"android":"levelo://app?vid=05dbeb00-c94d-4fd8-88ff-0b9e5369bba0","ios":"levelo://app?vid=05dbeb00-c94d-4fd8-88ff-0b9e5369bba0"},"vehicle_type_id":"4","last_reported":1781163173,"current_range_meters":8400,"station_id":"ce4bhhh2rcd13ifvqfk0","pricing_plan_id":"cebpf4jnsgd1na2vs0mg"},{"bike_id":"91f57b43-fef8-4751-ade7-b776093b8207","system_id":"levelo_inurba_marseille","lat":43.24395,"lon":5.37054,"is_reserved":false,"is_disabled":false,"rental_uris":{"android":"levelo://app?vid=91f57b43-fef8-4751-ade7-b776093b8207","ios":"levelo://app?vid=91f57b43-fef8-4751-ade7-b776093b8207"},"vehicle_type_id":"4","last_reported":1781163173,"current_range_meters":8400,"station_id":"ce4bhhh2rcd13ifvqfk0","pricing_plan_id":"cebpf4jnsgd1na2vs0mg"},{"bike_id":"9d7f2eae-b99b-441b-9920-df0f210ba389","system_id":"levelo_inurba_marseille","lat":43.24952,"lon":5.40488,"is_reserved":false,"is_disabled":false,"rental_uris":{"android":"levelo://app?vid=9d7f2eae-b99b-441b-9920-df0f210ba389","ios":"levelo://app?vid=9d7f2eae-b99b-441b-9920-df0f210ba389"},"vehicle_type_id":"4","last_reported":1781163173,"current_range_meters":8400,"station_id":"st_d2ngiaodas8pm72gd1h0","pricing_plan_id":"cebpf4jnsgd1na2vs0mg"},{"bike_id":"860722fe-5c5a-4186-988e-8f94a0e241b3","system_id":"levelo_inurba_marseille","lat":43.32118,"lon":5.36774,"is_reserved":false,"is_disabled":false,"rental_uris":{"android":"levelo://app?vid=860722fe-5c5a-4186-988e-8f94a0e241b3","ios":"levelo://app?vid=860722fe-5c5a-4186-988e-8f94a0e241b3"},"vehicle_type_id":"4","last_reported":1781163173,"current_range_meters":8400,"station_id":"ce4bhrh2rcd13ifvqhug","pricing_plan_id":"cebpf4jnsgd1na2vs0mg"},{"bike_id":"35b048a7-e18a-45e3-af10-0f69baf1889c","system_id":"levelo_inurba_marseille","lat":43.23206,"lon":5.35566,"is_reserved":false,"is_disabled":false,"rental_uris":{"android":"levelo://app?vid=35b048a7-e18a-45e3-af10-0f69baf1889c","ios":"levelo://app?vid=35b048a7-e18a-45e3-af10-0f69baf1889c"},"vehicle_type_id":"4","last_reported":1781163173,"current_range_meters":8400,"station_id":"ce4bhu92rcd13ifvqi70","pricing_plan_id":"cebpf4jnsgd1na2vs0mg"},{"bike_id":"e76b8826-608a-43d5-84ee-3eea9bc7666f","system_id":"levelo_inurba_marseille","lat":43.28421,"lon":5.39587,"is_reserved":false,"is_disabled":false,"rental_uris":{"android":"levelo://app?vid=e76b8826-608a-43d5-84ee-3eea9bc7666f","ios":"levelo://app?vid=e76b8826-608a-43d5-84ee-3eea9bc7666f"},"vehicle_type_id":"4","last_reported":1781163173,"current_range_meters":8400,"station_id":"","pricing_plan_id":"cebpf4jnsgd1na2vs0mg"},{"bike_id":"7a2582a1-9f4e-4b77-a662-c666529e13ef","system_id":"levelo_inurba_marseille","lat":43.28067,"lon":5.34988,"is_reserved":false,"is_disabled":false,"rental_uris":{"android":"levelo://app?vid=7a2582a1-9f4e-4b77-a662-c666529e13ef","ios":"levelo://app?vid=7a2582a1-9f4e-4b77-a662-c666529e13ef"},"vehicle_type_id":"4","last_reported":1781163173,"current_range_meters":8400,"station_id":"","pricing_plan_id":"cebpf4jnsgd1na2vs0mg"},{"bike_id":"d4780935-aa6f-4d3d-a059-64f928e06f05","system_id":"levelo_inurba_marseille","lat":43.33542,"lon":5.3747,"is_reserved":false,"is_disabled":false,"rental_uris":{"android":"levelo://app?vid=d4780935-aa6f-4d3d-a059-64f928e06f05","ios":"levelo://app?vid=d4780935-aa6f-4d3d-a059-64f928e06f05"},"vehicle_type_id":"4","last_reported":1781163173,"current_range_meters":8400,"station_id":"st_d46tts09ee8s73dlu43g","pricing_plan_id":"cebpf4jnsgd1na2vs0mg"},{"bike_id":"8b7f23fc-1e65-43c2-998e-b3ee6ddf07c7","system_id":"levelo_inurba_marseille","lat":43.30155,"lon":5.37487,"is_reserved":false,"is_disabled":false,"rental_uris":{"android":"levelo://app?vid=8b7f23fc-1e65-43c2-998e-b3ee6ddf07c7","ios":"levelo://app?vid=8b7f23fc-1e65-43c2-998e-b3ee6ddf07c7"},"vehicle_type_id":"4","last_reported":1781163173,"current_range_meters":8400,"station_id":"","pricing_plan_id":"cebpf4jnsgd1na2vs0mg"},{"bike_id":"0a863416-481b-47ce-a3aa-6d981f931e44","system_id":"levelo_inurba_marseille","lat":43.30874,"lon":5.37312,"is_reserved":false,"is_disabled":false,"rental_uris":{"android":"levelo://app?vid=0a863416-481b-47ce-a3aa-6d981f931e44","ios":"levelo://app?vid=0a863416-481b-47ce-a3aa-6d981f931e44"},"vehicle_type_id":"4","last_reported":1781163173,"current_range_meters":8400,"station_id":"","pricing_plan_id":"cebpf4jnsgd1na2vs0mg"},{"bike_id":"40de0209-043c-4ed6-84c3-7ac1da5cf58d","system_id":"levelo_inurba_marseille","lat":43.32118,"lon":5.36754,"is_reserved":false,"is_disabled":false,"rental_uris":{"android":"levelo://app?vid=40de0209-043c-4ed6-84c3-7ac1da5cf58d","ios":"levelo://app?vid=40de0209-043c-4ed6-84c3-7ac1da5cf58d"},"vehicle_type_id":"4","last_reported":1781163173,"current_range_meters":8400,"station_id":"ce4bhrh2rcd13ifvqhug","pricing_plan_id":"cebpf4jnsgd1na2vs0mg"},{"bike_id":"8859d173-9f5d-4e39-86ed-34ec86a90175","system_id":"levelo_inurba_marseille","lat":43.29922,"lon":5.4278,"is_reserved":false,"is_disabled":false,"rental_uris":{"android":"levelo://app?vid=8859d173-9f5d-4e39-86ed-34ec86a90175","ios":"levelo://app?vid=8859d173-9f5d-4e39-86ed-34ec86a90175"},"vehicle_type_id":"4","last_reported":1781163173,"current_range_meters":8400,"station_id":"","pricing_plan_id":"cebpf4jnsgd1na2vs0mg"},{"bike_id":"551721cc-4abe-415c-b408-9f461dd4b762","system_id":"levelo_inurba_marseille","lat":43.24415,"lon":5.37069,"is_reserved":false,"is_disabled":false,"rental_uris":{"android":"levelo://app?vid=551721cc-4abe-415c-b408-9f461dd4b762","ios":"levelo://app?vid=551721cc-4abe-415c-b408-9f461dd4b762"},"vehicle_type_id":"4","last_reported":1781163173,"current_range_meters":8400,"station_id":"ce4bhhh2rcd13ifvqfk0","pricing_plan_id":"cebpf4jnsgd1na2vs0mg"},{"bike_id":"853be035-347e-40ad-8ff2-aa799e926a9d","system_id":"levelo_inurba_marseille","lat":43.26779,"lon":5.39432,"is_reserved":false,"is_disabled":false,"rental_uris":{"android":"levelo://app?vid=853be035-347e-40ad-8ff2-aa799e926a9d","ios":"levelo://app?vid=853be035-347e-40ad-8ff2-aa799e926a9d"},"vehicle_type_id":"4","last_reported":1781163173,"current_range_meters":8400,"station_id":"ce4bhh12rcd13ifvqfg0","pricing_plan_id":"cebpf4jnsgd1na2vs0mg"},{"bike_id":"3c9222a1-4e9f-4e1e-85ac-7f5c27aef6de","system_id":"levelo_inurba_marseille","lat":43.30402,"lon":5.38945,"is_reserved":false,"is_disabled":true,"rental_uris":{"android":"levelo://app?vid=3c9222a1-4e9f-4e1e-85ac-7f5c27aef6de","ios":"levelo://app?vid=3c9222a1-4e9f-4e1e-85ac-7f5c27aef6de"},"vehicle_type_id":"4","last_reported":1781163173,"current_range_meters":8400,"station_id":"","pricing_plan_id":"cebpf4jnsgd1na2vs0mg"},{"bike_id":"032de8e6-0ec2-42ff-875f-57dfdb7e3c3e","system_id":"levelo_inurba_marseille","lat":43.31398,"lon":5.36659,"is_reserved":false,"is_disabled":false,"rental_uris":{"android":"levelo://app?vid=032de8e6-0ec2-42ff-875f-57dfdb7e3c3e","ios":"levelo://app?vid=032de8e6-0ec2-42ff-875f-57dfdb7e3c3e"},"vehicle_type_id":"4","last_reported":1781163173,"current_range_meters":8400,"station_id":"","pricing_plan_id":"cebpf4jnsgd1na2vs0mg"},{"bike_id":"f0a83dda-1edd-41cd-870a-04e8d8e83042","system_id":"levelo_inurba_marseille","lat":43.25216,"lon":5.41122,"is_reserved":false,"is_disabled":false,"rental_uris":{"android":"levelo://app?vid=f0a83dda-1edd-41cd-870a-04e8d8e83042","ios":"levelo://app?vid=f0a83dda-1edd-41cd-870a-04e8d8e83042"},"vehicle_type_id":"4","last_reported":1781163173,"current_range_meters":8400,"station_id":"","pricing_plan_id":"cebpf4jnsgd1na2vs0mg"},{"bike_id":"e9ce25b8-b480-4907-8ce1-b8aecfbb3105","system_id":"levelo_inurba_marseille","lat":43.32335,"lon":5.3672,"is_reserved":false,"is_disabled":false,"rental_uris":{"android":"levelo://app?vid=e9ce25b8-b480-4907-8ce1-b8aecfbb3105","ios":"levelo://app?vid=e9ce25b8-b480-4907-8ce1-b8aecfbb3105"},"vehicle_type_id":"4","last_reported":1781163173,"current_range_meters":8400,"station_id":"ce4bhsh2rcd13ifvqi2g","pricing_plan_id":"cebpf4jnsgd1na2vs0mg"},{"bike_id":"2806757b-0028-4b3b-9a88-72bf620f149a","system_id":"levelo_inurba_marseille","lat":43.30913,"lon":5.36839,"is_reserved":false,"is_disabled":false,"rental_uris":{"android":"levelo://app?vid=2806757b-0028-4b3b-9a88-72bf620f149a","ios":"levelo://app?vid=2806757b-0028-4b3b-9a88-72bf620f149a"},