{"last_updated":1729102371,"ttl":60,"version":"2.2","data":{"bikes":[{"bike_id":"60882861-bf8c-4d22-964f-ecff7d884ae5","system_id":"levelo_inurba_marseille","lat":43.25008,"lon":5.38929,"is_reserved":false,"is_disabled":false,"rental_uris":{"android":"levelo://app?vid=60882861-bf8c-4d22-964f-ecff7d884ae5","ios":"levelo://app?vid=60882861-bf8c-4d22-964f-ecff7d884ae5"},"vehicle_type_id":"4","last_reported":1729102371,"current_range_meters":30400,"station_id":"ce4bhgp2rcd13ifvqfd0","pricing_plan_id":"cebpf4jnsgd1na2vs0mg"},{"bike_id":"676ec6c4-6b42-43e0-81fe-327782965da5","system_id":"levelo_inurba_marseille","lat":43.337444,"lon":5.374475,"is_reserved":false,"is_disabled":false,"rental_uris":{"android":"levelo://app?vid=676ec6c4-6b42-43e0-81fe-327782965da5","ios":"levelo://app?vid=676ec6c4-6b42-43e0-81fe-327782965da5"},"vehicle_type_id":"4","last_reported":1729102371,"current_range_meters":20000,"station_id":"","pricing_plan_id":"cebpf4jnsgd1na2vs0mg"},{"bike_id":"a446924e-74b7-4a66-b88c-c37b20440896","system_id":"levelo_inurba_marseille","lat":43.2407,"lon":5.37765,"is_reserved":false,"is_disabled":false,"rental_uris":{"android":"levelo://app?vid=a446924e-74b7-4a66-b88c-c37b20440896","ios":"levelo://app?vid=a446924e-74b7-4a66-b88c-c37b20440896"},"vehicle_type_id":"4","last_reported":1729102371,"current_range_meters":22400,"station_id":"ce4bhnp2rcd13ifvqgvg","pricing_plan_id":"cebpf4jnsgd1na2vs0mg"},{"bike_id":"8da51807-1bda-49c8-8a8e-c38f67c41380","system_id":"levelo_inurba_marseille","lat":43.29536,"lon":5.38543,"is_reserved":false,"is_disabled":false,"rental_uris":{"android":"levelo://app?vid=8da51807-1bda-49c8-8a8e-c38f67c41380","ios":"levelo://app?vid=8da51807-1bda-49c8-8a8e-c38f67c41380"},"vehicle_type_id":"4","last_reported":1729102371,"current_range_meters":37600,"station_id":"ce4bgih2rcd13ifvqba0","pricing_plan_id":"cebpf4jnsgd1na2vs0mg"},{"bike_id":"299b542a-dbb4-421e-9b91-f87a08aa6ce9","system_id":"levelo_inurba_marseille","lat":43.269537,"lon":5.386326,"is_reserved":false,"is_disabled":false,"rental_uris":{"android":"levelo://app?vid=299b542a-dbb4-421e-9b91-f87a08aa6ce9","ios":"levelo://app?vid=299b542a-dbb4-421e-9b91-f87a08aa6ce9"},"vehicle_type_id":"4","last_reported":1729102371,"current_range_meters":4000,"station_id":"ce4bhg92rcd13ifvqf90","pricing_plan_id":"cebpf4jnsgd1na2vs0mg"},{"bike_id":"9c9becd7-f095-4253-b081-e9c44c14ef29","system_id":"levelo_inurba_marseille","lat":43.292084,"lon":5.393234,"is_reserved":false,"is_disabled":false,"rental_uris":{"android":"levelo://app?vid=9c9becd7-f095-4253-b081-e9c44c14ef29","ios":"levelo://app?vid=9c9becd7-f095-4253-b081-e9c44c14ef29"},"vehicle_type_id":"4","last_reported":1729102371,"current_range_meters":33600,"station_id":"ce4bhph2rcd13ifvqhdg","pricing_plan_id":"cebpf4jnsgd1na2vs0mg"},{"bike_id":"f883cfa2-9c75-4d93-9e83-a804c574fd24","system_id":"levelo_inurba_marseille","lat":43.33023,"lon":5.39047,"is_reserved":false,"is_disabled":false,"rental_uris":{"android":"levelo://app?vid=f883cfa2-9c75-4d93-9e83-a804c574fd24","ios":"levelo://app?vid=f883cfa2-9c75-4d93-9e83-a804c574fd24"},"vehicle_type_id":"4","last_reported":1729102371,"current_range_meters":25200,"station_id":"ce4bhr92rcd13ifvqhrg","pricing_plan_id":"cebpf4jnsgd1na2vs0mg"},{"bike_id":"6f397f1f-1468-45fd-9b40-a31e283da189","system_id":"levelo_inurba_marseille","lat":43.29426,"lon":5.3861,"is_reserved":false,"is_disabled":false,"rental_uris":{"android":"levelo://app?vid=6f397f1f-1468-45fd-9b40-a31e283da189","ios":"levelo://app?vid=6f397f1f-1468-45fd-9b40-a31e283da189"},"vehicle_type_id":"4","last_reported":1729102371,"current_range_meters":18000,"station_id":"ce4bh2h2rcd13ifvqdh0","pricing_plan_id":"cebpf4jnsgd1na2vs0mg"},{"bike_id":"042e5b40-9e97-45f4-843e-ff54af18e3a3","system_id":"levelo_inurba_marseille","lat":43.337444,"lon":5.374475,"is_reserved":false,"is_disabled":false,"rental_uris":{"android":"levelo://app?vid=042e5b40-9e97-45f4-843e-ff54af18e3a3","ios":"levelo://app?vid=042e5b40-9e97-45f4-843e-ff54af18e3a3"},"vehicle_type_id":"4","last_reported":1729102371,"current_range_meters":35200,"station_id":"","pricing_plan_id":"cebpf4jnsgd1na2vs0mg"},{"bike_id":"d25e3192-c141-44fa-83a9-f7ae7b4adfc7","system_id":"levelo_inurba_marseille","lat":43.23186,"lon":5.39984,"is_reserved":false,"is_disabled":false,"rental_uris":{"android":"levelo://app?vid=d25e3192-c141-44fa-83a9-f7ae7b4adfc7","ios":"levelo://app?vid=d25e3192-c141-44fa-83a9-f7ae7b4adfc7"},"vehicle_type_id":"4","last_reported":1729102371,"current_range_meters":38800,"station_id":"ce4bhn12rcd13ifvqgqg","pricing_plan_id":"cebpf4jnsgd1na2vs0mg"},{"bike_id":"80472a12-2083-43b7-b288-9df5b8106773","system_id":"levelo_inurba_marseille","lat":43.2509,"lon":5.39528,"is_reserved":false,"is_disabled":false,"rental_uris":{"android":"levelo://app?vid=80472a12-2083-43b7-b288-9df5b8106773","ios":"levelo://app?vid=80472a12-2083-43b7-b288-9df5b8106773"},"vehicle_type_id":"4","last_reported":1729102371,"current_range_meters":37600,"station_id":"ce4bhm12rcd13ifvqgkg","pricing_plan_id":"cebpf4jnsgd1na2vs0mg"},{"bike_id":"9343b4bd-f58f-41a8-88e1-b10e3375372f","system_id":"levelo_inurba_marseille","lat":43.31003,"lon":5.39631,"is_reserved":false,"is_disabled":false,"rental_uris":{"android":"levelo://app?vid=9343b4bd-f58f-41a8-88e1-b10e3375372f","ios":"levelo://app?vid=9343b4bd-f58f-41a8-88e1-b10e3375372f"},"vehicle_type_id":"4","last_reported":1729102371,"current_range_meters":12000,"station_id":"ce4bgvp2rcd13ifvqcu0","pricing_plan_id":"cebpf4jnsgd1na2vs0mg"},{"bike_id":"17d66874-6031-4fd3-90a9-10459aba7f64","system_id":"levelo_inurba_marseille","lat":43.33023,"lon":5.39046,"is_reserved":false,"is_disabled":false,"rental_uris":{"android":"levelo://app?vid=17d66874-6031-4fd3-90a9-10459aba7f64","ios":"levelo://app?vid=17d66874-6031-4fd3-90a9-10459aba7f64"},"vehicle_type_id":"4","last_reported":1729102371,"current_range_meters":34000,"station_id":"ce4bhr92rcd13ifvqhrg","pricing_plan_id":"cebpf4jnsgd1na2vs0mg"},{"bike_id":"d14ac502-54d8-4765-b3c0-ac89433a753c","system_id":"levelo_inurba_marseille","lat":43.29001,"lon":5.35617,"is_reserved":false,"is_disabled":false,"rental_uris":{"android":"levelo://app?vid=d14ac502-54d8-4765-b3c0-ac89433a753c","ios":"levelo://app?vid=d14ac502-54d8-4765-b3c0-ac89433a753c"},"vehicle_type_id":"4","last_reported":1729102371,"current_range_meters":38800,"station_id":"ce4bhb92rcd13ifvqen0","pricing_plan_id":"cebpf4jnsgd1na2vs0mg"},{"bike_id":"e0ba7378-4139-4f45-a9e6-4d17e46e0da7","system_id":"levelo_inurba_marseille","lat":43.27996,"lon":5.40014,"is_reserved":false,"is_disabled":false,"rental_uris":{"android":"levelo://app?vid=e0ba7378-4139-4f45-a9e6-4d17e46e0da7","ios":"levelo://app?vid=e0ba7378-4139-4f45-a9e6-4d17e46e0da7"},"vehicle_type_id":"4","last_reported":1729102371,"current_range_meters":30000,"station_id":"ce4bho92rcd13ifvqh4g","pricing_plan_id":"cebpf4jnsgd1na2vs0mg"},{"bike_id":"c8fdfee4-d3ac-4742-a5aa-435dec59b7fb","system_id":"levelo_inurba_marseille","lat":43.24509,"lon":5.4285,"is_reserved":false,"is_disabled":false,"rental_uris":{"android":"levelo://app?vid=c8fdfee4-d3ac-4742-a5aa-435dec59b7fb","ios":"levelo://app?vid=c8fdfee4-d3ac-4742-a5aa-435dec59b7fb"},"vehicle_type_id":"4","last_reported":1729102371,"current_range_meters":38800,"station_id":"","pricing_plan_id":"cebpf4jnsgd1na2vs0mg"},{"bike_id":"851bada0-f0f3-427a-91b9-2220a922230e","system_id":"levelo_inurba_marseille","lat":43.31535,"lon":5.38043,"is_reserved":false,"is_disabled":false,"rental_uris":{"android":"levelo://app?vid=851bada0-f0f3-427a-91b9-2220a922230e","ios":"levelo://app?vid=851bada0-f0f3-427a-91b9-2220a922230e"},"vehicle_type_id":"4","last_reported":1729102371,"current_range_meters":28800,"station_id":"ce4bhsp2rcd13ifvqi50","pricing_plan_id":"cebpf4jnsgd1na2vs0mg"},{"bike_id":"6cd899d8-1f88-459f-b491-3f17e4af5020","system_id":"levelo_inurba_marseille","lat":43.24065,"lon":5.37757,"is_reserved":false,"is_disabled":false,"rental_uris":{"android":"levelo://app?vid=6cd899d8-1f88-459f-b491-3f17e4af5020","ios":"levelo://app?vid=6cd899d8-1f88-459f-b491-3f17e4af5020"},"vehicle_type_id":"4","last_reported":1729102371,"current_range_meters":29600,"station_id":"ce4bhnp2rcd13ifvqgvg","pricing_plan_id":"cebpf4jnsgd1na2vs0mg"},{"bike_id":"786307c4-e27e-45ca-9e78-15b721f519ac","system_id":"levelo_inurba_marseille","lat":43.30098,"lon":5.39081,"is_reserved":false,"is_disabled":false,"rental_uris":{"android":"levelo://app?vid=786307c4-e27e-45ca-9e78-15b721f519ac","ios":"levelo://app?vid=786307c4-e27e-45ca-9e78-15b721f519ac"},"vehicle_type_id":"4","last_reported":1729102371,"current_range_meters":3600,"station_id":"ce4bh192rcd13ifvqdb0","pricing_plan_id":"cebpf4jnsgd1na2vs0mg"},{"bike_id":"8a50e10b-d8a7-4df8-9f2b-c9c7b3039aeb","system_id":"levelo_inurba_marseille","lat":43.29605,"lon":5.37722,"is_reserved":false,"is_disabled":false,"rental_uris":{"android":"levelo://app?vid=8a50e10b-d8a7-4df8-9f2b-c9c7b3039aeb","ios":"levelo://app?vid=8a50e10b-d8a7-4df8-9f2b-c9c7b3039aeb"},"vehicle_type_id":"4","last_reported":1729102371,"current_range_meters":10800,"station_id":"ce4bgi92rcd13ifvqb90","pricing_plan_id":"cebpf4jnsgd1na2vs0mg"},{"bike_id":"7205367f-859d-412d-95bf-c7b4cefed81a","system_id":"levelo_inurba_marseille","lat":43.26803,"lon":5.40266,"is_reserved":false,"is_disabled":false,"rental_uris":{"android":"levelo://app?vid=7205367f-859d-412d-95bf-c7b4cefed81a","ios":"levelo://app?vid=7205367f-859d-412d-95bf-c7b4cefed81a"},"vehicle_type_id":"4","last_reported":1729102371,"current_range_meters":33600,"station_id":"ce501612rcd8frsf0b60","pricing_plan_id":"cebpf4jnsgd1na2vs0mg"},{"bike_id":"45ffc5eb-90ab-406f-a5cf-c6bda0ec636e","system_id":"levelo_inurba_marseille","lat":43.31716,"lon":5.37744,"is_reserved":false,"is_disabled":false,"rental_uris":{"android":"levelo://app?vid=45ffc5eb-90ab-406f-a5cf-c6bda0ec636e","ios":"levelo://app?vid=45ffc5eb-90ab-406f-a5cf-c6bda0ec636e"},"vehicle_type_id":"4","last_reported":1729102371,"current_range_meters":34000,"station_id":"ce4bgth2rcd13ifvqch0","pricing_plan_id":"cebpf4jnsgd1na2vs0mg"},{"bike_id":"2d58901d-0f36-469a-8333-04e2ceca2d1a","system_id":"levelo_inurba_marseille","lat":43.31124,"lon":5.37786,"is_reserved":false,"is_disabled":false,"rental_uris":{"android":"levelo://app?vid=2d58901d-0f36-469a-8333-04e2ceca2d1a","ios":"levelo://app?vid=2d58901d-0f36-469a-8333-04e2ceca2d1a"},"vehicle_type_id":"4","last_reported":1729102371,"current_range_meters":28400,"station_id":"ce4bgt92rcd13ifvqcg0","pricing_plan_id":"cebpf4jnsgd1na2vs0mg"},{"bike_id":"8116238d-f134-4ff6-83d9-1388ba782ee1","system_id":"levelo_inurba_marseille","lat":43.28273,"lon":5.35066,"is_reserved":false,"is_disabled":false,"rental_uris":{"android":"levelo://app?vid=8116238d-f134-4ff6-83d9-1388ba782ee1","ios":"levelo://app?vid=8116238d-f134-4ff6-83d9-1388ba782ee1"},"vehicle_type_id":"4","last_reported":1729102371,"current_range_meters":14000,"station_id":"ce4bhbp2rcd13ifvqerg","pricing_plan_id":"cebpf4jnsgd1na2vs0mg"},{"bike_id":"cd16a2e7-35a6-4e7c-b05d-791d93970983","system_id":"levelo_inurba_marseille","lat":43.305969,"lon":5.393595,"is_reserved":false,"is_disabled":false,"rental_uris":{"android":"levelo://app?vid=cd16a2e7-35a6-4e7c-b05d-791d93970983","ios":"levelo://app?vid=cd16a2e7-35a6-4e7c-b05d-791d93970983"},"vehicle_type_id":"4","last_reported":1729102371,"current_range_meters":37600,"station_id":"ce4bh0p2rcd13ifvqd80","pricing_plan_id":"cebpf4jnsgd1na2vs0mg"},{"bike_id":"fd3a0286-6e19-45a9-9d58-06e8d7afcb15","system_id":"levelo_inurba_marseille","lat":43.2894,"lon":5.36639,"is_reserved":false,"is_disabled":false,"rental_uris":{"android":"levelo://app?vid=fd3a0286-6e19-45a9-9d58-06e8d7afcb15","ios":"levelo://app?vid=fd3a0286-6e19-45a9-9d58-06e8d7afcb15"},"vehicle_type_id":"4","last_reported":1729102371,"current_range_meters":7200,"station_id":"ce4bhap2rcd13ifvqek0","pricing_plan_id":"cebpf4jnsgd1na2vs0mg"},{"bike_id":"bdb4f070-8bae-407b-bc70-9ee3db878f96","system_id":"levelo_inurba_marseille","lat":43.24667,"lon":5.38157,"is_reserved":false,"is_disabled":false,"rental_uris":{"android":"levelo://app?vid=bdb4f070-8bae-407b-bc70-9ee3db878f96","ios":"levelo://app?vid=bdb4f070-8bae-407b-bc70-9ee3db878f96"},"vehicle_type_id":"4","last_reported":1729102371,"current_range_meters":24000,"station_id":"ce4bhih2rcd13ifvqfr0","pricing_plan_id":"cebpf4jnsgd1na2vs0mg"},{"bike_id":"a6b4578e-3cab-4bcb-ae84-333753b03084","system_id":"levelo_inurba_marseille","lat":43.2318,"lon":5.39989,"is_reserved":false,"is_disabled":false,"rental_uris":{"android":"levelo://app?vid=a6b4578e-3cab-4bcb-ae84-333753b03084","ios":"levelo://app?vid=a6b4578e-3cab-4bcb-ae84-333753b03084"},"vehicle_type_id":"4","last_reported":1729102371,"current_range_meters":38400,"station_id":"ce4bhn12rcd13ifvqgqg","pricing_plan_id":"cebpf4jnsgd1na2vs0mg"},{"bike_id":"05c30dcc-d775-4eb0-b767-eda84e52a9f9","system_id":"levelo_inurba_marseille","lat":43.29955,"lon":5.41325,"is_reserved":false,"is_disabled":false,"rental_uris":{"android":"levelo://app?vid=05c30dcc-d775-4eb0-b767-eda84e52a9f9","ios":"levelo://app?vid=05c30dcc-d775-4eb0-b767-eda84e52a9f9"},"vehicle_type_id":"4","last_reported":1729102371,"current_range_meters":34000,"station_id":"ce4bhp12rcd13ifvqh9g","pricing_plan_id":"cebpf4jnsgd1na2vs0mg"},{"bike_id":"8b5d7414-2b08-4e30-b677-b339f42b4115","system_id":"levelo_inurba_marseille","lat":43.2922,"lon":5.36052,"is_reserved":false,"is_disabled":false,"rental_uris":{"android":"levelo://app?vid=8b5d7414-2b08-4e30-b677-b339f42b4115","ios":"levelo://app?vid=8b5d7414-2b08-4e30-b677-b339f42b4115"},"vehicle_type_id":"4","last_reported":1729102371,"current_range_meters":32400,"station_id":"ce4bhbh2rcd13ifvqeqg","pricing_plan_id":"cebpf4jnsgd1na2vs0mg"},{"bike_id":"3cfbb987-4f46-4597-b097-062df44898ff","system_id":"levelo_inurba_marseille","lat":43.29273,"lon":5.36843,"is_reserved":false,"is_disabled":false,"rental_uris":{"android":"levelo://app?vid=3cfbb987-4f46-4597-b097-062df44898ff","ios":"levelo://app?vid=3cfbb987-4f46-4597-b097-062df44898ff"},"vehicle_type_id":"4","last_reported":1729102371,"current_range_meters":6800,"station_id":"ce4bhbp2rcd13ifvqesg","pricing_plan_id":"cebpf4jnsgd1na2vs0mg"},{"bike_id":"2d5095fc-afa7-4dc4-b264-35e7ba0e91c3","system_id":"levelo_inurba_marseille","lat":43.31169,"lon":5.38713,"is_reserved":false,"is_disabled":false,"rental_uris":{"android":"levelo://app?vid=2d5095fc-afa7-4dc4-b264-35e7ba0e91c3","ios":"levelo://app?vid=2d5095fc-afa7-4dc4-b264-35e7ba0e91c3"},"vehicle_type_id":"4","last_reported":1729102371,"current_range_meters":38400,"station_id":"ce4bgv12rcd13ifvqcp0","pricing_plan_id":"cebpf4jnsgd1na2vs0mg"},{"bike_id":"4fdcc6ab-0f33-4c06-a81e-f6458471be0f","system_id":"levelo_inurba_marseille","lat":43.25586,"lon":5.38234,"is_reserved":false,"is_disabled":false,"rental_uris":{"android":"levelo://app?vid=4fdcc6ab-0f33-4c06-a81e-f6458471be0f","ios":"levelo://app?vid=4fdcc6ab-0f33-4c06-a81e-f6458471be0f"},"vehicle_type_id":"4","last_reported":1729102371,"current_range_meters":8400,"station_id":"ce4bhih2rcd13ifvqfs0","pricing_plan_id":"cebpf4jnsgd1na2vs0mg"},{"bike_id":"af7f2d64-17dc-42fb-a98b-46080d1d96a1","system_id":"levelo_inurba_marseille","lat":43.25724,"lon":5.41107,"is_reserved":false,"is_disabled":false,"rental_uris":{"android":"levelo://app?vid=af7f2d64-17dc-42fb-a98b-46080d1d96a1","ios":"levelo://app?vid=af7f2d64-17dc-42fb-a98b-46080d1d96a1"},"vehicle_type_id":"4","last_reported":1729102371,"current_range_meters":20800,"station_id":"ce4bhkp2rcd13ifvqgd0","pricing_plan_id":"cebpf4jnsgd1na2vs0mg"},{"bike_id":"605655d0-bebd-4e82-ace1-d37ace51744a","system_id":"levelo_inurba_marseille","lat":43.28458,"lon":5.35895,"is_reserved":false,"is_disabled":false,"rental_uris":{"android":"levelo://app?vid=605655d0-bebd-4e82-ace1-d37ace51744a","ios":"levelo://app?vid=605655d0-bebd-4e82-ace1-d37ace51744a"},"vehicle_type_id":"4","last_reported":1729102371,"current_range_meters":6000,"station_id":"ce4bhah2rcd13ifvqei0","pricing_plan_id":"cebpf4jnsgd1na2vs0mg"},{"bike_id":"ac2a81f5-0e6e-4694-845b-797917fa80f4","system_id":"levelo_inurba_marseille","lat":43.30491,"lon":5.413128,"is_reserved":false,"is_disabled":false,"rental_uris":{"android":"levelo://app?vid=ac2a81f5-0e6e-4694-845b-797917fa80f4","ios":"levelo://app?vid=ac2a81f5-0e6e-4694-845b-797917fa80f4"},"vehicle_type_id":"4","last_reported":1729102371,"current_range_meters":20800,"station_id":"","pricing_plan_id":"cebpf4jnsgd1na2vs0mg"},{"bike_id":"90263e99-d5aa-44b8-a4c8-0353aa3b308c","system_id":"levelo_inurba_marseille","lat":43.23066,"lon":5.35495,"is_reserved":false,"is_disabled":false,"rental_uris":{"android":"levelo://app?vid=90263e99-d5aa-44b8-a4c8-0353aa3b308c","ios":"levelo://app?vid=90263e99-d5aa-44b8-a4c8-0353aa3b308c"},"vehicle_type_id":"4","last_reported":1729102371,"current_range_meters":13600,"station_id":"cpo3342slgdg3j2ifvpg","pricing_plan_id":"cebpf4jnsgd1na2vs0mg"},{"bike_id":"b05047a5-3a5a-4920-911c-817bd8f1ea84","system_id":"levelo_inurba_marseille","lat":43.29487,"lon":5.41793,"is_reserved":false,"is_disabled":false,"rental_uris":{"android":"levelo://app?vid=b05047a5-3a5a-4920-911c-817bd8f1ea84","ios":"levelo://app?vid=b05047a5-3a5a-4920-911c-817bd8f1ea84"},"vehicle_type_id":"4","last_reported":1729102371,"current_range_meters":36400,"station_id":"ce4bhph2rcd13ifvqhdg","pricing_plan_id":"cebpf4jnsgd1na2vs0mg"},{"bike_id":"d3457713-0e8e-4bee-ae6b-c4b8b36e8262","system_id":"levelo_inurba_marseille","lat":43.31991,"lon":5.3816,"is_reserved":false,"is_disabled":false,"rental_uris":{"android":"levelo://app?vid=d3457713-0e8e-4bee-ae6b-c4b8b36e8262","ios":"levelo://app?vid=d3457713-0e8e-4bee-ae6b-c4b8b36e8262"},"vehicle_type_id":"4","last_reported":1729102371,"current_range_meters":40000,"station_id":"ce4bhr12rcd13ifvqhpg","pricing_plan_id":"cebpf4jnsgd1na2vs0mg"},{"bike_id":"d9e0c338-c402-4fe7-8374-daff617510cc","system_id":"levelo_inurba_marseille","lat":43.29275,"lon":5.36842,"is_reserved":false,"is_disabled":false,"rental_uris":{"android":"levelo://app?vid=d9e0c338-c402-4fe7-8374-daff617510cc","ios":"levelo://app?vid=d9e0c338-c402-4fe7-8374-daff617510cc"},"vehicle_type_id":"4","last_reported":1729102371,"current_range_meters":8000,"station_id":"ce4bhbp2rcd13ifvqesg","pricing_plan_id":"cebpf4jnsgd1na2vs0mg"},{"bike_id":"f02abbd0-cc87-4277-bd16-1aca087f70c4","system_id":"levelo_inurba_marseille","lat":43.2926,"lon":5.40908,"is_reserved":false,"is_disabled":false,"rental_uris":{"android":"levelo://app?vid=f02abbd0-cc87-4277-bd16-1aca087f70c4","ios":"levelo://app?vid=f02abbd0-cc87-4277-bd16-1aca087f70c4"},"vehicle_type_id":"4","last_reported":1729102371,"current_range_meters":12400,"station_id":"ce4bh192rcd13ifvqdc0","pricing_plan_id":"cebpf4jnsgd1na2vs0mg"},{"bike_id":"820b529e-b21c-4093-8d77-7129c4c52d00","system_id":"levelo_inurba_marseille","lat":43.30788,"lon":5.37647,"is_reserved":false,"is_disabled":false,"rental_uris":{"android":"levelo://app?vid=820b529e-b21c-4093-8d77-7129c4c52d00","ios":"levelo://app?vid=820b529e-b21c-4093-8d77-7129c4c52d00"},"vehicle_type_id":"4","last_reported":1729102371,"current_range_meters":38400,"station_id":"ce4bgv92rcd13ifvqcq0","pricing_plan_id":"cebpf4jnsgd1na2vs0mg"},{"bike_id":"dfb2b58f-9e47-4b37-87d3-23caf75f1698","system_id":"levelo_inurba_marseille","lat":43.28969,"lon":5.37834,"is_reserved":false,"is_disabled":false,"rental_uris":{"android":"levelo://app?vid=dfb2b58f-9e47-4b37-87d3-23caf75f1698","ios":"levelo://app?vid=dfb2b58f-9e47-4b37-87d3-23caf75f1698"},"vehicle_type_id":"4","last_reported":1729102371,"current_range_meters":18000,"station_id":"ce4bh9p2rcd13ifvqed0","pricing_plan_id":"cebpf4jnsgd1na2vs0mg"},{"bike_id":"b5b99623-414d-4eb1-b427-c0178ad49012","system_id":"levelo_inurba_marseille","lat":43.25725,"lon":5.41111,"is_reserved":false,"is_disabled":false,"rental_uris":{"android":"levelo://app?vid=b5b99623-414d-4eb1-b427-c0178ad49012","ios":"levelo://app?vid=b5b99623-414d-4eb1-b427-c0178ad49012"},"vehicle_type_id":"4","last_reported":1729102371,"current_range_meters":33600,"station_id":"ce4bhkp2rcd13ifvqgd0","pricing_plan_id":"cebpf4jnsgd1na2vs0mg"},{"bike_id":"fa7bbdc9-afbe-404d-8676-647037cc76a9","system_id":"levelo_inurba_marseille","lat":43.23192,"lon":5.35552,"is_reserved":false,"is_disabled":false,"rental_uris":{"android":"levelo://app?vid=fa7bbdc9-afbe-404d-8676-647037cc76a9","ios":"levelo://app?vid=fa7bbdc9-afbe-404d-8676-647037cc76a9"},"vehicle_type_id":"4","last_reported":1729102371,"current_range_meters":37600,"station_id":"ce4bhu92rcd13ifvqi70","pricing_plan_id":"cebpf4jnsgd1na2vs0mg"},{"bike_id":"48fb8944-826a-45fd-9010-4861ac3afb66","system_id":"levelo_inurba_marseille","lat":43.31709,"lon":5.37753,"is_reserved":false,"is_disabled":false,"rental_uris":{"android":"levelo://app?vid=48fb8944-826a-45fd-9010-4861ac3afb66","ios":"levelo://app?vid=48fb8944-826a-45fd-9010-4861ac3afb66"},"vehicle_type_id":"4","last_reported":1729102371,"current_range_meters":39200,"station_id":"ce4bgth2rcd13ifvqch0","pricing_plan_id":"cebpf4jnsgd1na2vs0mg"},{"bike_id":"931ad2f4-35ea-42b5-bc1a-1fdec477398a","system_id":"levelo_inurba_marseille","lat":43.337444,"lon":5.374475,"is_reserved":false,"is_disabled":false,"rental_uris":{"android":"levelo://app?vid=931ad2f4-35ea-42b5-bc1a-1fdec477398a","ios":"levelo://app?vid=931ad2f4-35ea-42b5-bc1a-1fdec477398a"},"vehicle_type_id":"4","last_reported":1729102371,"current_range_meters":37600,"station_id":"","pricing_plan_id":"cebpf4jnsgd1na2vs0mg"},{"bike_id":"712e70b4-0f5b-4299-a862-24027c37565c","system_id":"levelo_inurba_marseille","lat":43.29046,"lon":5.375751,"is_reserved":false,"is_disabled":false,"rental_uris":{"android":"levelo://app?vid=712e70b4-0f5b-4299-a862-24027c37565c","ios":"levelo://app?vid=712e70b4-0f5b-4299-a862-24027c37565c"},"vehicle_type_id":"4","last_reported":1729102371,"current_range_meters":23200,"station_id":"ce4bh692rcd13ifvqe90","pricing_plan_id":"cebpf4jnsgd1na2vs0mg"},{"bike_id":"8a956a9d-e20a-4893-a2fc-044959ae2abe","system_id":"levelo_inurba_marseille","lat":43.29419,"lon":5.38627,"is_reserved":false,"is_disabled":false,"rental_uris":{"android":"levelo://app?vid=8a956a9d-e20a-4893-a2fc-044959ae2abe","ios":"levelo://app?vid=8a956a9d-e20a-4893-a2fc-044959ae2abe"},"vehicle_type_id":"4","last_reported":1729102371,"current_range_meters":34800,"station_id":"ce4bh2h2rcd13ifvqdh0","pricing_plan_id":"cebpf4jnsgd1na2vs0mg"},{"bike_id":"88c0e835-9fc8-4dba-b8e2-9ef7c90c5122","system_id":"levelo_inurba_marseille","lat":43.29964,"lon":5.41328,"is_reserved":false,"is_disabled":false,"rental_uris":{"android":"levelo://app?vid=88c0e835-9fc8-4dba-b8e2-9ef7c90c5122","ios":"levelo://app?vid=88c0e835-9fc8-4dba-b8e2-9ef7c90c5122"},"vehicle_type_id":"4","last_reported":1729102371,"current_range_meters":38800,"station_id":"ce4bhp12rcd13ifvqh9g","pricing_plan_id":"cebpf4jnsgd1na2vs0mg"},{"bike_id":"81e32d4e-df25-4349-90c7-1831752870c9","system_id":"levelo_inurba_marseille","lat":43.27936,"lon":5.41056,"is_reserved":false,"is_disabled":false,"rental_uris":{"android":"levelo://app?vid=81e32d4e-df25-4349-90c7-1831752870c9","ios":"levelo://app?vid=81e32d4e-df25-4349-90c7-1831752870c9"},"vehicle_type_id":"4","last_reported":1729102371,"current_range_meters":34000,"station_id":"ce4bhnp2rcd13ifvqh0g","pricing_plan_id":"cebpf4jnsgd1na2vs0mg"},{"bike_id":"8c1ec6cb-2291-4814-837b-be8625c706f3","system_id":"levelo_inurba_marseille","lat":43.23197,"lon":5.3555,"is_reserved":false,"is_disabled":false,"rental_uris":{"android":"levelo://app?vid=8c1ec6cb-2291-4814-837b-be8625c706f3","ios":"levelo://app?vid=8c1ec6cb-2291-4814-837b-be8625c706f3"},"vehicle_type_id":"4","last_reported":1729102371,"current_range_meters":38800,"station_id":"ce4bhu92rcd13ifvqi70","pricing_plan_id":"cebpf4jnsgd1na2vs0mg"},{"bike_id":"461a6307-d4c7-419a-aaa2-5037ade08306","system_id":"levelo_inurba_marseille","lat":43.28354,"lon":5.38103,"is_reserved":false,"is_disabled":false,"rental_uris":{"android":"levelo://app?vid=461a6307-d4c7-419a-aaa2-5037ade08306","ios":"levelo://app?vid=461a6307-d4c7-419a-aaa2-5037ade08306"},"vehicle_type_id":"4","last_reported":1729102371,"current_range_meters":38800,"station_id":"ce4bh412rcd13ifvqdr0","pricing_plan_id":"cebpf4jnsgd1na2vs0mg"},{"bike_id":"dbbf885e-7bcd-4b71-bf8e-2432a11bbf75","system_id":"levelo_inurba_marseille","lat":43.27949,"lon":5.41043,"is_reserved":false,"is_disabled":false,"rental_uris":{"android":"levelo://app?vid=dbbf885e-7bcd-4b71-bf8e-2432a11bbf75","ios":"levelo://app?vid=dbbf885e-7bcd-4b71-bf8e-2432a11bbf75"},"vehicle_type_id":"4","last_reported":1729102371,"current_range_meters":12800,"station_id":"ce4bhnp2rcd13ifvqh0g","pricing_plan_id":"cebpf4jnsgd1na2vs0mg"},{"bike_id":"8cd9a0be-5e98-4d55-a4ec-d164ab97f55f","system_id":"levelo_inurba_marseille","lat":43.31999,"lon":5.38146,"is_reserved":false,"is_disabled":false,"rental_uris":{"android":"levelo://app?vid=8cd9a0be-5e98-4d55-a4ec-d164ab97f55f","ios":"levelo://app?vid=8cd9a0be-5e98-4d55-a4ec-d164ab97f55f"},"vehicle_type_id":"4","last_reported":1729102371,"current_range_meters":16400,"station_id":"ce4bhr12rcd13ifvqhpg","pricing_plan_id":"cebpf4jnsgd1na2vs0mg"},{"bike_id":"7204236b-c558-4dc8-b624-7de20d9f5729","system_id":"levelo_inurba_marseille","lat":43.28006,"lon":5.40012,"is_reserved":false,"is_disabled":false,"rental_uris":{"android":"levelo://app?vid=7204236b-c558-4dc8-b624-7de20d9f5729","ios":"levelo://app?vid=7204236b-c558-4dc8-b624-7de20d9f5729"},"vehicle_type_id":"4","last_reported":1729102371,"current_range_meters":26800,"station_id":"ce4bho92rcd13ifvqh4g","pricing_plan_id":"cebpf4jnsgd1na2vs0mg"},{"bike_id":"db810d77-ca6d-4491-b176-96ce95bcc9bc","system_id":"levelo_inurba_marseille","lat":43.25727,"lon":5.41113,"is_reserved":false,"is_disabled":false,"rental_uris":{"android":"levelo://app?vid=db810d77-ca6d-4491-b176-96ce95bcc9bc","ios":"levelo://app?vid=db810d77-ca6d-4491-b176-96ce95bcc9bc"},"vehicle_type_id":"4","last_reported":1729102371,"current_range_meters":12800,"station_id":"ce4bhkp2rcd13ifvqgd0","pricing_plan_id":"cebpf4jnsgd1na2vs0mg"},{"bike_id":"f00c1ebe-7fbc-4e3b-8132-688affb0e0bd","system_id":"levelo_inurba_marseille","lat":43.27901,"lon":5.38011,"is_reserved":false,"is_disabled":false,"rental_uris":{"android":"levelo://app?vid=f00c1ebe-7fbc-4e3b-8132-688affb0e0bd","ios":"levelo://app?vid=f00c1ebe-7fbc-4e3b-8132-688affb0e0bd"},"vehicle_type_id":"4","last_reported":1729102371,"current_range_meters":38000,"station_id":"ce4bhf92rcd13ifvqf50","pricing_plan_id":"cebpf4jnsgd1na2vs0mg"},{"bike_id":"afe49502-dfe7-4b83-8ade-43f1aa0b2567","system_id":"levelo_inurba_marseille","lat":43.30271,"lon":5.37706,"is_reserved":false,"is_disabled":false,"rental_uris":{"android":"levelo://app?vid=afe49502-dfe7-4b83-8ade-43f1aa0b2567","ios":"levelo://app?vid=afe49502-dfe7-4b83-8ade-43f1aa0b2567"},"vehicle_type_id":"4","last_reported":1729102371,"current_range_meters":8800,"station_id":"ce4bguh2rcd13ifvqcj0","pricing_plan_id":"cebpf4jnsgd1na2vs0mg"},{"bike_id":"326d8888-bfb0-49e9-85df-d237f7cb7367","system_id":"levelo_inurba_marseille","lat":43.27424,"lon":5.39413,"is_reserved":false,"is_disabled":false,"rental_uris":{"android":"levelo://app?vid=326d8888-bfb0-49e9-85df-d237f7cb7367","ios":"levelo://app?vid=326d8888-bfb0-49e9-85df-d237f7cb7367"},"vehicle_type_id":"4","last_reported":1729102371,"current_range_meters":8800,"station_id":"ce4bhdp2rcd13ifvqf20","pricing_plan_id":"cebpf4jnsgd1na2vs0mg"},{"bike_id":"e72bea34-ff0d-4d93-9443-a26322c339d7","system_id":"levelo_inurba_marseille","lat":43.30138,"lon":5.38788,"is_reserved":false,"is_disabled":false,"rental_uris":{"android":"levelo://app?vid=e72bea34-ff0d-4d93-9443-a26322c339d7","ios":"levelo://app?vid=e72bea34-ff0d-4d93-9443-a26322c339d7"},"vehicle_type_id":"4","last_reported":1729102371,"current_range_meters":36400,"station_id":"ce4bghh2rcd13ifvqb60","pricing_plan_id":"cebpf4jnsgd1na2vs0mg"},{"bike_id":"6d027e4d-5961-4cf4-8686-724ca97b9794","system_id":"levelo_inurba_marseille","lat":43.29418,"lon":5.38627,"is_reserved":false,"is_disabled":false,"rental_uris":{"android":"levelo://app?vid=6d027e4d-5961-4cf4-8686-724ca97b9794","ios":"levelo://app?vid=6d027e4d-5961-4cf4-8686-724ca97b9794"},"vehicle_type_id":"4","last_reported":1729102371,"current_range_meters":36800,"station_id":"ce4bh2h2rcd13ifvqdh0","pricing_plan_id":"cebpf4jnsgd1na2vs0mg"},{"bike_id":"0994d7f0-fa2e-480f-b967-2b1e1b476b78","system_id":"levelo_inurba_marseille","lat":43.23188,"lon":5.35542,"is_reserved":false,"is_disabled":false,"rental_uris":{"android":"levelo://app?vid=0994d7f0-fa2e-480f-b967-2b1e1b476b78","ios":"levelo://app?vid=0994d7f0-fa2e-480f-b967-2b1e1b476b78"},"vehicle_type_id":"4","last_reported":1729102371,"current_range_meters":19600,"station_id":"ce4bhu92rcd13ifvqi70","pricing_plan_id":"cebpf4jnsgd1na2vs0mg"},{"bike_id":"f6af6a6e-0c43-43ba-9e4a-2a70b3681fbb","system_id":"levelo_inurba_marseille","lat":43.31426,"lon":5.39355,"is_reserved":false,"is_disabled":false,"rental_uris":{"android":"levelo://app?vid=f6af6a6e-0c43-43ba-9e4a-2a70b3681fbb","ios":"levelo://app?vid=f6af6a6e-0c43-43ba-9e4a-2a70b3681fbb"},"vehicle_type_id":"4","last_reported":1729102371,"current_range_meters":22000,"station_id":"","pricing_plan_id":"cebpf4jnsgd1na2vs0mg"},{"bike_id":"ad5c1ac5-50f4-4dc8-be10-bffe4c2b3292","system_id":"levelo_inurba_marseille","lat":43.23155,"lon":5.43715,"is_reserved":false,"is_disabled":false,"rental_uris":{"android":"levelo://app?vid=ad5c1ac5-50f4-4dc8-be10-bffe4c2b3292","ios":"levelo://app?vid=ad5c1ac5-50f4-4dc8-be10-bffe4c2b3292"},"vehicle_type_id":"4","last_reported":1729102371,"current_range_meters":18800,"station_id":"ce4bhmp2rcd13ifvqgog","pricing_plan_id":"cebpf4jnsgd1na2vs0mg"},{"bike_id":"66ccc46d-618e-4760-b09c-27382152bdab","system_id":"levelo_inurba_marseille","lat":43.23197,"lon":5.35556,"is_reserved":false,"is_disabled":false,"rental_uris":{"android":"levelo://app?vid=66ccc46d-618e-4760-b09c-27382152bdab","ios":"levelo://app?vid=66ccc46d-618e-4760-b09c-27382152bdab"},"vehicle_type_id":"4","last_reported":1729102371,"current_range_meters":36800,"station_id":"ce4bhu92rcd13ifvqi70","pricing_plan_id":"cebpf4jnsgd1na2vs0mg"},{"bike_id":"a073cbb3-1627-43ef-923a-3c793e1abf15","system_id":"levelo_inurba_marseille","lat":43.30882,"lon":5.39662,"is_reserved":false,"is_disabled":false,"rental_uris":{"android":"levelo://app?vid=a073cbb3-1627-43ef-923a-3c793e1abf15","ios":"levelo://app?vid=a073cbb3-1627-43ef-923a-3c793e1abf15"},"vehicle_type_id":"4","last_reported":1729102371,"current_range_meters":7200,"station_id":"ce4bh012rcd13ifvqcv0","pricing_plan_id":"cebpf4jnsgd1na2vs0mg"},{"bike_id":"64f2c37a-716a-437d-909e-57a76315a63c","system_id":"levelo_inurba_marseille","lat":43.30099,"lon":5.39087,"is_reserved":false,"is_disabled":false,"rental_uris":{"android":"levelo://app?vid=64f2c37a-716a-437d-909e-57a76315a63c","ios":"levelo://app?vid=64f2c37a-716a-437d-909e-57a76315a63c"},"vehicle_type_id":"4","last_reported":1729102371,"current_range_meters":39200,"station_id":"ce4bh192rcd13ifvqdb0","pricing_plan_id":"cebpf4jnsgd1na2vs0mg"},{"bike_id":"527fb1d1-6a1c-4d90-9bc1-f264dab4b7c5","system_id":"levelo_inurba_marseille","lat":43.32367,"lon":5.38882,"is_reserved":false,"is_disabled":false,"rental_uris":{"android":"levelo://app?vid=527fb1d1-6a1c-4d90-9bc1-f264dab4b7c5","ios":"levelo://app?vid=527fb1d1-6a1c-4d90-9bc1-f264dab4b7c5"},"vehicle_type_id":"4","last_reported":1729102371,"current_range_meters":24800,"station_id":"ce4bhqp2rcd13ifvqhog","pricing_plan_id":"cebpf4jnsgd1na2vs0mg"},{"bike_id":"8a2cd812-8342-4ce7-9b00-1d95583f5f76","system_id":"levelo_inurba_marseille","lat":43.29043,"lon":5.37568,"is_reserved":false,"is_disabled":false,"rental_uris":{"android":"levelo://app?vid=8a2cd812-8342-4ce7-9b00-1d95583f5f76","ios":"levelo://app?vid=8a2cd812-8342-4ce7-9b00-1d95583f5f76"},"vehicle_type_id":"4","last_reported":1729102371,"current_range_meters":34000,"station_id":"ce4bh692rcd13ifvqe90","pricing_plan_id":"cebpf4jnsgd1na2vs0mg"},{"bike_id":"6300df2c-b9fe-4275-916d-dd75e59140c9","system_id":"levelo_inurba_marseille","lat":43.23205,"lon":5.35549,"is_reserved":false,"is_disabled":false,"rental_uris":{"android":"levelo://app?vid=6300df2c-b9fe-4275-916d-dd75e59140c9","ios":"levelo://app?vid=6300df2c-b9fe-4275-916d-dd75e59140c9"},"vehicle_type_id":"4","last_reported":1729102371,"current_range_meters":37600,"station_id":"ce4bhu92rcd13ifvqi70","pricing_plan_id":"cebpf4jnsgd1na2vs0mg"},{"bike_id":"6a37e970-8cf6-4ac3-9d1d-cd9cc55dc4e3","system_id":"levelo_inurba_marseille","lat":43.26564,"lon":5.37286,"is_reserved":false,"is_disabled":false,"rental_uris":{"android":"levelo://app?vid=6a37e970-8cf6-4ac3-9d1d-cd9cc55dc4e3","ios":"levelo://app?vid=6a37e970-8cf6-4ac3-9d1d-cd9cc55dc4e3"},"vehicle_type_id":"4","last_reported":1729102371,"current_range_meters":24800,"station_id":"ce4bhg12rcd13ifvqf70","pricing_plan_id":"cebpf4jnsgd1na2vs0mg"},{"bike_id":"6d56330f-5e73-42d5-b4b2-2b0523e4e635","system_id":"levelo_inurba_marseille","lat":43.27943,"lon":5.41049,"is_reserved":false,"is_disabled":false,"rental_uris":{"android":"levelo://app?vid=6d56330f-5e73-42d5-b4b2-2b0523e4e635","ios":"levelo://app?vid=6d56330f-5e73-42d5-b4b2-2b0523e4e635"},"vehicle_type_id":"4","last_reported":1729102371,"current_range_meters":22000,"station_id":"ce4bhnp2rcd13ifvqh0g","pricing_plan_id":"cebpf4jnsgd1na2vs0mg"},{"bike_id":"cbcc0e5e-9800-49f7-8af1-bfcc0501d4b8","system_id":"levelo_inurba_marseille","lat":43.25079,"lon":5.39525,"is_reserved":false,"is_disabled":false,"rental_uris":{"android":"levelo://app?vid=cbcc0e5e-9800-49f7-8af1-bfcc0501d4b8","ios":"levelo://app?vid=cbcc0e5e-9800-49f7-8af1-bfcc0501d4b8"},"vehicle_type_id":"4","last_reported":1729102371,"current_range_meters":39200,"station_id":"ce4bhm12rcd13ifvqgkg","pricing_plan_id":"cebpf4jnsgd1na2vs0mg"},{"bike_id":"e3d6c0e7-b8da-42f2-803c-1fc9f2382e0b","system_id":"levelo_inurba_marseille","lat":43.25122,"lon":5.40317,"is_reserved":false,"is_disabled":false,"rental_uris":{"android":"levelo://app?vid=e3d6c0e7-b8da-42f2-803c-1fc9f2382e0b","ios":"levelo://app?vid=e3d6c0e7-b8da-42f2-803c-1fc9f2382e0b"},"vehicle_type_id":"4","last_reported":1729102371,"current_range_meters":28400,"station_id":"ce4bhlh2rcd13ifvqgig","pricing_plan_id":"cebpf4jnsgd1na2vs0mg"},{"bike_id":"145b714d-8b91-43e9-9ff0-6de4c8b00594","system_id":"levelo_inurba_marseille","lat":43.30805,"lon":5.38153,"is_reserved":false,"is_disabled":false,"rental_uris":{"android":"levelo://app?vid=145b714d-8b91-43e9-9ff0-6de4c8b00594","ios":"levelo://app?vid=145b714d-8b91-43e9-9ff0-6de4c8b00594"},"vehicle_type_id":"4","last_reported":1729102371,"current_range_meters":39200,"station_id":"ce4bgt12rcd13ifvqce0","pricing_plan_id":"cebpf4jnsgd1na2vs0mg"},{"bike_id":"5fdf5cb5-5c4f-4a2b-9f72-1cde0eff888c","system_id":"levelo_inurba_marseille","lat":43.29277,"lon":5.36851,"is_reserved":false,"is_disabled":false,"rental_uris":{"android":"levelo://app?vid=5fdf5cb5-5c4f-4a2b-9f72-1cde0eff888c","ios":"levelo://app?vid=5fdf5cb5-5c4f-4a2b-9f72-1cde0eff888c"},"vehicle_type_id":"4","last_reported":1729102371,"current_range_meters":22400,"station_id":"ce4bhbp2rcd13ifvqesg","pricing_plan_id":"cebpf4jnsgd1na2vs0mg"},{"bike_id":"c77cb483-5349-4491-826f-bb378f2fdbd3","system_id":"levelo_inurba_marseille","lat":43.27938,"lon":5.41047,"is_reserved":false,"is_disabled":false,"rental_uris":{"android":"levelo://app?vid=c77cb483-5349-4491-826f-bb378f2fdbd3","ios":"levelo://app?vid=c77cb483-5349-4491-826f-bb378f2fdbd3"},"vehicle_type_id":"4","last_reported":1729102371,"current_range_meters":9600,"station_id":"ce4bhnp2rcd13ifvqh0g","pricing_plan_id":"cebpf4jnsgd1na2vs0mg"},{"bike_id":"2439dbfb-70c0-4444-81fe-91dd7bb7668e","system_id":"levelo_inurba_marseille","lat":43.30537,"lon":5.36698,"is_reserved":false,"is_disabled":false,"rental_uris":{"android":"levelo://app?vid=2439dbfb-70c0-4444-81fe-91dd7bb7668e","ios":"levelo://app?vid=2439dbfb-70c0-4444-81fe-91dd7bb7668e"},"vehicle_type_id":"4","last_reported":1729102371,"current_range_meters":38800,"station_id":"ce4bgrp2rcd13ifvqc9g","pricing_plan_id":"cebpf4jnsgd1na2vs0mg"},{"bike_id":"2140b6a3-5118-4150-823e-9225aeb56201","system_id":"levelo_inurba_marseille","lat":43.23202,"lon":5.3555,"is_reserved":false,"is_disabled":false,"rental_uris":{"android":"levelo://app?vid=2140b6a3-5118-4150-823e-9225aeb56201","ios":"levelo://app?vid=2140b6a3-5118-4150-823e-9225aeb56201"},"vehicle_type_id":"4","last_reported":1729102371,"current_range_meters":39200,"station_id":"ce4bhu92rcd13ifvqi70","pricing_plan_id":"cebpf4jnsgd1na2vs0mg"},{"bike_id":"b0e3b9d0-1735-49b7-a8fe-6eb3cfa216ce","system_id":"levelo_inurba_marseille","lat":43.31891,"lon":5.40743,"is_reserved":false,"is_disabled":false,"rental_uris":{"android":"levelo://app?vid=b0e3b9d0-1735-49b7-a8fe-6eb3cfa216ce","ios":"levelo://app?vid=b0e3b9d0-1735-49b7-a8fe-6eb3cfa216ce"},"vehicle_type_id":"4","last_reported":1729102371,"current_range_meters":39200,"station_id":"ce4bhq12rcd13ifvqhig","pricing_plan_id":"cebpf4jnsgd1na2vs0mg"},{"bike_id":"1703c8d3-4e7e-4a8f-a21d-b8720419cdf9","system_id":"levelo_inurba_marseille","lat":43.301265,"lon":5.38788,"is_reserved":false,"is_disabled":false,"rental_uris":{"android":"levelo://app?vid=1703c8d3-4e7e-4a8f-a21d-b8720419cdf9","ios":"levelo://app?vid=1703c8d3-4e7e-4a8f-a21d-b8720419cdf9"},"vehicle_type_id":"4","last_reported":1729102371,"current_range_meters":18000,"station_id":"ce4bghh2rcd13ifvqb60","pricing_plan_id":"cebpf4jnsgd1na2vs0mg"},{"bike_id":"ea5e655f-17be-40c7-9228-17d3eab622b7","system_id":"levelo_inurba_marseille","lat":43.23186,"lon":5.39994,"is_reserved":false,"is_disabled":false,"rental_uris":{"android":"levelo://app?vid=ea5e655f-17be-40c7-9228-17d3eab622b7","ios":"levelo://app?vid=ea5e655f-17be-40c7-9228-17d3eab622b7"},"vehicle_type_id":"4","last_reported":1729102371,"current_range_meters":38800,"station_id":"ce4bhn12rcd13ifvqgqg","pricing_plan_id":"cebpf4jnsgd1na2vs0mg"},{"bike_id":"b973e71a-5b18-444f-b57a-3e59faa679e6","system_id":"levelo_inurba_marseille","lat":43.26826,"lon":5.40256,"is_reserved":false,"is_disabled":false,"rental_uris":{"android":"levelo://app?vid=b973e71a-5b18-444f-b57a-3e59faa679e6","ios":"levelo://app?vid=b973e71a-5b18-444f-b57a-3e59faa679e6"},"vehicle_type_id":"4","last_reported":1729102371,"current_range_meters":38800,"station_id":"ce501612rcd8frsf0b60","pricing_plan_id":"cebpf4jnsgd1na2vs0mg"},{"bike_id":"80be08ff-304a-4329-b0df-46f6267d3ecd","system_id":"levelo_inurba_marseille","lat":43.32285,"lon":5.38276,"is_reserved":false,"is_disabled":false,"rental_uris":{"android":"levelo://app?vid=80be08ff-304a-4329-b0df-46f6267d3ecd","ios":"levelo://app?vid=80be08ff-304a-4329-b0df-46f6267d3ecd"},"vehicle_type_id":"4","last_reported":1729102371,"current_range_meters":27200,"station_id":"ce4bhr12rcd13ifvqhqg","pricing_plan_id":"cebpf4jnsgd1na2vs0mg"},{"bike_id":"80841a97-5a7a-481e-9f0f-7c29cd043ffc","system_id":"levelo_inurba_marseille","lat":43.29422,"lon":5.38615,"is_reserved":false,"is_disabled":false,"rental_uris":{"android":"levelo://app?vid=80841a97-5a7a-481e-9f0f-7c29cd043ffc","ios":"levelo://app?vid=80841a97-5a7a-481e-9f0f-7c29cd043ffc"},"vehicle_type_id":"4","last_reported":1729102371,"current_range_meters":33600,"station_id":"ce4bh2h2rcd13ifvqdh0","pricing_plan_id":"cebpf4jnsgd1na2vs0mg"},{"bike_id":"83bcafb6-7740-4133-8b56-4bf302222f17","system_id":"levelo_inurba_marseille","lat":43.23967,"lon":5.36636,"is_reserved":false,"is_disabled":false,"rental_uris":{"android":"levelo://app?vid=83bcafb6-7740-4133-8b56-4bf302222f17","ios":"levelo://app?vid=83bcafb6-7740-4133-8b56-4bf302222f17"},"vehicle_type_id":"4","last_reported":1729102371,"current_range_meters":8800,"station_id":"ce4bhi12rcd13ifvqfp0","pricing_plan_id":"cebpf4jnsgd1na2vs0mg"},{"bike_id":"fe785414-8f42-4bcb-ade6-848bbe1c4a39","system_id":"levelo_inurba_marseille","lat":43.28444,"lon":5.3919,"is_reserved":false,"is_disabled":false,"rental_uris":{"android":"levelo://app?vid=fe785414-8f42-4bcb-ade6-848bbe1c4a39","ios":"levelo://app?vid=fe785414-8f42-4bcb-ade6-848bbe1c4a39"},"vehicle_type_id":"4","last_reported":1729102371,"current_range_meters":38800,"station_id":"ce4bhoh2rcd13ifvqh5g","pricing_plan_id":"cebpf4jnsgd1na2vs0mg"},{"bike_id":"5e25ec2c-76a3-46ae-b675-78ab559b5e9e","system_id":"levelo_inurba_marseille","lat":43.25818,"lon":5.39437,"is_reserved":false,"is_disabled":false,"rental_uris":{"android":"levelo://app?vid=5e25ec2c-76a3-46ae-b675-78ab559b5e9e","ios":"levelo://app?vid=5e25ec2c-76a3-46ae-b675-78ab559b5e9e"},"vehicle_type_id":"4","last_reported":1729102371,"current_range_meters":14400,"station_id":"ce4bhip2rcd13ifvqft0","pricing_plan_id":"cebpf4jnsgd1na2vs0mg"},{"bike_id":"3213665e-989c-4d22-9f5a-31c8522597dd","system_id":"levelo_inurba_marseille","lat":43.296,"lon":5.36142,"is_reserved":false,"is_disabled":false,"rental_uris":{"android":"levelo://app?vid=3213665e-989c-4d22-9f5a-31c8522597dd","ios":"levelo://app?vid=3213665e-989c-4d22-9f5a-31c8522597dd"},"vehicle_type_id":"4","last_reported":1729102371,"current_range_meters":32000,"station_id":"","pricing_plan_id":"cebpf4jnsgd1na2vs0mg"},{"bike_id":"2c0e3295-31ff-48a9-8bf6-58aaa80fbc76","system_id":"levelo_inurba_marseille","lat":43.31481,"lon":5.3731,"is_reserved":false,"is_disabled":false,"rental_uris":{"android":"levelo://app?vid=2c0e3295-31ff-48a9-8bf6-58aaa80fbc76","ios":"levelo://app?vid=2c0e3295-31ff-48a9-8bf6-58aaa80fbc76"},"vehicle_type_id":"4","last_reported":1729102371,"current_range_meters":16800,"station_id":"ce4bgt12rcd13ifvqcd0","pricing_plan_id":"cebpf4jnsgd1na2vs0mg"},{"bike_id":"85f1439d-38bb-4f84-b89e-6167ed1a4af2","system_id":"levelo_inurba_marseille","lat":43.29271,"lon":5.36842,"is_reserved":false,"is_disabled":false,"rental_uris":{"android":"levelo://app?vid=85f1439d-38bb-4f84-b89e-6167ed1a4af2","ios":"levelo://app?vid=85f1439d-38bb-4f84-b89e-6167ed1a4af2"},"vehicle_type_id":"4","last_reported":1729102371,"current_range_meters":34800,"station_id":"ce4bhbp2rcd13ifvqesg","pricing_plan_id":"cebpf4jnsgd1na2vs0mg"},{"bike_id":"92745185-ca41-465a-8583-94399bd70e9c","system_id":"levelo_inurba_marseille","lat":43.31995,"lon":5.38169,"is_reserved":false,"is_disabled":false,"rental_uris":{"android":"levelo://app?vid=92745185-ca41-465a-8583-94399bd70e9c","ios":"levelo://app?vid=92745185-ca41-465a-8583-94399bd70e9c"},"vehicle_type_id":"4","last_reported":1729102371,"current_range_meters":26000,"station_id":"ce4bhr12rcd13ifvqhpg","pricing_plan_id":"cebpf4jnsgd1na2vs0mg"},{"bike_id":"1641b826-604a-4181-8231-dca386f637a6","system_id":"levelo_inurba_marseille","lat":43.2319,"lon":5.35556,"is_reserved":false,"is_disabled":false,"rental_uris":{"android":"levelo://app?vid=1641b826-604a-4181-8231-dca386f637a6","ios":"levelo://app?vid=1641b826-604a-4181-8231-dca386f637a6"},"vehicle_type_id":"4","last_reported":1729102371,"current_range_meters":37600,"station_id":"ce4bhu92rcd13ifvqi70","pricing_plan_id":"cebpf4jnsgd1na2vs0mg"},{"bike_id":"89211ee2-076f-4df3-92bd-cd8885f2e76d","system_id":"levelo_inurba_marseille","lat":43.23193,"lon":5.35556,"is_reserved":false,"is_disabled":false,"rental_uris":{"android":"levelo://app?vid=89211ee2-076f-4df3-92bd-cd8885f2e76d","ios":"levelo://app?vid=89211ee2-076f-4df3-92bd-cd8885f2e76d"},"vehicle_type_id":"4","last_reported":1729102371,"current_range_meters":36800,"station_id":"ce4bhu92rcd13ifvqi70","pricing_plan_id":"cebpf4jnsgd1na2vs0mg"},{"bike_id":"b636607a-4e2b-40a8-9467-f61655ac77f9","system_id":"levelo_inurba_marseille","lat":43.2781,"lon":5.40715,"is_reserved":false,"is_disabled":false,"rental_uris":{"android":"levelo://app?vid=b636607a-4e2b-40a8-9467-f61655ac77f9","ios":"levelo://app?vid=b636607a-4e2b-40a8-9467-f61655ac77f9"},"vehicle_type_id":"4","last_reported":1729102371,"current_range_meters":8000,"station_id":"ce4bhnh2rcd13ifvqgtg","pricing_plan_id":"cebpf4jnsgd1na2vs0mg"},{"bike_id":"9c7f1d3a-3b06-421a-8326-3e7694189a7a","system_id":"levelo_inurba_marseille","lat":43.29027,"lon":5.38633,"is_reserved":false,"is_disabled":false,"rental_uris":{"android":"levelo://app?vid=9c7f1d3a-3b06-421a-8326-3e7694189a7a","ios":"levelo://app?vid=9c7f1d3a-3b06-421a-8326-3e7694189a7a"},"vehicle_type_id":"4","last_reported":1729102371,"current_range_meters":23200,"station_id":"ce4bh4p2rcd13ifvqe0g","pricing_plan_id":"cebpf4jnsgd1na2vs0mg"},{"bike_id":"d653d5cb-4ddb-47a9-8873-02f612a2c9f2","system_id":"levelo_inurba_marseille","lat":43.29421,"lon":5.38622,"is_reserved":false,"is_disabled":false,"rental_uris":{"android":"levelo://app?vid=d653d5cb-4ddb-47a9-8873-02f612a2c9f2","ios":"levelo://app?vid=d653d5cb-4ddb-47a9-8873-02f612a2c9f2"},"vehicle_type_id":"4","last_reported":1729102371,"current_range_meters":38000,"station_id":"ce4bh2h2rcd13ifvqdh0","pricing_plan_id":"cebpf4jnsgd1na2vs0mg"},{"bike_id":"02af67c6-7c68-4559-a056-7404a067af01","system_id":"levelo_inurba_marseille","lat":43.330251,"lon":5.390537,"is_reserved":false,"is_disabled":false,"rental_uris":{"android":"levelo://app?vid=02af67c6-7c68-4559-a056-7404a067af01","ios":"levelo://app?vid=02af67c6-7c68-4559-a056-7404a067af01"},"vehicle_type_id":"4","last_reported":1729102371,"current_range_meters":40000,"station_id":"ce4bhr92rcd13ifvqhrg","pricing_plan_id":"cebpf4jnsgd1na2vs0mg"},{"bike_id":"c578b0df-8e72-4cf3-b064-b97180609dff","system_id":"levelo_inurba_marseille","lat":43.23172,"lon":5.39998,"is_reserved":false,"is_disabled":false,"rental_uris":{"android":"levelo://app?vid=c578b0df-8e72-4cf3-b064-b97180609dff","ios":"levelo://app?vid=c578b0df-8e72-4cf3-b064-b97180609dff"},"vehicle_type_id":"4","last_reported":1729102371,"current_range_meters":10800,"station_id":"ce4bhn12rcd13ifvqgqg","pricing_plan_id":"cebpf4jnsgd1na2vs0mg"},{"bike_id":"10459a08-c84f-48a0-8c4e-5980bb0c4852","system_id":"levelo_inurba_marseille","lat":43.28275,"lon":5.3506,"is_reserved":false,"is_disabled":false,"rental_uris":{"android":"levelo://app?vid=10459a08-c84f-48a0-8c4e-5980bb0c4852","ios":"levelo://app?vid=10459a08-c84f-48a0-8c4e-5980bb0c4852"},"vehicle_type_id":"4","last_reported":1729102371,"current_range_meters":38800,"station_id":"ce4bhbp2rcd13ifvqerg","pricing_plan_id":"cebpf4jnsgd1na2vs0mg"},{"bike_id":"cb7f4fcb-983c-478a-8360-a8613fb29d94","system_id":"levelo_inurba_marseille","lat":43.31127,"lon":5.37792,"is_reserved":false,"is_disabled":false,"rental_uris":{"android":"levelo://app?vid=cb7f4fcb-983c-478a-8360-a8613fb29d94","ios":"levelo://app?vid=cb7f4fcb-983c-478a-8360-a8613fb29d94"},"vehicle_type_id":"4","last_reported":1729102371,"current_range_meters":13600,"station_id":"ce4bgt92rcd13ifvqcg0","pricing_plan_id":"cebpf4jnsgd1na2vs0mg"},{"bike_id":"5f4f0c1c-3dbc-47ca-a034-aec69e2ca6d1","system_id":"levelo_inurba_marseille","lat":43.26941,"lon":5.40259,"is_reserved":false,"is_disabled":false,"rental_uris":{"android":"levelo://app?vid=5f4f0c1c-3dbc-47ca-a034-aec69e2ca6d1","ios":"levelo://app?vid=5f4f0c1c-3dbc-47ca-a034-aec69e2ca6d1"},"vehicle_type_id":"4","last_reported":1729102371,"current_range_meters":37600,"station_id":"cjm6bp8fraef2m0cb0m0","pricing_plan_id":"cebpf4jnsgd1na2vs0mg"},{"bike_id":"24f85f72-dee6-41bb-bdb8-974ca7c83215","system_id":"levelo_inurba_marseille","lat":43.33021,"lon":5.39042,"is_reserved":false,"is_disabled":false,"rental_uris":{"android":"levelo://app?vid=24f85f72-dee6-41bb-bdb8-974ca7c83215","ios":"levelo://app?vid=24f85f72-dee6-41bb-bdb8-974ca7c83215"},"vehicle_type_id":"4","last_reported":1729102371,"current_range_meters":23200,"station_id":"ce4bhr92rcd13ifvqhrg","pricing_plan_id":"cebpf4jnsgd1na2vs0mg"},{"bike_id":"87440bd7-4730-412f-b52f-03b263c3d6ba","system_id":"levelo_inurba_marseille","lat":43.2319,"lon":5.35557,"is_reserved":false,"is_disabled":false,"rental_uris":{"android":"levelo://app?vid=87440bd7-4730-412f-b52f-03b263c3d6ba","ios":"levelo://app?vid=87440bd7-4730-412f-b52f-03b263c3d6ba"},"vehicle_type_id":"4","last_reported":1729102371,"current_range_meters":24000,"station_id":"ce4bhu92rcd13ifvqi70","pricing_plan_id":"cebpf4jnsgd1na2vs0mg"},{"bike_id":"3f3fe7e6-b505-4596-a2c7-1df8063b767c","system_id":"levelo_inurba_marseille","lat":43.265687,"lon":5.390113,"is_reserved":false,"is_disabled":false,"rental_uris":{"android":"levelo://app?vid=3f3fe7e6-b505-4596-a2c7-1df8063b767c","ios":"levelo://app?vid=3f3fe7e6-b505-4596-a2c7-1df8063b767c"},"vehicle_type_id":"4","last_reported":1729102371,"current_range_meters":10800,"station_id":"ce4bhe12rcd13ifvqf30","pricing_plan_id":"cebpf4jnsgd1na2vs0mg"},{"bike_id":"ff96eee3-1ac8-4888-9ae7-e4b6cc8154af","system_id":"levelo_inurba_marseille","lat":43.33739,"lon":5.3746,"is_reserved":false,"is_disabled":false,"rental_uris":{"android":"levelo://app?vid=ff96eee3-1ac8-4888-9ae7-e4b6cc8154af","ios":"levelo://app?vid=ff96eee3-1ac8-4888-9ae7-e4b6cc8154af"},"vehicle_type_id":"4","last_reported":1729102371,"current_range_meters":28400,"station_id":"","pricing_plan_id":"cebpf4jnsgd1na2vs0mg"},{"bike_id":"d84cbc31-09f9-402d-b3d5-f1cccc2b0821","system_id":"levelo_inurba_marseille","lat":43.24677,"lon":5.38158,"is_reserved":false,"is_disabled":false,"rental_uris":{"android":"levelo://app?vid=d84cbc31-09f9-402d-b3d5-f1cccc2b0821","ios":"levelo://app?vid=d84cbc31-09f9-402d-b3d5-f1cccc2b0821"},"vehicle_type_id":"4","last_reported":1729102371,"current_range_meters":24400,"station_id":"ce4bhih2rcd13ifvqfr0","pricing_plan_id":"cebpf4jnsgd1na2vs0mg"},{"bike_id":"3fc6bca2-dad2-4592-b1b7-42d4d4a687c6","system_id":"levelo_inurba_marseille","lat":43.2572,"lon":5.41117,"is_reserved":false,"is_disabled":false,"rental_uris":{"android":"levelo://app?vid=3fc6bca2-dad2-4592-b1b7-42d4d4a687c6","ios":"levelo://app?vid=3fc6bca2-dad2-4592-b1b7-42d4d4a687c6"},"vehicle_type_id":"4","last_reported":1729102371,"current_range_meters":6000,"station_id":"ce4bhkp2rcd13ifvqgd0","pricing_plan_id":"cebpf4jnsgd1na2vs0mg"},{"bike_id":"023e3a21-3fce-49d6-94e1-3a928964c04d","system_id":"levelo_inurba_marseille","lat":43.31126,"lon":5.37775,"is_reserved":false,"is_disabled":false,"rental_uris":{"android":"levelo://app?vid=023e3a21-3fce-49d6-94e1-3a928964c04d","ios":"levelo://app?vid=023e3a21-3fce-49d6-94e1-3a928964c04d"},"vehicle_type_id":"4","last_reported":1729102371,"current_range_meters":22400,"station_id":"ce4bgt92rcd13ifvqcg0","pricing_plan_id":"cebpf4jnsgd1na2vs0mg"},{"bike_id":"2c9394ef-7be1-41f3-be01-1cb7cf76db9e","system_id":"levelo_inurba_marseille","lat":43.30805,"lon":5.38148,"is_reserved":false,"is_disabled":false,"rental_uris":{"android":"levelo://app?vid=2c9394ef-7be1-41f3-be01-1cb7cf76db9e","ios":"levelo://app?vid=2c9394ef-7be1-41f3-be01-1cb7cf76db9e"},"vehicle_type_id":"4","last_reported":1729102371,"current_range_meters":38800,"station_id":"ce4bgt12rcd13ifvqce0","pricing_plan_id":"cebpf4jnsgd1na2vs0mg"},{"bike_id":"3b922f0e-2823-4c39-9e27-d9836eb9e938","system_id":"levelo_inurba_marseille","lat":43.30597,"lon":5.39358,"is_reserved":false,"is_disabled":false,"rental_uris":{"android":"levelo://app?vid=3b922f0e-2823-4c39-9e27-d9836eb9e938","ios":"levelo://app?vid=3b922f0e-2823-4c39-9e27-d9836eb9e938"},"vehicle_type_id":"4","last_reported":1729102371,"current_range_meters":6400,"station_id":"ce4bh0p2rcd13ifvqd80","pricing_plan_id":"cebpf4jnsgd1na2vs0mg"},{"bike_id":"bde88b53-17d8-48d7-9e49-9feabd039b14","system_id":"levelo_inurba_marseille","lat":43.29532,"lon":5.3855,"is_reserved":false,"is_disabled":false,"rental_uris":{"android":"levelo://app?vid=bde88b53-17d8-48d7-9e49-9feabd039b14","ios":"levelo://app?vid=bde88b53-17d8-48d7-9e49-9feabd039b14"},"vehicle_type_id":"4","last_reported":1729102371,"current_range_meters":30400,"station_id":"ce4bgih2rcd13ifvqba0","pricing_plan_id":"cebpf4jnsgd1na2vs0mg"},{"bike_id":"bb8657de-8da3-416c-bef7-55bd6c4dfef3","system_id":"levelo_inurba_marseille","lat":43.2318,"lon":5.39993,"is_reserved":false,"is_disabled":false,"rental_uris":{"android":"levelo://app?vid=bb8657de-8da3-416c-bef7-55bd6c4dfef3","ios":"levelo://app?vid=bb8657de-8da3-416c-bef7-55bd6c4dfef3"},"vehicle_type_id":"4","last_reported":1729102371,"current_range_meters":11200,"station_id":"ce4bhn12rcd13ifvqgqg","pricing_plan_id":"cebpf4jnsgd1na2vs0mg"},{"bike_id":"0f645b5a-31af-4bea-a09b-47c8007918a0","system_id":"levelo_inurba_marseille","lat":43.28412,"lon":5.37517,"is_reserved":false,"is_disabled":false,"rental_uris":{"android":"levelo://app?vid=0f645b5a-31af-4bea-a09b-47c8007918a0","ios":"levelo://app?vid=0f645b5a-31af-4bea-a09b-47c8007918a0"},"vehicle_type_id":"4","last_reported":1729102371,"current_range_meters":17200,"station_id":"ce4bh412rcd13ifvqds0","pricing_plan_id":"cebpf4jnsgd1na2vs0mg"},{"bike_id":"c75fdd13-06a6-4635-adc1-f8972daf3850","system_id":"levelo_inurba_marseille","lat":43.33026,"lon":5.3904,"is_reserved":false,"is_disabled":false,"rental_uris":{"android":"levelo://app?vid=c75fdd13-06a6-4635-adc1-f8972daf3850","ios":"levelo://app?vid=c75fdd13-06a6-4635-adc1-f8972daf3850"},"vehicle_type_id":"4","last_reported":1729102371,"current_range_meters":37600,"station_id":"ce4bhr92rcd13ifvqhrg","pricing_plan_id":"cebpf4jnsgd1na2vs0mg"},{"bike_id":"292b9425-1372-40d4-bf0a-fe57aa779a41","system_id":"levelo_inurba_marseille","lat":43.23059,"lon":5.35504,"is_reserved":false,"is_disabled":false,"rental_uris":{"android":"levelo://app?vid=292b9425-1372-40d4-bf0a-fe57aa779a41","ios":"levelo://app?vid=292b9425-1372-40d4-bf0a-fe57aa779a41"},"vehicle_type_id":"4","last_reported":1729102371,"current_range_meters":27600,"station_id":"cpo3342slgdg3j2ifvpg","pricing_plan_id":"cebpf4jnsgd1na2vs0mg"},{"bike_id":"5504bdcf-5053-43c3-bd80-754c1c3fec00","system_id":"levelo_inurba_marseille","lat":43.31064,"lon":5.38347,"is_reserved":false,"is_disabled":false,"rental_uris":{"android":"levelo://app?vid=5504bdcf-5053-43c3-bd80-754c1c3fec00","ios":"levelo://app?vid=5504bdcf-5053-43c3-bd80-754c1c3fec00"},"vehicle_type_id":"4","last_reported":1729102371,"current_range_meters":38000,"station_id":"ce4bgv92rcd13ifvqcr0","pricing_plan_id":"cebpf4jnsgd1na2vs0mg"},{"bike_id":"8518d50a-def0-42c3-8f65-459244226eb7","system_id":"levelo_inurba_marseille","lat":43.30884,"lon":5.39659,"is_reserved":false,"is_disabled":false,"rental_uris":{"android":"levelo://app?vid=8518d50a-def0-42c3-8f65-459244226eb7","ios":"levelo://app?vid=8518d50a-def0-42c3-8f65-459244226eb7"},"vehicle_type_id":"4","last_reported":1729102371,"current_range_meters":8000,"station_id":"ce4bh012rcd13ifvqcv0","pricing_plan_id":"cebpf4jnsgd1na2vs0mg"},{"bike_id":"49b75a91-d34f-4cd0-a94c-376dd7b8cab3","system_id":"levelo_inurba_marseille","lat":43.27894,"lon":5.37998,"is_reserved":false,"is_disabled":false,"rental_uris":{"android":"levelo://app?vid=49b75a91-d34f-4cd0-a94c-376dd7b8cab3","ios":"levelo://app?vid=49b75a91-d34f-4cd0-a94c-376dd7b8cab3"},"vehicle_type_id":"4","last_reported":1729102371,"current_range_meters":19200,"station_id":"ce4bhf92rcd13ifvqf50","pricing_plan_id":"cebpf4jnsgd1na2vs0mg"},{"bike_id":"f6306f38-9962-407b-bf58-531f87abc3c0","system_id":"levelo_inurba_marseille","lat":43.28662,"lon":5.36362,"is_reserved":false,"is_disabled":false,"rental_uris":{"android":"levelo://app?vid=f6306f38-9962-407b-bf58-531f87abc3c0","ios":"levelo://app?vid=f6306f38-9962-407b-bf58-531f87abc3c0"},"vehicle_type_id":"4","last_reported":1729102371,"current_range_meters":35200,"station_id":"ce4bhah2rcd13ifvqej0","pricing_plan_id":"cebpf4jnsgd1na2vs0mg"},{"bike_id":"a6b8e268-2d82-4d58-a182-8168812f4a35","system_id":"levelo_inurba_marseille","lat":43.24808,"lon":5.3746,"is_reserved":false,"is_disabled":false,"rental_uris":{"android":"levelo://app?vid=a6b8e268-2d82-4d58-a182-8168812f4a35","ios":"levelo://app?vid=a6b8e268-2d82-4d58-a182-8168812f4a35"},"vehicle_type_id":"4","last_reported":1729102371,"current_range_meters":16000,"station_id":"ce4bhgh2rcd13ifvqfb0","pricing_plan_id":"cebpf4jnsgd1na2vs0mg"},{"bike_id":"65406e49-8594-4cfa-8223-dde29203d51c","system_id":"levelo_inurba_marseille","lat":43.27383,"lon":5.36253,"is_reserved":false,"is_disabled":false,"rental_uris":{"android":"levelo://app?vid=65406e49-8594-4cfa-8223-dde29203d51c","ios":"levelo://app?vid=65406e49-8594-4cfa-8223-dde29203d51c"},"vehicle_type_id":"4","last_reported":1729102371,"current_range_meters":8400,"station_id":"ce4bhbh2rcd13ifvqeo0","pricing_plan_id":"cebpf4jnsgd1na2vs0mg"},{"bike_id":"6b736b14-344b-4ab9-a6f1-e5aa51c651a8","system_id":"levelo_inurba_marseille","lat":43.29281,"lon":5.384724,"is_reserved":false,"is_disabled":false,"rental_uris":{"android":"levelo://app?vid=6b736b14-344b-4ab9-a6f1-e5aa51c651a8","ios":"levelo://app?vid=6b736b14-344b-4ab9-a6f1-e5aa51c651a8"},"vehicle_type_id":"4","last_reported":1729102371,"current_range_meters":33600,"station_id":"","pricing_plan_id":"cebpf4jnsgd1na2vs0mg"},{"bike_id":"7e022d50-fee0-48bd-8f68-64779ba65969","system_id":"levelo_inurba_marseille","lat":43.2572,"lon":5.41117,"is_reserved":false,"is_disabled":false,"rental_uris":{"android":"levelo://app?vid=7e022d50-fee0-48bd-8f68-64779ba65969","ios":"levelo://app?vid=7e022d50-fee0-48bd-8f68-64779ba65969"},"vehicle_type_id":"4","last_reported":1729102371,"current_range_meters":5600,"station_id":"ce4bhkp2rcd13ifvqgd0","pricing_plan_id":"cebpf4jnsgd1na2vs0mg"},{"bike_id":"4b39118f-bb62-406b-9203-0b8ddf9c99cc","system_id":"levelo_inurba_marseille","lat":43.22934,"lon":5.35378,"is_reserved":false,"is_disabled":false,"rental_uris":{"android":"levelo://app?vid=4b39118f-bb62-406b-9203-0b8ddf9c99cc","ios":"levelo://app?vid=4b39118f-bb62-406b-9203-0b8ddf9c99cc"},"vehicle_type_id":"4","last_reported":1729102371,"current_range_meters":16400,"station_id":"cpo3532slgdg3j2ikp40","pricing_plan_id":"cebpf4jnsgd1na2vs0mg"},{"bike_id":"044358a4-9556-4db7-8947-9b9dbe130c14","system_id":"levelo_inurba_marseille","lat":43.33019,"lon":5.39047,"is_reserved":false,"is_disabled":false,"rental_uris":{"android":"levelo://app?vid=044358a4-9556-4db7-8947-9b9dbe130c14","ios":"levelo://app?vid=044358a4-9556-4db7-8947-9b9dbe130c14"},"vehicle_type_id":"4","last_reported":1729102371,"current_range_meters":25600,"station_id":"ce4bhr92rcd13ifvqhrg","pricing_plan_id":"cebpf4jnsgd1na2vs0mg"},{"bike_id":"157147d4-ce81-422f-ba0d-d6cdd72c5814","system_id":"levelo_inurba_marseille","lat":43.30325,"lon":5.40441,"is_reserved":false,"is_disabled":false,"rental_uris":{"android":"levelo://app?vid=157147d4-ce81-422f-ba0d-d6cdd72c5814","ios":"levelo://app?vid=157147d4-ce81-422f-ba0d-d6cdd72c5814"},"vehicle_type_id":"4","last_reported":1729102371,"current_range_meters":22800,"station_id":"ce4bh012rcd13ifvqd10","pricing_plan_id":"cebpf4jnsgd1na2vs0mg"},{"bike_id":"15a0fb58-97fc-44a6-a470-84a4ce5fd498","system_id":"levelo_inurba_marseille","lat":43.306,"lon":5.3936,"is_reserved":false,"is_disabled":false,"rental_uris":{"android":"levelo://app?vid=15a0fb58-97fc-44a6-a470-84a4ce5fd498","ios":"levelo://app?vid=15a0fb58-97fc-44a6-a470-84a4ce5fd498"},"vehicle_type_id":"4","last_reported":1729102371,"current_range_meters":29600,"station_id":"ce4bh0p2rcd13ifvqd80","pricing_plan_id":"cebpf4jnsgd1na2vs0mg"},{"bike_id":"a9d80141-cb04-4f88-bcc5-9763572e3517","system_id":"levelo_inurba_marseille","lat":43.23194,"lon":5.35548,"is_reserved":false,"is_disabled":false,"rental_uris":{"android":"levelo://app?vid=a9d80141-cb04-4f88-bcc5-9763572e3517","ios":"levelo://app?vid=a9d80141-cb04-4f88-bcc5-9763572e3517"},"vehicle_type_id":"4","last_reported":1729102371,"current_range_meters":37600,"station_id":"ce4bhu92rcd13ifvqi70","pricing_plan_id":"cebpf4jnsgd1na2vs0mg"},{"bike_id":"3a4c139d-ae9b-4db3-934c-00b01b8bc2fc","system_id":"levelo_inurba_marseille","lat":43.2944,"lon":5.39746,"is_reserved":false,"is_disabled":false,"rental_uris":{"android":"levelo://app?vid=3a4c139d-ae9b-4db3-934c-00b01b8bc2fc","ios":"levelo://app?vid=3a4c139d-ae9b-4db3-934c-00b01b8bc2fc"},"vehicle_type_id":"4","last_reported":1729102371,"current_range_meters":28400,"station_id":"ce4bh3h2rcd13ifvqdo0","pricing_plan_id":"cebpf4jnsgd1na2vs0mg"},{"bike_id":"58fc0300-f080-417b-95f8-1703c9f98f7e","system_id":"levelo_inurba_marseille","lat":43.29526,"lon":5.37464,"is_reserved":false,"is_disabled":false,"rental_uris":{"android":"levelo://app?vid=58fc0300-f080-417b-95f8-1703c9f98f7e","ios":"levelo://app?vid=58fc0300-f080-417b-95f8-1703c9f98f7e"},"vehicle_type_id":"4","last_reported":1729102371,"current_range_meters":18000,"station_id":"ce4bgkp2rcd13ifvqbmg","pricing_plan_id":"cebpf4jnsgd1na2vs0mg"},{"bike_id":"4f00c2b5-5278-421c-be9b-8b7ab009d1bf","system_id":"levelo_inurba_marseille","lat":43.287933,"lon":5.378372,"is_reserved":false,"is_disabled":false,"rental_uris":{"android":"levelo://app?vid=4f00c2b5-5278-421c-be9b-8b7ab009d1bf","ios":"levelo://app?vid=4f00c2b5-5278-421c-be9b-8b7ab009d1bf"},"vehicle_type_id":"4","last_reported":1729102371,"current_range_meters":4400,"station_id":"","pricing_plan_id":"cebpf4jnsgd1na2vs0mg"},{"bike_id":"c834d31d-df46-4136-b00f-2788b617c81e","system_id":"levelo_inurba_marseille","lat":43.33724,"lon":5.39185,"is_reserved":false,"is_disabled":false,"rental_uris":{"android":"levelo://app?vid=c834d31d-df46-4136-b00f-2788b617c81e","ios":"levelo://app?vid=c834d31d-df46-4136-b00f-2788b617c81e"},"vehicle_type_id":"4","last_reported":1729102371,"current_range_meters":18000,"station_id":"ce4bhr92rcd13ifvqhsg","pricing_plan_id":"cebpf4jnsgd1na2vs0mg"},{"bike_id":"879aa9e1-dde4-4201-904a-3cf4645ee61a","system_id":"levelo_inurba_marseille","lat":43.29001,"lon":5.35615,"is_reserved":false,"is_disabled":false,"rental_uris":{"android":"levelo://app?vid=879aa9e1-dde4-4201-904a-3cf4645ee61a","ios":"levelo://app?vid=879aa9e1-dde4-4201-904a-3cf4645ee61a"},"vehicle_type_id":"4","last_reported":1729102371,"current_range_meters":38000,"station_id":"ce4bhb92rcd13ifvqen0","pricing_plan_id":"cebpf4jnsgd1na2vs0mg"},{"bike_id":"08ef5399-9992-47cd-b1ba-08406311da4a","system_id":"levelo_inurba_marseille","lat":43.27977,"lon":5.38744,"is_reserved":false,"is_disabled":false,"rental_uris":{"android":"levelo://app?vid=08ef5399-9992-47cd-b1ba-08406311da4a","ios":"levelo://app?vid=08ef5399-9992-47cd-b1ba-08406311da4a"},"vehicle_type_id":"4","last_reported":1729102371,"current_range_meters":26000,"station_id":"ce4bhg12rcd13ifvqf80","pricing_plan_id":"cebpf4jnsgd1na2vs0mg"},{"bike_id":"d41309ab-1a1f-4395-acaa-455483c3f8e1","system_id":"levelo_inurba_marseille","lat":43.23193,"lon":5.3556,"is_reserved":false,"is_disabled":false,"rental_uris":{"android":"levelo://app?vid=d41309ab-1a1f-4395-acaa-455483c3f8e1","ios":"levelo://app?vid=d41309ab-1a1f-4395-acaa-455483c3f8e1"},"vehicle_type_id":"4","last_reported":1729102371,"current_range_meters":38800,"station_id":"ce4bhu92rcd13ifvqi70","pricing_plan_id":"cebpf4jnsgd1na2vs0mg"},{"bike_id":"94902fb1-a766-4d90-8978-e732725ca583","system_id":"levelo_inurba_marseille","lat":43.23177,"lon":5.39997,"is_reserved":false,"is_disabled":false,"rental_uris":{"android":"levelo://app?vid=94902fb1-a766-4d90-8978-e732725ca583","ios":"levelo://app?vid=94902fb1-a766-4d90-8978-e732725ca583"},"vehicle_type_id":"4","last_reported":1729102371,"current_range_meters":39200,"station_id":"ce4bhn12rcd13ifvqgqg","pricing_plan_id":"cebpf4jnsgd1na2vs0mg"},{"bike_id":"b6ba18ac-f9f7-47ce-97ee-a57309932db4","system_id":"levelo_inurba_marseille","lat":43.27811,"lon":5.40714,"is_reserved":false,"is_disabled":false,"rental_uris":{"android":"levelo://app?vid=b6ba18ac-f9f7-47ce-97ee-a57309932db4","ios":"levelo://app?vid=b6ba18ac-f9f7-47ce-97ee-a57309932db4"},"vehicle_type_id":"4","last_reported":1729102371,"current_range_meters":38000,"station_id":"ce4bhnh2rcd13ifvqgtg","pricing_plan_id":"cebpf4jnsgd1na2vs0mg"},{"bike_id":"e468b14b-5a77-4470-a6fe-7c86c83829a0","system_id":"levelo_inurba_marseille","lat":43.30128,"lon":5.39868,"is_reserved":false,"is_disabled":false,"rental_uris":{"android":"levelo://app?vid=e468b14b-5a77-4470-a6fe-7c86c83829a0","ios":"levelo://app?vid=e468b14b-5a77-4470-a6fe-7c86c83829a0"},"vehicle_type_id":"4","last_reported":1729102371,"current_range_meters":39200,"station_id":"ce4bh0h2rcd13ifvqd40","pricing_plan_id":"cebpf4jnsgd1na2vs0mg"},{"bike_id":"a572217d-c1c6-46bc-95af-7cfb429a3976","system_id":"levelo_inurba_marseille","lat":43.28456,"lon":5.3589,"is_reserved":false,"is_disabled":false,"rental_uris":{"android":"levelo://app?vid=a572217d-c1c6-46bc-95af-7cfb429a3976","ios":"levelo://app?vid=a572217d-c1c6-46bc-95af-7cfb429a3976"},"vehicle_type_id":"4","last_reported":1729102371,"current_range_meters":9200,"station_id":"ce4bhah2rcd13ifvqei0","pricing_plan_id":"cebpf4jnsgd1na2vs0mg"},{"bike_id":"665c3f8e-8be5-4d80-a8dc-dbb11d59399c","system_id":"levelo_inurba_marseille","lat":43.33024,"lon":5.39041,"is_reserved":false,"is_disabled":false,"rental_uris":{"android":"levelo://app?vid=665c3f8e-8be5-4d80-a8dc-dbb11d59399c","ios":"levelo://app?vid=665c3f8e-8be5-4d80-a8dc-dbb11d59399c"},"vehicle_type_id":"4","last_reported":1729102371,"current_range_meters":40000,"station_id":"ce4bhr92rcd13ifvqhrg","pricing_plan_id":"cebpf4jnsgd1na2vs0mg"},{"bike_id":"f7efc1f9-fd76-4085-98fd-b2ad090be0b3","system_id":"levelo_inurba_marseille","lat":43.25586,"lon":5.38232,"is_reserved":false,"is_disabled":false,"rental_uris":{"android":"levelo://app?vid=f7efc1f9-fd76-4085-98fd-b2ad090be0b3","ios":"levelo://app?vid=f7efc1f9-fd76-4085-98fd-b2ad090be0b3"},"vehicle_type_id":"4","last_reported":1729102371,"current_range_meters":8000,"station_id":"ce4bhih2rcd13ifvqfs0","pricing_plan_id":"cebpf4jnsgd1na2vs0mg"},{"bike_id":"033a7f68-f273-426e-84a9-8a3b2c56f6f5","system_id":"levelo_inurba_marseille","lat":43.35102,"lon":5.36817,"is_reserved":false,"is_disabled":false,"rental_uris":{"android":"levelo://app?vid=033a7f68-f273-426e-84a9-8a3b2c56f6f5","ios":"levelo://app?vid=033a7f68-f273-426e-84a9-8a3b2c56f6f5"},"vehicle_type_id":"4","last_reported":1729102371,"current_range_meters":10800,"station_id":"","pricing_plan_id":"cebpf4jnsgd1na2vs0mg"},{"bike_id":"658d4154-eeb8-4ded-9e8c-e9b59e45efa1","system_id":"levelo_inurba_marseille","lat":43.31712,"lon":5.37765,"is_reserved":false,"is_disabled":false,"rental_uris":{"android":"levelo://app?vid=658d4154-eeb8-4ded-9e8c-e9b59e45efa1","ios":"levelo://app?vid=658d4154-eeb8-4ded-9e8c-e9b59e45efa1"},"vehicle_type_id":"4","last_reported":1729102371,"current_range_meters":12000,"station_id":"ce4bgth2rcd13ifvqch0","pricing_plan_id":"cebpf4jnsgd1na2vs0mg"},{"bike_id":"d12adc41-42eb-4923-972c-a43d21f1bdd8","system_id":"levelo_inurba_marseille","lat":43.30798,"lon":5.38149,"is_reserved":false,"is_disabled":false,"rental_uris":{"android":"levelo://app?vid=d12adc41-42eb-4923-972c-a43d21f1bdd8","ios":"levelo://app?vid=d12adc41-42eb-4923-972c-a43d21f1bdd8"},"vehicle_type_id":"4","last_reported":1729102371,"current_range_meters":38800,"station_id":"ce4bgt12rcd13ifvqce0","pricing_plan_id":"cebpf4jnsgd1na2vs0mg"},{"bike_id":"1af2813b-98a0-4b62-aaf8-89652b30f639","system_id":"levelo_inurba_marseille","lat":43.22932,"lon":5.35384,"is_reserved":false,"is_disabled":false,"rental_uris":{"android":"levelo://app?vid=1af2813b-98a0-4b62-aaf8-89652b30f639","ios":"levelo://app?vid=1af2813b-98a0-4b62-aaf8-89652b30f639"},"vehicle_type_id":"4","last_reported":1729102371,"current_range_meters":24400,"station_id":"cpo3532slgdg3j2ikp40","pricing_plan_id":"cebpf4jnsgd1na2vs0mg"},{"bike_id":"60c8484c-49ec-4147-a109-f395a2f2537f","system_id":"levelo_inurba_marseille","lat":43.30806,"lon":5.38144,"is_reserved":false,"is_disabled":false,"rental_uris":{"android":"levelo://app?vid=60c8484c-49ec-4147-a109-f395a2f2537f","ios":"levelo://app?vid=60c8484c-49ec-4147-a109-f395a2f2537f"},"vehicle_type_id":"4","last_reported":1729102371,"current_range_meters":39200,"station_id":"ce4bgt12rcd13ifvqce0","pricing_plan_id":"cebpf4jnsgd1na2vs0mg"},{"bike_id":"f93454e1-a669-4c63-a4ca-b572042c7971","system_id":"levelo_inurba_marseille","lat":43.23195,"lon":5.35552,"is_reserved":false,"is_disabled":false,"rental_uris":{"android":"levelo://app?vid=f93454e1-a669-4c63-a4ca-b572042c7971","ios":"levelo://app?vid=f93454e1-a669-4c63-a4ca-b572042c7971"},"vehicle_type_id":"4","last_reported":1729102371,"current_range_meters":18800,"station_id":"ce4bhu92rcd13ifvqi70","pricing_plan_id":"cebpf4jnsgd1na2vs0mg"},{"bike_id":"5991a3d2-0cb9-494d-b3ed-321a28cd7251","system_id":"levelo_inurba_marseille","lat":43.22933,"lon":5.35383,"is_reserved":false,"is_disabled":false,"rental_uris":{"android":"levelo://app?vid=5991a3d2-0cb9-494d-b3ed-321a28cd7251","ios":"levelo://app?vid=5991a3d2-0cb9-494d-b3ed-321a28cd7251"},"vehicle_type_id":"4","last_reported":1729102371,"current_range_meters":38800,"station_id":"cpo3532slgdg3j2ikp40","pricing_plan_id":"cebpf4jnsgd1na2vs0mg"},{"bike_id":"93ddd36d-8197-4f91-9139-a5d9ca96720b","system_id":"levelo_inurba_marseille","lat":43.290009,"lon":5.378007,"is_reserved":false,"is_disabled":false,"rental_uris":{"android":"levelo://app?vid=93ddd36d-8197-4f91-9139-a5d9ca96720b","ios":"levelo://app?vid=93ddd36d-8197-4f91-9139-a5d9ca96720b"},"vehicle_type_id":"4","last_reported":1729102371,"current_range_meters":16800,"station_id":"ce4bh9p2rcd13ifvqed0","pricing_plan_id":"cebpf4jnsgd1na2vs0mg"},{"bike_id":"a6bfea44-5411-4eeb-b750-024b80743a50","system_id":"levelo_inurba_marseille","lat":43.30259,"lon":5.4008,"is_reserved":false,"is_disabled":false,"rental_uris":{"android":"levelo://app?vid=a6bfea44-5411-4eeb-b750-024b80743a50","ios":"levelo://app?vid=a6bfea44-5411-4eeb-b750-024b80743a50"},"vehicle_type_id":"4","last_reported":1729102371,"current_range_meters":38800,"station_id":"ce4bgvh2rcd13ifvqcs0","pricing_plan_id":"cebpf4jnsgd1na2vs0mg"},{"bike_id":"3ece4d15-37c4-4363-af1b-a68532930905","system_id":"levelo_inurba_marseille","lat":43.23191,"lon":5.39984,"is_reserved":false,"is_disabled":false,"rental_uris":{"android":"levelo://app?vid=3ece4d15-37c4-4363-af1b-a68532930905","ios":"levelo://app?vid=3ece4d15-37c4-4363-af1b-a68532930905"},"vehicle_type_id":"4","last_reported":1729102371,"current_range_meters":12800,"station_id":"ce4bhn12rcd13ifvqgqg","pricing_plan_id":"cebpf4jnsgd1na2vs0mg"},{"bike_id":"d7e46f4f-9fe1-418e-a157-668d74189314","system_id":"levelo_inurba_marseille","lat":43.31881,"lon":5.40734,"is_reserved":false,"is_disabled":false,"rental_uris":{"android":"levelo://app?vid=d7e46f4f-9fe1-418e-a157-668d74189314","ios":"levelo://app?vid=d7e46f4f-9fe1-418e-a157-668d74189314"},"vehicle_type_id":"4","last_reported":1729102371,"current_range_meters":40000,"station_id":"ce4bhq12rcd13ifvqhig","pricing_plan_id":"cebpf4jnsgd1na2vs0mg"},{"bike_id":"cc85962f-2424-4de7-837e-cc311911c414","system_id":"levelo_inurba_marseille","lat":43.2465,"lon":5.38903,"is_reserved":false,"is_disabled":false,"rental_uris":{"android":"levelo://app?vid=cc85962f-2424-4de7-837e-cc311911c414","ios":"levelo://app?vid=cc85962f-2424-4de7-837e-cc311911c414"},"vehicle_type_id":"4","last_reported":1729102371,"current_range_meters":38000,"station_id":"ce4bhg12rcd13ifvqf60","pricing_plan_id":"cebpf4jnsgd1na2vs0mg"},{"bike_id":"e59b0d9a-aa4d-4ba6-8ae5-921076070700","system_id":"levelo_inurba_marseille","lat":43.22931,"lon":5.35377,"is_reserved":false,"is_disabled":false,"rental_uris":{"android":"levelo://app?vid=e59b0d9a-aa4d-4ba6-8ae5-921076070700","ios":"levelo://app?vid=e59b0d9a-aa4d-4ba6-8ae5-921076070700"},"vehicle_type_id":"4","last_reported":1729102371,"current_range_meters":10800,"station_id":"cpo3532slgdg3j2ikp40","pricing_plan_id":"cebpf4jnsgd1na2vs0mg"},{"bike_id":"72ac69b7-8c50-4dc3-bba8-d817e61175ea","system_id":"levelo_inurba_marseille","lat":43.25581,"lon":5.3823,"is_reserved":false,"is_disabled":false,"rental_uris":{"android":"levelo://app?vid=72ac69b7-8c50-4dc3-bba8-d817e61175ea","ios":"levelo://app?vid=72ac69b7-8c50-4dc3-bba8-d817e61175ea"},"vehicle_type_id":"4","last_reported":1729102371,"current_range_meters":8400,"station_id":"ce4bhih2rcd13ifvqfs0","pricing_plan_id":"cebpf4jnsgd1na2vs0mg"},{"bike_id":"ceaea5ee-dd41-48e4-814a-8b7b7ef4061a","system_id":"levelo_inurba_marseille","lat":43.3228,"lon":5.38582,"is_reserved":false,"is_disabled":false,"rental_uris":{"android":"levelo://app?vid=ceaea5ee-dd41-48e4-814a-8b7b7ef4061a","ios":"levelo://app?vid=ceaea5ee-dd41-48e4-814a-8b7b7ef4061a"},"vehicle_type_id":"4","last_reported":1729102371,"current_range_meters":17600,"station_id":"","pricing_plan_id":"cebpf4jnsgd1na2vs0mg"},{"bike_id":"34dd65b3-3034-43e3-ac77-d05a30c9f0be","system_id":"levelo_inurba_marseille","lat":43.29538,"lon":5.38536,"is_reserved":false,"is_disabled":false,"rental_uris":{"android":"levelo://app?vid=34dd65b3-3034-43e3-ac77-d05a30c9f0be","ios":"levelo://app?vid=34dd65b3-3034-43e3-ac77-d05a30c9f0be"},"vehicle_type_id":"4","last_reported":1729102371,"current_range_meters":37600,"station_id":"ce4bgih2rcd13ifvqba0","pricing_plan_id":"cebpf4jnsgd1na2vs0mg"},{"bike_id":"f19ca80f-5ab3-40cc-a3ec-c5bdd1e053a3","system_id":"levelo_inurba_marseille","lat":43.31267,"lon":5.40175,"is_reserved":false,"is_disabled":false,"rental_uris":{"android":"levelo://app?vid=f19ca80f-5ab3-40cc-a3ec-c5bdd1e053a3","ios":"levelo://app?vid=f19ca80f-5ab3-40cc-a3ec-c5bdd1e053a3"},"vehicle_type_id":"4","last_reported":1729102371,"current_range_meters":38800,"station_id":"ce4bh092rcd13ifvqd30","pricing_plan_id":"cebpf4jnsgd1na2vs0mg"},{"bike_id":"655c4a8f-a8dd-49d7-9bca-5b3089d283e9","system_id":"levelo_inurba_marseille","lat":43.25581,"lon":5.38222,"is_reserved":false,"is_disabled":false,"rental_uris":{"android":"levelo://app?vid=655c4a8f-a8dd-49d7-9bca-5b3089d283e9","ios":"levelo://app?vid=655c4a8f-a8dd-49d7-9bca-5b3089d283e9"},"vehicle_type_id":"4","last_reported":1729102371,"current_range_meters":27200,"station_id":"ce4bhih2rcd13ifvqfs0","pricing_plan_id":"cebpf4jnsgd1na2vs0mg"},{"bike_id":"d3aa353d-1d6d-440c-aeba-c8b481b9ea2d","system_id":"levelo_inurba_marseille","lat":43.28069,"lon":5.3966,"is_reserved":false,"is_disabled":false,"rental_uris":{"android":"levelo://app?vid=d3aa353d-1d6d-440c-aeba-c8b481b9ea2d","ios":"levelo://app?vid=d3aa353d-1d6d-440c-aeba-c8b481b9ea2d"},"vehicle_type_id":"4","last_reported":1729102371,"current_range_meters":21600,"station_id":"ce4bho12rcd13ifvqh2g","pricing_plan_id":"cebpf4jnsgd1na2vs0mg"},{"bike_id":"f94da947-b1a0-40ed-8143-ed5ebffc5c44","system_id":"levelo_inurba_marseille","lat":43.27957,"lon":5.41055,"is_reserved":false,"is_disabled":false,"rental_uris":{"android":"levelo://app?vid=f94da947-b1a0-40ed-8143-ed5ebffc5c44","ios":"levelo://app?vid=f94da947-b1a0-40ed-8143-ed5ebffc5c44"},"vehicle_type_id":"4","last_reported":1729102371,"current_range_meters":34000,"station_id":"ce4bhnp2rcd13ifvqh0g","pricing_plan_id":"cebpf4jnsgd1na2vs0mg"},{"bike_id":"7a820507-e0c6-488e-9117-ca2515b06e92","system_id":"levelo_inurba_marseille","lat":43.28703,"lon":5.37394,"is_reserved":false,"is_disabled":false,"rental_uris":{"android":"levelo://app?vid=7a820507-e0c6-488e-9117-ca2515b06e92","ios":"levelo://app?vid=7a820507-e0c6-488e-9117-ca2515b06e92"},"vehicle_type_id":"4","last_reported":1729102371,"current_range_meters":6000,"station_id":"ce4bh3p2rcd13ifvqdq0","pricing_plan_id":"cebpf4jnsgd1na2vs0mg"},{"bike_id":"3f1144c4-dae8-4e2e-8993-20eec78e2a35","system_id":"levelo_inurba_marseille","lat":43.29072,"lon":5.37175,"is_reserved":false,"is_disabled":false,"rental_uris":{"android":"levelo://app?vid=3f1144c4-dae8-4e2e-8993-20eec78e2a35","ios":"levelo://app?vid=3f1144c4-dae8-4e2e-8993-20eec78e2a35"},"vehicle_type_id":"4","last_reported":1729102371,"current_range_meters":38000,"station_id":"ce4bh5p2rcd13ifvqe4g","pricing_plan_id":"cebpf4jnsgd1na2vs0mg"},{"bike_id":"b279e92e-b51f-4511-9e6b-870d0dfaf56a","system_id":"levelo_inurba_marseille","lat":43.29299,"lon":5.3745,"is_reserved":false,"is_disabled":false,"rental_uris":{"android":"levelo://app?vid=b279e92e-b51f-4511-9e6b-870d0dfaf56a","ios":"levelo://app?vid=b279e92e-b51f-4511-9e6b-870d0dfaf56a"},"vehicle_type_id":"4","last_reported":1729102371,"current_range_meters":36400,"station_id":"ce4bgi12rcd13ifvqb70","pricing_plan_id":"cebpf4jnsgd1na2vs0mg"},{"bike_id":"ecea5373-73aa-47a0-b41d-f69c32da8ec2","system_id":"levelo_inurba_marseille","lat":43.23062,"lon":5.35506,"is_reserved":false,"is_disabled":false,"rental_uris":{"android":"levelo://app?vid=ecea5373-73aa-47a0-b41d-f69c32da8ec2","ios":"levelo://app?vid=ecea5373-73aa-47a0-b41d-f69c32da8ec2"},"vehicle_type_id":"4","last_reported":1729102371,"current_range_meters":10000,"station_id":"cpo3342slgdg3j2ifvpg","pricing_plan_id":"cebpf4jnsgd1na2vs0mg"},{"bike_id":"95cf7d5e-c016-484e-968d-618ef24921cc","system_id":"levelo_inurba_marseille","lat":43.31084,"lon":5.42435,"is_reserved":false,"is_disabled":false,"rental_uris":{"android":"levelo://app?vid=95cf7d5e-c016-484e-968d-618ef24921cc","ios":"levelo://app?vid=95cf7d5e-c016-484e-968d-618ef24921cc"},"vehicle_type_id":"4","last_reported":1729102371,"current_range_meters":38400,"station_id":"ce4bhp92rcd13ifvqhag","pricing_plan_id":"cebpf4jnsgd1na2vs0mg"},{"bike_id":"e216c1d7-e019-469a-9155-3430a4572dbc","system_id":"levelo_inurba_marseille","lat":43.29782,"lon":5.39341,"is_reserved":false,"is_disabled":false,"rental_uris":{"android":"levelo://app?vid=e216c1d7-e019-469a-9155-3430a4572dbc","ios":"levelo://app?vid=e216c1d7-e019-469a-9155-3430a4572dbc"},"vehicle_type_id":"4","last_reported":1729102371,"current_range_meters":7200,"station_id":"chh1huq6cuj3fo74tm60","pricing_plan_id":"cebpf4jnsgd1na2vs0mg"},{"bike_id":"94871091-43a0-4720-8120-dc550bf67189","system_id":"levelo_inurba_marseille","lat":43.28588,"lon":5.39234,"is_reserved":false,"is_disabled":false,"rental_uris":{"android":"levelo://app?vid=94871091-43a0-4720-8120-dc550bf67189","ios":"levelo://app?vid=94871091-43a0-4720-8120-dc550bf67189"},"vehicle_type_id":"4","last_reported":1729102371,"current_range_meters":34000,"station_id":"ce4bh3p2rcd13ifvqdq0","pricing_plan_id":"cebpf4jnsgd1na2vs0mg"},{"bike_id":"0ae2368f-c43a-4f19-a558-51e8b10ef13f","system_id":"levelo_inurba_marseille","lat":43.28917,"lon":5.3618,"is_reserved":false,"is_disabled":false,"rental_uris":{"android":"levelo://app?vid=0ae2368f-c43a-4f19-a558-51e8b10ef13f","ios":"levelo://app?vid=0ae2368f-c43a-4f19-a558-51e8b10ef13f"},"vehicle_type_id":"4","last_reported":1729102371,"current_range_meters":38000,"station_id":"ce4bh4p2rcd13ifvqe1g","pricing_plan_id":"cebpf4jnsgd1na2vs0mg"},{"bike_id":"b9969019-5c8f-4d38-8f55-7d93c3afba24","system_id":"levelo_inurba_marseille","lat":43.2942,"lon":5.38633,"is_reserved":false,"is_disabled":false,"rental_uris":{"android":"levelo://app?vid=b9969019-5c8f-4d38-8f55-7d93c3afba24","ios":"levelo://app?vid=b9969019-5c8f-4d38-8f55-7d93c3afba24"},"vehicle_type_id":"4","last_reported":1729102371,"current_range_meters":21600,"station_id":"ce4bh2h2rcd13ifvqdh0","pricing_plan_id":"cebpf4jnsgd1na2vs0mg"},{"bike_id":"31dd83a8-a26e-4ede-bf2a-f56830c9f582","system_id":"levelo_inurba_marseille","lat":43.2908,"lon":5.38142,"is_reserved":false,"is_disabled":false,"rental_uris":{"android":"levelo://app?vid=31dd83a8-a26e-4ede-bf2a-f56830c9f582","ios":"levelo://app?vid=31dd83a8-a26e-4ede-bf2a-f56830c9f582"},"vehicle_type_id":"4","last_reported":1729102371,"current_range_meters":28400,"station_id":"ce4bh512rcd13ifvqe2g","pricing_plan_id":"cebpf4jnsgd1na2vs0mg"},{"bike_id":"f269126c-1b0b-4a1a-a1d6-f8c3716f5336","system_id":"levelo_inurba_marseille","lat":43.23193,"lon":5.35557,"is_reserved":false,"is_disabled":false,"rental_uris":{"android":"levelo://app?vid=f269126c-1b0b-4a1a-a1d6-f8c3716f5336","ios":"levelo://app?vid=f269126c-1b0b-4a1a-a1d6-f8c3716f5336"},"vehicle_type_id":"4","last_reported":1729102371,"current_range_meters":27200,"station_id":"ce4bhu92rcd13ifvqi70","pricing_plan_id":"cebpf4jnsgd1na2vs0mg"},{"bike_id":"f5ce1fad-c6d7-4050-abe7-c3a1f1895a9f","system_id":"levelo_inurba_marseille","lat":43.290218,"lon":5.38837,"is_reserved":false,"is_disabled":false,"rental_uris":{"android":"levelo://app?vid=f5ce1fad-c6d7-4050-abe7-c3a1f1895a9f","ios":"levelo://app?vid=f5ce1fad-c6d7-4050-abe7-c3a1f1895a9f"},"vehicle_type_id":"4","last_reported":1729102371,"current_range_meters":10800,"station_id":"ce4bh192rcd13ifvqdd0","pricing_plan_id":"cebpf4jnsgd1na2vs0mg"},{"bike_id":"80ab5c2d-214c-4f96-9b47-2d1cea22fa8b","system_id":"levelo_inurba_marseille","lat":43.31069,"lon":5.38354,"is_reserved":false,"is_disabled":false,"rental_uris":{"android":"levelo://app?vid=80ab5c2d-214c-4f96-9b47-2d1cea22fa8b","ios":"levelo://app?vid=80ab5c2d-214c-4f96-9b47-2d1cea22fa8b"},"vehicle_type_id":"4","last_reported":1729102371,"current_range_meters":12000,"station_id":"ce4bgv92rcd13ifvqcr0","pricing_plan_id":"cebpf4jnsgd1na2vs0mg"},{"bike_id":"f99a9a84-b4ac-473d-8a30-8ad02c621161","system_id":"levelo_inurba_marseille","lat":43.27995,"lon":5.41661,"is_reserved":false,"is_disabled":false,"rental_uris":{"android":"levelo://app?vid=f99a9a84-b4ac-473d-8a30-8ad02c621161","ios":"levelo://app?vid=f99a9a84-b4ac-473d-8a30-8ad02c621161"},"vehicle_type_id":"4","last_reported":1729102371,"current_range_meters":30800,"station_id":"ce4bho12rcd13ifvqh1g","pricing_plan_id":"cebpf4jnsgd1na2vs0mg"},{"bike_id":"d9156856-c8f6-4e17-8f76-d692d3841093","system_id":"levelo_inurba_marseille","lat":43.2848,"lon":5.38547,"is_reserved":false,"is_disabled":false,"rental_uris":{"android":"levelo://app?vid=d9156856-c8f6-4e17-8f76-d692d3841093","ios":"levelo://app?vid=d9156856-c8f6-4e17-8f76-d692d3841093"},"vehicle_type_id":"4","last_reported":1729102371,"current_range_meters":33600,"station_id":"ce4bh8p2rcd13ifvqeb0","pricing_plan_id":"cebpf4jnsgd1na2vs0mg"},{"bike_id":"f955e8d3-f7e3-4770-863c-c5529a83c5b4","system_id":"levelo_inurba_marseille","lat":43.27176,"lon":5.40994,"is_reserved":false,"is_disabled":false,"rental_uris":{"android":"levelo://app?vid=f955e8d3-f7e3-4770-863c-c5529a83c5b4","ios":"levelo://app?vid=f955e8d3-f7e3-4770-863c-c5529a83c5b4"},"vehicle_type_id":"4","last_reported":1729102371,"current_range_meters":32400,"station_id":"ce4bhl12rcd13ifvqgf0","pricing_plan_id":"cebpf4jnsgd1na2vs0mg"},{"bike_id":"5408c090-da34-403e-ae72-f0f2aa9a7bf7","system_id":"levelo_inurba_marseille","lat":43.29274,"lon":5.36854,"is_reserved":false,"is_disabled":false,"rental_uris":{"android":"levelo://app?vid=5408c090-da34-403e-ae72-f0f2aa9a7bf7","ios":"levelo://app?vid=5408c090-da34-403e-ae72-f0f2aa9a7bf7"},"vehicle_type_id":"4","last_reported":1729102371,"current_range_meters":28400,"station_id":"ce4bhbp2rcd13ifvqesg","pricing_plan_id":"cebpf4jnsgd1na2vs0mg"},{"bike_id":"b46545d5-2f95-4119-aecb-905bcf4149ee","system_id":"levelo_inurba_marseille","lat":43.29277,"lon":5.36845,"is_reserved":false,"is_disabled":false,"rental_uris":{"android":"levelo://app?vid=b46545d5-2f95-4119-aecb-905bcf4149ee","ios":"levelo://app?vid=b46545d5-2f95-4119-aecb-905bcf4149ee"},"vehicle_type_id":"4","last_reported":1729102371,"current_range_meters":38800,"station_id":"ce4bhbp2rcd13ifvqesg","pricing_plan_id":"cebpf4jnsgd1na2vs0mg"},{"bike_id":"94d48054-be54-488d-a425-2deb433f452c","system_id":"levelo_inurba_marseille","lat":43.2981,"lon":5.36445,"is_reserved":false,"is_disabled":false,"rental_uris":{"android":"levelo://app?vid=94d48054-be54-488d-a425-2deb433f452c","ios":"levelo://app?vid=94d48054-be54-488d-a425-2deb433f452c"},"vehicle_type_id":"4","last_reported":1729102371,"current_range_meters":17600,"station_id":"ce4bgnh2rcd13ifvqc0g","pricing_plan_id":"cebpf4jnsgd1na2vs0mg"},{"bike_id":"41b21b63-b8dd-488b-b918-e20aa05670d7","system_id":"levelo_inurba_marseille","lat":43.2942,"lon":5.38607,"is_reserved":false,"is_disabled":false,"rental_uris":{"android":"levelo://app?vid=41b21b63-b8dd-488b-b918-e20aa05670d7","ios":"levelo://app?vid=41b21b63-b8dd-488b-b918-e20aa05670d7"},"vehicle_type_id":"4","last_reported":1729102371,"current_range_meters":10800,"station_id":"ce4bh2h2rcd13ifvqdh0","pricing_plan_id":"cebpf4jnsgd1na2vs0mg"},{"bike_id":"d4d4b79e-f27d-4985-9dc1-02a901bcc5be","system_id":"levelo_inurba_marseille","lat":43.26434,"lon":5.40581,"is_reserved":false,"is_disabled":false,"rental_uris":{"android":"levelo://app?vid=d4d4b79e-f27d-4985-9dc1-02a901bcc5be","ios":"levelo://app?vid=d4d4b79e-f27d-4985-9dc1-02a901bcc5be"},"vehicle_type_id":"4","last_reported":1729102371,"current_range_meters":15200,"station_id":"","pricing_plan_id":"cebpf4jnsgd1na2vs0mg"},{"bike_id":"70b096d8-6a93-4281-b2bb-f41f94d979fc","system_id":"levelo_inurba_marseille","lat":43.23189,"lon":5.3998,"is_reserved":false,"is_disabled":false,"rental_uris":{"android":"levelo://app?vid=70b096d8-6a93-4281-b2bb-f41f94d979fc","ios":"levelo://app?vid=70b096d8-6a93-4281-b2bb-f41f94d979fc"},"vehicle_type_id":"4","last_reported":1729102371,"current_range_meters":22800,"station_id":"ce4bhn12rcd13ifvqgqg","pricing_plan_id":"cebpf4jnsgd1na2vs0mg"},{"bike_id":"0b62f6e7-e8ee-4378-a793-9a9abaf93757","system_id":"levelo_inurba_marseille","lat":43.29417,"lon":5.38631,"is_reserved":false,"is_disabled":false,"rental_uris":{"android":"levelo://app?vid=0b62f6e7-e8ee-4378-a793-9a9abaf93757","ios":"levelo://app?vid=0b62f6e7-e8ee-4378-a793-9a9abaf93757"},"vehicle_type_id":"4","last_reported":1729102371,"current_range_meters":4000,"station_id":"ce4bh2h2rcd13ifvqdh0","pricing_plan_id":"cebpf4jnsgd1na2vs0mg"},{"bike_id":"edfd2cef-6044-40c9-8155-024a81bf94bb","system_id":"levelo_inurba_marseille","lat":43.30425,"lon":5.38884,"is_reserved":false,"is_disabled":false,"rental_uris":{"android":"levelo://app?vid=edfd2cef-6044-40c9-8155-024a81bf94bb","ios":"levelo://app?vid=edfd2cef-6044-40c9-8155-024a81bf94bb"},"vehicle_type_id":"4","last_reported":1729102371,"current_range_meters":10800,"station_id":"ce4bgk12rcd13ifvqbi0","pricing_plan_id":"cebpf4jnsgd1na2vs0mg"},{"bike_id":"56505b5b-6d5e-4288-8670-5e0c4766d23a","system_id":"levelo_inurba_marseille","lat":43.24668,"lon":5.38165,"is_reserved":false,"is_disabled":false,"rental_uris":{"android":"levelo://app?vid=56505b5b-6d5e-4288-8670-5e0c4766d23a","ios":"levelo://app?vid=56505b5b-6d5e-4288-8670-5e0c4766d23a"},"vehicle_type_id":"4","last_reported":1729102371,"current_range_meters":26800,"station_id":"ce4bhih2rcd13ifvqfr0","pricing_plan_id":"cebpf4jnsgd1na2vs0mg"},{"bike_id":"fdfc9c2a-1e91-4a53-8899-81e06f52ad31","system_id":"levelo_inurba_marseille","lat":43.25717,"lon":5.41115,"is_reserved":false,"is_disabled":false,"rental_uris":{"android":"levelo://app?vid=fdfc9c2a-1e91-4a53-8899-81e06f52ad31","ios":"levelo://app?vid=fdfc9c2a-1e91-4a53-8899-81e06f52ad31"},"vehicle_type_id":"4","last_reported":1729102371,"current_range_meters":32000,"station_id":"ce4bhkp2rcd13ifvqgd0","pricing_plan_id":"cebpf4jnsgd1na2vs0mg"},{"bike_id":"dce6d149-b5e0-4523-bbf6-d7a5d3370be8","system_id":"levelo_inurba_marseille","lat":43.24648,"lon":5.38889,"is_reserved":false,"is_disabled":false,"rental_uris":{"android":"levelo://app?vid=dce6d149-b5e0-4523-bbf6-d7a5d3370be8","ios":"levelo://app?vid=dce6d149-b5e0-4523-bbf6-d7a5d3370be8"},"vehicle_type_id":"4","last_reported":1729102371,"current_range_meters":38800,"station_id":"ce4bhg12rcd13ifvqf60","pricing_plan_id":"cebpf4jnsgd1na2vs0mg"},{"bike_id":"ab2324af-ae62-45fd-8356-4cea5d45cc7a","system_id":"levelo_inurba_marseille","lat":43.29532,"lon":5.38547,"is_reserved":false,"is_disabled":false,"rental_uris":{"android":"levelo://app?vid=ab2324af-ae62-45fd-8356-4cea5d45cc7a","ios":"levelo://app?vid=ab2324af-ae62-45fd-8356-4cea5d45cc7a"},"vehicle_type_id":"4","last_reported":1729102371,"current_range_meters":37600,"station_id":"ce4bgih2rcd13ifvqba0","pricing_plan_id":"cebpf4jnsgd1na2vs0mg"},{"bike_id":"c731be96-ba3e-4633-a108-81d0a9fb426b","system_id":"levelo_inurba_marseille","lat":43.24075,"lon":5.37753,"is_reserved":false,"is_disabled":false,"rental_uris":{"android":"levelo://app?vid=c731be96-ba3e-4633-a108-81d0a9fb426b","ios":"levelo://app?vid=c731be96-ba3e-4633-a108-81d0a9fb426b"},"vehicle_type_id":"4","last_reported":1729102371,"current_range_meters":20000,"station_id":"ce4bhnp2rcd13ifvqgvg","pricing_plan_id":"cebpf4jnsgd1na2vs0mg"},{"bike_id":"55a595f1-7514-425f-aa6a-5120b8f7508a","system_id":"levelo_inurba_marseille","lat":43.30547,"lon":5.38403,"is_reserved":false,"is_disabled":false,"rental_uris":{"android":"levelo://app?vid=55a595f1-7514-425f-aa6a-5120b8f7508a","ios":"levelo://app?vid=55a595f1-7514-425f-aa6a-5120b8f7508a"},"vehicle_type_id":"4","last_reported":1729102371,"current_range_meters":17600,"station_id":"ce4bgup2rcd13ifvqcn0","pricing_plan_id":"cebpf4jnsgd1na2vs0mg"},{"bike_id":"ce5a2a0a-ee0c-4c90-b4d0-3afe21fb3db6","system_id":"levelo_inurba_marseille","lat":43.30586,"lon":5.39351,"is_reserved":false,"is_disabled":false,"rental_uris":{"android":"levelo://app?vid=ce5a2a0a-ee0c-4c90-b4d0-3afe21fb3db6","ios":"levelo://app?vid=ce5a2a0a-ee0c-4c90-b4d0-3afe21fb3db6"},"vehicle_type_id":"4","last_reported":1729102371,"current_range_meters":12400,"station_id":"ce4bh0p2rcd13ifvqd80","pricing_plan_id":"cebpf4jnsgd1na2vs0mg"},{"bike_id":"87dd2cc2-1d11-421d-95f4-3d651b2ccff1","system_id":"levelo_inurba_marseille","lat":43.28519,"lon":5.39888,"is_reserved":false,"is_disabled":false,"rental_uris":{"android":"levelo://app?vid=87dd2cc2-1d11-421d-95f4-3d651b2ccff1","ios":"levelo://app?vid=87dd2cc2-1d11-421d-95f4-3d651b2ccff1"},"vehicle_type_id":"4","last_reported":1729102371,"current_range_meters":33600,"station_id":"ce4bh092rcd13ifvqd30","pricing_plan_id":"cebpf4jnsgd1na2vs0mg"},{"bike_id":"204c0939-f36e-43c0-9407-2e33f7e1e488","system_id":"levelo_inurba_marseille","lat":43.24667,"lon":5.38159,"is_reserved":false,"is_disabled":false,"rental_uris":{"android":"levelo://app?vid=204c0939-f36e-43c0-9407-2e33f7e1e488","ios":"levelo://app?vid=204c0939-f36e-43c0-9407-2e33f7e1e488"},"vehicle_type_id":"4","last_reported":1729102371,"current_range_meters":24000,"station_id":"ce4bhih2rcd13ifvqfr0","pricing_plan_id":"cebpf4jnsgd1na2vs0mg"},{"bike_id":"b27d2edc-4f4f-4426-9728-ba299c7f6b9e","system_id":"levelo_inurba_marseille","lat":43.30233,"lon":5.40084,"is_reserved":false,"is_disabled":false,"rental_uris":{"android":"levelo://app?vid=b27d2edc-4f4f-4426-9728-ba299c7f6b9e","ios":"levelo://app?vid=b27d2edc-4f4f-4426-9728-ba299c7f6b9e"},"vehicle_type_id":"4","last_reported":1729102371,"current_range_meters":38800,"station_id":"ce4bgvh2rcd13ifvqcs0","pricing_plan_id":"cebpf4jnsgd1na2vs0mg"},{"bike_id":"57ca859d-67e5-4861-9d85-30baaee1d9f1","system_id":"levelo_inurba_marseille","lat":43.30888,"lon":5.39635,"is_reserved":false,"is_disabled":false,"rental_uris":{"android":"levelo://app?vid=57ca859d-67e5-4861-9d85-30baaee1d9f1","ios":"levelo://app?vid=57ca859d-67e5-4861-9d85-30baaee1d9f1"},"vehicle_type_id":"4","last_reported":1729102371,"current_range_meters":39200,"station_id":"ce4bh012rcd13ifvqcv0","pricing_plan_id":"cebpf4jnsgd1na2vs0mg"},{"bike_id":"6ba54dd2-0572-4d30-8bed-0d6d9dd0c553","system_id":"levelo_inurba_marseille","lat":43.28271,"lon":5.35057,"is_reserved":false,"is_disabled":false,"rental_uris":{"android":"levelo://app?vid=6ba54dd2-0572-4d30-8bed-0d6d9dd0c553","ios":"levelo://app?vid=6ba54dd2-0572-4d30-8bed-0d6d9dd0c553"},"vehicle_type_id":"4","last_reported":1729102371,"current_range_meters":38800,"station_id":"ce4bhbp2rcd13ifvqerg","pricing_plan_id":"cebpf4jnsgd1na2vs0mg"},{"bike_id":"8da9e49c-e8a8-4c31-a00e-adce3abfb259","system_id":"levelo_inurba_marseille","lat":43.28856,"lon":5.35859,"is_reserved":false,"is_disabled":false,"rental_uris":{"android":"levelo://app?vid=8da9e49c-e8a8-4c31-a00e-adce3abfb259","ios":"levelo://app?vid=8da9e49c-e8a8-4c31-a00e-adce3abfb259"},"vehicle_type_id":"4","last_reported":1729102371,"current_range_meters":14000,"station_id":"ce4bhb12rcd13ifvqem0","pricing_plan_id":"cebpf4jnsgd1na2vs0mg"},{"bike_id":"1571cd37-48f6-41b6-8ec8-b6a1ab2f7bad","system_id":"levelo_inurba_marseille","lat":43.27814,"lon":5.39205,"is_reserved":false,"is_disabled":false,"rental_uris":{"android":"levelo://app?vid=1571cd37-48f6-41b6-8ec8-b6a1ab2f7bad","ios":"levelo://app?vid=1571cd37-48f6-41b6-8ec8-b6a1ab2f7bad"},"vehicle_type_id":"4","last_reported":1729102371,"current_range_meters":12800,"station_id":"ce4bhjp2rcd13ifvqga0","pricing_plan_id":"cebpf4jnsgd1na2vs0mg"},{"bike_id":"6465c183-f968-4f72-ac62-9c194476d3cb","system_id":"levelo_inurba_marseille","lat":43.23964,"lon":5.36635,"is_reserved":false,"is_disabled":false,"rental_uris":{"android":"levelo://app?vid=6465c183-f968-4f72-ac62-9c194476d3cb","ios":"levelo://app?vid=6465c183-f968-4f72-ac62-9c194476d3cb"},"vehicle_type_id":"4","last_reported":1729102371,"current_range_meters":18000,"station_id":"ce4bhi12rcd13ifvqfp0","pricing_plan_id":"cebpf4jnsgd1na2vs0mg"},{"bike_id":"c2f7d42c-aa04-4730-a414-1c5788b3dba9","system_id":"levelo_inurba_marseille","lat":43.3176,"lon":5.39014,"is_reserved":false,"is_disabled":false,"rental_uris":{"android":"levelo://app?vid=c2f7d42c-aa04-4730-a414-1c5788b3dba9","ios":"levelo://app?vid=c2f7d42c-aa04-4730-a414-1c5788b3dba9"},"vehicle_type_id":"4","last_reported":1729102371,"current_range_meters":29600,"station_id":"ce4bhqp2rcd13ifvqhng","pricing_plan_id":"cebpf4jnsgd1na2vs0mg"},{"bike_id":"cc8a2cd5-5e7b-4740-82b3-c55a50be8608","system_id":"levelo_inurba_marseille","lat":43.27578,"lon":5.3841,"is_reserved":false,"is_disabled":false,"rental_uris":{"android":"levelo://app?vid=cc8a2cd5-5e7b-4740-82b3-c55a50be8608","ios":"levelo://app?vid=cc8a2cd5-5e7b-4740-82b3-c55a50be8608"},"vehicle_type_id":"4","last_reported":1729102371,"current_range_meters":32800,"station_id":"ce4bhh92rcd13ifvqfi0","pricing_plan_id":"cebpf4jnsgd1na2vs0mg"},{"bike_id":"ba3038ba-ceaf-4357-80a9-41e88b760c18","system_id":"levelo_inurba_marseille","lat":43.29529,"lon":5.38539,"is_reserved":false,"is_disabled":false,"rental_uris":{"android":"levelo://app?vid=ba3038ba-ceaf-4357-80a9-41e88b760c18","ios":"levelo://app?vid=ba3038ba-ceaf-4357-80a9-41e88b760c18"},"vehicle_type_id":"4","last_reported":1729102371,"current_range_meters":38400,"station_id":"ce4bgih2rcd13ifvqba0","pricing_plan_id":"cebpf4jnsgd1na2vs0mg"},{"bike_id":"2b74ceba-3227-4b20-ad4f-4ff9496c872b","system_id":"levelo_inurba_marseille","lat":43.24079,"lon":5.37754,"is_reserved":false,"is_disabled":false,"rental_uris":{"android":"levelo://app?vid=2b74ceba-3227-4b20-ad4f-4ff9496c872b","ios":"levelo://app?vid=2b74ceba-3227-4b20-ad4f-4ff9496c872b"},"vehicle_type_id":"4","last_reported":1729102371,"current_range_meters":32400,"station_id":"ce4bhnp2rcd13ifvqgvg","pricing_plan_id":"cebpf4jnsgd1na2vs0mg"},{"bike_id":"1d811f08-e760-4c8b-811f-04cb7a2bd960","system_id":"levelo_inurba_marseille","lat":43.2925,"lon":5.40898,"is_reserved":false,"is_disabled":false,"rental_uris":{"android":"levelo://app?vid=1d811f08-e760-4c8b-811f-04cb7a2bd960","ios":"levelo://app?vid=1d811f08-e760-4c8b-811f-04cb7a2bd960"},"vehicle_type_id":"4","last_reported":1729102371,"current_range_meters":18800,"station_id":"ce4bh192rcd13ifvqdc0","pricing_plan_id":"cebpf4jnsgd1na2vs0mg"},{"bike_id":"b7195512-7e80-477a-bb1d-1adb52d5878e","system_id":"levelo_inurba_marseille","lat":43.28258,"lon":5.35073,"is_reserved":false,"is_disabled":false,"rental_uris":{"android":"levelo://app?vid=b7195512-7e80-477a-bb1d-1adb52d5878e","ios":"levelo://app?vid=b7195512-7e80-477a-bb1d-1adb52d5878e"},"vehicle_type_id":"4","last_reported":1729102371,"current_range_meters":39200,"station_id":"ce4bhbp2rcd13ifvqerg","pricing_plan_id":"cebpf4jnsgd1na2vs0mg"},{"bike_id":"5619bc80-f911-46e1-aa38-363a67dd8797","system_id":"levelo_inurba_marseille","lat":43.26805,"lon":5.40273,"is_reserved":false,"is_disabled":false,"rental_uris":{"android":"levelo://app?vid=5619bc80-f911-46e1-aa38-363a67dd8797","ios":"levelo://app?vid=5619bc80-f911-46e1-aa38-363a67dd8797"},"vehicle_type_id":"4","last_reported":1729102371,"current_range_meters":7200,"station_id":"ce501612rcd8frsf0b60","pricing_plan_id":"cebpf4jnsgd1na2vs0mg"},{"bike_id":"a1e0278e-920e-4eea-a381-891331e8e403","system_id":"levelo_inurba_marseille","lat":43.23195,"lon":5.35546,"is_reserved":false,"is_disabled":false,"rental_uris":{"android":"levelo://app?vid=a1e0278e-920e-4eea-a381-891331e8e403","ios":"levelo://app?vid=a1e0278e-920e-4eea-a381-891331e8e403"},"vehicle_type_id":"4","last_reported":1729102371,"current_range_meters":36400,"station_id":"ce4bhu92rcd13ifvqi70","pricing_plan_id":"cebpf4jnsgd1na2vs0mg"},{"bike_id":"8f659732-f4fc-4ca8-b0cd-f752582da82c","system_id":"levelo_inurba_marseille","lat":43.26062,"lon":5.39396,"is_reserved":false,"is_disabled":false,"rental_uris":{"android":"levelo://app?vid=8f659732-f4fc-4ca8-b0cd-f752582da82c","ios":"levelo://app?vid=8f659732-f4fc-4ca8-b0cd-f752582da82c"},"vehicle_type_id":"4","last_reported":1729102371,"current_range_meters":21600,"station_id":"ce4bhh92rcd13ifvqfj0","pricing_plan_id":"cebpf4jnsgd1na2vs0mg"},{"bike_id":"f51440bf-31b5-4864-a181-0970e228699f","system_id":"levelo_inurba_marseille","lat":43.306,"lon":5.39367,"is_reserved":false,"is_disabled":false,"rental_uris":{"android":"levelo://app?vid=f51440bf-31b5-4864-a181-0970e228699f","ios":"levelo://app?vid=f51440bf-31b5-4864-a181-0970e228699f"},"vehicle_type_id":"4","last_reported":1729102371,"current_range_meters":34000,"station_id":"ce4bh0p2rcd13ifvqd80","pricing_plan_id":"cebpf4jnsgd1na2vs0mg"},{"bike_id":"8e62d8c5-5c3e-4b4f-a1d0-b2a096b4d258","system_id":"levelo_inurba_marseille","lat":43.32289,"lon":5.38279,"is_reserved":false,"is_disabled":false,"rental_uris":{"android":"levelo://app?vid=8e62d8c5-5c3e-4b4f-a1d0-b2a096b4d258","ios":"levelo://app?vid=8e62d8c5-5c3e-4b4f-a1d0-b2a096b4d258"},"vehicle_type_id":"4","last_reported":1729102371,"current_range_meters":38400,"station_id":"ce4bhr12rcd13ifvqhqg","pricing_plan_id":"cebpf4jnsgd1na2vs0mg"},{"bike_id":"05fcdc75-87a5-4393-8902-e432d817deaf","system_id":"levelo_inurba_marseille","lat":43.32366,"lon":5.38888,"is_reserved":false,"is_disabled":false,"rental_uris":{"android":"levelo://app?vid=05fcdc75-87a5-4393-8902-e432d817deaf","ios":"levelo://app?vid=05fcdc75-87a5-4393-8902-e432d817deaf"},"vehicle_type_id":"4","last_reported":1729102371,"current_range_meters":15200,"station_id":"ce4bhqp2rcd13ifvqhog","pricing_plan_id":"cebpf4jnsgd1na2vs0mg"},{"bike_id":"f823cd19-6d65-4c29-b02d-ff10b3d62326","system_id":"levelo_inurba_marseille","lat":43.24671,"lon":5.38161,"is_reserved":false,"is_disabled":false,"rental_uris":{"android":"levelo://app?vid=f823cd19-6d65-4c29-b02d-ff10b3d62326","ios":"levelo://app?vid=f823cd19-6d65-4c29-b02d-ff10b3d62326"},"vehicle_type_id":"4","last_reported":1729102371,"current_range_meters":12000,"station_id":"ce4bhih2rcd13ifvqfr0","pricing_plan_id":"cebpf4jnsgd1na2vs0mg"},{"bike_id":"aa93ae9d-e68b-4a05-b7e2-daeabc87ed1e","system_id":"levelo_inurba_marseille","lat":43.23194,"lon":5.35552,"is_reserved":false,"is_disabled":false,"rental_uris":{"android":"levelo://app?vid=aa93ae9d-e68b-4a05-b7e2-daeabc87ed1e","ios":"levelo://app?vid=aa93ae9d-e68b-4a05-b7e2-daeabc87ed1e"},"vehicle_type_id":"4","last_reported":1729102371,"current_range_meters":33200,"station_id":"ce4bhu92rcd13ifvqi70","pricing_plan_id":"cebpf4jnsgd1na2vs0mg"},{"bike_id":"d2715742-ae4a-4a0a-82c3-867c13a9ebfa","system_id":"levelo_inurba_marseille","lat":43.25728,"lon":5.41111,"is_reserved":false,"is_disabled":false,"rental_uris":{"android":"levelo://app?vid=d2715742-ae4a-4a0a-82c3-867c13a9ebfa","ios":"levelo://app?vid=d2715742-ae4a-4a0a-82c3-867c13a9ebfa"},"vehicle_type_id":"4","last_reported":1729102371,"current_range_meters":25600,"station_id":"ce4bhkp2rcd13ifvqgd0","pricing_plan_id":"cebpf4jnsgd1na2vs0mg"},{"bike_id":"9bfadba6-7711-4af9-9290-f69bcce4a77f","system_id":"levelo_inurba_marseille","lat":43.29249,"lon":5.40909,"is_reserved":false,"is_disabled":false,"rental_uris":{"android":"levelo://app?vid=9bfadba6-7711-4af9-9290-f69bcce4a77f","ios":"levelo://app?vid=9bfadba6-7711-4af9-9290-f69bcce4a77f"},"vehicle_type_id":"4","last_reported":1729102371,"current_range_meters":5600,"station_id":"ce4bh192rcd13ifvqdc0","pricing_plan_id":"cebpf4jnsgd1na2vs0mg"},{"bike_id":"45c1f865-5acf-457d-b820-59564426be21","system_id":"levelo_inurba_marseille","lat":43.23066,"lon":5.35494,"is_reserved":false,"is_disabled":false,"rental_uris":{"android":"levelo://app?vid=45c1f865-5acf-457d-b820-59564426be21","ios":"levelo://app?vid=45c1f865-5acf-457d-b820-59564426be21"},"vehicle_type_id":"4","last_reported":1729102371,"current_range_meters":10000,"station_id":"cpo3342slgdg3j2ifvpg","pricing_plan_id":"cebpf4jnsgd1na2vs0mg"},