{"last_updated":1692216432,"ttl":30,"version":"2.2","data":{"bikes":[{"bike_id":"e2c856af-4737-4926-8bbf-940eac69259d","system_id":"levelo_inurba_marseille","lat":43.31341,"lon":5.367098,"is_reserved":false,"is_disabled":false,"rental_uris":{"android":"levelo://app?vid=e2c856af-4737-4926-8bbf-940eac69259d","ios":"levelo://app?vid=e2c856af-4737-4926-8bbf-940eac69259d"},"vehicle_type_id":"4","last_reported":1692216432,"current_range_meters":0,"station_id":"ce4bgr92rcd13ifvqc6g","pricing_plan_id":"free"},{"bike_id":"4abda2c6-8172-447b-980f-0a6ec16212d4","system_id":"levelo_inurba_marseille","lat":43.31341,"lon":5.367098,"is_reserved":false,"is_disabled":false,"rental_uris":{"android":"levelo://app?vid=4abda2c6-8172-447b-980f-0a6ec16212d4","ios":"levelo://app?vid=4abda2c6-8172-447b-980f-0a6ec16212d4"},"vehicle_type_id":"4","last_reported":1692216432,"current_range_meters":20800,"station_id":"ce4bgr92rcd13ifvqc6g","pricing_plan_id":"free"},{"bike_id":"706c2c85-a4e5-4c8d-bddf-84119dfd4f87","system_id":"levelo_inurba_marseille","lat":43.31226,"lon":5.36838,"is_reserved":false,"is_disabled":false,"rental_uris":{"android":"levelo://app?vid=706c2c85-a4e5-4c8d-bddf-84119dfd4f87","ios":"levelo://app?vid=706c2c85-a4e5-4c8d-bddf-84119dfd4f87"},"vehicle_type_id":"4","last_reported":1692216432,"current_range_meters":20000,"station_id":"ce4bgl92rcd13ifvqbq0","pricing_plan_id":"free"},{"bike_id":"d583e0f6-c0ce-419d-976b-51df3c9b66e6","system_id":"levelo_inurba_marseille","lat":43.312255,"lon":5.368503,"is_reserved":false,"is_disabled":false,"rental_uris":{"android":"levelo://app?vid=d583e0f6-c0ce-419d-976b-51df3c9b66e6","ios":"levelo://app?vid=d583e0f6-c0ce-419d-976b-51df3c9b66e6"},"vehicle_type_id":"4","last_reported":1692216432,"current_range_meters":9600,"station_id":"ce4bgl92rcd13ifvqbq0","pricing_plan_id":"free"},{"bike_id":"60cb6d62-5576-4fa0-bd84-046f96ec960e","system_id":"levelo_inurba_marseille","lat":43.31223,"lon":5.36861,"is_reserved":false,"is_disabled":false,"rental_uris":{"android":"levelo://app?vid=60cb6d62-5576-4fa0-bd84-046f96ec960e","ios":"levelo://app?vid=60cb6d62-5576-4fa0-bd84-046f96ec960e"},"vehicle_type_id":"4","last_reported":1692216432,"current_range_meters":20800,"station_id":"ce4bgl92rcd13ifvqbq0","pricing_plan_id":"free"},{"bike_id":"33639803-52a7-477b-8f1f-048db3801b66","system_id":"levelo_inurba_marseille","lat":43.309076,"lon":5.368465,"is_reserved":false,"is_disabled":false,"rental_uris":{"android":"levelo://app?vid=33639803-52a7-477b-8f1f-048db3801b66","ios":"levelo://app?vid=33639803-52a7-477b-8f1f-048db3801b66"},"vehicle_type_id":"4","last_reported":1692216432,"current_range_meters":12000,"station_id":"ce4bgn92rcd13ifvqbvg","pricing_plan_id":"free"},{"bike_id":"0de95b05-640f-4570-8393-9eb7ff5bd77c","system_id":"levelo_inurba_marseille","lat":43.30915,"lon":5.36845,"is_reserved":false,"is_disabled":false,"rental_uris":{"android":"levelo://app?vid=0de95b05-640f-4570-8393-9eb7ff5bd77c","ios":"levelo://app?vid=0de95b05-640f-4570-8393-9eb7ff5bd77c"},"vehicle_type_id":"4","last_reported":1692216432,"current_range_meters":24400,"station_id":"","pricing_plan_id":"free"},{"bike_id":"306a3d96-2233-4ccc-83c4-c870c4a02711","system_id":"levelo_inurba_marseille","lat":43.309076,"lon":5.368465,"is_reserved":false,"is_disabled":false,"rental_uris":{"android":"levelo://app?vid=306a3d96-2233-4ccc-83c4-c870c4a02711","ios":"levelo://app?vid=306a3d96-2233-4ccc-83c4-c870c4a02711"},"vehicle_type_id":"4","last_reported":1692216432,"current_range_meters":4400,"station_id":"ce4bgn92rcd13ifvqbvg","pricing_plan_id":"free"},{"bike_id":"398772c8-d2a7-4a5c-9893-ef5f7aaa719a","system_id":"levelo_inurba_marseille","lat":43.314811,"lon":5.373103,"is_reserved":false,"is_disabled":false,"rental_uris":{"android":"levelo://app?vid=398772c8-d2a7-4a5c-9893-ef5f7aaa719a","ios":"levelo://app?vid=398772c8-d2a7-4a5c-9893-ef5f7aaa719a"},"vehicle_type_id":"4","last_reported":1692216432,"current_range_meters":1600,"station_id":"ce4bgt12rcd13ifvqcd0","pricing_plan_id":"free"},{"bike_id":"969df578-38ac-4002-a3cd-2aa44dde506d","system_id":"levelo_inurba_marseille","lat":43.31491,"lon":5.37303,"is_reserved":false,"is_disabled":false,"rental_uris":{"android":"levelo://app?vid=969df578-38ac-4002-a3cd-2aa44dde506d","ios":"levelo://app?vid=969df578-38ac-4002-a3cd-2aa44dde506d"},"vehicle_type_id":"4","last_reported":1692216432,"current_range_meters":8800,"station_id":"ce4bgt12rcd13ifvqcd0","pricing_plan_id":"free"},{"bike_id":"a5389add-c650-4724-a1b8-7b708e9a156c","system_id":"levelo_inurba_marseille","lat":43.31493,"lon":5.37306,"is_reserved":false,"is_disabled":false,"rental_uris":{"android":"levelo://app?vid=a5389add-c650-4724-a1b8-7b708e9a156c","ios":"levelo://app?vid=a5389add-c650-4724-a1b8-7b708e9a156c"},"vehicle_type_id":"4","last_reported":1692216432,"current_range_meters":6000,"station_id":"ce4bgt12rcd13ifvqcd0","pricing_plan_id":"free"},{"bike_id":"59edc80c-c19a-4eb1-a5f6-cc006069040b","system_id":"levelo_inurba_marseille","lat":43.314811,"lon":5.373103,"is_reserved":false,"is_disabled":false,"rental_uris":{"android":"levelo://app?vid=59edc80c-c19a-4eb1-a5f6-cc006069040b","ios":"levelo://app?vid=59edc80c-c19a-4eb1-a5f6-cc006069040b"},"vehicle_type_id":"4","last_reported":1692216432,"current_range_meters":14000,"station_id":"ce4bgt12rcd13ifvqcd0","pricing_plan_id":"free"},{"bike_id":"875221b7-c1a1-4c6f-81b1-169a43c3c555","system_id":"levelo_inurba_marseille","lat":43.314811,"lon":5.373104,"is_reserved":false,"is_disabled":false,"rental_uris":{"android":"levelo://app?vid=875221b7-c1a1-4c6f-81b1-169a43c3c555","ios":"levelo://app?vid=875221b7-c1a1-4c6f-81b1-169a43c3c555"},"vehicle_type_id":"4","last_reported":1692216432,"current_range_meters":3600,"station_id":"ce4bgt12rcd13ifvqcd0","pricing_plan_id":"free"},{"bike_id":"aac3796d-c989-42ed-b49c-a8b2eb24851e","system_id":"levelo_inurba_marseille","lat":43.309039,"lon":5.371797,"is_reserved":false,"is_disabled":false,"rental_uris":{"android":"levelo://app?vid=aac3796d-c989-42ed-b49c-a8b2eb24851e","ios":"levelo://app?vid=aac3796d-c989-42ed-b49c-a8b2eb24851e"},"vehicle_type_id":"4","last_reported":1692216432,"current_range_meters":5200,"station_id":"ce4bguh2rcd13ifvqckg","pricing_plan_id":"free"},{"bike_id":"a2565d1c-039e-470f-81e8-82bf1d97181f","system_id":"levelo_inurba_marseille","lat":43.3054,"lon":5.36558,"is_reserved":false,"is_disabled":false,"rental_uris":{"android":"levelo://app?vid=a2565d1c-039e-470f-81e8-82bf1d97181f","ios":"levelo://app?vid=a2565d1c-039e-470f-81e8-82bf1d97181f"},"vehicle_type_id":"4","last_reported":1692216432,"current_range_meters":26400,"station_id":"ce4bgs12rcd13ifvqcag","pricing_plan_id":"free"},{"bike_id":"9fbe6e18-d192-44c2-98b5-cafb68b41aa4","system_id":"levelo_inurba_marseille","lat":43.30535,"lon":5.36542,"is_reserved":false,"is_disabled":false,"rental_uris":{"android":"levelo://app?vid=9fbe6e18-d192-44c2-98b5-cafb68b41aa4","ios":"levelo://app?vid=9fbe6e18-d192-44c2-98b5-cafb68b41aa4"},"vehicle_type_id":"4","last_reported":1692216432,"current_range_meters":24000,"station_id":"ce4bgs12rcd13ifvqcag","pricing_plan_id":"free"},{"bike_id":"386ed8e3-b71e-4f68-86af-202c5b76503e","system_id":"levelo_inurba_marseille","lat":43.305989,"lon":5.37225,"is_reserved":false,"is_disabled":false,"rental_uris":{"android":"levelo://app?vid=386ed8e3-b71e-4f68-86af-202c5b76503e","ios":"levelo://app?vid=386ed8e3-b71e-4f68-86af-202c5b76503e"},"vehicle_type_id":"4","last_reported":1692216432,"current_range_meters":31200,"station_id":"ce4bgqh2rcd13ifvqc4g","pricing_plan_id":"free"},{"bike_id":"50bd8fad-483a-40cc-8751-d16b187df853","system_id":"levelo_inurba_marseille","lat":43.31125,"lon":5.3776,"is_reserved":false,"is_disabled":false,"rental_uris":{"android":"levelo://app?vid=50bd8fad-483a-40cc-8751-d16b187df853","ios":"levelo://app?vid=50bd8fad-483a-40cc-8751-d16b187df853"},"vehicle_type_id":"4","last_reported":1692216432,"current_range_meters":24400,"station_id":"ce4bgt92rcd13ifvqcg0","pricing_plan_id":"free"},{"bike_id":"ea186b4e-78a2-4d36-a40f-952cffc39169","system_id":"levelo_inurba_marseille","lat":43.317075,"lon":5.377367,"is_reserved":false,"is_disabled":false,"rental_uris":{"android":"levelo://app?vid=ea186b4e-78a2-4d36-a40f-952cffc39169","ios":"levelo://app?vid=ea186b4e-78a2-4d36-a40f-952cffc39169"},"vehicle_type_id":"4","last_reported":1692216432,"current_range_meters":29200,"station_id":"ce4bgth2rcd13ifvqch0","pricing_plan_id":"free"},{"bike_id":"92be00df-8df7-4b91-b678-616ccf916c98","system_id":"levelo_inurba_marseille","lat":43.31686,"lon":5.37774,"is_reserved":false,"is_disabled":false,"rental_uris":{"android":"levelo://app?vid=92be00df-8df7-4b91-b678-616ccf916c98","ios":"levelo://app?vid=92be00df-8df7-4b91-b678-616ccf916c98"},"vehicle_type_id":"4","last_reported":1692216432,"current_range_meters":25200,"station_id":"ce4bgth2rcd13ifvqch0","pricing_plan_id":"free"},{"bike_id":"25559cf7-fd16-49d7-9379-469f1a9ff38e","system_id":"levelo_inurba_marseille","lat":43.31653,"lon":5.37808,"is_reserved":false,"is_disabled":false,"rental_uris":{"android":"levelo://app?vid=25559cf7-fd16-49d7-9379-469f1a9ff38e","ios":"levelo://app?vid=25559cf7-fd16-49d7-9379-469f1a9ff38e"},"vehicle_type_id":"4","last_reported":1692216432,"current_range_meters":19200,"station_id":"","pricing_plan_id":"free"},{"bike_id":"8c087e2a-721b-480d-ac27-cdb39a2ef5fc","system_id":"levelo_inurba_marseille","lat":43.305994,"lon":5.393687,"is_reserved":false,"is_disabled":false,"rental_uris":{"android":"levelo://app?vid=8c087e2a-721b-480d-ac27-cdb39a2ef5fc","ios":"levelo://app?vid=8c087e2a-721b-480d-ac27-cdb39a2ef5fc"},"vehicle_type_id":"4","last_reported":1692216432,"current_range_meters":24400,"station_id":"ce4bh0p2rcd13ifvqd80","pricing_plan_id":"free"},{"bike_id":"617413ef-ab10-4c2d-a076-92afed795a04","system_id":"levelo_inurba_marseille","lat":43.31168,"lon":5.38007,"is_reserved":false,"is_disabled":false,"rental_uris":{"android":"levelo://app?vid=617413ef-ab10-4c2d-a076-92afed795a04","ios":"levelo://app?vid=617413ef-ab10-4c2d-a076-92afed795a04"},"vehicle_type_id":"4","last_reported":1692216432,"current_range_meters":22400,"station_id":"","pricing_plan_id":"free"},{"bike_id":"2e977bf2-6881-4f27-9683-57a37e954f17","system_id":"levelo_inurba_marseille","lat":43.315289,"lon":5.380349,"is_reserved":false,"is_disabled":false,"rental_uris":{"android":"levelo://app?vid=2e977bf2-6881-4f27-9683-57a37e954f17","ios":"levelo://app?vid=2e977bf2-6881-4f27-9683-57a37e954f17"},"vehicle_type_id":"4","last_reported":1692216432,"current_range_meters":6400,"station_id":"ce4bhsp2rcd13ifvqi50","pricing_plan_id":"free"},{"bike_id":"df15a2b6-7a09-4269-bcf4-be1d2e0334b4","system_id":"levelo_inurba_marseille","lat":43.3153,"lon":5.38022,"is_reserved":false,"is_disabled":false,"rental_uris":{"android":"levelo://app?vid=df15a2b6-7a09-4269-bcf4-be1d2e0334b4","ios":"levelo://app?vid=df15a2b6-7a09-4269-bcf4-be1d2e0334b4"},"vehicle_type_id":"4","last_reported":1692216432,"current_range_meters":22400,"station_id":"ce4bhsp2rcd13ifvqi50","pricing_plan_id":"free"},{"bike_id":"3f1c898e-5ac1-4542-825e-f4bbc1fd65ae","system_id":"levelo_inurba_marseille","lat":43.31528,"lon":5.38026,"is_reserved":false,"is_disabled":false,"rental_uris":{"android":"levelo://app?vid=3f1c898e-5ac1-4542-825e-f4bbc1fd65ae","ios":"levelo://app?vid=3f1c898e-5ac1-4542-825e-f4bbc1fd65ae"},"vehicle_type_id":"4","last_reported":1692216432,"current_range_meters":14800,"station_id":"ce4bhsp2rcd13ifvqi50","pricing_plan_id":"free"},{"bike_id":"013ac538-3027-44e4-85bc-feaa50d849f1","system_id":"levelo_inurba_marseille","lat":43.301939,"lon":5.366286,"is_reserved":false,"is_disabled":false,"rental_uris":{"android":"levelo://app?vid=013ac538-3027-44e4-85bc-feaa50d849f1","ios":"levelo://app?vid=013ac538-3027-44e4-85bc-feaa50d849f1"},"vehicle_type_id":"4","last_reported":1692216432,"current_range_meters":14400,"station_id":"ce4bgrh2rcd13ifvqc8g","pricing_plan_id":"free"},{"bike_id":"55301dcc-09af-49c6-8eb0-6cbd38bf4d5d","system_id":"levelo_inurba_marseille","lat":43.301939,"lon":5.366286,"is_reserved":false,"is_disabled":false,"rental_uris":{"android":"levelo://app?vid=55301dcc-09af-49c6-8eb0-6cbd38bf4d5d","ios":"levelo://app?vid=55301dcc-09af-49c6-8eb0-6cbd38bf4d5d"},"vehicle_type_id":"4","last_reported":1692216432,"current_range_meters":12000,"station_id":"ce4bgrh2rcd13ifvqc8g","pricing_plan_id":"free"},{"bike_id":"dbd29273-7d38-42d6-83b1-6f60a00931fb","system_id":"levelo_inurba_marseille","lat":43.30804,"lon":5.38145,"is_reserved":false,"is_disabled":false,"rental_uris":{"android":"levelo://app?vid=dbd29273-7d38-42d6-83b1-6f60a00931fb","ios":"levelo://app?vid=dbd29273-7d38-42d6-83b1-6f60a00931fb"},"vehicle_type_id":"4","last_reported":1692216432,"current_range_meters":2800,"station_id":"ce4bgt12rcd13ifvqce0","pricing_plan_id":"free"},{"bike_id":"242b58dc-2f58-434b-8ad0-3444105d3d8f","system_id":"levelo_inurba_marseille","lat":43.308012,"lon":5.381511,"is_reserved":false,"is_disabled":false,"rental_uris":{"android":"levelo://app?vid=242b58dc-2f58-434b-8ad0-3444105d3d8f","ios":"levelo://app?vid=242b58dc-2f58-434b-8ad0-3444105d3d8f"},"vehicle_type_id":"4","last_reported":1692216432,"current_range_meters":19200,"station_id":"ce4bgt12rcd13ifvqce0","pricing_plan_id":"free"},{"bike_id":"b328d323-4e49-4e11-8d47-6f47f1998c64","system_id":"levelo_inurba_marseille","lat":43.319935,"lon":5.381699,"is_reserved":false,"is_disabled":false,"rental_uris":{"android":"levelo://app?vid=b328d323-4e49-4e11-8d47-6f47f1998c64","ios":"levelo://app?vid=b328d323-4e49-4e11-8d47-6f47f1998c64"},"vehicle_type_id":"4","last_reported":1692216432,"current_range_meters":30000,"station_id":"ce4bhr12rcd13ifvqhpg","pricing_plan_id":"free"},{"bike_id":"4a1b676a-3010-4971-bfd9-8fd08a0c1840","system_id":"levelo_inurba_marseille","lat":43.31998,"lon":5.38167,"is_reserved":false,"is_disabled":false,"rental_uris":{"android":"levelo://app?vid=4a1b676a-3010-4971-bfd9-8fd08a0c1840","ios":"levelo://app?vid=4a1b676a-3010-4971-bfd9-8fd08a0c1840"},"vehicle_type_id":"4","last_reported":1692216432,"current_range_meters":16800,"station_id":"ce4bhr12rcd13ifvqhpg","pricing_plan_id":"free"},{"bike_id":"94779354-2b94-4f65-9843-a4fcbdbb0afd","system_id":"levelo_inurba_marseille","lat":43.31996,"lon":5.3817,"is_reserved":false,"is_disabled":false,"rental_uris":{"android":"levelo://app?vid=94779354-2b94-4f65-9843-a4fcbdbb0afd","ios":"levelo://app?vid=94779354-2b94-4f65-9843-a4fcbdbb0afd"},"vehicle_type_id":"4","last_reported":1692216432,"current_range_meters":28800,"station_id":"ce4bhr12rcd13ifvqhpg","pricing_plan_id":"free"},{"bike_id":"162380a7-4cb5-4d64-a080-2fe01e97ea23","system_id":"levelo_inurba_marseille","lat":43.32005,"lon":5.3817,"is_reserved":false,"is_disabled":false,"rental_uris":{"android":"levelo://app?vid=162380a7-4cb5-4d64-a080-2fe01e97ea23","ios":"levelo://app?vid=162380a7-4cb5-4d64-a080-2fe01e97ea23"},"vehicle_type_id":"4","last_reported":1692216432,"current_range_meters":28800,"station_id":"ce4bhr12rcd13ifvqhpg","pricing_plan_id":"free"},{"bike_id":"970ff2ff-8604-4540-a4d4-5cb61262113e","system_id":"levelo_inurba_marseille","lat":43.313571,"lon":5.384829,"is_reserved":false,"is_disabled":false,"rental_uris":{"android":"levelo://app?vid=970ff2ff-8604-4540-a4d4-5cb61262113e","ios":"levelo://app?vid=970ff2ff-8604-4540-a4d4-5cb61262113e"},"vehicle_type_id":"4","last_reported":1692216432,"current_range_meters":17200,"station_id":"ce4bgt92rcd13ifvqcf0","pricing_plan_id":"free"},{"bike_id":"02a692d2-e556-4211-8f4f-b9a275e51f6e","system_id":"levelo_inurba_marseille","lat":43.31369,"lon":5.38492,"is_reserved":false,"is_disabled":false,"rental_uris":{"android":"levelo://app?vid=02a692d2-e556-4211-8f4f-b9a275e51f6e","ios":"levelo://app?vid=02a692d2-e556-4211-8f4f-b9a275e51f6e"},"vehicle_type_id":"4","last_reported":1692216432,"current_range_meters":12800,"station_id":"ce4bgt92rcd13ifvqcf0","pricing_plan_id":"free"},{"bike_id":"547864aa-995e-4752-bfce-2db986213746","system_id":"levelo_inurba_marseille","lat":43.3137,"lon":5.38498,"is_reserved":false,"is_disabled":false,"rental_uris":{"android":"levelo://app?vid=547864aa-995e-4752-bfce-2db986213746","ios":"levelo://app?vid=547864aa-995e-4752-bfce-2db986213746"},"vehicle_type_id":"4","last_reported":1692216432,"current_range_meters":28000,"station_id":"ce4bgt92rcd13ifvqcf0","pricing_plan_id":"free"},{"bike_id":"75c7dedb-d281-45b4-aaa1-6057919c223b","system_id":"levelo_inurba_marseille","lat":43.29934,"lon":5.36538,"is_reserved":false,"is_disabled":false,"rental_uris":{"android":"levelo://app?vid=75c7dedb-d281-45b4-aaa1-6057919c223b","ios":"levelo://app?vid=75c7dedb-d281-45b4-aaa1-6057919c223b"},"vehicle_type_id":"4","last_reported":1692216432,"current_range_meters":19600,"station_id":"ce4bgm92rcd13ifvqbr0","pricing_plan_id":"free"},{"bike_id":"8363c1ee-690b-4ca8-8831-1854c239627f","system_id":"levelo_inurba_marseille","lat":43.299209,"lon":5.365547,"is_reserved":false,"is_disabled":false,"rental_uris":{"android":"levelo://app?vid=8363c1ee-690b-4ca8-8831-1854c239627f","ios":"levelo://app?vid=8363c1ee-690b-4ca8-8831-1854c239627f"},"vehicle_type_id":"4","last_reported":1692216432,"current_range_meters":31200,"station_id":"ce4bgm92rcd13ifvqbr0","pricing_plan_id":"free"},{"bike_id":"aa09a4d0-3e76-4ae7-b697-2d846288d0e1","system_id":"levelo_inurba_marseille","lat":43.298433,"lon":5.362774,"is_reserved":false,"is_disabled":false,"rental_uris":{"android":"levelo://app?vid=aa09a4d0-3e76-4ae7-b697-2d846288d0e1","ios":"levelo://app?vid=aa09a4d0-3e76-4ae7-b697-2d846288d0e1"},"vehicle_type_id":"4","last_reported":1692216432,"current_range_meters":21200,"station_id":"ce4bgpp2rcd13ifvqc3g","pricing_plan_id":"free"},{"bike_id":"6aaad6fc-c55e-45be-a7d5-624aece6eb20","system_id":"levelo_inurba_marseille","lat":43.30545,"lon":5.384169,"is_reserved":false,"is_disabled":false,"rental_uris":{"android":"levelo://app?vid=6aaad6fc-c55e-45be-a7d5-624aece6eb20","ios":"levelo://app?vid=6aaad6fc-c55e-45be-a7d5-624aece6eb20"},"vehicle_type_id":"4","last_reported":1692216432,"current_range_meters":6000,"station_id":"ce4bgg92rcd13ifvqb30","pricing_plan_id":"free"},{"bike_id":"72b8c855-2348-425a-9ab4-8c535d2a8651","system_id":"levelo_inurba_marseille","lat":43.30546,"lon":5.38424,"is_reserved":false,"is_disabled":false,"rental_uris":{"android":"levelo://app?vid=72b8c855-2348-425a-9ab4-8c535d2a8651","ios":"levelo://app?vid=72b8c855-2348-425a-9ab4-8c535d2a8651"},"vehicle_type_id":"4","last_reported":1692216432,"current_range_meters":29200,"station_id":"ce4bgg92rcd13ifvqb30","pricing_plan_id":"free"},{"bike_id":"fe5a6e04-8109-4d57-80b1-50b1295a38cc","system_id":"levelo_inurba_marseille","lat":43.305364,"lon":5.384119,"is_reserved":false,"is_disabled":false,"rental_uris":{"android":"levelo://app?vid=fe5a6e04-8109-4d57-80b1-50b1295a38cc","ios":"levelo://app?vid=fe5a6e04-8109-4d57-80b1-50b1295a38cc"},"vehicle_type_id":"4","last_reported":1692216432,"current_range_meters":21600,"station_id":"ce4bgg92rcd13ifvqb30","pricing_plan_id":"free"},{"bike_id":"823b2aea-a355-453f-a254-2a4af9c62e14","system_id":"levelo_inurba_marseille","lat":43.30541,"lon":5.38426,"is_reserved":false,"is_disabled":false,"rental_uris":{"android":"levelo://app?vid=823b2aea-a355-453f-a254-2a4af9c62e14","ios":"levelo://app?vid=823b2aea-a355-453f-a254-2a4af9c62e14"},"vehicle_type_id":"4","last_reported":1692216432,"current_range_meters":21600,"station_id":"ce4bgg92rcd13ifvqb30","pricing_plan_id":"free"},{"bike_id":"9f8f2d41-a439-476a-8ac5-c8bf6eaddb33","system_id":"levelo_inurba_marseille","lat":43.30546,"lon":5.3843,"is_reserved":false,"is_disabled":false,"rental_uris":{"android":"levelo://app?vid=9f8f2d41-a439-476a-8ac5-c8bf6eaddb33","ios":"levelo://app?vid=9f8f2d41-a439-476a-8ac5-c8bf6eaddb33"},"vehicle_type_id":"4","last_reported":1692216432,"current_range_meters":23600,"station_id":"ce4bgg92rcd13ifvqb30","pricing_plan_id":"free"},{"bike_id":"6a7a45f2-c0d2-46ba-bec2-35845a796e81","system_id":"levelo_inurba_marseille","lat":43.305364,"lon":5.384119,"is_reserved":false,"is_disabled":false,"rental_uris":{"android":"levelo://app?vid=6a7a45f2-c0d2-46ba-bec2-35845a796e81","ios":"levelo://app?vid=6a7a45f2-c0d2-46ba-bec2-35845a796e81"},"vehicle_type_id":"4","last_reported":1692216432,"current_range_meters":14000,"station_id":"ce4bgg92rcd13ifvqb30","pricing_plan_id":"free"},{"bike_id":"9b044d07-b521-419f-94cd-97a10d904e47","system_id":"levelo_inurba_marseille","lat":43.30539,"lon":5.38425,"is_reserved":false,"is_disabled":false,"rental_uris":{"android":"levelo://app?vid=9b044d07-b521-419f-94cd-97a10d904e47","ios":"levelo://app?vid=9b044d07-b521-419f-94cd-97a10d904e47"},"vehicle_type_id":"4","last_reported":1692216432,"current_range_meters":10000,"station_id":"ce4bgg92rcd13ifvqb30","pricing_plan_id":"free"},{"bike_id":"761587cb-8c4d-4189-85b9-358b7be8b1db","system_id":"levelo_inurba_marseille","lat":43.305364,"lon":5.384119,"is_reserved":false,"is_disabled":false,"rental_uris":{"android":"levelo://app?vid=761587cb-8c4d-4189-85b9-358b7be8b1db","ios":"levelo://app?vid=761587cb-8c4d-4189-85b9-358b7be8b1db"},"vehicle_type_id":"4","last_reported":1692216432,"current_range_meters":31200,"station_id":"ce4bgg92rcd13ifvqb30","pricing_plan_id":"free"},{"bike_id":"d3111f2b-7d19-435c-b477-1d5db6fd9349","system_id":"levelo_inurba_marseille","lat":43.298433,"lon":5.362774,"is_reserved":false,"is_disabled":false,"rental_uris":{"android":"levelo://app?vid=d3111f2b-7d19-435c-b477-1d5db6fd9349","ios":"levelo://app?vid=d3111f2b-7d19-435c-b477-1d5db6fd9349"},"vehicle_type_id":"4","last_reported":1692216432,"current_range_meters":31200,"station_id":"ce4bgpp2rcd13ifvqc3g","pricing_plan_id":"free"},{"bike_id":"213700a0-6264-4b2d-bb63-d6ed74137d3e","system_id":"levelo_inurba_marseille","lat":43.30543,"lon":5.38436,"is_reserved":false,"is_disabled":false,"rental_uris":{"android":"levelo://app?vid=213700a0-6264-4b2d-bb63-d6ed74137d3e","ios":"levelo://app?vid=213700a0-6264-4b2d-bb63-d6ed74137d3e"},"vehicle_type_id":"4","last_reported":1692216432,"current_range_meters":13600,"station_id":"ce4bgg92rcd13ifvqb30","pricing_plan_id":"free"},{"bike_id":"fa61a25b-972b-4e79-84f6-b538b82cd14a","system_id":"levelo_inurba_marseille","lat":43.298433,"lon":5.362774,"is_reserved":false,"is_disabled":false,"rental_uris":{"android":"levelo://app?vid=fa61a25b-972b-4e79-84f6-b538b82cd14a","ios":"levelo://app?vid=fa61a25b-972b-4e79-84f6-b538b82cd14a"},"vehicle_type_id":"4","last_reported":1692216432,"current_range_meters":16800,"station_id":"ce4bgpp2rcd13ifvqc3g","pricing_plan_id":"free"},{"bike_id":"4e2c86cf-2092-43cb-9d23-485709944c2a","system_id":"levelo_inurba_marseille","lat":43.311722,"lon":5.387247,"is_reserved":false,"is_disabled":false,"rental_uris":{"android":"levelo://app?vid=4e2c86cf-2092-43cb-9d23-485709944c2a","ios":"levelo://app?vid=4e2c86cf-2092-43cb-9d23-485709944c2a"},"vehicle_type_id":"4","last_reported":1692216432,"current_range_meters":9600,"station_id":"ce4bgv12rcd13ifvqcp0","pricing_plan_id":"free"},{"bike_id":"0bccb323-db62-441a-a824-6817ac264134","system_id":"levelo_inurba_marseille","lat":43.311722,"lon":5.387247,"is_reserved":false,"is_disabled":false,"rental_uris":{"android":"levelo://app?vid=0bccb323-db62-441a-a824-6817ac264134","ios":"levelo://app?vid=0bccb323-db62-441a-a824-6817ac264134"},"vehicle_type_id":"4","last_reported":1692216432,"current_range_meters":12000,"station_id":"ce4bgv12rcd13ifvqcp0","pricing_plan_id":"free"},{"bike_id":"4a3d165f-ea4a-40e4-87f2-0b2574d6977a","system_id":"levelo_inurba_marseille","lat":43.299243,"lon":5.37481,"is_reserved":false,"is_disabled":false,"rental_uris":{"android":"levelo://app?vid=4a3d165f-ea4a-40e4-87f2-0b2574d6977a","ios":"levelo://app?vid=4a3d165f-ea4a-40e4-87f2-0b2574d6977a"},"vehicle_type_id":"4","last_reported":1692216432,"current_range_meters":10400,"station_id":"ce4bgjh2rcd13ifvqbg0","pricing_plan_id":"free"},{"bike_id":"a7c0f610-995e-4b56-824a-9598553ee190","system_id":"levelo_inurba_marseille","lat":43.31173,"lon":5.38711,"is_reserved":false,"is_disabled":false,"rental_uris":{"android":"levelo://app?vid=a7c0f610-995e-4b56-824a-9598553ee190","ios":"levelo://app?vid=a7c0f610-995e-4b56-824a-9598553ee190"},"vehicle_type_id":"4","last_reported":1692216432,"current_range_meters":18400,"station_id":"ce4bgv12rcd13ifvqcp0","pricing_plan_id":"free"},{"bike_id":"4121fb29-7e42-465b-af61-fe218d46a6e5","system_id":"levelo_inurba_marseille","lat":43.311722,"lon":5.387247,"is_reserved":false,"is_disabled":false,"rental_uris":{"android":"levelo://app?vid=4121fb29-7e42-465b-af61-fe218d46a6e5","ios":"levelo://app?vid=4121fb29-7e42-465b-af61-fe218d46a6e5"},"vehicle_type_id":"4","last_reported":1692216432,"current_range_meters":9200,"station_id":"ce4bgv12rcd13ifvqcp0","pricing_plan_id":"free"},{"bike_id":"9f33798a-1d3c-4dbb-9ef2-b598198ca355","system_id":"levelo_inurba_marseille","lat":43.311722,"lon":5.387247,"is_reserved":false,"is_disabled":false,"rental_uris":{"android":"levelo://app?vid=9f33798a-1d3c-4dbb-9ef2-b598198ca355","ios":"levelo://app?vid=9f33798a-1d3c-4dbb-9ef2-b598198ca355"},"vehicle_type_id":"4","last_reported":1692216432,"current_range_meters":0,"station_id":"ce4bgv12rcd13ifvqcp0","pricing_plan_id":"free"},{"bike_id":"1b2dbb56-6da4-4cef-914d-618e66b9711d","system_id":"levelo_inurba_marseille","lat":43.311722,"lon":5.387247,"is_reserved":false,"is_disabled":false,"rental_uris":{"android":"levelo://app?vid=1b2dbb56-6da4-4cef-914d-618e66b9711d","ios":"levelo://app?vid=1b2dbb56-6da4-4cef-914d-618e66b9711d"},"vehicle_type_id":"4","last_reported":1692216432,"current_range_meters":10800,"station_id":"ce4bgv12rcd13ifvqcp0","pricing_plan_id":"free"},{"bike_id":"9721932a-07a3-432b-831f-74be50e02035","system_id":"levelo_inurba_marseille","lat":43.311722,"lon":5.387247,"is_reserved":false,"is_disabled":false,"rental_uris":{"android":"levelo://app?vid=9721932a-07a3-432b-831f-74be50e02035","ios":"levelo://app?vid=9721932a-07a3-432b-831f-74be50e02035"},"vehicle_type_id":"4","last_reported":1692216432,"current_range_meters":16400,"station_id":"ce4bgv12rcd13ifvqcp0","pricing_plan_id":"free"},{"bike_id":"90ac2e90-cd5c-4d9c-bf0a-b11e15788567","system_id":"levelo_inurba_marseille","lat":43.311722,"lon":5.387247,"is_reserved":false,"is_disabled":false,"rental_uris":{"android":"levelo://app?vid=90ac2e90-cd5c-4d9c-bf0a-b11e15788567","ios":"levelo://app?vid=90ac2e90-cd5c-4d9c-bf0a-b11e15788567"},"vehicle_type_id":"4","last_reported":1692216432,"current_range_meters":5600,"station_id":"ce4bgv12rcd13ifvqcp0","pricing_plan_id":"free"},{"bike_id":"a108101f-5102-4e56-9dbc-2e2606387656","system_id":"levelo_inurba_marseille","lat":43.311722,"lon":5.387247,"is_reserved":false,"is_disabled":false,"rental_uris":{"android":"levelo://app?vid=a108101f-5102-4e56-9dbc-2e2606387656","ios":"levelo://app?vid=a108101f-5102-4e56-9dbc-2e2606387656"},"vehicle_type_id":"4","last_reported":1692216432,"current_range_meters":8400,"station_id":"ce4bgv12rcd13ifvqcp0","pricing_plan_id":"free"},{"bike_id":"da796c23-9c9c-4994-bfaf-92445b85076f","system_id":"levelo_inurba_marseille","lat":43.311722,"lon":5.387247,"is_reserved":false,"is_disabled":false,"rental_uris":{"android":"levelo://app?vid=da796c23-9c9c-4994-bfaf-92445b85076f","ios":"levelo://app?vid=da796c23-9c9c-4994-bfaf-92445b85076f"},"vehicle_type_id":"4","last_reported":1692216432,"current_range_meters":16000,"station_id":"ce4bgv12rcd13ifvqcp0","pricing_plan_id":"free"},{"bike_id":"17535153-6ce3-49d0-88d5-ab725a0dbc8e","system_id":"levelo_inurba_marseille","lat":43.297774,"lon":5.370875,"is_reserved":false,"is_disabled":false,"rental_uris":{"android":"levelo://app?vid=17535153-6ce3-49d0-88d5-ab725a0dbc8e","ios":"levelo://app?vid=17535153-6ce3-49d0-88d5-ab725a0dbc8e"},"vehicle_type_id":"4","last_reported":1692216432,"current_range_meters":28400,"station_id":"ce4bgop2rcd13ifvqc1g","pricing_plan_id":"free"},{"bike_id":"20066552-063e-4d3e-9e10-e0e8a6d2c838","system_id":"levelo_inurba_marseille","lat":43.32292,"lon":5.38266,"is_reserved":false,"is_disabled":false,"rental_uris":{"android":"levelo://app?vid=20066552-063e-4d3e-9e10-e0e8a6d2c838","ios":"levelo://app?vid=20066552-063e-4d3e-9e10-e0e8a6d2c838"},"vehicle_type_id":"4","last_reported":1692216432,"current_range_meters":15200,"station_id":"ce4bhr12rcd13ifvqhqg","pricing_plan_id":"free"},{"bike_id":"6902a594-b386-4a97-a6a9-aa85e19381e0","system_id":"levelo_inurba_marseille","lat":43.32823,"lon":5.36674,"is_reserved":false,"is_disabled":false,"rental_uris":{"android":"levelo://app?vid=6902a594-b386-4a97-a6a9-aa85e19381e0","ios":"levelo://app?vid=6902a594-b386-4a97-a6a9-aa85e19381e0"},"vehicle_type_id":"4","last_reported":1692216432,"current_range_meters":30000,"station_id":"ce4bhs92rcd13ifvqi0g","pricing_plan_id":"free"},{"bike_id":"6ece8e83-2d1d-4d08-ad69-51835c8252e1","system_id":"levelo_inurba_marseille","lat":43.32824,"lon":5.36678,"is_reserved":false,"is_disabled":false,"rental_uris":{"android":"levelo://app?vid=6ece8e83-2d1d-4d08-ad69-51835c8252e1","ios":"levelo://app?vid=6ece8e83-2d1d-4d08-ad69-51835c8252e1"},"vehicle_type_id":"4","last_reported":1692216432,"current_range_meters":24000,"station_id":"ce4bhs92rcd13ifvqi0g","pricing_plan_id":"free"},{"bike_id":"3dc8ddfd-e386-4774-938c-dc3a7b25274a","system_id":"levelo_inurba_marseille","lat":43.32824,"lon":5.36669,"is_reserved":false,"is_disabled":false,"rental_uris":{"android":"levelo://app?vid=3dc8ddfd-e386-4774-938c-dc3a7b25274a","ios":"levelo://app?vid=3dc8ddfd-e386-4774-938c-dc3a7b25274a"},"vehicle_type_id":"4","last_reported":1692216432,"current_range_meters":17600,"station_id":"ce4bhs92rcd13ifvqi0g","pricing_plan_id":"free"},{"bike_id":"f1ad4a0f-0f13-4b8a-b215-e2d4c266fbb9","system_id":"levelo_inurba_marseille","lat":43.301939,"lon":5.366286,"is_reserved":false,"is_disabled":false,"rental_uris":{"android":"levelo://app?vid=f1ad4a0f-0f13-4b8a-b215-e2d4c266fbb9","ios":"levelo://app?vid=f1ad4a0f-0f13-4b8a-b215-e2d4c266fbb9"},"vehicle_type_id":"4","last_reported":1692216432,"current_range_meters":13200,"station_id":"ce4bgrh2rcd13ifvqc8g","pricing_plan_id":"free"},{"bike_id":"fa832a3b-a72f-42a2-8ac6-320395daaa8c","system_id":"levelo_inurba_marseille","lat":43.32826,"lon":5.36673,"is_reserved":false,"is_disabled":false,"rental_uris":{"android":"levelo://app?vid=fa832a3b-a72f-42a2-8ac6-320395daaa8c","ios":"levelo://app?vid=fa832a3b-a72f-42a2-8ac6-320395daaa8c"},"vehicle_type_id":"4","last_reported":1692216432,"current_range_meters":24400,"station_id":"ce4bhs92rcd13ifvqi0g","pricing_plan_id":"free"},{"bike_id":"2cacf4ba-30f0-4f40-92af-cee799fe4c0c","system_id":"levelo_inurba_marseille","lat":43.32827,"lon":5.36673,"is_reserved":false,"is_disabled":false,"rental_uris":{"android":"levelo://app?vid=2cacf4ba-30f0-4f40-92af-cee799fe4c0c","ios":"levelo://app?vid=2cacf4ba-30f0-4f40-92af-cee799fe4c0c"},"vehicle_type_id":"4","last_reported":1692216432,"current_range_meters":26000,"station_id":"ce4bhs92rcd13ifvqi0g","pricing_plan_id":"free"},{"bike_id":"5f8a6ca0-5dfe-4c06-929a-c1030bd48d99","system_id":"levelo_inurba_marseille","lat":43.32827,"lon":5.3667,"is_reserved":false,"is_disabled":false,"rental_uris":{"android":"levelo://app?vid=5f8a6ca0-5dfe-4c06-929a-c1030bd48d99","ios":"levelo://app?vid=5f8a6ca0-5dfe-4c06-929a-c1030bd48d99"},"vehicle_type_id":"4","last_reported":1692216432,"current_range_meters":14000,"station_id":"ce4bhs92rcd13ifvqi0g","pricing_plan_id":"free"},{"bike_id":"94ca1dde-c62e-406c-a1ed-ce8078fc26e1","system_id":"levelo_inurba_marseille","lat":43.32828,"lon":5.36682,"is_reserved":false,"is_disabled":false,"rental_uris":{"android":"levelo://app?vid=94ca1dde-c62e-406c-a1ed-ce8078fc26e1","ios":"levelo://app?vid=94ca1dde-c62e-406c-a1ed-ce8078fc26e1"},"vehicle_type_id":"4","last_reported":1692216432,"current_range_meters":13200,"station_id":"ce4bhs92rcd13ifvqi0g","pricing_plan_id":"free"},{"bike_id":"4ed96fad-2e51-49a2-879d-e8c05ef80263","system_id":"levelo_inurba_marseille","lat":43.32829,"lon":5.36666,"is_reserved":false,"is_disabled":false,"rental_uris":{"android":"levelo://app?vid=4ed96fad-2e51-49a2-879d-e8c05ef80263","ios":"levelo://app?vid=4ed96fad-2e51-49a2-879d-e8c05ef80263"},"vehicle_type_id":"4","last_reported":1692216432,"current_range_meters":14400,"station_id":"ce4bhs92rcd13ifvqi0g","pricing_plan_id":"free"},{"bike_id":"dcb38f3d-00a9-47a5-892d-27a970edbd08","system_id":"levelo_inurba_marseille","lat":43.32831,"lon":5.36678,"is_reserved":false,"is_disabled":false,"rental_uris":{"android":"levelo://app?vid=dcb38f3d-00a9-47a5-892d-27a970edbd08","ios":"levelo://app?vid=dcb38f3d-00a9-47a5-892d-27a970edbd08"},"vehicle_type_id":"4","last_reported":1692216432,"current_range_meters":29600,"station_id":"ce4bhs92rcd13ifvqi0g","pricing_plan_id":"free"},{"bike_id":"d86e7b99-7484-476a-824e-ca64a2fdcfb6","system_id":"levelo_inurba_marseille","lat":43.32831,"lon":5.36674,"is_reserved":false,"is_disabled":false,"rental_uris":{"android":"levelo://app?vid=d86e7b99-7484-476a-824e-ca64a2fdcfb6","ios":"levelo://app?vid=d86e7b99-7484-476a-824e-ca64a2fdcfb6"},"vehicle_type_id":"4","last_reported":1692216432,"current_range_meters":29200,"station_id":"ce4bhs92rcd13ifvqi0g","pricing_plan_id":"free"},{"bike_id":"dd789220-e7b5-42c1-b9dc-dc4243148021","system_id":"levelo_inurba_marseille","lat":43.297163,"lon":5.365866,"is_reserved":false,"is_disabled":false,"rental_uris":{"android":"levelo://app?vid=dd789220-e7b5-42c1-b9dc-dc4243148021","ios":"levelo://app?vid=dd789220-e7b5-42c1-b9dc-dc4243148021"},"vehicle_type_id":"4","last_reported":1692216432,"current_range_meters":31200,"station_id":"ce4bgn12rcd13ifvqbt0","pricing_plan_id":"free"},{"bike_id":"154520f2-fd91-4cdf-914b-39adc14372e3","system_id":"levelo_inurba_marseille","lat":43.32836,"lon":5.36674,"is_reserved":false,"is_disabled":false,"rental_uris":{"android":"levelo://app?vid=154520f2-fd91-4cdf-914b-39adc14372e3","ios":"levelo://app?vid=154520f2-fd91-4cdf-914b-39adc14372e3"},"vehicle_type_id":"4","last_reported":1692216432,"current_range_meters":16000,"station_id":"ce4bhs92rcd13ifvqi0g","pricing_plan_id":"free"},{"bike_id":"1b24a890-64ec-4222-83db-f05e30cf9e6a","system_id":"levelo_inurba_marseille","lat":43.30304,"lon":5.38511,"is_reserved":false,"is_disabled":false,"rental_uris":{"android":"levelo://app?vid=1b24a890-64ec-4222-83db-f05e30cf9e6a","ios":"levelo://app?vid=1b24a890-64ec-4222-83db-f05e30cf9e6a"},"vehicle_type_id":"4","last_reported":1692216432,"current_range_meters":22800,"station_id":"","pricing_plan_id":"free"},{"bike_id":"0c16fd08-1d8d-44ab-8fd3-7ffb6e7e61a0","system_id":"levelo_inurba_marseille","lat":43.296131,"lon":5.370791,"is_reserved":false,"is_disabled":false,"rental_uris":{"android":"levelo://app?vid=0c16fd08-1d8d-44ab-8fd3-7ffb6e7e61a0","ios":"levelo://app?vid=0c16fd08-1d8d-44ab-8fd3-7ffb6e7e61a0"},"vehicle_type_id":"4","last_reported":1692216432,"current_range_meters":31200,"station_id":"ce4bgnh2rcd13ifvqc0g","pricing_plan_id":"free"},{"bike_id":"bb155e93-116e-494a-9911-2df351c7dae8","system_id":"levelo_inurba_marseille","lat":43.29623,"lon":5.37155,"is_reserved":false,"is_disabled":false,"rental_uris":{"android":"levelo://app?vid=bb155e93-116e-494a-9911-2df351c7dae8","ios":"levelo://app?vid=bb155e93-116e-494a-9911-2df351c7dae8"},"vehicle_type_id":"4","last_reported":1692216432,"current_range_meters":26400,"station_id":"","pricing_plan_id":"free"},{"bike_id":"1c2884e2-7a06-4401-8ec4-e3db30964920","system_id":"levelo_inurba_marseille","lat":43.299028,"lon":5.381509,"is_reserved":false,"is_disabled":false,"rental_uris":{"android":"levelo://app?vid=1c2884e2-7a06-4401-8ec4-e3db30964920","ios":"levelo://app?vid=1c2884e2-7a06-4401-8ec4-e3db30964920"},"vehicle_type_id":"4","last_reported":1692216432,"current_range_meters":27600,"station_id":"ce4bgj12rcd13ifvqbc0","pricing_plan_id":"free"},{"bike_id":"046b7a8c-a92d-4fba-a731-723523febbe7","system_id":"levelo_inurba_marseille","lat":43.299028,"lon":5.381509,"is_reserved":false,"is_disabled":false,"rental_uris":{"android":"levelo://app?vid=046b7a8c-a92d-4fba-a731-723523febbe7","ios":"levelo://app?vid=046b7a8c-a92d-4fba-a731-723523febbe7"},"vehicle_type_id":"4","last_reported":1692216432,"current_range_meters":0,"station_id":"ce4bgj12rcd13ifvqbc0","pricing_plan_id":"free"},{"bike_id":"e8e8e489-d4fa-4eb7-a4c0-0a0053b40b54","system_id":"levelo_inurba_marseille","lat":43.299028,"lon":5.381509,"is_reserved":false,"is_disabled":false,"rental_uris":{"android":"levelo://app?vid=e8e8e489-d4fa-4eb7-a4c0-0a0053b40b54","ios":"levelo://app?vid=e8e8e489-d4fa-4eb7-a4c0-0a0053b40b54"},"vehicle_type_id":"4","last_reported":1692216432,"current_range_meters":3600,"station_id":"ce4bgj12rcd13ifvqbc0","pricing_plan_id":"free"},{"bike_id":"2810bb29-ef0d-49d1-8cc2-d059a990ec17","system_id":"levelo_inurba_marseille","lat":43.309589,"lon":5.390258,"is_reserved":false,"is_disabled":false,"rental_uris":{"android":"levelo://app?vid=2810bb29-ef0d-49d1-8cc2-d059a990ec17","ios":"levelo://app?vid=2810bb29-ef0d-49d1-8cc2-d059a990ec17"},"vehicle_type_id":"4","last_reported":1692216432,"current_range_meters":3600,"station_id":"ce4bgup2rcd13ifvqco0","pricing_plan_id":"free"},{"bike_id":"29bb4e38-8840-4e8a-a911-08904f25bb56","system_id":"levelo_inurba_marseille","lat":43.30952,"lon":5.39033,"is_reserved":false,"is_disabled":false,"rental_uris":{"android":"levelo://app?vid=29bb4e38-8840-4e8a-a911-08904f25bb56","ios":"levelo://app?vid=29bb4e38-8840-4e8a-a911-08904f25bb56"},"vehicle_type_id":"4","last_reported":1692216432,"current_range_meters":22400,"station_id":"ce4bgup2rcd13ifvqco0","pricing_plan_id":"free"},{"bike_id":"552974b8-da4d-422e-95a0-5dd027bb08c3","system_id":"levelo_inurba_marseille","lat":43.30954,"lon":5.39035,"is_reserved":false,"is_disabled":false,"rental_uris":{"android":"levelo://app?vid=552974b8-da4d-422e-95a0-5dd027bb08c3","ios":"levelo://app?vid=552974b8-da4d-422e-95a0-5dd027bb08c3"},"vehicle_type_id":"4","last_reported":1692216432,"current_range_meters":18400,"station_id":"ce4bgup2rcd13ifvqco0","pricing_plan_id":"free"},{"bike_id":"be472a66-12d7-4b1c-a801-1b9205d156df","system_id":"levelo_inurba_marseille","lat":43.31764,"lon":5.39006,"is_reserved":false,"is_disabled":false,"rental_uris":{"android":"levelo://app?vid=be472a66-12d7-4b1c-a801-1b9205d156df","ios":"levelo://app?vid=be472a66-12d7-4b1c-a801-1b9205d156df"},"vehicle_type_id":"4","last_reported":1692216432,"current_range_meters":31200,"station_id":"ce4bhqp2rcd13ifvqhng","pricing_plan_id":"free"},{"bike_id":"c2dd4bd6-ad62-4f90-af27-61e9344d9f3c","system_id":"levelo_inurba_marseille","lat":43.31765,"lon":5.39006,"is_reserved":false,"is_disabled":false,"rental_uris":{"android":"levelo://app?vid=c2dd4bd6-ad62-4f90-af27-61e9344d9f3c","ios":"levelo://app?vid=c2dd4bd6-ad62-4f90-af27-61e9344d9f3c"},"vehicle_type_id":"4","last_reported":1692216432,"current_range_meters":27200,"station_id":"ce4bhqp2rcd13ifvqhng","pricing_plan_id":"free"},{"bike_id":"f4ef0b75-3b1d-41ee-9b7e-15855d17b964","system_id":"levelo_inurba_marseille","lat":43.31759,"lon":5.3901,"is_reserved":false,"is_disabled":false,"rental_uris":{"android":"levelo://app?vid=f4ef0b75-3b1d-41ee-9b7e-15855d17b964","ios":"levelo://app?vid=f4ef0b75-3b1d-41ee-9b7e-15855d17b964"},"vehicle_type_id":"4","last_reported":1692216432,"current_range_meters":24800,"station_id":"ce4bhqp2rcd13ifvqhng","pricing_plan_id":"free"},{"bike_id":"36883f8f-6a8c-48ba-b7e7-c459a1e05b5b","system_id":"levelo_inurba_marseille","lat":43.31762,"lon":5.39012,"is_reserved":false,"is_disabled":false,"rental_uris":{"android":"levelo://app?vid=36883f8f-6a8c-48ba-b7e7-c459a1e05b5b","ios":"levelo://app?vid=36883f8f-6a8c-48ba-b7e7-c459a1e05b5b"},"vehicle_type_id":"4","last_reported":1692216432,"current_range_meters":0,"station_id":"ce4bhqp2rcd13ifvqhng","pricing_plan_id":"free"},{"bike_id":"f40e5560-f4a0-46f5-9232-c7b453260a19","system_id":"levelo_inurba_marseille","lat":43.317557,"lon":5.390173,"is_reserved":false,"is_disabled":false,"rental_uris":{"android":"levelo://app?vid=f40e5560-f4a0-46f5-9232-c7b453260a19","ios":"levelo://app?vid=f40e5560-f4a0-46f5-9232-c7b453260a19"},"vehicle_type_id":"4","last_reported":1692216432,"current_range_meters":6400,"station_id":"ce4bhqp2rcd13ifvqhng","pricing_plan_id":"free"},{"bike_id":"93de5219-47ff-4b18-a7bf-e79f70dc0971","system_id":"levelo_inurba_marseille","lat":43.3176,"lon":5.39023,"is_reserved":false,"is_disabled":false,"rental_uris":{"android":"levelo://app?vid=93de5219-47ff-4b18-a7bf-e79f70dc0971","ios":"levelo://app?vid=93de5219-47ff-4b18-a7bf-e79f70dc0971"},"vehicle_type_id":"4","last_reported":1692216432,"current_range_meters":29600,"station_id":"ce4bhqp2rcd13ifvqhng","pricing_plan_id":"free"},{"bike_id":"309a139c-63c9-432f-a6b4-d6e4305cb474","system_id":"levelo_inurba_marseille","lat":43.304274,"lon":5.388873,"is_reserved":false,"is_disabled":false,"rental_uris":{"android":"levelo://app?vid=309a139c-63c9-432f-a6b4-d6e4305cb474","ios":"levelo://app?vid=309a139c-63c9-432f-a6b4-d6e4305cb474"},"vehicle_type_id":"4","last_reported":1692216432,"current_range_meters":4400,"station_id":"ce4bgk12rcd13ifvqbi0","pricing_plan_id":"free"},{"bike_id":"7a247649-8ec8-43af-8783-1f0b02e66037","system_id":"levelo_inurba_marseille","lat":43.29785,"lon":5.3808,"is_reserved":false,"is_disabled":false,"rental_uris":{"android":"levelo://app?vid=7a247649-8ec8-43af-8783-1f0b02e66037","ios":"levelo://app?vid=7a247649-8ec8-43af-8783-1f0b02e66037"},"vehicle_type_id":"4","last_reported":1692216432,"current_range_meters":19200,"station_id":"ce4bgip2rcd13ifvqbb0","pricing_plan_id":"free"},{"bike_id":"a4df99ce-0488-49dd-a888-94686f562e88","system_id":"levelo_inurba_marseille","lat":43.295748,"lon":5.37522,"is_reserved":false,"is_disabled":false,"rental_uris":{"android":"levelo://app?vid=a4df99ce-0488-49dd-a888-94686f562e88","ios":"levelo://app?vid=a4df99ce-0488-49dd-a888-94686f562e88"},"vehicle_type_id":"4","last_reported":1692216432,"current_range_meters":28400,"station_id":"ce4bgh92rcd13ifvqb50","pricing_plan_id":"free"},{"bike_id":"dbcf18a2-2ceb-4f64-a15c-aa4b23f962a9","system_id":"levelo_inurba_marseille","lat":43.309589,"lon":5.390258,"is_reserved":false,"is_disabled":false,"rental_uris":{"android":"levelo://app?vid=dbcf18a2-2ceb-4f64-a15c-aa4b23f962a9","ios":"levelo://app?vid=dbcf18a2-2ceb-4f64-a15c-aa4b23f962a9"},"vehicle_type_id":"4","last_reported":1692216432,"current_range_meters":11200,"station_id":"ce4bgup2rcd13ifvqco0","pricing_plan_id":"free"},{"bike_id":"bed14417-e48a-449a-8b73-7b35dfdad4aa","system_id":"levelo_inurba_marseille","lat":43.299707,"lon":5.384859,"is_reserved":false,"is_disabled":false,"rental_uris":{"android":"levelo://app?vid=bed14417-e48a-449a-8b73-7b35dfdad4aa","ios":"levelo://app?vid=bed14417-e48a-449a-8b73-7b35dfdad4aa"},"vehicle_type_id":"4","last_reported":1692216432,"current_range_meters":21200,"station_id":"ce4bgj92rcd13ifvqbd0","pricing_plan_id":"free"},{"bike_id":"aad69897-f5f8-4334-9329-dc6a3bce2bf0","system_id":"levelo_inurba_marseille","lat":43.299707,"lon":5.384859,"is_reserved":false,"is_disabled":false,"rental_uris":{"android":"levelo://app?vid=aad69897-f5f8-4334-9329-dc6a3bce2bf0","ios":"levelo://app?vid=aad69897-f5f8-4334-9329-dc6a3bce2bf0"},"vehicle_type_id":"4","last_reported":1692216432,"current_range_meters":9600,"station_id":"ce4bgj92rcd13ifvqbd0","pricing_plan_id":"free"},{"bike_id":"0b1db6be-eab0-4e6e-9785-c8d61b365b51","system_id":"levelo_inurba_marseille","lat":43.299707,"lon":5.384859,"is_reserved":false,"is_disabled":false,"rental_uris":{"android":"levelo://app?vid=0b1db6be-eab0-4e6e-9785-c8d61b365b51","ios":"levelo://app?vid=0b1db6be-eab0-4e6e-9785-c8d61b365b51"},"vehicle_type_id":"4","last_reported":1692216432,"current_range_meters":5600,"station_id":"ce4bgj92rcd13ifvqbd0","pricing_plan_id":"free"},{"bike_id":"6d92fe19-3117-4640-b8cb-7bcad9f0580d","system_id":"levelo_inurba_marseille","lat":43.29967,"lon":5.38481,"is_reserved":false,"is_disabled":false,"rental_uris":{"android":"levelo://app?vid=6d92fe19-3117-4640-b8cb-7bcad9f0580d","ios":"levelo://app?vid=6d92fe19-3117-4640-b8cb-7bcad9f0580d"},"vehicle_type_id":"4","last_reported":1692216432,"current_range_meters":9200,"station_id":"ce4bgj92rcd13ifvqbd0","pricing_plan_id":"free"},{"bike_id":"181d0eba-2447-4154-92ee-11569ce1f4f4","system_id":"levelo_inurba_marseille","lat":43.29968,"lon":5.38491,"is_reserved":false,"is_disabled":false,"rental_uris":{"android":"levelo://app?vid=181d0eba-2447-4154-92ee-11569ce1f4f4","ios":"levelo://app?vid=181d0eba-2447-4154-92ee-11569ce1f4f4"},"vehicle_type_id":"4","last_reported":1692216432,"current_range_meters":16000,"station_id":"ce4bgj92rcd13ifvqbd0","pricing_plan_id":"free"},{"bike_id":"e6a01036-08ab-45cd-8e0d-954c9718df84","system_id":"levelo_inurba_marseille","lat":43.29967,"lon":5.3849,"is_reserved":false,"is_disabled":false,"rental_uris":{"android":"levelo://app?vid=e6a01036-08ab-45cd-8e0d-954c9718df84","ios":"levelo://app?vid=e6a01036-08ab-45cd-8e0d-954c9718df84"},"vehicle_type_id":"4","last_reported":1692216432,"current_range_meters":0,"station_id":"ce4bgj92rcd13ifvqbd0","pricing_plan_id":"free"},{"bike_id":"f229e2e0-b0aa-40c8-aca5-d52c77eb6c0a","system_id":"levelo_inurba_marseille","lat":43.29967,"lon":5.38491,"is_reserved":false,"is_disabled":false,"rental_uris":{"android":"levelo://app?vid=f229e2e0-b0aa-40c8-aca5-d52c77eb6c0a","ios":"levelo://app?vid=f229e2e0-b0aa-40c8-aca5-d52c77eb6c0a"},"vehicle_type_id":"4","last_reported":1692216432,"current_range_meters":4000,"station_id":"ce4bgj92rcd13ifvqbd0","pricing_plan_id":"free"},{"bike_id":"1c2386d4-76bb-4219-9cf5-bb796fd0b124","system_id":"levelo_inurba_marseille","lat":43.29967,"lon":5.38492,"is_reserved":false,"is_disabled":false,"rental_uris":{"android":"levelo://app?vid=1c2386d4-76bb-4219-9cf5-bb796fd0b124","ios":"levelo://app?vid=1c2386d4-76bb-4219-9cf5-bb796fd0b124"},"vehicle_type_id":"4","last_reported":1692216432,"current_range_meters":29600,"station_id":"ce4bgj92rcd13ifvqbd0","pricing_plan_id":"free"},{"bike_id":"51093bc7-5725-4adf-afc6-6d7277bc3c3e","system_id":"levelo_inurba_marseille","lat":43.29967,"lon":5.38493,"is_reserved":false,"is_disabled":false,"rental_uris":{"android":"levelo://app?vid=51093bc7-5725-4adf-afc6-6d7277bc3c3e","ios":"levelo://app?vid=51093bc7-5725-4adf-afc6-6d7277bc3c3e"},"vehicle_type_id":"4","last_reported":1692216432,"current_range_meters":14000,"station_id":"ce4bgj92rcd13ifvqbd0","pricing_plan_id":"free"},{"bike_id":"357a4342-f36c-484b-a346-c547445ec336","system_id":"levelo_inurba_marseille","lat":43.29966,"lon":5.38496,"is_reserved":false,"is_disabled":false,"rental_uris":{"android":"levelo://app?vid=357a4342-f36c-484b-a346-c547445ec336","ios":"levelo://app?vid=357a4342-f36c-484b-a346-c547445ec336"},"vehicle_type_id":"4","last_reported":1692216432,"current_range_meters":19200,"station_id":"ce4bgj92rcd13ifvqbd0","pricing_plan_id":"free"},{"bike_id":"a591fe51-7a88-492b-befa-ebd43215f424","system_id":"levelo_inurba_marseille","lat":43.32367,"lon":5.388836,"is_reserved":false,"is_disabled":false,"rental_uris":{"android":"levelo://app?vid=a591fe51-7a88-492b-befa-ebd43215f424","ios":"levelo://app?vid=a591fe51-7a88-492b-befa-ebd43215f424"},"vehicle_type_id":"4","last_reported":1692216432,"current_range_meters":19600,"station_id":"ce4bhqp2rcd13ifvqhog","pricing_plan_id":"free"},{"bike_id":"55f08f4d-333e-4077-9882-16e72e12ddbf","system_id":"levelo_inurba_marseille","lat":43.32367,"lon":5.388836,"is_reserved":false,"is_disabled":false,"rental_uris":{"android":"levelo://app?vid=55f08f4d-333e-4077-9882-16e72e12ddbf","ios":"levelo://app?vid=55f08f4d-333e-4077-9882-16e72e12ddbf"},"vehicle_type_id":"4","last_reported":1692216432,"current_range_meters":4400,"station_id":"ce4bhqp2rcd13ifvqhog","pricing_plan_id":"free"},{"bike_id":"f258d7ed-c613-4321-b231-57d9f47977b0","system_id":"levelo_inurba_marseille","lat":43.32369,"lon":5.38881,"is_reserved":false,"is_disabled":false,"rental_uris":{"android":"levelo://app?vid=f258d7ed-c613-4321-b231-57d9f47977b0","ios":"levelo://app?vid=f258d7ed-c613-4321-b231-57d9f47977b0"},"vehicle_type_id":"4","last_reported":1692216432,"current_range_meters":30000,"station_id":"ce4bhqp2rcd13ifvqhog","pricing_plan_id":"free"},{"bike_id":"6b6cba89-d2b8-44bb-8454-5df08cf65f67","system_id":"levelo_inurba_marseille","lat":43.32369,"lon":5.38882,"is_reserved":false,"is_disabled":false,"rental_uris":{"android":"levelo://app?vid=6b6cba89-d2b8-44bb-8454-5df08cf65f67","ios":"levelo://app?vid=6b6cba89-d2b8-44bb-8454-5df08cf65f67"},"vehicle_type_id":"4","last_reported":1692216432,"current_range_meters":26400,"station_id":"ce4bhqp2rcd13ifvqhog","pricing_plan_id":"free"},{"bike_id":"b11298e9-b84f-41af-a7e1-e24619ef367c","system_id":"levelo_inurba_marseille","lat":43.29606,"lon":5.38096,"is_reserved":false,"is_disabled":false,"rental_uris":{"android":"levelo://app?vid=b11298e9-b84f-41af-a7e1-e24619ef367c","ios":"levelo://app?vid=b11298e9-b84f-41af-a7e1-e24619ef367c"},"vehicle_type_id":"4","last_reported":1692216432,"current_range_meters":19200,"station_id":"ce4bgl12rcd13ifvqbo0","pricing_plan_id":"free"},{"bike_id":"d5b672af-9acc-4848-bade-3eaf593b47da","system_id":"levelo_inurba_marseille","lat":43.29602,"lon":5.381084,"is_reserved":false,"is_disabled":false,"rental_uris":{"android":"levelo://app?vid=d5b672af-9acc-4848-bade-3eaf593b47da","ios":"levelo://app?vid=d5b672af-9acc-4848-bade-3eaf593b47da"},"vehicle_type_id":"4","last_reported":1692216432,"current_range_meters":4400,"station_id":"ce4bgl12rcd13ifvqbo0","pricing_plan_id":"free"},{"bike_id":"e7847bf2-cfe2-4a94-a953-fe338a110575","system_id":"levelo_inurba_marseille","lat":43.29603,"lon":5.38098,"is_reserved":false,"is_disabled":false,"rental_uris":{"android":"levelo://app?vid=e7847bf2-cfe2-4a94-a953-fe338a110575","ios":"levelo://app?vid=e7847bf2-cfe2-4a94-a953-fe338a110575"},"vehicle_type_id":"4","last_reported":1692216432,"current_range_meters":6800,"station_id":"ce4bgl12rcd13ifvqbo0","pricing_plan_id":"free"},{"bike_id":"5056c2eb-4356-4702-b901-d4f56b8bb28e","system_id":"levelo_inurba_marseille","lat":43.29601,"lon":5.381084,"is_reserved":false,"is_disabled":false,"rental_uris":{"android":"levelo://app?vid=5056c2eb-4356-4702-b901-d4f56b8bb28e","ios":"levelo://app?vid=5056c2eb-4356-4702-b901-d4f56b8bb28e"},"vehicle_type_id":"4","last_reported":1692216432,"current_range_meters":27600,"station_id":"ce4bgl12rcd13ifvqbo0","pricing_plan_id":"free"},{"bike_id":"710db6e7-0ac6-4c08-adcb-ddbac9a137cb","system_id":"levelo_inurba_marseille","lat":43.2959,"lon":5.38107,"is_reserved":false,"is_disabled":false,"rental_uris":{"android":"levelo://app?vid=710db6e7-0ac6-4c08-adcb-ddbac9a137cb","ios":"levelo://app?vid=710db6e7-0ac6-4c08-adcb-ddbac9a137cb"},"vehicle_type_id":"4","last_reported":1692216432,"current_range_meters":14000,"station_id":"ce4bgl12rcd13ifvqbo0","pricing_plan_id":"free"},{"bike_id":"6f2c3307-5388-4ccd-978a-83fddb7fd446","system_id":"levelo_inurba_marseille","lat":43.2931,"lon":5.37176,"is_reserved":false,"is_disabled":false,"rental_uris":{"android":"levelo://app?vid=6f2c3307-5388-4ccd-978a-83fddb7fd446","ios":"levelo://app?vid=6f2c3307-5388-4ccd-978a-83fddb7fd446"},"vehicle_type_id":"4","last_reported":1692216432,"current_range_meters":6000,"station_id":"ce4bgh92rcd13ifvqb40","pricing_plan_id":"free"},{"bike_id":"96707503-9357-4d9b-a3d5-7f0e0b9b4745","system_id":"levelo_inurba_marseille","lat":43.292749,"lon":5.368398,"is_reserved":false,"is_disabled":false,"rental_uris":{"android":"levelo://app?vid=96707503-9357-4d9b-a3d5-7f0e0b9b4745","ios":"levelo://app?vid=96707503-9357-4d9b-a3d5-7f0e0b9b4745"},"vehicle_type_id":"4","last_reported":1692216432,"current_range_meters":29200,"station_id":"ce4bhbp2rcd13ifvqesg","pricing_plan_id":"free"},{"bike_id":"3dd81f97-2d4b-4435-acb4-46842fd74b06","system_id":"levelo_inurba_marseille","lat":43.29304,"lon":5.37173,"is_reserved":false,"is_disabled":false,"rental_uris":{"android":"levelo://app?vid=3dd81f97-2d4b-4435-acb4-46842fd74b06","ios":"levelo://app?vid=3dd81f97-2d4b-4435-acb4-46842fd74b06"},"vehicle_type_id":"4","last_reported":1692216432,"current_range_meters":25600,"station_id":"ce4bgh92rcd13ifvqb40","pricing_plan_id":"free"},{"bike_id":"bef0af91-d145-42b7-ac48-bcc72bac01ee","system_id":"levelo_inurba_marseille","lat":43.30601,"lon":5.39348,"is_reserved":false,"is_disabled":false,"rental_uris":{"android":"levelo://app?vid=bef0af91-d145-42b7-ac48-bcc72bac01ee","ios":"levelo://app?vid=bef0af91-d145-42b7-ac48-bcc72bac01ee"},"vehicle_type_id":"4","last_reported":1692216432,"current_range_meters":8800,"station_id":"ce4bh0p2rcd13ifvqd80","pricing_plan_id":"free"},{"bike_id":"07eff295-4647-4054-9a91-906a62901215","system_id":"levelo_inurba_marseille","lat":43.305994,"lon":5.393687,"is_reserved":false,"is_disabled":false,"rental_uris":{"android":"levelo://app?vid=07eff295-4647-4054-9a91-906a62901215","ios":"levelo://app?vid=07eff295-4647-4054-9a91-906a62901215"},"vehicle_type_id":"4","last_reported":1692216432,"current_range_meters":26000,"station_id":"ce4bh0p2rcd13ifvqd80","pricing_plan_id":"free"},{"bike_id":"38fef587-7cc5-4800-b069-87b8f296a10a","system_id":"levelo_inurba_marseille","lat":43.293009,"lon":5.374584,"is_reserved":false,"is_disabled":false,"rental_uris":{"android":"levelo://app?vid=38fef587-7cc5-4800-b069-87b8f296a10a","ios":"levelo://app?vid=38fef587-7cc5-4800-b069-87b8f296a10a"},"vehicle_type_id":"4","last_reported":1692216432,"current_range_meters":31200,"station_id":"ce4bgi12rcd13ifvqb70","pricing_plan_id":"free"},{"bike_id":"297d9355-961b-4149-bc93-b5c8c1a1f173","system_id":"levelo_inurba_marseille","lat":43.30593,"lon":5.39351,"is_reserved":false,"is_disabled":false,"rental_uris":{"android":"levelo://app?vid=297d9355-961b-4149-bc93-b5c8c1a1f173","ios":"levelo://app?vid=297d9355-961b-4149-bc93-b5c8c1a1f173"},"vehicle_type_id":"4","last_reported":1692216432,"current_range_meters":26800,"station_id":"ce4bh0p2rcd13ifvqd80","pricing_plan_id":"free"},{"bike_id":"8fd2b6b5-ef47-4333-95be-f7139964f136","system_id":"levelo_inurba_marseille","lat":43.30306,"lon":5.39209,"is_reserved":false,"is_disabled":false,"rental_uris":{"android":"levelo://app?vid=8fd2b6b5-ef47-4333-95be-f7139964f136","ios":"levelo://app?vid=8fd2b6b5-ef47-4333-95be-f7139964f136"},"vehicle_type_id":"4","last_reported":1692216432,"current_range_meters":7200,"station_id":"ce4bgkh2rcd13ifvqbk0","pricing_plan_id":"free"},{"bike_id":"437e7ede-1364-49f7-8dff-7e83a2042921","system_id":"levelo_inurba_marseille","lat":43.2936,"lon":5.37835,"is_reserved":false,"is_disabled":false,"rental_uris":{"android":"levelo://app?vid=437e7ede-1364-49f7-8dff-7e83a2042921","ios":"levelo://app?vid=437e7ede-1364-49f7-8dff-7e83a2042921"},"vehicle_type_id":"4","last_reported":1692216432,"current_range_meters":3200,"station_id":"ce4bgjh2rcd13ifvqbf0","pricing_plan_id":"free"},{"bike_id":"7eb248d8-e81a-4d72-89c3-2c7bd43925ad","system_id":"levelo_inurba_marseille","lat":43.300852,"lon":5.390859,"is_reserved":false,"is_disabled":false,"rental_uris":{"android":"levelo://app?vid=7eb248d8-e81a-4d72-89c3-2c7bd43925ad","ios":"levelo://app?vid=7eb248d8-e81a-4d72-89c3-2c7bd43925ad"},"vehicle_type_id":"4","last_reported":1692216432,"current_range_meters":17200,"station_id":"ce4bh192rcd13ifvqdb0","pricing_plan_id":"free"},{"bike_id":"26116d90-e29f-4e6b-a0f0-d11257c8d695","system_id":"levelo_inurba_marseille","lat":43.300852,"lon":5.390859,"is_reserved":false,"is_disabled":false,"rental_uris":{"android":"levelo://app?vid=26116d90-e29f-4e6b-a0f0-d11257c8d695","ios":"levelo://app?vid=26116d90-e29f-4e6b-a0f0-d11257c8d695"},"vehicle_type_id":"4","last_reported":1692216432,"current_range_meters":18800,"station_id":"ce4bh192rcd13ifvqdb0","pricing_plan_id":"free"},{"bike_id":"b985c20c-329e-4ccd-8f06-e9e7c8101ef5","system_id":"levelo_inurba_marseille","lat":43.30085,"lon":5.390856,"is_reserved":false,"is_disabled":false,"rental_uris":{"android":"levelo://app?vid=b985c20c-329e-4ccd-8f06-e9e7c8101ef5","ios":"levelo://app?vid=b985c20c-329e-4ccd-8f06-e9e7c8101ef5"},"vehicle_type_id":"4","last_reported":1692216432,"current_range_meters":4000,"station_id":"ce4bh192rcd13ifvqdb0","pricing_plan_id":"free"},{"bike_id":"cd61c025-572e-43d1-9bd9-ec1051177868","system_id":"levelo_inurba_marseille","lat":43.300852,"lon":5.390859,"is_reserved":false,"is_disabled":false,"rental_uris":{"android":"levelo://app?vid=cd61c025-572e-43d1-9bd9-ec1051177868","ios":"levelo://app?vid=cd61c025-572e-43d1-9bd9-ec1051177868"},"vehicle_type_id":"4","last_reported":1692216432,"current_range_meters":9200,"station_id":"ce4bh192rcd13ifvqdb0","pricing_plan_id":"free"},{"bike_id":"8f2e67bb-f5c3-4f64-98a4-c95e53548460","system_id":"levelo_inurba_marseille","lat":43.300852,"lon":5.390859,"is_reserved":false,"is_disabled":false,"rental_uris":{"android":"levelo://app?vid=8f2e67bb-f5c3-4f64-98a4-c95e53548460","ios":"levelo://app?vid=8f2e67bb-f5c3-4f64-98a4-c95e53548460"},"vehicle_type_id":"4","last_reported":1692216432,"current_range_meters":3600,"station_id":"ce4bh192rcd13ifvqdb0","pricing_plan_id":"free"},{"bike_id":"da80e529-af14-485d-aa8b-8db226afc716","system_id":"levelo_inurba_marseille","lat":43.300852,"lon":5.390859,"is_reserved":false,"is_disabled":false,"rental_uris":{"android":"levelo://app?vid=da80e529-af14-485d-aa8b-8db226afc716","ios":"levelo://app?vid=da80e529-af14-485d-aa8b-8db226afc716"},"vehicle_type_id":"4","last_reported":1692216432,"current_range_meters":14000,"station_id":"ce4bh192rcd13ifvqdb0","pricing_plan_id":"free"},{"bike_id":"0e02c184-a2e4-4cbd-a57a-28a49e6cadbe","system_id":"levelo_inurba_marseille","lat":43.29888,"lon":5.38889,"is_reserved":false,"is_disabled":false,"rental_uris":{"android":"levelo://app?vid=0e02c184-a2e4-4cbd-a57a-28a49e6cadbe","ios":"levelo://app?vid=0e02c184-a2e4-4cbd-a57a-28a49e6cadbe"},"vehicle_type_id":"4","last_reported":1692216432,"current_range_meters":22800,"station_id":"ce4bh392rcd13ifvqdl0","pricing_plan_id":"free"},{"bike_id":"025c5cb4-1670-41a7-8947-b735b89194ff","system_id":"levelo_inurba_marseille","lat":43.298953,"lon":5.389013,"is_reserved":false,"is_disabled":false,"rental_uris":{"android":"levelo://app?vid=025c5cb4-1670-41a7-8947-b735b89194ff","ios":"levelo://app?vid=025c5cb4-1670-41a7-8947-b735b89194ff"},"vehicle_type_id":"4","last_reported":1692216432,"current_range_meters":7200,"station_id":"ce4bh392rcd13ifvqdl0","pricing_plan_id":"free"},{"bike_id":"09efb6ba-3aec-4760-b8e8-b52d49f5bc01","system_id":"levelo_inurba_marseille","lat":43.292663,"lon":5.376389,"is_reserved":false,"is_disabled":false,"rental_uris":{"android":"levelo://app?vid=09efb6ba-3aec-4760-b8e8-b52d49f5bc01","ios":"levelo://app?vid=09efb6ba-3aec-4760-b8e8-b52d49f5bc01"},"vehicle_type_id":"4","last_reported":1692216432,"current_range_meters":30800,"station_id":"ce4bgi12rcd13ifvqb80","pricing_plan_id":"free"},{"bike_id":"572bc75c-b38a-4cee-bc54-bec06c3569bd","system_id":"levelo_inurba_marseille","lat":43.29888,"lon":5.38901,"is_reserved":false,"is_disabled":false,"rental_uris":{"android":"levelo://app?vid=572bc75c-b38a-4cee-bc54-bec06c3569bd","ios":"levelo://app?vid=572bc75c-b38a-4cee-bc54-bec06c3569bd"},"vehicle_type_id":"4","last_reported":1692216432,"current_range_meters":30400,"station_id":"ce4bh392rcd13ifvqdl0","pricing_plan_id":"free"},{"bike_id":"7cf68528-4fba-4827-aa41-bb7fd4007837","system_id":"levelo_inurba_marseille","lat":43.29881,"lon":5.38896,"is_reserved":false,"is_disabled":false,"rental_uris":{"android":"levelo://app?vid=7cf68528-4fba-4827-aa41-bb7fd4007837","ios":"levelo://app?vid=7cf68528-4fba-4827-aa41-bb7fd4007837"},"vehicle_type_id":"4","last_reported":1692216432,"current_range_meters":24000,"station_id":"ce4bh392rcd13ifvqdl0","pricing_plan_id":"free"},{"bike_id":"85cce2ed-6265-4470-b4e9-7413fbb67254","system_id":"levelo_inurba_marseille","lat":43.298764,"lon":5.388973,"is_reserved":false,"is_disabled":false,"rental_uris":{"android":"levelo://app?vid=85cce2ed-6265-4470-b4e9-7413fbb67254","ios":"levelo://app?vid=85cce2ed-6265-4470-b4e9-7413fbb67254"},"vehicle_type_id":"4","last_reported":1692216432,"current_range_meters":14000,"station_id":"ce4bh392rcd13ifvqdl0","pricing_plan_id":"free"},{"bike_id":"193e00b4-fb1a-49c2-889a-b9cef07f52e6","system_id":"levelo_inurba_marseille","lat":43.29883,"lon":5.3891,"is_reserved":false,"is_disabled":false,"rental_uris":{"android":"levelo://app?vid=193e00b4-fb1a-49c2-889a-b9cef07f52e6","ios":"levelo://app?vid=193e00b4-fb1a-49c2-889a-b9cef07f52e6"},"vehicle_type_id":"4","last_reported":1692216432,"current_range_meters":7600,"station_id":"ce4bh392rcd13ifvqdl0","pricing_plan_id":"free"},{"bike_id":"1c7111ae-bbc7-4bc0-a3e1-7ec43d85a1a4","system_id":"levelo_inurba_marseille","lat":43.29881,"lon":5.38908,"is_reserved":false,"is_disabled":false,"rental_uris":{"android":"levelo://app?vid=1c7111ae-bbc7-4bc0-a3e1-7ec43d85a1a4","ios":"levelo://app?vid=1c7111ae-bbc7-4bc0-a3e1-7ec43d85a1a4"},"vehicle_type_id":"4","last_reported":1692216432,"current_range_meters":400,"station_id":"ce4bh392rcd13ifvqdl0","pricing_plan_id":"free"},{"bike_id":"a125a25b-073f-4c48-a3ef-8abedfc3ff70","system_id":"levelo_inurba_marseille","lat":43.29877,"lon":5.38904,"is_reserved":false,"is_disabled":false,"rental_uris":{"android":"levelo://app?vid=a125a25b-073f-4c48-a3ef-8abedfc3ff70","ios":"levelo://app?vid=a125a25b-073f-4c48-a3ef-8abedfc3ff70"},"vehicle_type_id":"4","last_reported":1692216432,"current_range_meters":13600,"station_id":"ce4bh392rcd13ifvqdl0","pricing_plan_id":"free"},{"bike_id":"321cc415-1c57-4878-b352-186cd48d47ef","system_id":"levelo_inurba_marseille","lat":43.29164,"lon":5.37137,"is_reserved":false,"is_disabled":false,"rental_uris":{"android":"levelo://app?vid=321cc415-1c57-4878-b352-186cd48d47ef","ios":"levelo://app?vid=321cc415-1c57-4878-b352-186cd48d47ef"},"vehicle_type_id":"4","last_reported":1692216432,"current_range_meters":12000,"station_id":"ce4bha92rcd13ifvqeh0","pricing_plan_id":"free"},{"bike_id":"0bf05c24-67f3-4d9e-a402-f978015fcfef","system_id":"levelo_inurba_marseille","lat":43.309038,"lon":5.396546,"is_reserved":false,"is_disabled":false,"rental_uris":{"android":"levelo://app?vid=0bf05c24-67f3-4d9e-a402-f978015fcfef","ios":"levelo://app?vid=0bf05c24-67f3-4d9e-a402-f978015fcfef"},"vehicle_type_id":"4","last_reported":1692216432,"current_range_meters":0,"station_id":"ce4bh012rcd13ifvqcv0","pricing_plan_id":"free"},{"bike_id":"dbf02e93-b162-4d28-a802-b896e236b20f","system_id":"levelo_inurba_marseille","lat":43.31325,"lon":5.39684,"is_reserved":false,"is_disabled":false,"rental_uris":{"android":"levelo://app?vid=dbf02e93-b162-4d28-a802-b896e236b20f","ios":"levelo://app?vid=dbf02e93-b162-4d28-a802-b896e236b20f"},"vehicle_type_id":"4","last_reported":1692216432,"current_range_meters":15600,"station_id":"ce4bgvp2rcd13ifvqcu0","pricing_plan_id":"free"},{"bike_id":"ef9f4dcb-f9b8-4ccf-b2ac-f898d71dc82e","system_id":"levelo_inurba_marseille","lat":43.313291,"lon":5.396838,"is_reserved":false,"is_disabled":false,"rental_uris":{"android":"levelo://app?vid=ef9f4dcb-f9b8-4ccf-b2ac-f898d71dc82e","ios":"levelo://app?vid=ef9f4dcb-f9b8-4ccf-b2ac-f898d71dc82e"},"vehicle_type_id":"4","last_reported":1692216432,"current_range_meters":7600,"station_id":"ce4bgvp2rcd13ifvqcu0","pricing_plan_id":"free"},{"bike_id":"0136dfd6-13d8-4865-a4df-5593a72944da","system_id":"levelo_inurba_marseille","lat":43.31324,"lon":5.39688,"is_reserved":false,"is_disabled":false,"rental_uris":{"android":"levelo://app?vid=0136dfd6-13d8-4865-a4df-5593a72944da","ios":"levelo://app?vid=0136dfd6-13d8-4865-a4df-5593a72944da"},"vehicle_type_id":"4","last_reported":1692216432,"current_range_meters":7200,"station_id":"ce4bgvp2rcd13ifvqcu0","pricing_plan_id":"free"},{"bike_id":"f0dd56b0-3706-4c12-945a-2f295b2e3ac5","system_id":"levelo_inurba_marseille","lat":43.31326,"lon":5.39688,"is_reserved":false,"is_disabled":false,"rental_uris":{"android":"levelo://app?vid=f0dd56b0-3706-4c12-945a-2f295b2e3ac5","ios":"levelo://app?vid=f0dd56b0-3706-4c12-945a-2f295b2e3ac5"},"vehicle_type_id":"4","last_reported":1692216432,"current_range_meters":16800,"station_id":"ce4bgvp2rcd13ifvqcu0","pricing_plan_id":"free"},{"bike_id":"8fd2c4e8-091a-48b4-9572-24f78b4ede30","system_id":"levelo_inurba_marseille","lat":43.309038,"lon":5.396546,"is_reserved":false,"is_disabled":false,"rental_uris":{"android":"levelo://app?vid=8fd2c4e8-091a-48b4-9572-24f78b4ede30","ios":"levelo://app?vid=8fd2c4e8-091a-48b4-9572-24f78b4ede30"},"vehicle_type_id":"4","last_reported":1692216432,"current_range_meters":29200,"station_id":"ce4bh012rcd13ifvqcv0","pricing_plan_id":"free"},{"bike_id":"56f4c0e9-fc60-4f46-bfa9-1896caec5ed9","system_id":"levelo_inurba_marseille","lat":43.313291,"lon":5.396838,"is_reserved":false,"is_disabled":false,"rental_uris":{"android":"levelo://app?vid=56f4c0e9-fc60-4f46-bfa9-1896caec5ed9","ios":"levelo://app?vid=56f4c0e9-fc60-4f46-bfa9-1896caec5ed9"},"vehicle_type_id":"4","last_reported":1692216432,"current_range_meters":21200,"station_id":"ce4bgvp2rcd13ifvqcu0","pricing_plan_id":"free"},{"bike_id":"fbfa8568-445c-49c1-826e-e15da3a2d4b5","system_id":"levelo_inurba_marseille","lat":43.313291,"lon":5.396838,"is_reserved":false,"is_disabled":false,"rental_uris":{"android":"levelo://app?vid=fbfa8568-445c-49c1-826e-e15da3a2d4b5","ios":"levelo://app?vid=fbfa8568-445c-49c1-826e-e15da3a2d4b5"},"vehicle_type_id":"4","last_reported":1692216432,"current_range_meters":16400,"station_id":"ce4bgvp2rcd13ifvqcu0","pricing_plan_id":"free"},{"bike_id":"1f56897c-accd-4b4e-8e9d-9c9e894f009e","system_id":"levelo_inurba_marseille","lat":43.30885,"lon":5.39646,"is_reserved":false,"is_disabled":false,"rental_uris":{"android":"levelo://app?vid=1f56897c-accd-4b4e-8e9d-9c9e894f009e","ios":"levelo://app?vid=1f56897c-accd-4b4e-8e9d-9c9e894f009e"},"vehicle_type_id":"4","last_reported":1692216432,"current_range_meters":800,"station_id":"ce4bh012rcd13ifvqcv0","pricing_plan_id":"free"},{"bike_id":"ceab0b2e-2228-4f33-a72b-4fbecdcaa552","system_id":"levelo_inurba_marseille","lat":43.309038,"lon":5.396546,"is_reserved":false,"is_disabled":false,"rental_uris":{"android":"levelo://app?vid=ceab0b2e-2228-4f33-a72b-4fbecdcaa552","ios":"levelo://app?vid=ceab0b2e-2228-4f33-a72b-4fbecdcaa552"},"vehicle_type_id":"4","last_reported":1692216432,"current_range_meters":0,"station_id":"ce4bh012rcd13ifvqcv0","pricing_plan_id":"free"},{"bike_id":"5cb69470-ace6-455f-96ca-682977a7d70e","system_id":"levelo_inurba_marseille","lat":43.29529,"lon":5.385581,"is_reserved":false,"is_disabled":false,"rental_uris":{"android":"levelo://app?vid=5cb69470-ace6-455f-96ca-682977a7d70e","ios":"levelo://app?vid=5cb69470-ace6-455f-96ca-682977a7d70e"},"vehicle_type_id":"4","last_reported":1692216432,"current_range_meters":28000,"station_id":"ce4bgih2rcd13ifvqba0","pricing_plan_id":"free"},{"bike_id":"bb71059a-0e9e-49eb-bedc-90c902a4388f","system_id":"levelo_inurba_marseille","lat":43.309038,"lon":5.396546,"is_reserved":false,"is_disabled":false,"rental_uris":{"android":"levelo://app?vid=bb71059a-0e9e-49eb-bedc-90c902a4388f","ios":"levelo://app?vid=bb71059a-0e9e-49eb-bedc-90c902a4388f"},"vehicle_type_id":"4","last_reported":1692216432,"current_range_meters":5200,"station_id":"ce4bh012rcd13ifvqcv0","pricing_plan_id":"free"},{"bike_id":"cccd5de1-ac40-4cfd-8cd3-45f67a8b74d3","system_id":"levelo_inurba_marseille","lat":43.29529,"lon":5.385581,"is_reserved":false,"is_disabled":false,"rental_uris":{"android":"levelo://app?vid=cccd5de1-ac40-4cfd-8cd3-45f67a8b74d3","ios":"levelo://app?vid=cccd5de1-ac40-4cfd-8cd3-45f67a8b74d3"},"vehicle_type_id":"4","last_reported":1692216432,"current_range_meters":18000,"station_id":"ce4bgih2rcd13ifvqba0","pricing_plan_id":"free"},{"bike_id":"e79b8f90-9970-4d87-9b47-c8845f1569f5","system_id":"levelo_inurba_marseille","lat":43.309038,"lon":5.396546,"is_reserved":false,"is_disabled":false,"rental_uris":{"android":"levelo://app?vid=e79b8f90-9970-4d87-9b47-c8845f1569f5","ios":"levelo://app?vid=e79b8f90-9970-4d87-9b47-c8845f1569f5"},"vehicle_type_id":"4","last_reported":1692216432,"current_range_meters":12000,"station_id":"ce4bh012rcd13ifvqcv0","pricing_plan_id":"free"},{"bike_id":"343724fa-0a06-4864-94c1-9c676931ca16","system_id":"levelo_inurba_marseille","lat":43.29529,"lon":5.385581,"is_reserved":false,"is_disabled":false,"rental_uris":{"android":"levelo://app?vid=343724fa-0a06-4864-94c1-9c676931ca16","ios":"levelo://app?vid=343724fa-0a06-4864-94c1-9c676931ca16"},"vehicle_type_id":"4","last_reported":1692216432,"current_range_meters":14400,"station_id":"ce4bgih2rcd13ifvqba0","pricing_plan_id":"free"},{"bike_id":"2838101f-864e-4813-be99-7a0e74317208","system_id":"levelo_inurba_marseille","lat":43.309038,"lon":5.396546,"is_reserved":false,"is_disabled":false,"rental_uris":{"android":"levelo://app?vid=2838101f-864e-4813-be99-7a0e74317208","ios":"levelo://app?vid=2838101f-864e-4813-be99-7a0e74317208"},"vehicle_type_id":"4","last_reported":1692216432,"current_range_meters":7600,"station_id":"ce4bh012rcd13ifvqcv0","pricing_plan_id":"free"},{"bike_id":"7a8f28d4-223f-45f9-b5f9-05d82de12435","system_id":"levelo_inurba_marseille","lat":43.29529,"lon":5.385581,"is_reserved":false,"is_disabled":false,"rental_uris":{"android":"levelo://app?vid=7a8f28d4-223f-45f9-b5f9-05d82de12435","ios":"levelo://app?vid=7a8f28d4-223f-45f9-b5f9-05d82de12435"},"vehicle_type_id":"4","last_reported":1692216432,"current_range_meters":30800,"station_id":"ce4bgih2rcd13ifvqba0","pricing_plan_id":"free"},{"bike_id":"490534aa-4980-4e52-804d-17f4b73c6da4","system_id":"levelo_inurba_marseille","lat":43.29529,"lon":5.385581,"is_reserved":false,"is_disabled":false,"rental_uris":{"android":"levelo://app?vid=490534aa-4980-4e52-804d-17f4b73c6da4","ios":"levelo://app?vid=490534aa-4980-4e52-804d-17f4b73c6da4"},"vehicle_type_id":"4","last_reported":1692216432,"current_range_meters":3600,"station_id":"ce4bgih2rcd13ifvqba0","pricing_plan_id":"free"},{"bike_id":"0195748a-0797-4798-b75b-1fd4621a7a6f","system_id":"levelo_inurba_marseille","lat":43.29529,"lon":5.385581,"is_reserved":false,"is_disabled":false,"rental_uris":{"android":"levelo://app?vid=0195748a-0797-4798-b75b-1fd4621a7a6f","ios":"levelo://app?vid=0195748a-0797-4798-b75b-1fd4621a7a6f"},"vehicle_type_id":"4","last_reported":1692216432,"current_range_meters":7200,"station_id":"ce4bgih2rcd13ifvqba0","pricing_plan_id":"free"},{"bike_id":"5cc47bd5-d1b3-47fa-a84c-8c6c3b536d3f","system_id":"levelo_inurba_marseille","lat":43.29529,"lon":5.385581,"is_reserved":false,"is_disabled":false,"rental_uris":{"android":"levelo://app?vid=5cc47bd5-d1b3-47fa-a84c-8c6c3b536d3f","ios":"levelo://app?vid=5cc47bd5-d1b3-47fa-a84c-8c6c3b536d3f"},"vehicle_type_id":"4","last_reported":1692216432,"current_range_meters":11200,"station_id":"ce4bgih2rcd13ifvqba0","pricing_plan_id":"free"},{"bike_id":"0deccfe8-9f32-40e9-8b22-411964f5ea7e","system_id":"levelo_inurba_marseille","lat":43.29529,"lon":5.385581,"is_reserved":false,"is_disabled":false,"rental_uris":{"android":"levelo://app?vid=0deccfe8-9f32-40e9-8b22-411964f5ea7e","ios":"levelo://app?vid=0deccfe8-9f32-40e9-8b22-411964f5ea7e"},"vehicle_type_id":"4","last_reported":1692216432,"current_range_meters":24400,"station_id":"ce4bgih2rcd13ifvqba0","pricing_plan_id":"free"},{"bike_id":"4015e505-6c52-4cb1-a736-d18f143ab2bf","system_id":"levelo_inurba_marseille","lat":43.29529,"lon":5.385581,"is_reserved":false,"is_disabled":false,"rental_uris":{"android":"levelo://app?vid=4015e505-6c52-4cb1-a736-d18f143ab2bf","ios":"levelo://app?vid=4015e505-6c52-4cb1-a736-d18f143ab2bf"},"vehicle_type_id":"4","last_reported":1692216432,"current_range_meters":26000,"station_id":"ce4bgih2rcd13ifvqba0","pricing_plan_id":"free"},{"bike_id":"46363548-fbe4-4371-9307-84afaf68802a","system_id":"levelo_inurba_marseille","lat":43.29529,"lon":5.385581,"is_reserved":false,"is_disabled":false,"rental_uris":{"android":"levelo://app?vid=46363548-fbe4-4371-9307-84afaf68802a","ios":"levelo://app?vid=46363548-fbe4-4371-9307-84afaf68802a"},"vehicle_type_id":"4","last_reported":1692216432,"current_range_meters":1200,"station_id":"ce4bgih2rcd13ifvqba0","pricing_plan_id":"free"},{"bike_id":"634b97b4-f290-42fa-8387-c3a1884bba38","system_id":"levelo_inurba_marseille","lat":43.294579,"lon":5.385636,"is_reserved":false,"is_disabled":false,"rental_uris":{"android":"levelo://app?vid=634b97b4-f290-42fa-8387-c3a1884bba38","ios":"levelo://app?vid=634b97b4-f290-42fa-8387-c3a1884bba38"},"vehicle_type_id":"4","last_reported":1692216432,"current_range_meters":11200,"station_id":"ce4bh2h2rcd13ifvqdh0","pricing_plan_id":"free"},{"bike_id":"354a4173-f761-4444-b3d7-d132c5481ec8","system_id":"levelo_inurba_marseille","lat":43.302008,"lon":5.394694,"is_reserved":false,"is_disabled":false,"rental_uris":{"android":"levelo://app?vid=354a4173-f761-4444-b3d7-d132c5481ec8","ios":"levelo://app?vid=354a4173-f761-4444-b3d7-d132c5481ec8"},"vehicle_type_id":"4","last_reported":1692216432,"current_range_meters":10000,"station_id":"ce4bh0p2rcd13ifvqd70","pricing_plan_id":"free"},{"bike_id":"859ae29a-2bbc-40a3-9aae-e6c48c495c61","system_id":"levelo_inurba_marseille","lat":43.290631,"lon":5.359244,"is_reserved":false,"is_disabled":false,"rental_uris":{"android":"levelo://app?vid=859ae29a-2bbc-40a3-9aae-e6c48c495c61","ios":"levelo://app?vid=859ae29a-2bbc-40a3-9aae-e6c48c495c61"},"vehicle_type_id":"4","last_reported":1692216432,"current_range_meters":27200,"station_id":"ce4bha92rcd13ifvqeg0","pricing_plan_id":"free"},{"bike_id":"cb8608f7-1784-4d38-87b8-28a201892cd4","system_id":"levelo_inurba_marseille","lat":43.29423,"lon":5.38614,"is_reserved":false,"is_disabled":false,"rental_uris":{"android":"levelo://app?vid=cb8608f7-1784-4d38-87b8-28a201892cd4","ios":"levelo://app?vid=cb8608f7-1784-4d38-87b8-28a201892cd4"},"vehicle_type_id":"4","last_reported":1692216432,"current_range_meters":23600,"station_id":"ce4bh2h2rcd13ifvqdh0","pricing_plan_id":"free"},{"bike_id":"01a5fadc-88a4-4cb7-ad61-46d49f8acd18","system_id":"levelo_inurba_marseille","lat":43.29421,"lon":5.38618,"is_reserved":false,"is_disabled":false,"rental_uris":{"android":"levelo://app?vid=01a5fadc-88a4-4cb7-ad61-46d49f8acd18","ios":"levelo://app?vid=01a5fadc-88a4-4cb7-ad61-46d49f8acd18"},"vehicle_type_id":"4","last_reported":1692216432,"current_range_meters":6800,"station_id":"ce4bh2h2rcd13ifvqdh0","pricing_plan_id":"free"},{"bike_id":"154269ed-6790-42d3-90a6-3728c91e2127","system_id":"levelo_inurba_marseille","lat":43.29418,"lon":5.38615,"is_reserved":false,"is_disabled":false,"rental_uris":{"android":"levelo://app?vid=154269ed-6790-42d3-90a6-3728c91e2127","ios":"levelo://app?vid=154269ed-6790-42d3-90a6-3728c91e2127"},"vehicle_type_id":"4","last_reported":1692216432,"current_range_meters":24000,"station_id":"ce4bh2h2rcd13ifvqdh0","pricing_plan_id":"free"},{"bike_id":"0ef68f54-1f25-4c7b-afe6-3089d655be4d","system_id":"levelo_inurba_marseille","lat":43.294162,"lon":5.386292,"is_reserved":false,"is_disabled":false,"rental_uris":{"android":"levelo://app?vid=0ef68f54-1f25-4c7b-afe6-3089d655be4d","ios":"levelo://app?vid=0ef68f54-1f25-4c7b-afe6-3089d655be4d"},"vehicle_type_id":"4","last_reported":1692216432,"current_range_meters":13200,"station_id":"ce4bh2h2rcd13ifvqdh0","pricing_plan_id":"free"},{"bike_id":"09a7ffe5-0111-4d0e-a167-61d770353be7","system_id":"levelo_inurba_marseille","lat":43.29417,"lon":5.38619,"is_reserved":false,"is_disabled":false,"rental_uris":{"android":"levelo://app?vid=09a7ffe5-0111-4d0e-a167-61d770353be7","ios":"levelo://app?vid=09a7ffe5-0111-4d0e-a167-61d770353be7"},"vehicle_type_id":"4","last_reported":1692216432,"current_range_meters":15200,"station_id":"ce4bh2h2rcd13ifvqdh0","pricing_plan_id":"free"},{"bike_id":"1a2e52fb-3940-4cd2-b91f-52ec46e708a5","system_id":"levelo_inurba_marseille","lat":43.294162,"lon":5.386292,"is_reserved":false,"is_disabled":false,"rental_uris":{"android":"levelo://app?vid=1a2e52fb-3940-4cd2-b91f-52ec46e708a5","ios":"levelo://app?vid=1a2e52fb-3940-4cd2-b91f-52ec46e708a5"},"vehicle_type_id":"4","last_reported":1692216432,"current_range_meters":14800,"station_id":"ce4bh2h2rcd13ifvqdh0","pricing_plan_id":"free"},{"bike_id":"fccddbf5-188f-4371-bd1f-01479556c955","system_id":"levelo_inurba_marseille","lat":43.294162,"lon":5.386292,"is_reserved":false,"is_disabled":false,"rental_uris":{"android":"levelo://app?vid=fccddbf5-188f-4371-bd1f-01479556c955","ios":"levelo://app?vid=fccddbf5-188f-4371-bd1f-01479556c955"},"vehicle_type_id":"4","last_reported":1692216432,"current_range_meters":9600,"station_id":"ce4bh2h2rcd13ifvqdh0","pricing_plan_id":"free"},{"bike_id":"5297be1d-4b91-4d04-8e0f-b504a47c16b2","system_id":"levelo_inurba_marseille","lat":43.294162,"lon":5.386292,"is_reserved":false,"is_disabled":false,"rental_uris":{"android":"levelo://app?vid=5297be1d-4b91-4d04-8e0f-b504a47c16b2","ios":"levelo://app?vid=5297be1d-4b91-4d04-8e0f-b504a47c16b2"},"vehicle_type_id":"4","last_reported":1692216432,"current_range_meters":22800,"station_id":"ce4bh2h2rcd13ifvqdh0","pricing_plan_id":"free"},{"bike_id":"1b19a3dc-fd1e-402d-9cac-b47340eaa3ff","system_id":"levelo_inurba_marseille","lat":43.294162,"lon":5.386292,"is_reserved":false,"is_disabled":false,"rental_uris":{"android":"levelo://app?vid=1b19a3dc-fd1e-402d-9cac-b47340eaa3ff","ios":"levelo://app?vid=1b19a3dc-fd1e-402d-9cac-b47340eaa3ff"},"vehicle_type_id":"4","last_reported":1692216432,"current_range_meters":25200,"station_id":"ce4bh2h2rcd13ifvqdh0","pricing_plan_id":"free"},{"bike_id":"4dab433b-a1e4-4486-9a22-dec663583f3a","system_id":"levelo_inurba_marseille","lat":43.294162,"lon":5.386292,"is_reserved":false,"is_disabled":false,"rental_uris":{"android":"levelo://app?vid=4dab433b-a1e4-4486-9a22-dec663583f3a","ios":"levelo://app?vid=4dab433b-a1e4-4486-9a22-dec663583f3a"},"vehicle_type_id":"4","last_reported":1692216432,"current_range_meters":6400,"station_id":"ce4bh2h2rcd13ifvqdh0","pricing_plan_id":"free"},{"bike_id":"58e64590-4bf9-4306-86b2-cedf71c7ca9a","system_id":"levelo_inurba_marseille","lat":43.289184,"lon":5.366408,"is_reserved":false,"is_disabled":false,"rental_uris":{"android":"levelo://app?vid=58e64590-4bf9-4306-86b2-cedf71c7ca9a","ios":"levelo://app?vid=58e64590-4bf9-4306-86b2-cedf71c7ca9a"},"vehicle_type_id":"4","last_reported":1692216432,"current_range_meters":29200,"station_id":"ce4bhap2rcd13ifvqek0","pricing_plan_id":"free"},{"bike_id":"df34144f-933f-4297-b881-39e8c7168cf8","system_id":"levelo_inurba_marseille","lat":43.294162,"lon":5.386292,"is_reserved":false,"is_disabled":false,"rental_uris":{"android":"levelo://app?vid=df34144f-933f-4297-b881-39e8c7168cf8","ios":"levelo://app?vid=df34144f-933f-4297-b881-39e8c7168cf8"},"vehicle_type_id":"4","last_reported":1692216432,"current_range_meters":15600,"station_id":"ce4bh2h2rcd13ifvqdh0","pricing_plan_id":"free"},{"bike_id":"8cc4acec-1ed5-4227-9ac1-29ab41b48bcf","system_id":"levelo_inurba_marseille","lat":43.294162,"lon":5.386292,"is_reserved":false,"is_disabled":false,"rental_uris":{"android":"levelo://app?vid=8cc4acec-1ed5-4227-9ac1-29ab41b48bcf","ios":"levelo://app?vid=8cc4acec-1ed5-4227-9ac1-29ab41b48bcf"},"vehicle_type_id":"4","last_reported":1692216432,"current_range_meters":2400,"station_id":"ce4bh2h2rcd13ifvqdh0","pricing_plan_id":"free"},{"bike_id":"8fccf1a6-9692-48a4-bdc8-dc2c595848c1","system_id":"levelo_inurba_marseille","lat":43.289184,"lon":5.366408,"is_reserved":false,"is_disabled":false,"rental_uris":{"android":"levelo://app?vid=8fccf1a6-9692-48a4-bdc8-dc2c595848c1","ios":"levelo://app?vid=8fccf1a6-9692-48a4-bdc8-dc2c595848c1"},"vehicle_type_id":"4","last_reported":1692216432,"current_range_meters":27600,"station_id":"ce4bhap2rcd13ifvqek0","pricing_plan_id":"free"},{"bike_id":"81816046-15d6-4b0b-abc1-c2c9e03461f2","system_id":"levelo_inurba_marseille","lat":43.29416,"lon":5.38633,"is_reserved":false,"is_disabled":false,"rental_uris":{"android":"levelo://app?vid=81816046-15d6-4b0b-abc1-c2c9e03461f2","ios":"levelo://app?vid=81816046-15d6-4b0b-abc1-c2c9e03461f2"},"vehicle_type_id":"4","last_reported":1692216432,"current_range_meters":13200,"station_id":"ce4bh2h2rcd13ifvqdh0","pricing_plan_id":"free"},{"bike_id":"9295873a-fb1c-447a-94be-e533fa02a69e","system_id":"levelo_inurba_marseille","lat":43.289184,"lon":5.366408,"is_reserved":false,"is_disabled":false,"rental_uris":{"android":"levelo://app?vid=9295873a-fb1c-447a-94be-e533fa02a69e","ios":"levelo://app?vid=9295873a-fb1c-447a-94be-e533fa02a69e"},"vehicle_type_id":"4","last_reported":1692216432,"current_range_meters":31200,"station_id":"ce4bhap2rcd13ifvqek0","pricing_plan_id":"free"},{"bike_id":"763ff14b-4c2a-48ae-a9ce-c3055c1edd1b","system_id":"levelo_inurba_marseille","lat":43.289184,"lon":5.366408,"is_reserved":false,"is_disabled":false,"rental_uris":{"android":"levelo://app?vid=763ff14b-4c2a-48ae-a9ce-c3055c1edd1b","ios":"levelo://app?vid=763ff14b-4c2a-48ae-a9ce-c3055c1edd1b"},"vehicle_type_id":"4","last_reported":1692216432,"current_range_meters":28800,"station_id":"ce4bhap2rcd13ifvqek0","pricing_plan_id":"free"},{"bike_id":"d782e620-a33d-4cc8-9b80-bb52e80bb283","system_id":"levelo_inurba_marseille","lat":43.289184,"lon":5.366408,"is_reserved":false,"is_disabled":false,"rental_uris":{"android":"levelo://app?vid=d782e620-a33d-4cc8-9b80-bb52e80bb283","ios":"levelo://app?vid=d782e620-a33d-4cc8-9b80-bb52e80bb283"},"vehicle_type_id":"4","last_reported":1692216432,"current_range_meters":2400,"station_id":"ce4bhap2rcd13ifvqek0","pricing_plan_id":"free"},{"bike_id":"2342b34c-7ebd-4f4e-affb-7c00a5e36b62","system_id":"levelo_inurba_marseille","lat":43.292642,"lon":5.384254,"is_reserved":false,"is_disabled":false,"rental_uris":{"android":"levelo://app?vid=2342b34c-7ebd-4f4e-affb-7c00a5e36b62","ios":"levelo://app?vid=2342b34c-7ebd-4f4e-affb-7c00a5e36b62"},"vehicle_type_id":"4","last_reported":1692216432,"current_range_meters":7200,"station_id":"ce4bh692rcd13ifvqea0","pricing_plan_id":"free"},{"bike_id":"7f456a6d-017b-43f4-bc30-d668d2da8c81","system_id":"levelo_inurba_marseille","lat":43.292644,"lon":5.384257,"is_reserved":false,"is_disabled":false,"rental_uris":{"android":"levelo://app?vid=7f456a6d-017b-43f4-bc30-d668d2da8c81","ios":"levelo://app?vid=7f456a6d-017b-43f4-bc30-d668d2da8c81"},"vehicle_type_id":"4","last_reported":1692216432,"current_range_meters":14400,"station_id":"ce4bh692rcd13ifvqea0","pricing_plan_id":"free"},{"bike_id":"c3f12f8c-4b1b-498c-bed8-9544d7dcbf51","system_id":"levelo_inurba_marseille","lat":43.292642,"lon":5.384254,"is_reserved":false,"is_disabled":false,"rental_uris":{"android":"levelo://app?vid=c3f12f8c-4b1b-498c-bed8-9544d7dcbf51","ios":"levelo://app?vid=c3f12f8c-4b1b-498c-bed8-9544d7dcbf51"},"vehicle_type_id":"4","last_reported":1692216432,"current_range_meters":28000,"station_id":"ce4bh692rcd13ifvqea0","pricing_plan_id":"free"},{"bike_id":"e65b41d9-8e93-4b88-99a5-3242f5685d40","system_id":"levelo_inurba_marseille","lat":43.292644,"lon":5.384257,"is_reserved":false,"is_disabled":false,"rental_uris":{"android":"levelo://app?vid=e65b41d9-8e93-4b88-99a5-3242f5685d40","ios":"levelo://app?vid=e65b41d9-8e93-4b88-99a5-3242f5685d40"},"vehicle_type_id":"4","last_reported":1692216432,"current_range_meters":22800,"station_id":"ce4bh692rcd13ifvqea0","pricing_plan_id":"free"},{"bike_id":"7affd44e-67aa-4ecf-a110-2637b90c3fec","system_id":"levelo_inurba_marseille","lat":43.292644,"lon":5.384257,"is_reserved":false,"is_disabled":false,"rental_uris":{"android":"levelo://app?vid=7affd44e-67aa-4ecf-a110-2637b90c3fec","ios":"levelo://app?vid=7affd44e-67aa-4ecf-a110-2637b90c3fec"},"vehicle_type_id":"4","last_reported":1692216432,"current_range_meters":13200,"station_id":"ce4bh692rcd13ifvqea0","pricing_plan_id":"free"},{"bike_id":"cff1b22e-adbf-4448-a9a5-ec983c6778a4","system_id":"levelo_inurba_marseille","lat":43.292642,"lon":5.384254,"is_reserved":false,"is_disabled":false,"rental_uris":{"android":"levelo://app?vid=cff1b22e-adbf-4448-a9a5-ec983c6778a4","ios":"levelo://app?vid=cff1b22e-adbf-4448-a9a5-ec983c6778a4"},"vehicle_type_id":"4","last_reported":1692216432,"current_range_meters":30800,"station_id":"ce4bh692rcd13ifvqea0","pricing_plan_id":"free"},{"bike_id":"a9e8fe79-98f8-425a-921f-601935641af4","system_id":"levelo_inurba_marseille","lat":43.292642,"lon":5.384254,"is_reserved":false,"is_disabled":false,"rental_uris":{"android":"levelo://app?vid=a9e8fe79-98f8-425a-921f-601935641af4","ios":"levelo://app?vid=a9e8fe79-98f8-425a-921f-601935641af4"},"vehicle_type_id":"4","last_reported":1692216432,"current_range_meters":29200,"station_id":"ce4bh692rcd13ifvqea0","pricing_plan_id":"free"},{"bike_id":"b7bd393c-1f0a-40c9-bc14-e7c212cb1e56","system_id":"levelo_inurba_marseille","lat":43.292642,"lon":5.384254,"is_reserved":false,"is_disabled":false,"rental_uris":{"android":"levelo://app?vid=b7bd393c-1f0a-40c9-bc14-e7c212cb1e56","ios":"levelo://app?vid=b7bd393c-1f0a-40c9-bc14-e7c212cb1e56"},"vehicle_type_id":"4","last_reported":1692216432,"current_range_meters":5600,"station_id":"ce4bh692rcd13ifvqea0","pricing_plan_id":"free"},{"bike_id":"753bab4a-fc2d-4c5b-8c1c-247e8000858c","system_id":"levelo_inurba_marseille","lat":43.292644,"lon":5.384257,"is_reserved":false,"is_disabled":false,"rental_uris":{"android":"levelo://app?vid=753bab4a-fc2d-4c5b-8c1c-247e8000858c","ios":"levelo://app?vid=753bab4a-fc2d-4c5b-8c1c-247e8000858c"},"vehicle_type_id":"4","last_reported":1692216432,"current_range_meters":4800,"station_id":"ce4bh692rcd13ifvqea0","pricing_plan_id":"free"},{"bike_id":"2d7c51ec-31e6-49da-8c41-423300d5e460","system_id":"levelo_inurba_marseille","lat":43.304292,"lon":5.397443,"is_reserved":false,"is_disabled":false,"rental_uris":{"android":"levelo://app?vid=2d7c51ec-31e6-49da-8c41-423300d5e460","ios":"levelo://app?vid=2d7c51ec-31e6-49da-8c41-423300d5e460"},"vehicle_type_id":"4","last_reported":1692216432,"current_range_meters":25600,"station_id":"ce4bh092rcd13ifvqd20","pricing_plan_id":"free"},{"bike_id":"e8b65f3b-697e-4e95-9387-42ea264afe3d","system_id":"levelo_inurba_marseille","lat":43.29265,"lon":5.38436,"is_reserved":false,"is_disabled":false,"rental_uris":{"android":"levelo://app?vid=e8b65f3b-697e-4e95-9387-42ea264afe3d","ios":"levelo://app?vid=e8b65f3b-697e-4e95-9387-42ea264afe3d"},"vehicle_type_id":"4","last_reported":1692216432,"current_range_meters":25200,"station_id":"ce4bh692rcd13ifvqea0","pricing_plan_id":"free"},{"bike_id":"4125a3a4-5725-4292-8eca-e5a9fc07a426","system_id":"levelo_inurba_marseille","lat":43.292642,"lon":5.384254,"is_reserved":false,"is_disabled":false,"rental_uris":{"android":"levelo://app?vid=4125a3a4-5725-4292-8eca-e5a9fc07a426","ios":"levelo://app?vid=4125a3a4-5725-4292-8eca-e5a9fc07a426"},"vehicle_type_id":"4","last_reported":1692216432,"current_range_meters":22400,"station_id":"ce4bh692rcd13ifvqea0","pricing_plan_id":"free"},{"bike_id":"d186f0ac-a08d-4540-beba-2357ae48c961","system_id":"levelo_inurba_marseille","lat":43.292642,"lon":5.384254,"is_reserved":false,"is_disabled":false,"rental_uris":{"android":"levelo://app?vid=d186f0ac-a08d-4540-beba-2357ae48c961","ios":"levelo://app?vid=d186f0ac-a08d-4540-beba-2357ae48c961"},"vehicle_type_id":"4","last_reported":1692216432,"current_range_meters":11600,"station_id":"ce4bh692rcd13ifvqea0","pricing_plan_id":"free"},{"bike_id":"f235b6f0-78b9-4584-8758-255e1f99138d","system_id":"levelo_inurba_marseille","lat":43.292644,"lon":5.384257,"is_reserved":false,"is_disabled":false,"rental_uris":{"android":"levelo://app?vid=f235b6f0-78b9-4584-8758-255e1f99138d","ios":"levelo://app?vid=f235b6f0-78b9-4584-8758-255e1f99138d"},"vehicle_type_id":"4","last_reported":1692216432,"current_range_meters":800,"station_id":"ce4bh692rcd13ifvqea0","pricing_plan_id":"free"},{"bike_id":"32c4f1c3-0816-475a-95d8-9eb2537a9ee1","system_id":"levelo_inurba_marseille","lat":43.292644,"lon":5.384257,"is_reserved":false,"is_disabled":false,"rental_uris":{"android":"levelo://app?vid=32c4f1c3-0816-475a-95d8-9eb2537a9ee1","ios":"levelo://app?vid=32c4f1c3-0816-475a-95d8-9eb2537a9ee1"},"vehicle_type_id":"4","last_reported":1692216432,"current_range_meters":28000,"station_id":"ce4bh692rcd13ifvqea0","pricing_plan_id":"free"},{"bike_id":"79d2f74f-7f16-4eb0-8574-5df058e14864","system_id":"levelo_inurba_marseille","lat":43.304296,"lon":5.397513,"is_reserved":false,"is_disabled":false,"rental_uris":{"android":"levelo://app?vid=79d2f74f-7f16-4eb0-8574-5df058e14864","ios":"levelo://app?vid=79d2f74f-7f16-4eb0-8574-5df058e14864"},"vehicle_type_id":"4","last_reported":1692216432,"current_range_meters":2800,"station_id":"ce4bh092rcd13ifvqd20","pricing_plan_id":"free"},{"bike_id":"363854de-d1e8-47e6-8753-20b4d0997ea1","system_id":"levelo_inurba_marseille","lat":43.29259,"lon":5.38434,"is_reserved":false,"is_disabled":false,"rental_uris":{"android":"levelo://app?vid=363854de-d1e8-47e6-8753-20b4d0997ea1","ios":"levelo://app?vid=363854de-d1e8-47e6-8753-20b4d0997ea1"},"vehicle_type_id":"4","last_reported":1692216432,"current_range_meters":12800,"station_id":"","pricing_plan_id":"free"},{"bike_id":"a3292be5-c172-4725-a753-da56ed21dcfe","system_id":"levelo_inurba_marseille","lat":43.304296,"lon":5.397513,"is_reserved":false,"is_disabled":false,"rental_uris":{"android":"levelo://app?vid=a3292be5-c172-4725-a753-da56ed21dcfe","ios":"levelo://app?vid=a3292be5-c172-4725-a753-da56ed21dcfe"},"vehicle_type_id":"4","last_reported":1692216432,"current_range_meters":9600,"station_id":"ce4bh092rcd13ifvqd20","pricing_plan_id":"free"},{"bike_id":"79b33245-e9c3-49c0-8852-c0e09145d05f","system_id":"levelo_inurba_marseille","lat":43.292597,"lon":5.384416,"is_reserved":false,"is_disabled":false,"rental_uris":{"android":"levelo://app?vid=79b33245-e9c3-49c0-8852-c0e09145d05f","ios":"levelo://app?vid=79b33245-e9c3-49c0-8852-c0e09145d05f"},"vehicle_type_id":"4","last_reported":1692216432,"current_range_meters":29600,"station_id":"","pricing_plan_id":"free"},{"bike_id":"c4c409f0-1203-47d5-97c1-f7e6dc64eab3","system_id":"levelo_inurba_marseille","lat":43.29255,"lon":5.38442,"is_reserved":false,"is_disabled":false,"rental_uris":{"android":"levelo://app?vid=c4c409f0-1203-47d5-97c1-f7e6dc64eab3","ios":"levelo://app?vid=c4c409f0-1203-47d5-97c1-f7e6dc64eab3"},"vehicle_type_id":"4","last_reported":1692216432,"current_range_meters":4000,"station_id":"ce4bh692rcd13ifvqea0","pricing_plan_id":"free"},{"bike_id":"661ee436-4c0c-4bd8-ad7e-44b77cb9dac3","system_id":"levelo_inurba_marseille","lat":43.304296,"lon":5.397513,"is_reserved":false,"is_disabled":false,"rental_uris":{"android":"levelo://app?vid=661ee436-4c0c-4bd8-ad7e-44b77cb9dac3","ios":"levelo://app?vid=661ee436-4c0c-4bd8-ad7e-44b77cb9dac3"},"vehicle_type_id":"4","last_reported":1692216432,"current_range_meters":3200,"station_id":"ce4bh092rcd13ifvqd20","pricing_plan_id":"free"},{"bike_id":"859ece1b-eaf2-4429-915d-1d151e169e7f","system_id":"levelo_inurba_marseille","lat":43.33037,"lon":5.38919,"is_reserved":false,"is_disabled":false,"rental_uris":{"android":"levelo://app?vid=859ece1b-eaf2-4429-915d-1d151e169e7f","ios":"levelo://app?vid=859ece1b-eaf2-4429-915d-1d151e169e7f"},"vehicle_type_id":"4","last_reported":1692216432,"current_range_meters":18000,"station_id":"ce4bhr92rcd13ifvqhrg","pricing_plan_id":"free"},{"bike_id":"fb75b0dc-b7ef-4c5d-9fff-ba63e9728994","system_id":"levelo_inurba_marseille","lat":43.33038,"lon":5.38918,"is_reserved":false,"is_disabled":false,"rental_uris":{"android":"levelo://app?vid=fb75b0dc-b7ef-4c5d-9fff-ba63e9728994","ios":"levelo://app?vid=fb75b0dc-b7ef-4c5d-9fff-ba63e9728994"},"vehicle_type_id":"4","last_reported":1692216432,"current_range_meters":16000,"station_id":"ce4bhr92rcd13ifvqhrg","pricing_plan_id":"free"},{"bike_id":"4a35ae15-fe87-45a7-97a4-699c774e236a","system_id":"levelo_inurba_marseille","lat":43.33039,"lon":5.38917,"is_reserved":false,"is_disabled":false,"rental_uris":{"android":"levelo://app?vid=4a35ae15-fe87-45a7-97a4-699c774e236a","ios":"levelo://app?vid=4a35ae15-fe87-45a7-97a4-699c774e236a"},"vehicle_type_id":"4","last_reported":1692216432,"current_range_meters":4800,"station_id":"ce4bhr92rcd13ifvqhrg","pricing_plan_id":"free"},{"bike_id":"be005e4f-d207-40fd-bd99-241d744b2797","system_id":"levelo_inurba_marseille","lat":43.33044,"lon":5.3891,"is_reserved":false,"is_disabled":false,"rental_uris":{"android":"levelo://app?vid=be005e4f-d207-40fd-bd99-241d744b2797","ios":"levelo://app?vid=be005e4f-d207-40fd-bd99-241d744b2797"},"vehicle_type_id":"4","last_reported":1692216432,"current_range_meters":15200,"station_id":"ce4bhr92rcd13ifvqhrg","pricing_plan_id":"free"},{"bike_id":"7afdd38a-3f3b-4278-b4fd-a86234087abd","system_id":"levelo_inurba_marseille","lat":43.33044,"lon":5.38911,"is_reserved":false,"is_disabled":false,"rental_uris":{"android":"levelo://app?vid=7afdd38a-3f3b-4278-b4fd-a86234087abd","ios":"levelo://app?vid=7afdd38a-3f3b-4278-b4fd-a86234087abd"},"vehicle_type_id":"4","last_reported":1692216432,"current_range_meters":19200,"station_id":"ce4bhr92rcd13ifvqhrg","pricing_plan_id":"free"},{"bike_id":"96ead541-9c33-4112-927f-93c74ea92183","system_id":"levelo_inurba_marseille","lat":43.33041,"lon":5.38918,"is_reserved":false,"is_disabled":false,"rental_uris":{"android":"levelo://app?vid=96ead541-9c33-4112-927f-93c74ea92183","ios":"levelo://app?vid=96ead541-9c33-4112-927f-93c74ea92183"},"vehicle_type_id":"4","last_reported":1692216432,"current_range_meters":28800,"station_id":"ce4bhr92rcd13ifvqhrg","pricing_plan_id":"free"},{"bike_id":"bbf0e170-b5c8-4b2e-9eec-645428d3c188","system_id":"levelo_inurba_marseille","lat":43.33042,"lon":5.38917,"is_reserved":false,"is_disabled":false,"rental_uris":{"android":"levelo://app?vid=bbf0e170-b5c8-4b2e-9eec-645428d3c188","ios":"levelo://app?vid=bbf0e170-b5c8-4b2e-9eec-645428d3c188"},"vehicle_type_id":"4","last_reported":1692216432,"current_range_meters":1200,"station_id":"ce4bhr92rcd13ifvqhrg","pricing_plan_id":"free"},{"bike_id":"ca420c02-7b3c-4340-963d-964224bd400d","system_id":"levelo_inurba_marseille","lat":43.33046,"lon":5.38912,"is_reserved":false,"is_disabled":false,"rental_uris":{"android":"levelo://app?vid=ca420c02-7b3c-4340-963d-964224bd400d","ios":"levelo://app?vid=ca420c02-7b3c-4340-963d-964224bd400d"},"vehicle_type_id":"4","last_reported":1692216432,"current_range_meters":24000,"station_id":"ce4bhr92rcd13ifvqhrg","pricing_plan_id":"free"},{"bike_id":"3ce8523f-9c43-4075-9c00-f6c8d866ed58","system_id":"levelo_inurba_marseille","lat":43.330461,"lon":5.389119,"is_reserved":false,"is_disabled":false,"rental_uris":{"android":"levelo://app?vid=3ce8523f-9c43-4075-9c00-f6c8d866ed58","ios":"levelo://app?vid=3ce8523f-9c43-4075-9c00-f6c8d866ed58"},"vehicle_type_id":"4","last_reported":1692216432,"current_range_meters":13600,"station_id":"ce4bhr92rcd13ifvqhrg","pricing_plan_id":"free"},{"bike_id":"2f0a0ac7-6e1a-4328-a504-4e02f95ee392","system_id":"levelo_inurba_marseille","lat":43.33042,"lon":5.38919,"is_reserved":false,"is_disabled":false,"rental_uris":{"android":"levelo://app?vid=2f0a0ac7-6e1a-4328-a504-4e02f95ee392","ios":"levelo://app?vid=2f0a0ac7-6e1a-4328-a504-4e02f95ee392"},"vehicle_type_id":"4","last_reported":1692216432,"current_range_meters":20800,"station_id":"ce4bhr92rcd13ifvqhrg","pricing_plan_id":"free"},{"bike_id":"454b0b4f-dc87-4e03-ac2a-cf0617f16bff","system_id":"levelo_inurba_marseille","lat":43.33042,"lon":5.3892,"is_reserved":false,"is_disabled":false,"rental_uris":{"android":"levelo://app?vid=454b0b4f-dc87-4e03-ac2a-cf0617f16bff","ios":"levelo://app?vid=454b0b4f-dc87-4e03-ac2a-cf0617f16bff"},"vehicle_type_id":"4","last_reported":1692216432,"current_range_meters":12400,"station_id":"ce4bhr92rcd13ifvqhrg","pricing_plan_id":"free"},{"bike_id":"d5578a77-3302-4d8a-ae9c-7edceb0f071e","system_id":"levelo_inurba_marseille","lat":43.33044,"lon":5.38917,"is_reserved":false,"is_disabled":false,"rental_uris":{"android":"levelo://app?vid=d5578a77-3302-4d8a-ae9c-7edceb0f071e","ios":"levelo://app?vid=d5578a77-3302-4d8a-ae9c-7edceb0f071e"},"vehicle_type_id":"4","last_reported":1692216432,"current_range_meters":24800,"station_id":"ce4bhr92rcd13ifvqhrg","pricing_plan_id":"free"},{"bike_id":"e184d9f0-8163-4a17-b3ea-e9518599abc7","system_id":"levelo_inurba_marseille","lat":43.33044,"lon":5.38917,"is_reserved":false,"is_disabled":false,"rental_uris":{"android":"levelo://app?vid=e184d9f0-8163-4a17-b3ea-e9518599abc7","ios":"levelo://app?vid=e184d9f0-8163-4a17-b3ea-e9518599abc7"},"vehicle_type_id":"4","last_reported":1692216432,"current_range_meters":24800,"station_id":"ce4bhr92rcd13ifvqhrg","pricing_plan_id":"free"},{"bike_id":"01bb66e8-6fc1-4982-b9b2-af4dae23e37f","system_id":"levelo_inurba_marseille","lat":43.33044,"lon":5.38918,"is_reserved":false,"is_disabled":false,"rental_uris":{"android":"levelo://app?vid=01bb66e8-6fc1-4982-b9b2-af4dae23e37f","ios":"levelo://app?vid=01bb66e8-6fc1-4982-b9b2-af4dae23e37f"},"vehicle_type_id":"4","last_reported":1692216432,"current_range_meters":23200,"station_id":"ce4bhr92rcd13ifvqhrg","pricing_plan_id":"free"},{"bike_id":"75001701-ed95-4c4f-ae0f-256296c20192","system_id":"levelo_inurba_marseille","lat":43.33045,"lon":5.38918,"is_reserved":false,"is_disabled":false,"rental_uris":{"android":"levelo://app?vid=75001701-ed95-4c4f-ae0f-256296c20192","ios":"levelo://app?vid=75001701-ed95-4c4f-ae0f-256296c20192"},"vehicle_type_id":"4","last_reported":1692216432,"current_range_meters":4000,"station_id":"ce4bhr92rcd13ifvqhrg","pricing_plan_id":"free"},{"bike_id":"8ae0ce58-4162-4719-947c-e47cc63be26c","system_id":"levelo_inurba_marseille","lat":43.33046,"lon":5.38917,"is_reserved":false,"is_disabled":false,"rental_uris":{"android":"levelo://app?vid=8ae0ce58-4162-4719-947c-e47cc63be26c","ios":"levelo://app?vid=8ae0ce58-4162-4719-947c-e47cc63be26c"},"vehicle_type_id":"4","last_reported":1692216432,"current_range_meters":27200,"station_id":"ce4bhr92rcd13ifvqhrg","pricing_plan_id":"free"},{"bike_id":"569fb482-04ac-449f-b013-337617dfb7a0","system_id":"levelo_inurba_marseille","lat":43.33046,"lon":5.38919,"is_reserved":false,"is_disabled":false,"rental_uris":{"android":"levelo://app?vid=569fb482-04ac-449f-b013-337617dfb7a0","ios":"levelo://app?vid=569fb482-04ac-449f-b013-337617dfb7a0"},"vehicle_type_id":"4","last_reported":1692216432,"current_range_meters":20800,"station_id":"ce4bhr92rcd13ifvqhrg","pricing_plan_id":"free"},{"bike_id":"78f1a325-e5b4-4a72-bb0e-b29d3285ba24","system_id":"levelo_inurba_marseille","lat":43.29005,"lon":5.35611,"is_reserved":false,"is_disabled":false,"rental_uris":{"android":"levelo://app?vid=78f1a325-e5b4-4a72-bb0e-b29d3285ba24","ios":"levelo://app?vid=78f1a325-e5b4-4a72-bb0e-b29d3285ba24"},"vehicle_type_id":"4","last_reported":1692216432,"current_range_meters":31200,"station_id":"ce4bhb92rcd13ifvqen0","pricing_plan_id":"free"},{"bike_id":"bfa83017-58d0-4d13-8d94-3e0c8632f228","system_id":"levelo_inurba_marseille","lat":43.29789,"lon":5.3933,"is_reserved":false,"is_disabled":false,"rental_uris":{"android":"levelo://app?vid=bfa83017-58d0-4d13-8d94-3e0c8632f228","ios":"levelo://app?vid=bfa83017-58d0-4d13-8d94-3e0c8632f228"},"vehicle_type_id":"4","last_reported":1692216432,"current_range_meters":23600,"station_id":"chh1huq6cuj3fo74tm60","pricing_plan_id":"free"},{"bike_id":"72299867-c5ec-4e91-b22a-db34d3497482","system_id":"levelo_inurba_marseille","lat":43.2936,"lon":5.37835,"is_reserved":false,"is_disabled":false,"rental_uris":{"android":"levelo://app?vid=72299867-c5ec-4e91-b22a-db34d3497482","ios":"levelo://app?vid=72299867-c5ec-4e91-b22a-db34d3497482"},"vehicle_type_id":"4","last_reported":1692216432,"current_range_meters":7200,"station_id":"ce4bgjh2rcd13ifvqbf0","pricing_plan_id":"free"},{"bike_id":"f4a61caf-8079-4e85-a04a-3b4568c28f0c","system_id":"levelo_inurba_marseille","lat":43.29784,"lon":5.39336,"is_reserved":false,"is_disabled":false,"rental_uris":{"android":"levelo://app?vid=f4a61caf-8079-4e85-a04a-3b4568c28f0c","ios":"levelo://app?vid=f4a61caf-8079-4e85-a04a-3b4568c28f0c"},"vehicle_type_id":"4","last_reported":1692216432,"current_range_meters":22000,"station_id":"chh1huq6cuj3fo74tm60","pricing_plan_id":"free"},